time_ms,roll,pitch,yaw,x,y,z,reference_roll,reference_pitch,reference_yaw,reference_throttle,throttle_1,throttle_2,throttle_3,throttle_4,roll_predicted,pitch_predicted,yaw_predicted,roll_rate_predicted,pitch_rate_predicted,yaw_rate_predicted,value1,value2,value3,value4,value5,value6
348006,0.004028,0.000493,-0.002565,0.0,0.0,0.0,0.0,0.0,0.0,3.0,0.340571,0.314945,0.323709,0.322199,-0.0,-0.0,-0.0,0.0,0.0,0.0,0.023484,-0.0185,0.091072,0.021238,-0.01724,-8.3e-05
348026,0.00415,0.000494,-0.002565,0.0,0.0,0.0,0.0,0.0,0.0,3.0,0.340929,0.314837,0.324911,0.320699,-0.0,-0.0,-0.0,0.0,0.0,0.0,0.023609,-0.018728,0.091071,-2.5e-05,0.000183,1e-06
348046,0.00415,0.000616,-0.002565,0.0,0.0,0.0,0.0,0.0,0.0,3.0,0.339754,0.315501,0.323874,0.322372,-0.0,-0.0,-0.0,0.0,0.0,-0.0,0.023732,-0.018603,0.091176,-0.021135,-0.000101,-0.017237
348066,0.004028,0.000737,-0.002443,0.0,0.0,0.0,0.0,0.0,0.0,3.0,0.340162,0.315171,0.323353,0.322777,-0.0,-0.0,-0.0,0.0,0.0,-0.0,0.023627,-0.018519,0.091176,-0.003873,0.007561,0.003743
348086,0.004028,0.000859,-0.002321,0.0,0.0,0.0,0.0,0.0,0.0,3.0,0.340013,0.3143,0.325264,0.321854,-0.0,-0.0,-0.0,0.0,0.0,-0.0,0.023837,-0.018378,0.091193,-0.038321,0.003644,0.020985
348106,0.003906,0.000615,-0.002199,0.0,0.0,0.0,0.0,0.0,0.0,3.0,0.339662,0.316847,0.322678,0.322361,-0.0,-0.0,-0.0,0.0,0.0,-0.0,0.023485,-0.018466,0.09142,0.000189,-0.024709,0.003756
348126,0.003906,0.000736,-0.001955,0.0,0.0,0.0,0.0,0.0,0.0,3.0,0.339637,0.315706,0.323373,0.322802,-0.0,-0.0,-0.0,0.0,0.0,0.0,0.023487,-0.018501,0.091561,-5e-06,0.003754,-0.000116
348146,0.003662,0.000492,-0.001832,0.0,0.0,0.0,0.0,0.0,0.0,3.0,0.340468,0.316361,0.322777,0.321869,-0.0,-0.0,-0.0,0.0,-0.0,0.0,0.023258,-0.018589,0.091683,0.017362,-0.003752,0.020821
348166,0.00354,0.000369,-0.001588,0.0,0.0,0.0,0.0,0.0,0.0,3.0,0.339721,0.316953,0.32209,0.322782,-0.0,-0.0,-0.0,0.0,-0.0,0.0,0.023137,-0.01873,0.091928,-0.003601,0.000153,-0.000133
348186,0.003418,0.000491,-0.001466,0.0,0.0,0.0,0.0,0.0,0.0,3.0,0.339658,0.316812,0.322668,0.322409,-0.0,-0.0,-0.0,0.0,-0.0,0.0,0.02314,-0.018833,0.092049,-0.024824,0.017233,0.020794
348206,0.00354,0.000491,-0.001344,0.0,0.0,0.0,0.0,0.0,0.0,3.0,0.338231,0.318563,0.321919,0.322967,-0.0,-0.0,-0.0,0.0,-0.0,0.0,0.023122,-0.018939,0.092276,-0.021067,0.013465,0.003688
348226,0.00354,0.000612,-0.0011,0.0,0.0,0.0,0.0,0.0,0.0,3.0,0.337839,0.317071,0.322256,0.324503,-0.0,-0.0,-0.0,0.0,-0.0,-0.0,0.023226,-0.018624,0.092397,-0.017375,0.00353,0.003732
348246,0.00354,0.00049,-0.000978,0.0,0.0,0.0,0.0,0.0,0.0,3.0,0.338896,0.3175,0.32243,0.322791,-0.0,-0.0,-0.0,0.0,-0.0,0.0,0.023121,-0.018713,0.092537,0.021012,-0.02469,-0.000116
348266,0.003784,0.000734,-0.000978,0.0,0.0,0.0,0.0,0.0,0.0,3.0,0.338526,0.316735,0.322654,0.323707,-0.0,-0.0,-0.0,0.0,-0.0,0.0,0.023244,-0.018606,0.092659,0.020996,-0.000234,-0.000163
348286,0.003784,0.000612,-0.000856,0.0,0.0,0.0,0.0,0.0,0.0,3.0,0.338056,0.31784,0.321213,0.324559,-0.0,-0.0,-0.0,0.0,0.0,0.0,0.023242,-0.018485,0.092763,8.9e-05,-0.000163,0.003732
348306,0.00354,0.00049,-0.000733,0.0,0.0,0.0,0.0,0.0,0.0,3.0,0.339075,0.317083,0.322422,0.323014,-0.0,-0.0,-0.0,0.0,0.0,0.0,0.023242,-0.018609,0.092781,-4e-05,-0.020815,4e-05
348326,0.003418,0.00049,-0.000733,0.0,0.0,0.0,0.0,0.0,0.0,3.0,0.33867,0.317513,0.321902,0.323544,-0.0,-0.0,-0.0,0.0,0.0,0.0,0.02312,-0.018731,0.092904,0.000156,2.4e-05,-0.000157
348346,0.003418,0.000367,-0.000611,0.0,0.0,0.0,0.0,0.0,0.0,3.0,0.337957,0.31849,0.321458,0.323787,-0.0,-0.0,-0.0,0.0,0.0,0.0,0.02314,-0.018836,0.093027,-0.003799,0.017241,-0.000139
348366,0.003296,0.000245,-0.000611,0.0,0.0,0.0,0.0,0.0,0.0,3.0,0.338895,0.317542,0.32206,0.323119,-0.0,-0.0,-0.0,0.0,0.0,0.0,0.022998,-0.018835,0.093025,0.000159,-0.003709,7e-06
348386,0.003418,0.000489,-0.000489,0.0,0.0,0.0,0.0,0.0,0.0,3.0,0.337882,0.318122,0.321263,0.324419,-0.0,-0.0,-0.0,0.0,0.0,0.0,0.022857,-0.018853,0.093149,0.024971,5.3e-05,-0.000115
348406,0.00354,0.000367,-0.000367,0.0,0.0,0.0,0.0,0.0,0.0,3.0,0.337041,0.318211,0.320953,0.325522,-0.0,-0.0,-0.0,0.0,0.0,0.0,0.02298,-0.018626,0.093252,0.024794,-0.017399,0.003756
348426,0.003784,0.000489,-0.000245,0.0,0.0,0.0,0.0,0.0,0.0,3.0,0.337907,0.317511,0.322041,0.324217,-0.0,-0.0,-0.0,0.0,0.0,0.0,0.023103,-0.01875,0.093269,0.024795,0.00388,0.020964
348446,0.003906,0.000489,-0.000123,0.0,0.0,0.0,0.0,0.0,0.0,3.0,0.337868,0.317503,0.321873,0.324433,-0.0,-0.0,-0.0,0.0,0.0,-0.0,0.023385,-0.018608,0.093391,-0.004022,-0.000109,-2.3e-05
348466,0.004029,0.000733,-0.000124,0.0,0.0,0.0,0.0,0.0,0.0,3.0,0.337399,0.317903,0.321602,0.324806,-0.0,-0.0,-0.0,0.0,-0.0,-0.0,0.023488,-0.018628,0.093514,-0.000158,0.00389,-0.000165
348486,0.004029,0.000733,-0.000124,0.0,0.0,0.0,0.0,0.0,0.0,3.0,0.336115,0.318988,0.320978,0.325712,-0.0,-0.0,-0.0,0.0,-0.0,-0.0,0.023734,-0.018487,0.093618,-0.021238,-0.000164,0.00374
348506,0.004029,0.000855,-2e-06,0.0,0.0,0.0,0.0,0.0,0.0,3.0,0.336871,0.319106,0.320834,0.324946,-0.0,-0.0,-0.0,0.0,-0.0,-0.0,0.023609,-0.018611,0.093617,2.6e-05,0.021075,0.003848
348526,0.004029,0.000977,-2e-06,0.0,0.0,0.0,0.0,0.0,0.0,3.0,0.337339,0.317215,0.322015,0.325129,-0.0,-0.0,-0.0,0.0,-0.0,-0.0,0.023733,-0.01826,0.093634,-0.021083,0.003549,4e-06
348546,0.003784,0.00061,-1e-06,0.0,0.0,0.0,0.0,0.0,0.0,3.0,0.339187,0.31774,0.321824,0.322849,-0.0,-0.0,-0.0,0.0,-0.0,-0.0,0.023362,-0.018472,0.093511,-0.02072,-0.003659,0.0211
348566,0.003784,0.000733,-0.000123,0.0,0.0,0.0,0.0,0.0,0.0,3.0,0.338526,0.31758,0.32258,0.322957,-0.0,-0.0,-0.0,0.0,-0.0,-0.0,0.023366,-0.018734,0.093512,-0.000137,0.021237,4.5e-05
348586,0.00354,0.000489,-0.000245,0.0,0.0,0.0,0.0,0.0,0.0,3.0,0.339756,0.316632,0.322758,0.322389,-0.0,-0.0,-0.0,0.0,-0.0,-0.0,0.02326,-0.018591,0.093408,-0.024702,-0.024882,-0.003681
348606,0.003662,0.000611,-0.000245,0.0,0.0,0.0,0.0,0.0,0.0,3.0,0.338097,0.318093,0.322224,0.323267,-0.0,-0.0,-0.0,0.0,0.0,0.0,0.023245,-0.018836,0.093391,-0.021062,0.017262,-2.8e-05
348626,0.003784,0.000855,-0.000368,0.0,0.0,0.0,0.0,0.0,0.0,3.0,0.337827,0.31675,0.322672,0.324415,-0.0,-0.0,-0.0,0.0,0.0,0.0,0.023367,-0.018504,0.093391,0.020722,0.003592,-0.020989
348646,0.003906,0.000855,-0.00049,0.0,0.0,0.0,0.0,0.0,0.0,3.0,0.337674,0.316468,0.323227,0.324297,-0.0,-0.0,-0.0,0.0,0.0,0.0,0.023593,-0.018259,0.093268,0.003759,-0.017396,5.7e-05
348666,0.004395,0.0011,-0.000491,0.0,0.0,0.0,0.0,0.0,0.0,3.0,0.337562,0.316299,0.324129,0.323678,-0.0,-0.0,-0.0,0.0,0.0,0.0,0.02382,-0.018241,0.093145,0.007507,0.02089,0.000109
348686,0.004639,0.001222,-0.000613,0.0,0.0,0.0,0.0,0.0,0.0,3.0,0.338332,0.315141,0.324518,0.323591,-0.0,-0.0,-0.0,0.0,0.0,-0.0,0.024081,-0.017873,0.093021,0.024551,-0.000236,9.4e-05
348706,0.004761,0.001223,-0.000735,0.0,0.0,0.0,0.0,0.0,0.0,3.0,0.338996,0.315787,0.324195,0.322583,-0.0,-0.0,-0.0,0.0,0.0,-0.0,0.02422,-0.017999,0.092899,-2.2e-05,0.000159,0.000108
348726,0.004516,0.000979,-0.000979,0.0,0.0,0.0,0.0,0.0,0.0,3.0,0.339987,0.315898,0.323804,0.321806,-0.0,-0.0,-0.0,0.0,0.0,-0.0,0.024114,-0.018102,0.092778,-0.003778,-0.024658,-0.020808
348746,0.004272,0.000979,-0.001101,0.0,0.0,0.0,0.0,0.0,0.0,3.0,0.339845,0.316021,0.323059,0.322587,-0.0,-0.0,-0.0,0.0,0.0,-0.0,0.023869,-0.018242,0.092657,-0.003634,6.5e-05,-0.020951
348766,0.004028,0.001101,-0.001223,0.0,0.0,0.0,0.0,0.0,0.0,3.0,0.339563,0.31544,0.323325,0.323187,-0.0,-0.0,-0.0,0.0,0.0,-0.0,0.023748,-0.018136,0.092535,0.017237,0.00374,7e-06
348786,0.00415,0.000979,-0.001223,0.0,0.0,0.0,0.0,0.0,0.0,3.0,0.338346,0.316253,0.32296,0.32406,-0.0,-0.0,-0.0,0.0,0.0,-0.0,0.023731,-0.018014,0.092517,0.000179,-0.017204,-0.017051
348806,0.00415,0.001101,-0.001223,0.0,0.0,0.0,0.0,0.0,0.0,3.0,0.339113,0.315588,0.324002,0.322846,-0.0,-0.0,-0.0,0.0,-0.0,0.0,0.023712,-0.018119,0.092413,0.003829,0.021048,-2e-05
348826,0.00415,0.000979,-0.001223,0.0,0.0,0.0,0.0,0.0,0.0,3.0,0.339064,0.315942,0.32384,0.322717,-0.0,-0.0,-0.0,0.0,-0.0,-0.0,0.023731,-0.01812,0.092413,0.020973,0.000147,-1.2e-05
348846,0.004272,0.000979,-0.001223,0.0,0.0,0.0,0.0,0.0,0.0,3.0,0.339665,0.316381,0.323195,0.322294,-0.0,-0.0,-0.0,0.0,-0.0,0.0,0.023644,-0.018366,0.092414,0.034493,0.021261,-6e-05
348866,0.004394,0.000979,-0.001223,0.0,0.0,0.0,0.0,0.0,0.0,3.0,0.338668,0.315815,0.324282,0.322819,-0.0,-0.0,-0.0,0.0,-0.0,0.0,0.023977,-0.018241,0.092413,-0.000173,0.020947,-4.6e-05
348886,0.004028,0.000857,-0.001223,0.0,0.0,0.0,0.0,0.0,0.0,3.0,0.338069,0.317899,0.322168,0.323542,-0.0,-0.0,-0.0,0.0,-0.0,-0.0,0.023852,-0.018347,0.092518,-0.020858,-0.003617,0.003748
348906,0.003906,0.000979,-0.001101,0.0,0.0,0.0,0.0,0.0,0.0,3.0,0.338109,0.316684,0.32277,0.324084,-0.0,-0.0,-0.0,0.0,-0.0,-0.0,0.023731,-0.01824,0.092517,-0.020912,0.020841,0.003858
348926,0.003784,0.000978,-0.000979,0.0,0.0,0.0,0.0,0.0,0.0,3.0,0.33882,0.316369,0.323352,0.323053,-0.0,-0.0,-0.0,0.0,-0.0,-0.0,0.023609,-0.018242,0.092535,-0.041863,7.2e-05,0.020997
348946,0.003662,0.000978,-0.000979,0.0,0.0,0.0,0.0,0.0,0.0,3.0,0.339546,0.315581,0.323986,0.322405,-0.0,-0.0,-0.0,0.0,-0.0,-0.0,0.023346,-0.018242,0.092534,0.0039,-3.8e-05,0.021059
348966,0.003662,0.000978,-0.000856,0.0,0.0,0.0,0.0,0.0,0.0,3.0,0.339071,0.316437,0.322939,0.323132,-0.0,-0.0,-0.0,0.0,-0.0,-0.0,0.023261,-0.018242,0.092658,0.017299,-0.020964,6e-06
348986,0.003784,0.000978,-0.000734,0.0,0.0,0.0,0.0,0.0,0.0,3.0,0.338163,0.316728,0.323074,0.323681,-0.0,-0.0,-0.0,0.0,0.0,0.0,0.023347,-0.018241,0.092781,-0.017109,-0.00014,-0.000149
349006,0.003906,0.000734,-0.000734,0.0,0.0,0.0,0.0,0.0,0.0,3.0,0.337744,0.316896,0.323164,0.323871,-0.0,-0.0,-0.0,0.0,0.0,0.0,0.023471,-0.018261,0.092903,-0.017367,-0.017137,-0.000116
349026,0.003784,0.000734,-0.000734,0.0,0.0,0.0,0.0,0.0,0.0,3.0,0.338398,0.316586,0.32328,0.323363,-0.0,-0.0,-0.0,0.0,0.0,0.0,0.023488,-0.018364,0.092902,0.020849,-0.020893,3.3e-05
349046,0.003906,0.000734,-0.000734,0.0,0.0,0.0,0.0,0.0,0.0,3.0,0.337202,0.318075,0.321844,0.324608,-0.0,-0.0,-0.0,0.0,0.0,0.0,0.023487,-0.018487,0.093007,0.000176,0.02099,0.00369
349066,0.003906,0.000856,-0.000612,0.0,0.0,0.0,0.0,0.0,0.0,3.0,0.33838,0.316302,0.32366,0.323277,-0.0,-0.0,-0.0,0.0,0.0,0.0,0.023611,-0.018345,0.092901,-0.000105,0.017112,0.021099
349086,0.003906,0.000978,-0.000612,0.0,0.0,0.0,0.0,0.0,0.0,3.0,0.339285,0.31638,0.323694,0.322201,-0.0,-0.0,-0.0,0.0,-0.0,-0.0,0.023486,-0.01847,0.092901,0.000144,0.038348,1.1e-05
349106,0.003906,0.0011,-0.000613,0.0,0.0,0.0,0.0,0.0,0.0,3.0,0.33958,0.315539,0.323796,0.3226,-0.0,-0.0,-0.0,0.0,-0.0,-0.0,0.023364,-0.018242,0.09292,0.042053,-2.7e-05,-0.00391
349126,0.003906,0.000978,-0.000612,0.0,0.0,0.0,0.0,0.0,0.0,3.0,0.338568,0.316862,0.322199,0.323991,-0.0,-0.0,-0.0,0.0,-0.0,-0.0,0.023382,-0.01812,0.093025,-0.003616,-0.021131,-0.000117
349146,0.004028,0.0011,-0.000613,0.0,0.0,0.0,0.0,0.0,0.0,3.0,0.337405,0.317642,0.321629,0.325027,-0.0,-0.0,-0.0,0.0,-0.0,-0.0,0.023365,-0.018119,0.093129,0.020914,-4.7e-05,-0.017255
349166,0.003906,0.0011,-0.000613,0.0,0.0,0.0,0.0,0.0,0.0,3.0,0.337074,0.317108,0.321903,0.325621,-0.0,-0.0,-0.0,0.0,-0.0,-0.0,0.023629,-0.017892,0.093128,-0.004017,-0.017359,0.003794
349186,0.004028,0.000978,-0.00049,0.0,0.0,0.0,0.0,0.0,0.0,3.0,0.337246,0.317768,0.322154,0.324553,-0.0,-0.0,-0.0,0.0,0.0,0.0,0.02361,-0.01814,0.093128,-0.02092,-0.016961,0.003935
349206,0.003906,0.000855,-0.000368,0.0,0.0,0.0,0.0,0.0,0.0,3.0,0.337861,0.317571,0.322822,0.323432,-0.0,-0.0,-0.0,0.0,0.0,0.0,0.02361,-0.018348,0.093146,-0.000126,0.017223,0.020942
349226,0.003784,0.000977,-0.000368,0.0,0.0,0.0,0.0,0.0,0.0,3.0,0.3384,0.317169,0.322003,0.324066,-0.0,-0.0,-0.0,0.0,0.0,-0.0,0.023382,-0.018384,0.093269,0.017394,0.024949,-8e-05
349246,0.003906,0.001099,-0.000368,0.0,0.0,0.0,0.0,0.0,0.0,3.0,0.338276,0.317218,0.322509,0.323647,-0.0,-0.0,-0.0,0.0,0.0,-0.0,0.023383,-0.018366,0.093268,0.017259,0.021062,-4.9e-05
349266,0.003662,0.000977,-0.000246,0.0,0.0,0.0,0.0,0.0,0.0,3.0,0.337502,0.318312,0.321377,0.324522,-0.0,-0.0,-0.0,0.0,0.0,-0.0,0.023364,-0.018206,0.093392,-0.041861,0.013213,-0.000112
349286,0.003784,0.001343,-0.000247,0.0,0.0,0.0,0.0,0.0,0.0,3.0,0.337821,0.317256,0.322595,0.324006,-0.0,-0.0,-0.0,0.0,0.0,-0.0,0.023225,-0.018244,0.09339,0.003728,0.021105,-3.9e-05
349306,0.003662,0.001099,-0.000124,0.0,0.0,0.0,0.0,0.0,0.0,3.0,0.337754,0.316837,0.322439,0.324638,-0.0,-0.0,-0.0,0.0,0.0,-0.0,0.023385,-0.017875,0.09339,-0.003982,-0.021351,0.021018
349326,0.003784,0.000977,-0.000124,0.0,0.0,0.0,0.0,0.0,0.0,3.0,0.337445,0.318001,0.322368,0.323904,-0.0,-0.0,-0.0,0.0,0.0,0.0,0.023366,-0.018246,0.093512,4.7e-05,0.000291,-2.4e-05
349346,0.003906,0.001221,-2e-06,0.0,0.0,0.0,0.0,0.0,0.0,3.0,0.336799,0.317102,0.323102,0.324729,-0.0,-0.0,-0.0,0.0,-0.0,0.0,0.023594,-0.01812,0.093512,0.003634,0.020819,0.020931
349366,0.003784,0.000976,0.00012,0.0,0.0,0.0,0.0,0.0,0.0,3.0,0.337548,0.318493,0.321591,0.324086,-0.0,-0.0,-0.0,0.0,-0.0,0.0,0.023363,-0.018228,0.093635,0.021253,-0.003685,0.020948
349386,0.003662,0.000854,0.000243,0.0,0.0,0.0,0.0,0.0,0.0,3.0,0.337181,0.318322,0.321949,0.324286,-0.0,-0.0,-0.0,0.0,-0.0,-0.0,0.023346,-0.018367,0.093757,0.003972,-0.020866,1.4e-05
349406,0.00354,0.000854,0.000243,0.0,0.0,0.0,0.0,0.0,0.0,3.0,0.337543,0.318396,0.320797,0.324969,-0.0,-0.0,-0.0,0.0,-0.0,0.0,0.023138,-0.018347,0.09388,-0.024547,-0.003972,-0.000139
349426,0.003296,0.000976,0.000365,0.0,0.0,0.0,0.0,0.0,0.0,3.0,0.337145,0.319015,0.320012,0.325553,-0.0,-0.0,-0.0,0.0,-0.0,0.0,0.022894,-0.018348,0.094003,-0.003753,0.017132,-0.000136
349446,0.003052,0.000854,0.000609,0.0,0.0,0.0,0.0,0.0,0.0,3.0,0.335891,0.32011,0.318159,0.327592,-0.0,-0.0,-0.0,0.0,-0.0,0.0,0.022649,-0.018121,0.094229,-0.024601,-0.021105,0.003667
349466,0.002808,0.000854,0.000731,0.0,0.0,0.0,0.0,0.0,0.0,3.0,0.335991,0.320148,0.319167,0.326478,-0.0,-0.0,-0.0,0.0,-0.0,0.0,0.02251,-0.018368,0.09435,-0.020997,0.000185,0.003743
349486,0.002808,0.000731,0.000976,0.0,0.0,0.0,0.0,0.0,0.0,3.0,0.335601,0.319702,0.320114,0.326397,-0.0,-0.0,-0.0,0.0,0.0,0.0,0.022494,-0.018367,0.094491,0.003754,-2e-06,-0.00011
349506,0.002564,0.000487,0.001098,0.0,0.0,0.0,0.0,0.0,0.0,3.0,0.336659,0.320607,0.319234,0.325268,-0.0,-0.0,-0.0,0.0,0.0,0.0,0.022283,-0.018718,0.094613,-0.003569,-0.00349,0.020825
349526,0.002564,0.000365,0.00122,0.0,0.0,0.0,0.0,0.0,0.0,3.0,0.335647,0.321061,0.318768,0.326331,-0.0,-0.0,-0.0,0.0,0.0,-0.0,0.022144,-0.018838,0.094858,0.000153,-0.003734,-0.000129
349546,0.002442,0.000242,0.001465,0.0,0.0,0.0,0.0,0.0,0.0,3.0,0.336249,0.321468,0.318079,0.325973,-0.0,-0.0,-0.0,0.0,0.0,-0.0,0.021916,-0.019084,0.094981,-0.003624,-0.00362,-0.000104
349566,0.002197,0.00012,0.001465,0.0,0.0,0.0,0.0,0.0,0.0,3.0,0.335131,0.321758,0.316973,0.327911,-0.0,-0.0,-0.0,0.0,0.0,-0.0,0.021795,-0.018977,0.095207,-0.003797,-0.021134,0.003599
349586,0.002198,0.000364,0.001709,0.0,0.0,0.0,0.0,0.0,0.0,3.0,0.334458,0.321201,0.317162,0.328963,-0.0,-0.0,-0.0,0.0,0.0,-0.0,0.021797,-0.01889,0.095329,-0.003837,0.007485,0.003773
349606,0.002076,0.000242,0.001831,0.0,0.0,0.0,0.0,0.0,0.0,3.0,0.335322,0.320962,0.319186,0.32636,-0.0,-0.0,-0.0,0.0,0.0,-0.0,0.021883,-0.018961,0.095345,-0.038215,-0.003717,0.020987
349626,0.00232,0.00073,0.001953,0.0,0.0,0.0,0.0,0.0,0.0,3.0,0.334444,0.320333,0.319611,0.327468,-0.0,-0.0,-0.0,0.0,0.0,-0.0,0.022008,-0.018873,0.095467,0.003588,0.024673,0.020921
349646,0.002442,0.000608,0.002075,0.0,0.0,0.0,0.0,0.0,0.0,3.0,0.334864,0.320961,0.318782,0.327227,-0.0,-0.0,-0.0,0.0,-0.0,-0.0,0.022024,-0.018593,0.095589,0.021004,-0.025088,0.020977
349666,0.002564,0.000608,0.002197,0.0,0.0,0.0,0.0,0.0,0.0,3.0,0.334632,0.320814,0.318988,0.327409,-0.0,-0.0,-0.0,0.0,-0.0,-0.0,0.022127,-0.018612,0.095711,0.024838,-0.00016,-3.1e-05
349686,0.002564,0.000241,0.002319,0.0,0.0,0.0,0.0,0.0,0.0,3.0,0.334639,0.321386,0.318177,0.327628,-0.0,-0.0,-0.0,0.0,-0.0,-0.0,0.022144,-0.018613,0.095834,0.021061,-0.041968,-0.000107
349706,0.002564,0.000241,0.002319,0.0,0.0,0.0,0.0,0.0,0.0,3.0,0.33453,0.321694,0.317891,0.327713,-0.0,-0.0,-0.0,0.0,-0.0,-0.0,0.022144,-0.018857,0.095956,8.5e-05,-0.04185,-0.000103
349726,0.002564,0.000241,0.002319,0.0,0.0,0.0,0.0,0.0,0.0,3.0,0.335284,0.321547,0.317869,0.327101,-0.0,-0.0,-0.0,0.0,-0.0,0.0,0.02204,-0.019102,0.095956,-0.003707,0.020979,-2.5e-05
349746,0.002198,0.000242,0.002319,0.0,0.0,0.0,0.0,0.0,0.0,3.0,0.334404,0.322076,0.316338,0.328951,-0.0,-0.0,-0.0,0.0,-0.0,0.0,0.021918,-0.018855,0.09606,-0.024756,-8.6e-05,-0.017239
349766,0.002076,0.000242,0.002319,0.0,0.0,0.0,0.0,0.0,0.0,3.0,0.335498,0.321641,0.317822,0.326832,-0.0,-0.0,-0.0,0.0,-0.0,0.0,0.021655,-0.019103,0.095956,0.000132,0.000268,2.5e-05
349786,0.001954,0.000364,0.002319,0.0,0.0,0.0,0.0,0.0,0.0,3.0,0.335092,0.320176,0.318049,0.328457,-0.0,-0.0,-0.0,0.0,0.0,0.0,0.021657,-0.018768,0.095956,-0.020965,0.007328,-2e-06
349806,0.001831,0.00012,0.00232,0.0,0.0,0.0,0.0,0.0,0.0,3.0,0.336593,0.320485,0.318865,0.325815,-0.0,-0.0,-0.0,0.0,0.0,0.0,0.021411,-0.01898,0.095851,0.000112,-0.020718,0.017263
349826,0.002075,0.00012,0.002198,0.0,0.0,0.0,0.0,0.0,0.0,3.0,0.335839,0.320563,0.318978,0.326415,-0.0,-0.0,-0.0,0.0,0.0,0.0,0.021412,-0.0191,0.095833,0.041944,-2.4e-05,8.2e-05
349846,0.002198,0.00012,0.002075,0.0,0.0,0.0,0.0,0.0,0.0,3.0,0.335123,0.321018,0.318661,0.32702,-0.0,-0.0,-0.0,0.0,0.0,0.0,0.021657,-0.0191,0.095834,0.020924,0.0,-0.020978
349866,0.00232,0.000242,0.001953,0.0,0.0,0.0,0.0,0.0,0.0,3.0,0.335584,0.320808,0.318463,0.326939,-0.0,-0.0,-0.0,0.0,0.0,0.0,0.021655,-0.0191,0.095712,0.02108,0.020951,-0.0
349886,0.002442,0.00012,0.001831,0.0,0.0,0.0,0.0,0.0,0.0,3.0,0.335268,0.320358,0.319564,0.326639,-0.0,-0.0,-0.0,0.0,-0.0,0.0,0.022025,-0.018978,0.095589,-0.042238,1.7e-05,0.000163
349906,0.002442,0.000242,0.001709,0.0,0.0,0.0,0.0,0.0,0.0,3.0,0.33566,0.320537,0.319485,0.326135,-0.0,-0.0,-0.0,0.0,-0.0,-0.0,0.022024,-0.019083,0.095467,-0.021222,0.017308,0.000139
349926,0.002564,0.000608,0.001586,0.0,0.0,0.0,0.0,0.0,0.0,3.0,0.336389,0.318699,0.32149,0.325204,-0.0,-0.0,-0.0,0.0,-0.0,-0.0,0.022271,-0.018978,0.095239,-0.021288,0.041916,0.01735
349946,0.00232,0.000487,0.001465,0.0,0.0,0.0,0.0,0.0,0.0,3.0,0.336875,0.318977,0.320628,0.325271,-0.0,-0.0,-0.0,0.0,-0.0,0.0,0.022145,-0.018734,0.095099,1.1e-05,-0.021068,0.000269
349966,0.00232,0.000365,0.001343,0.0,0.0,0.0,0.0,0.0,0.0,3.0,0.336664,0.319729,0.320638,0.324749,-0.0,-0.0,-0.0,0.0,-0.0,0.0,0.022004,-0.018961,0.094978,0.004057,0.017214,8.7e-05
349986,0.00232,0.000243,0.001221,0.0,0.0,0.0,0.0,0.0,0.0,3.0,0.337344,0.31821,0.321,0.325159,-0.0,-0.0,-0.0,0.0,0.0,0.0,0.021881,-0.018732,0.094874,0.003986,-0.021107,-0.003709
350006,0.002075,-1e-06,0.001221,0.0,0.0,0.0,0.0,0.0,0.0,3.0,0.337333,0.320127,0.319424,0.324845,-0.0,-0.0,-0.0,0.0,0.0,0.0,0.021672,-0.019083,0.094876,0.017336,-0.024528,-0.003817
350026,0.002197,0.000121,0.001221,0.0,0.0,0.0,0.0,0.0,0.0,3.0,0.336743,0.319717,0.319159,0.326122,-0.0,-0.0,-0.0,0.0,0.0,-0.0,0.021532,-0.019098,0.094857,0.000241,-8.8e-05,-0.0
350046,0.001953,-1e-06,0.001221,0.0,0.0,0.0,0.0,0.0,0.0,3.0,0.335624,0.321175,0.317761,0.327216,-0.0,-0.0,-0.0,0.0,0.0,-0.0,0.021552,-0.0191,0.094962,-0.024911,3.3e-05,-0.017242
350066,0.001953,0.000121,0.001221,0.0,0.0,0.0,0.0,0.0,0.0,3.0,0.335353,0.321464,0.317894,0.327086,-0.0,-0.0,-0.0,0.0,0.0,-0.0,0.021411,-0.019222,0.094962,-2.6e-05,0.000154,0.003757
350086,0.001831,0.000365,0.001343,0.0,0.0,0.0,0.0,0.0,0.0,3.0,0.336017,0.318699,0.320089,0.326961,-0.0,-0.0,-0.0,0.0,0.0,0.0,0.021659,-0.018889,0.094856,-0.021233,0.007297,0.02113
350106,0.001587,0.000121,0.001343,0.0,0.0,0.0,0.0,0.0,0.0,3.0,0.336617,0.320544,0.318415,0.326169,-0.0,-0.0,-0.0,0.0,0.0,0.0,0.021306,-0.018979,0.094979,-0.003563,-0.020857,-6e-06
350126,0.001587,0.000243,0.001465,0.0,0.0,0.0,0.0,0.0,0.0,3.0,0.334698,0.321297,0.317978,0.327843,-0.0,-0.0,-0.0,0.0,-0.0,0.0,0.021272,-0.018976,0.095084,-0.017086,-7.8e-05,0.003734
350146,0.001465,-0.000123,0.001587,0.0,0.0,0.0,0.0,0.0,0.0,3.0,0.335364,0.322398,0.31752,0.32652,-0.0,-0.0,-0.0,0.0,-0.0,-0.0,0.021044,-0.019187,0.095225,0.021085,-0.02845,-8.6e-05
350166,0.001343,-0.000367,0.00171,0.0,0.0,0.0,0.0,0.0,0.0,3.0,0.335923,0.322234,0.316636,0.32695,-0.0,-0.0,-0.0,0.0,-0.0,-0.0,0.020835,-0.019467,0.095347,0.013625,-0.020853,-9.3e-05
350186,0.001098,-0.000489,0.001832,0.0,0.0,0.0,0.0,0.0,0.0,3.0,0.335052,0.32248,0.316406,0.327828,-0.0,-0.0,-0.0,0.0,-0.0,-0.0,0.020819,-0.019588,0.095451,-0.045704,6.2e-05,0.003724
350206,0.000488,-0.000733,0.001954,0.0,0.0,0.0,0.0,0.0,0.0,3.0,0.336506,0.322436,0.316864,0.325925,-0.0,-0.0,-0.0,0.0,-0.0,0.0,0.020451,-0.019939,0.095468,-0.066661,-0.003408,0.020954
350226,0.000366,-0.000611,0.002076,0.0,0.0,0.0,0.0,0.0,0.0,3.0,0.335968,0.322346,0.316868,0.32657,-0.0,-0.0,-0.0,0.0,-0.0,0.0,0.020087,-0.020058,0.09559,-0.024735,0.017259,0.020938
350246,-0.000489,-0.000976,0.002197,0.0,0.0,0.0,0.0,0.0,0.0,3.0,0.336509,0.322197,0.316228,0.326767,-0.0,-0.0,-0.0,0.0,0.0,-0.0,0.019718,-0.019935,0.095712,-0.024596,-0.024861,-3.2e-05
350266,-0.000856,-0.001098,0.002319,0.0,0.0,0.0,0.0,0.0,0.0,3.0,0.336171,0.323464,0.315786,0.326294,-0.0,-0.0,-0.0,0.0,0.0,-0.0,0.019069,-0.020426,0.095835,-0.016485,-0.003423,-0.000169
350286,-0.001222,-0.001341,0.002319,0.0,0.0,0.0,0.0,0.0,0.0,3.0,0.336316,0.322695,0.315223,0.327436,-0.0,-0.0,-0.0,0.0,0.0,0.0,0.0186,-0.020317,0.095956,-0.020573,-0.042082,-0.000191
350306,-0.001711,-0.001585,0.00244,0.0,0.0,0.0,0.0,0.0,0.0,3.0,0.336205,0.324049,0.314102,0.327282,-0.0,-0.0,-0.0,0.0,0.0,0.0,0.018129,-0.020666,0.096079,-0.003471,-0.024652,-0.00013
350326,-0.001956,-0.001829,0.002562,0.0,0.0,0.0,0.0,0.0,0.0,3.0,0.336789,0.324216,0.313028,0.327523,-0.0,-0.0,-0.0,0.0,0.0,0.0,0.017535,-0.020928,0.0962,-0.007067,-0.020831,-0.000137
350346,-0.002811,-0.002316,0.002805,0.0,0.0,0.0,0.0,0.0,0.0,3.0,0.335495,0.326008,0.311177,0.328819,-0.0,-0.0,-0.0,0.0,0.0,-0.0,0.017169,-0.021153,0.096426,-0.049387,-0.024608,0.003542
350366,-0.003299,-0.002315,0.002926,0.0,0.0,0.0,0.0,0.0,0.0,3.0,0.335875,0.325476,0.311884,0.328296,-0.0,-0.0,-0.0,0.0,0.0,0.0,0.016522,-0.021537,0.096546,-0.041529,0.000404,0.003686
350386,-0.004032,-0.002557,0.003047,0.0,0.0,0.0,0.0,0.0,0.0,3.0,0.336878,0.324115,0.313014,0.327545,-0.0,-0.0,-0.0,0.0,0.0,0.0,0.016195,-0.021535,0.096563,-0.049528,-0.020862,0.02088
350406,-0.004766,-0.0028,0.00329,0.0,0.0,0.0,0.0,0.0,0.0,3.0,0.336542,0.325904,0.310243,0.328708,-0.0,-0.0,-0.0,0.0,0.0,0.0,0.015336,-0.021778,0.096788,-0.048927,-0.020706,0.003597
350426,-0.005377,-0.003043,0.00341,0.0,0.0,0.0,0.0,0.0,0.0,3.0,0.337212,0.32604,0.311006,0.32717,-0.0,-0.0,-0.0,0.0,0.0,-0.0,0.014566,-0.022249,0.096926,-0.041337,0.017601,-0.000173
350446,-0.005987,-0.003163,0.003531,0.0,0.0,0.0,0.0,0.0,0.0,3.0,0.337876,0.325589,0.309675,0.328163,-0.0,-0.0,-0.0,0.0,0.0,0.0,0.013747,-0.022263,0.097047,-0.007071,0.000204,0.020807
350466,-0.006599,-0.003528,0.003773,0.0,0.0,0.0,0.0,0.0,0.0,3.0,0.337347,0.327132,0.308583,0.328186,-0.0,-0.0,-0.0,0.0,0.0,0.0,0.013135,-0.02263,0.097289,-0.00709,0.00039,-0.000145
350486,-0.00721,-0.003526,0.004016,0.0,0.0,0.0,0.0,0.0,0.0,3.0,0.336746,0.327784,0.307124,0.329493,-0.0,-0.0,-0.0,0.0,0.0,-0.0,0.012524,-0.022729,0.097514,-0.028076,-0.003619,0.003512
350506,-0.007821,-0.00389,0.004136,0.0,0.0,0.0,0.0,0.0,0.0,3.0,0.336168,0.328504,0.306871,0.329601,-0.0,-0.0,-0.0,0.0,0.0,-0.0,0.012019,-0.02285,0.097757,-0.045538,-0.045568,0.003313
350526,-0.00831,-0.00401,0.004378,0.0,0.0,0.0,0.0,0.0,0.0,3.0,0.335425,0.329477,0.30603,0.330154,-0.0,-0.0,-0.0,0.0,0.0,0.0,0.011531,-0.023214,0.098,-0.045537,-0.00357,0.003515
350546,-0.008555,-0.004009,0.004622,0.0,0.0,0.0,0.0,0.0,0.0,3.0,0.33572,0.328433,0.307457,0.329599,-0.0,-0.0,-0.0,0.0,0.0,-0.0,0.011289,-0.023354,0.098138,-0.024762,0.021225,0.020903
350566,-0.009044,-0.004251,0.004864,0.0,0.0,0.0,0.0,0.0,0.0,3.0,0.335854,0.328861,0.306308,0.330077,-0.0,-0.0,-0.0,0.0,0.0,-0.0,0.010939,-0.023352,0.098381,-0.007434,0.000193,0.020826
350586,-0.009045,-0.004494,0.005107,0.0,0.0,0.0,0.0,0.0,0.0,3.0,0.335819,0.329057,0.30767,0.32868,-0.0,-0.0,-0.0,0.0,0.0,0.0,0.010639,-0.0237,0.0985,0.025117,-0.003435,0.020993
350606,-0.008801,-0.00425,0.005231,0.0,0.0,0.0,0.0,0.0,0.0,3.0,0.334616,0.328791,0.307781,0.330076,-0.0,-0.0,-0.0,0.0,0.0,0.0,0.010744,-0.023714,0.098745,0.007807,0.020948,-7.1e-05
350626,-0.00868,-0.004616,0.00523,0.0,0.0,0.0,0.0,0.0,0.0,3.0,0.335175,0.329448,0.307107,0.329463,-0.0,-0.0,-0.0,0.0,0.0,0.0,0.01078,-0.023679,0.098867,-1.7e-05,-0.007644,-0.000191
350646,-0.008679,-0.004494,0.00523,0.0,0.0,0.0,0.0,0.0,0.0,3.0,0.335224,0.329181,0.306075,0.330611,-0.0,-0.0,-0.0,0.0,0.0,0.0,0.010655,-0.023712,0.098989,0.021082,-0.000106,-0.021035
350666,-0.008557,-0.004372,0.005231,0.0,0.0,0.0,0.0,0.0,0.0,3.0,0.334789,0.328975,0.306491,0.330886,-0.0,-0.0,-0.0,0.0,0.0,-0.0,0.010779,-0.02359,0.09899,0.041871,-0.000222,9e-06
350686,-0.008557,-0.004494,0.005353,0.0,0.0,0.0,0.0,0.0,0.0,3.0,0.335299,0.328935,0.306318,0.330561,-0.0,-0.0,-0.0,0.0,0.0,-0.0,0.010938,-0.02361,0.09899,0.013361,0.003806,9.5e-05
350706,-0.008679,-0.004493,0.005352,0.0,0.0,0.0,0.0,0.0,0.0,3.0,0.335443,0.329024,0.307006,0.329703,-0.0,-0.0,-0.0,0.0,-0.0,0.0,0.011042,-0.023696,0.098989,-0.024849,-0.003616,-7.2e-05
350726,-0.008802,-0.004493,0.005352,0.0,0.0,0.0,0.0,0.0,0.0,3.0,0.336015,0.328813,0.306334,0.329936,-0.0,-0.0,-0.0,0.0,-0.0,0.0,0.010815,-0.023713,0.098988,-0.007548,2e-05,-1.7e-05
350746,-0.008679,-0.004493,0.005352,0.0,0.0,0.0,0.0,0.0,0.0,3.0,0.334869,0.32867,0.30718,0.330484,-0.0,-0.0,-0.0,0.0,-0.0,-0.0,0.010885,-0.02359,0.098989,-0.017289,2.9e-05,0.020935
350766,-0.009046,-0.004614,0.005473,0.0,0.0,0.0,0.0,0.0,0.0,3.0,0.336059,0.329156,0.306241,0.329634,-0.0,-0.0,-0.0,0.0,-0.0,-0.0,0.010673,-0.023856,0.098987,-0.00379,0.004214,0.021116
350786,-0.008802,-0.004371,0.005475,0.0,0.0,0.0,0.0,0.0,0.0,3.0,0.33543,0.328149,0.307757,0.329906,-0.0,-0.0,-0.0,0.0,-0.0,-0.0,0.010781,-0.023712,0.098987,-5.5e-05,0.020954,0.021151
350806,-0.008557,-0.004371,0.005475,0.0,0.0,0.0,0.0,0.0,0.0,3.0,0.335862,0.328287,0.308443,0.328699,-0.0,-0.0,-0.0,0.0,-0.0,-0.0,0.010884,-0.023696,0.099006,0.003731,-0.00378,-0.003764
350826,-0.008313,-0.004372,0.005476,0.0,0.0,0.0,0.0,0.0,0.0,3.0,0.335426,0.327997,0.308492,0.329391,-0.0,-0.0,-0.0,0.0,-0.0,-0.0,0.01113,-0.023591,0.099008,0.003583,-0.000185,-0.003883
350846,-0.008068,-0.004007,0.005356,0.0,0.0,0.0,0.0,0.0,0.0,3.0,0.334393,0.328875,0.306942,0.330979,-0.0,-0.0,-0.0,0.0,-0.0,0.0,0.01125,-0.023487,0.099113,0.024712,0.003576,-0.021063
350866,-0.008434,-0.004128,0.005354,0.0,0.0,0.0,0.0,0.0,0.0,3.0,0.334561,0.32928,0.305994,0.33126,-0.0,-0.0,-0.0,0.0,-0.0,0.0,0.011409,-0.023225,0.099115,-0.003926,-0.021361,-0.021155
350886,-0.008435,-0.00425,0.005354,0.0,0.0,0.0,0.0,0.0,0.0,3.0,0.335214,0.329361,0.306933,0.329668,-0.0,-0.0,-0.0,0.0,-0.0,0.0,0.011268,-0.023453,0.09899,0.000193,-0.003707,1e-05
350906,-0.008312,-0.004128,0.005355,0.0,0.0,0.0,0.0,0.0,0.0,3.0,0.334615,0.328517,0.307183,0.330891,-0.0,-0.0,-0.0,0.0,-0.0,-0.0,0.011393,-0.023224,0.098992,-0.02109,-0.021137,-0.000131
350926,-0.008313,-0.004372,0.005476,0.0,0.0,0.0,0.0,0.0,0.0,3.0,0.33477,0.329338,0.306582,0.330461,-0.0,-0.0,-0.0,0.0,-0.0,-0.0,0.01125,-0.023349,0.098991,0.003767,-0.020869,0.020895
350946,-0.008435,-0.004372,0.005475,0.0,0.0,0.0,0.0,0.0,0.0,3.0,0.334845,0.329803,0.305997,0.330448,-0.0,-0.0,-0.0,0.0,-0.0,-0.0,0.011126,-0.023593,0.099112,0.003952,0.00017,-1.4e-05
350966,-0.008435,-0.004249,0.005598,0.0,0.0,0.0,0.0,0.0,0.0,3.0,0.33373,0.329926,0.305411,0.33198,-0.0,-0.0,-0.0,0.0,-0.0,-0.0,0.011127,-0.023486,0.099236,0.024882,0.024632,4.7e-05
350986,-0.008557,-0.004249,0.005598,0.0,0.0,0.0,0.0,0.0,0.0,3.0,0.335114,0.32942,0.305465,0.331033,-0.0,-0.0,-0.0,0.0,-0.0,-0.0,0.01104,-0.023346,0.099235,0.017316,-0.020996,-5e-05
351006,-0.008313,-0.004249,0.00572,0.0,0.0,0.0,0.0,0.0,0.0,3.0,0.333907,0.331082,0.304727,0.331261,-0.0,-0.0,-0.0,0.0,-0.0,-0.0,0.011022,-0.023573,0.099357,0.000181,0.017265,-3.6e-05
351026,-0.008191,-0.004127,0.005721,0.0,0.0,0.0,0.0,0.0,0.0,3.0,0.334194,0.330173,0.305977,0.330758,-0.0,-0.0,-0.0,0.0,-0.0,0.0,0.011269,-0.023592,0.099356,-0.021227,0.021118,4.2e-05
351046,-0.008191,-0.004249,0.005721,0.0,0.0,0.0,0.0,0.0,0.0,3.0,0.334148,0.330075,0.306037,0.330849,-0.0,-0.0,-0.0,0.0,-0.0,0.0,0.011391,-0.02347,0.099357,-0.00035,-0.021043,-8.7e-05
351066,-0.008191,-0.004249,0.005721,0.0,0.0,0.0,0.0,0.0,0.0,3.0,0.334477,0.330372,0.305597,0.330614,-0.0,-0.0,-0.0,0.0,-0.0,0.0,0.011408,-0.023574,0.099357,-0.003852,-0.003854,-2.4e-05
351086,-0.008069,-0.004005,0.005722,0.0,0.0,0.0,0.0,0.0,0.0,3.0,0.334009,0.329585,0.306013,0.331498,-0.0,-0.0,-0.0,0.0,-0.0,0.0,0.011514,-0.023345,0.099358,-0.000111,-0.000268,-1e-06
351106,-0.007946,-0.004006,0.005722,0.0,0.0,0.0,0.0,0.0,0.0,3.0,0.333962,0.329934,0.305989,0.331221,-0.0,-0.0,-0.0,0.0,-0.0,0.0,0.011636,-0.023206,0.099358,-0.021092,-0.003936,-5.9e-05
351126,-0.007946,-0.003884,0.005723,0.0,0.0,0.0,0.0,0.0,0.0,3.0,0.333118,0.330398,0.306003,0.331598,-0.0,-0.0,-0.0,0.0,0.0,0.0,0.011721,-0.023226,0.09934,0.007432,-6e-06,0.003857
351146,-0.007946,-0.003884,0.005723,0.0,0.0,0.0,0.0,0.0,0.0,3.0,0.3353,0.328722,0.306826,0.330313,-0.0,-0.0,-0.0,0.0,0.0,0.0,0.011634,-0.023103,0.099254,0.021098,-0.00015,0.017285
351166,-0.007824,-0.004006,0.005722,0.0,0.0,0.0,0.0,0.0,0.0,3.0,0.335103,0.328794,0.307198,0.330106,-0.0,-0.0,-0.0,0.0,0.0,0.0,0.011758,-0.023105,0.099254,3e-05,-1.5e-05,-0.003757
351186,-0.007946,-0.003884,0.005601,0.0,0.0,0.0,0.0,0.0,0.0,3.0,0.335534,0.329244,0.306182,0.330136,-0.0,-0.0,-0.0,0.0,0.0,0.0,0.011652,-0.023227,0.099254,-0.003722,0.000153,-0.003897
351206,-0.007702,-0.003884,0.005723,0.0,0.0,0.0,0.0,0.0,0.0,3.0,0.334817,0.329335,0.305975,0.330963,-0.0,-0.0,-0.0,0.0,-0.0,-0.0,0.011654,-0.023103,0.099256,0.017195,0.020751,-0.003727
351226,-0.007825,-0.004128,0.005722,0.0,0.0,0.0,0.0,0.0,0.0,3.0,0.334185,0.331378,0.3045,0.330885,-0.0,-0.0,-0.0,0.0,-0.0,-0.0,0.011632,-0.023333,0.099359,-0.020943,-0.003428,-0.000216
351246,-0.008069,-0.004127,0.005721,0.0,0.0,0.0,0.0,0.0,0.0,3.0,0.333721,0.33001,0.305617,0.331722,-0.0,-0.0,-0.0,0.0,-0.0,-0.0,0.01174,-0.023243,0.099359,-0.017473,-0.017194,-0.000104
351266,-0.008191,-0.003882,0.005844,0.0,0.0,0.0,0.0,0.0,0.0,3.0,0.33374,0.331104,0.303424,0.332563,-0.0,-0.0,-0.0,0.0,-0.0,-0.0,0.011406,-0.023223,0.099481,0.017362,-0.021108,-0.000159
351286,-0.008312,-0.00376,0.005844,0.0,0.0,0.0,0.0,0.0,0.0,3.0,0.334175,0.330316,0.304516,0.331942,-0.0,-0.0,-0.0,0.0,-0.0,0.0,0.011408,-0.023101,0.099481,-0.00371,-0.000278,-7e-06
351306,-0.008312,-0.003638,0.005845,0.0,0.0,0.0,0.0,0.0,0.0,3.0,0.334575,0.330146,0.30407,0.332103,-0.0,-0.0,-0.0,0.0,-0.0,-0.0,0.011163,-0.022998,0.09948,0.01747,0.024605,0.000136
351326,-0.008312,-0.003516,0.005845,0.0,0.0,0.0,0.0,0.0,0.0,3.0,0.333968,0.330275,0.304673,0.332051,-0.0,-0.0,-0.0,0.0,0.0,0.0,0.011269,-0.022858,0.099481,9.6e-05,0.041921,0.000174
351346,-0.008068,-0.003639,0.005845,0.0,0.0,0.0,0.0,0.0,0.0,3.0,0.333514,0.330932,0.305111,0.331465,-0.0,-0.0,-0.0,0.0,0.0,0.0,0.011374,-0.022842,0.099482,0.00372,-0.003633,-8e-06
351366,-0.007945,-0.003517,0.005846,0.0,0.0,0.0,0.0,0.0,0.0,3.0,0.333735,0.331065,0.304778,0.331406,-0.0,-0.0,-0.0,0.0,0.0,0.0,0.011514,-0.022964,0.099481,-0.021139,-0.003671,-5.6e-05
351386,-0.007824,-0.003639,0.005846,0.0,0.0,0.0,0.0,0.0,0.0,3.0,0.333697,0.330091,0.30506,0.332162,-0.0,-0.0,-0.0,0.0,0.0,0.0,0.011637,-0.022754,0.099482,-0.000303,-0.01753,-0.021044
351406,-0.008068,-0.003639,0.005723,0.0,0.0,0.0,0.0,0.0,0.0,3.0,0.334686,0.329534,0.305189,0.331601,-0.0,-0.0,-0.0,0.0,0.0,-0.0,0.011654,-0.022755,0.09936,0.017035,-0.017266,-6e-05
351426,-0.007945,-0.003517,0.005846,0.0,0.0,0.0,0.0,0.0,0.0,3.0,0.333595,0.330497,0.305103,0.331824,-0.0,-0.0,-0.0,0.0,0.0,-0.0,0.011759,-0.02286,0.09936,-0.020843,0.021058,4.3e-05
351446,-0.007945,-0.003395,0.005725,0.0,0.0,0.0,0.0,0.0,0.0,3.0,0.333901,0.330073,0.305497,0.331586,-0.0,-0.0,-0.0,0.0,0.0,-0.0,0.011741,-0.022738,0.09936,-0.017215,2.6e-05,-7.9e-05
351466,-0.007945,-0.003517,0.005724,0.0,0.0,0.0,0.0,0.0,0.0,3.0,0.333866,0.329934,0.305441,0.331809,-0.0,-0.0,-0.0,0.0,0.0,-0.0,0.011741,-0.022615,0.09938,-0.01715,0.020849,-0.00379
351486,-0.007945,-0.003517,0.005724,0.0,0.0,0.0,0.0,0.0,0.0,3.0,0.33406,0.330967,0.304362,0.331547,-0.0,-0.0,-0.0,0.0,0.0,-0.0,0.011494,-0.02272,0.09936,0.024879,-0.024594,-5.3e-05
351506,-0.008066,-0.003273,0.005725,0.0,0.0,0.0,0.0,0.0,0.0,3.0,0.334096,0.33011,0.304113,0.332583,-0.0,-0.0,-0.0,0.0,0.0,-0.0,0.011531,-0.022632,0.099361,0.038259,0.024459,0.000163
351526,-0.007945,-0.003517,0.005724,0.0,0.0,0.0,0.0,0.0,0.0,3.0,0.334091,0.330564,0.304037,0.332205,-0.0,-0.0,-0.0,0.0,0.0,-0.0,0.011532,-0.022493,0.099361,0.017336,-0.021044,-5.4e-05
351546,-0.007701,-0.00364,0.005846,0.0,0.0,0.0,0.0,0.0,0.0,3.0,0.332988,0.332793,0.302578,0.332377,-0.0,-0.0,-0.0,0.0,0.0,-0.0,0.01153,-0.022985,0.099464,0.01725,0.000282,-0.017208
351566,-0.007701,-0.003396,0.005847,0.0,0.0,0.0,0.0,0.0,0.0,3.0,0.333145,0.330724,0.303892,0.333124,-0.0,-0.0,-0.0,0.0,0.0,-0.0,0.011758,-0.022754,0.099483,0.020814,0.024482,0.0
351586,-0.007946,-0.003761,0.005845,0.0,0.0,0.0,0.0,0.0,0.0,3.0,0.332913,0.333132,0.301723,0.332862,-0.0,-0.0,-0.0,0.0,0.0,0.0,0.011651,-0.022824,0.099587,-0.024646,-0.007396,0.003656
351606,-0.008189,-0.003394,0.005968,0.0,0.0,0.0,0.0,0.0,0.0,3.0,0.332669,0.33149,0.302582,0.333989,-0.0,-0.0,-0.0,0.0,0.0,0.0,0.011655,-0.022772,0.099586,-0.024934,0.007706,0.003874
351626,-0.008189,-0.003272,0.005969,0.0,0.0,0.0,0.0,0.0,0.0,3.0,0.333982,0.330397,0.304609,0.331972,-0.0,-0.0,-0.0,0.0,0.0,0.0,0.011657,-0.022596,0.099482,-0.045809,0.017198,0.021075
351646,-0.008312,-0.003515,0.005968,0.0,0.0,0.0,0.0,0.0,0.0,3.0,0.334332,0.330647,0.304831,0.331173,-0.0,-0.0,-0.0,0.0,0.0,0.0,0.011515,-0.022597,0.0995,-0.021135,-0.024595,0.01708
351666,-0.008312,-0.003515,0.005968,0.0,0.0,0.0,0.0,0.0,0.0,3.0,0.332653,0.331581,0.304082,0.332596,-0.0,-0.0,-0.0,0.0,0.0,-0.0,0.011478,-0.022736,0.099604,0.007644,-1e-06,-1.1e-05
351686,-0.00819,-0.003516,0.005968,0.0,0.0,0.0,0.0,0.0,0.0,3.0,0.332803,0.331037,0.304029,0.333035,-0.0,-0.0,-0.0,0.0,0.0,0.0,0.011477,-0.022631,0.099605,-0.013244,-0.017202,-9.4e-05
351706,-0.008312,-0.003515,0.005968,0.0,0.0,0.0,0.0,0.0,0.0,3.0,0.333689,0.331507,0.302967,0.332615,-0.0,-0.0,-0.0,0.0,0.0,0.0,0.011268,-0.022736,0.099604,0.021109,-3.8e-05,3.9e-05
351726,-0.00819,-0.003637,0.006089,0.0,0.0,0.0,0.0,0.0,0.0,3.0,0.333791,0.331424,0.303621,0.332019,-0.0,-0.0,-0.0,0.0,0.0,0.0,0.011268,-0.022859,0.099622,0.042146,0.02094,-0.003677
351746,-0.00819,-0.003515,0.00609,0.0,0.0,0.0,0.0,0.0,0.0,3.0,0.333092,0.332295,0.302326,0.332992,-0.0,-0.0,-0.0,0.0,0.0,-0.0,0.011267,-0.022839,0.099726,0.042216,0.017133,-9e-06
351766,-0.008069,-0.00376,0.006089,0.0,0.0,0.0,0.0,0.0,0.0,3.0,0.332794,0.332474,0.30149,0.33384,-0.0,-0.0,-0.0,0.0,0.0,0.0,0.011285,-0.022753,0.099849,0.017334,-0.017296,-0.021122
351786,-0.008069,-0.003759,0.006211,0.0,0.0,0.0,0.0,0.0,0.0,3.0,0.33251,0.33299,0.301735,0.333395,-0.0,-0.0,-0.0,0.0,0.0,0.0,0.01139,-0.02298,0.099849,-0.021109,-0.020725,-0.000212
351806,-0.008312,-0.003514,0.006212,0.0,0.0,0.0,0.0,0.0,0.0,3.0,0.333443,0.331772,0.3016,0.333795,-0.0,-0.0,-0.0,0.0,0.0,0.0,0.011304,-0.022873,0.099847,-0.007714,0.024681,0.021062
351826,-0.008435,-0.003636,0.006211,0.0,0.0,0.0,0.0,0.0,0.0,3.0,0.33287,0.331823,0.302698,0.333358,-0.0,-0.0,-0.0,0.0,0.0,-0.0,0.011392,-0.022754,0.099847,-0.042082,0.004039,0.021046
351846,-0.008557,-0.003758,0.00621,0.0,0.0,0.0,0.0,0.0,0.0,3.0,0.333071,0.332456,0.302424,0.332767,-0.0,-0.0,-0.0,0.0,0.0,-0.0,0.011288,-0.023,0.099846,-0.024901,0.004275,0.021075
351866,-0.008434,-0.003391,0.006334,0.0,0.0,0.0,0.0,0.0,0.0,3.0,0.332716,0.331545,0.302706,0.33378,-0.0,-0.0,-0.0,0.0,0.0,0.0,0.011271,-0.022732,0.099847,-0.020981,0.020906,0.021156
351886,-0.008435,-0.003635,0.006333,0.0,0.0,0.0,0.0,0.0,0.0,3.0,0.332296,0.332891,0.302219,0.333286,-0.0,-0.0,-0.0,0.0,0.0,0.0,0.011251,-0.022717,0.09997,-0.017227,-0.003698,-7.1e-05
351906,-0.008435,-0.003513,0.006456,0.0,0.0,0.0,0.0,0.0,0.0,3.0,0.33224,0.332964,0.302557,0.332971,-0.0,-0.0,-0.0,0.0,0.0,0.0,0.011232,-0.02298,0.099969,0.007665,0.021213,0.000103
351926,-0.008313,-0.003513,0.006456,0.0,0.0,0.0,0.0,0.0,0.0,3.0,0.33267,0.331809,0.302885,0.333407,-0.0,-0.0,-0.0,0.0,0.0,-0.0,0.011232,-0.022752,0.099969,0.007743,0.003634,-1.7e-05
351946,-0.008313,-0.003513,0.006456,0.0,0.0,0.0,0.0,0.0,0.0,3.0,0.332112,0.333418,0.301693,0.333401,-0.0,-0.0,-0.0,0.0,0.0,-0.0,0.011249,-0.022838,0.100093,0.024774,-0.02487,-0.021187
351966,-0.008069,-0.003636,0.006456,0.0,0.0,0.0,0.0,0.0,0.0,3.0,0.332398,0.332995,0.301584,0.333634,-0.0,-0.0,-0.0,0.0,0.0,0.0,0.011267,-0.022855,0.100092,0.042115,-0.000404,-0.021028
351986,-0.008069,-0.003636,0.006456,0.0,0.0,0.0,0.0,0.0,0.0,3.0,0.332796,0.333554,0.300709,0.333439,-0.0,-0.0,-0.0,0.0,0.0,0.0,0.011284,-0.022961,0.100092,0.017291,-0.003789,-0.000115
352006,-0.008069,-0.003636,0.006456,0.0,0.0,0.0,0.0,0.0,0.0,3.0,0.332646,0.33238,0.301217,0.334319,-0.0,-0.0,-0.0,0.0,-0.0,0.0,0.011409,-0.02275,0.100092,-0.003903,0.003585,7e-06
352026,-0.008191,-0.003636,0.006456,0.0,0.0,0.0,0.0,0.0,0.0,3.0,0.33261,0.332934,0.301199,0.333819,-0.0,-0.0,-0.0,0.0,-0.0,-0.0,0.01139,-0.022715,0.100092,-0.0211,-0.024696,-0.000141
352046,-0.008435,-0.003635,0.006455,0.0,0.0,0.0,0.0,0.0,0.0,3.0,0.331631,0.334013,0.29917,0.335462,-0.0,-0.0,-0.0,0.0,-0.0,0.0,0.011305,-0.022751,0.100197,-0.028742,-0.017106,0.003606
352066,-0.008434,-0.00339,0.006578,0.0,0.0,0.0,0.0,0.0,0.0,3.0,0.331624,0.332986,0.300611,0.335252,-0.0,-0.0,-0.0,0.0,-0.0,0.0,0.01127,-0.022627,0.100215,-0.021048,0.003716,2.7e-05
352086,-0.00868,-0.003756,0.006576,0.0,0.0,0.0,0.0,0.0,0.0,3.0,0.332281,0.33365,0.300492,0.334044,-0.0,-0.0,-0.0,0.0,-0.0,0.0,0.011165,-0.022734,0.100214,-0.003852,0.000214,0.020968
352106,-0.008558,-0.003756,0.006699,0.0,0.0,0.0,0.0,0.0,0.0,3.0,0.331621,0.333648,0.301664,0.333684,-0.0,-0.0,-0.0,0.0,-0.0,-0.0,0.011251,-0.022979,0.100212,-0.017185,0.000459,0.021075
352126,-0.008069,-0.003513,0.006701,0.0,0.0,0.0,0.0,0.0,0.0,3.0,0.331716,0.332359,0.302728,0.333947,-0.0,-0.0,-0.0,0.0,-0.0,0.0,0.011356,-0.022873,0.100213,0.02859,0.024609,0.00024
352146,-0.00807,-0.003757,0.0067,0.0,0.0,0.0,0.0,0.0,0.0,3.0,0.332525,0.333287,0.302196,0.332681,-0.0,-0.0,-0.0,0.0,-0.0,0.0,0.011493,-0.022962,0.100232,0.024788,-0.003741,-0.003856
352166,-0.00807,-0.00388,0.006577,0.0,0.0,0.0,0.0,0.0,0.0,3.0,0.332774,0.333366,0.301897,0.332615,-0.0,-0.0,-0.0,0.0,-0.0,0.0,0.011491,-0.023225,0.100231,0.004052,0.02116,-0.003796
352186,-0.008069,-0.003514,0.006578,0.0,0.0,0.0,0.0,0.0,0.0,3.0,0.332026,0.332784,0.300842,0.334856,-0.0,-0.0,-0.0,0.0,-0.0,-0.0,0.011512,-0.022872,0.100214,1.2e-05,0.003595,1.3e-05
352206,-0.008069,-0.003636,0.006578,0.0,0.0,0.0,0.0,0.0,0.0,3.0,0.332578,0.333264,0.30033,0.334274,-0.0,-0.0,-0.0,0.0,-0.0,-0.0,0.011407,-0.022733,0.100215,-0.003762,-0.0212,-0.021067
352226,-0.008191,-0.003514,0.006456,0.0,0.0,0.0,0.0,0.0,0.0,3.0,0.332591,0.33429,0.299764,0.333725,-0.0,-0.0,-0.0,0.0,-0.0,0.0,0.011284,-0.022941,0.100214,-0.003697,0.013349,-0.021058
352246,-0.008191,-0.003514,0.006456,0.0,0.0,0.0,0.0,0.0,0.0,3.0,0.331405,0.333968,0.300048,0.334977,-0.0,-0.0,-0.0,0.0,-0.0,0.0,0.011391,-0.022732,0.100216,-0.000124,-0.000269,-0.021061
352266,-0.008192,-0.00388,0.006455,0.0,0.0,0.0,0.0,0.0,0.0,3.0,0.330978,0.335346,0.299177,0.334769,-0.0,-0.0,-0.0,0.0,-0.0,-0.0,0.01139,-0.02282,0.100197,-0.021072,-0.028459,0.003599
352286,-0.00807,-0.00388,0.006455,0.0,0.0,0.0,0.0,0.0,0.0,3.0,0.331114,0.334751,0.299266,0.335153,-0.0,-0.0,-0.0,0.0,-0.0,-0.0,0.011409,-0.022977,0.100195,-0.00405,-0.020874,0.003797
352306,-0.007947,-0.003758,0.006578,0.0,0.0,0.0,0.0,0.0,0.0,3.0,0.331555,0.333404,0.301358,0.334258,-0.0,-0.0,-0.0,0.0,-0.0,0.0,0.011617,-0.022978,0.100091,0.003534,-1.3e-05,0.021139
352326,-0.008192,-0.00388,0.006455,0.0,0.0,0.0,0.0,0.0,0.0,3.0,0.332359,0.333059,0.301408,0.333762,-0.0,-0.0,-0.0,0.0,-0.0,0.0,0.011615,-0.022998,0.10009,0.003855,0.00383,0.000109
352346,-0.008191,-0.00388,0.006333,0.0,0.0,0.0,0.0,0.0,0.0,3.0,0.332873,0.332636,0.30242,0.332789,-0.0,-0.0,-0.0,0.0,-0.0,-0.0,0.011616,-0.023102,0.099986,-0.016962,0.021169,-0.003681
352366,-0.008191,-0.003758,0.006333,0.0,0.0,0.0,0.0,0.0,0.0,3.0,0.332126,0.333798,0.300652,0.333911,-0.0,-0.0,-0.0,0.0,-0.0,0.0,0.011512,-0.023102,0.099969,-0.020898,0.0002,-4.3e-05
352386,-0.008191,-0.003636,0.006334,0.0,0.0,0.0,0.0,0.0,0.0,3.0,0.333917,0.332293,0.301339,0.33303,-0.0,-0.0,-0.0,0.0,-0.0,0.0,0.011285,-0.022978,0.099864,0.017337,0.020745,-0.003613
352406,-0.008191,-0.003881,0.00621,0.0,0.0,0.0,0.0,0.0,0.0,3.0,0.333005,0.33346,0.300747,0.333293,-0.0,-0.0,-0.0,0.0,-0.0,-0.0,0.011267,-0.02298,0.099846,0.020992,-0.020952,-9.3e-05
352426,-0.008191,-0.003759,0.006211,0.0,0.0,0.0,0.0,0.0,0.0,3.0,0.332246,0.3341,0.300821,0.333344,-0.0,-0.0,-0.0,0.0,-0.0,-0.0,0.011371,-0.023206,0.099846,0.00391,0.017166,-0.020897
352446,-0.008191,-0.003759,0.006089,0.0,0.0,0.0,0.0,0.0,0.0,3.0,0.332205,0.333679,0.300232,0.334316,-0.0,-0.0,-0.0,0.0,-0.0,0.0,0.01139,-0.022978,0.099848,-0.020933,-0.000205,-0.021149
352466,-0.008435,-0.004003,0.006087,0.0,0.0,0.0,0.0,0.0,0.0,3.0,0.332061,0.334744,0.299371,0.334136,-0.0,-0.0,-0.0,0.0,-0.0,-0.0,0.011267,-0.023084,0.099848,-0.020966,-0.003754,-0.021117
352486,-0.008312,-0.003637,0.006089,0.0,0.0,0.0,0.0,0.0,0.0,3.0,0.332612,0.332943,0.300384,0.334513,-0.0,-0.0,-0.0,0.0,-0.0,-0.0,0.011146,-0.023014,0.099724,0.021018,0.007553,9.8e-05
352506,-0.008556,-0.003514,0.006089,0.0,0.0,0.0,0.0,0.0,0.0,3.0,0.332178,0.333204,0.300465,0.334614,-0.0,-0.0,-0.0,0.0,-0.0,0.0,0.01125,-0.022733,0.099726,0.003816,-0.000276,6e-06
352526,-0.008557,-0.003759,0.005966,0.0,0.0,0.0,0.0,0.0,0.0,3.0,0.333011,0.333913,0.299783,0.333667,-0.0,-0.0,-0.0,0.0,-0.0,0.0,0.011041,-0.022858,0.099725,-0.00355,-0.02094,-0.021069
352546,-0.008434,-0.003637,0.005967,0.0,0.0,0.0,0.0,0.0,0.0,3.0,0.333236,0.333553,0.299866,0.333732,-0.0,-0.0,-0.0,0.0,-0.0,-0.0,0.010919,-0.022979,0.099602,0.017303,0.020943,0.000147
352566,-0.008434,-0.003515,0.005967,0.0,0.0,0.0,0.0,0.0,0.0,3.0,0.332778,0.333178,0.299883,0.334546,-0.0,-0.0,-0.0,0.0,-0.0,-0.0,0.011043,-0.022752,0.099603,0.01707,0.003656,4.7e-05
352586,-0.008678,-0.003636,0.005966,0.0,0.0,0.0,0.0,0.0,0.0,3.0,0.332479,0.334037,0.299255,0.334528,-0.0,-0.0,-0.0,0.0,-0.0,0.0,0.011024,-0.022735,0.099585,-0.020894,8.1e-05,0.003803
352606,-0.0088,-0.003514,0.005967,0.0,0.0,0.0,0.0,0.0,0.0,3.0,0.334272,0.33281,0.300562,0.332833,-0.0,-0.0,-0.0,0.0,-0.0,-0.0,0.010798,-0.022858,0.099498,-0.003739,0.000244,0.017237
352626,-0.008799,-0.003392,0.005845,0.0,0.0,0.0,0.0,0.0,0.0,3.0,0.332768,0.333709,0.299382,0.334459,-0.0,-0.0,-0.0,0.0,0.0,0.0,0.0108,-0.022733,0.099603,-0.024753,0.020889,2.2e-05
352646,-0.009166,-0.003391,0.005844,0.0,0.0,0.0,0.0,0.0,0.0,3.0,0.332758,0.333764,0.29858,0.3351,-0.0,-0.0,-0.0,0.0,0.0,-0.0,0.010696,-0.022507,0.099604,-0.007819,-0.038214,-0.000137
352666,-0.009289,-0.003757,0.005965,0.0,0.0,0.0,0.0,0.0,0.0,3.0,0.333195,0.334205,0.299809,0.333168,-0.0,-0.0,-0.0,0.0,0.0,-0.0,0.010536,-0.02284,0.099479,-0.020818,-0.003571,0.021076
352686,-0.009288,-0.00339,0.005966,0.0,0.0,0.0,0.0,0.0,0.0,3.0,0.332764,0.332948,0.300775,0.33402,-0.0,-0.0,-0.0,0.0,0.0,-0.0,0.010502,-0.022732,0.099479,-0.013365,7.1e-05,0.021035
352706,-0.009288,-0.003268,0.005967,0.0,0.0,0.0,0.0,0.0,0.0,3.0,0.332322,0.333594,0.299397,0.335001,-0.0,-0.0,-0.0,0.0,0.0,-0.0,0.010397,-0.022487,0.099603,0.003914,-0.000277,-2e-05
352726,-0.00941,-0.003512,0.005966,0.0,0.0,0.0,0.0,0.0,0.0,3.0,0.332812,0.33441,0.299095,0.33396,-0.0,-0.0,-0.0,0.0,0.0,0.0,0.010273,-0.022593,0.099603,-0.017046,-0.024651,-0.000146
352746,-0.00941,-0.003268,0.005967,0.0,0.0,0.0,0.0,0.0,0.0,3.0,0.33268,0.333659,0.299151,0.334794,-0.0,-0.0,-0.0,0.0,0.0,0.0,0.010152,-0.022627,0.099602,0.024911,0.024651,0.000159
352766,-0.009287,-0.003024,0.005968,0.0,0.0,0.0,0.0,0.0,0.0,3.0,0.332657,0.333137,0.29907,0.335405,-0.0,-0.0,-0.0,0.0,-0.0,0.0,0.010153,-0.02226,0.099604,0.024957,0.003524,5.7e-05
352786,-0.00941,-0.003391,0.005844,0.0,0.0,0.0,0.0,0.0,0.0,3.0,0.33356,0.334569,0.298347,0.333697,-0.0,-0.0,-0.0,0.0,-0.0,-0.0,0.010065,-0.022472,0.099603,0.017289,-0.024741,-0.02106
352806,-0.009288,-0.003391,0.005844,0.0,0.0,0.0,0.0,0.0,0.0,3.0,0.333879,0.333544,0.299183,0.333687,-0.0,-0.0,-0.0,0.0,-0.0,0.0,0.010066,-0.02261,0.099499,0.017221,-4.8e-05,-0.003787
352826,-0.009288,-0.003391,0.005722,0.0,0.0,0.0,0.0,0.0,0.0,3.0,0.333541,0.33399,0.298315,0.334323,-0.0,-0.0,-0.0,0.0,-0.0,0.0,0.010066,-0.02261,0.09948,-0.003804,1.1e-05,-7e-06
352846,-0.009288,-0.003514,0.005722,0.0,0.0,0.0,0.0,0.0,0.0,3.0,0.332018,0.334912,0.298061,0.335131,-0.0,-0.0,-0.0,0.0,-0.0,0.0,0.010314,-0.022611,0.099462,-0.025198,-0.02088,0.003746
352866,-0.009287,-0.003269,0.005723,0.0,0.0,0.0,0.0,0.0,0.0,3.0,0.332876,0.333728,0.29988,0.333903,-0.0,-0.0,-0.0,0.0,-0.0,0.0,0.010399,-0.022734,0.099357,-0.038287,0.021107,0.000187
352886,-0.009531,-0.003147,0.005601,0.0,0.0,0.0,0.0,0.0,0.0,3.0,0.333916,0.332964,0.299723,0.333763,-0.0,-0.0,-0.0,0.0,-0.0,-0.0,0.010313,-0.022489,0.099236,-0.024955,-1.1e-05,0.02104
352906,-0.009409,-0.003148,0.005601,0.0,0.0,0.0,0.0,0.0,0.0,3.0,0.332956,0.332945,0.299804,0.334669,-0.0,-0.0,-0.0,0.0,0.0,0.0,0.010296,-0.022262,0.099237,0.020943,0.003515,0.000182
352926,-0.009286,-0.003148,0.005479,0.0,0.0,0.0,0.0,0.0,0.0,3.0,0.333817,0.332249,0.301243,0.333257,-0.0,-0.0,-0.0,0.0,0.0,0.0,0.010399,-0.022265,0.099133,0.024788,-0.03814,-0.003864
352946,-0.00892,-0.003149,0.00548,0.0,0.0,0.0,0.0,0.0,0.0,3.0,0.333558,0.332228,0.302007,0.332872,-0.0,-0.0,-0.0,0.0,0.0,0.0,0.010626,-0.022369,0.099011,0.007707,0.020826,-0.003627
352966,-0.008554,-0.003029,0.005359,0.0,0.0,0.0,0.0,0.0,0.0,3.0,0.334308,0.331748,0.302362,0.332284,-0.0,-0.0,-0.0,0.0,0.0,0.0,0.010747,-0.022372,0.098889,0.028664,0.041985,-0.003551
352986,-0.008554,-0.003274,0.005236,0.0,0.0,0.0,0.0,0.0,0.0,3.0,0.334607,0.332989,0.300572,0.332307,-0.0,-0.0,-0.0,0.0,0.0,-0.0,0.010781,-0.022497,0.09889,0.021108,0.021138,-0.024737
353006,-0.008676,-0.003152,0.005114,0.0,0.0,0.0,0.0,0.0,0.0,3.0,0.33364,0.333652,0.299244,0.333766,-0.0,-0.0,-0.0,0.0,0.0,-0.0,0.010781,-0.022494,0.098872,0.021043,-1.6e-05,-0.021072
353026,-0.008675,-0.002908,0.005115,0.0,0.0,0.0,0.0,0.087266,0.0,3.0,0.333548,0.371544,0.298149,0.290198,-0.0,9.8e-05,-0.0,0.0,0.039099,-0.0,0.010696,-0.02237,0.098873,0.034489,-0.00034,-0.021004
353046,-0.008797,-0.002908,0.004993,0.0,0.0,0.0,0.0,0.087266,0.0,3.0,0.333994,0.371156,0.299323,0.288971,-0.0,0.001463,-0.0,0.0,0.116026,0.0,0.01082,-0.022249,0.09875,0.013349,-0.000239,4.5e-05
353066,-0.008796,-0.002664,0.004994,0.0,0.0,0.0,0.0,0.087266,0.0,3.0,0.334619,0.370691,0.299452,0.288724,-0.0,0.004328,-0.0,0.0,0.187246,0.0,0.010697,-0.022146,0.098628,0.013593,0.024622,0.000286
353086,-0.008793,-0.001566,0.004877,0.0,0.0,0.0,0.0,0.087266,0.0,3.0,0.333106,0.370298,0.299714,0.290837,-0.0,0.008567,-0.0,0.0,0.251619,0.0,0.010909,-0.021531,0.098613,-0.0419,0.066276,-0.016889
353106,-0.008544,0.000508,0.004641,0.0,0.0,0.0,0.0,0.087266,0.0,3.0,0.33383,0.366585,0.302045,0.292629,-0.0,0.01404,-0.0,0.0,0.308869,0.0,0.011,-0.01987,0.098393,-0.013386,0.097867,0.000554
353126,-0.008294,0.003436,0.004409,0.0,0.0,0.0,0.0,0.087266,0.0,3.0,0.334873,0.363744,0.302489,0.294739,-0.0,0.020604,-0.0,0.0,0.358875,0.0,0.011164,-0.017443,0.098159,5.7e-05,0.142872,-0.020106
353146,-0.008287,0.007463,0.003938,0.0,0.0,0.0,0.0,0.087266,0.0,3.0,0.336452,0.359064,0.303831,0.297607,-0.0,0.028113,-0.0,0.0,0.401602,0.0,0.011292,-0.013951,0.097825,0.000179,0.195415,-0.023761
353166,-0.0084,0.012833,0.003595,0.0,0.0,0.0,0.0,0.087266,0.0,3.0,0.33715,0.355088,0.303209,0.302458,-0.0,0.036422,-0.0,0.0,0.437091,0.0,0.011194,-0.009342,0.097479,-0.003392,0.244137,-0.023482
353186,-0.008515,0.019422,0.003135,0.0,0.0,0.0,0.0,0.087266,0.0,3.0,0.336349,0.349417,0.304146,0.309309,-0.0,0.045388,-0.0,0.0,0.465456,0.0,0.01129,-0.003179,0.097119,0.004079,0.299996,-0.019466
353206,-0.008629,0.027479,0.002805,0.0,0.0,0.0,0.0,0.087266,0.0,3.0,0.339507,0.342065,0.305447,0.312992,-0.0,0.054868,-0.0,0.0,0.486874,0.0,0.010944,0.003993,0.096559,0.021683,0.39077,-0.022838
353226,-0.009116,0.036632,0.002244,0.0,0.0,0.0,0.0,0.087266,0.0,3.0,0.341249,0.334694,0.30568,0.318933,-0.0,0.064726,-0.0,0.0,0.501584,0.0,0.010599,0.012614,0.096133,-0.003312,0.422191,-0.026341
353246,-0.009729,0.047009,0.001696,0.0,0.0,0.0,0.0,0.087266,0.0,3.0,0.341453,0.327834,0.305294,0.326183,-0.0,0.07483,-0.0,0.0,0.509875,0.0,0.010094,0.022351,0.095682,-0.021031,0.492005,-0.042559
353266,-0.010466,0.058365,0.001285,0.0,0.0,0.0,0.0,0.087266,0.0,3.0,0.341216,0.320804,0.303907,0.334527,-0.0,0.085053,-0.0,0.0,0.512083,0.0,0.009501,0.033292,0.095244,-0.024463,0.544672,-0.017201
353286,-0.011329,0.070697,0.000891,0.0,0.0,0.0,0.0,0.087266,0.0,3.0,0.344333,0.310368,0.306306,0.338798,-0.0,0.095277,-0.0,0.0,0.508586,0.0,0.008755,0.04498,0.094609,-0.023975,0.593962,0.000902
353306,-0.012451,0.083397,0.000276,0.0,0.0,0.0,0.0,0.087266,0.0,3.0,0.347144,0.30126,0.306065,0.343984,-0.0,0.105391,-0.0,0.0,0.499792,0.0,0.007674,0.057441,0.094125,-0.053347,0.614141,-0.022345
353326,-0.013698,0.09659,-0.000194,0.0,0.0,0.0,0.0,0.087266,0.0,3.0,0.346914,0.293812,0.304554,0.3515,-0.0,0.115292,-0.0,0.0,0.486139,0.0,0.006558,0.070518,0.093766,-0.054746,0.613619,-0.042928
353346,-0.014945,0.109911,-0.000526,0.0,0.0,0.0,0.0,0.087266,0.0,3.0,0.346833,0.287069,0.302036,0.358736,-0.0,0.124886,-0.0,0.0,0.468086,0.0,0.005189,0.083675,0.093396,-0.054468,0.66299,-0.034237
353366,-0.016074,0.123353,-0.000848,0.0,0.0,0.0,0.0,0.087266,0.0,3.0,0.347732,0.276138,0.304518,0.363693,-0.0,0.134088,-0.0,0.0,0.446106,0.0,0.004268,0.097222,0.092949,-0.088645,0.667922,-0.01417
353386,-0.01733,0.136435,-0.001151,0.0,0.0,0.0,0.0,0.087266,0.0,3.0,0.34851,0.268087,0.304183,0.368576,-0.0,0.142825,-0.0,0.0,0.420682,0.0,0.003136,0.110566,0.092632,-0.067868,0.664408,-0.014719
353406,-0.018583,0.149161,-0.001319,0.0,0.0,0.0,0.0,0.087266,0.0,3.0,0.348291,0.261815,0.302078,0.374311,-0.0,0.15103,-0.0,0.0,0.392302,0.0,0.001883,0.123505,0.092439,-0.067466,0.626819,-0.010504
353426,-0.019705,0.161158,-0.001366,0.0,0.0,0.0,0.0,0.087266,0.0,3.0,0.348852,0.254609,0.302341,0.377887,-0.0,0.158648,-0.0,0.0,0.361453,0.0,0.000736,0.135899,0.092285,-0.062494,0.598783,0.006977
353446,-0.020827,0.171928,-0.001411,0.0,0.0,0.0,0.0,0.087266,0.0,3.0,0.349205,0.25058,0.30064,0.381106,-0.0,0.165633,-0.0,0.0,0.328614,0.0,-0.000492,0.147305,0.092228,-0.044979,0.550271,0.009582
353466,-0.021939,0.181725,-0.001332,0.0,0.0,0.0,0.0,0.087266,0.0,3.0,0.350058,0.246386,0.3006,0.382679,-0.0,0.17195,-0.0,0.0,0.294257,0.0,-0.001632,0.157541,0.092201,-0.062371,0.515034,0.007451
353486,-0.023061,0.189808,-0.001385,0.0,0.0,0.0,0.0,0.087266,0.0,3.0,0.349819,0.245422,0.299083,0.384499,-0.0,0.177571,-0.0,0.0,0.258838,0.0,-0.002725,0.166503,0.092256,-0.045054,0.424711,0.009106
353506,-0.023807,0.196313,-0.001361,0.0,0.0,0.0,0.0,0.087266,0.0,3.0,0.349445,0.245733,0.298861,0.384821,-0.0,0.182478,-0.0,0.0,0.222793,0.0,-0.003609,0.173798,0.0923,-0.061947,0.325162,0.010099
353526,-0.024429,0.200718,-0.00137,0.0,0.0,0.0,0.0,0.087266,0.0,3.0,0.349668,0.246042,0.299416,0.384063,-0.0,0.186662,-0.0,0.0,0.18654,0.0,-0.00423,0.179504,0.092303,-0.085328,0.227188,-0.009918
353546,-0.024807,0.20329,-0.001425,0.0,0.0,0.0,0.0,0.087266,0.0,3.0,0.3514,0.248958,0.299671,0.380744,-0.0,0.190122,-0.0,0.0,0.150469,0.0,-0.004947,0.182907,0.092186,-0.07021,0.141845,0.005264
353566,-0.025063,0.204028,-0.001514,0.0,0.0,0.0,0.0,0.087266,0.0,3.0,0.350249,0.254055,0.298924,0.379453,-0.0,0.192863,-0.0,0.0,0.114946,0.0,-0.005331,0.184662,0.09223,-0.04764,0.026864,-0.016198
353586,-0.025075,0.202921,-0.001652,0.0,0.0,0.0,0.0,0.087266,0.0,3.0,0.352133,0.257795,0.299984,0.374776,-0.0,0.194901,-0.0,0.0,0.080306,0.0,-0.005682,0.184351,0.092029,0.009372,-0.051075,-0.005358
353606,-0.024842,0.200467,-0.001831,0.0,0.0,0.0,0.0,0.087266,0.0,3.0,0.35158,0.263134,0.300794,0.371438,-0.0,0.196254,-0.0,0.0,0.046852,0.0,-0.005609,0.182568,0.091855,-0.003888,-0.12603,-0.001085
353626,-0.024498,0.196785,-0.002161,0.0,0.0,0.0,0.0,0.087266,0.0,3.0,0.352443,0.264721,0.30407,0.367127,-0.0,0.196949,-0.0,0.0,0.014859,0.0,-0.005298,0.179617,0.091555,0.044946,-0.18933,-0.010563
353646,-0.023677,0.191878,-0.002675,0.0,0.0,0.0,0.0,0.087266,0.0,3.0,0.352209,0.270092,0.306512,0.361929,-0.0,0.197016,0.0,0.0,-0.015436,0.0,-0.004604,0.17528,0.091183,0.069683,-0.228354,-0.013273
353666,-0.022841,0.185867,-0.003072,0.0,0.0,0.0,0.0,0.087266,0.0,3.0,0.351981,0.275992,0.307301,0.357481,-0.0,0.196491,0.0,0.0,-0.043826,0.0,-0.00377,0.169794,0.090789,0.069757,-0.255851,-0.01322
353686,-0.021879,0.179006,-0.003484,0.0,0.0,0.0,0.0,0.087266,0.0,3.0,0.35156,0.280914,0.308345,0.353521,-0.0,0.195414,0.0,0.0,-0.070138,0.0,-0.002811,0.163534,0.090361,0.070144,-0.338627,-0.009852
353706,-0.020804,0.171293,-0.004031,0.0,0.0,0.0,0.0,0.087266,0.0,3.0,0.35234,0.284714,0.312042,0.346767,-0.0,0.193827,0.0,0.0,-0.094233,0.0,-0.001647,0.156208,0.089823,0.056554,-0.366921,-0.012218
353726,-0.019356,0.16272,-0.004606,0.0,0.0,0.0,0.0,0.087266,0.0,3.0,0.351084,0.291301,0.313091,0.341989,-0.0,0.191775,0.0,0.0,-0.116003,0.0,-0.000314,0.148161,0.089363,0.055317,-0.417348,-0.029482
353746,-0.017903,0.153782,-0.005171,0.0,0.0,0.0,0.0,0.087266,0.0,3.0,0.351517,0.296173,0.315315,0.335521,-0.0,0.189306,0.0,0.0,-0.135374,0.0,0.001139,0.139378,0.088812,0.055181,-0.466219,-0.033128
353766,-0.016191,0.144116,-0.005621,0.0,0.0,0.0,0.0,0.087266,0.0,3.0,0.351082,0.301097,0.317341,0.329852,-0.0,0.186468,0.0,0.0,-0.1523,0.0,0.002699,0.130053,0.088245,0.081622,-0.46181,-0.013074
353786,-0.014353,0.134573,-0.006061,0.0,0.0,0.0,0.0,0.087266,0.0,3.0,0.350655,0.307281,0.317583,0.324494,-0.0,0.18331,0.0,0.0,-0.166763,0.0,0.004326,0.120298,0.08779,0.095358,-0.44783,-0.00922
353806,-0.012633,0.124795,-0.006478,0.0,0.0,0.0,0.0,0.087266,0.0,3.0,0.3501,0.311591,0.319687,0.318956,-0.0,0.17988,0.0,0.0,-0.178775,0.0,0.006272,0.110635,0.087351,0.03485,-0.468076,-0.025859
353826,-0.010665,0.114895,-0.006891,0.0,0.0,0.0,0.0,0.087266,0.0,3.0,0.349572,0.316892,0.320481,0.313497,-0.0,0.176229,0.0,0.0,-0.188369,0.0,0.007872,0.100751,0.086952,0.120073,-0.471283,-0.009305
353846,-0.008687,0.10524,-0.007161,0.0,0.0,0.0,0.0,0.087266,0.0,3.0,0.348402,0.321232,0.321191,0.309638,-0.0,0.172404,0.0,0.0,-0.195605,0.0,0.009847,0.091086,0.086672,0.099443,-0.489643,-0.006982
353866,-0.006582,0.096087,-0.007295,0.0,0.0,0.0,0.0,0.087266,0.0,3.0,0.347338,0.324756,0.323033,0.305159,-0.0,0.168451,0.0,0.0,-0.200561,0.0,0.01193,0.081537,0.086407,0.102725,-0.421025,-0.006384
353886,-0.0046,0.087658,-0.007402,0.0,0.0,0.0,0.0,0.087266,0.0,3.0,0.348084,0.327526,0.324138,0.299976,-0.0,0.164416,0.0,0.0,-0.203334,0.0,0.013803,0.072506,0.086188,0.078057,-0.401404,-0.008032
353906,-0.002869,0.079849,-0.007607,0.0,0.0,0.0,0.0,0.087266,0.0,3.0,0.346499,0.329653,0.324632,0.298946,-0.0,0.160341,0.0,0.0,-0.204038,0.0,0.015785,0.064524,0.08607,0.077851,-0.369997,-0.003563
353926,-0.001134,0.072893,-0.007676,0.0,0.0,0.0,0.0,0.087266,0.0,3.0,0.346025,0.332565,0.324119,0.296737,-0.0,0.156266,0.0,0.0,-0.202801,-0.0,0.017433,0.05708,0.086,0.091476,-0.348514,-0.003653
353946,0.000722,0.067157,-0.007615,0.0,0.0,0.0,0.0,0.087266,0.0,3.0,0.344178,0.332583,0.326141,0.296691,-0.0,0.15223,0.0,0.0,-0.199763,-0.0,0.019498,0.050798,0.085924,0.057334,-0.2722,0.01936
353966,0.002209,0.062278,-0.007535,0.0,0.0,0.0,0.0,0.087266,0.0,3.0,0.344952,0.333314,0.32646,0.294509,-0.0,0.148268,0.0,0.0,-0.195071,-0.0,0.020979,0.04529,0.085879,0.036541,-0.226272,0.02016
353986,0.003442,0.058862,-0.007565,0.0,0.0,0.0,0.0,0.087266,0.0,3.0,0.343922,0.332586,0.326646,0.296425,-0.0,0.144411,0.0,0.0,-0.188884,-0.0,0.022482,0.041223,0.085962,0.053199,-0.153124,0.019613
354006,0.004186,0.056543,-0.007458,0.0,0.0,0.0,0.0,0.087266,0.0,3.0,0.34469,0.332458,0.324755,0.297783,-0.0,0.140687,0.0,0.0,-0.18136,-0.0,0.023258,0.038264,0.086069,0.066629,-0.125336,-0.001618
354026,0.005046,0.055813,-0.007358,0.0,0.0,0.0,0.0,0.087266,0.0,3.0,0.343636,0.33043,0.325365,0.300708,-0.0,0.137124,0.0,0.0,-0.172666,-0.0,0.024227,0.036637,0.086168,0.028012,-0.010342,-0.000914
354046,0.005415,0.056058,-0.007247,0.0,0.0,0.0,0.0,0.087266,0.0,3.0,0.342246,0.328897,0.323896,0.305687,-0.0,0.133742,0.0,0.0,-0.162967,-0.0,0.024965,0.036575,0.086375,-0.013939,0.024738,0.0039
354066,0.00566,0.057523,-0.007013,0.0,0.0,0.0,0.0,0.087266,0.0,3.0,0.343071,0.326556,0.323299,0.307932,-0.0,0.13056,0.0,0.0,-0.152428,-0.0,0.025084,0.037277,0.086491,0.007277,0.073802,0.003316
354086,0.005656,0.059844,-0.006899,0.0,0.0,0.0,0.0,0.087266,0.0,3.0,0.344123,0.32282,0.323576,0.310419,-0.0,0.127595,0.0,0.0,-0.141211,-0.0,0.025239,0.039224,0.08662,0.020454,0.097545,-0.001055
354106,0.005648,0.063264,-0.006788,0.0,0.0,0.0,0.0,0.087266,0.0,3.0,0.343452,0.320132,0.322228,0.315379,-0.0,0.124858,0.0,0.0,-0.129475,-0.0,0.025235,0.042123,0.086857,-0.000398,0.167804,-0.000978
354126,0.005642,0.06766,-0.006558,0.0,0.0,0.0,0.0,0.087266,0.0,3.0,0.34198,0.3166,0.321354,0.321423,-0.0,0.122359,0.0,0.0,-0.117375,-0.0,0.025352,0.046229,0.087066,-0.020936,0.220259,0.024472
354146,0.005517,0.072543,-0.006202,0.0,0.0,0.0,0.0,0.087266,0.0,3.0,0.343211,0.312929,0.322173,0.322824,-0.0,0.120103,0.0,0.0,-0.105057,-0.0,0.025201,0.050628,0.087195,-0.016388,0.240571,0.041922
354166,0.005265,0.078162,-0.005966,0.0,0.0,0.0,0.0,0.087266,0.0,3.0,0.343821,0.308453,0.321854,0.326694,-0.0,0.118095,0.0,0.0,-0.092662,-0.0,0.024966,0.055866,0.087431,0.000143,0.265288,0.020026
354186,0.004886,0.084147,-0.005847,0.0,0.0,0.0,0.0,0.087266,0.0,3.0,0.343308,0.305462,0.319624,0.332103,-0.0,0.116335,0.0,0.0,-0.080321,-0.0,0.024632,0.061696,0.087795,-0.008144,0.293432,-0.000956
354206,0.004391,0.09062,-0.005599,0.0,0.0,0.0,0.0,0.087266,0.0,3.0,0.342579,0.301864,0.31843,0.337126,-0.0,0.11482,0.0,0.0,-0.068156,-0.0,0.024239,0.068033,0.088019,-0.046082,0.317791,0.0047
354226,0.004018,0.097342,-0.005355,0.0,0.0,0.0,0.0,0.087266,0.0,3.0,0.341991,0.29793,0.318466,0.341013,-0.0,0.113546,0.0,0.0,-0.056279,-0.0,0.02385,0.074616,0.088263,-0.021564,0.341713,0.003831
354246,0.003891,0.104187,-0.005121,0.0,0.0,0.0,0.0,0.087266,0.0,3.0,0.342069,0.292158,0.320008,0.344236,-0.0,0.112508,0.0,0.0,-0.044792,-0.0,0.023699,0.081543,0.088373,0.024185,0.329128,0.001581
354266,0.003752,0.110911,-0.005131,0.0,0.0,0.0,0.0,0.087266,0.0,3.0,0.343576,0.288975,0.319532,0.345685,-0.0,0.111695,0.0,0.0,-0.033786,-0.0,0.023338,0.088055,0.088516,-0.000374,0.363661,-0.001083
354286,0.003498,0.117756,-0.00501,0.0,0.0,0.0,0.0,0.087266,0.0,3.0,0.343177,0.284713,0.319016,0.349809,-0.0,0.111099,0.0,0.0,-0.023342,-0.0,0.023084,0.095007,0.088636,0.020343,0.325393,-0.002123
354306,0.003253,0.124357,-0.004765,0.0,0.0,0.0,0.0,0.087266,0.0,3.0,0.343659,0.281969,0.317912,0.352352,-0.0,0.110706,0.0,0.0,-0.013529,-0.0,0.022745,0.101649,0.088763,0.012874,0.337713,-0.001578
354326,0.003124,0.130845,-0.004649,0.0,0.0,0.0,0.0,0.087266,0.0,3.0,0.34477,0.27683,0.31989,0.353275,-0.0,0.110505,0.0,0.0,-0.004404,-0.0,0.022592,0.108146,0.088774,-0.003288,0.314419,0.016724
354346,0.002867,0.136472,-0.004645,0.0,0.0,0.0,0.0,0.087266,0.0,3.0,0.343888,0.275993,0.318104,0.356265,-0.0,0.110481,-0.0,0.0,0.003985,-0.0,0.022367,0.114274,0.089005,-0.009581,0.289911,-0.02142
354366,0.003098,0.141856,-0.004673,0.0,0.0,0.0,0.0,0.087266,0.0,3.0,0.342113,0.274289,0.318301,0.358963,-0.0,0.110619,-0.0,0.0,0.011602,-0.0,0.022469,0.1199,0.089092,-0.005819,0.269234,-0.017802
354386,0.003349,0.146379,-0.004455,0.0,0.0,0.0,0.0,0.087266,0.0,3.0,0.342437,0.272085,0.319302,0.359316,-0.0,0.110904,-0.0,0.0,0.01842,-0.0,0.022703,0.124951,0.089081,-0.00464,0.220231,-0.000309
354406,0.003341,0.15018,-0.004464,0.0,0.0,0.0,0.0,0.087266,0.0,3.0,0.34243,0.27155,0.319736,0.359316,-0.0,0.111319,-0.0,0.0,0.024423,-0.0,0.022928,0.129005,0.089177,-0.021638,0.174079,0.001098
354426,0.003344,0.152867,-0.004347,0.0,0.0,0.0,0.0,0.087266,0.0,3.0,0.342157,0.272128,0.319204,0.359633,-0.0,0.111847,-0.0,0.0,0.029605,-0.0,0.022929,0.132341,0.089293,-0.002014,0.125124,-0.021514
354446,0.00334,0.154458,-0.004351,0.0,0.0,0.0,0.0,0.087266,0.0,3.0,0.342675,0.272505,0.319483,0.358651,-0.0,0.112473,-0.0,0.0,0.033968,-0.0,0.022923,0.134695,0.089287,-0.021045,0.055222,0.001399
