time_ms,roll,pitch,yaw,x,y,z,reference_roll,reference_pitch,reference_yaw,reference_throttle,throttle_1,throttle_2,throttle_3,throttle_4,roll_predicted,pitch_predicted,yaw_predicted,roll_rate_predicted,pitch_rate_predicted,yaw_rate_predicted,value1,value2,value3,value4,value5,value6
610946,0.026834,0.018709,-0.002693,0.0,0.0,0.0,0.0,0.0,0.0,3.0,0.329053,0.310111,0.321509,0.340466,-0.0,-0.0,-0.0,0.0,-0.0,0.0,0.046397,-0.000267,0.09094,0.024758,-0.020971,0.000183
610966,0.027199,0.018589,-0.002817,0.0,0.0,0.0,0.0,0.0,0.0,3.0,0.330544,0.30913,0.325933,0.335722,0.0,-0.0,-0.0,0.0,-0.0,0.0,0.046623,-0.000615,0.090838,0.028536,-0.00347,-0.003947
610986,0.027564,0.018225,-0.002937,0.0,0.0,0.0,0.0,0.0,0.0,3.0,0.327512,0.312034,0.322609,0.339208,0.0,-0.0,-0.0,-0.0,-0.0,0.0,0.046866,-0.000736,0.09082,0.028365,-0.024385,-0.020899
611006,0.027808,0.017983,-0.003058,0.0,0.0,0.0,0.0,0.0,0.0,3.0,0.32843,0.311885,0.322313,0.33874,0.0,-0.0,-0.0,-0.0,-0.0,0.0,0.047128,-0.00112,0.090701,0.0456,0.000339,-0.000388
611026,0.028417,0.017741,-0.003182,0.0,0.0,0.0,0.0,0.0,0.0,3.0,0.328868,0.309798,0.323567,0.339001,0.0,-0.0,-0.0,-0.0,-0.0,0.0,0.047512,-0.001238,0.090576,0.041783,0.000202,-0.000216
611046,0.028418,0.017253,-0.003175,0.0,0.0,0.0,0.0,0.0,0.0,3.0,0.330771,0.313887,0.321565,0.335362,-0.0,-0.0,-0.0,-0.0,-0.0,0.0,0.047773,-0.001814,0.09046,0.017001,-0.007018,0.000111
611066,0.028905,0.017135,-0.003422,0.0,0.0,0.0,0.0,0.0,0.0,3.0,0.329828,0.310386,0.32559,0.335626,-0.0,-0.0,-0.0,-0.0,-0.0,0.0,0.048123,-0.002213,0.09034,0.041646,0.000424,-0.000245
611086,0.029149,0.016527,-0.003537,0.0,0.0,0.0,0.0,0.0,0.0,3.0,0.330682,0.308232,0.330065,0.332359,-0.0,-0.0,-0.0,0.0,-0.0,0.0,0.048715,-0.002416,0.090112,-0.017529,-0.028453,-0.003016
611106,0.02927,0.015798,-0.003771,0.0,0.0,0.0,0.0,0.0,0.0,3.0,0.329811,0.31269,0.327005,0.332175,-0.0,-0.0,-0.0,0.0,-0.0,0.0,0.048835,-0.003149,0.089982,0.00353,-0.048693,-0.020176
611126,0.029513,0.015558,-0.004014,0.0,0.0,0.0,0.0,0.0,0.0,3.0,0.332061,0.307482,0.328302,0.333401,-0.0,-0.0,-0.0,-0.0,-0.0,0.0,0.048974,-0.003525,0.089761,0.020883,-0.02457,-0.003505
611146,0.029392,0.014827,-0.004124,0.0,0.0,0.0,0.0,0.0,0.0,3.0,0.333979,0.307412,0.328317,0.331527,-0.0,-0.0,-0.0,0.0,-0.0,0.0,0.049112,-0.003871,0.08952,-0.003784,-0.049331,-0.002816
611166,0.029269,0.014464,-0.004362,0.0,0.0,0.0,0.0,0.0,0.0,3.0,0.332194,0.309553,0.3261,0.333552,0.0,-0.0,-0.0,0.0,-0.0,0.0,0.048971,-0.004498,0.08939,5.8e-05,-0.024034,-0.020508
611186,0.029268,0.014102,-0.004601,0.0,0.0,0.0,0.0,0.0,0.0,3.0,0.33274,0.308184,0.32687,0.333493,0.0,-0.0,-0.0,0.0,-0.0,0.0,0.048848,-0.00486,0.089152,6.6e-05,-0.024216,-0.020483
611206,0.029146,0.013373,-0.004833,0.0,0.0,0.0,0.0,0.0,0.0,3.0,0.332076,0.308845,0.328112,0.332345,0.0,-0.0,-0.0,0.0,-0.0,0.0,0.04883,-0.005346,0.088915,0.003757,-0.024098,-0.020509
611226,0.029022,0.013256,-0.005197,0.0,0.0,0.0,0.0,0.0,0.0,3.0,0.332675,0.30622,0.328227,0.333988,0.0,-0.0,-0.0,-0.0,-0.0,0.0,0.048706,-0.005725,0.088678,0.003856,0.000695,-0.020873
611246,0.029143,0.012893,-0.005437,0.0,0.0,0.0,0.0,0.0,0.0,3.0,0.333185,0.308444,0.325685,0.333966,0.0,-0.0,-0.0,-0.0,-0.0,0.0,0.048497,-0.00609,0.088441,0.038285,-0.020153,-0.020739
611266,0.029021,0.012286,-0.005671,0.0,0.0,0.0,0.0,0.0,0.0,3.0,0.336808,0.307608,0.329264,0.327506,0.0,-0.0,-0.0,0.0,-0.0,0.0,0.048497,-0.006802,0.088102,0.017287,-0.003127,-0.003607
611286,0.029385,0.012171,-0.006038,0.0,0.0,0.0,0.0,0.0,0.0,3.0,0.334259,0.3068,0.330013,0.33011,0.0,-0.0,-0.0,0.0,-0.0,0.0,0.048621,-0.007161,0.087844,0.037894,0.017904,-0.021186
611306,0.029387,0.01132,-0.006269,0.0,0.0,0.0,0.0,0.0,0.0,3.0,0.334045,0.307789,0.333917,0.325454,0.0,-0.0,-0.0,0.0,-0.0,0.0,0.049092,-0.007609,0.0875,-0.042296,-0.031729,-0.02382
611326,0.029265,0.010714,-0.006626,0.0,0.0,0.0,0.0,0.0,0.0,3.0,0.333511,0.310241,0.330725,0.327001,0.0,-0.0,-0.0,0.0,-0.0,0.0,0.048969,-0.008338,0.08725,-0.021086,-0.031635,-0.020264
611346,0.029386,0.010354,-0.006987,0.0,0.0,0.0,0.0,0.0,0.0,3.0,0.333157,0.304442,0.33419,0.329138,0.0,-0.0,-0.0,0.0,-0.0,0.0,0.049074,-0.008608,0.086886,-0.017349,-0.024433,-0.020232
611366,0.028532,0.009379,-0.007334,0.0,0.0,0.0,0.0,0.0,0.0,3.0,0.337021,0.306756,0.330927,0.326382,0.0,-0.0,-0.0,-0.0,0.0,0.0,0.04872,-0.0092,0.08653,-0.041617,-0.048952,-0.019774
611386,0.0278,0.00877,-0.007567,0.0,0.0,0.0,0.0,0.0,0.0,3.0,0.342788,0.303594,0.332653,0.321358,0.0,-0.0,-0.0,-0.0,0.0,0.0,0.047882,-0.010193,0.086079,-0.002944,-0.044895,-0.002793
611406,0.027434,0.008529,-0.007928,0.0,0.0,0.0,0.0,0.0,0.0,3.0,0.341651,0.301008,0.331882,0.325737,0.0,-0.0,-0.0,0.0,0.0,0.0,0.047291,-0.010571,0.085843,-0.006962,0.000178,-0.003597
611426,0.026703,0.007798,-0.008159,0.0,0.0,0.0,0.0,0.0,0.0,3.0,0.341661,0.303862,0.330001,0.325071,0.0,-0.0,-0.0,-0.0,0.0,0.0,0.04668,-0.010901,0.085607,-0.027909,-0.049021,-0.023772
611446,0.02573,0.006941,-0.008267,0.0,0.0,0.0,0.0,0.0,0.0,3.0,0.343172,0.306225,0.327318,0.324005,0.0,-0.0,-0.0,-0.0,0.0,0.0,0.045703,-0.011777,0.085379,-0.04865,-0.024267,-0.003228
611466,0.024754,0.006572,-0.008381,0.0,0.0,0.0,0.0,0.0,0.0,3.0,0.341525,0.30647,0.326122,0.326746,0.0,-0.0,-0.0,0.0,0.0,0.0,0.044711,-0.012388,0.085249,-0.0659,-0.024479,0.000617
611486,0.023657,0.006204,-0.008618,0.0,0.0,0.0,0.0,0.0,0.0,3.0,0.34189,0.305017,0.325924,0.327881,0.0,-0.0,-0.0,-0.0,-0.0,0.0,0.043755,-0.012773,0.085135,-0.048918,-0.020885,0.000502
611506,0.022318,0.005224,-0.008725,0.0,0.0,0.0,0.0,0.0,0.0,3.0,0.34214,0.309106,0.323427,0.326337,0.0,-0.0,-0.0,-0.0,0.0,0.0,0.042676,-0.013352,0.085023,-0.094195,-0.070483,0.001203
611526,0.020857,0.004242,-0.008833,0.0,0.0,0.0,0.0,0.0,0.0,3.0,0.344153,0.309931,0.321506,0.325304,0.0,-0.0,-0.0,-0.0,-0.0,0.0,0.041232,-0.014353,0.084916,-0.055953,-0.066285,0.000987
611546,0.019516,0.003504,-0.008822,0.0,0.0,0.0,0.0,0.0,0.0,3.0,0.344343,0.309096,0.321618,0.32577,0.0,-0.0,-0.0,0.0,0.0,0.0,0.039892,-0.015211,0.084805,-0.055847,-0.045637,0.021683
611566,0.017812,0.002398,-0.00881,0.0,0.0,0.0,0.0,0.0,0.0,3.0,0.345561,0.313212,0.319368,0.32277,0.0,-0.0,-0.0,0.0,-0.0,0.0,0.038288,-0.016284,0.08482,-0.093824,-0.031995,0.000539
611586,0.015986,0.00129,-0.008677,0.0,0.0,0.0,0.0,0.0,0.0,3.0,0.347853,0.315559,0.315667,0.321597,0.0,-0.0,-0.0,-0.0,-0.0,0.0,0.036375,-0.017515,0.084833,-0.080431,-0.031698,0.000313
611606,0.014038,0.000183,-0.008668,0.0,0.0,0.0,0.0,0.0,0.0,3.0,0.347365,0.315349,0.314029,0.323924,0.0,-0.0,-0.0,-0.0,-0.0,0.0,0.034549,-0.018517,0.084965,-0.080391,-0.04894,-0.020757
611626,0.012212,-0.001046,-0.008661,0.0,0.0,0.0,0.0,0.0,0.0,3.0,0.347553,0.315709,0.314921,0.322509,0.0,-0.0,-0.0,-0.0,-0.0,0.0,0.032704,-0.019605,0.084972,-0.076392,-0.073863,0.00031
611646,0.01002,-0.002277,-0.008534,0.0,0.0,0.0,0.0,0.0,0.0,3.0,0.348031,0.316832,0.310752,0.324873,0.0,-0.0,-0.0,0.0,-0.0,0.0,0.030792,-0.02073,0.085101,-0.125927,-0.070318,0.000149
611666,0.007827,-0.003386,-0.008289,0.0,0.0,0.0,0.0,0.0,0.0,3.0,0.346367,0.319858,0.309819,0.324626,0.0,-0.0,-0.0,-0.0,-0.0,0.0,0.028686,-0.022084,0.085208,-0.139414,-0.049233,0.024696
611686,0.005755,-0.004372,-0.008045,0.0,0.0,0.0,0.0,0.0,0.0,3.0,0.348921,0.315297,0.313068,0.323177,0.0,-0.0,-0.0,0.0,-0.0,0.0,0.026616,-0.023087,0.085348,-0.139522,-0.045637,0.020812
611706,0.003927,-0.005356,-0.007803,0.0,0.0,0.0,0.0,0.0,0.0,3.0,0.348436,0.317941,0.311419,0.322716,0.0,-0.0,-0.0,0.0,-0.0,0.0,0.024544,-0.024177,0.085592,-0.097579,-0.04916,0.020654
611726,0.002467,-0.006583,-0.007684,0.0,0.0,0.0,0.0,0.0,0.0,3.0,0.347348,0.320206,0.312575,0.320577,0.0,-0.0,-0.0,0.0,-0.0,0.0,0.022822,-0.025389,0.085833,-0.093914,-0.031895,-0.00043
611746,0.001249,-0.007564,-0.007565,0.0,0.0,0.0,0.0,0.0,0.0,3.0,0.34503,0.320782,0.311115,0.323952,0.0,-0.0,-0.0,-0.0,-0.0,0.0,0.021362,-0.026388,0.086075,-0.052221,-0.048946,-0.000419
611766,0.00052,-0.008543,-0.007323,0.0,0.0,0.0,0.0,0.0,0.0,3.0,0.344315,0.319668,0.314221,0.322866,0.0,-0.0,-0.0,-0.0,-0.0,0.0,0.020392,-0.027367,0.086193,-0.052491,-0.049074,-0.000311
611786,-8.8e-05,-0.009522,-0.007204,0.0,0.0,0.0,0.0,0.0,0.0,3.0,0.340127,0.321522,0.313844,0.325903,0.0,-0.0,-0.0,-0.0,-0.0,0.0,0.019768,-0.028223,0.086417,-0.028197,-0.028118,0.003449
611806,-0.000452,-0.010256,-0.007084,0.0,0.0,0.0,0.0,0.0,0.0,3.0,0.33921,0.32018,0.316858,0.325304,0.0,-0.0,-0.0,-0.0,-0.0,0.0,0.019388,-0.029098,0.086537,-0.024459,-0.02408,0.003608
611826,-0.000695,-0.010989,-0.006841,0.0,0.0,0.0,0.0,0.0,0.0,3.0,0.340511,0.317594,0.322826,0.320561,0.0,-0.0,-0.0,-0.0,-0.0,0.0,0.019253,-0.029934,0.086553,-0.020918,-0.027949,0.020857
611846,-0.000816,-0.0116,-0.00672,0.0,0.0,0.0,0.0,0.0,0.0,3.0,0.342406,0.315321,0.324993,0.318523,0.0,-0.0,-0.0,-0.0,-0.0,0.0,0.018991,-0.030667,0.086692,-0.016975,-0.007119,0.016962
611866,-0.001179,-0.012334,-0.006723,0.0,0.0,0.0,0.0,0.0,0.0,3.0,0.344317,0.315072,0.32356,0.318124,0.0,-0.0,-0.0,0.0,-0.0,0.0,0.018643,-0.031278,0.086812,0.000412,-0.028063,-0.003926
611886,-0.001422,-0.012823,-0.006724,0.0,0.0,0.0,0.0,0.0,0.0,3.0,0.341954,0.316891,0.32002,0.322494,0.0,-0.0,-0.0,-0.0,-0.0,0.0,0.018277,-0.031765,0.086914,0.00059,-0.049228,-0.000189
611906,-0.001543,-0.013189,-0.006603,0.0,0.0,0.0,0.0,0.0,0.0,3.0,0.340742,0.318196,0.318497,0.324022,0.0,-0.0,-0.0,-0.0,-0.0,0.0,0.018053,-0.032253,0.087035,-0.003342,-0.028416,-0.02113
611926,-0.002031,-0.013557,-0.006485,0.0,0.0,0.0,0.0,0.0,0.0,3.0,0.33943,0.317532,0.31582,0.328624,0.0,-0.0,-0.0,0.0,-0.0,0.0,0.017808,-0.03241,0.087137,-0.02455,-0.021027,0.003417
611946,-0.002641,-0.013925,-0.006367,0.0,0.0,0.0,0.0,0.0,0.0,3.0,0.343988,0.315113,0.319127,0.322895,0.0,-0.0,-0.0,0.0,-0.0,0.0,0.017321,-0.032903,0.08715,-0.045464,-0.020643,0.02064
611966,-0.003617,-0.014538,-0.006253,0.0,0.0,0.0,0.0,0.0,0.0,3.0,0.345026,0.317459,0.317455,0.321114,0.0,-0.0,-0.0,0.0,-0.0,0.0,0.016588,-0.033499,0.087266,-0.066362,-0.003505,0.020474
611986,-0.004594,-0.015029,-0.006017,0.0,0.0,0.0,0.0,0.0,0.0,3.0,0.346753,0.31809,0.315524,0.320476,0.0,-0.0,-0.0,-0.0,-0.0,0.0,0.015488,-0.034114,0.087379,-0.045107,-0.003294,0.02061
612006,-0.005569,-0.015642,-0.005904,0.0,0.0,0.0,0.0,0.0,0.0,3.0,0.345807,0.318332,0.31404,0.322723,0.0,-0.0,-0.0,-0.0,-0.0,0.0,0.014511,-0.03448,0.087616,-0.023876,-0.045481,-0.000483
612026,-0.006668,-0.016011,-0.005792,0.0,0.0,0.0,0.0,0.0,0.0,3.0,0.34649,0.320094,0.308993,0.325033,0.0,-0.0,-0.0,-0.0,-0.0,0.0,0.013304,-0.03497,0.087851,-0.027368,-0.045549,-0.000629
612046,-0.008011,-0.016746,-0.005561,0.0,0.0,0.0,0.0,0.0,0.0,3.0,0.345841,0.324661,0.304171,0.325672,0.0,-0.0,-0.0,0.0,-0.0,0.0,0.01212,-0.035566,0.088065,-0.056096,-0.049385,0.002975
612066,-0.009475,-0.017481,-0.005333,0.0,0.0,0.0,0.0,0.0,0.0,3.0,0.346299,0.32367,0.302856,0.327348,0.0,-0.0,-0.0,-0.0,-0.0,0.0,0.010777,-0.036073,0.088296,-0.07706,-0.045653,0.002768
612086,-0.011064,-0.018093,-0.004984,0.0,0.0,0.0,0.0,0.0,0.0,3.0,0.345939,0.326203,0.302777,0.32529,-0.0,-0.0,-0.0,-0.0,-0.0,0.0,0.009436,-0.036915,0.088525,-0.077385,-0.027972,0.023772
612106,-0.012532,-0.018949,-0.004515,0.0,0.0,0.0,0.0,0.0,0.0,3.0,0.34565,0.326041,0.30135,0.327048,-0.0,-0.0,-0.0,-0.0,-0.0,0.0,0.007968,-0.037564,0.088874,-0.077184,-0.041446,0.023599
612126,-0.013877,-0.019438,-0.004164,0.0,0.0,0.0,0.0,0.0,0.0,3.0,0.346233,0.326287,0.302706,0.32495,-0.0,-0.0,-0.0,0.0,-0.0,0.0,0.006465,-0.038401,0.08922,-0.069581,-0.003079,0.023849
612146,-0.015221,-0.020171,-0.003939,0.0,0.0,0.0,0.0,0.0,0.0,3.0,0.348165,0.326744,0.300313,0.324536,0.0,-0.0,-0.0,0.0,-0.0,0.0,0.004892,-0.039013,0.089567,-0.052142,-0.024239,0.002859
612166,-0.016444,-0.020658,-0.003589,0.0,0.0,0.0,0.0,0.0,0.0,3.0,0.347412,0.32846,0.296522,0.326989,0.0,-0.0,-0.0,0.0,-0.0,0.0,0.003443,-0.039621,0.089916,-0.035089,-0.024286,0.002913
612186,-0.017667,-0.021267,-0.00324,0.0,0.0,0.0,0.0,0.0,0.0,3.0,0.345731,0.328815,0.297394,0.327684,0.0,-0.0,-0.0,-0.0,-0.0,0.0,0.002325,-0.040107,0.090266,-0.07367,-0.045271,0.023279
612206,-0.018647,-0.021631,-0.002888,0.0,0.0,0.0,0.0,0.0,0.0,3.0,0.344569,0.326475,0.299338,0.329554,0.0,-0.0,-0.0,0.0,-0.0,0.0,0.001349,-0.040506,0.090618,-0.053053,-0.037735,0.023664
612226,-0.019384,-0.021994,-0.002411,0.0,0.0,0.0,0.0,0.0,0.0,3.0,0.341766,0.326909,0.3017,0.330003,0.0,-0.0,-0.0,0.0,-0.0,0.0,0.000721,-0.04087,0.090974,-0.049674,-0.016539,0.044858
612246,-0.02,-0.022478,-0.001934,0.0,0.0,0.0,0.0,0.0,0.0,3.0,0.340741,0.32944,0.301052,0.329134,0.0,-0.0,-0.0,-0.0,-0.0,0.0,-5.5e-05,-0.041337,0.09145,-0.041608,-0.020309,0.023892
612266,-0.020492,-0.022596,-0.001575,0.0,0.0,0.0,0.0,0.0,0.0,3.0,0.341838,0.327086,0.302913,0.328674,-0.0,-0.0,-0.0,-0.0,-0.0,0.0,-0.000668,-0.041717,0.091805,-0.020827,0.004415,0.02434
612286,-0.021107,-0.022835,-0.001096,0.0,0.0,0.0,0.0,0.0,0.0,3.0,0.341784,0.330412,0.297049,0.330568,-0.0,-0.0,-0.0,-0.0,-0.0,0.0,-0.001371,-0.041939,0.092285,-0.00734,0.000521,0.024339
612306,-0.021725,-0.022954,-0.000616,0.0,0.0,0.0,0.0,0.0,0.0,3.0,0.341942,0.331182,0.295643,0.330841,-0.0,-0.0,-0.0,0.0,-0.0,0.0,-0.001969,-0.042179,0.092763,-0.011251,0.000486,0.024293
612326,-0.022218,-0.023436,-0.000138,0.0,0.0,0.0,0.0,0.0,0.0,3.0,0.339995,0.333716,0.297241,0.328937,-0.0,-0.0,-0.0,-0.0,-0.0,0.0,-0.002357,-0.042505,0.093244,-0.070263,0.013669,0.00278
612346,-0.022589,-0.02331,0.000225,0.0,0.0,0.0,0.0,0.0,0.0,3.0,0.336752,0.333401,0.298404,0.331598,-0.0,-0.0,-0.0,-0.0,-0.0,0.0,-0.002782,-0.042779,0.093725,-0.059088,0.021429,0.002857
612366,-0.023083,-0.023426,0.000706,0.0,0.0,0.0,0.0,0.0,0.0,3.0,0.340473,0.330337,0.298246,0.330974,-0.0,-0.0,-0.0,-0.0,-0.0,0.0,-0.00322,-0.04265,0.094105,-0.028762,-0.020787,0.020027
612386,-0.023575,-0.02391,0.001061,0.0,0.0,0.0,0.0,0.0,0.0,3.0,0.338704,0.335089,0.296107,0.329861,-0.0,-0.0,-0.0,0.0,-0.0,0.0,-0.003592,-0.042976,0.094567,-0.028655,-0.007176,0.023996
612406,-0.024192,-0.02427,0.001538,0.0,0.0,0.0,0.0,0.0,0.0,3.0,0.340344,0.333545,0.295443,0.3303,-0.0,-0.0,-0.0,0.0,-0.0,0.0,-0.004228,-0.043233,0.094922,-0.024815,-0.023975,0.044969
612426,-0.024807,-0.02463,0.001892,0.0,0.0,0.0,0.0,0.0,0.0,3.0,0.342265,0.333038,0.297025,0.327426,-0.0,-0.0,-0.0,-0.0,-0.0,0.0,-0.004843,-0.043718,0.095274,-0.024558,-0.003107,0.024323
612446,-0.0253,-0.024625,0.002252,0.0,0.0,0.0,0.0,0.0,0.0,3.0,0.342365,0.330802,0.297356,0.329301,-0.0,-0.0,-0.0,-0.0,-0.0,0.0,-0.005476,-0.04385,0.09565,-0.020668,0.000445,0.020436
612466,-0.025915,-0.024986,0.002606,0.0,0.0,0.0,0.0,0.0,0.0,3.0,0.342036,0.332719,0.297298,0.327756,-0.0,-0.0,-0.0,0.0,-0.0,0.0,-0.005968,-0.044072,0.096007,-0.041822,-0.024253,0.01985
612486,-0.026284,-0.025348,0.002841,0.0,0.0,0.0,0.0,0.0,0.0,3.0,0.342546,0.333556,0.295957,0.327528,-0.0,-0.0,-0.0,0.0,-0.0,0.0,-0.006565,-0.044432,0.096361,-0.024677,-0.02425,0.020054
612506,-0.026656,-0.025708,0.003198,0.0,0.0,0.0,0.0,0.0,0.0,3.0,0.339762,0.336355,0.293249,0.329913,-0.0,-0.0,-0.0,-0.0,-0.0,0.0,-0.006935,-0.044793,0.0967,-0.024647,-0.024469,0.002955
612526,-0.027025,-0.025826,0.003436,0.0,0.0,0.0,0.0,0.0,0.0,3.0,0.342221,0.33334,0.295883,0.328159,-0.0,-0.0,-0.0,-0.0,-0.0,0.0,-0.007305,-0.045031,0.096954,-0.003601,-0.003705,-0.000361
612546,-0.027031,-0.026188,0.003797,0.0,0.0,0.0,0.0,0.0,0.0,3.0,0.336114,0.336601,0.294444,0.332396,-0.0,-0.0,-0.0,-0.0,-0.0,0.0,-0.007325,-0.045167,0.097301,-3.5e-05,-0.020812,0.003186
612566,-0.027034,-0.026428,0.004038,0.0,0.0,0.0,0.0,0.0,0.0,3.0,0.337203,0.334159,0.299671,0.329262,-0.0,-0.0,-0.0,0.0,-0.0,0.0,-0.007242,-0.045389,0.097561,-0.013665,-0.024315,0.020203
612586,-0.026917,-0.026424,0.004406,0.0,0.0,0.0,0.0,0.0,0.0,3.0,0.339172,0.33337,0.298797,0.32879,-0.0,-0.0,-0.0,0.0,-0.0,0.0,-0.007351,-0.045648,0.097799,0.003599,-0.020516,0.020615
612606,-0.027041,-0.026422,0.004526,0.0,0.0,0.0,0.0,0.0,0.0,3.0,0.340527,0.331648,0.299387,0.328604,-0.0,-0.0,-0.0,0.0,-0.0,0.0,-0.007355,-0.045643,0.098043,0.003567,0.000137,0.020845
612626,-0.027166,-0.02654,0.004767,0.0,0.0,0.0,0.0,0.0,0.0,3.0,0.341132,0.333981,0.295874,0.32866,0.0,-0.0,-0.0,-0.0,-0.0,0.0,-0.007586,-0.045763,0.098283,0.021237,4.7e-05,0.000153
612646,-0.027415,-0.02666,0.005007,0.0,0.0,0.0,0.0,0.0,0.0,3.0,0.339421,0.339716,0.287414,0.331676,-0.0,-0.0,-0.0,-0.0,0.0,0.0,-0.007924,-0.045986,0.098626,0.013745,0.017354,0.003889
612666,-0.02754,-0.026534,0.005252,0.0,0.0,0.0,0.0,0.0,0.0,3.0,0.337715,0.336522,0.290455,0.334183,-0.0,-0.0,-0.0,0.0,-0.0,0.0,-0.007942,-0.045753,0.098872,-0.003807,-7.5e-05,0.003573
612686,-0.027666,-0.02653,0.005494,0.0,0.0,0.0,0.0,0.0,0.0,3.0,0.339604,0.334183,0.293168,0.332352,0.0,-0.0,-0.0,0.0,-0.0,0.0,-0.008084,-0.045647,0.098992,-0.021231,-0.016826,0.024194
612706,-0.028036,-0.02677,0.00573,0.0,0.0,0.0,0.0,0.0,0.0,3.0,0.339021,0.336274,0.292571,0.331336,0.0,-0.0,-0.0,0.0,-0.0,0.0,-0.008209,-0.045749,0.099234,-0.042121,-0.041719,0.002558
612726,-0.028406,-0.027131,0.005964,0.0,0.0,0.0,0.0,0.0,0.0,3.0,0.338032,0.338541,0.291422,0.330995,0.0,-0.0,-0.0,-0.0,0.0,0.0,-0.008457,-0.046112,0.09947,-0.042277,-0.020316,0.023688
612746,-0.02841,-0.027128,0.006208,0.0,0.0,0.0,0.0,0.0,0.0,3.0,0.33892,0.338642,0.291065,0.330274,0.0,-0.0,-0.0,-0.0,-0.0,0.0,-0.008828,-0.046474,0.099703,-0.020975,0.042654,0.025001
612766,-0.028535,-0.027002,0.006452,0.0,0.0,0.0,0.0,0.0,0.0,3.0,0.341153,0.333859,0.295963,0.328686,0.0,-0.0,-0.0,0.0,-0.0,0.0,-0.008828,-0.046367,0.099844,-0.000343,0.025216,0.021306
612786,-0.028659,-0.027243,0.006569,0.0,0.0,0.0,0.0,0.0,0.0,3.0,0.342007,0.335945,0.292361,0.328737,0.0,-0.0,-0.0,0.0,-0.0,0.0,-0.00906,-0.046345,0.100087,0.017114,0.000318,0.021038
612806,-0.028907,-0.027361,0.006808,0.0,0.0,0.0,0.0,0.0,0.0,3.0,0.34167,0.339338,0.289574,0.327927,0.0,-0.0,-0.0,-0.0,0.0,0.0,-0.00931,-0.04669,0.100323,0.01747,-0.003535,6.1e-05
612826,-0.028908,-0.027115,0.006934,0.0,0.0,0.0,0.0,0.0,0.0,3.0,0.341064,0.335531,0.293175,0.32946,0.0,-0.0,-0.0,-0.0,0.0,0.0,-0.009327,-0.04658,0.100446,-0.020985,0.042162,0.021135
612846,-0.028665,-0.026502,0.00719,0.0,0.0,0.0,0.0,0.0,0.0,3.0,0.33997,0.332317,0.297898,0.329812,0.0,-0.0,-0.0,-0.0,0.0,0.0,-0.009097,-0.046089,0.100596,-0.017641,0.021019,0.017169
612866,-0.028787,-0.026502,0.007189,0.0,0.0,0.0,0.0,0.0,0.0,3.0,0.339928,0.335391,0.293009,0.330928,-0.0,-0.0,-0.0,0.0,0.0,0.0,-0.009083,-0.045721,0.100828,-0.041859,-0.021436,-0.022034
612886,-0.028787,-0.026502,0.007189,0.0,0.0,0.0,0.0,0.0,0.0,3.0,0.33755,0.337932,0.291978,0.33165,0.0,-0.0,-0.0,0.0,-0.0,0.0,-0.009102,-0.04572,0.100951,-0.017068,-0.000366,-0.021457
612906,-0.028788,-0.026378,0.007313,0.0,0.0,0.0,0.0,0.0,0.0,3.0,0.339835,0.336235,0.291309,0.331594,0.0,-0.0,-0.0,-0.0,0.0,0.0,-0.009207,-0.045615,0.10095,0.020936,-0.017327,-4.8e-05
612926,-0.028787,-0.026012,0.007318,0.0,0.0,0.0,0.0,0.0,0.0,3.0,0.341756,0.33381,0.2931,0.330554,0.0,-0.0,-0.0,-0.0,0.0,0.0,-0.009207,-0.04535,0.100952,0.021101,-0.000441,0.000278
612946,-0.028908,-0.025889,0.007318,0.0,0.0,0.0,0.0,0.0,0.0,3.0,0.341925,0.33447,0.29297,0.329816,0.0,-0.0,-0.0,0.0,0.0,0.0,-0.009206,-0.045108,0.100956,0.021028,-0.021321,-2.4e-05
612966,-0.02903,-0.026257,0.007189,0.0,0.0,0.0,0.0,0.0,0.0,3.0,0.343392,0.336411,0.291235,0.327745,0.0,-0.0,-0.0,-0.0,-0.0,0.0,-0.009453,-0.045232,0.100951,0.0004,-2.4e-05,5e-06
612986,-0.029152,-0.026134,0.007189,0.0,0.0,0.0,0.0,0.0,0.0,3.0,0.345357,0.334893,0.291601,0.326899,0.0,-0.0,-0.0,0.0,0.0,0.0,-0.009677,-0.045354,0.100823,-0.003623,0.000221,0.000112
613006,-0.029272,-0.026013,0.007067,0.0,0.0,0.0,0.0,0.0,0.0,3.0,0.343031,0.335954,0.289056,0.330427,0.0,-0.0,-0.0,0.0,0.0,0.0,-0.009798,-0.045249,0.100805,-0.003475,0.024462,-0.016824
613026,-0.029392,-0.025893,0.006945,0.0,0.0,0.0,0.0,0.0,0.0,3.0,0.343253,0.334044,0.291934,0.329729,0.0,-0.0,-0.0,-0.0,0.0,0.0,-0.009813,-0.045006,0.100705,-0.021005,0.003842,-0.000197
613046,-0.029392,-0.025893,0.006945,0.0,0.0,0.0,0.0,0.0,0.0,3.0,0.33996,0.337845,0.289301,0.33149,0.0,-0.0,-0.0,-0.0,0.0,0.0,-0.009811,-0.045007,0.100687,-0.000101,0.024917,0.004252
613066,-0.029391,-0.026016,0.006821,0.0,0.0,0.0,0.0,0.0,0.0,3.0,0.344803,0.332742,0.296687,0.325308,0.0,-0.0,-0.0,0.0,0.0,0.0,-0.009685,-0.045012,0.10046,-0.000369,0.004335,0.021303
613086,-0.029267,-0.025897,0.006703,0.0,0.0,0.0,0.0,0.0,0.0,3.0,0.344415,0.333122,0.297054,0.325011,0.0,-0.0,-0.0,-0.0,0.0,0.0,-0.009562,-0.045136,0.100338,1.5e-05,0.025018,0.000605
613106,-0.029142,-0.025533,0.006587,0.0,0.0,0.0,0.0,0.0,0.0,3.0,0.344707,0.333168,0.2953,0.326188,0.0,-0.0,-0.0,-0.0,0.0,0.0,-0.009561,-0.045015,0.100219,0.021159,0.045722,0.001048
613126,-0.02914,-0.025413,0.006467,0.0,0.0,0.0,0.0,0.0,0.0,3.0,0.346612,0.332678,0.295665,0.324306,0.0,-0.0,-0.0,-0.0,0.0,0.0,-0.00956,-0.044754,0.100119,0.000246,0.020867,-0.003427
613146,-0.029262,-0.025412,0.006466,0.0,0.0,0.0,0.0,0.0,0.0,3.0,0.343023,0.337596,0.292088,0.326177,0.0,-0.0,-0.0,0.0,0.0,0.0,-0.009578,-0.044737,0.100102,-0.017076,0.017279,2.7e-05
613166,-0.029383,-0.025535,0.00634,0.0,0.0,0.0,0.0,0.0,0.0,3.0,0.347623,0.334243,0.294144,0.322903,0.0,-0.0,-0.0,0.0,0.0,0.0,-0.009804,-0.044757,0.099994,-0.020787,0.000107,-0.004002
613186,-0.029259,-0.025294,0.006223,0.0,0.0,0.0,0.0,0.0,0.0,3.0,0.343615,0.337698,0.291448,0.325983,0.0,-0.0,-0.0,0.0,0.0,0.0,-0.009802,-0.044879,0.099975,-0.020773,0.020846,-0.020944
613206,-0.029134,-0.025052,0.006106,0.0,0.0,0.0,0.0,0.0,0.0,3.0,0.342414,0.334668,0.293029,0.329049,0.0,-0.0,-0.0,-0.0,0.0,0.0,-0.009552,-0.044408,0.099862,-0.000391,0.003393,6.8e-05
613226,-0.029134,-0.025052,0.006106,0.0,0.0,0.0,0.0,0.0,0.0,3.0,0.345371,0.336378,0.291317,0.325584,-0.0,-0.0,-0.0,-0.0,0.0,0.0,-0.009516,-0.044395,0.09974,0.013287,-9.1e-05,0.000327
613246,-0.02901,-0.024932,0.005987,0.0,0.0,0.0,0.0,0.0,0.0,3.0,0.342752,0.337077,0.291503,0.327506,-0.0,-0.0,-0.0,0.0,0.0,0.0,-0.009449,-0.044271,0.099744,-0.017106,-9.6e-05,-0.000221
613266,-0.02901,-0.02481,0.005989,0.0,0.0,0.0,0.0,0.0,0.0,3.0,0.345439,0.337119,0.291063,0.324952,-0.0,-0.0,-0.0,0.0,0.0,0.0,-0.009552,-0.044256,0.09962,2.4e-05,0.017084,0.000405
613286,-0.028764,-0.02469,0.005872,0.0,0.0,0.0,0.0,0.0,0.0,3.0,0.345409,0.33473,0.293935,0.325001,-0.0,-0.0,-0.0,-0.0,0.0,0.0,-0.009445,-0.044031,0.099502,0.00368,-0.000194,0.000154
613306,-0.028881,-0.02457,0.005627,0.0,0.0,0.0,0.0,0.0,0.0,3.0,0.346264,0.333943,0.293088,0.325623,-0.0,-0.0,-0.0,-0.0,0.0,0.0,-0.009303,-0.043788,0.099385,-0.000206,-0.000265,0.000102
613326,-0.02888,-0.024572,0.005505,0.0,0.0,0.0,0.0,0.0,0.0,3.0,0.345514,0.336585,0.291692,0.324891,-0.0,-0.0,-0.0,0.0,0.0,0.0,-0.0093,-0.043772,0.099263,-6.2e-05,-0.004399,-0.020702
613346,-0.028876,-0.024453,0.005262,0.0,0.0,0.0,0.0,0.0,0.0,3.0,0.347415,0.332466,0.295834,0.323497,0.0,-0.0,-0.0,0.0,0.0,0.0,-0.009174,-0.043689,0.099039,-5.7e-05,0.003675,-0.003654
613366,-0.028753,-0.024455,0.005142,0.0,0.0,0.0,0.0,0.0,0.0,3.0,0.345117,0.336093,0.292874,0.324815,0.0,-0.0,-0.0,-0.0,0.0,0.0,-0.009031,-0.043674,0.098901,-0.003648,-0.000285,-0.020867
613386,-0.028507,-0.024214,0.005026,0.0,0.0,0.0,0.0,0.0,0.0,3.0,0.346278,0.333558,0.295006,0.324338,-0.0,-0.0,-0.0,-0.0,0.0,0.0,-0.008924,-0.043573,0.098659,-5.4e-05,0.003732,0.000186
613406,-0.028137,-0.023852,0.004792,0.0,0.0,0.0,0.0,0.0,0.0,3.0,0.347238,0.330352,0.300989,0.321253,0.0,-0.0,-0.0,0.0,0.0,0.0,-0.008589,-0.043314,0.09844,0.007489,0.041597,-0.002947
613426,-0.028011,-0.023734,0.004551,0.0,0.0,0.0,0.0,0.0,0.0,3.0,0.350407,0.33194,0.298417,0.318378,0.0,-0.0,-0.0,0.0,0.0,0.0,-0.008572,-0.04318,0.098198,0.024936,0.038039,-0.002789
613446,-0.028131,-0.023737,0.004305,0.0,0.0,0.0,0.0,0.0,0.0,3.0,0.349699,0.334317,0.294283,0.320387,0.0,-0.0,-0.0,-0.0,0.0,0.0,-0.008553,-0.04306,0.098079,0.000414,0.01684,-0.024466
613466,-0.028129,-0.023617,0.004185,0.0,0.0,0.0,0.0,0.0,0.0,3.0,0.350898,0.333336,0.293879,0.320432,0.0,-0.0,-0.0,-0.0,0.0,0.0,-0.008653,-0.04294,0.097835,0.017273,-0.003962,-0.003556
613486,-0.028003,-0.023254,0.003947,0.0,0.0,0.0,0.0,0.0,0.0,3.0,0.350454,0.332305,0.293398,0.322436,-0.0,-0.0,-0.0,0.0,0.0,0.0,-0.008651,-0.042714,0.097717,0.038508,0.020257,-0.023964
613506,-0.028,-0.023136,0.003705,0.0,0.0,0.0,0.0,0.0,0.0,3.0,0.345576,0.335043,0.292434,0.325793,0.0,-0.0,-0.0,0.0,0.0,0.0,-0.008298,-0.04235,0.097586,0.021013,-0.021601,-0.021003
613526,-0.027877,-0.023138,0.003584,0.0,0.0,0.0,0.0,0.0,0.0,3.0,0.34754,0.335255,0.292484,0.323385,0.0,-0.0,-0.0,-0.0,0.0,0.0,-0.008297,-0.042355,0.097341,0.000179,-0.00013,0.000181
613546,-0.027875,-0.023017,0.003464,0.0,0.0,0.0,0.0,0.0,0.0,3.0,0.349371,0.332009,0.294838,0.322685,0.0,-0.0,-0.0,-0.0,0.0,0.0,-0.008313,-0.042113,0.097099,0.003804,-0.021193,1.7e-05
613566,-0.027996,-0.023263,0.003337,0.0,0.0,0.0,0.0,0.0,0.0,3.0,0.350488,0.333692,0.293968,0.320441,0.0,-0.0,-0.0,0.0,0.0,0.0,-0.008435,-0.042239,0.096993,0.003962,-0.021003,-0.00398
613586,-0.028239,-0.023142,0.003213,0.0,0.0,0.0,0.0,0.0,0.0,3.0,0.348779,0.336781,0.288197,0.324098,0.0,-0.0,-0.0,0.0,0.0,0.0,-0.008662,-0.04236,0.096972,0.000431,-0.021194,-0.021268
613606,-0.028361,-0.023142,0.003212,0.0,0.0,0.0,0.0,0.0,0.0,3.0,0.346642,0.339289,0.285798,0.325811,0.0,-0.0,-0.0,-0.0,0.0,0.0,-0.008764,-0.042341,0.096972,-0.003495,-0.004264,-0.02116
613626,-0.028238,-0.022898,0.003217,0.0,0.0,0.0,0.0,0.0,0.0,3.0,0.343264,0.337551,0.28623,0.330874,0.0,-0.0,-0.0,-0.0,0.0,0.0,-0.008657,-0.042028,0.096959,-0.000175,-0.013564,0.003563
613646,-0.028239,-0.02302,0.003215,0.0,0.0,0.0,0.0,0.0,0.0,3.0,0.347039,0.336892,0.291204,0.32332,0.0,-0.0,-0.0,0.0,0.0,0.0,-0.008534,-0.042119,0.096854,-0.000382,-0.020642,0.020838
613666,-0.027994,-0.02302,0.003218,0.0,0.0,0.0,0.0,0.0,0.0,3.0,0.346131,0.337069,0.291804,0.323611,0.0,-0.0,-0.0,-0.0,0.0,0.0,-0.00843,-0.042259,0.096853,0.003783,0.003858,0.000231
613686,-0.027873,-0.023143,0.003218,0.0,0.0,0.0,0.0,0.0,0.0,3.0,0.344381,0.338837,0.292409,0.323121,0.0,-0.0,-0.0,-0.0,0.0,0.0,-0.008223,-0.042365,0.096855,-0.009665,0.000131,-0.000112
613706,-0.027749,-0.023023,0.003099,0.0,0.0,0.0,0.0,0.0,0.0,3.0,0.347576,0.335878,0.294084,0.321283,0.0,-0.0,-0.0,0.0,0.0,0.0,-0.008223,-0.042365,0.096731,0.011437,-2.3e-05,0.000244
613726,-0.027869,-0.022902,0.002977,0.0,0.0,0.0,0.0,0.0,0.0,3.0,0.349496,0.3375,0.286674,0.323835,0.0,-0.0,-0.0,0.0,0.0,0.0,-0.008396,-0.042242,0.096732,0.017592,-0.000485,-0.020776
613746,-0.027991,-0.022658,0.002979,0.0,0.0,0.0,0.0,0.0,0.0,3.0,0.34671,0.338688,0.285283,0.326798,0.0,-0.0,-0.0,-0.0,0.0,0.0,-0.008413,-0.041996,0.096737,0.000322,-0.000562,-0.021063
613766,-0.02799,-0.022537,0.002859,0.0,0.0,0.0,0.0,0.0,0.0,3.0,0.348158,0.335417,0.288641,0.325831,-0.0,-0.0,-0.0,-0.0,0.0,0.0,-0.00841,-0.041649,0.096618,-5.3e-05,-0.038472,-0.000513
613786,-0.02799,-0.022781,0.002855,0.0,0.0,0.0,0.0,0.0,0.0,3.0,0.344559,0.341642,0.28673,0.324788,-0.0,-0.0,-0.0,0.0,0.0,0.0,-0.008305,-0.041861,0.096599,-0.017315,-0.024717,0.003345
613806,-0.027868,-0.022782,0.002857,0.0,0.0,0.0,0.0,0.0,0.0,3.0,0.344541,0.340875,0.286243,0.326034,0.0,-0.0,-0.0,0.0,0.0,0.0,-0.008305,-0.042019,0.096596,0.003928,-0.017351,-0.017279
613826,-0.027624,-0.022782,0.002859,0.0,0.0,0.0,0.0,0.0,0.0,3.0,0.343455,0.341478,0.285956,0.326799,0.0,-0.0,-0.0,-0.0,0.0,0.0,-0.008202,-0.042,0.096599,-0.0132,-0.000347,-0.017374
613846,-0.0275,-0.022418,0.002744,0.0,0.0,0.0,0.0,0.0,0.0,3.0,0.348039,0.336486,0.288329,0.32511,0.0,-0.0,-0.0,-0.0,0.0,0.0,-0.008183,-0.041774,0.096497,0.003639,-0.017354,-0.000173
613866,-0.027256,-0.022296,0.002748,0.0,0.0,0.0,0.0,0.0,0.0,3.0,0.349616,0.334815,0.288558,0.324926,0.0,-0.0,-0.0,0.0,0.0,0.0,-0.008022,-0.041408,0.096381,0.0169,-0.017664,0.000104
613886,-0.027254,-0.022176,0.002628,0.0,0.0,0.0,0.0,0.0,0.0,3.0,0.349059,0.337879,0.286699,0.323897,0.0,-0.0,-0.0,-0.0,0.0,0.0,-0.00792,-0.041393,0.096383,-0.00012,-8.3e-05,-3e-06
613906,-0.027254,-0.021932,0.002631,0.0,0.0,0.0,0.0,0.0,0.0,3.0,0.34616,0.339089,0.284328,0.327758,-0.0,-0.0,-0.0,-0.0,0.0,0.0,-0.007796,-0.041166,0.09637,0.020724,0.003637,0.004168
613926,-0.027254,-0.02181,0.002633,0.0,0.0,0.0,0.0,0.0,0.0,3.0,0.348333,0.336582,0.289686,0.32353,-0.0,-0.0,-0.0,0.0,0.0,0.0,-0.007549,-0.041047,0.096269,0.020861,0.024667,0.000721
613946,-0.026887,-0.021688,0.002638,0.0,0.0,0.0,0.0,0.0,0.0,3.0,0.349624,0.333948,0.291331,0.323448,0.0,-0.0,-0.0,0.0,0.0,0.0,-0.007426,-0.040842,0.096151,0.020826,0.011684,0.021468
613966,-0.026642,-0.021446,0.002522,0.0,0.0,0.0,0.0,0.0,0.0,3.0,0.350198,0.335947,0.289837,0.321997,-0.0,-0.0,-0.0,-0.0,0.0,0.0,-0.007305,-0.040806,0.096153,0.020997,0.045795,0.000926
613986,-0.026274,-0.02096,0.00241,0.0,0.0,0.0,0.0,0.0,0.0,3.0,0.351416,0.333231,0.292265,0.32138,-0.0,-0.0,-0.0,-0.0,0.0,0.0,-0.007058,-0.04044,0.096057,0.041846,0.045552,-0.002684
614006,-0.025663,-0.020473,0.002423,0.0,0.0,0.0,0.0,0.0,0.0,3.0,0.346854,0.336083,0.28991,0.325484,-0.0,-0.0,-0.0,0.0,0.0,0.0,-0.006587,-0.039952,0.096051,0.045514,0.045441,0.001063
614026,-0.025174,-0.019986,0.002434,0.0,0.0,0.0,0.0,0.0,0.0,3.0,0.344839,0.336384,0.29162,0.325893,-0.0,-0.0,-0.0,0.0,0.0,0.0,-0.00587,-0.039465,0.096065,0.007127,0.024534,0.000385
614046,-0.024685,-0.019498,0.002445,0.0,0.0,0.0,0.0,0.0,0.0,3.0,0.344155,0.336193,0.29229,0.326254,-0.0,-0.0,-0.0,-0.0,0.0,0.0,-0.005258,-0.038977,0.096077,0.007067,0.024401,0.000373
614066,-0.024073,-0.018643,0.002461,0.0,0.0,0.0,0.0,0.0,0.0,3.0,0.343877,0.33408,0.292381,0.328654,-0.0,-0.0,-0.0,-0.0,-0.0,0.0,-0.004626,-0.03826,0.096091,0.02427,0.048962,0.000823
614086,-0.023217,-0.017668,0.00248,0.0,0.0,0.0,0.0,0.0,0.0,3.0,0.343557,0.334466,0.292699,0.328326,-0.0,-0.0,-0.0,0.0,0.0,0.0,-0.004034,-0.03753,0.096106,0.070186,0.048981,0.001218
614106,-0.022361,-0.016817,0.002376,0.0,0.0,0.0,0.0,0.0,0.0,3.0,0.347558,0.329919,0.296105,0.325717,-0.0,-0.0,-0.0,-0.0,0.0,0.0,-0.003283,-0.036554,0.096019,0.066439,0.048635,-0.002603
614126,-0.021749,-0.016086,0.002267,0.0,0.0,0.0,0.0,0.0,0.0,3.0,0.344939,0.334525,0.291845,0.32752,-0.0,-0.0,-0.0,0.0,0.0,0.0,-0.00255,-0.035807,0.096016,0.045386,0.045137,0.000872
614146,-0.020771,-0.015233,0.002283,0.0,0.0,0.0,0.0,0.0,0.0,3.0,0.342744,0.333928,0.290842,0.331299,-0.0,-0.0,-0.0,0.0,0.0,0.0,-0.001815,-0.034847,0.096033,0.045303,0.048758,0.00092
614166,-0.019794,-0.01438,0.002299,0.0,0.0,0.0,0.0,0.0,0.0,3.0,0.342772,0.331741,0.296304,0.328837,-0.0,-0.0,-0.0,0.0,0.0,0.0,-0.00073,-0.033996,0.095927,0.027726,0.027976,0.000647
614186,-0.018815,-0.013406,0.002194,0.0,0.0,0.0,0.0,0.0,0.0,3.0,0.341593,0.332406,0.295244,0.330318,0.0,-0.0,-0.0,0.0,0.0,0.0,0.000247,-0.033143,0.095943,0.027753,0.027842,0.000462
614206,-0.018081,-0.012308,0.002208,0.0,0.0,0.0,0.0,0.0,0.0,3.0,0.342873,0.329677,0.296392,0.330726,0.0,-0.0,-0.0,-0.0,0.0,0.0,0.001244,-0.032044,0.095837,0.023932,0.048556,0.000754
614226,-0.016981,-0.011211,0.002224,0.0,0.0,0.0,0.0,0.0,0.0,3.0,0.34265,0.327859,0.299495,0.330075,-0.0,-0.0,-0.0,-0.0,0.0,0.0,0.002206,-0.030966,0.09573,0.048739,0.073649,0.022001
614246,-0.016125,-0.010114,0.002116,0.0,0.0,0.0,0.0,0.0,0.0,3.0,0.346756,0.32543,0.301734,0.326117,-0.0,-0.0,-0.0,0.0,0.0,0.0,0.00306,-0.029994,0.095638,0.048967,0.073857,0.018192
614266,-0.015391,-0.009138,0.002127,0.0,0.0,0.0,0.0,0.0,0.0,3.0,0.345577,0.328067,0.298555,0.327581,0.0,-0.0,-0.0,0.0,0.0,0.0,0.003791,-0.029,0.095652,0.0492,0.09077,-0.00281
614286,-0.014657,-0.008041,0.002016,0.0,0.0,0.0,0.0,0.0,0.0,3.0,0.345614,0.329266,0.296819,0.327858,0.0,-0.0,-0.0,0.0,0.0,0.0,0.004401,-0.028006,0.095663,0.049285,0.066092,-0.003179
614306,-0.014168,-0.007066,0.001903,0.0,0.0,0.0,0.0,0.0,0.0,3.0,0.3451,0.326808,0.300147,0.327945,0.0,-0.0,-0.0,-0.0,0.0,0.0,0.005241,-0.026927,0.095551,0.010912,0.069688,-0.003191
614326,-0.013556,-0.006335,0.001788,0.0,0.0,0.0,0.0,0.0,0.0,3.0,0.343296,0.331925,0.294707,0.329472,0.0,-0.0,-0.0,-0.0,0.0,0.0,0.005766,-0.026038,0.095542,0.003448,0.020222,-0.020823
614346,-0.012945,-0.005603,0.001795,0.0,0.0,0.0,0.0,0.0,0.0,3.0,0.345376,0.330076,0.29542,0.328512,-0.0,-0.0,-0.0,-0.0,0.0,0.0,0.006274,-0.025325,0.095445,0.041446,0.024034,-0.003532
614366,-0.012456,-0.00475,0.00168,0.0,0.0,0.0,0.0,0.0,0.0,3.0,0.343049,0.330074,0.294574,0.3317,-0.0,-0.0,-0.0,0.0,0.0,0.0,0.007008,-0.024327,0.095435,0.020457,0.02002,0.000177
614386,-0.011723,-0.00414,0.001685,0.0,0.0,0.0,0.0,0.0,0.0,3.0,0.343338,0.329522,0.2968,0.33004,-0.0,-0.0,-0.0,-0.0,0.0,0.0,0.007601,-0.023617,0.095318,0.02439,0.045101,0.000479
614406,-0.01099,-0.003409,0.00169,0.0,0.0,0.0,0.0,0.0,0.0,3.0,0.340872,0.3303,0.29715,0.331542,-0.0,-0.0,-0.0,-0.0,0.0,0.0,0.008298,-0.022886,0.095325,0.031899,0.024301,0.000195
614426,-0.010623,-0.002677,0.001695,0.0,0.0,0.0,0.0,0.0,0.0,3.0,0.343399,0.330401,0.293905,0.331575,-0.0,-0.0,-0.0,0.0,0.0,0.0,0.008679,-0.022295,0.095329,0.028392,0.028123,0.000196
614446,-0.00989,-0.001823,0.001578,0.0,0.0,0.0,0.0,0.0,0.0,3.0,0.345167,0.325233,0.300014,0.329548,-0.0,-0.0,-0.0,0.0,0.0,0.0,0.009293,-0.021439,0.095229,0.070132,0.048776,-0.00341
614466,-0.009157,-0.001213,0.001582,0.0,0.0,0.0,0.0,0.0,0.0,3.0,0.342275,0.329307,0.29607,0.331995,0.0,-0.0,-0.0,0.0,0.0,0.0,0.010044,-0.02071,0.095216,0.04541,0.028089,0.000164
614486,-0.008424,-0.000482,0.001585,0.0,0.0,0.0,0.0,0.0,0.0,3.0,0.344771,0.325992,0.300752,0.328572,-0.0,-0.0,-0.0,-0.0,0.0,0.0,0.010759,-0.0201,0.095115,0.028146,0.02811,-0.003596
614506,-0.007569,0.00025,0.001466,0.0,0.0,0.0,0.0,0.0,0.0,3.0,0.342625,0.326704,0.301217,0.32973,-0.0,-0.0,-0.0,-0.0,0.0,0.0,0.011616,-0.019349,0.095119,0.027899,0.024113,-0.003793
614526,-0.00708,0.001104,0.001469,0.0,0.0,0.0,0.0,0.0,0.0,3.0,0.342127,0.328923,0.296288,0.332341,-0.0,-0.0,-0.0,0.0,0.0,0.0,0.012243,-0.018617,0.095104,0.003306,0.024147,8.6e-05
614546,-0.006591,0.001836,0.001471,0.0,0.0,0.0,0.0,0.0,0.0,3.0,0.342068,0.327231,0.295798,0.334473,0.0,-0.0,-0.0,0.0,0.0,0.0,0.012732,-0.017657,0.095107,0.024287,0.006733,4e-06
614566,-0.006102,0.002324,0.001472,0.0,0.0,0.0,0.0,0.0,0.0,3.0,0.342517,0.329611,0.295238,0.332151,0.0,0.0,-0.0,-0.0,0.0,0.0,0.013238,-0.017154,0.095108,0.041565,0.024255,3.2e-05
614586,-0.005491,0.003178,0.001474,0.0,0.0,0.0,0.0,0.0,0.0,3.0,0.342252,0.327671,0.29549,0.334117,-0.0,0.0,-0.0,-0.0,0.0,0.0,0.013708,-0.016439,0.09511,0.045557,0.048976,7.5e-05
614606,-0.005003,0.003788,0.001352,0.0,0.0,0.0,0.0,0.0,0.0,3.0,0.342538,0.329229,0.295133,0.332595,-0.0,0.0,-0.0,-0.0,0.0,0.0,0.014196,-0.015813,0.095111,0.024535,0.045349,7.8e-05
614626,-0.004758,0.004032,0.001475,0.0,0.0,0.0,0.0,0.0,0.0,3.0,0.340805,0.331183,0.291702,0.335327,-0.0,0.0,-0.0,0.0,0.0,0.0,0.014562,-0.015221,0.095093,0.02449,0.007252,0.003858
614646,-0.004391,0.00452,0.001475,0.0,0.0,0.0,0.0,0.0,0.0,3.0,0.340923,0.331178,0.293915,0.333369,-0.0,0.0,-0.0,-0.0,0.0,0.0,0.01491,-0.01496,0.095093,0.028406,0.045558,0.003886
614666,-0.004147,0.00513,0.001476,0.0,0.0,0.0,0.0,0.0,0.0,3.0,0.346333,0.324738,0.298151,0.33042,-0.0,0.0,-0.0,-0.0,0.0,0.0,0.015333,-0.014367,0.095007,0.016906,0.028304,0.017262
614686,-0.00378,0.005618,0.001476,0.0,0.0,0.0,0.0,0.0,0.0,3.0,0.343331,0.330033,0.293301,0.332521,-0.0,0.0,-0.0,0.0,0.0,0.0,0.015576,-0.013984,0.095112,0.017032,0.045487,1.9e-05
614706,-0.003414,0.005984,0.001475,0.0,0.0,0.0,0.0,0.0,0.0,3.0,0.341619,0.329548,0.296044,0.33246,-0.0,0.0,-0.0,0.0,0.0,0.0,0.01603,-0.013496,0.095112,-0.017514,0.024513,9.5e-05
614726,-0.002926,0.00635,0.001352,0.0,0.0,0.0,0.0,0.0,0.0,3.0,0.339536,0.331841,0.296214,0.332191,0.0,0.0,-0.0,-0.0,0.0,0.0,0.016521,-0.013235,0.095092,-0.017772,0.041751,-0.017014
614746,-0.002437,0.006838,0.001229,0.0,0.0,0.0,0.0,0.0,0.0,3.0,0.343873,0.325159,0.302845,0.328487,-0.0,0.0,-0.0,-0.0,0.0,0.0,0.01699,-0.012765,0.094883,0.007069,0.024489,-0.003698
614766,-0.001949,0.00696,0.001228,0.0,0.0,0.0,0.0,0.0,0.0,3.0,0.340756,0.329267,0.298261,0.331732,-0.0,0.0,-0.0,-0.0,0.0,0.0,0.017496,-0.012399,0.094864,0.024333,0.00349,-8.1e-05
614786,-0.001461,0.007325,0.001104,0.0,0.0,0.0,0.0,0.0,0.0,3.0,0.341385,0.329266,0.296793,0.332342,-0.0,0.0,-0.0,-0.0,0.0,0.0,0.017861,-0.012155,0.094863,0.045548,0.003547,-0.000158
614806,-0.00085,0.007691,0.001102,0.0,0.0,0.0,0.0,0.0,0.0,3.0,0.341526,0.327748,0.299528,0.331333,-0.0,0.0,-0.0,0.0,0.0,0.0,0.018472,-0.01177,0.094738,0.024462,0.041509,8.6e-05
614826,-0.000118,0.008057,0.000977,0.0,0.0,0.0,0.0,0.0,0.0,3.0,0.341692,0.32628,0.302487,0.330004,-0.0,0.0,-0.0,-0.0,0.0,0.0,0.019046,-0.011424,0.094614,0.011028,0.024652,7.3e-05
614846,0.00037,0.008423,0.000853,0.0,0.0,0.0,0.0,0.0,0.0,3.0,0.344381,0.325828,0.302201,0.32786,-0.0,0.0,-0.0,-0.0,0.0,0.0,0.01957,-0.011162,0.094508,0.024239,0.041755,-0.003833
614866,0.00098,0.008545,0.000728,0.0,0.0,0.0,0.0,0.0,0.0,3.0,0.339803,0.328929,0.300254,0.331321,-0.0,0.0,-0.0,0.0,0.0,0.0,0.020305,-0.010796,0.094488,0.024059,-0.000206,-0.021079
614886,0.00159,0.009033,0.000603,0.0,0.0,0.0,0.0,0.0,0.0,3.0,0.340593,0.326746,0.299968,0.332899,-0.0,0.0,-0.0,0.0,0.0,0.0,0.020932,-0.010446,0.094363,0.020474,0.024429,-8.4e-05
614906,0.002078,0.009399,0.000601,0.0,0.0,0.0,0.0,0.0,0.0,3.0,0.340833,0.325912,0.30137,0.332243,-0.0,0.0,-0.0,0.0,0.0,0.0,0.021524,-0.009939,0.094237,0.003334,-0.000399,0.000142
614926,0.002688,0.009765,0.000475,0.0,0.0,0.0,0.0,0.0,0.0,3.0,0.342783,0.325191,0.304661,0.327982,-0.0,0.0,-0.0,-0.0,0.0,0.0,0.021993,-0.00982,0.094131,0.028158,0.020814,-0.003891
614946,0.003176,0.010254,0.00035,0.0,0.0,0.0,0.0,0.0,0.0,3.0,0.340099,0.325596,0.300612,0.333965,-0.0,0.0,-0.0,-0.0,0.0,0.0,0.02248,-0.009225,0.09411,0.049129,0.024276,-0.021261
614966,0.003664,0.010376,0.000347,0.0,0.0,0.0,0.0,0.0,0.0,3.0,0.340801,0.326264,0.300438,0.332746,-0.0,0.0,-0.0,0.0,0.0,0.0,0.022985,-0.008861,0.093985,0.066493,0.003539,-0.000327
614986,0.004152,0.01062,0.000222,0.0,0.0,0.0,0.0,0.0,0.0,3.0,0.340415,0.326521,0.299654,0.333572,-0.0,0.0,-0.0,0.0,0.0,0.0,0.023473,-0.008616,0.093982,0.045654,0.003613,-0.000249
615006,0.004518,0.010864,0.00022,0.0,0.0,0.0,0.0,0.0,0.0,3.0,0.342146,0.326426,0.300397,0.331228,-0.0,0.0,-0.0,-0.0,0.0,0.0,0.023838,-0.008477,0.093857,0.003686,-0.000108,0.000138
615026,0.004639,0.011353,9.6e-05,0.0,0.0,0.0,0.0,0.0,0.0,3.0,0.342682,0.325678,0.297421,0.333968,-0.0,0.0,-0.0,-0.0,0.0,0.0,0.023977,-0.008127,0.093856,0.020654,0.024481,-0.021146
615046,0.004762,0.011475,9.5e-05,0.0,0.0,0.0,0.0,0.0,0.0,3.0,0.340419,0.32955,0.293093,0.33617,-0.0,0.0,-0.0,0.0,0.0,0.0,0.024117,-0.007743,0.093837,0.01696,-0.000251,-0.017317
615066,0.004884,0.011719,9.3e-05,0.0,0.0,0.0,0.0,0.0,0.0,3.0,0.342737,0.326391,0.297924,0.332788,-0.0,0.0,-0.0,0.0,0.0,0.0,0.024362,-0.007641,0.093731,0.016949,0.024703,-0.000133
615086,0.00525,0.012085,9e-05,0.0,0.0,0.0,0.0,0.0,0.0,3.0,0.341925,0.325449,0.298254,0.33426,-0.0,0.0,-0.0,-0.0,0.0,0.0,0.024607,-0.007273,0.093728,0.016998,0.024569,-0.000165
615106,0.005616,0.012329,8.7e-05,0.0,0.0,0.0,0.0,0.0,0.0,3.0,0.339818,0.326494,0.300796,0.333224,-0.0,0.0,-0.0,0.0,0.0,0.0,0.02506,-0.007012,0.093725,0.003441,0.02084,-7.8e-05
615126,0.005738,0.012573,8.6e-05,0.0,0.0,0.0,0.0,0.0,0.0,3.0,0.340542,0.325199,0.299927,0.334487,-0.0,0.0,-0.0,0.0,0.0,0.0,0.025303,-0.006663,0.093722,0.003577,0.003598,-3.3e-05
615146,0.006104,0.012818,-3.9e-05,0.0,0.0,0.0,0.0,0.0,0.0,3.0,0.34001,0.326426,0.300555,0.333301,-0.0,0.0,-0.0,0.0,0.0,0.0,0.025547,-0.006523,0.09372,0.045566,0.02086,-0.000354
615166,0.00647,0.013306,-4.3e-05,0.0,0.0,0.0,0.0,0.0,0.0,3.0,0.341532,0.322702,0.301697,0.33433,-0.0,0.0,-0.0,0.0,0.0,0.0,0.025931,-0.00605,0.093594,0.020865,0.003487,9e-06
615186,0.00708,0.013672,-4.8e-05,0.0,0.0,0.0,0.0,0.0,0.0,3.0,0.342086,0.322537,0.303945,0.331942,-0.0,0.0,-0.0,-0.0,0.0,0.0,0.026278,-0.005808,0.093468,0.024711,0.024477,0.020836
615206,0.007568,0.014161,-0.000176,0.0,0.0,0.0,0.0,0.0,0.0,3.0,0.340351,0.322586,0.305196,0.332584,-0.0,0.0,-0.0,-0.0,0.0,0.0,0.026872,-0.005442,0.093463,0.007124,0.024523,-5.4e-05
615226,0.008178,0.014649,-0.000182,0.0,0.0,0.0,0.0,0.0,0.0,3.0,0.33893,0.323685,0.302951,0.334962,-0.0,0.0,-0.0,-0.0,0.0,0.0,0.027379,-0.004952,0.093459,0.024123,0.04542,-0.021329
615246,0.008543,0.014894,-0.000308,0.0,0.0,0.0,0.0,0.0,0.0,3.0,0.342533,0.322921,0.302365,0.332502,-0.0,0.0,-0.0,-0.0,0.0,0.0,0.027778,-0.004588,0.093331,0.037762,0.024611,-0.000403
615266,0.009152,0.015139,-0.000436,0.0,0.0,0.0,0.0,0.0,0.0,3.0,0.340322,0.320409,0.309493,0.330829,-0.0,0.0,-0.0,0.0,0.0,0.0,0.028581,-0.004201,0.09322,0.007003,0.020698,-0.003879
615286,0.009641,0.015749,-0.000442,0.0,0.0,0.0,0.0,0.0,0.0,3.0,0.336616,0.32281,0.306438,0.335074,-0.0,0.0,-0.0,0.0,0.0,0.0,0.029172,-0.003853,0.093196,-0.010047,0.024568,-4.1e-05
615306,0.010372,0.015994,-0.000571,0.0,0.0,0.0,0.0,0.0,0.0,3.0,0.335898,0.323107,0.306944,0.335063,-0.0,0.0,-0.0,0.0,0.0,0.0,0.029802,-0.003346,0.093189,0.027809,-0.000334,-0.021194
615326,0.010981,0.016117,-0.000699,0.0,0.0,0.0,0.0,0.0,0.0,3.0,0.338204,0.322721,0.30545,0.334426,-0.0,0.0,-0.0,-0.0,0.0,0.0,0.030305,-0.003121,0.093061,0.045441,-0.017389,-0.000246
615346,0.011835,0.016484,-0.00083,0.0,0.0,0.0,0.0,0.0,0.0,3.0,0.338702,0.319654,0.306667,0.335742,-0.0,0.0,-0.0,0.0,-0.0,0.0,0.030914,-0.002769,0.092932,0.045398,0.028199,-0.000379
615366,0.012323,0.016606,-0.000835,0.0,0.0,0.0,0.0,0.0,0.0,3.0,0.338245,0.32231,0.30747,0.332979,-0.0,0.0,-0.0,0.0,0.0,0.0,0.031627,-0.002614,0.092803,0.007104,2.9e-05,9.8e-05
615386,0.01281,0.017095,-0.000964,0.0,0.0,0.0,0.0,0.0,0.0,3.0,0.339249,0.318976,0.309342,0.333433,-0.0,0.0,-0.0,-0.0,0.0,0.0,0.032095,-0.002404,0.092675,0.052918,0.028449,-0.000515
615406,0.013541,0.01734,-0.001094,0.0,0.0,0.0,0.0,0.0,0.0,3.0,0.340591,0.317927,0.310695,0.331811,-0.0,0.0,-0.0,0.0,0.0,0.0,0.032742,-0.002018,0.092564,0.066343,0.003602,-0.004326
615426,0.014274,0.017464,-0.001102,0.0,0.0,0.0,0.0,0.0,0.0,3.0,0.337811,0.322881,0.30641,0.333821,-0.0,0.0,-0.0,0.0,-0.0,0.0,0.033351,-0.001878,0.09254,0.024524,-0.000147,-0.000213
615446,0.014761,0.017953,-0.001231,0.0,0.0,0.0,0.0,0.0,0.0,3.0,0.337536,0.320766,0.306494,0.33603,-0.0,0.0,-0.0,-0.0,-0.0,0.0,0.033963,-0.001527,0.092532,0.00305,0.003616,-0.02103
615466,0.01537,0.017832,-0.001358,0.0,0.0,0.0,0.0,0.0,0.0,3.0,0.337512,0.321645,0.307731,0.334125,-0.0,0.0,-0.0,-0.0,-0.0,0.0,0.034592,-0.001265,0.092402,0.041267,-0.021266,-0.000183
615486,0.01598,0.018077,-0.001365,0.0,0.0,0.0,0.0,0.0,0.0,3.0,0.336135,0.323469,0.305702,0.33558,-0.0,0.0,-0.0,0.0,0.0,0.0,0.0352,-0.001265,0.092398,0.020345,0.021058,-0.021278
615506,0.016712,0.018322,-0.001496,0.0,0.0,0.0,0.0,0.0,0.0,3.0,0.336176,0.320176,0.309544,0.335237,0.0,0.0,-0.0,0.0,-0.0,0.0,0.035915,-0.000896,0.092265,0.02413,0.020739,-0.000367
615526,0.016956,0.018566,-0.001501,0.0,0.0,0.0,0.0,0.0,0.0,3.0,0.336298,0.31908,0.311283,0.334576,0.0,0.0,-0.0,0.0,-0.0,0.0,0.036627,-0.00067,0.092134,-0.013955,0.003748,0.000255
615546,0.017564,0.018812,-0.00163,0.0,0.0,0.0,0.0,0.0,0.0,3.0,0.337605,0.317259,0.312605,0.333755,0.0,0.0,-0.0,-0.0,-0.0,0.0,0.036992,-0.000424,0.092006,0.028418,0.024425,0.020605
615566,0.01793,0.019056,-0.001636,0.0,0.0,0.0,0.0,0.0,0.0,3.0,0.342042,0.315346,0.311665,0.331836,-0.0,0.0,-0.0,-0.0,0.0,0.0,0.037268,-0.00018,0.091897,0.041975,0.003627,0.016946
615586,0.018295,0.01918,-0.001763,0.0,0.0,0.0,0.0,0.0,0.0,3.0,0.338761,0.320209,0.310961,0.331291,-0.0,0.0,-0.0,-0.0,-0.0,0.0,0.037739,-0.000286,0.091876,0.003534,0.042054,-0.000332
615606,0.018661,0.019302,-0.001767,0.0,0.0,0.0,0.0,0.0,0.0,3.0,0.336976,0.320619,0.308692,0.334779,-0.0,0.0,-0.0,-0.0,-0.0,0.0,0.037963,-5.9e-05,0.091873,0.028363,0.024779,-0.000501
615626,0.018538,0.019059,-0.001886,0.0,0.0,0.0,0.0,0.0,0.0,3.0,0.342321,0.319707,0.310063,0.328887,-0.0,0.0,-0.0,0.0,-0.0,0.0,0.038119,-0.000146,0.091767,0.020869,-0.003595,-0.003896
615646,0.018659,0.01906,-0.002009,0.0,0.0,0.0,0.0,0.0,0.0,3.0,0.340228,0.322424,0.305574,0.33253,-0.0,0.0,-0.0,0.0,-0.0,0.0,0.037995,-0.000266,0.091752,0.020994,0.017445,-0.021337
615666,0.018537,0.019182,-0.002009,0.0,0.0,0.0,0.0,0.0,0.0,3.0,0.336425,0.323144,0.303019,0.337934,-0.0,0.0,-0.0,-0.0,0.0,0.0,0.038119,-3.8e-05,0.091732,-0.021208,8e-06,-0.017018
615686,0.018293,0.01906,-0.002006,0.0,0.0,0.0,0.0,0.0,0.0,3.0,0.339843,0.321928,0.306273,0.332777,-0.0,0.0,-0.0,0.0,-0.0,0.0,0.037996,-0.000143,0.091629,-0.02099,-0.003745,0.000259
615706,0.018293,0.019182,-0.002007,0.0,0.0,0.0,0.0,0.0,0.0,3.0,0.338736,0.320939,0.307053,0.334156,0.0,0.0,-0.0,0.0,-0.0,0.0,0.038016,-0.00016,0.091629,-0.024898,-2e-05,0.000236
615726,0.018537,0.019182,-0.002009,0.0,0.0,0.0,0.0,0.0,0.0,3.0,0.337043,0.320213,0.309126,0.334705,0.0,0.0,-0.0,0.0,-0.0,0.0,0.038102,-3.7e-05,0.091627,0.003646,-0.000154,-3.3e-05
615746,0.018538,0.019181,-0.001887,0.0,0.0,0.0,0.0,0.0,0.0,3.0,0.339359,0.318021,0.309016,0.334509,0.0,0.0,-0.0,-0.0,-0.0,0.0,0.038099,6.7e-05,0.091645,0.003825,-0.017201,-0.003718
615766,0.01866,0.019181,-0.001888,0.0,0.0,0.0,0.0,0.0,0.0,3.0,0.335938,0.319489,0.30806,0.337437,0.0,0.0,-0.0,-0.0,0.0,0.0,0.038205,0.000189,0.091747,0.02858,-0.038274,-7.3e-05
615786,0.01866,0.019181,-0.001888,0.0,0.0,0.0,0.0,0.0,0.0,3.0,0.338461,0.320787,0.307164,0.334481,0.0,0.0,-0.0,0.0,-0.0,0.0,0.038241,-3.9e-05,0.091748,0.000135,5.1e-05,-2e-06
615806,0.018782,0.019181,-0.00189,0.0,0.0,0.0,0.0,0.0,0.0,3.0,0.338774,0.319037,0.307055,0.335902,0.0,0.0,-0.0,0.0,-0.0,0.0,0.03826,6.6e-05,0.091747,0.017147,-0.017228,-3e-06
615826,0.018662,0.019058,-0.001765,0.0,0.0,0.0,0.0,0.0,0.0,3.0,0.338614,0.321645,0.307154,0.333519,0.0,0.0,-0.0,-0.0,-0.0,0.0,0.038221,-0.000144,0.091749,-0.017062,0.017254,1e-06
615846,0.01854,0.019058,-0.001764,0.0,0.0,0.0,0.0,0.0,0.0,3.0,0.34257,0.317759,0.307561,0.332755,0.0,0.0,-0.0,-0.0,0.0,0.0,0.038033,-0.000181,0.091769,0.013534,0.003823,0.016923
615866,0.018541,0.019179,-0.001643,0.0,0.0,0.0,0.0,0.0,0.0,3.0,0.340051,0.319276,0.307121,0.334321,0.0,0.0,-0.0,0.0,-0.0,0.0,0.038016,-0.000163,0.091892,0.017156,0.021017,-0.004225
615886,0.018663,0.018935,-0.001642,0.0,0.0,0.0,0.0,0.0,0.0,3.0,0.336807,0.323214,0.306542,0.334404,0.0,0.0,-0.0,0.0,-0.0,0.0,0.038122,-0.00027,0.091996,-4.3e-05,0.017327,-0.000318
615906,0.018664,0.019056,-0.001521,0.0,0.0,0.0,0.0,0.0,0.0,3.0,0.334695,0.324258,0.303187,0.33845,0.0,0.0,-0.0,0.0,-0.0,0.0,0.038122,-0.000287,0.0921,-1.2e-05,9.6e-05,0.003731
615926,0.018787,0.019299,-0.001402,0.0,0.0,0.0,0.0,0.0,0.0,3.0,0.336174,0.31898,0.308845,0.33698,0.0,0.0,-0.0,0.0,-0.0,0.0,0.038369,-4e-05,0.092113,-8.3e-05,0.020506,0.020785
615946,0.018666,0.019053,-0.001277,0.0,0.0,0.0,0.0,0.0,0.0,3.0,0.337117,0.321759,0.3067,0.335333,0.0,0.0,-0.0,-0.0,-0.0,0.0,0.038387,-2.6e-05,0.092235,-0.00362,-0.024922,0.021221
615966,0.018545,0.019296,-0.001156,0.0,0.0,0.0,0.0,0.087266,0.0,3.0,0.336759,0.346858,0.306995,0.309051,0.0,6.5e-05,-0.0,-0.0,0.026099,0.0,0.038228,-6.2e-05,0.092359,0.004181,0.024529,0.020683
615986,0.018424,0.019295,-0.001032,0.0,0.0,0.0,0.0,0.087266,0.0,3.0,0.335774,0.345463,0.30806,0.310719,0.0,0.000974,-0.0,-0.0,0.076184,0.0,0.03823,0.000286,0.092478,0.004101,-0.013726,0.02104
616006,0.018303,0.019294,-0.000909,0.0,0.0,0.0,0.0,0.087266,0.0,3.0,0.337139,0.34968,0.3062,0.306074,0.0,0.002818,-0.0,-0.0,0.116723,0.0,0.038004,-5e-05,0.092605,0.021286,0.0003,-0.00023
616026,0.018427,0.019781,-0.000793,0.0,0.0,0.0,0.0,0.087266,0.0,3.0,0.340194,0.344513,0.30906,0.305814,0.0,0.005398,-0.0,-0.0,0.147693,0.0,0.0379,0.00018,0.092622,0.017561,0.04536,0.016498
616046,0.018427,0.020879,-0.000681,0.0,0.0,0.0,0.0,0.087266,0.0,3.0,0.336063,0.346088,0.305241,0.312437,0.0,0.008537,-0.0,-0.0,0.170988,0.0,0.037884,0.000914,0.092842,5.1e-05,0.066219,-0.00079
616066,0.018428,0.022464,-0.000573,0.0,0.0,0.0,0.0,0.087266,0.0,3.0,0.334837,0.341797,0.307355,0.316582,0.0,0.012095,-0.0,-0.0,0.188346,0.0,0.03799,0.002365,0.09295,-0.01732,0.069392,-0.000606
616086,0.018428,0.024782,-0.000473,0.0,0.0,0.0,0.0,0.087266,0.0,3.0,0.332122,0.33949,0.302451,0.326487,0.0,0.015965,-0.0,-0.0,0.201133,0.0,0.037868,0.00437,0.09316,0.003823,0.105095,0.002568
616106,0.018432,0.027833,-0.000257,0.0,0.0,0.0,0.0,0.087266,0.0,3.0,0.329016,0.336565,0.302545,0.33255,-0.0,0.020061,-0.0,-0.0,0.210399,0.0,0.038137,0.007041,0.093377,-0.000254,0.129401,0.002426
616126,0.018801,0.031736,-5.4e-05,0.0,0.0,0.0,0.0,0.087266,0.0,3.0,0.332171,0.32818,0.306552,0.334239,-0.0,0.024322,-0.0,-0.0,0.216945,0.0,0.03826,0.010445,0.093483,0.021185,0.195308,0.018723
616146,0.01905,0.03613,0.000144,0.0,0.0,0.0,0.0,0.087266,0.0,3.0,0.331572,0.326437,0.303935,0.338796,-0.0,0.028697,-0.0,-0.0,0.221381,0.0,0.038384,0.014475,0.093669,0.041978,0.237117,0.000743
616166,0.019175,0.040647,0.000221,0.0,0.0,0.0,0.0,0.087266,0.0,3.0,0.335987,0.319909,0.304849,0.339802,-0.0,0.033148,-0.0,-0.0,0.224172,0.0,0.038402,0.018955,0.093766,0.059202,0.223458,-0.003432
616186,0.019422,0.045652,0.000289,0.0,0.0,0.0,0.0,0.087266,0.0,3.0,0.331984,0.319014,0.304519,0.344773,-0.0,0.037645,-0.0,-0.0,0.225675,0.0,0.038777,0.023737,0.093959,0.017031,0.26121,-0.003158
616206,0.019917,0.051143,0.000468,0.0,0.0,0.0,0.0,0.087266,0.0,3.0,0.330376,0.312168,0.308908,0.348599,-0.0,0.042163,-0.0,-0.0,0.22616,0.0,0.039235,0.029075,0.094018,0.003942,0.268298,0.018157
616226,0.020044,0.056026,0.000538,0.0,0.0,0.0,0.0,0.087266,0.0,3.0,0.32921,0.314976,0.306243,0.349495,-0.0,0.046685,-0.0,-0.0,0.225837,0.0,0.039626,0.034216,0.094183,-0.021286,0.243847,0.001853
616246,0.020418,0.061274,0.000719,0.0,0.0,0.0,0.0,0.087266,0.0,3.0,0.328787,0.311199,0.307469,0.3521,-0.0,0.051195,-0.0,-0.0,0.224865,0.0,0.039857,0.039307,0.094248,0.004437,0.251848,0.022097
616266,0.02055,0.065911,0.000912,0.0,0.0,0.0,0.0,0.087266,0.0,3.0,0.327576,0.312476,0.307218,0.352327,-0.0,0.055682,-0.0,-0.0,0.223366,0.0,0.040233,0.044348,0.09443,0.004314,0.222754,0.022308
616286,0.020927,0.070308,0.001099,0.0,0.0,0.0,0.0,0.087266,0.0,3.0,0.327184,0.313826,0.307324,0.351441,-0.0,0.060136,-0.0,-0.0,0.221435,0.0,0.040486,0.04888,0.094619,0.02478,0.219403,0.000564
616306,0.021178,0.074336,0.00117,0.0,0.0,0.0,0.0,0.087266,0.0,3.0,0.331088,0.312655,0.308585,0.347789,-0.0,0.064548,-0.0,-0.0,0.219145,0.0,0.040612,0.053045,0.094712,0.025839,0.216503,0.017699
616326,0.021672,0.078486,0.001229,0.0,0.0,0.0,0.0,0.087266,0.0,3.0,0.32597,0.310932,0.308928,0.353658,-0.0,0.068912,-0.0,-0.0,0.216553,0.0,0.041097,0.057408,0.094875,0.028497,0.181628,0.000667
616346,0.021679,0.081905,0.001315,0.0,0.0,0.0,0.0,0.087266,0.0,3.0,0.327375,0.314026,0.307368,0.351059,-0.0,0.073222,-0.0,-0.0,0.213703,0.0,0.041345,0.061082,0.094948,-0.013184,0.1574,0.002585
616366,0.021935,0.084956,0.001516,0.0,0.0,0.0,0.0,0.087266,0.0,3.0,0.329207,0.316241,0.306924,0.34782,-0.0,0.077473,-0.0,-0.0,0.21063,0.0,0.04139,0.064148,0.095054,0.021832,0.174756,0.018132
616386,0.022065,0.087764,0.001603,0.0,0.0,0.0,0.0,0.087266,0.0,3.0,0.33034,0.315056,0.309872,0.345287,-0.0,0.081661,-0.0,-0.0,0.207363,0.0,0.041623,0.067096,0.095134,0.004663,0.17102,0.018958
616406,0.02195,0.090207,0.001704,0.0,0.0,0.0,0.0,0.087266,0.0,3.0,0.330966,0.318526,0.30868,0.342622,-0.0,0.085783,-0.0,-0.0,0.203924,0.0,0.041628,0.06957,0.095229,0.004868,0.163992,0.019037
616426,0.022202,0.092528,0.00179,0.0,0.0,0.0,0.0,0.087266,0.0,3.0,0.330717,0.319089,0.308655,0.34237,-0.0,0.089835,-0.0,-0.0,0.200332,0.0,0.041655,0.07189,0.095325,0.022048,0.143102,0.01847
616446,0.02196,0.094363,0.001782,0.0,0.0,0.0,0.0,0.087266,0.0,3.0,0.335045,0.318322,0.311042,0.336751,-0.0,0.093814,-0.0,-0.0,0.196601,0.0,0.041655,0.073875,0.095321,0.001171,0.136518,0.015814
616466,0.022084,0.09632,0.001754,0.0,0.0,0.0,0.0,0.087266,0.0,3.0,0.330135,0.319317,0.309979,0.341563,-0.0,0.097717,-0.0,-0.0,0.192744,0.0,0.041627,0.075936,0.095405,0.028698,0.097529,-0.002481
616486,0.021969,0.098147,0.001863,0.0,0.0,0.0,0.0,0.087266,0.0,3.0,0.33321,0.317817,0.308836,0.340971,-0.0,0.101542,-0.0,-0.0,0.188773,0.0,0.041542,0.077912,0.095407,0.022058,0.093401,0.015121
616506,0.021971,0.099982,0.001843,0.0,0.0,0.0,0.0,0.087266,0.0,3.0,0.331334,0.318722,0.307559,0.343062,-0.0,0.105287,-0.0,-0.0,0.184697,0.0,0.041569,0.079887,0.095488,-0.003673,0.089865,-0.000828
616526,0.021729,0.101696,0.001837,0.0,0.0,0.0,0.0,0.087266,0.0,3.0,0.332917,0.31894,0.306107,0.342596,-0.0,0.10895,-0.0,-0.0,0.180524,0.0,0.041324,0.081573,0.095482,-0.003361,0.074083,-0.000564
616546,0.02173,0.103524,0.001817,0.0,0.0,0.0,0.0,0.087266,0.0,3.0,0.335048,0.312625,0.312112,0.340964,-0.0,0.112529,-0.0,-0.0,0.176263,0.0,0.041324,0.083393,0.095357,0.018023,0.09731,0.015358
616566,0.021603,0.105483,0.00168,0.0,0.0,0.0,0.0,0.087266,0.0,3.0,0.335164,0.31514,0.308378,0.341886,-0.0,0.116022,-0.0,-0.0,0.17192,0.0,0.041077,0.085123,0.095333,-0.003453,0.093955,-0.000743
616586,0.021477,0.107319,0.001544,0.0,0.0,0.0,0.0,0.087266,0.0,3.0,0.331685,0.316281,0.308666,0.343966,-0.0,0.119427,-0.0,-0.0,0.167503,0.0,0.041063,0.086957,0.095316,-0.001104,0.094169,-0.022063
616606,0.021472,0.109034,0.001404,0.0,0.0,0.0,0.0,0.087266,0.0,3.0,0.333841,0.312692,0.309603,0.344273,-0.0,0.122744,-0.0,-0.0,0.163017,0.0,0.040954,0.088893,0.095197,-0.003693,0.077707,-0.004414
616626,0.021351,0.110747,0.001392,0.0,0.0,0.0,0.0,0.087266,0.0,3.0,0.33181,0.316004,0.305638,0.346677,-0.0,0.12597,-0.0,-0.0,0.158468,0.0,0.040851,0.090624,0.095166,-0.008749,0.073106,-0.021375
616646,0.021468,0.112827,0.001241,0.0,0.0,0.0,0.0,0.087266,0.0,3.0,0.330594,0.311243,0.311613,0.346875,-0.0,0.129105,-0.0,-0.0,0.153862,0.0,0.041056,0.092584,0.09501,-0.021202,0.072683,0.000442
616666,0.021346,0.114655,0.001228,0.0,0.0,0.0,0.0,0.087266,0.0,3.0,0.332019,0.309661,0.311548,0.346953,-0.0,0.132147,-0.0,-0.0,0.149205,0.0,0.041049,0.094523,0.094866,-0.041998,0.055581,0.001976
616686,0.021218,0.116492,0.001093,0.0,0.0,0.0,0.0,0.087266,0.0,3.0,0.332771,0.307431,0.313887,0.346111,-0.0,0.135096,-0.0,-0.0,0.144502,0.0,0.041045,0.096359,0.094723,-0.021154,0.055551,0.000748
616706,0.021097,0.117961,0.001085,0.0,0.0,0.0,0.0,0.087266,0.0,3.0,0.330774,0.311703,0.310684,0.347111,-0.0,0.137951,-0.0,-0.0,0.139758,0.0,0.040922,0.097966,0.094715,-0.020827,0.052162,0.000683
616726,0.021091,0.119432,0.000947,0.0,0.0,0.0,0.0,0.087266,0.0,3.0,0.333307,0.305231,0.316027,0.345581,-0.0,0.14071,-0.0,-0.0,0.134979,0.0,0.040899,0.099657,0.094592,-0.017145,0.056986,-0.003299
616746,0.020833,0.120897,0.000701,0.0,0.0,0.0,0.0,0.087266,0.0,3.0,0.333761,0.306967,0.313238,0.346133,-0.0,0.143373,-0.0,-0.0,0.130169,0.0,0.040645,0.101146,0.09445,-0.016921,0.052176,0.000588
616766,0.020704,0.122369,0.00057,0.0,0.0,0.0,0.0,0.087266,0.0,3.0,0.332872,0.306857,0.311408,0.34865,-0.0,0.145941,-0.0,-0.0,0.125333,0.0,0.040414,0.10258,0.094327,0.000166,0.080727,-0.0007
616786,0.020583,0.123717,0.000564,0.0,0.0,0.0,0.0,0.087266,0.0,3.0,0.332719,0.306257,0.311683,0.349063,-0.0,0.148411,-0.0,-0.0,0.120476,0.0,0.040285,0.104049,0.094196,0.000183,0.060163,-0.000475
616806,0.020324,0.124816,0.000322,0.0,0.0,0.0,0.0,0.087266,0.0,3.0,0.334595,0.308496,0.311911,0.345187,-0.0,0.150784,-0.0,-0.0,0.115603,0.0,0.040032,0.105059,0.094078,0.000252,0.052616,-0.000448
616826,0.020195,0.126043,0.000195,0.0,0.0,0.0,0.0,0.087266,0.0,3.0,0.336482,0.305529,0.315689,0.342567,-0.0,0.153059,-0.0,-0.0,0.110719,0.0,0.039898,0.106043,0.093848,-8.1e-05,0.094698,-0.004573
616846,0.020308,0.127141,5.3e-05,0.0,0.0,0.0,0.0,0.087266,0.0,3.0,0.334473,0.306714,0.316514,0.342764,-0.0,0.155237,-0.0,-0.0,0.105827,0.0,0.039873,0.107159,0.093715,0.024517,0.090635,-0.006271
616866,0.020293,0.128369,-0.000205,0.0,0.0,0.0,0.0,0.087266,0.0,3.0,0.334768,0.306718,0.313244,0.345376,-0.0,0.157317,-0.0,-0.0,0.100934,0.0,0.039758,0.108388,0.093568,0.021116,0.090487,-0.002182
616886,0.020042,0.129475,-0.000324,0.0,0.0,0.0,0.0,0.087266,0.0,3.0,0.336934,0.302927,0.316128,0.343942,-0.0,0.159299,-0.0,-0.0,0.096042,0.0,0.039744,0.10959,0.093328,-0.020922,0.074863,-0.003008
616906,0.019911,0.130695,-0.000451,0.0,0.0,0.0,0.0,0.087266,0.0,3.0,0.335454,0.3063,0.313073,0.345223,-0.0,0.161183,-0.0,-0.0,0.091156,0.0,0.03951,0.110591,0.093192,-0.003773,0.09067,-0.000561
616926,0.019652,0.131558,-0.000689,0.0,0.0,0.0,0.0,0.087266,0.0,3.0,0.339475,0.304244,0.315844,0.340576,-0.0,0.16297,-0.0,-0.0,0.086281,0.0,0.039249,0.111604,0.09297,-0.003687,0.042597,-0.003851
616946,0.019156,0.132169,-0.000785,0.0,0.0,0.0,0.0,0.087266,0.0,3.0,0.337175,0.306095,0.314202,0.342732,-0.0,0.164659,-0.0,-0.0,0.081421,0.0,0.03898,0.112466,0.092857,-5e-05,0.020176,-0.00397
616966,0.018896,0.133276,-0.001026,0.0,0.0,0.0,0.0,0.087266,0.0,3.0,0.338249,0.304026,0.312804,0.344675,-0.0,0.166251,-0.0,-0.0,0.076579,0.0,0.0385,0.113304,0.092757,0.015937,0.045066,-0.026479
616986,0.018522,0.134252,-0.001133,0.0,0.0,0.0,0.0,0.087266,0.0,3.0,0.337983,0.299037,0.315232,0.346942,-0.0,0.167746,-0.0,-0.0,0.07176,0.0,0.038364,0.11464,0.092506,-0.045723,0.027454,-0.000918
617006,0.017896,0.135116,-0.001346,0.0,0.0,0.0,0.0,0.087266,0.0,3.0,0.338197,0.304478,0.310741,0.346141,-0.0,0.169145,-0.0,-0.0,0.066967,0.0,0.037761,0.115405,0.092398,-0.029669,0.041411,-0.019463
617026,0.017522,0.135727,-0.001449,0.0,0.0,0.0,0.0,0.087266,0.0,3.0,0.339526,0.301578,0.313011,0.345296,-0.0,0.170449,-0.0,-0.0,0.062205,0.0,0.03726,0.11625,0.092196,-0.028476,0.024121,-0.002018
617046,0.016896,0.136216,-0.001657,0.0,0.0,0.0,0.0,0.087266,0.0,3.0,0.338287,0.303352,0.311454,0.34638,-0.0,0.171658,-0.0,-0.0,0.057476,0.0,0.036743,0.11686,0.092084,-0.046751,0.003551,-0.017922
617066,0.016391,0.136828,-0.001875,0.0,0.0,0.0,0.0,0.087266,0.0,3.0,0.339459,0.300152,0.314022,0.345656,-0.0,0.172772,-0.0,-0.0,0.052785,0.0,0.036241,0.117472,0.091885,-0.024748,0.003292,-0.00207
617086,0.015774,0.137325,-0.00196,0.0,0.0,0.0,0.0,0.087266,0.0,3.0,0.338008,0.303897,0.309257,0.348082,-0.0,0.173793,-0.0,-0.0,0.048134,0.0,0.035639,0.117968,0.09178,-0.028074,0.003365,0.002077
617106,0.0154,0.137813,-0.002061,0.0,0.0,0.0,0.0,0.087266,0.0,3.0,0.337803,0.303495,0.309562,0.348353,-0.0,0.174721,-0.0,-0.0,0.043528,0.0,0.035163,0.118457,0.091686,-0.033491,0.024453,-0.018928
617126,0.014904,0.13818,-0.002153,0.0,0.0,0.0,0.0,0.087266,0.0,3.0,0.33639,0.305085,0.310447,0.347625,-0.0,0.175557,-0.0,-0.0,0.038969,0.0,0.034752,0.118839,0.091589,-0.046913,0.020869,-0.018087
617146,0.0144,0.138182,-0.002365,0.0,0.0,0.0,0.0,0.087266,0.0,3.0,0.33656,0.305325,0.310369,0.347329,-0.0,0.176302,-0.0,-0.0,0.03446,0.0,0.034256,0.119064,0.091498,-0.025942,0.003863,-0.019416
617166,0.013904,0.138061,-0.002453,0.0,0.0,0.0,0.0,0.087266,0.0,3.0,0.336465,0.302934,0.314082,0.346198,-0.0,0.176958,-0.0,-0.0,0.030005,0.0,0.033979,0.119188,0.091269,-0.041623,-0.017135,0.003221
617186,0.013287,0.138184,-0.002534,0.0,0.0,0.0,0.0,0.087266,0.0,3.0,0.337178,0.305483,0.311813,0.345351,-0.0,0.177525,-0.0,-0.0,0.025606,0.0,0.03336,0.118962,0.09119,-0.041397,0.021157,0.002901
617206,0.012783,0.138185,-0.002746,0.0,0.0,0.0,0.0,0.087266,0.0,3.0,0.340523,0.301311,0.313335,0.344255,-0.0,0.178005,-0.0,-0.0,0.021267,0.0,0.032771,0.119068,0.090982,-0.028067,-0.017066,0.002347
617226,0.012287,0.138308,-0.002836,0.0,0.0,0.0,0.0,0.087266,0.0,3.0,0.337943,0.302952,0.312195,0.346404,-0.0,0.178398,-0.0,-0.0,0.016989,0.0,0.032238,0.119069,0.090897,-0.042882,0.024795,-0.018231
617246,0.01154,0.138187,-0.00303,0.0,0.0,0.0,0.0,0.087266,0.0,3.0,0.340163,0.302265,0.313263,0.343875,-0.0,0.178706,-0.0,-0.0,0.012775,0.0,0.031612,0.119087,0.090693,-0.02049,0.000131,0.001567
617266,0.0108,0.138188,-0.003102,0.0,0.0,0.0,0.0,0.087266,0.0,3.0,0.34272,0.300842,0.311571,0.344018,-0.0,0.17893,-0.0,-0.0,0.008629,0.0,0.030758,0.118929,0.090506,-0.023929,0.007808,0.001894
617286,0.010175,0.137945,-0.003304,0.0,0.0,0.0,0.0,0.087266,0.0,3.0,0.344526,0.299651,0.315568,0.339642,-0.0,0.179072,-0.0,-0.0,0.004552,0.0,0.030136,0.118722,0.090321,-0.024494,0.021145,-0.002075
617306,0.009558,0.137823,-0.003384,0.0,0.0,0.0,0.0,0.087266,0.0,3.0,0.340999,0.303698,0.313216,0.341879,-0.0,0.179133,-0.0,-0.0,0.000546,0.0,0.029481,0.118497,0.090227,-0.038932,0.017517,-0.018497
617326,0.009176,0.137703,-0.003604,0.0,0.0,0.0,0.0,0.087266,0.0,3.0,0.34415,0.300187,0.315422,0.339704,-0.0,0.179114,-0.0,-0.0,-0.003386,0.0,0.028894,0.118369,0.090041,-0.003678,-0.003881,-0.003506
617346,0.008924,0.137573,-0.003709,0.0,0.0,0.0,0.0,0.087266,0.0,3.0,0.342614,0.30066,0.314286,0.341879,-0.0,0.179017,-0.0,-0.0,-0.007243,0.0,0.028521,0.11839,0.089944,-0.003716,-0.007968,-0.003461
617366,0.00855,0.137695,-0.003807,0.0,0.0,0.0,0.0,0.087266,0.0,3.0,0.34163,0.301599,0.313073,0.34315,-0.0,0.178844,-0.0,-0.0,-0.011022,0.0,0.028127,0.118248,0.089829,0.000342,-0.003724,0.000103
617386,0.008298,0.137573,-0.003912,0.0,0.0,0.0,0.0,0.087266,0.0,3.0,0.34256,0.301571,0.31153,0.343604,-0.0,0.178596,-0.0,-0.0,-0.014722,0.0,0.027809,0.118249,0.089728,0.009768,-0.003919,-0.00055
