time_ms,roll,pitch,yaw,x,y,z,reference_roll,reference_pitch,reference_yaw,reference_throttle,throttle_1,throttle_2,throttle_3,throttle_4,roll_predicted,pitch_predicted,yaw_predicted,roll_rate_predicted,pitch_rate_predicted,yaw_rate_predicted,value1,value2,value3,value4,value5,value6
655486,0.002663,0.007699,-0.005871,0.0,0.0,0.0,0.0,0.0,0.0,3.0,0.346285,0.310973,0.316058,0.327308,-0.0,3.6e-05,0.0,0.0,3e-05,-0.0,0.022486,-0.011522,0.087661,0.000322,9.2e-05,-0.003891
655506,0.002542,0.007454,-0.005748,0.0,0.0,0.0,0.0,0.0,0.0,3.0,0.343258,0.315269,0.312121,0.330214,-0.0,3.7e-05,0.0,0.0,2.8e-05,-0.0,0.022242,-0.011626,0.087767,0.000216,0.017241,-0.000183
655526,0.002543,0.007332,-0.005626,0.0,0.0,0.0,0.0,0.0,0.0,3.0,0.34368,0.315664,0.310743,0.330672,-0.0,3.7e-05,0.0,0.0,2.6e-05,-0.0,0.022017,-0.011769,0.08789,0.017486,-0.020707,0.02078
655546,0.002788,0.007088,-0.005504,0.0,0.0,0.0,0.0,0.0,0.0,3.0,0.342134,0.315863,0.313754,0.329318,-0.0,3.8e-05,0.0,0.0,2.4e-05,-0.0,0.022124,-0.011994,0.088011,6e-05,-0.003782,0.020956
655566,0.002667,0.006843,-0.005381,0.0,0.0,0.0,0.0,0.0,0.0,3.0,0.341043,0.316087,0.315219,0.328877,-0.0,3.8e-05,0.0,0.0,2.2e-05,-0.0,0.022372,-0.012238,0.088132,-0.02123,-0.003682,5.5e-05
655586,0.002912,0.006844,-0.00526,0.0,0.0,0.0,0.0,0.0,0.0,3.0,0.339364,0.316864,0.315721,0.329422,-0.0,3.9e-05,0.0,0.0,2e-05,-0.0,0.022458,-0.012483,0.088255,-0.034392,-0.024688,-9e-06
655606,0.002546,0.006721,-0.005259,0.0,0.0,0.0,0.0,0.0,0.0,3.0,0.339435,0.31654,0.313113,0.332088,-0.0,3.9e-05,0.0,0.0,1.8e-05,-0.0,0.022495,-0.012479,0.088378,-0.021192,-0.025023,-0.020978
655626,0.00218,0.006598,-0.005257,0.0,0.0,0.0,0.0,0.0,0.0,3.0,0.341838,0.315082,0.311355,0.332578,-0.0,4e-05,0.0,0.0,1.6e-05,-0.0,0.022125,-0.012499,0.088379,0.000395,-0.021106,-5.9e-05
655646,0.001936,0.006475,-0.005256,0.0,0.0,0.0,0.0,0.0,0.0,3.0,0.344381,0.312141,0.312379,0.331703,-0.0,4e-05,0.0,0.0,1.4e-05,-0.0,0.021758,-0.012518,0.088379,0.000539,-0.017239,0.020993
655666,0.001693,0.006474,-0.005011,0.0,0.0,0.0,0.0,0.0,0.0,3.0,0.342698,0.315411,0.308341,0.334111,-0.0,4e-05,0.0,0.0,1.2e-05,-0.0,0.02141,-0.012642,0.088484,-0.003463,0.003901,0.003872
655686,0.001815,0.006475,-0.00489,0.0,0.0,0.0,0.0,0.0,0.0,3.0,0.342598,0.313613,0.31166,0.33287,-0.0,4e-05,0.0,0.0,1e-05,-0.0,0.021272,-0.012642,0.088626,0.021069,0.003942,-0.000228
655706,0.002182,0.006353,-0.004769,0.0,0.0,0.0,0.0,0.0,0.0,3.0,0.340356,0.316589,0.31446,0.329835,-0.0,4.1e-05,0.0,0.0,8e-06,-0.0,0.021502,-0.012852,0.088747,0.024687,-0.003559,-0.000232
655726,0.002549,0.006354,-0.004648,0.0,0.0,0.0,0.0,0.0,0.0,3.0,0.3393,0.317261,0.312968,0.331684,-0.0,4.1e-05,0.0,0.0,6e-06,-0.0,0.021765,-0.012972,0.088869,0.020849,-0.003684,-0.00017
655746,0.002672,0.00611,-0.004526,0.0,0.0,0.0,0.0,0.0,0.0,3.0,0.334085,0.320148,0.310937,0.336099,-0.0,4.1e-05,0.0,0.0,4e-06,-0.0,0.022238,-0.01297,0.089095,0.003445,-0.024784,-0.01733
655766,0.00255,0.005865,-0.004525,0.0,0.0,0.0,0.0,0.0,0.0,3.0,0.336755,0.319347,0.308189,0.336641,-0.0,4.1e-05,0.0,0.0,3e-06,-0.0,0.022253,-0.01311,0.089217,-0.041885,-0.020998,0.003801
655786,0.002184,0.005987,-0.004402,0.0,0.0,0.0,0.0,0.0,0.0,3.0,0.340988,0.314397,0.30987,0.335431,-0.0,4.1e-05,0.0,0.0,1e-06,-0.0,0.022027,-0.013146,0.089215,-0.024709,-0.013412,0.024956
655806,0.001696,0.005985,-0.004278,0.0,0.0,0.0,0.0,0.0,0.0,3.0,0.3419,0.314963,0.30807,0.335586,-0.0,4.1e-05,0.0,0.0,-1e-06,-0.0,0.021659,-0.013129,0.089339,-0.04554,0.003704,0.004001
655826,0.00133,0.005985,-0.004155,0.0,0.0,0.0,0.0,0.0,0.0,3.0,0.343706,0.313034,0.31218,0.331771,-0.0,4.1e-05,0.0,0.0,-3e-06,-0.0,0.021275,-0.013131,0.089358,0.000167,0.024799,0.020955
655846,0.001209,0.005984,-0.004033,0.0,0.0,0.0,0.0,0.0,0.0,3.0,0.342683,0.313621,0.312777,0.331749,-0.0,4.1e-05,0.0,0.0,-4e-06,-0.0,0.021013,-0.013133,0.089481,0.004146,0.003983,-3.9e-05
655866,0.001331,0.005984,-0.003911,0.0,0.0,0.0,0.0,0.0,0.0,3.0,0.341592,0.315468,0.312534,0.331391,-0.0,4.1e-05,0.0,0.0,-6e-06,-0.0,0.020892,-0.013237,0.089604,0.003998,0.000118,-0.000169
655886,0.001454,0.00574,-0.003789,0.0,0.0,0.0,0.0,0.0,0.0,3.0,0.338375,0.318617,0.30808,0.335789,-0.0,4.1e-05,0.0,0.0,-8e-06,-0.0,0.020912,-0.013236,0.089831,3e-06,-0.020976,0.003589
655906,0.001699,0.005619,-0.003668,0.0,0.0,0.0,0.0,0.0,0.0,3.0,0.339562,0.318836,0.308553,0.333955,-0.0,4e-05,0.0,0.0,-9e-06,-0.0,0.020931,-0.013482,0.089952,0.017132,-0.02081,0.0037
655926,0.001943,0.005741,-0.003546,0.0,0.0,0.0,0.0,0.0,0.0,3.0,0.338571,0.318397,0.309678,0.334365,-0.0,4e-05,0.0,0.0,-1.1e-05,-0.0,0.021178,-0.013603,0.090074,-0.00405,0.020938,0.003728
655946,0.001699,0.005618,-0.003423,0.0,0.0,0.0,0.0,0.0,0.0,3.0,0.341191,0.315158,0.314225,0.330531,-0.0,4e-05,0.0,0.0,-1.2e-05,-0.0,0.021423,-0.013584,0.09009,-0.025015,-0.003818,0.02105
655966,0.001455,0.00574,-0.003301,0.0,0.0,0.0,0.0,0.0,0.0,3.0,0.341438,0.315806,0.313192,0.330627,-0.0,4e-05,0.0,0.0,-1.4e-05,-0.0,0.021281,-0.013707,0.090213,-0.020836,-0.003785,0.021012
655986,0.00109,0.005739,-0.003178,0.0,0.0,0.0,0.0,0.0,0.0,3.0,0.342336,0.313038,0.312224,0.333155,-0.0,3.9e-05,0.0,0.0,-1.5e-05,-0.0,0.021035,-0.013478,0.090336,-0.02079,-0.000303,3.6e-05
656006,0.000846,0.005617,-0.003055,0.0,0.0,0.0,0.0,0.0,0.0,3.0,0.342885,0.316415,0.309862,0.331607,-0.0,3.9e-05,0.0,0.0,-1.7e-05,-0.0,0.020668,-0.013586,0.09046,0.00034,-0.024713,0.020831
656026,0.000846,0.005495,-0.002933,0.0,0.0,0.0,0.0,0.0,0.0,3.0,0.342092,0.314001,0.311902,0.332816,-0.0,3.9e-05,0.0,0.0,-1.8e-05,-0.0,0.020426,-0.013602,0.090582,0.021422,-0.021038,0.020902
656046,0.000848,0.004884,-0.00281,0.0,0.0,0.0,0.0,0.0,0.0,3.0,0.342232,0.317483,0.311651,0.329639,-0.0,3.8e-05,0.0,0.0,-1.9e-05,-0.0,0.020426,-0.013935,0.090704,0.000153,-0.007446,0.020954
656066,0.001214,0.005007,-0.002567,0.0,0.0,0.0,0.0,0.0,0.0,3.0,0.340319,0.317268,0.313687,0.329953,-0.0,3.8e-05,0.0,0.0,-2.1e-05,-0.0,0.020534,-0.01434,0.090826,0.024753,0.000397,0.020891
656086,0.001215,0.004518,-0.002445,0.0,0.0,0.0,0.0,0.0,0.0,3.0,0.338339,0.319809,0.310585,0.332449,-0.0,3.8e-05,0.0,0.0,-2.2e-05,-0.0,0.020797,-0.014422,0.091071,0.020829,-0.028568,-0.000165
656106,0.001215,0.004396,-0.002445,0.0,0.0,0.0,0.0,0.0,0.0,3.0,0.341259,0.319722,0.308215,0.331672,-0.0,3.7e-05,0.0,0.0,-2.3e-05,-0.0,0.02069,-0.014808,0.091193,-0.00366,-0.024566,-0.021062
656126,0.000849,0.004274,-0.002444,0.0,0.0,0.0,0.0,0.0,0.0,3.0,0.338692,0.319852,0.307218,0.335079,-0.0,3.7e-05,0.0,0.0,-2.4e-05,-0.0,0.020693,-0.014928,0.091298,-0.003898,-0.024788,-0.017354
656146,0.000483,0.004151,-0.002321,0.0,0.0,0.0,0.0,0.0,0.0,3.0,0.34127,0.316162,0.306291,0.336704,-0.0,3.6e-05,0.0,0.0,-2.5e-05,-0.0,0.020323,-0.01484,0.091298,-0.024385,-0.03833,0.003822
656166,0.000239,0.004395,-0.00232,0.0,0.0,0.0,0.0,0.0,0.0,3.0,0.341407,0.313207,0.31019,0.335801,-0.0,3.6e-05,0.0,0.0,-2.6e-05,-0.0,0.020063,-0.014859,0.091316,-0.020803,0.007536,9.3e-05
656186,0.000239,0.004273,-0.002198,0.0,0.0,0.0,0.0,0.0,0.0,3.0,0.33842,0.316315,0.308768,0.337259,-0.0,3.5e-05,0.0,0.0,-2.7e-05,-0.0,0.019923,-0.01472,0.091421,-0.017104,0.003763,0.003771
656206,0.00024,0.004395,-0.001954,0.0,0.0,0.0,0.0,0.0,0.0,3.0,0.342573,0.314703,0.311106,0.332394,-0.0,3.5e-05,0.0,0.0,-2.8e-05,-0.0,0.019716,-0.014845,0.091438,0.038306,0.025012,0.020888
656226,0.000362,0.004151,-0.001832,0.0,0.0,0.0,0.0,0.0,0.0,3.0,0.339088,0.319705,0.309056,0.333167,-0.0,3.4e-05,0.0,0.0,-2.9e-05,-0.0,0.01982,-0.014931,0.091684,0.021064,0.017348,-0.000182
656246,0.000729,0.004151,-0.001711,0.0,0.0,0.0,0.0,0.0,0.0,3.0,0.340648,0.317467,0.310621,0.332252,-0.0,3.3e-05,0.0,0.0,-3e-05,-0.0,0.019943,-0.015072,0.091805,0.020901,0.00026,-0.0002
656266,0.000851,0.003907,-0.001711,0.0,0.0,0.0,0.0,0.0,0.0,3.0,0.33941,0.318877,0.309406,0.333302,-0.0,3.3e-05,0.0,0.0,-3.1e-05,-0.0,0.020207,-0.015174,0.091927,0.016905,-0.003718,-0.000142
656286,0.000607,0.003663,-0.00171,0.0,0.0,0.0,0.0,0.0,0.0,3.0,0.34327,0.316952,0.310091,0.330488,-0.0,3.2e-05,0.0,0.0,-3.2e-05,-0.0,0.020224,-0.015419,0.091926,-0.007642,-0.003582,1.7e-05
656306,0.000363,0.003663,-0.00171,0.0,0.0,0.0,0.0,0.0,0.0,3.0,0.339986,0.31935,0.30625,0.335091,-0.0,3.2e-05,0.0,0.0,-3.3e-05,-0.0,0.020083,-0.015558,0.092031,-0.04572,0.000118,0.003815
656326,-0.000125,0.003662,-0.001587,0.0,0.0,0.0,0.0,0.0,0.0,3.0,0.341306,0.319166,0.306774,0.333445,-0.0,3.1e-05,0.0,0.0,-3.4e-05,-0.0,0.019736,-0.015663,0.092031,-0.049462,-0.003771,0.003979
656346,-0.000491,0.00354,-0.001464,0.0,0.0,0.0,0.0,0.0,0.0,3.0,0.342852,0.316343,0.31008,0.331509,-0.0,3e-05,0.0,0.0,-3.4e-05,-0.0,0.019352,-0.015662,0.092049,-0.02457,-0.003905,0.02102
656366,-0.000735,0.003418,-0.001342,0.0,0.0,0.0,0.0,0.0,0.0,3.0,0.341914,0.317241,0.310203,0.331533,-0.0,3e-05,0.0,0.0,-3.5e-05,-0.0,0.019089,-0.015785,0.092172,-0.041726,-0.003755,0.021022
656386,-0.000857,0.003296,-0.00122,0.0,0.0,0.0,0.0,0.0,0.0,3.0,0.341512,0.316099,0.310418,0.332824,-0.0,2.9e-05,0.0,0.0,-3.5e-05,-0.0,0.018846,-0.015803,0.092295,0.021069,-0.020954,0.020909
656406,-0.000978,0.002929,-0.001097,0.0,0.0,0.0,0.0,0.0,0.0,3.0,0.341704,0.317675,0.309995,0.331532,-0.0,2.8e-05,0.0,0.0,-3.6e-05,-0.0,0.018723,-0.01603,0.092417,0.000338,-0.024671,0.02094
656426,-0.000734,0.002807,-0.000854,0.0,0.0,0.0,0.0,0.0,0.0,3.0,0.341427,0.31838,0.310111,0.331048,-0.0,2.7e-05,0.0,0.0,-3.7e-05,-0.0,0.018602,-0.016397,0.092539,0.021161,-0.003531,0.02092
656446,-0.000733,0.002685,-0.000732,0.0,0.0,0.0,0.0,0.0,0.0,3.0,0.338014,0.320396,0.308567,0.334051,-0.0,2.7e-05,0.0,0.0,-3.7e-05,-0.0,0.018848,-0.016518,0.092784,-0.00018,-0.003733,-0.000135
656466,-0.000611,0.002686,-0.00061,0.0,0.0,0.0,0.0,0.0,0.0,3.0,0.339264,0.320093,0.307847,0.333708,-0.0,2.6e-05,0.0,0.0,-3.8e-05,-0.0,0.018847,-0.01664,0.092906,-3.8e-05,-0.024705,-0.000118
656486,-0.000733,0.002563,-0.000487,0.0,0.0,0.0,0.0,0.0,0.0,3.0,0.339224,0.319058,0.307727,0.33483,-0.0,2.5e-05,0.0,0.0,-3.8e-05,-0.0,0.018866,-0.016637,0.093028,-0.003835,-0.02495,-0.000113
656506,-0.001099,0.002685,-0.000487,0.0,0.0,0.0,0.0,0.0,0.0,3.0,0.341248,0.319527,0.305156,0.3346,-0.0,2.4e-05,0.0,0.0,-3.8e-05,-0.0,0.018638,-0.01676,0.09315,-0.028434,-0.003824,-7.6e-05
656526,-0.001343,0.002808,-0.000242,0.0,0.0,0.0,0.0,0.0,0.0,3.0,0.338021,0.317072,0.306137,0.339276,-0.0,2.4e-05,0.0,0.0,-3.9e-05,-0.0,0.018482,-0.016427,0.093254,2.9e-05,-0.01746,0.003723
656546,-0.001465,0.002564,-0.00012,0.0,0.0,0.0,0.0,0.0,0.0,3.0,0.339299,0.317498,0.306413,0.337365,-0.0,2.3e-05,0.0,0.0,-3.9e-05,-0.0,0.018236,-0.016307,0.093395,0.000347,-0.03833,0.020841
656566,-0.001709,0.002686,0.000124,0.0,0.0,0.0,0.0,0.0,0.0,3.0,0.337346,0.31865,0.304929,0.339549,-0.0,2.2e-05,0.0,0.0,-3.9e-05,0.0,0.018115,-0.016447,0.093621,0.000162,-0.013254,0.003699
656586,-0.001831,0.002198,0.000368,0.0,0.0,0.0,0.0,0.0,0.0,3.0,0.339431,0.318323,0.308144,0.334935,-0.0,2.1e-05,0.0,0.0,-3.9e-05,0.0,0.017975,-0.016535,0.093761,0.004026,4.4e-05,0.020814
656606,-0.001953,0.002076,0.000612,0.0,0.0,0.0,0.0,0.0,0.0,3.0,0.341305,0.321631,0.304757,0.332902,-0.0,2e-05,0.0,0.0,-4e-05,0.0,0.017643,-0.017027,0.094006,0.017532,0.00055,0.020775
656626,-0.001952,0.001832,0.000856,0.0,0.0,0.0,0.0,0.0,0.0,3.0,0.33909,0.321619,0.306787,0.333385,-0.0,2e-05,0.0,0.0,-4e-05,0.0,0.017628,-0.017251,0.09425,0.02113,0.017362,0.020789
656646,-0.001952,0.00171,0.000978,0.0,0.0,0.0,0.0,0.0,0.0,3.0,0.336878,0.322023,0.306359,0.335625,-0.0,1.9e-05,0.0,0.0,-4e-05,-0.0,0.017732,-0.017391,0.094494,0.003817,0.000239,-0.000137
656666,-0.00183,0.00171,0.001222,0.0,0.0,0.0,0.0,0.0,0.0,3.0,0.33662,0.325158,0.302072,0.336646,-0.0,1.8e-05,0.0,0.0,-4e-05,-0.0,0.017627,-0.017616,0.09472,0.021037,-0.00363,0.003555
656686,-0.001952,0.00171,0.001345,0.0,0.0,0.0,0.0,0.0,0.0,3.0,0.339639,0.322003,0.302829,0.335945,-0.0,1.7e-05,0.0,0.0,-4e-05,-0.0,0.017541,-0.017614,0.09486,-0.007474,-0.003865,0.020869
656706,-0.002318,0.001589,0.001467,0.0,0.0,0.0,0.0,0.0,0.0,3.0,0.336854,0.323204,0.302403,0.337979,-0.0,1.6e-05,0.0,0.0,-4e-05,-0.0,0.017525,-0.017613,0.095086,-0.045852,-0.024778,0.003717
656726,-0.002074,0.001833,0.001711,0.0,0.0,0.0,0.0,0.0,0.0,3.0,0.336546,0.322328,0.303131,0.338483,-0.0,1.6e-05,0.0,0.0,-4e-05,-0.0,0.017263,-0.017631,0.095208,-0.020907,-8.7e-05,0.024725
656746,-0.002318,0.001711,0.001955,0.0,0.0,0.0,0.0,0.0,0.0,3.0,0.338182,0.318615,0.307598,0.336412,-0.0,1.5e-05,0.0,0.0,-4e-05,-0.0,0.017406,-0.017385,0.095348,-0.004085,-0.02126,0.020933
656766,-0.002318,0.001834,0.002078,0.0,0.0,0.0,0.0,0.0,0.0,3.0,0.33698,0.322436,0.303918,0.337269,-0.0,1.4e-05,0.0,0.0,-4e-05,-0.0,0.017262,-0.01751,0.095593,0.021131,-4.4e-05,-0.000152
656786,-0.002195,0.001834,0.002322,0.0,0.0,0.0,0.0,0.0,0.0,3.0,0.336998,0.319983,0.307025,0.336834,-0.0,1.3e-05,0.0,0.0,-4e-05,-0.0,0.017367,-0.017386,0.095715,0.00386,-0.021112,0.020792
656806,-0.002195,0.001712,0.002444,0.0,0.0,0.0,0.0,0.0,0.0,3.0,0.334887,0.323278,0.305403,0.337266,-0.0,1.3e-05,0.0,0.0,-3.9e-05,-0.0,0.01749,-0.017491,0.095959,0.003728,-0.003869,-0.000141
656826,-0.002195,0.001834,0.002566,0.0,0.0,0.0,0.0,0.0,0.0,3.0,0.338277,0.320857,0.304685,0.336785,-0.0,1.2e-05,0.0,0.0,-3.9e-05,-0.0,0.017384,-0.017508,0.096081,0.021102,-6e-06,0.020801
656846,-0.002317,0.00159,0.002688,0.0,0.0,0.0,0.0,0.0,0.0,3.0,0.338474,0.319599,0.305952,0.336653,-0.0,1.1e-05,0.0,0.0,-3.9e-05,-0.0,0.017385,-0.017385,0.096202,0.021105,-0.000184,-4.3e-05
656866,-0.002317,0.00159,0.00281,0.0,0.0,0.0,0.0,0.0,0.0,3.0,0.339066,0.323412,0.303684,0.334443,-0.0,1e-05,0.0,0.0,-3.9e-05,-0.0,0.017261,-0.017737,0.096325,0.000191,-0.003464,-0.000161
656886,-0.002073,0.001834,0.00281,0.0,0.0,0.0,0.0,0.0,0.0,3.0,0.335491,0.320664,0.304679,0.339741,-0.0,9e-06,0.0,0.0,-3.8e-05,-0.0,0.017368,-0.017524,0.096448,0.024689,0.024509,-0.000105
656906,-0.002073,0.00159,0.002932,0.0,0.0,0.0,0.0,0.0,0.0,3.0,0.340109,0.320972,0.304207,0.33524,0.0,9e-06,0.0,0.0,-3.8e-05,-0.0,0.017299,-0.017491,0.096446,-0.007456,-0.024691,0.020954
656926,-0.001951,0.00159,0.003054,0.0,0.0,0.0,0.0,0.0,0.0,3.0,0.336408,0.322089,0.307432,0.335084,0.0,8e-06,0.0,0.0,-3.8e-05,-0.0,0.017511,-0.017735,0.096568,-0.000228,-0.003708,-2.8e-05
656946,-0.001707,0.00159,0.003054,0.0,0.0,0.0,0.0,0.0,0.0,3.0,0.334941,0.320993,0.30734,0.337661,0.0,7e-06,0.0,0.0,-3.7e-05,-0.0,0.017736,-0.01763,0.096691,0.003623,-0.000164,-0.00016
656966,-0.001585,0.001345,0.003053,0.0,0.0,0.0,0.0,0.0,0.0,3.0,0.337542,0.32236,0.306819,0.334227,0.0,6e-06,0.0,0.0,-3.7e-05,-0.0,0.017875,-0.017859,0.09669,-0.00016,-0.003621,-3e-06
656986,-0.001706,0.001834,0.002932,0.0,0.0,0.0,0.0,0.0,0.0,3.0,0.33503,0.322647,0.301863,0.340761,0.0,6e-06,0.0,0.0,-3.7e-05,-0.0,0.017893,-0.01777,0.096795,-0.003816,0.024692,-0.01722
657006,-0.002073,0.00159,0.002932,0.0,0.0,0.0,0.0,0.0,0.0,3.0,0.334496,0.320183,0.305672,0.340303,0.0,5e-06,0.0,0.0,-3.6e-05,-0.0,0.01798,-0.017384,0.096672,-0.017191,-0.000213,0.00393
657026,-0.002195,0.001468,0.002932,0.0,0.0,0.0,0.0,0.0,0.0,3.0,0.341207,0.318628,0.307345,0.333543,0.0,4e-06,-0.0,0.0,-3.6e-05,-0.0,0.017609,-0.017632,0.096567,-0.037793,0.000395,0.021116
657046,-0.002073,0.001712,0.003054,0.0,0.0,0.0,0.0,0.0,0.0,3.0,0.339611,0.317763,0.308549,0.334911,0.0,3e-06,-0.0,0.0,-3.5e-05,-0.0,0.01749,-0.017649,0.096567,0.024758,0.024798,0.021065
657066,-0.002317,0.001346,0.003054,0.0,0.0,0.0,0.0,0.0,0.0,3.0,0.342804,0.317223,0.307242,0.333299,0.0,3e-06,-0.0,0.0,-3.5e-05,-0.0,0.017402,-0.017508,0.096586,0.017311,-0.021051,0.017182
657086,-0.002073,0.001346,0.003054,0.0,0.0,0.0,0.0,0.0,0.0,3.0,0.338149,0.323937,0.305058,0.333666,0.0,2e-06,-0.0,0.0,-3.4e-05,-0.0,0.017365,-0.017982,0.09669,0.024892,-0.003526,-4.5e-05
657106,-0.001707,0.001345,0.003053,0.0,0.0,0.0,0.0,0.0,0.0,3.0,0.338213,0.321492,0.305531,0.335512,0.0,1e-06,-0.0,0.0,-3.4e-05,-0.0,0.017507,-0.017978,0.09669,0.020927,0.017049,4e-06
657126,-0.001707,0.001223,0.003053,0.0,0.0,0.0,0.0,0.0,0.0,3.0,0.337722,0.322956,0.306052,0.334159,0.0,1e-06,-0.0,0.0,-3.3e-05,-0.0,0.017771,-0.018084,0.09669,0.016938,-0.007513,-1.6e-05
657146,-0.001463,0.001223,0.003053,0.0,0.0,0.0,0.0,0.0,0.0,3.0,0.337696,0.321164,0.305982,0.335945,0.0,0.0,-0.0,0.0,-3.3e-05,-0.0,0.017874,-0.0181,0.09669,-3e-05,-0.003844,-3e-06
657166,-0.001952,0.000979,0.002931,0.0,0.0,0.0,0.0,0.0,0.0,3.0,0.336743,0.322251,0.304523,0.337155,0.0,-1e-06,-0.0,0.0,-3.2e-05,-0.0,0.018015,-0.018101,0.09669,-0.025019,-0.024794,-0.020935
657186,-0.001829,0.001223,0.002931,0.0,0.0,0.0,0.0,0.0,0.0,3.0,0.339097,0.319862,0.305522,0.336156,0.0,-1e-06,-0.0,0.0,-3.1e-05,-0.0,0.017731,-0.01824,0.096567,-0.016998,9.6e-05,3.3e-05
657206,-0.002318,0.001224,0.002932,0.0,0.0,0.0,0.0,0.0,0.0,3.0,0.337403,0.316539,0.306338,0.340199,0.0,-2e-06,-0.0,0.0,-3.1e-05,-0.0,0.017753,-0.017785,0.096568,-0.042052,-0.013715,1.5e-05
657226,-0.00244,0.001102,0.003054,0.0,0.0,0.0,0.0,0.0,0.0,3.0,0.337892,0.321046,0.305418,0.336355,0.0,-2e-06,-0.0,0.0,-3e-05,-0.0,0.017366,-0.017997,0.096568,-0.016897,-0.020738,0.020961
657246,-0.002196,0.001102,0.003054,0.0,0.0,0.0,0.0,0.0,0.0,3.0,0.335488,0.320223,0.306807,0.338304,0.0,-3e-06,-0.0,0.0,-2.9e-05,-0.0,0.01735,-0.018013,0.09669,0.00765,0.003743,-2.4e-05
657266,-0.001952,0.000736,0.003175,0.0,0.0,0.0,0.0,0.0,0.0,3.0,0.337211,0.321627,0.30593,0.336043,0.0,-4e-06,-0.0,0.0,-2.9e-05,-0.0,0.017386,-0.01812,0.09669,0.020991,-0.020893,-3.3e-05
657286,-0.001952,0.000858,0.003175,0.0,0.0,0.0,0.0,0.0,0.0,3.0,0.335437,0.32369,0.302364,0.33896,0.0,-4e-06,-0.0,0.0,-2.8e-05,-0.0,0.017526,-0.018382,0.096813,0.038121,0.024933,-0.000103
657306,-0.00183,0.000857,0.003175,0.0,0.0,0.0,0.0,0.0,0.0,3.0,0.337477,0.320485,0.304954,0.3377,0.0,-5e-06,-0.0,0.0,-2.7e-05,-0.0,0.017629,-0.018259,0.096812,0.021121,0.024757,1.4e-05
657326,-0.001708,0.000979,0.003175,0.0,0.0,0.0,0.0,0.0,0.0,3.0,0.336961,0.322079,0.30575,0.336026,0.0,-5e-06,-0.0,0.0,-2.7e-05,-0.0,0.017855,-0.018365,0.096811,-0.017326,0.021244,2.7e-05
657346,-0.001707,0.001223,0.003175,0.0,0.0,0.0,0.0,0.0,0.0,3.0,0.338078,0.322179,0.304388,0.336001,0.0,-6e-06,-0.0,0.0,-2.6e-05,-0.0,0.017751,-0.018345,0.096811,-0.020936,0.038222,4.6e-05
657366,-0.002073,0.001468,0.003298,0.0,0.0,0.0,0.0,0.0,0.0,3.0,0.338894,0.31938,0.303328,0.338715,0.0,-6e-06,-0.0,0.0,-2.5e-05,-0.0,0.017666,-0.017891,0.096812,-0.007668,0.024462,2.9e-05
657386,-0.002195,0.001469,0.003298,0.0,0.0,0.0,0.0,0.0,0.0,3.0,0.335655,0.326245,0.3014,0.337148,0.0,-7e-06,-0.0,0.0,-2.4e-05,-0.0,0.017507,-0.017962,0.096936,-0.020795,0.013474,-8.2e-05
657406,-0.002072,0.001713,0.003298,0.0,0.0,0.0,0.0,0.0,0.0,3.0,0.33748,0.319147,0.304214,0.339576,0.0,-7e-06,-0.0,0.0,-2.4e-05,-0.0,0.017386,-0.017645,0.096934,-5e-06,-0.01738,-1.8e-05
657426,-0.001828,0.001712,0.003298,0.0,0.0,0.0,0.0,0.0,0.0,3.0,0.33293,0.32497,0.301492,0.340951,0.0,-8e-06,-0.0,0.0,-2.3e-05,-0.0,0.01751,-0.01761,0.097039,0.020823,-0.024976,0.00369
657446,-0.001584,0.00159,0.003298,0.0,0.0,0.0,0.0,0.0,0.0,3.0,0.33773,0.320588,0.305817,0.336597,0.0,-8e-06,-0.0,0.0,-2.2e-05,-0.0,0.01765,-0.017611,0.096933,0.017166,-0.003984,0.021117
657466,-0.001462,0.001711,0.003298,0.0,0.0,0.0,0.0,0.0,0.0,3.0,0.335398,0.320246,0.30786,0.337447,0.0,-9e-06,-0.0,0.0,-2.1e-05,-0.0,0.018,-0.01763,0.096933,0.020794,2.8e-05,0.021092
657486,-0.001585,0.001468,0.003298,0.0,0.0,0.0,0.0,0.0,0.0,3.0,0.336153,0.320944,0.307111,0.336704,0.0,-9e-06,-0.0,0.0,-2.1e-05,-0.0,0.018224,-0.017612,0.096933,-0.017234,0.017161,0.000159
657506,-0.001706,0.001834,0.003298,0.0,0.0,0.0,0.0,0.0,0.0,3.0,0.337924,0.32065,0.303603,0.33827,0.0,-1e-05,-0.0,0.0,-2e-05,-0.0,0.017995,-0.01765,0.096934,0.021149,0.024959,2e-06
657526,-0.002194,0.001835,0.003298,0.0,0.0,0.0,0.0,0.0,0.0,3.0,0.338922,0.31925,0.302249,0.33973,0.0,-1e-05,-0.0,0.0,-1.9e-05,-0.0,0.017769,-0.01728,0.096935,-0.003436,0.003557,6e-06
657546,-0.002316,0.002079,0.003299,0.0,0.0,0.0,0.0,0.0,0.0,3.0,0.342369,0.317762,0.306246,0.334133,0.0,-1e-05,-0.0,0.0,-1.8e-05,-0.0,0.017383,-0.017387,0.09683,0.000453,0.021127,-0.003709
657566,-0.002439,0.001835,0.003299,0.0,0.0,0.0,0.0,0.0,0.0,3.0,0.341876,0.317345,0.304718,0.336373,0.0,-1.1e-05,-0.0,0.0,-1.8e-05,-0.0,0.017159,-0.01714,0.096831,0.017346,-0.000166,-0.003908
657586,-0.002438,0.001957,0.003177,0.0,0.0,0.0,0.0,0.0,0.0,3.0,0.337928,0.324707,0.298455,0.338848,0.0,-1.1e-05,-0.0,0.0,-1.7e-05,-0.0,0.016932,-0.017387,0.096937,0.034595,0.000186,-0.021118
657606,-0.002194,0.001835,0.003176,0.0,0.0,0.0,0.0,0.0,0.0,3.0,0.336278,0.325146,0.300555,0.338298,0.0,-1.1e-05,-0.0,0.0,-1.6e-05,-0.0,0.017038,-0.01749,0.096936,0.017253,0.038137,-5.3e-05
657626,-0.002073,0.00159,0.003298,0.0,0.0,0.0,0.0,0.0,0.0,3.0,0.334832,0.322994,0.303539,0.339201,0.0,-1.2e-05,-0.0,0.0,-1.5e-05,-0.0,0.017388,-0.017386,0.096935,-0.000374,-0.020865,2.6e-05
657646,-0.001706,0.00159,0.003298,0.0,0.0,0.0,0.0,0.0,0.0,3.0,0.333691,0.324705,0.305003,0.337444,0.0,-1.2e-05,-0.0,0.0,-1.4e-05,-0.0,0.017756,-0.017736,0.096915,-0.04229,0.017496,0.003892
657666,-0.001828,0.001834,0.003298,0.0,0.0,0.0,0.0,0.0,0.0,3.0,0.3349,0.320324,0.305892,0.339587,0.0,-1.2e-05,-0.0,0.0,-1.4e-05,0.0,0.017878,-0.017525,0.096934,-0.000286,0.024679,2.2e-05
657686,-0.002195,0.001591,0.003298,0.0,0.0,0.0,0.0,0.0,0.0,3.0,0.337151,0.323878,0.303528,0.336073,0.0,-1.3e-05,-0.0,0.0,-1.3e-05,0.0,0.017752,-0.017596,0.096934,-0.020825,-0.00745,9e-06
657706,-0.002439,0.001713,0.003176,0.0,0.0,0.0,0.0,0.0,0.0,3.0,0.337109,0.320539,0.303476,0.339294,0.0,-1.3e-05,-0.0,0.0,-1.2e-05,0.0,0.017489,-0.017525,0.096935,-0.016944,0.003756,1.9e-05
657726,-0.002683,0.001469,0.003176,0.0,0.0,0.0,0.0,0.0,0.0,3.0,0.336835,0.324037,0.29837,0.340632,0.0,-1.3e-05,-0.0,0.0,-1.1e-05,0.0,0.017035,-0.017507,0.096917,0.017549,-0.020995,0.003848
657746,-0.00305,0.001226,0.003298,0.0,0.0,0.0,0.0,0.0,0.0,3.0,0.3395,0.321444,0.30269,0.336733,0.0,-1.3e-05,-0.0,0.0,-1.1e-05,0.0,0.016792,-0.017752,0.096812,-0.003414,-0.020757,0.021107
657766,-0.002806,0.001225,0.003298,0.0,0.0,0.0,0.0,0.0,0.0,3.0,0.340079,0.319878,0.306505,0.334275,0.0,-1.3e-05,-0.0,0.0,-1e-05,0.0,0.016634,-0.017996,0.09683,0.004008,0.000152,0.017217
657786,-0.002684,0.000859,0.003298,0.0,0.0,0.0,0.0,0.0,0.0,3.0,0.339721,0.319513,0.307469,0.334126,0.0,-1.4e-05,-0.0,0.0,-9e-06,0.0,0.016776,-0.018119,0.09683,0.02078,-0.020902,-0.003796
657806,-0.00244,0.000736,0.003175,0.0,0.0,0.0,0.0,0.0,0.0,3.0,0.33969,0.321731,0.30609,0.333285,0.0,-1.4e-05,-0.0,0.0,-8e-06,0.0,0.016896,-0.018468,0.09683,0.020894,-0.003637,-0.003903
657826,-0.002441,0.000492,0.003053,0.0,0.0,0.0,0.0,0.0,0.0,3.0,0.337844,0.32364,0.303048,0.336019,0.0,-1.4e-05,-0.0,0.0,-8e-06,0.0,0.017037,-0.018589,0.096811,0.017047,-0.003834,-0.020986
657846,-0.00244,0.000736,0.002931,0.0,0.0,0.0,0.0,0.0,0.0,3.0,0.337542,0.321934,0.304329,0.336823,0.0,-1.4e-05,-0.0,0.0,-7e-06,0.0,0.01714,-0.018729,0.096689,-0.021003,0.00016,-0.020946
657866,-0.002685,0.000614,0.002809,0.0,0.0,0.0,0.0,0.0,0.0,3.0,0.337548,0.319975,0.304512,0.338486,0.0,-1.4e-05,-0.0,0.0,-6e-06,0.0,0.017141,-0.018482,0.096567,-0.021144,-0.021236,-0.020971
657886,-0.003051,0.00037,0.002687,0.0,0.0,0.0,0.0,0.0,0.0,3.0,0.340879,0.321362,0.300787,0.337048,0.0,-1.4e-05,-0.0,-0.0,-5e-06,0.0,0.016685,-0.018606,0.096445,0.013629,-0.041969,-0.021014
657906,-0.003051,0.000614,0.002565,0.0,0.0,0.0,0.0,0.0,0.0,3.0,0.339187,0.319456,0.302694,0.338895,0.0,-1.4e-05,-0.0,0.0,-5e-06,0.0,0.016547,-0.018622,0.096323,-0.003549,0.003674,3e-05
657926,-0.003051,0.000736,0.002565,0.0,0.0,0.0,0.0,0.0,0.0,3.0,0.334361,0.32148,0.30165,0.34267,0.0,-1.5e-05,-0.0,-0.0,-4e-06,0.0,0.016654,-0.018396,0.096305,-9.9e-05,0.007471,0.0039
657946,-0.002685,0.00037,0.002564,0.0,0.0,0.0,0.0,0.0,0.0,3.0,0.336197,0.321043,0.306839,0.336806,0.0,-1.5e-05,-0.0,0.0,-3e-06,0.0,0.016739,-0.018485,0.0962,0.007629,0.00018,0.021131
657966,-0.002197,0.000491,0.002564,0.0,0.0,0.0,0.0,0.0,0.0,3.0,0.339119,0.317878,0.310754,0.333318,0.0,-1.5e-05,-0.0,-0.0,-3e-06,0.0,0.017002,-0.018749,0.096095,0.045606,0.025092,0.017396
657986,-0.002075,0.000491,0.002442,0.0,0.0,0.0,0.0,0.0,0.0,3.0,0.337879,0.320301,0.310324,0.332691,0.0,-1.5e-05,-0.0,-0.0,-2e-06,0.0,0.017491,-0.018836,0.096096,0.003596,0.017319,-0.00374
658006,-0.00183,0.000613,0.00232,0.0,0.0,0.0,0.0,0.0,0.0,3.0,0.33698,0.323104,0.304867,0.335811,0.0,-1.5e-05,-0.0,-0.0,-1e-06,0.0,0.017487,-0.018976,0.096078,0.024838,0.021115,-0.020959
658026,-0.002075,0.000369,0.002198,0.0,0.0,0.0,0.0,0.0,0.0,3.0,0.339179,0.321422,0.302957,0.336847,0.0,-1.5e-05,-0.0,-0.0,-1e-06,0.0,0.017523,-0.01871,0.095956,0.017166,-0.004092,1.6e-05
658046,-0.002319,0.000369,0.002198,0.0,0.0,0.0,0.0,0.0,0.0,3.0,0.341719,0.321749,0.301579,0.335146,0.0,-1.5e-05,-0.0,-0.0,-0.0,0.0,0.017295,-0.018854,0.095833,-0.007379,7e-05,0.000159
658066,-0.002441,0.000613,0.002076,0.0,0.0,0.0,0.0,0.0,0.0,3.0,0.341402,0.31947,0.304929,0.334695,0.0,-1.5e-05,-0.0,0.0,1e-06,0.0,0.017157,-0.018833,0.095711,-0.02469,0.017155,0.000137
658086,-0.002807,0.000491,0.001954,0.0,0.0,0.0,0.0,0.0,0.0,3.0,0.342386,0.317454,0.306637,0.334057,0.0,-1.5e-05,-0.0,-0.0,1e-06,0.0,0.017036,-0.018588,0.095608,-0.045837,-0.024955,-0.003753
658106,-0.002807,0.000613,0.002076,0.0,0.0,0.0,0.0,0.0,0.0,3.0,0.337868,0.325187,0.298913,0.338067,0.0,-1.5e-05,-0.0,-0.0,2e-06,0.0,0.016687,-0.018834,0.095714,-0.028527,-0.024683,-0.021119
658126,-0.002685,0.000369,0.002076,0.0,0.0,0.0,0.0,0.0,0.0,3.0,0.334864,0.322223,0.302446,0.340823,0.0,-1.5e-05,-0.0,-0.0,2e-06,0.0,0.016776,-0.018604,0.095714,0.020705,-0.021396,-0.00012
658146,-0.002564,-0.000119,0.002075,0.0,0.0,0.0,0.0,0.0,0.0,3.0,0.336063,0.32368,0.305144,0.335941,0.0,-1.5e-05,-0.0,-0.0,3e-06,0.0,0.017,-0.018957,0.095712,-0.01729,-0.024503,-3e-05
658166,-0.002319,2e-06,0.002076,0.0,0.0,0.0,0.0,0.0,0.0,3.0,0.333486,0.32084,0.308195,0.338483,0.0,-1.5e-05,-0.0,-0.0,4e-06,0.0,0.017333,-0.019114,0.095712,0.011066,0.003946,4e-06
658186,-0.002075,2e-06,0.002076,0.0,0.0,0.0,0.0,0.0,0.0,3.0,0.335427,0.320922,0.305968,0.338447,0.0,-1.5e-05,-0.0,-0.0,4e-06,0.0,0.017489,-0.019114,0.095712,0.024738,-0.017108,-1.8e-05
658206,-0.002198,-0.00012,0.002075,0.0,0.0,0.0,0.0,0.0,0.0,3.0,0.333963,0.325615,0.299665,0.340881,0.0,-1.4e-05,-0.0,-0.0,5e-06,0.0,0.017505,-0.019218,0.095817,0.021109,-1.4e-05,-0.017244
658226,-0.002564,0.000125,0.002076,0.0,0.0,0.0,0.0,0.0,0.0,3.0,0.34021,0.319959,0.300697,0.339108,0.0,-1.4e-05,-0.0,-0.0,5e-06,0.0,0.017276,-0.019132,0.095712,-0.003503,0.028573,0.021033
658246,-0.002685,0.000369,0.002198,0.0,0.0,0.0,0.0,0.0,0.0,3.0,0.339777,0.320509,0.301932,0.33798,0.0,-1.4e-05,-0.0,-0.0,6e-06,0.0,0.017015,-0.018992,0.095711,0.000246,0.024819,0.02114
658266,-0.002807,0.000491,0.002198,0.0,0.0,0.0,0.0,0.0,0.0,3.0,0.342838,0.31902,0.303589,0.334815,0.0,-1.4e-05,-0.0,-0.0,6e-06,0.0,0.016666,-0.018993,0.095729,-0.003437,0.024929,0.017256
658286,-0.002807,0.000492,0.00232,0.0,0.0,0.0,0.0,0.0,0.0,3.0,0.337993,0.323004,0.304314,0.335369,0.0,-1.4e-05,-0.0,-0.0,7e-06,0.0,0.016774,-0.018938,0.095853,-0.000123,0.034296,-0.003819
658306,-0.002563,0.000125,0.002442,0.0,0.0,0.0,0.0,0.0,0.0,3.0,0.332851,0.329965,0.29773,0.339444,0.0,-1.4e-05,-0.0,-0.0,7e-06,0.0,0.016773,-0.019062,0.096062,-0.020982,-0.007403,-0.01741
658326,-0.002441,0.000247,0.002564,0.0,0.0,0.0,0.0,0.0,0.0,3.0,0.331156,0.327302,0.299337,0.342275,0.0,-1.4e-05,-0.0,-0.0,8e-06,0.0,0.017021,-0.019095,0.096184,-0.000427,-0.020972,0.003573
658346,-0.002319,0.000247,0.002686,0.0,0.0,0.0,0.0,0.0,0.0,3.0,0.335549,0.321422,0.303337,0.340135,0.0,-1.4e-05,-0.0,-0.0,8e-06,0.0,0.017283,-0.018848,0.096201,-0.004132,-0.021344,0.020953
658366,-0.002197,3e-06,0.002686,0.0,0.0,0.0,0.0,0.0,0.0,3.0,0.332988,0.325823,0.303087,0.33873,0.0,-1.3e-05,-0.0,-0.0,9e-06,-0.0,0.01749,-0.019078,0.096304,-0.017383,-0.024651,0.003791
658386,-0.002319,0.000125,0.002686,0.0,0.0,0.0,0.0,0.0,0.0,3.0,0.335369,0.321907,0.303733,0.339521,0.0,-1.3e-05,-0.0,-0.0,9e-06,-0.0,0.017488,-0.019113,0.096322,-0.01721,0.003777,5e-06
658406,-0.002686,0.000126,0.002808,0.0,0.0,0.0,0.0,0.0,0.0,3.0,0.332857,0.325111,0.298688,0.343233,0.0,-1.3e-05,-0.0,-0.0,9e-06,-0.0,0.017384,-0.01899,0.096427,-0.041897,-0.017177,0.003715
658426,-0.002807,0.00037,0.002931,0.0,0.0,0.0,0.0,0.0,0.0,3.0,0.337866,0.322018,0.299944,0.340175,0.0,-1.3e-05,-0.0,-0.0,1e-05,0.0,0.016912,-0.01899,0.096445,-0.003439,0.024762,0.02101
658446,-0.003174,-0.000117,0.003052,0.0,0.0,0.0,0.0,0.0,0.0,3.0,0.337403,0.323283,0.299711,0.339651,0.0,-1.3e-05,-0.0,-0.0,1e-05,0.0,0.016649,-0.01885,0.096567,0.000236,-0.020995,-5.5e-05
658466,-0.003052,-0.000239,0.003052,0.0,0.0,0.0,0.0,0.0,0.0,3.0,0.339397,0.322653,0.303839,0.334695,0.0,-1.2e-05,-0.0,-0.0,1e-05,-0.0,0.016509,-0.019341,0.096584,0.003951,0.000436,-0.003888
658486,-0.002563,0.000126,0.003052,0.0,0.0,0.0,0.0,0.0,0.0,3.0,0.334351,0.322589,0.302168,0.341219,0.0,-1.2e-05,-0.0,-0.0,1.1e-05,-0.0,0.016634,-0.019252,0.096689,0.045687,0.007473,-0.021122
658506,-0.002442,-0.000118,0.003052,0.0,0.0,0.0,0.0,0.0,0.0,3.0,0.334806,0.324321,0.302009,0.339291,0.0,-1.2e-05,-0.0,-0.0,1.1e-05,0.0,0.017018,-0.019217,0.096689,-0.000236,-0.021018,-0.00016
658526,-0.002198,-0.000241,0.003052,0.0,0.0,0.0,0.0,0.0,0.0,3.0,0.335755,0.325388,0.30226,0.337127,0.0,-1.2e-05,-0.0,-0.0,1.1e-05,0.0,0.01714,-0.019586,0.096688,0.020848,0.021184,2.9e-05
658546,-0.002197,0.000125,0.003052,0.0,0.0,0.0,0.0,0.0,0.0,3.0,0.335572,0.321134,0.302428,0.341152,0.0,-1.2e-05,-0.0,-0.0,1.2e-05,0.0,0.017385,-0.019233,0.096689,-0.021116,0.0246,2.8e-05
658566,-0.002442,4e-06,0.003052,0.0,0.0,0.0,0.0,0.0,0.0,3.0,0.337979,0.32307,0.299545,0.339417,0.0,-1.1e-05,-0.0,-0.0,1.2e-05,0.0,0.017156,-0.019094,0.096689,-0.003786,-0.020988,-2.5e-05
658586,-0.002808,0.000126,0.003052,0.0,0.0,0.0,0.0,0.0,0.0,3.0,0.336899,0.327333,0.29524,0.340057,0.0,-1.1e-05,-0.0,-0.0,1.2e-05,0.0,0.016948,-0.019321,0.096812,-0.032251,0.017287,-0.021062
658606,-0.003052,0.000127,0.003175,0.0,0.0,0.0,0.0,0.0,0.0,3.0,0.334747,0.324268,0.298401,0.342431,0.0,-1.1e-05,-0.0,-0.0,1.2e-05,-0.0,0.016773,-0.018969,0.096812,-0.041992,-0.042171,-0.000145
658626,-0.003296,-0.000117,0.003174,0.0,0.0,0.0,0.0,0.0,0.0,3.0,0.336593,0.325429,0.300401,0.337847,0.0,-1.1e-05,-0.0,-0.0,1.3e-05,-0.0,0.016529,-0.01934,0.09681,-0.041897,0.000178,-2e-06
658646,-0.003297,-0.000361,0.003174,0.0,0.0,0.0,0.0,0.0,0.0,3.0,0.334207,0.323935,0.303285,0.339151,0.0,-1e-05,-0.0,-0.0,1.3e-05,-0.0,0.016494,-0.019337,0.09681,-0.013529,-0.041926,-6.8e-05
658666,-0.003176,-0.000971,0.003295,0.0,0.0,0.0,0.0,0.0,0.0,3.0,0.333304,0.329055,0.29861,0.33914,0.0,-1e-05,-0.0,-0.0,1.3e-05,-0.0,0.016406,-0.01981,0.096933,0.041945,-0.045588,-0.000164
658686,-0.002687,-0.000972,0.003295,0.0,0.0,0.0,0.0,0.0,0.0,3.0,0.33443,0.323698,0.302045,0.340214,0.0,-1e-05,-0.0,-0.0,1.3e-05,-0.0,0.016651,-0.019946,0.096932,0.041985,-5.9e-05,0.020992
658706,-0.002565,-0.00085,0.003295,0.0,0.0,0.0,0.0,0.0,0.0,3.0,0.335047,0.32279,0.302907,0.339721,0.0,-1e-05,-0.0,-0.0,1.3e-05,-0.0,0.017018,-0.019947,0.096931,-0.000163,0.000124,0.021108
658726,-0.002809,-0.000728,0.003295,0.0,0.0,0.0,0.0,0.0,0.0,3.0,0.338068,0.323959,0.299645,0.33841,0.0,-9e-06,-0.0,-0.0,1.4e-05,-0.0,0.016769,-0.020071,0.096931,0.000256,0.021132,0.000163
658746,-0.002808,-0.00024,0.003296,0.0,0.0,0.0,0.0,0.0,0.0,3.0,0.339476,0.31673,0.30467,0.339407,0.0,-9e-06,-0.0,-0.0,1.4e-05,-0.0,0.016773,-0.019615,0.096827,4.4e-05,0.028296,-0.003692
658766,-0.003052,5e-06,0.003174,0.0,0.0,0.0,0.0,0.0,0.0,3.0,0.341728,0.319963,0.29984,0.338299,0.0,-9e-06,-0.0,-0.0,1.4e-05,0.0,0.01644,-0.019336,0.096829,0.013654,0.020816,-0.003858
658786,-0.003296,-0.000117,0.003296,0.0,0.0,0.0,0.0,0.0,0.0,3.0,0.335092,0.327366,0.296405,0.34084,0.0,-8e-06,-0.0,-0.0,1.4e-05,0.0,0.016424,-0.01932,0.096934,-0.024738,-0.003713,-0.000119
658806,-0.003296,-0.000117,0.003296,0.0,0.0,0.0,0.0,0.0,0.0,3.0,0.337334,0.325706,0.298351,0.338581,0.0,-8e-06,-0.0,-0.0,1.4e-05,0.0,0.01618,-0.019442,0.096932,-0.00368,0.017246,3e-05
658826,-0.003297,-0.000605,0.003295,0.0,0.0,0.0,0.0,0.0,0.0,3.0,0.33682,0.327662,0.299146,0.33655,0.0,-8e-06,-0.0,-0.0,1.4e-05,0.0,0.01618,-0.01967,0.096932,0.017071,-0.007406,-8e-06
658846,-0.003297,-0.000849,0.003295,0.0,0.0,0.0,0.0,0.0,0.0,3.0,0.334531,0.328956,0.295998,0.34021,0.0,-8e-06,-0.0,-0.0,1.4e-05,0.0,0.016179,-0.019931,0.097055,0.01721,-0.003608,-0.000109
658866,-0.003054,-0.001216,0.003295,0.0,0.0,0.0,0.0,0.0,0.0,3.0,0.333481,0.327104,0.299494,0.340086,0.0,-7e-06,-0.0,-0.0,1.4e-05,0.0,0.016407,-0.020052,0.097054,-0.02115,-0.024622,-1e-06
658886,-0.003176,-0.001338,0.003294,0.0,0.0,0.0,0.0,0.0,0.0,3.0,0.33265,0.328509,0.297896,0.340895,0.0,-7e-06,-0.0,-0.0,1.4e-05,0.0,0.016529,-0.020438,0.097035,-0.042272,-0.020557,0.003829
658906,-0.003298,-0.001337,0.003294,0.0,0.0,0.0,0.0,0.0,0.0,3.0,0.33897,0.32171,0.303797,0.336057,0.0,-7e-06,-0.0,-0.0,1.4e-05,0.0,0.016405,-0.020558,0.096806,-0.021096,9.2e-05,0.021229
658926,-0.003787,-0.001337,0.003172,0.0,0.0,0.0,0.0,0.0,0.0,3.0,0.34275,0.319908,0.304679,0.33311,0.0,-6e-06,-0.0,-0.0,1.4e-05,0.0,0.016178,-0.020681,0.096702,-0.024677,0.000142,-0.003665
658946,-0.003786,-0.001215,0.002928,0.0,0.0,0.0,0.0,0.0,0.0,3.0,0.341346,0.318979,0.305528,0.334685,0.0,-6e-06,-0.0,-0.0,1.4e-05,0.0,0.015916,-0.020557,0.096581,0.021202,-0.000196,-0.003767
658966,-0.003786,-0.001215,0.002928,0.0,0.0,0.0,0.0,0.0,0.0,3.0,0.33592,0.323837,0.301075,0.339445,0.0,-6e-06,-0.0,-0.0,1.4e-05,0.0,0.015898,-0.020435,0.096564,0.004022,-0.000163,-0.0
658986,-0.003542,-0.001216,0.002928,0.0,0.0,0.0,0.0,0.0,0.0,3.0,0.336448,0.324612,0.299588,0.339452,0.0,-6e-06,-0.0,-0.0,1.4e-05,0.0,0.015794,-0.020435,0.096564,0.042134,0.020911,6.3e-05
659006,-0.003175,-0.000972,0.002807,0.0,0.0,0.0,0.0,0.0,0.0,3.0,0.338048,0.322367,0.303232,0.336859,0.0,-5e-06,-0.0,-0.0,1.4e-05,0.0,0.016039,-0.020437,0.096441,0.041927,0.021047,0.000171
659026,-0.002931,-0.001217,0.002684,0.0,0.0,0.0,0.0,0.0,0.0,3.0,0.336279,0.324635,0.300365,0.338942,0.0,-5e-06,-0.0,-0.0,1.4e-05,0.0,0.016283,-0.020315,0.096443,0.020889,-0.000134,-0.020965
659046,-0.003054,-0.001339,0.002562,0.0,0.0,0.0,0.0,0.0,0.0,3.0,0.338897,0.324117,0.301035,0.336241,0.0,-5e-06,-0.0,-0.0,1.4e-05,0.0,0.016423,-0.020561,0.096339,-0.00397,-0.02074,-0.024828
659066,-0.003298,-0.001339,0.00244,0.0,0.0,0.0,0.0,0.0,0.0,3.0,0.336631,0.323685,0.301397,0.33861,0.0,-4e-06,-0.0,-0.0,1.4e-05,0.0,0.016528,-0.020558,0.096198,-0.042105,-8.1e-05,-5e-06
659086,-0.003542,-0.001461,0.002439,0.0,0.0,0.0,0.0,0.0,0.0,3.0,0.338162,0.323394,0.300649,0.337996,0.0,-4e-06,-0.0,-0.0,1.4e-05,0.0,0.016302,-0.020559,0.096075,-0.003834,-0.020933,0.021095
659106,-0.00403,-0.001582,0.002439,0.0,0.0,0.0,0.0,0.0,0.0,3.0,0.34042,0.324074,0.296919,0.338234,0.0,-4e-06,-0.0,-0.0,1.4e-05,0.0,0.015827,-0.020681,0.096075,-0.028121,5.9e-05,0.000112
659126,-0.004152,-0.00146,0.002439,0.0,0.0,0.0,0.0,0.0,0.0,3.0,0.337401,0.32542,0.298956,0.338276,0.0,-4e-06,-0.0,-0.0,1.4e-05,0.0,0.01555,-0.020785,0.096075,0.000199,0.017289,3.5e-05
659146,-0.004397,-0.001582,0.002438,0.0,0.0,0.0,0.0,0.0,0.0,3.0,0.334351,0.328214,0.293996,0.342728,0.0,-3e-06,-0.0,-0.0,1.4e-05,0.0,0.015304,-0.02068,0.09618,-0.020708,1e-05,0.003716
659166,-0.004275,-0.001704,0.00256,0.0,0.0,0.0,0.0,0.0,0.0,3.0,0.332123,0.327969,0.298606,0.341326,0.0,-3e-06,-0.0,-0.0,1.4e-05,0.0,0.015412,-0.020803,0.096179,-0.017359,-0.020785,0.003832
659186,-0.003909,-0.001582,0.002561,0.0,0.0,0.0,0.0,0.0,0.0,3.0,0.332196,0.324381,0.301287,0.342382,0.0,-3e-06,-0.0,-0.0,1.4e-05,0.0,0.015658,-0.020696,0.096179,0.003539,0.003648,0.003853
659206,-0.003543,-0.001827,0.002561,0.0,0.0,0.0,0.0,0.0,0.0,3.0,0.333024,0.326281,0.303025,0.338313,0.0,-2e-06,-0.0,-0.0,1.3e-05,0.0,0.016024,-0.020927,0.096197,0.003515,0.000265,4e-06
659226,-0.003665,-0.001826,0.002561,0.0,0.0,0.0,0.0,0.0,0.0,3.0,0.336994,0.327581,0.298948,0.336622,0.0,-2e-06,-0.0,-0.0,1.3e-05,0.0,0.015915,-0.021276,0.096196,-0.020816,0.017494,-0.020964
659246,-0.003786,-0.001704,0.002439,0.0,0.0,0.0,0.0,0.0,0.0,3.0,0.338676,0.322292,0.30092,0.338285,0.0,-2e-06,-0.0,-0.0,1.3e-05,0.0,0.015794,-0.021064,0.096074,0.020978,0.024604,4.1e-05
659266,-0.003909,-0.001704,0.002438,0.0,0.0,0.0,0.0,0.0,0.0,3.0,0.341293,0.322261,0.301991,0.33474,0.0,-2e-06,-0.0,-0.0,1.3e-05,0.0,0.015689,-0.02103,0.09597,0.017379,0.017231,0.017291
659286,-0.004031,-0.001704,0.002438,0.0,0.0,0.0,0.0,0.0,0.0,3.0,0.339689,0.323949,0.300619,0.335956,0.0,-1e-06,-0.0,-0.0,1.3e-05,-0.0,0.015548,-0.021029,0.095951,0.000237,-0.003757,7.7e-05
659306,-0.004031,-0.001704,0.002316,0.0,0.0,0.0,0.0,0.0,0.0,3.0,0.339001,0.323415,0.302165,0.33583,0.0,-1e-06,-0.0,-0.0,1.3e-05,0.0,0.01555,-0.021029,0.09597,-0.020975,-0.003873,-0.003917
659326,-0.004031,-0.002071,0.002193,0.0,0.0,0.0,0.0,0.0,0.0,3.0,0.335425,0.329467,0.295701,0.339089,0.0,-1e-06,-0.0,-0.0,1.2e-05,0.0,0.015446,-0.021133,0.096076,-0.003877,-0.028632,-0.021149
659346,-0.003909,-0.002071,0.002194,0.0,0.0,0.0,0.0,0.0,0.0,3.0,0.334541,0.325492,0.299842,0.340284,0.0,-1e-06,-0.0,-0.0,1.2e-05,-0.0,0.015675,-0.021168,0.095953,-0.000293,-0.021061,3.1e-05
659366,-0.003787,-0.002438,0.002071,0.0,0.0,0.0,0.0,0.0,0.0,3.0,0.337102,0.323302,0.301377,0.338519,0.0,-0.0,-0.0,-0.0,1.2e-05,-0.0,0.015814,-0.021168,0.095829,-0.003996,-0.042025,7.5e-05
659386,-0.003543,-0.00256,0.001949,0.0,0.0,0.0,0.0,0.0,0.0,3.0,0.336237,0.325382,0.303063,0.335958,0.0,-0.0,-0.0,-0.0,1.2e-05,-0.0,0.016041,-0.021641,0.095707,-0.02117,-0.003494,-0.02085
659406,-0.003542,-0.002439,0.001705,0.0,0.0,0.0,0.0,0.0,0.0,3.0,0.339615,0.31909,0.305837,0.336076,0.0,0.0,-0.0,-0.0,1.2e-05,-0.0,0.016163,-0.021553,0.095481,-0.021225,-0.017182,-0.003763
659426,-0.003787,-0.002683,0.001582,0.0,0.0,0.0,0.0,0.0,0.0,3.0,0.338813,0.323035,0.301012,0.337371,0.0,0.0,-0.0,-0.0,1.1e-05,-0.0,0.016057,-0.021678,0.09534,-0.024785,0.003889,0.000132
659446,-0.003908,-0.002195,0.001461,0.0,0.0,0.0,0.0,0.0,0.0,3.0,0.342295,0.318341,0.301975,0.337402,0.0,1e-06,-0.0,-0.0,1.1e-05,-0.0,0.015689,-0.021572,0.095094,0.038392,0.02865,0.02134
659466,-0.00403,-0.002317,0.001338,0.0,0.0,0.0,0.0,0.0,0.0,3.0,0.341733,0.321647,0.302129,0.334751,0.0,1e-06,-0.0,-0.0,1.1e-05,-0.0,0.015548,-0.021538,0.094972,0.000403,0.042035,0.000327
659486,-0.003786,-0.002317,0.001339,0.0,0.0,0.0,0.0,0.0,0.0,3.0,0.340632,0.322008,0.304737,0.333254,0.0,1e-06,-0.0,-0.0,1.1e-05,-0.0,0.015532,-0.021662,0.094869,0.02483,0.021325,-0.003661
659506,-0.00342,-0.002317,0.001217,0.0,0.0,0.0,0.0,0.0,0.0,3.0,0.338821,0.323,0.3044,0.334458,0.0,1e-06,-0.0,-0.0,1.1e-05,-0.0,0.015777,-0.021642,0.094871,0.024635,-0.003779,-0.003867
659526,-0.00342,-0.002562,0.001094,0.0,0.0,0.0,0.0,0.0,0.0,3.0,0.337561,0.325807,0.300412,0.336509,0.0,1e-06,-0.0,-0.0,1e-05,-0.0,0.016058,-0.021784,0.094853,0.016891,-0.020922,-1.5e-05
659546,-0.003175,-0.002684,0.001095,0.0,0.0,0.0,0.0,0.0,0.0,3.0,0.337458,0.324087,0.302905,0.336107,0.0,2e-06,-0.0,-0.0,1e-05,-0.0,0.016285,-0.021905,0.09473,-0.000135,-2.5e-05,0.000157
659566,-0.00342,-0.002928,0.000972,0.0,0.0,0.0,0.0,0.0,0.0,3.0,0.339342,0.323328,0.303785,0.334154,0.0,2e-06,-0.0,-0.0,1e-05,-0.0,0.016406,-0.022009,0.094607,-0.042103,-0.003711,4.5e-05
659586,-0.003786,-0.003172,0.000849,0.0,0.0,0.0,0.0,0.0,0.0,3.0,0.342672,0.322588,0.302833,0.332266,0.0,2e-06,-0.0,-0.0,1e-05,0.0,0.016056,-0.022254,0.094503,-0.024661,-0.024544,-0.003815
659606,-0.00403,-0.003173,0.000726,0.0,0.0,0.0,0.0,0.0,0.0,3.0,0.341693,0.320898,0.304496,0.333428,0.0,2e-06,-0.0,-0.0,9e-06,-0.0,0.015937,-0.022393,0.09438,-0.024738,2.5e-05,-0.003772
659626,-0.004152,-0.003295,0.000604,0.0,0.0,0.0,0.0,0.0,0.0,3.0,0.338492,0.325855,0.300578,0.335382,0.0,2e-06,-0.0,-0.0,9e-06,-0.0,0.015673,-0.022479,0.094362,-0.041691,-0.028573,-0.021104
659646,-0.004152,-0.003417,0.000603,0.0,0.0,0.0,0.0,0.0,0.0,3.0,0.338136,0.323802,0.301603,0.33682,0.0,3e-06,-0.0,-0.0,9e-06,-0.0,0.015553,-0.022514,0.09424,-0.021034,-0.000129,-1.1e-05
659666,-0.004152,-0.003661,0.000481,0.0,0.0,0.0,0.0,0.0,0.0,3.0,0.3402,0.323687,0.303593,0.333099,0.0,3e-06,-0.0,-0.0,8e-06,-0.0,0.015411,-0.022743,0.094116,0.024833,-0.024552,0.000104
659686,-0.003907,-0.00354,0.000359,0.0,0.0,0.0,0.0,0.0,0.0,3.0,0.337218,0.323295,0.302117,0.337777,0.0,3e-06,-0.0,-0.0,8e-06,-0.0,0.015534,-0.022777,0.094117,0.045848,0.003702,-0.020887
659706,-0.003297,-0.003662,0.000238,0.0,0.0,0.0,0.0,0.0,0.0,3.0,0.337824,0.322395,0.302611,0.337593,0.0,3e-06,-0.0,-0.0,8e-06,-0.0,0.015797,-0.022655,0.093996,0.041978,-0.038258,-0.020947
659726,-0.003297,-0.003784,0.000238,0.0,0.0,0.0,0.0,0.0,0.0,3.0,0.338294,0.324063,0.302151,0.335941,0.0,3e-06,-0.0,-0.0,8e-06,-0.0,0.016163,-0.022882,0.093874,-0.000254,-0.020923,-1.2e-05
659746,-0.00354,-0.003662,0.000116,0.0,0.0,0.0,0.0,0.0,0.0,3.0,0.340999,0.320737,0.30333,0.335318,0.0,3e-06,-0.0,-0.0,7e-06,-0.0,0.016162,-0.0229,0.093751,-0.021022,-0.017216,4.1e-05
659766,-0.004029,-0.003784,0.000114,0.0,0.0,0.0,0.0,0.0,0.0,3.0,0.341156,0.324691,0.298005,0.335988,0.0,3e-06,-0.0,-0.0,7e-06,-0.0,0.015831,-0.023005,0.093751,-0.028412,-2e-05,-5.5e-05
659786,-0.004273,-0.003906,0.000114,0.0,0.0,0.0,0.0,0.0,0.0,3.0,0.341316,0.32518,0.297514,0.335773,0.0,4e-06,-0.0,-0.0,7e-06,-0.0,0.015323,-0.023128,0.09375,0.017531,0.02108,7.8e-05
659806,-0.004395,-0.004151,-9e-06,0.0,0.0,0.0,0.0,0.0,0.0,3.0,0.340243,0.325931,0.298777,0.335073,0.0,4e-06,-0.0,-0.0,7e-06,-0.0,0.015202,-0.023232,0.09375,-0.024573,-0.003597,-5.7e-05
659826,-0.004273,-0.00415,0.000113,0.0,0.0,0.0,0.0,0.0,0.0,3.0,0.336158,0.326653,0.300783,0.336786,0.0,4e-06,-0.0,-0.0,6e-06,-0.0,0.015292,-0.023353,0.09375,-0.017377,-0.003684,3e-06
659846,-0.004151,-0.004273,-9e-06,0.0,0.0,0.0,0.0,0.0,0.0,3.0,0.335024,0.325861,0.302081,0.337555,0.0,4e-06,-0.0,-0.0,6e-06,-0.0,0.015537,-0.023371,0.093731,0.00348,-0.020965,0.003808
659866,-0.003662,-0.004395,-8e-06,0.0,0.0,0.0,0.0,0.0,0.0,3.0,0.336596,0.323619,0.305519,0.335134,0.0,4e-06,-0.0,-0.0,6e-06,-0.0,0.015763,-0.023493,0.093627,0.007512,2.4e-05,0.000174
659886,-0.003296,-0.004517,-0.00013,0.0,0.0,0.0,0.0,0.0,0.0,3.0,0.338281,0.322339,0.306975,0.333358,0.0,4e-06,-0.0,-0.0,5e-06,-0.0,0.016148,-0.023616,0.093505,0.02444,0.000159,0.000164
659906,-0.003052,-0.004395,-0.000129,0.0,0.0,0.0,0.0,0.0,0.0,3.0,0.337916,0.324725,0.302288,0.335572,-0.0,4e-06,-0.0,-0.0,5e-06,-0.0,0.016267,-0.023738,0.093507,0.024791,0.021131,8.8e-05
659926,-0.003296,-0.004273,-0.000251,0.0,0.0,0.0,0.0,0.0,0.0,3.0,0.341098,0.320373,0.303875,0.335084,-0.0,4e-06,-0.0,-0.0,5e-06,-0.0,0.016407,-0.02351,0.093384,-7.2e-05,0.003707,0.000116
659946,-0.003784,-0.004639,-0.000253,0.0,0.0,0.0,0.0,0.0,0.0,3.0,0.346262,0.323499,0.3007,0.329474,-0.0,5e-06,-0.0,-0.0,5e-06,-0.0,0.01597,-0.023846,0.093279,-0.011077,-0.003479,0.017211
659966,-0.004028,-0.004395,-0.000253,0.0,0.0,0.0,0.0,0.0,0.0,3.0,0.340312,0.326045,0.299076,0.334637,-0.0,5e-06,-0.0,-0.0,4e-06,-0.0,0.015673,-0.023965,0.093383,-0.020664,0.017193,-0.021015
659986,-0.00415,-0.004639,-0.000254,0.0,0.0,0.0,0.0,0.0,0.0,3.0,0.338725,0.325386,0.299887,0.33619,-0.0,5e-06,-0.0,-0.0,4e-06,-0.0,0.015553,-0.023718,0.093384,-0.041922,-0.004076,-0.000236
660006,-0.00415,-0.005006,-0.000377,0.0,0.0,0.0,0.0,0.0,0.0,3.0,0.336852,0.331137,0.295424,0.33628,-0.0,5e-06,-0.0,-0.0,4e-06,-0.0,0.015326,-0.02407,0.093487,-0.003792,-0.049288,-0.017358
660026,-0.003906,-0.005006,-0.000376,0.0,0.0,0.0,0.0,0.0,0.0,3.0,0.336999,0.324923,0.301213,0.337229,-0.0,5e-06,-0.0,-0.0,3e-06,0.0,0.015555,-0.024102,0.093383,-0.000266,-0.021195,2.9e-05
660046,-0.003539,-0.005128,-0.000497,0.0,0.0,0.0,0.0,0.0,0.0,3.0,0.337633,0.322289,0.305311,0.335537,-0.0,5e-06,-0.0,-0.0,3e-06,0.0,0.015905,-0.024121,0.09326,0.003468,-0.017215,0.000135
660066,-0.003539,-0.004884,-0.000619,0.0,0.0,0.0,0.0,0.0,0.0,3.0,0.338157,0.321541,0.305227,0.335788,-0.0,5e-06,-0.0,-0.0,3e-06,0.0,0.016129,-0.024121,0.093139,-0.013556,0.003801,0.000131
660086,-0.003539,-0.004884,-0.000619,0.0,0.0,0.0,0.0,0.0,0.0,3.0,0.339227,0.320731,0.304278,0.3363,-0.0,5e-06,-0.0,-0.0,3e-06,0.0,0.016147,-0.023876,0.093017,0.003762,-0.017348,0.000136
660106,-0.003783,-0.004884,-0.00062,0.0,0.0,0.0,0.0,0.0,0.0,3.0,0.340003,0.323429,0.300791,0.335985,-0.0,5e-06,-0.0,-0.0,2e-06,0.0,0.01606,-0.024001,0.093017,0.017296,-0.017053,1.2e-05
660126,-0.004027,-0.005128,-0.000499,0.0,0.0,0.0,0.0,0.0,0.0,3.0,0.341201,0.325427,0.29903,0.334361,-0.0,5e-06,-0.0,-0.0,2e-06,0.0,0.015672,-0.024228,0.093016,0.000505,0.000176,0.020977
660146,-0.004271,-0.005128,-0.000499,0.0,0.0,0.0,0.0,0.0,0.0,3.0,0.341039,0.325557,0.297936,0.335335,-0.0,5e-06,-0.0,-0.0,2e-06,0.0,0.015306,-0.024349,0.093137,0.000376,0.000156,-2.3e-05
660166,-0.004271,-0.005372,-0.0005,0.0,0.0,0.0,0.0,0.0,0.0,3.0,0.342689,0.324322,0.299781,0.333242,-0.0,5e-06,-0.0,-0.0,2e-06,0.0,0.015081,-0.024472,0.093155,0.017359,0.000105,-0.003796
660186,-0.004027,-0.005494,-0.000499,0.0,0.0,0.0,0.0,0.0,0.0,3.0,0.338061,0.328306,0.297623,0.335974,-0.0,5e-06,-0.0,-0.0,1e-06,0.0,0.015205,-0.024717,0.093259,0.038093,-0.020744,-0.021024
660206,-0.003539,-0.005495,-0.00062,0.0,0.0,0.0,0.0,0.0,0.0,3.0,0.338263,0.324096,0.303435,0.334823,-0.0,5e-06,-0.0,-0.0,1e-06,0.0,0.015678,-0.024714,0.093137,0.020651,0.020843,0.000121
660226,-0.003416,-0.005617,-0.00062,0.0,0.0,0.0,0.0,0.0,0.0,3.0,0.334813,0.327743,0.301243,0.33668,-0.0,5e-06,-0.0,-0.0,1e-06,0.0,0.016149,-0.024697,0.09312,-0.038555,-0.024682,0.003738
660246,-0.003294,-0.005372,-0.000619,0.0,0.0,0.0,0.0,0.0,0.0,3.0,0.337471,0.324186,0.303283,0.335671,-0.0,5e-06,-0.0,-0.0,1e-06,0.0,0.016271,-0.024713,0.092997,-0.017524,0.020888,0.003988
660266,-0.003417,-0.00525,-0.000619,0.0,0.0,0.0,0.0,0.0,0.0,3.0,0.342735,0.319508,0.305262,0.332989,-0.0,5e-06,-0.0,-0.0,0.0,0.0,0.016306,-0.024488,0.092912,-0.004019,0.003736,0.017239
660286,-0.003661,-0.005373,-0.00062,0.0,0.0,0.0,0.0,0.0,0.0,3.0,0.340847,0.326009,0.299152,0.334057,-0.0,5e-06,-0.0,-0.0,0.0,0.0,0.016059,-0.024576,0.093016,-0.003579,0.017242,-4e-06
660306,-0.003783,-0.005494,-0.000499,0.0,0.0,0.0,0.0,0.0,0.0,3.0,0.339683,0.325855,0.301148,0.333676,-0.0,5e-06,-0.0,-0.0,-0.0,0.0,0.015901,-0.024717,0.093016,0.003996,0.000243,1.1e-05
660326,-0.003905,-0.005616,-0.000499,0.0,0.0,0.0,0.0,0.0,0.0,3.0,0.340821,0.324382,0.302596,0.332666,-0.0,5e-06,-0.0,-0.0,-0.0,0.0,0.015779,-0.024838,0.093015,-0.01698,0.021076,-5.4e-05
660346,-0.003905,-0.005739,-0.0005,0.0,0.0,0.0,0.0,0.0,0.0,3.0,0.34175,0.323895,0.30423,0.330726,-0.0,5e-06,-0.0,-0.0,-1e-06,0.0,0.015657,-0.024943,0.093033,0.024856,-0.024572,-0.003866
660366,-0.003783,-0.005983,-0.000622,0.0,0.0,0.0,0.0,0.0,0.0,3.0,0.343591,0.32542,0.302683,0.328675,-0.0,5e-06,-0.0,-0.0,-1e-06,0.0,0.015571,-0.025292,0.093032,0.038417,0.013449,-0.024723
660386,-0.003538,-0.006105,-0.000865,0.0,0.0,0.0,0.0,0.0,0.0,3.0,0.342521,0.322941,0.305191,0.329985,-0.0,5e-06,-0.0,-0.0,-1e-06,0.0,0.015799,-0.025308,0.09291,-3.7e-05,-0.003766,-0.003874
660406,-0.003659,-0.006106,-0.000988,0.0,0.0,0.0,0.0,0.0,0.0,3.0,0.341537,0.321735,0.305324,0.332057,-0.0,5e-06,-0.0,-0.0,-1e-06,0.0,0.016045,-0.025183,0.092789,-0.021274,-0.003968,-0.003756
660426,-0.003781,-0.006106,-0.000988,0.0,0.0,0.0,0.0,0.0,0.0,3.0,0.342772,0.323674,0.301579,0.332216,-0.0,5e-06,-0.0,-0.0,-1e-06,0.0,0.015817,-0.025327,0.092647,-0.024669,-0.020826,4.1e-05
660446,-0.003904,-0.005984,-0.000988,0.0,0.0,0.0,0.0,0.0,0.0,3.0,0.339216,0.322238,0.302761,0.336211,-0.0,5e-06,0.0,-0.0,-2e-06,0.0,0.015924,-0.025097,0.092649,-0.000236,-0.017485,-3.3e-05
660466,-0.004147,-0.00635,-0.00099,0.0,0.0,0.0,0.0,0.0,0.0,3.0,0.340106,0.324755,0.301616,0.333897,-0.0,5e-06,0.0,-0.0,-2e-06,0.0,0.015799,-0.025204,0.092648,-0.020746,-0.041928,-0.000144
660486,-0.004025,-0.00635,-0.00099,0.0,0.0,0.0,0.0,0.0,0.0,3.0,0.340029,0.325598,0.301734,0.33306,-0.0,5e-06,0.0,-0.0,-2e-06,0.0,0.015536,-0.025571,0.092647,0.00407,0.000207,1.3e-05
660506,-0.004025,-0.006472,-0.00099,0.0,0.0,0.0,0.087266,0.0,0.0,3.0,0.365097,0.323995,0.268156,0.334601,6.8e-05,5e-06,0.0,0.02711,-2e-06,0.0,0.015537,-0.025447,0.092647,0.003853,-0.021081,-3.1e-05
660526,-0.003903,-0.006716,-0.001112,0.0,0.0,0.0,0.087266,0.0,0.0,3.0,0.368851,0.322744,0.271843,0.328754,0.001012,5e-06,-0.0,0.079028,-2e-06,0.0,0.015556,-0.025817,0.092541,0.020926,-0.020636,0.017272
660546,-0.003292,-0.006594,-0.00111,0.0,0.0,0.0,0.087266,0.0,0.0,3.0,0.366113,0.323776,0.269334,0.332794,0.002922,5e-06,-0.0,0.120627,-2e-06,0.0,0.015802,-0.025955,0.092524,0.020824,0.024847,0.000247
660566,-0.002438,-0.006594,-0.001229,0.0,0.0,0.0,0.087266,0.0,0.0,3.0,0.367234,0.320405,0.274944,0.330501,0.005584,5e-06,-0.0,0.151953,-3e-06,0.0,0.016397,-0.025833,0.092422,0.045192,0.003839,-0.003577
660586,-0.001094,-0.006593,-0.001347,0.0,0.0,0.0,0.087266,0.0,0.0,3.0,0.361922,0.323081,0.274238,0.334485,0.008808,5e-06,-0.0,0.175138,-3e-06,0.0,0.01748,-0.025709,0.092409,0.06958,0.024746,0.000246
660606,0.000981,-0.006714,-0.00134,0.0,0.0,0.0,0.087266,0.0,0.0,3.0,0.358557,0.322767,0.281575,0.332826,0.012446,5e-06,-0.0,0.192117,-3e-06,0.0,0.0193,-0.025709,0.092291,0.114774,-0.016872,0.000534
660626,0.004155,-0.006467,-0.00133,0.0,0.0,0.0,0.087266,0.0,0.0,3.0,0.351912,0.322656,0.287733,0.335212,0.016387,5e-06,-0.0,0.20439,-3e-06,0.0,0.021956,-0.025724,0.092301,0.163778,0.028728,0.000489
660646,0.008428,-0.006342,-0.001438,0.0,0.0,0.0,0.087266,0.0,0.0,3.0,0.344543,0.322698,0.296842,0.335386,0.020545,5e-06,-0.0,0.213093,-3e-06,0.0,0.025693,-0.025459,0.092312,0.195396,-0.01708,0.000676
660666,0.013432,-0.006339,-0.0013,0.0,0.0,0.0,0.087266,0.0,0.0,3.0,0.336885,0.32446,0.303103,0.336155,0.024855,5e-06,-0.0,0.219079,-3e-06,0.0,0.030283,-0.025475,0.092327,0.227066,-0.013213,0.000847
660686,0.01917,-0.006335,-0.001282,0.0,0.0,0.0,0.087266,0.0,0.0,3.0,0.33076,0.323594,0.309979,0.336983,0.029269,5e-06,-0.0,0.222988,-4e-06,0.0,0.035623,-0.025347,0.092324,0.317948,-0.013282,0.004951
660706,0.025762,-0.00621,-0.001141,0.0,0.0,0.0,0.087266,0.0,0.0,3.0,0.326931,0.322914,0.316329,0.335579,0.033748,5e-06,-0.0,0.225301,-4e-06,0.0,0.041731,-0.025344,0.092361,0.338706,-0.013086,0.00121
660726,0.032844,-0.006449,-0.001114,0.0,0.0,0.0,0.087266,0.0,0.0,3.0,0.321762,0.325918,0.319068,0.335103,0.038264,4e-06,-0.0,0.22638,-4e-06,0.0,0.048307,-0.025447,0.092506,0.363267,0.004059,0.000898
660746,0.039802,-0.006203,-0.000975,0.0,0.0,0.0,0.087266,0.0,0.0,3.0,0.315429,0.328438,0.320086,0.337609,0.042794,4e-06,-0.0,0.226497,-4e-06,0.0,0.05539,-0.025566,0.092634,0.341836,0.025111,0.004333
660766,0.046762,-0.00632,-0.00095,0.0,0.0,0.0,0.087266,0.0,0.0,3.0,0.313867,0.326496,0.326012,0.335299,0.04732,4e-06,-0.0,0.225857,-4e-06,0.0,0.062596,-0.02542,0.092653,0.341697,6.7e-05,0.004891
660786,0.053968,-0.00595,-0.000937,0.0,0.0,0.0,0.087266,0.0,0.0,3.0,0.313356,0.324155,0.329181,0.334942,0.051829,4e-06,-0.0,0.224614,-4e-06,0.0,0.069698,-0.025453,0.092695,0.358642,0.007969,0.000941
660806,0.060561,-0.005946,-0.000917,0.0,0.0,0.0,0.087266,0.0,0.0,3.0,0.313475,0.324639,0.329325,0.334229,0.056309,4e-06,-0.0,0.222887,-4e-06,0.0,0.076673,-0.025148,0.092708,0.313548,0.016976,0.000424
660826,0.066791,-0.005694,-0.001029,0.0,0.0,0.0,0.087266,0.0,0.0,3.0,0.313032,0.325364,0.32988,0.333389,0.060751,4e-06,-0.0,0.220764,-4e-06,0.0,0.083126,-0.025165,0.092728,0.275318,0.021969,-0.020813
660846,0.072407,-0.005201,-0.00103,0.0,0.0,0.0,0.087266,0.0,0.0,3.0,0.313521,0.320409,0.331351,0.336214,0.065148,4e-06,-0.0,0.218313,-4e-06,0.0,0.089233,-0.024559,0.092604,0.254446,0.00352,0.000606
660866,0.077418,-0.005315,-0.001134,0.0,0.0,0.0,0.087266,0.0,0.0,3.0,0.320178,0.321445,0.330425,0.329927,0.069495,4e-06,-0.0,0.215586,-5e-06,0.0,0.094533,-0.024539,0.092513,0.265308,-0.00053,0.017933
660886,0.08218,-0.004824,-0.001141,0.0,0.0,0.0,0.087266,0.0,0.0,3.0,0.31874,0.320381,0.327468,0.335216,0.073784,4e-06,-0.0,0.212625,-5e-06,0.0,0.099417,-0.024182,0.092494,0.24427,0.02466,-0.00023
660906,0.086093,-0.004821,-0.001132,0.0,0.0,0.0,0.087266,0.0,0.0,3.0,0.32074,0.323106,0.323544,0.334532,0.078013,4e-06,-0.0,0.20946,-5e-06,0.0,0.103704,-0.023919,0.092495,0.177871,2.5e-05,0.000446
660926,0.089513,-0.004452,-0.001139,0.0,0.0,0.0,0.087266,0.0,0.0,3.0,0.322242,0.32507,0.319514,0.335046,0.082178,4e-06,-0.0,0.206116,-5e-06,0.0,0.10726,-0.023916,0.092485,0.17531,0.041891,0.002377
660946,0.092323,-0.004206,-0.001144,0.0,0.0,0.0,0.087266,0.0,0.0,3.0,0.328096,0.320075,0.320986,0.332773,0.086274,4e-06,-0.0,0.202614,-5e-06,0.0,0.11047,-0.023561,0.092372,0.147056,0.023756,0.020236
660966,0.095012,-0.004326,-0.001133,0.0,0.0,0.0,0.087266,0.0,0.0,3.0,0.331427,0.323134,0.31863,0.328763,0.090299,3e-06,-0.0,0.19897,-5e-06,0.0,0.113074,-0.023649,0.0924,0.160165,-0.003322,-0.003208
660986,0.097579,-0.004196,-0.001255,0.0,0.0,0.0,0.087266,0.0,0.0,3.0,0.329098,0.322224,0.320378,0.330306,0.094251,3e-06,-0.0,0.195197,-5e-06,0.0,0.115867,-0.023663,0.092408,0.121952,0.021191,-0.004616
661006,0.099779,-0.00456,-0.001232,0.0,0.0,0.0,0.087266,0.0,0.0,3.0,0.329009,0.325171,0.317504,0.330269,0.098126,3e-06,-0.0,0.191306,-5e-06,0.0,0.118182,-0.023625,0.092413,0.081201,-0.028362,-0.00227
661026,0.101858,-0.004558,-0.001227,0.0,0.0,0.0,0.087266,0.0,0.0,3.0,0.32368,0.328779,0.313389,0.335757,0.101922,3e-06,-0.0,0.187308,-5e-06,0.0,0.120383,-0.023766,0.092511,0.102085,-0.023841,-0.015754
661046,0.103693,-0.004557,-0.001223,0.0,0.0,0.0,0.087266,0.0,0.0,3.0,0.330164,0.322919,0.314987,0.333661,0.105637,3e-06,-0.0,0.183212,-5e-06,0.0,0.122251,-0.023654,0.092405,0.093814,-0.021098,0.001343
661066,0.105894,-0.004677,-0.001211,0.0,0.0,0.0,0.087266,0.0,0.0,3.0,0.326055,0.323097,0.31874,0.334009,0.10927,3e-06,-0.0,0.179024,-5e-06,0.0,0.124418,-0.023671,0.092411,0.080194,-0.017114,0.0011
661086,0.107844,-0.004431,-0.001219,0.0,0.0,0.0,0.087266,0.0,0.0,3.0,0.327928,0.322521,0.316982,0.334382,0.112819,3e-06,-0.0,0.174752,-5e-06,0.0,0.126268,-0.023669,0.092415,0.09749,0.003893,3.1e-05
661106,0.109923,-0.004307,-0.001221,0.0,0.0,0.0,0.087266,0.0,0.0,3.0,0.324062,0.322692,0.320922,0.33426,0.116282,3e-06,-0.0,0.170402,-5e-06,0.0,0.128577,-0.023546,0.092414,0.100952,0.024767,-0.001115
661126,0.112245,-0.003947,-0.001115,0.0,0.0,0.0,0.087266,0.0,0.0,3.0,0.325616,0.322472,0.319465,0.334349,0.119657,3e-06,-0.0,0.165982,-5e-06,1e-06,0.130568,-0.023442,0.092413,0.135592,0.007826,-0.000117
661146,0.114689,-0.003579,-0.001131,0.0,0.0,0.0,0.087266,0.0,0.0,3.0,0.320842,0.322842,0.321912,0.336236,0.122943,2e-06,-0.0,0.161496,-5e-06,1e-06,0.132959,-0.02306,0.092519,0.125824,0.024472,-0.001283
661166,0.117019,-0.003463,-0.001012,0.0,0.0,0.0,0.087266,0.0,0.0,3.0,0.322467,0.324339,0.32188,0.333298,0.126139,2e-06,-0.0,0.156951,-5e-06,1e-06,0.135176,-0.022921,0.092514,0.122073,0.020976,-0.000967
661186,0.119463,-0.003095,-0.001029,0.0,0.0,0.0,0.087266,0.0,0.0,3.0,0.319364,0.323713,0.323019,0.335746,0.129243,2e-06,-0.0,0.152352,-5e-06,1e-06,0.137622,-0.022558,0.09262,0.142737,-0.000167,0.000122
661206,0.121907,-0.002979,-0.000911,0.0,0.0,0.0,0.087266,0.0,0.0,3.0,0.317545,0.327335,0.319356,0.337409,0.132255,2e-06,-0.0,0.147703,-5e-06,1e-06,0.139979,-0.022301,0.092712,0.136566,-0.004302,0.004177
661226,0.124352,-0.002856,-0.000915,0.0,0.0,0.0,0.087266,0.0,0.0,3.0,0.317916,0.321377,0.326562,0.33592,0.135174,2e-06,-0.0,0.143012,-5e-06,1e-06,0.142659,-0.02197,0.092713,0.097121,0.003522,-6.8e-05
661246,0.126674,-0.002489,-0.000934,0.0,0.0,0.0,0.087266,0.0,0.0,3.0,0.316933,0.322286,0.327722,0.33485,0.137999,2e-06,-0.0,0.138281,-5e-06,1e-06,0.145085,-0.02183,0.092708,0.079824,0.020928,-0.001199
661266,0.129004,-0.00213,-0.000833,0.0,0.0,0.0,0.087266,0.0,0.0,3.0,0.314873,0.32111,0.329905,0.335736,0.140729,2e-06,-0.0,0.133518,-5e-06,1e-06,0.147512,-0.02148,0.092689,0.104466,0.023247,0.019487
661286,0.131083,-0.002137,-0.000709,0.0,0.0,0.0,0.087266,0.0,0.0,3.0,0.31509,0.322235,0.328286,0.336051,0.143364,2e-06,-0.0,0.128725,-5e-06,1e-06,0.149728,-0.021263,0.092799,0.10241,-0.014719,0.021879
661306,0.133283,-0.00177,-0.000731,0.0,0.0,0.0,0.087266,0.0,0.0,3.0,0.313161,0.323584,0.329641,0.335215,0.145902,2e-06,-0.0,0.123909,-5e-06,1e-06,0.151911,-0.021233,0.092921,0.106311,0.041809,-0.002706
661326,0.135118,-0.001769,-0.000729,0.0,0.0,0.0,0.087266,0.0,0.0,3.0,0.314573,0.323433,0.329336,0.334364,0.148344,2e-06,-0.0,0.119074,-5e-06,1e-06,0.153865,-0.02099,0.092907,0.08564,-1.8e-05,6.7e-05
661346,0.136832,-0.001403,-0.000752,0.0,0.0,0.0,0.087266,0.0,0.0,3.0,0.317141,0.323801,0.326876,0.334034,0.150689,1e-06,-0.0,0.114225,-5e-06,1e-06,0.155348,-0.020989,0.092908,0.124006,0.041897,-0.002757
661366,0.13818,-0.001281,-0.00076,0.0,0.0,0.0,0.087266,0.0,0.0,3.0,0.318345,0.321213,0.326583,0.335655,0.152937,1e-06,-0.0,0.109366,-5e-06,1e-06,0.156976,-0.020517,0.092877,0.116419,0.003564,-0.000175
661386,0.139519,-0.001288,-0.000637,0.0,0.0,0.0,0.087266,0.0,0.0,3.0,0.318655,0.327197,0.320092,0.335828,0.155088,1e-06,-0.0,0.104501,-5e-06,1e-06,0.158132,-0.020633,0.093008,0.062169,0.000148,-6.6e-05
661406,0.140624,-0.000923,-0.000662,0.0,0.0,0.0,0.087266,0.0,0.0,3.0,0.318268,0.320862,0.326415,0.336219,0.157141,1e-06,-0.0,0.099636,-5e-06,1e-06,0.159569,-0.02028,0.092983,0.027284,0.003466,-0.000223
661426,0.141476,-0.000922,-0.000662,0.0,0.0,0.0,0.087266,0.0,0.0,3.0,0.314306,0.326766,0.322379,0.338093,0.159098,1e-06,-0.0,0.094774,-5e-06,1e-06,0.160664,-0.020149,0.093079,0.006576,-0.000414,0.003736
661446,0.142093,-0.000687,-0.000557,0.0,0.0,0.0,0.087266,0.0,0.0,3.0,0.316074,0.323853,0.323222,0.338458,0.160957,1e-06,-0.0,0.08992,-5e-06,1e-06,0.161542,-0.019922,0.093062,0.023838,0.003345,0.003634
661466,0.142946,-0.00033,-0.000461,0.0,0.0,0.0,0.087266,0.0,0.0,3.0,0.317158,0.321083,0.327152,0.33633,0.162719,1e-06,-0.0,0.085077,-5e-06,1e-06,0.162376,-0.01968,0.093063,0.027902,0.003624,-0.000248
661486,0.143807,-0.000339,-0.000339,0.0,0.0,0.0,0.087266,0.0,0.0,3.0,0.315754,0.322675,0.326199,0.337037,0.164384,1e-06,-0.0,0.080251,-5e-06,1e-06,0.163095,-0.019445,0.093169,0.031843,-0.017331,0.001099
661506,0.144537,-9.5e-05,-0.000356,0.0,0.0,0.0,0.087266,0.0,0.0,3.0,0.31652,0.322452,0.325275,0.337428,0.165953,1e-06,-0.0,0.075444,-5e-06,1e-06,0.163702,-0.019332,0.093282,0.052821,0.024576,-0.001926
661526,0.145033,2.7e-05,-0.000365,0.0,0.0,0.0,0.087266,0.0,0.0,3.0,0.314883,0.326389,0.321543,0.33871,0.167426,1e-06,-0.0,0.070661,-5e-06,1e-06,0.164347,-0.019201,0.093376,0.046758,0.022199,-0.018726
661546,0.145642,0.00014,-0.000252,0.0,0.0,0.0,0.087266,0.0,0.0,3.0,0.316582,0.324525,0.322896,0.337665,0.168804,0.0,-0.0,0.065905,-5e-06,1e-06,0.164842,-0.019099,0.093387,0.024478,0.024781,-0.001889
661566,0.146129,0.000252,-0.00014,0.0,0.0,0.0,0.087266,0.0,0.0,3.0,0.316782,0.324024,0.326038,0.334965,0.170086,0.0,-0.0,0.061181,-4e-06,1e-06,0.165434,-0.019082,0.093384,0.028025,0.019524,0.019378
661586,0.146372,0.000131,-0.000131,0.0,0.0,0.0,0.087266,0.0,0.0,3.0,0.321095,0.321474,0.327842,0.331586,0.171275,0.0,-0.0,0.056491,-4e-06,1e-06,0.165815,-0.019083,0.093401,0.024461,-0.001171,0.017164
661606,0.146746,0.000131,-0.000131,0.0,0.0,0.0,0.087266,0.0,0.0,3.0,0.318001,0.325731,0.323936,0.33421,0.172369,0.0,-0.0,0.051839,-4e-06,1e-06,0.166084,-0.019194,0.093513,0.041974,-0.003718,0.000248
661626,0.147112,0.000122,-9e-06,0.0,0.0,0.0,0.087266,0.0,0.0,3.0,0.317571,0.324943,0.325131,0.334223,0.173372,0.0,-0.0,0.047229,-4e-06,1e-06,0.166432,-0.019193,0.093513,0.024592,0.017038,-0.001255
661646,0.147355,-0.000122,9e-06,0.0,0.0,0.0,0.087266,0.0,0.0,3.0,0.315793,0.327612,0.323798,0.334573,0.174282,0.0,-0.0,0.042664,-4e-06,1e-06,0.166817,-0.019326,0.093645,-0.021207,-0.003625,0.00011
661666,0.147355,-0.000122,9e-06,0.0,0.0,0.0,0.087266,0.0,0.0,3.0,0.317909,0.324281,0.324766,0.334894,0.175101,-0.0,-0.0,0.038146,-4e-06,1e-06,0.166938,-0.019342,0.093645,-0.021201,-0.020918,0.001542
661686,0.147355,-0.000356,-9.5e-05,0.0,0.0,0.0,0.087266,0.0,0.0,3.0,0.317386,0.323723,0.32575,0.33497,0.175831,-0.0,-0.0,0.03368,-4e-06,1e-06,0.16706,-0.019341,0.093645,-0.000237,-0.040418,-0.017816
661706,0.147355,-0.000356,-9.5e-05,0.0,0.0,0.0,0.087266,0.0,0.0,3.0,0.317457,0.322819,0.326939,0.334617,0.176471,-0.0,-0.0,0.029268,-4e-06,1e-06,0.167181,-0.019454,0.093532,-5.9e-05,-0.020978,0.001575
661726,0.147599,-0.000478,-8.6e-05,0.0,0.0,0.0,0.087266,0.0,0.0,3.0,0.315433,0.322617,0.328071,0.335583,0.177024,-0.0,-0.0,0.024912,-4e-06,1e-06,0.167267,-0.019472,0.093534,-0.013265,-0.01717,0.001268
661746,0.147842,-0.000487,3.6e-05,0.0,0.0,0.0,0.087266,0.0,0.0,3.0,0.314408,0.323694,0.328449,0.335134,0.177489,-0.0,-0.0,0.020616,-4e-06,1e-06,0.16737,-0.019576,0.093542,0.011297,-0.001475,0.020912
661766,0.147842,-0.000365,2.7e-05,0.0,0.0,0.0,0.087266,0.0,0.0,3.0,0.316843,0.323592,0.325225,0.336101,0.17787,-0.0,-0.0,0.016382,-4e-06,1e-06,0.167281,-0.019604,0.093665,0.045769,0.024796,-0.001853
