time_ms,roll,pitch,yaw,x,y,z,reference_roll,reference_pitch,reference_yaw,reference_throttle,throttle_1,throttle_2,throttle_3,throttle_4,roll_predicted,pitch_predicted,yaw_predicted,roll_rate_predicted,pitch_rate_predicted,yaw_rate_predicted,value1,value2,value3,value4,value5,value6
462466,0.019289,0.001068,0.003163,0.0,0.0,0.0,0.0,0.0,0.0,3.0,0.333115,0.326247,0.313403,0.328943,0.0,0.0,-0.0,0.0,0.0,-0.0,0.03887,-0.018066,0.096799,-2.2e-05,-0.013349,-3e-06
462486,0.019289,0.001068,0.003163,0.0,0.0,0.0,0.0,0.0,0.0,3.0,0.332964,0.326741,0.314076,0.327973,0.0,0.0,-0.0,0.0,0.0,-0.0,0.038994,-0.018153,0.096799,-0.00011,2.7e-05,-0.0
462506,0.019412,0.001189,0.003284,0.0,0.0,0.0,0.0,0.0,0.0,3.0,0.331753,0.328387,0.312484,0.329056,0.0,0.0,-0.0,0.0,0.0,-0.0,0.038993,-0.018277,0.096905,-0.020886,0.021079,0.003539
462526,0.019534,0.001311,0.003283,0.0,0.0,0.0,0.0,0.0,0.0,3.0,0.332279,0.326703,0.314234,0.32856,0.0,0.0,-0.0,0.0,0.0,-0.0,0.039098,-0.018031,0.09692,0.024603,0.020748,-0.000219
462546,0.019289,0.000945,0.003286,0.0,0.0,0.0,0.0,0.0,0.0,3.0,0.33326,0.327586,0.313251,0.327605,0.0,0.0,-0.0,-0.0,-0.0,-0.0,0.039009,-0.018138,0.096921,0.017369,-0.003673,2.5e-05
462566,0.019534,0.001066,0.003285,0.0,0.0,0.0,0.0,0.0,0.0,3.0,0.333516,0.326822,0.313777,0.327611,0.0,0.0,-0.0,0.0,-0.0,-0.0,0.038887,-0.018277,0.096941,0.038388,0.000128,-0.003863
462586,0.019534,0.001065,0.003407,0.0,0.0,0.0,0.0,0.0,0.0,3.0,0.332207,0.328402,0.312357,0.328701,0.0,0.0,-0.0,0.0,-0.0,-0.0,0.03901,-0.01824,0.097046,-0.024763,-0.007685,-2.1e-05
462606,0.019412,0.001067,0.003285,0.0,0.0,0.0,0.0,0.0,0.0,3.0,0.332631,0.327462,0.313381,0.328249,0.0,0.0,-0.0,0.0,-0.0,-0.0,0.038993,-0.018277,0.097045,-0.021153,-1.3e-05,1.3e-05
462626,0.019289,0.001067,0.003285,0.0,0.0,0.0,0.0,0.0,0.0,3.0,0.333409,0.326553,0.313782,0.327983,0.0,0.0,-0.0,0.0,-0.0,-0.0,0.038888,-0.018153,0.096921,-0.0039,-0.021124,0.000363
462646,0.019412,0.001067,0.003285,0.0,0.0,0.0,0.0,0.0,0.0,3.0,0.333581,0.325732,0.315296,0.327191,0.0,0.0,-0.0,-0.0,-0.0,-0.0,0.039013,-0.018152,0.096817,0.017027,-0.000329,0.017231
462666,0.019534,0.00119,0.003162,0.0,0.0,0.0,0.0,0.0,0.0,3.0,0.332633,0.325824,0.315567,0.327812,0.0,0.0,-0.0,0.0,-0.0,-0.0,0.03922,-0.018029,0.096797,0.003755,-0.000117,8.3e-05
462686,0.0199,0.00119,0.00304,0.0,0.0,0.0,0.0,0.0,0.0,3.0,0.332593,0.325568,0.316982,0.326757,0.0,0.0,-0.0,0.0,-0.0,-0.0,0.039428,-0.018011,0.096693,0.011344,-0.003821,-0.003702
462706,0.0199,0.001312,0.003038,0.0,0.0,0.0,0.0,0.0,0.0,3.0,0.332328,0.326624,0.314844,0.328014,0.0,0.0,-0.0,0.0,-0.0,-0.0,0.039462,-0.01803,0.096676,0.003845,-6e-06,-4e-06
462726,0.0199,0.00119,0.00304,0.0,0.0,0.0,0.0,0.0,0.0,3.0,0.332656,0.326572,0.314264,0.328279,0.0,0.0,-0.0,-0.0,-0.0,-0.0,0.039357,-0.017907,0.096675,0.02105,-0.02116,0.000195
462746,0.019778,0.00107,0.002919,0.0,0.0,0.0,0.0,0.0,0.0,3.0,0.333191,0.327208,0.313591,0.327734,0.0,0.0,-0.0,-0.0,-0.0,-0.0,0.039271,-0.018153,0.096677,-0.007518,-0.020825,0.000209
462766,0.0199,0.001068,0.003041,0.0,0.0,0.0,0.0,0.0,0.0,3.0,0.332262,0.326685,0.313744,0.329055,0.0,0.0,-0.0,-0.0,-0.0,-0.0,0.039255,-0.018046,0.096677,0.017085,0.00357,0.0
462786,0.019533,0.001069,0.003041,0.0,0.0,0.0,0.0,0.0,0.0,3.0,0.332563,0.327105,0.314146,0.327955,0.0,0.0,-0.0,-0.0,-0.0,-0.0,0.039377,-0.018134,0.096677,-0.04586,-0.003611,6.6e-05
462806,0.019534,0.001068,0.003163,0.0,0.0,0.0,0.0,0.0,0.0,3.0,0.330834,0.328237,0.313156,0.329506,0.0,0.0,-0.0,-0.0,-0.0,-0.0,0.039238,-0.018153,0.096782,-0.021032,-4e-06,0.003744
462826,0.019534,0.001312,0.003161,0.0,0.0,0.0,0.0,0.0,0.0,3.0,0.332628,0.326261,0.31522,0.327713,0.0,0.0,-0.0,-0.0,-0.0,-0.0,0.039256,-0.018152,0.096676,-0.003882,0.020769,0.020879
462846,0.019656,0.001189,0.003162,0.0,0.0,0.0,0.0,0.0,0.0,3.0,0.332553,0.32639,0.315464,0.327429,0.0,0.0,-0.0,-0.0,-0.0,-0.0,0.039237,-0.018011,0.096674,0.021013,-0.003945,0.000109
462866,0.019778,0.001067,0.003163,0.0,0.0,0.0,0.0,0.0,0.0,3.0,0.331932,0.326829,0.315634,0.327463,0.0,0.0,-0.0,-0.0,-0.0,-0.0,0.039322,-0.018153,0.096677,0.007674,-0.020873,0.000153
462886,0.019778,0.001067,0.003163,0.0,0.0,0.0,0.0,0.0,0.0,3.0,0.332542,0.326103,0.315741,0.327462,0.0,0.0,-0.0,-0.0,-0.0,-0.0,0.03934,-0.018151,0.096695,0.003808,-0.021073,-0.003683
462906,0.019777,0.000946,0.003042,0.0,0.0,0.0,0.0,0.0,0.0,3.0,0.332183,0.327746,0.313626,0.328191,0.0,0.0,-0.0,-0.0,-0.0,0.0,0.03913,-0.018257,0.096801,0.038273,-0.024687,-0.020905
462926,0.019411,0.000825,0.003043,0.0,0.0,0.0,0.0,0.0,0.0,3.0,0.332194,0.327971,0.312916,0.328621,0.0,-0.0,-0.0,-0.0,-0.0,0.0,0.039007,-0.018397,0.096803,-0.00357,0.000185,-0.021055
462946,0.019289,0.000947,0.003042,0.0,0.0,0.0,0.0,0.0,0.0,3.0,0.331739,0.327326,0.312569,0.330045,0.0,-0.0,-0.0,-0.0,-0.0,0.0,0.038764,-0.018168,0.096782,-0.003628,0.00379,-0.017248
462966,0.018801,0.000827,0.002922,0.0,0.0,0.0,0.0,0.0,0.0,3.0,0.3328,0.327107,0.313762,0.328072,-0.0,-0.0,-0.0,-0.0,-0.0,0.0,0.038643,-0.018274,0.096679,-0.045754,-0.020741,0.000246
462986,0.018801,0.001071,0.002919,0.0,0.0,0.0,0.0,0.0,0.0,3.0,0.332834,0.326095,0.314692,0.328166,-0.0,-0.0,-0.0,-0.0,-0.0,0.0,0.038382,-0.018289,0.096556,-0.02089,0.024755,-6.3e-05
463006,0.018679,0.00095,0.002799,0.0,0.0,0.0,0.0,0.0,0.0,3.0,0.332783,0.325633,0.315948,0.327486,-0.0,-0.0,-0.0,-0.0,-0.0,0.0,0.038506,-0.018167,0.096432,-0.021209,0.003847,8.7e-05
463026,0.018801,0.001073,0.002675,0.0,0.0,0.0,0.0,0.0,0.0,3.0,0.333498,0.325678,0.315524,0.327112,-0.0,-0.0,-0.0,-0.0,-0.0,0.0,0.038277,-0.018288,0.096311,0.038317,0.024916,-0.000148
463046,0.019045,0.001074,0.002553,0.0,0.0,0.0,0.0,0.0,0.0,3.0,0.332822,0.325156,0.317372,0.326558,-0.0,-0.0,-0.0,-0.0,-0.0,0.0,0.038591,-0.018127,0.096206,0.00759,0.017132,-0.0039
463066,0.019045,0.001074,0.002553,0.0,0.0,0.0,0.0,0.0,0.0,3.0,0.332708,0.326598,0.315369,0.327153,-0.0,-0.0,-0.0,-0.0,-0.0,0.0,0.038484,-0.01827,0.096191,0.003944,0.000436,-0.020977
463086,0.019045,0.000953,0.002432,0.0,0.0,0.0,0.0,0.0,0.0,3.0,0.332751,0.325651,0.316392,0.327077,-0.0,-0.0,-0.0,-0.0,-0.0,0.0,0.038608,-0.018144,0.096067,0.003632,-0.042104,0.000375
463106,0.018801,0.000955,0.00231,0.0,0.0,0.0,0.0,0.0,0.0,3.0,0.333125,0.326209,0.314759,0.327693,-0.0,-0.0,-0.0,-0.0,-0.0,0.0,0.038397,-0.018285,0.096069,0.017329,-0.017261,0.000153
463126,0.018678,0.000833,0.002311,0.0,0.0,0.0,0.0,0.0,0.0,3.0,0.331785,0.326606,0.314778,0.328645,-0.0,-0.0,-0.0,-0.0,-0.0,0.0,0.038523,-0.018142,0.096049,-0.024824,-0.021023,-0.016869
463146,0.018556,0.000834,0.002189,0.0,0.0,0.0,0.0,0.0,0.0,3.0,0.333093,0.326118,0.315245,0.327355,-0.0,-0.0,-0.0,-0.0,-0.0,0.0,0.038277,-0.018246,0.095946,-0.024634,-0.00374,7.4e-05
463166,0.018312,0.000834,0.002189,0.0,0.0,0.0,0.0,0.0,0.0,3.0,0.333212,0.325503,0.31604,0.327089,-0.0,-0.0,-0.0,-0.0,-0.0,0.0,0.038119,-0.018264,0.095824,-0.038078,8.9e-05,0.000177
463186,0.018434,0.000835,0.002067,0.0,0.0,0.0,0.0,0.0,0.0,3.0,0.333371,0.325111,0.317066,0.326332,-0.0,-0.0,-0.0,-0.0,-0.0,0.0,0.037998,-0.018404,0.095702,0.024754,0.003972,6.2e-05
463206,0.018556,0.000835,0.002067,0.0,0.0,0.0,0.0,0.0,0.0,3.0,0.332898,0.325473,0.315934,0.327541,-0.0,-0.0,-0.0,-0.0,-0.0,0.0,0.038014,-0.01828,0.095703,0.021088,-0.017262,0.000148
463226,0.018556,0.000835,0.002067,0.0,0.0,0.0,0.0,0.0,0.0,3.0,0.332885,0.325847,0.316132,0.326994,-0.0,-0.0,-0.0,-0.0,-0.0,0.0,0.038137,-0.018385,0.095704,-0.021003,0.000241,-0.020962
463246,0.018678,0.000958,0.001944,0.0,0.0,0.0,0.0,0.0,0.0,3.0,0.332891,0.32598,0.315661,0.327304,-0.0,-0.0,-0.0,-0.0,-0.0,0.0,0.038014,-0.018385,0.095704,-1.2e-05,0.021165,-0.021298
463266,0.018312,0.000959,0.001944,0.0,0.0,0.0,0.0,0.0,0.0,3.0,0.332082,0.326504,0.315287,0.327965,-0.0,-0.0,-0.0,-0.0,-0.0,0.0,0.038138,-0.018263,0.095704,-0.021176,-1e-06,-7.5e-05
463286,0.01819,0.000836,0.002067,0.0,0.0,0.0,0.0,0.0,0.0,3.0,0.332582,0.326256,0.315107,0.327871,-0.0,-0.0,-0.0,-0.0,-0.0,0.0,0.037911,-0.018281,0.095703,-0.003657,0.003844,1.5e-05
463306,0.01819,0.000958,0.002066,0.0,0.0,0.0,0.0,0.0,0.0,3.0,0.332549,0.325684,0.316004,0.327621,-0.0,-0.0,-0.0,-0.0,-0.0,0.0,0.037894,-0.018281,0.095703,-0.02092,0.00391,-2.4e-05
463326,0.018068,0.000835,0.00219,0.0,0.0,0.0,0.0,0.0,0.0,3.0,0.332726,0.326441,0.315794,0.326888,-0.0,-0.0,-0.0,0.0,-0.0,0.0,0.037771,-0.018367,0.095704,-0.02095,-0.003708,4.4e-05
463346,0.017946,0.001201,0.002186,0.0,0.0,0.0,0.0,0.0,0.0,3.0,0.332829,0.325609,0.316537,0.326901,-0.0,-0.0,-0.0,-0.0,-0.0,0.0,0.037611,-0.018384,0.095703,0.007727,0.020962,-0.00024
463366,0.017824,0.000957,0.002189,0.0,0.0,0.0,0.0,0.0,0.0,3.0,0.333612,0.32511,0.316527,0.326603,-0.0,-0.0,-0.0,-0.0,-0.0,0.0,0.037545,-0.01814,0.09572,0.017264,-0.021182,-0.003708
463386,0.017824,0.001201,0.002186,0.0,0.0,0.0,0.0,0.0,0.0,3.0,0.33424,0.325144,0.315915,0.326507,-0.0,-0.0,-0.0,-0.0,-0.0,0.0,0.037317,-0.018262,0.095721,0.013709,0.021015,-0.004084
463406,0.017702,0.001201,0.002187,0.0,0.0,0.0,0.0,0.0,0.0,3.0,0.332307,0.326166,0.315471,0.327896,-0.0,-0.0,-0.0,0.0,-0.0,0.0,0.037405,-0.018,0.095823,-0.021014,-0.003812,-0.021081
463426,0.01758,0.001323,0.002186,0.0,0.0,0.0,0.0,0.0,0.0,3.0,0.332645,0.326314,0.314938,0.327909,-0.0,-0.0,-0.0,0.0,-0.0,0.0,0.037159,-0.018019,0.095824,-0.020837,2.4e-05,-0.00012
463446,0.017214,0.001446,0.002185,0.0,0.0,0.0,0.0,0.0,0.0,3.0,0.333164,0.325415,0.314828,0.328375,-0.0,-0.0,-0.0,-0.0,-0.0,0.0,0.036934,-0.017791,0.095821,-0.003751,0.003578,-2.8e-05
463466,0.01697,0.001568,0.002184,0.0,0.0,0.0,0.0,0.0,0.0,3.0,0.33278,0.325455,0.315236,0.328342,-0.0,-0.0,-0.0,-0.0,-0.0,0.0,0.036794,-0.01767,0.09582,-0.020813,0.003756,-1.5e-05
463486,0.01697,0.001567,0.002306,0.0,0.0,0.0,0.0,0.0,0.0,3.0,0.331478,0.327208,0.313726,0.329346,-0.0,-0.0,-0.0,0.0,-0.0,0.0,0.03655,-0.017653,0.095925,0.000208,0.020941,0.003553
463506,0.016604,0.001812,0.002304,0.0,0.0,0.0,0.0,0.0,0.0,3.0,0.333106,0.325736,0.314272,0.328641,-0.0,-0.0,-0.0,0.0,-0.0,0.0,0.036323,-0.017549,0.095942,-0.003593,0.02484,-0.000203
463526,0.016238,0.001812,0.002305,0.0,0.0,0.0,0.0,0.0,0.0,3.0,0.333063,0.325918,0.314456,0.328331,-0.0,-0.0,-0.0,-0.0,-0.0,0.0,0.036061,-0.017408,0.095941,-0.020707,2e-06,2e-05
463546,0.015994,0.001934,0.002426,0.0,0.0,0.0,0.0,0.0,0.0,3.0,0.333761,0.326251,0.313658,0.32804,-0.0,-0.0,-0.0,0.0,-0.0,0.0,0.035608,-0.017531,0.095942,-0.007234,0.042061,-0.00033
463566,0.015628,0.002178,0.002424,0.0,0.0,0.0,0.0,0.0,0.0,3.0,0.333986,0.324369,0.314783,0.328609,-0.0,-0.0,-0.0,0.0,-0.0,0.0,0.035489,-0.017057,0.095956,-0.007552,0.003446,0.017064
463586,0.015384,0.002055,0.002548,0.0,0.0,0.0,0.0,0.0,0.0,3.0,0.332934,0.326874,0.313873,0.328064,-0.0,-0.0,-0.0,0.0,-0.0,0.0,0.035207,-0.01727,0.096063,-0.04161,0.017405,-0.000116
463606,0.015262,0.002178,0.002547,0.0,0.0,0.0,0.0,0.0,0.0,3.0,0.331939,0.326166,0.314018,0.329638,-0.0,-0.0,-0.0,-0.0,-0.0,0.0,0.03507,-0.01706,0.096184,-0.03816,0.003755,-0.000142
463626,0.014896,0.002421,0.002668,0.0,0.0,0.0,0.0,0.0,0.0,3.0,0.331351,0.327226,0.312538,0.330563,-0.0,-0.0,-0.0,0.0,-0.0,0.0,0.034843,-0.01692,0.096287,-0.020918,-0.000108,0.003757
463646,0.014774,0.002422,0.002668,0.0,0.0,0.0,0.0,0.0,0.0,3.0,0.3331,0.326219,0.312972,0.329389,-0.0,-0.0,-0.0,0.0,-0.0,0.0,0.034371,-0.016798,0.096304,0.03855,-0.000209,-4.6e-05
463666,0.014652,0.002421,0.00279,0.0,0.0,0.0,0.0,0.0,0.0,3.0,0.331853,0.327147,0.31194,0.33069,-0.0,-0.0,-0.0,0.0,-0.0,0.0,0.034231,-0.016676,0.096408,0.000353,1.6e-05,-0.017241
463686,0.014775,0.002543,0.002789,0.0,0.0,0.0,0.0,0.0,0.0,3.0,0.332232,0.326066,0.313074,0.330321,-0.0,-0.0,-0.0,-0.0,-0.0,0.0,0.034092,-0.016572,0.096426,0.024926,0.003745,-0.000193
463706,0.014531,0.002665,0.002788,0.0,0.0,0.0,0.0,0.0,0.0,3.0,0.332742,0.326059,0.313066,0.32982,-0.0,-0.0,-0.0,0.0,-0.0,0.0,0.03411,-0.016573,0.096425,-0.020928,0.00392,1e-06
463726,0.014531,0.002665,0.002788,0.0,0.0,0.0,0.0,0.0,0.0,3.0,0.332661,0.325868,0.313157,0.330005,-0.0,-0.0,-0.0,0.0,-0.0,0.0,0.034008,-0.01645,0.096424,0.01711,0.003708,-5.2e-05
463746,0.014286,0.002543,0.00279,0.0,0.0,0.0,0.0,0.0,0.0,3.0,0.333125,0.326851,0.312569,0.329113,-0.0,-0.0,-0.0,0.0,-0.0,0.0,0.033902,-0.016679,0.096426,-0.007487,0.000279,8e-06
463766,0.014165,0.002788,0.002788,0.0,0.0,0.0,0.0,0.0,0.0,3.0,0.333151,0.325988,0.313342,0.329217,-0.0,-0.0,-0.0,-0.0,-0.0,0.0,0.033763,-0.016677,0.096445,0.017291,0.041945,-0.004164
463786,0.014042,0.002544,0.00279,0.0,0.0,0.0,0.0,0.0,0.0,3.0,0.332223,0.327152,0.31356,0.328804,-0.0,-0.0,-0.0,0.0,-0.0,0.0,0.033868,-0.016642,0.096426,-0.041932,-0.00745,0.000109
463806,0.014165,0.002665,0.002911,0.0,0.0,0.0,0.0,0.0,0.0,3.0,0.331173,0.328232,0.312026,0.33022,-0.0,-0.0,0.0,0.0,0.0,0.0,0.033604,-0.016782,0.096532,-0.017108,-0.003589,-0.017194
463826,0.014042,0.002543,0.002912,0.0,0.0,0.0,0.0,0.0,0.0,3.0,0.332249,0.326257,0.314112,0.329147,-0.0,-0.0,0.0,-0.0,0.0,0.0,0.033728,-0.016676,0.096425,-0.017425,-0.0213,0.021123
463846,0.01392,0.002666,0.002789,0.0,0.0,0.0,0.0,0.0,0.0,3.0,0.333619,0.325661,0.313222,0.329176,-0.0,-0.0,0.0,0.0,-0.0,0.0,0.033395,-0.016694,0.096425,0.017381,0.003681,3.6e-05
463866,0.014042,0.002666,0.002789,0.0,0.0,0.0,0.0,0.0,0.0,3.0,0.331776,0.326272,0.313902,0.329807,-0.0,-0.0,0.0,0.0,0.0,0.0,0.033606,-0.016553,0.096425,0.003704,-0.000162,-5e-06
463886,0.01392,0.002666,0.002789,0.0,0.0,0.0,0.0,0.0,0.0,3.0,0.33247,0.326183,0.313037,0.330001,-0.0,-0.0,0.0,0.0,0.0,0.0,0.0335,-0.016431,0.096425,-0.020889,-0.021052,0.000175
463906,0.013798,0.002544,0.00279,0.0,0.0,0.0,0.0,0.0,0.0,3.0,0.332388,0.326606,0.313065,0.329641,-0.0,-0.0,0.0,0.0,-0.0,0.0,0.033379,-0.016554,0.096426,-5.4e-05,-0.020947,0.000145
463926,0.013676,0.002544,0.00279,0.0,0.0,0.0,0.0,0.0,0.0,3.0,0.332598,0.326504,0.312799,0.329776,-0.0,-0.0,0.0,0.0,0.0,0.0,0.033274,-0.016695,0.096427,-0.003727,0.00387,-2.2e-05
463946,0.013554,0.002544,0.00279,0.0,0.0,0.0,0.0,0.0,0.0,3.0,0.332219,0.326223,0.313184,0.330077,-0.0,-0.0,0.0,0.0,0.0,0.0,0.033257,-0.016552,0.096426,-0.020973,-8e-05,3e-05
463966,0.01331,0.002545,0.002791,0.0,0.0,0.0,0.0,0.0,0.0,3.0,0.33271,0.32707,0.312574,0.329314,-0.0,-0.0,0.0,0.0,0.0,0.0,0.03303,-0.0168,0.096428,-0.024678,0.000303,2.9e-05
463986,0.013554,0.002789,0.002789,0.0,0.0,0.0,0.0,0.0,0.0,3.0,0.331843,0.325947,0.313525,0.330411,-0.0,-0.0,0.0,0.0,0.0,0.0,0.032996,-0.01657,0.096426,0.003787,0.024539,-0.00017
464006,0.01331,0.002666,0.002912,0.0,0.0,0.0,0.0,0.0,0.0,3.0,0.331983,0.327388,0.312942,0.329391,-0.0,-0.0,0.0,0.0,-0.0,0.0,0.033012,-0.01666,0.096427,0.020947,-0.003815,0.02097
464026,0.01331,0.002788,0.002911,0.0,0.0,0.0,0.0,0.0,0.0,3.0,0.331911,0.326696,0.312597,0.330467,-0.0,-0.0,0.0,0.0,0.0,0.0,0.032889,-0.016572,0.096549,0.021267,0.00365,-7.8e-05
464046,0.013432,0.002543,0.003035,0.0,0.0,0.0,0.0,0.0,0.0,3.0,0.330609,0.328868,0.311414,0.330719,-0.0,-0.0,0.0,0.0,0.0,0.0,0.03289,-0.016642,0.096654,0.000127,-0.007644,0.003782
464066,0.013311,0.002787,0.003155,0.0,0.0,0.0,0.0,0.0,0.0,3.0,0.332055,0.327091,0.312191,0.33031,-0.0,-0.0,0.0,0.0,0.0,0.0,0.032767,-0.016677,0.096671,9.4e-05,0.020969,-0.000137
464086,0.012944,0.002542,0.00328,0.0,0.0,0.0,0.0,0.0,0.0,3.0,0.331335,0.32766,0.311916,0.330726,-0.0,-0.0,0.0,0.0,0.0,0.0,0.032769,-0.016556,0.096794,-0.021054,-0.021008,9e-06
464106,0.012944,0.002542,0.00328,0.0,0.0,0.0,0.0,0.0,0.0,3.0,0.331473,0.327771,0.311327,0.33102,-0.0,-0.0,0.0,0.0,0.0,-0.0,0.032561,-0.016697,0.096917,-0.00753,-0.017094,-3.7e-05
464126,0.0127,0.002542,0.003402,0.0,0.0,0.0,0.0,0.0,0.0,3.0,0.331686,0.327613,0.311548,0.330759,-0.0,-0.0,0.0,0.0,0.0,-0.0,0.03242,-0.016658,0.096916,-0.003712,-0.004102,0.021004
464146,0.012822,0.00242,0.003403,0.0,0.0,0.0,0.0,0.0,0.0,3.0,0.330491,0.327897,0.312432,0.330859,-0.0,-0.0,0.0,0.0,0.0,-0.0,0.032509,-0.01666,0.097038,-0.017202,-0.003811,2.3e-05
464166,0.012822,0.002419,0.003525,0.0,0.0,0.0,0.0,0.0,0.0,3.0,0.330232,0.328269,0.31132,0.331774,-0.0,-0.0,0.0,0.0,0.0,-0.0,0.032385,-0.016679,0.097162,0.003841,0.000175,-0.021089
464186,0.012823,0.002663,0.003523,0.0,0.0,0.0,0.0,0.0,0.0,3.0,0.330411,0.327295,0.311961,0.331966,-0.0,-0.0,0.0,0.0,0.0,-0.0,0.032366,-0.016593,0.09716,0.007659,-0.013365,-5.6e-05
464206,0.012823,0.00254,0.003646,0.0,0.0,0.0,0.0,0.0,0.0,3.0,0.330282,0.328914,0.310445,0.331888,-0.0,-0.0,0.0,0.0,0.0,-0.0,0.032299,-0.016681,0.097284,0.017241,-5.2e-05,-0.000133
464226,0.012945,0.002783,0.003766,0.0,0.0,0.0,0.0,0.0,0.0,3.0,0.330779,0.328064,0.311176,0.331565,-0.0,-0.0,0.0,0.0,0.0,-0.0,0.032299,-0.01668,0.097282,0.038292,0.041736,0.020652
464246,0.012945,0.002661,0.003767,0.0,0.0,0.0,0.0,0.0,0.0,3.0,0.33048,0.328511,0.311113,0.331478,-0.0,-0.0,0.0,0.0,0.0,-0.0,0.032403,-0.016542,0.097404,-0.020879,0.017233,-0.000104
464266,0.012823,0.002538,0.00389,0.0,0.0,0.0,0.0,0.0,0.0,3.0,0.329157,0.330101,0.309954,0.332275,-0.0,-0.0,0.0,-0.0,-0.0,-0.0,0.032404,-0.016665,0.097509,-0.021196,-0.024553,0.003916
464286,0.012946,0.002782,0.004011,0.0,0.0,0.0,0.0,0.0,0.0,3.0,0.328387,0.329277,0.310245,0.333582,-0.0,-0.0,0.0,-0.0,0.0,-0.0,0.032529,-0.016577,0.09763,-0.021204,0.003615,0.003739
464306,0.012701,0.002415,0.004135,0.0,0.0,0.0,0.0,0.0,0.0,3.0,0.329668,0.329039,0.310969,0.331894,-0.0,-0.0,0.0,-0.0,0.0,-0.0,0.032546,-0.016543,0.097647,-0.003996,-0.024986,0.021141
464326,0.012701,0.002415,0.004135,0.0,0.0,0.0,0.0,0.0,0.0,3.0,0.32953,0.329206,0.310838,0.331986,-0.0,-0.0,0.0,-0.0,0.0,-0.0,0.032404,-0.016806,0.097772,0.000205,0.000179,-2.5e-05
464346,0.012823,0.002536,0.004256,0.0,0.0,0.0,0.0,0.0,0.0,3.0,0.3291,0.328484,0.31166,0.33237,-0.0,-0.0,0.0,0.0,0.0,-0.0,0.03251,-0.016682,0.09777,-0.017193,-7.4e-05,2.4e-05
464366,0.012823,0.002536,0.004256,0.0,0.0,0.0,0.0,0.0,0.0,3.0,0.32894,0.329311,0.310581,0.3327,-0.0,-0.0,0.0,-0.0,0.0,-0.0,0.032386,-0.016684,0.097894,0.003867,-6e-06,-0.000162
464386,0.012946,0.002658,0.004255,0.0,0.0,0.0,0.0,0.0,0.0,3.0,0.329113,0.32815,0.311164,0.333139,-0.0,-0.0,0.0,-0.0,-0.0,-0.0,0.032386,-0.016456,0.097891,0.045792,0.003522,-9e-05
464406,0.012824,0.002658,0.004256,0.0,0.0,0.0,0.0,0.0,0.0,3.0,0.32915,0.329474,0.309337,0.33346,-0.0,-0.0,0.0,-0.0,0.0,-0.0,0.032298,-0.01644,0.098015,0.038403,0.000101,-0.02114
464426,0.013068,0.002779,0.004377,0.0,0.0,0.0,0.0,0.0,0.0,3.0,0.32891,0.329837,0.309489,0.333201,-0.0,-0.0,0.0,0.0,0.0,-0.0,0.032299,-0.016564,0.098015,0.017393,0.021092,-0.000245
464446,0.01319,0.002657,0.004255,0.0,0.0,0.0,0.0,0.0,0.0,3.0,0.329057,0.328912,0.310627,0.332936,-0.0,-0.0,-0.0,0.0,0.0,-0.0,0.032546,-0.01646,0.098013,-0.004063,0.003826,-1.8e-05
464466,0.013068,0.002535,0.004378,0.0,0.0,0.0,0.0,0.0,0.0,3.0,0.327861,0.330118,0.310211,0.333298,-0.0,-0.0,-0.0,0.0,0.0,-0.0,0.032773,-0.016564,0.097995,-0.042299,-0.020746,0.004082
464486,0.01319,0.002657,0.004255,0.0,0.0,0.0,0.0,0.0,0.0,3.0,0.328765,0.328569,0.312474,0.331871,-0.0,-0.0,-0.0,-0.0,-0.0,-0.0,0.032878,-0.016685,0.097891,-0.017433,-7.8e-05,0.021108
464506,0.013068,0.00278,0.004255,0.0,0.0,0.0,0.0,0.0,0.0,3.0,0.32933,0.328649,0.31111,0.332485,-0.0,-0.0,-0.0,-0.0,0.0,-0.0,0.032808,-0.016562,0.097891,0.013317,-0.000187,0.000115
464526,0.012946,0.002781,0.004133,0.0,0.0,0.0,0.0,0.0,0.0,3.0,0.330173,0.327423,0.312541,0.331543,-0.0,-0.0,-0.0,0.0,0.0,-0.0,0.032771,-0.016439,0.097786,-0.020754,0.020883,-0.003837
464546,0.013068,0.003025,0.004131,0.0,0.0,0.0,0.0,0.0,0.0,3.0,0.328434,0.328051,0.312008,0.333133,-0.0,-0.0,-0.0,0.0,0.0,-0.0,0.032736,-0.016212,0.097767,-0.013363,-0.017189,0.000132
464566,0.013068,0.003025,0.004009,0.0,0.0,0.0,0.0,0.0,0.0,3.0,0.330466,0.327276,0.312439,0.33149,-0.0,-0.0,-0.0,-0.0,0.0,-0.0,0.032507,-0.016194,0.097662,0.003972,-0.000115,-0.003737
464586,0.01319,0.002781,0.00401,0.0,0.0,0.0,0.0,0.0,0.0,3.0,0.328769,0.328854,0.311844,0.332165,-0.0,-0.0,-0.0,-0.0,-0.0,-0.0,0.032631,-0.016318,0.097646,0.024655,6e-05,-4e-05
464606,0.013312,0.002781,0.00401,0.0,0.0,0.0,0.0,0.0,0.0,3.0,0.328697,0.32861,0.311689,0.332618,-0.0,-0.0,-0.0,0.0,0.0,-0.0,0.032771,-0.016317,0.097646,0.041878,-0.021011,7.7e-05
464626,0.013189,0.002537,0.004012,0.0,0.0,0.0,0.0,0.0,0.0,3.0,0.32929,0.329366,0.310945,0.331968,-0.0,-0.0,-0.0,0.0,0.0,-0.0,0.032787,-0.016544,0.097647,-0.024643,-0.024628,0.000196
464646,0.013434,0.002903,0.004009,0.0,0.0,0.0,0.0,0.0,0.0,3.0,0.328872,0.328472,0.311377,0.332866,-0.0,-0.0,-0.0,-0.0,0.0,-0.0,0.03279,-0.016579,0.097647,-0.003927,0.024733,-0.000158
464666,0.01319,0.003025,0.004009,0.0,0.0,0.0,0.0,0.0,0.0,3.0,0.328799,0.328034,0.311416,0.333333,-0.0,-0.0,-0.0,0.0,-0.0,-0.0,0.032894,-0.016212,0.097645,-0.042141,0.003637,4.3e-05
464686,0.012946,0.003026,0.004009,0.0,0.0,0.0,0.0,0.0,0.0,3.0,0.328545,0.329168,0.311252,0.332618,-0.0,-0.0,-0.0,0.0,0.0,-0.0,0.032772,-0.016319,0.097646,-0.021052,1.7e-05,0.021004
464706,0.012947,0.003269,0.004129,0.0,0.0,0.0,0.0,0.0,0.0,3.0,0.328429,0.328444,0.311784,0.332958,-0.0,-0.0,-0.0,0.0,0.0,-0.0,0.032792,-0.016194,0.097644,-0.003762,0.041654,0.020837
464726,0.012947,0.003269,0.004129,0.0,0.0,0.0,0.0,0.0,0.0,3.0,0.327869,0.329218,0.310664,0.333767,-0.0,-0.0,-0.0,-0.0,0.0,-0.0,0.032649,-0.015951,0.097747,0.000212,-7.3e-05,0.003817
464746,0.013069,0.003146,0.004252,0.0,0.0,0.0,0.0,0.0,0.0,3.0,0.327903,0.329267,0.311633,0.332802,-0.0,-0.0,-0.0,0.0,-0.0,-0.0,0.032613,-0.016075,0.097766,0.007687,-0.020878,0.000124
464766,0.013069,0.003024,0.004253,0.0,0.0,0.0,0.0,0.0,0.0,3.0,0.328931,0.328053,0.312294,0.332381,-0.0,-0.0,-0.0,0.0,-0.0,-0.0,0.032631,-0.016073,0.097784,0.003836,-0.000117,-0.003894
464786,0.01319,0.002779,0.004254,0.0,0.0,0.0,0.0,0.0,0.0,3.0,0.328302,0.330141,0.310125,0.332922,-0.0,-0.0,-0.0,0.0,0.0,-0.0,0.032402,-0.016302,0.097891,0.042112,-0.024635,-6.3e-05
464806,0.013069,0.003023,0.004375,0.0,0.0,0.0,0.0,0.0,0.0,3.0,0.327451,0.329974,0.309587,0.334404,-0.0,-0.0,-0.0,0.0,0.0,-0.0,0.032544,-0.016318,0.098014,0.03816,0.0208,-0.000306
464826,0.013069,0.003267,0.004373,0.0,0.0,0.0,0.0,0.0,0.0,3.0,0.32842,0.3285,0.310174,0.334375,-0.0,-0.0,-0.0,-0.0,0.0,-0.0,0.032563,-0.015969,0.09801,-0.007457,0.003615,-1e-05
464846,0.013191,0.003267,0.004373,0.0,0.0,0.0,0.0,0.0,0.0,3.0,0.326984,0.330815,0.309134,0.334437,-0.0,-0.0,-0.0,0.0,-0.0,-0.0,0.032546,-0.016058,0.098115,-0.024851,0.01741,-0.017311
464866,0.012826,0.003389,0.004495,0.0,0.0,0.0,0.0,0.0,0.0,3.0,0.32731,0.329632,0.309454,0.334997,-0.0,-0.0,-0.0,0.0,-0.0,-0.0,0.032547,-0.015849,0.098133,-0.025034,0.003763,-6.4e-05
464886,0.012825,0.003267,0.004496,0.0,0.0,0.0,0.0,0.0,0.0,3.0,0.327342,0.329892,0.310762,0.333529,-0.0,-0.0,-0.0,0.0,0.0,-0.0,0.03253,-0.015936,0.098132,-0.021068,-0.003681,6.1e-05
464906,0.012825,0.003144,0.004619,0.0,0.0,0.0,0.0,0.0,0.0,3.0,0.32678,0.330022,0.311043,0.333692,-0.0,-0.0,-0.0,0.0,0.0,-0.0,0.032653,-0.016077,0.098133,-0.021134,2.1e-05,0.021007
464926,0.012703,0.003144,0.004619,0.0,0.0,0.0,0.0,0.0,0.0,3.0,0.328216,0.329137,0.310763,0.333416,-0.0,-0.0,-0.0,-0.0,0.0,-0.0,0.032424,-0.016075,0.098132,-0.003625,-0.000128,0.021065
464946,0.012825,0.003022,0.00462,0.0,0.0,0.0,0.0,0.0,0.0,3.0,0.327312,0.329291,0.312081,0.332948,-0.0,-0.0,-0.0,0.0,-0.0,-0.0,0.032492,-0.016199,0.098132,0.007619,9.2e-05,7.2e-05
464966,0.012947,0.003267,0.004496,0.0,0.0,0.0,0.0,0.0,0.0,3.0,0.327256,0.328848,0.311662,0.33382,-0.0,-0.0,-0.0,0.0,-0.0,-0.0,0.032491,-0.016074,0.098132,0.007779,0.020843,-0.000196
464986,0.012947,0.003145,0.004496,0.0,0.0,0.0,0.0,0.0,0.0,3.0,0.327967,0.329796,0.310237,0.333489,-0.0,-0.0,-0.0,0.0,0.0,-0.0,0.032281,-0.016058,0.098133,0.021152,-0.003667,-0.020985
465006,0.013069,0.003267,0.004373,0.0,0.0,0.0,0.0,0.0,0.0,3.0,0.328359,0.328064,0.311856,0.333333,-0.0,-0.0,-0.0,0.0,0.0,-0.0,0.032406,-0.01597,0.098028,0.041872,0.003661,-0.00396
465026,0.012947,0.003268,0.004252,0.0,0.0,0.0,0.0,0.0,0.0,3.0,0.327498,0.329005,0.310781,0.33423,-0.0,-0.0,-0.0,-0.0,0.0,-0.0,0.032527,-0.015829,0.098009,6.1e-05,-0.000109,-1e-06
465046,0.012947,0.003146,0.004252,0.0,0.0,0.0,0.0,0.0,0.0,3.0,0.327893,0.330533,0.309536,0.333468,-0.0,-0.0,-0.0,0.0,-0.0,-0.0,0.032318,-0.0162,0.098012,-0.007494,0.000528,-0.020917
465066,0.012947,0.003391,0.004129,0.0,0.0,0.0,0.0,0.0,0.0,3.0,0.327456,0.328652,0.311245,0.334197,-0.0,-0.0,-0.0,0.0,-0.0,-0.0,0.032548,-0.015968,0.097888,-0.025122,0.003625,4.4e-05
465086,0.012824,0.003025,0.004131,0.0,0.0,0.0,0.0,0.0,0.0,3.0,0.327852,0.329091,0.311594,0.333061,-0.0,-0.0,-0.0,0.0,0.0,0.0,0.032529,-0.015933,0.097765,-0.042128,-0.024771,0.000387
465106,0.012824,0.003148,0.004008,0.0,0.0,0.0,0.0,0.0,0.0,3.0,0.327888,0.328731,0.312414,0.33263,-0.0,-0.0,-0.0,0.0,0.0,0.0,0.032529,-0.016196,0.097644,-0.000187,4.4e-05,0.021082
465126,0.012825,0.00327,0.004008,0.0,0.0,0.0,0.0,0.0,0.0,3.0,0.327695,0.328347,0.311707,0.333841,-0.0,-0.0,-0.0,-0.0,0.0,0.0,0.032547,-0.015948,0.097643,-0.003751,0.020711,5e-06
465146,0.012702,0.003148,0.004009,0.0,0.0,0.0,0.0,0.0,0.0,3.0,0.328387,0.328333,0.312914,0.332071,-0.0,-0.0,-0.0,0.0,0.0,0.0,0.032509,-0.016074,0.09754,-0.017097,-0.020804,0.017403
465166,0.012947,0.003515,0.003884,0.0,0.0,0.0,0.0,0.0,0.0,3.0,0.327574,0.327837,0.313048,0.333233,-0.0,-0.0,-0.0,0.0,-0.0,0.0,0.032492,-0.015947,0.09752,0.007684,0.020711,-6.3e-05
465186,0.012824,0.00315,0.003764,0.0,0.0,0.0,0.0,0.0,0.0,3.0,0.329131,0.327279,0.312775,0.3325,-0.0,-0.0,-0.0,0.0,-0.0,0.0,0.032404,-0.015704,0.097415,6.7e-05,-0.021128,-0.003597
465206,0.012824,0.003272,0.003641,0.0,0.0,0.0,0.0,0.0,0.0,3.0,0.32831,0.328954,0.311491,0.33284,-0.0,-0.0,-0.0,0.0,0.0,0.0,0.032139,-0.016072,0.097401,0.045971,0.000385,-0.021052
465226,0.01258,0.003274,0.00352,0.0,0.0,0.0,0.0,0.0,0.0,3.0,0.328948,0.327969,0.311819,0.332882,-0.0,-0.0,-0.0,-0.0,0.0,0.0,0.032177,-0.015947,0.097297,0.017295,-0.000165,-0.003846
465246,0.012579,0.002908,0.0034,0.0,0.0,0.0,0.0,0.0,0.0,3.0,0.328173,0.329692,0.310914,0.332774,-0.0,-0.0,-0.0,-0.0,0.0,0.0,0.032055,-0.016176,0.09728,-0.003638,-0.003484,-0.020898
465266,0.012457,0.003153,0.003276,0.0,0.0,0.0,0.0,0.0,0.0,3.0,0.328208,0.328829,0.310628,0.33385,-0.0,-0.0,-0.0,0.0,-0.0,0.0,0.031933,-0.016208,0.09714,-0.024735,0.025005,-0.017173
465286,0.012091,0.003032,0.003278,0.0,0.0,0.0,0.0,0.0,0.0,3.0,0.329512,0.327724,0.311997,0.332403,-0.0,-0.0,-0.0,0.0,-0.0,0.0,0.031811,-0.016066,0.096912,-0.045892,-0.020919,0.000383
465306,0.011846,0.003033,0.003156,0.0,0.0,0.0,0.0,0.0,0.0,3.0,0.329569,0.32784,0.312886,0.331413,-0.0,-0.0,-0.0,0.0,0.0,0.0,0.03169,-0.016293,0.096791,-0.024897,0.017304,4.5e-05
465326,0.011724,0.003156,0.003033,0.0,0.0,0.0,0.0,0.0,0.0,3.0,0.329626,0.326749,0.313202,0.332136,-0.0,-0.0,-0.0,-0.0,0.0,0.0,0.031568,-0.016063,0.096668,-0.003738,0.020842,-1e-05
465346,0.011358,0.003035,0.002913,0.0,0.0,0.0,0.0,0.0,0.0,3.0,0.330389,0.327567,0.312652,0.331083,-0.0,-0.0,-0.0,-0.0,0.0,0.0,0.031179,-0.016169,0.096547,0.00039,-0.02457,0.000251
465366,0.011113,0.003158,0.00279,0.0,0.0,0.0,0.0,0.0,0.0,3.0,0.330682,0.325965,0.313506,0.331573,-0.0,-0.0,-0.0,0.0,0.0,0.0,0.030918,-0.016079,0.096444,-0.016819,0.003641,-0.003725
465386,0.010503,0.00316,0.002669,0.0,0.0,0.0,0.0,0.0,0.0,3.0,0.331988,0.325906,0.312488,0.331267,-0.0,-0.0,-0.0,0.0,-0.0,0.0,0.030323,-0.015937,0.096322,-0.020495,-0.021032,-0.003587
465406,0.010014,0.003162,0.002426,0.0,0.0,0.0,0.0,0.0,0.0,3.0,0.332525,0.326122,0.312209,0.330773,-0.0,-0.0,-0.0,0.0,-0.0,0.0,0.029731,-0.01606,0.096201,-0.003339,4.9e-05,-0.003728
465426,0.009282,0.003407,0.002304,0.0,0.0,0.0,0.0,0.0,0.0,3.0,0.333143,0.325788,0.310503,0.332045,-0.0,-0.0,-0.0,0.0,0.0,0.0,0.029033,-0.015829,0.096061,-0.010875,-0.01724,-0.020719
465446,0.008549,0.003165,0.002184,0.0,0.0,0.0,0.0,0.0,0.0,3.0,0.33349,0.327267,0.309804,0.330884,-0.0,-0.0,-0.0,-0.0,0.0,0.0,0.0283,-0.01604,0.095942,-0.052805,-0.003601,-0.020849
465466,0.007572,0.003289,0.001941,0.0,0.0,0.0,0.0,0.0,0.0,3.0,0.333031,0.326483,0.3098,0.332119,-0.0,-0.0,-0.0,-0.0,0.0,0.0,0.027674,-0.01595,0.095802,-0.0703,0.003871,-0.017008
465486,0.006473,0.003046,0.001821,0.0,0.0,0.0,0.0,0.0,0.0,3.0,0.334623,0.32599,0.309943,0.330865,-0.0,-0.0,-0.0,0.0,-0.0,0.0,0.026695,-0.015931,0.095577,-0.069956,-0.020902,0.000368
465506,0.005374,0.003047,0.001701,0.0,0.0,0.0,0.0,0.0,0.0,3.0,0.335094,0.32625,0.309476,0.330557,-0.0,-0.0,-0.0,0.0,-0.0,0.0,0.025737,-0.016175,0.095457,-0.073729,0.000249,0.00027
465526,0.004519,0.003292,0.00158,0.0,0.0,0.0,0.0,0.0,0.0,3.0,0.336302,0.324092,0.31055,0.33045,-0.0,-0.0,-0.0,0.0,-0.0,0.0,0.024742,-0.015944,0.095213,-0.048865,0.003659,0.000338
465546,0.003542,0.003294,0.001337,0.0,0.0,0.0,0.0,0.0,0.0,3.0,0.337954,0.323909,0.311176,0.328346,-0.0,-0.0,-0.0,0.0,-0.0,0.0,0.023745,-0.016051,0.094988,-0.065919,0.000165,-0.003518
465566,0.002443,0.003295,0.001095,0.0,0.0,0.0,0.0,0.0,0.0,3.0,0.33769,0.324637,0.309747,0.329227,-0.0,-0.0,-0.0,-0.0,0.0,0.0,0.022627,-0.016049,0.094851,-0.041157,6e-06,-0.020802
465586,0.001466,0.003173,0.000852,0.0,0.0,0.0,0.0,0.0,0.0,3.0,0.339344,0.323971,0.309272,0.328598,-0.0,-0.0,-0.0,-0.0,0.0,0.0,0.021441,-0.016048,0.094627,-0.006624,-4.1e-05,-0.003698
465606,0.000612,0.003296,0.000732,0.0,0.0,0.0,0.0,0.0,0.0,3.0,0.339619,0.323703,0.308466,0.329313,-0.0,-0.0,-0.0,0.0,-0.0,-0.0,0.020483,-0.015923,0.094507,-0.010549,-9.5e-05,-0.024644
465626,-0.000243,0.003052,0.000611,0.0,0.0,0.0,0.0,0.0,0.0,3.0,0.339547,0.325046,0.307536,0.32892,-0.0,-0.0,-0.0,0.0,0.0,0.0,0.019629,-0.01601,0.094369,-0.052648,-0.007554,-0.020867
465646,-0.001098,0.00293,0.00049,0.0,0.0,0.0,0.0,0.0,0.0,3.0,0.339488,0.324776,0.307827,0.328981,-0.0,-0.0,-0.0,0.0,0.0,0.0,0.018881,-0.01615,0.094248,-0.070153,-0.003676,-0.020845
465666,-0.001831,0.002808,0.000369,0.0,0.0,0.0,0.0,0.0,0.0,3.0,0.340317,0.323263,0.308984,0.328539,-0.0,-0.0,-0.0,-0.0,0.0,0.0,0.018131,-0.016186,0.094003,-0.045393,-0.017077,0.000188
465686,-0.002197,0.002808,0.000247,0.0,0.0,0.0,0.0,0.0,0.0,3.0,0.339564,0.323443,0.309894,0.328312,-0.0,-0.0,-0.0,-0.0,0.0,0.0,0.017749,-0.01629,0.093882,-0.020774,-0.020898,0.000119
465706,-0.002441,0.002442,0.000125,0.0,0.0,0.0,0.0,0.0,0.0,3.0,0.340288,0.323559,0.309404,0.327891,-0.0,-0.0,-0.0,0.0,0.0,-0.0,0.017277,-0.016412,0.09376,-0.003395,-0.04192,6.5e-05
465726,-0.002442,0.002564,3e-06,0.0,0.0,0.0,0.0,0.0,0.0,3.0,0.340239,0.323273,0.310651,0.327067,-0.0,-0.0,-0.0,0.0,-0.0,-0.0,0.01712,-0.01678,0.093657,-0.016981,0.0002,-0.003712
465746,-0.002442,0.002563,-0.000241,0.0,0.0,0.0,0.0,0.0,0.0,3.0,0.340092,0.322981,0.310442,0.327703,-0.0,-0.0,-0.0,0.0,-0.0,-0.0,0.016998,-0.016656,0.093516,0.003818,-0.000157,0.000103
465766,-0.00232,0.002441,-0.000363,0.0,0.0,0.0,0.0,0.0,0.0,3.0,0.339916,0.323727,0.31003,0.327538,-0.0,-0.0,-0.0,-0.0,0.0,-0.0,0.017035,-0.01678,0.093394,0.038057,0.000115,0.00011
465786,-0.002198,0.002563,-0.000363,0.0,0.0,0.0,0.0,0.0,0.0,3.0,0.340139,0.323258,0.31008,0.327719,-0.0,-0.0,-0.0,-0.0,0.0,0.0,0.017156,-0.016779,0.093272,-0.003784,0.020971,0.000187
465806,-0.001954,0.002563,-0.000486,0.0,0.0,0.0,0.0,0.0,0.0,3.0,0.338511,0.323737,0.31059,0.328479,-0.0,-0.0,-0.0,0.0,0.0,0.0,0.01749,-0.016657,0.093254,-0.017585,0.020927,-0.017088
465826,-0.002076,0.002563,-0.000608,0.0,0.0,0.0,0.0,0.0,0.0,3.0,0.338574,0.323447,0.310795,0.328507,-0.0,-0.0,-0.0,0.0,0.0,0.0,0.017734,-0.016534,0.093132,-0.038498,1.8e-05,0.003918
465846,-0.002198,0.002685,-0.000608,0.0,0.0,0.0,0.0,0.0,0.0,3.0,0.339896,0.322663,0.310952,0.327747,-0.0,-0.0,-0.0,0.0,0.0,0.0,0.017647,-0.016535,0.093028,-0.02488,0.021013,0.000213
465866,-0.00232,0.002807,-0.000729,0.0,0.0,0.0,0.0,0.0,0.0,3.0,0.340948,0.32186,0.311125,0.327263,-0.0,-0.0,-0.0,-0.0,-0.0,0.0,0.0174,-0.016431,0.092905,-0.003653,-0.017109,9.6e-05
465886,-0.002321,0.002563,-0.000852,0.0,0.0,0.0,0.0,0.0,0.0,3.0,0.340634,0.32268,0.311914,0.326051,-0.0,-0.0,-0.0,-0.0,-0.0,0.0,0.017364,-0.016641,0.092783,-0.017083,-0.00376,0.000126
465906,-0.002321,0.002563,-0.000852,0.0,0.0,0.0,0.0,0.0,0.0,3.0,0.340034,0.323348,0.310882,0.326993,-0.0,-0.0,-0.0,0.0,0.0,0.0,0.017242,-0.016762,0.092785,0.003859,0.017241,1.4e-05
465926,-0.002565,0.002318,-0.000852,0.0,0.0,0.0,0.0,0.0,0.0,3.0,0.340495,0.323124,0.310613,0.326979,-0.0,-0.0,-0.0,0.0,0.0,0.0,0.017137,-0.016781,0.092785,0.021068,-0.020903,-0.021025
465946,-0.002565,0.002196,-0.000974,0.0,0.0,0.0,0.0,0.0,0.0,3.0,0.341171,0.323984,0.309405,0.32654,-0.0,-0.0,-0.0,0.0,0.0,0.0,0.016805,-0.01713,0.092785,0.034752,-0.00361,-0.021149
465966,-0.002565,0.002196,-0.000974,0.0,0.0,0.0,0.0,0.0,0.0,3.0,0.339775,0.323598,0.310099,0.327749,-0.0,-0.0,-0.0,-0.0,-0.0,0.0,0.017017,-0.017004,0.092786,-0.021045,-0.004038,-0.021043
465986,-0.002565,0.002196,-0.000974,0.0,0.0,0.0,0.0,0.0,0.0,3.0,0.338772,0.324259,0.310025,0.328217,-0.0,-0.0,-0.0,0.0,-0.0,0.0,0.017122,-0.017005,0.092767,-0.017369,-0.003844,0.003771
466006,-0.002565,0.00244,-0.000852,0.0,0.0,0.0,0.0,0.0,0.0,3.0,0.339925,0.322256,0.311644,0.32747,-0.0,-0.0,-0.0,0.0,-0.0,0.0,0.017263,-0.016919,0.092661,-0.000172,0.003755,0.021139
466026,-0.002321,0.002563,-0.000852,0.0,0.0,0.0,0.0,0.0,0.0,3.0,0.340448,0.322034,0.311756,0.327031,-0.0,-0.0,-0.0,0.0,0.0,0.0,0.017261,-0.016779,0.092661,0.000114,0.020842,0.021085
466046,-0.002321,0.002563,-0.000852,0.0,0.0,0.0,0.0,0.0,0.0,3.0,0.340699,0.321538,0.31269,0.326374,-0.0,-0.0,-0.0,0.0,0.0,-0.0,0.017346,-0.016658,0.09268,0.007569,-2.5e-05,-0.003766
466066,-0.002321,0.00244,-0.000974,0.0,0.0,0.0,0.0,0.0,0.0,3.0,0.341773,0.322114,0.311144,0.326122,-0.0,-0.0,-0.0,-0.0,-0.0,-0.0,0.017012,-0.016781,0.092681,0.04232,0.000126,-0.003942
466086,-0.002321,0.00244,-0.000974,0.0,0.0,0.0,0.0,0.0,0.0,3.0,0.339812,0.323189,0.309913,0.328283,-0.0,-0.0,-0.0,-0.0,0.0,0.0,0.017137,-0.016656,0.092786,0.021016,-0.021099,-0.021138
466106,-0.002443,0.002318,-0.000852,0.0,0.0,0.0,0.0,0.0,0.0,3.0,0.339959,0.323359,0.309571,0.32828,-0.0,-0.0,-0.0,0.0,0.0,0.0,0.017156,-0.016656,0.092786,-0.003738,-0.042032,-0.000131
466126,-0.00232,0.002318,-0.000852,0.0,0.0,0.0,0.0,0.0,0.0,3.0,0.339135,0.324084,0.30893,0.32902,-0.0,-0.0,-0.0,0.0,0.0,0.0,0.017157,-0.016797,0.092889,-0.024797,-0.03817,0.003714
466146,-0.002687,0.002196,-0.00073,0.0,0.0,0.0,0.0,0.0,0.0,3.0,0.339451,0.324426,0.309318,0.327996,-0.0,-0.0,-0.0,0.0,0.0,0.0,0.017139,-0.017006,0.092888,-0.04212,-0.00385,0.003932
466166,-0.002809,0.002196,-0.000729,0.0,0.0,0.0,0.0,0.0,0.0,3.0,0.340413,0.323175,0.309989,0.327596,-0.0,-0.0,-0.0,0.0,0.0,0.0,0.016913,-0.017024,0.092907,-0.003802,0.02097,3.4e-05
466186,-0.002687,0.002318,-0.000729,0.0,0.0,0.0,0.0,0.0,0.0,3.0,0.340516,0.322711,0.310032,0.327903,-0.0,-0.0,-0.0,-0.0,0.0,0.0,0.01679,-0.01692,0.092907,0.017287,0.003871,-1.5e-05
466206,-0.002686,0.002441,-0.000607,0.0,0.0,0.0,0.0,0.0,0.0,3.0,0.338789,0.324045,0.309088,0.329272,-0.0,-0.0,-0.0,0.0,0.0,0.0,0.016876,-0.016778,0.093012,0.003821,-0.000102,0.003727
466226,-0.002686,0.002441,-0.000485,0.0,0.0,0.0,0.0,0.0,0.0,3.0,0.339866,0.323218,0.310247,0.32789,-0.0,-0.0,-0.0,0.0,-0.0,0.0,0.016876,-0.01678,0.093029,0.003841,2e-06,-3e-06
466246,-0.002686,0.002563,-0.000485,0.0,0.0,0.0,0.0,0.0,0.0,3.0,0.339822,0.323227,0.309275,0.328824,-0.0,-0.0,-0.0,0.0,-0.0,0.0,0.016771,-0.016675,0.093152,0.021082,0.003736,-0.000179
466266,-0.002686,0.002319,-0.000363,0.0,0.0,0.0,0.0,0.0,0.0,3.0,0.33942,0.324745,0.308463,0.328501,-0.0,-0.0,-0.0,0.0,-0.0,0.0,0.01679,-0.016762,0.093275,-0.003752,-0.024703,-0.00014
466286,-0.002686,0.002319,-0.000363,0.0,0.0,0.0,0.0,0.0,0.0,3.0,0.339694,0.323876,0.309501,0.328114,-0.0,-0.0,-0.0,-0.0,-0.0,0.0,0.016914,-0.016901,0.093273,-0.024946,-0.020925,0.020976
466306,-0.002686,0.002319,-0.000241,0.0,0.0,0.0,0.0,0.0,0.0,3.0,0.339084,0.324213,0.308988,0.328893,-0.0,-0.0,-0.0,-0.0,0.0,0.0,0.016896,-0.0169,0.093396,-0.021106,-0.000136,4.8e-05
466326,-0.00293,0.002319,-0.000119,0.0,0.0,0.0,0.0,0.0,0.0,3.0,0.338454,0.325011,0.307994,0.329674,-0.0,-0.0,-0.0,0.0,-0.0,-0.0,0.016915,-0.016901,0.0935,-0.024944,0.020976,0.003791
466346,-0.003174,0.002319,4e-06,0.0,0.0,0.0,0.0,0.0,0.0,3.0,0.339595,0.324214,0.308803,0.328529,-0.0,-0.0,-0.0,0.0,-0.0,-0.0,0.01665,-0.016902,0.093518,0.000205,-0.020809,0.020946
466366,-0.003052,0.002442,0.000126,0.0,0.0,0.0,0.0,0.0,0.0,3.0,0.338754,0.324563,0.309189,0.328708,-0.0,-0.0,-0.0,0.0,0.0,-0.0,0.016634,-0.017024,0.09364,0.00396,0.02098,0.020978
466386,-0.003174,0.002564,0.00037,0.0,0.0,0.0,0.0,0.0,0.0,3.0,0.338937,0.324399,0.308602,0.329217,-0.0,-0.0,-0.0,0.0,0.0,-0.0,0.016491,-0.016759,0.093762,-0.013106,-0.003989,0.020961
466406,-0.003296,0.002686,0.000371,0.0,0.0,0.0,0.0,0.0,0.0,3.0,0.338866,0.324891,0.30744,0.329868,-0.0,-0.0,-0.0,-0.0,-0.0,-0.0,0.016284,-0.016655,0.094008,0.021103,-0.021134,-0.000242
466426,-0.003295,0.002687,0.000615,0.0,0.0,0.0,0.0,0.0,0.0,3.0,0.338764,0.324815,0.30665,0.330762,-0.0,-0.0,-0.0,-0.0,0.0,-0.0,0.01618,-0.016409,0.094131,-0.003604,-0.021372,-0.000141
466446,-0.003417,0.002565,0.000737,0.0,0.0,0.0,0.0,0.0,0.0,3.0,0.337435,0.326541,0.305706,0.33129,-0.0,-0.0,-0.0,0.0,0.0,-0.0,0.016163,-0.016533,0.094357,-0.021025,-0.020933,0.003567
466466,-0.003661,0.002321,0.000859,0.0,0.0,0.0,0.0,0.0,0.0,3.0,0.338084,0.326337,0.305296,0.331191,-0.0,-0.0,-0.0,0.0,0.0,-0.0,0.015936,-0.016674,0.094478,-0.003758,-0.017099,0.003706
466486,-0.003783,0.002321,0.000981,0.0,0.0,0.0,0.0,0.0,0.0,3.0,0.337382,0.326801,0.305774,0.331028,-0.0,-0.0,-0.0,0.0,0.0,-0.0,0.01592,-0.0169,0.0946,2e-06,0.000188,0.003733
466506,-0.003905,0.0022,0.001103,0.0,0.0,0.0,0.0,0.0,0.0,3.0,0.338192,0.325164,0.307087,0.330618,-0.0,-0.0,-0.0,0.0,0.0,-0.0,0.01592,-0.016794,0.094617,6.3e-05,-0.017203,0.020945
466526,-0.003661,0.002078,0.001225,0.0,0.0,0.0,0.0,0.0,0.0,3.0,0.338071,0.326126,0.306645,0.330199,-0.0,-0.0,-0.0,-0.0,-0.0,-0.0,0.015797,-0.017022,0.094739,0.021188,-0.020763,0.02089
466546,-0.003417,0.002444,0.001225,0.0,0.0,0.0,0.0,0.0,0.0,3.0,0.337875,0.32565,0.306821,0.33071,-0.0,-0.0,-0.0,-0.0,-0.0,-0.0,0.015901,-0.017019,0.094861,0.003831,0.020884,1e-05
466566,-0.003417,0.002444,0.001347,0.0,0.0,0.0,0.0,0.0,0.0,3.0,0.337193,0.326311,0.305867,0.33162,-0.0,-0.0,-0.0,0.0,-0.0,-0.0,0.016043,-0.016775,0.094985,0.020782,0.020779,-0.0001
466586,-0.003416,0.002688,0.001348,0.0,0.0,0.0,0.0,0.0,0.0,3.0,0.338354,0.325398,0.306201,0.331021,-0.0,-0.0,-0.0,0.0,0.0,-0.0,0.016078,-0.016672,0.094984,0.034351,0.003842,-3.6e-05
466606,-0.003416,0.00281,0.001348,0.0,0.0,0.0,0.0,0.0,0.0,3.0,0.338486,0.325433,0.306126,0.330918,-0.0,-0.0,-0.0,0.0,0.0,-0.0,0.016059,-0.016531,0.094984,-0.00361,0.020819,4.2e-05
466626,-0.003538,0.002688,0.001348,0.0,0.0,0.0,0.0,0.0,0.0,3.0,0.33701,0.326495,0.305679,0.331794,-0.0,-0.0,-0.0,-0.0,0.0,-0.0,0.016166,-0.01641,0.095108,-0.021132,-9e-06,-8e-05
466646,-0.003783,0.002444,0.00147,0.0,0.0,0.0,0.0,0.0,0.0,3.0,0.337941,0.327232,0.305365,0.330396,-0.0,-0.0,-0.0,0.0,0.0,-0.0,0.015919,-0.016761,0.095106,-0.041814,-0.003433,9.3e-05
466666,-0.004149,0.002445,0.001592,0.0,0.0,0.0,0.0,0.0,0.0,3.0,0.337882,0.32619,0.305997,0.330914,-0.0,-0.0,-0.0,0.0,0.0,-0.0,0.015799,-0.016776,0.095106,-0.021057,5.3e-05,0.021002
466686,-0.004149,0.002445,0.001592,0.0,0.0,0.0,0.0,0.0,0.0,3.0,0.338726,0.325442,0.306407,0.330408,-0.0,-0.0,-0.0,0.0,-0.0,-0.0,0.015572,-0.016776,0.095105,-0.00357,0.021018,0.021108
466706,-0.004271,0.002323,0.001714,0.0,0.0,0.0,0.0,0.0,0.0,3.0,0.337877,0.32669,0.305666,0.330726,-0.0,-0.0,-0.0,0.0,-0.0,-0.0,0.015413,-0.0169,0.095228,0.003999,0.00024,-2.9e-05
466726,-0.004392,0.002689,0.001715,0.0,0.0,0.0,0.0,0.0,0.0,3.0,0.338673,0.325362,0.306784,0.330202,-0.0,-0.0,-0.0,0.0,-0.0,-0.0,0.015272,-0.016897,0.095247,0.007852,0.020956,-0.003853
466746,-0.004393,0.002567,0.001715,0.0,0.0,0.0,0.0,0.0,0.0,3.0,0.337797,0.326226,0.304953,0.331901,-0.0,-0.0,-0.0,-0.0,-0.0,-0.0,0.015188,-0.016529,0.095352,-0.020833,-0.021294,-0.000179
466766,-0.004515,0.00269,0.001715,0.0,0.0,0.0,0.0,0.0,0.0,3.0,0.338464,0.326449,0.30484,0.331098,-0.0,-0.0,-0.0,-0.0,0.0,-0.0,0.014942,-0.016634,0.095352,0.021056,-0.003835,-3.6e-05
466786,-0.004514,0.002812,0.001838,0.0,0.0,0.0,0.0,0.0,0.0,3.0,0.337433,0.326656,0.30389,0.332796,-0.0,-0.0,-0.0,0.0,0.0,-0.0,0.014962,-0.016406,0.095476,0.017234,0.020689,-8.7e-05
466806,-0.004514,0.002812,0.001838,0.0,0.0,0.0,0.0,0.0,0.0,3.0,0.338141,0.326406,0.304729,0.33157,-0.0,-0.0,-0.0,0.0,0.0,-0.0,0.014943,-0.016409,0.095474,-0.020888,0.000154,3.1e-05
466826,-0.004636,0.002812,0.001838,0.0,0.0,0.0,0.0,0.0,0.0,3.0,0.336726,0.327677,0.303432,0.33292,-0.0,-0.0,-0.0,0.0,0.0,-0.0,0.014945,-0.016408,0.095579,-0.021149,2.9e-05,0.003761
466846,-0.004636,0.002812,0.00196,0.0,0.0,0.0,0.0,0.0,0.0,3.0,0.337189,0.326991,0.304401,0.332265,-0.0,-0.0,-0.0,0.0,0.0,-0.0,0.014946,-0.016408,0.095597,-0.000134,0.0,4.9e-05
466866,-0.004758,0.002691,0.002082,0.0,0.0,0.0,0.0,0.0,0.0,3.0,0.337406,0.326683,0.304815,0.331976,-0.0,-0.0,-0.0,-0.0,-0.0,-0.0,0.015087,-0.016408,0.095596,-0.024894,7.3e-05,0.021011
466886,-0.004758,0.002569,0.002204,0.0,0.0,0.0,0.0,0.0,0.0,3.0,0.337563,0.327136,0.303878,0.332204,-0.0,-0.0,-0.0,-0.0,-0.0,-0.0,0.01484,-0.016549,0.095718,0.017323,-0.016944,0.020889
466906,-0.004636,0.002691,0.002204,0.0,0.0,0.0,0.0,0.0,0.0,3.0,0.337242,0.327444,0.304186,0.331957,-0.0,-0.0,-0.0,-0.0,-0.0,-0.0,0.014803,-0.016775,0.09584,0.00402,0.042075,7.1e-05
466926,-0.004636,0.002813,0.002326,0.0,0.0,0.0,0.0,0.0,0.0,3.0,0.337389,0.326336,0.304386,0.332713,-0.0,-0.0,-0.0,0.0,0.0,0.0,0.014804,-0.016424,0.095841,0.024771,0.003655,-2.6e-05
466946,-0.004636,0.002691,0.002326,0.0,0.0,0.0,0.0,0.0,0.0,3.0,0.337064,0.327721,0.303521,0.332455,-0.0,-0.0,-0.0,0.0,0.0,0.0,0.014822,-0.016531,0.095963,0.021058,8.7e-05,-0.000185
466966,-0.004513,0.002935,0.002326,0.0,0.0,0.0,0.0,0.0,0.0,3.0,0.335803,0.328426,0.302755,0.333716,-0.0,-0.0,-0.0,0.0,0.0,0.0,0.014945,-0.016529,0.096067,0.020978,0.020955,0.003751
466986,-0.004269,0.002813,0.002448,0.0,0.0,0.0,0.0,0.0,0.0,3.0,0.336271,0.327924,0.303761,0.33285,-0.0,-0.0,-0.0,-0.0,0.0,0.0,0.01521,-0.016389,0.096085,-0.00398,-0.003907,4.6e-05
467006,-0.004147,0.002813,0.002448,0.0,0.0,0.0,0.0,0.0,0.0,3.0,0.336389,0.327741,0.304644,0.332128,-0.0,-0.0,-0.0,-0.0,0.0,0.0,0.015417,-0.016512,0.096084,-0.038375,-0.003686,4.4e-05
467026,-0.004391,0.003057,0.002449,0.0,0.0,0.0,0.0,0.0,0.0,3.0,0.33711,0.326789,0.30382,0.333055,-0.0,-0.0,-0.0,0.0,0.0,0.0,0.015331,-0.016283,0.096084,-0.003996,-0.000264,5e-06
467046,-0.004391,0.002813,0.002448,0.0,0.0,0.0,0.0,0.0,0.0,3.0,0.336844,0.326884,0.304097,0.332988,-0.0,-0.0,-0.0,0.0,-0.0,0.0,0.015331,-0.016181,0.096085,0.017156,-0.017308,-6.2e-05
467066,-0.004514,0.002813,0.002326,0.0,0.0,0.0,0.0,0.0,0.0,3.0,0.33821,0.326513,0.304636,0.331478,-0.0,-0.0,-0.0,0.0,-0.0,0.0,0.015206,-0.016408,0.095961,-0.003574,-0.020787,6.9e-05
467086,-0.004392,0.002813,0.002204,0.0,0.0,0.0,0.0,0.0,0.0,3.0,0.33771,0.32585,0.305998,0.331423,-0.0,-0.0,-0.0,0.0,-0.0,0.0,0.015295,-0.016407,0.095839,-0.017224,-0.00016,-0.020842
467106,-0.004392,0.002934,0.00196,0.0,0.0,0.0,0.0,0.0,0.0,3.0,0.339272,0.324695,0.306708,0.330302,-0.0,-0.0,-0.0,-0.0,-0.0,0.0,0.01517,-0.016408,0.095612,-0.01709,0.020981,-0.003685
467126,-0.004392,0.00269,0.001837,0.0,0.0,0.0,0.0,0.0,0.0,3.0,0.339576,0.325944,0.305567,0.32979,-0.0,-0.0,-0.0,-0.0,0.0,0.0,0.014961,-0.016496,0.095491,0.038179,-0.007529,-0.003802
467146,-0.00427,0.002933,0.001593,0.0,0.0,0.0,0.0,0.0,0.0,3.0,0.339849,0.324888,0.305863,0.330276,-0.0,-0.0,-0.0,-0.0,-0.0,0.0,0.01496,-0.016531,0.095369,0.038257,0.020882,-0.024713
467166,-0.004271,0.003055,0.00135,0.0,0.0,0.0,0.0,0.0,0.0,3.0,0.338187,0.324784,0.305909,0.332053,-0.0,-0.0,-0.0,0.0,-0.0,-0.0,0.015312,-0.016039,0.09523,-0.000257,-0.021418,-0.020998
467186,-0.004149,0.002933,0.001349,0.0,0.0,0.0,0.0,0.0,0.0,3.0,0.338215,0.325961,0.305149,0.331555,-0.0,-0.0,-0.0,0.0,0.0,-0.0,0.015329,-0.016165,0.095108,-0.003887,-0.020988,-0.020943
467206,-0.004271,0.003299,0.001228,0.0,0.0,0.0,0.0,0.0,0.0,3.0,0.338217,0.324883,0.305971,0.33187,-0.0,-0.0,-0.0,0.0,0.0,-0.0,0.015415,-0.016041,0.094986,-0.017275,0.020788,9.7e-05
467226,-0.004515,0.003055,0.001228,0.0,0.0,0.0,0.0,0.0,0.0,3.0,0.339338,0.324947,0.305526,0.331052,-0.0,-0.0,-0.0,0.0,0.0,-0.0,0.015205,-0.015921,0.094864,-0.003719,-0.020992,0.000117
467246,-0.004637,0.003055,0.001228,0.0,0.0,0.0,0.0,0.0,0.0,3.0,0.338619,0.325631,0.305503,0.331146,-0.0,-0.0,-0.0,0.0,0.0,-0.0,0.015207,-0.016167,0.094864,-0.024755,0.021169,8.5e-05
467266,-0.004515,0.003177,0.001228,0.0,0.0,0.0,0.0,0.0,0.0,3.0,0.337961,0.325926,0.305346,0.331675,-0.0,-0.0,-0.0,-0.0,0.0,-0.0,0.015048,-0.016166,0.094845,0.024904,0.0211,0.00385
467286,-0.004637,0.003055,0.001228,0.0,0.0,0.0,0.0,0.0,0.0,3.0,0.339596,0.324518,0.306813,0.330044,-0.0,-0.0,-0.0,-0.0,0.0,-0.0,0.015046,-0.016167,0.094759,0.004015,0.021095,0.017285
467306,-0.004515,0.003055,0.001228,0.0,0.0,0.0,0.0,0.0,0.0,3.0,0.338989,0.326459,0.304758,0.330619,-0.0,-0.0,-0.0,0.0,0.0,0.0,0.014819,-0.016395,0.094864,0.000278,0.017483,1.6e-05
467326,-0.004515,0.003177,0.001228,0.0,0.0,0.0,0.0,0.0,0.0,3.0,0.338735,0.325655,0.30523,0.331247,-0.0,-0.0,-0.0,0.0,0.0,0.0,0.014963,-0.016288,0.094864,0.016939,0.020888,2.2e-05
467346,-0.004271,0.003177,0.00135,0.0,0.0,0.0,0.0,0.0,0.0,3.0,0.337811,0.326237,0.304143,0.332594,-0.0,-0.0,-0.0,0.0,-0.0,0.0,0.015104,-0.016042,0.094988,0.013265,-0.000191,-0.000131
467366,-0.004026,0.003299,0.00135,0.0,0.0,0.0,0.0,0.0,0.0,3.0,0.336554,0.326994,0.304614,0.332719,-0.0,-0.0,-0.0,0.0,-0.0,0.0,0.015416,-0.016025,0.095091,-0.017453,-0.003865,-0.017223
467386,-0.004026,0.003543,0.001472,0.0,0.0,0.0,0.0,0.0,0.0,3.0,0.336744,0.325898,0.304315,0.333856,-0.0,-0.0,-0.0,0.0,-0.0,0.0,0.015557,-0.015692,0.095091,-0.00028,0.003471,0.003764
467406,-0.004026,0.003421,0.001594,0.0,0.0,0.0,0.0,0.0,0.0,3.0,0.33735,0.32565,0.305836,0.332132,-0.0,-0.0,-0.0,-0.0,-0.0,0.0,0.015802,-0.015677,0.095108,-0.021192,1.8e-05,3.9e-05
467426,-0.004026,0.003666,0.001595,0.0,0.0,0.0,0.0,0.0,0.0,3.0,0.338115,0.325093,0.305658,0.33205,-0.0,-0.0,-0.0,-0.0,0.0,0.0,0.015677,-0.015695,0.095108,0.000113,0.003929,0.020935
467446,-0.003903,0.003787,0.001595,0.0,0.0,0.0,0.0,0.0,0.0,3.0,0.338345,0.324265,0.306732,0.331655,-0.0,-0.0,-0.0,-0.0,0.0,0.0,0.015801,-0.015412,0.095126,-1.6e-05,0.016898,0.017251
467466,-0.003904,0.003543,0.001594,0.0,0.0,0.0,0.0,0.0,0.0,3.0,0.337763,0.326605,0.304891,0.33162,-0.0,-0.0,-0.0,0.0,0.0,-0.0,0.015658,-0.015662,0.095231,-0.016958,0.017499,4e-05
467486,-0.003781,0.003543,0.001716,0.0,0.0,0.0,0.0,0.0,0.174533,3.0,0.507339,0.15,0.488319,0.15,-0.0,-0.0,5.6e-05,0.0,0.0,0.022598,0.015573,-0.015659,0.095354,0.05905,-0.003761,-0.000221
467506,-0.003411,0.004035,0.003792,0.0,0.0,0.0,0.0,0.0,0.174533,3.0,0.503465,0.15,0.48487,0.15,-0.0,-0.0,0.000847,0.0,0.0,0.067712,0.015782,-0.015324,0.09602,0.025168,0.024673,0.119579
467526,-0.003031,0.004409,0.009652,0.0,0.0,0.0,0.0,0.0,0.174533,3.0,0.488959,0.15,0.471334,0.15,-0.0,-0.0,0.002537,0.0,0.0,0.112196,0.016387,-0.014954,0.09968,0.0287,-0.016974,0.315421
467546,-0.00264,0.004908,0.018562,0.0,0.0,0.0,0.0,0.0,0.174533,3.0,0.472896,0.15,0.452683,0.15,-0.0,-0.0,0.005109,0.0,-0.0,0.155823,0.016454,-0.014698,0.106938,0.039255,0.003844,0.457499
467566,-0.001868,0.005644,0.030281,0.0,0.0,0.0,0.0,0.0,0.174533,3.0,0.450128,0.15,0.43227,0.15,-0.0,-0.0,0.008547,0.0,-0.0,0.198442,0.017398,-0.013956,0.117475,0.033838,0.045181,0.58253
467586,-0.001324,0.006379,0.044328,0.0,0.0,0.0,0.0,0.0,0.174533,3.0,0.427761,0.15,0.408497,0.171833,-0.0,-0.0,0.012829,0.0,-0.0,0.239912,0.018074,-0.0131,0.130424,0.030808,0.024163,0.713076
467606,-0.000517,0.007221,0.059833,0.0,0.0,0.0,0.0,0.0,0.174533,3.0,0.407769,0.205142,0.387225,0.231137,-0.0,-0.0,0.01793,0.0,-0.0,0.2801,0.018646,-0.012284,0.145051,0.028032,0.031457,0.782582
467626,6.6e-05,0.008182,0.075828,0.0,0.0,0.0,0.0,0.0,0.174533,3.0,0.388358,0.24892,0.366202,0.267788,-0.0,-0.0,0.023826,0.0,-0.0,0.318874,0.019228,-0.011649,0.160813,0.046962,0.064844,0.823039
467646,0.000879,0.008514,0.091596,0.0,0.0,0.0,0.0,0.0,0.174533,3.0,0.369344,0.279376,0.346925,0.295188,-0.0,-0.0,0.030485,0.0,-0.0,0.356113,0.019893,-0.01094,0.17694,0.032497,0.022911,0.780449
467666,0.00196,0.009186,0.107352,0.0,0.0,0.0,0.0,0.0,0.174533,3.0,0.350291,0.302246,0.328956,0.318117,-0.0,-0.0,0.037877,0.0,-0.0,0.3917,0.020974,-0.010257,0.1927,0.052305,0.000204,0.783467
467686,0.003135,0.009225,0.122628,0.0,0.0,0.0,0.0,0.0,0.174533,3.0,0.332853,0.321412,0.311624,0.335511,-0.0,-0.0,0.045967,0.0,-0.0,0.425524,0.022169,-0.009845,0.208119,0.052483,-0.000572,0.779478
467706,0.003941,0.009273,0.137188,0.0,0.0,0.0,0.0,0.0,0.174533,3.0,0.316601,0.338792,0.293591,0.349331,0.0,-0.0,0.05472,0.0,-0.0,0.457484,0.023055,-0.010151,0.22304,0.058807,0.037342,0.733809
467726,0.00524,0.009397,0.150887,0.0,0.0,0.0,0.0,0.0,0.174533,3.0,0.298549,0.352467,0.276129,0.363829,0.0,-0.0,0.064098,0.0,-0.0,0.487484,0.024283,-0.009888,0.237384,0.070443,0.014281,0.68438
467746,0.006639,0.009254,0.163759,0.0,0.0,0.0,0.0,0.0,0.174533,3.0,0.281093,0.36526,0.25848,0.375353,0.0,-0.0,0.074058,0.0,0.0,0.514633,0.025555,-0.009876,0.250877,0.052858,0.011295,0.61877
467766,0.007655,0.009008,0.175392,0.0,0.0,0.0,0.0,0.0,0.174533,3.0,0.270555,0.37259,0.245835,0.38228,0.0,-0.0,0.084529,0.0,0.0,0.537545,0.026599,-0.010016,0.26304,0.06838,-0.007623,0.587172
467786,0.008794,0.008867,0.185543,0.0,0.0,0.0,0.0,0.0,0.174533,3.0,0.260894,0.37802,0.237255,0.387303,0.0,-0.0,0.095426,0.0,0.0,0.556141,0.027715,-0.010273,0.273992,0.073641,0.012673,0.494132
467806,0.009694,0.008869,0.194014,0.0,0.0,0.0,0.0,0.0,0.174533,3.0,0.256099,0.380497,0.233191,0.389642,0.0,-0.0,0.106663,0.0,0.0,0.570391,0.02885,-0.010416,0.283363,0.02949,-0.004507,0.412745
467826,0.010709,0.008859,0.200894,0.0,0.0,0.0,0.0,0.0,0.174533,3.0,0.252905,0.38104,0.232485,0.391226,0.0,-0.0,0.118152,0.0,0.0,0.580292,0.029861,-0.010319,0.291122,0.054167,-0.00346,0.34079
467846,0.011619,0.009107,0.20603,0.0,0.0,0.0,0.0,0.0,0.174533,3.0,0.256935,0.378743,0.237335,0.38883,0.0,-0.0,0.129806,0.0,0.0,0.585876,0.03075,-0.010297,0.297056,0.055788,0.013964,0.247906
467866,0.012523,0.009362,0.209462,0.0,0.0,0.0,0.0,0.0,0.174533,3.0,0.26455,0.374052,0.244569,0.385209,0.0,-0.0,0.14154,0.0,0.0,0.587202,0.031446,-0.010041,0.301268,0.069332,0.016474,0.171587
467886,0.013569,0.009852,0.211664,0.0,0.0,0.0,0.0,0.0,0.174533,3.0,0.267983,0.371523,0.249568,0.382863,0.0,-0.0,0.153269,0.0,0.0,0.584358,0.03237,-0.009768,0.30427,0.043676,0.01554,0.09371
467906,0.014113,0.010277,0.213001,0.0,0.0,0.0,0.0,0.0,0.174533,3.0,0.269246,0.369895,0.252396,0.382074,0.0,-0.0,0.164911,0.0,0.0,0.577461,0.033276,-0.00926,0.306242,0.024074,-0.003521,0.051362
467926,0.014507,0.010474,0.213865,0.0,0.0,0.0,0.0,0.0,0.174533,3.0,0.274199,0.367413,0.255975,0.379289,0.0,-0.0,0.176385,0.0,0.0,0.566651,0.033719,-0.008929,0.307235,0.035006,-0.029366,0.028147
467946,0.014872,0.010434,0.213981,0.0,0.0,0.0,0.0,0.0,0.174533,3.0,0.280468,0.363238,0.263181,0.374876,0.0,-0.0,0.187615,0.0,0.0,0.552095,0.034078,-0.008848,0.307503,0.020201,-0.006372,-0.000319
467966,0.014979,0.010303,0.213625,0.0,0.0,0.0,0.0,0.0,0.174533,3.0,0.283441,0.3614,0.267368,0.372004,0.0,-0.0,0.198526,0.0,0.0,0.533982,0.034413,-0.00899,0.307416,0.025725,0.010722,-0.007706
467986,0.01468,0.009847,0.212998,0.0,0.0,0.0,0.0,0.0,0.174533,3.0,0.286271,0.360832,0.268334,0.369961,0.0,-0.0,0.20905,0.0,0.0,0.512519,0.034389,-0.009339,0.307009,0.000917,0.010139,-0.045382
468006,0.014234,0.009165,0.212018,0.0,0.0,0.0,0.0,0.0,0.174533,3.0,0.289735,0.358995,0.272062,0.366832,0.0,-0.0,0.219121,0.0,0.0,0.487936,0.034199,-0.009928,0.306193,0.019507,-0.012724,-0.054343
468026,0.013788,0.008483,0.210919,0.0,0.0,0.0,0.0,0.0,0.174533,3.0,0.292566,0.357355,0.273611,0.365319,0.0,-0.0,0.228678,0.0,0.0,0.460476,0.033763,-0.010488,0.305211,-0.019605,0.01258,-0.074359
468046,0.01322,0.007815,0.209583,0.0,0.0,0.0,0.0,0.0,0.174533,3.0,0.295385,0.355338,0.276672,0.363089,0.0,-0.0,0.237668,0.0,0.0,0.43106,0.033311,-0.011065,0.303991,-0.061717,-0.021134,-0.073714
468066,0.012493,0.006796,0.20813,0.0,0.0,0.0,0.0,0.0,0.174533,3.0,0.299469,0.353674,0.279081,0.359899,0.0,-0.0,0.246062,0.0,0.0,0.400464,0.032632,-0.011969,0.302641,-0.04833,-0.022391,-0.072057
468086,0.011767,0.005775,0.206639,0.0,0.0,0.0,0.0,0.0,0.174533,3.0,0.303387,0.351525,0.282164,0.3567,0.0,-0.0,0.253835,0.0,0.0,0.36881,0.031905,-0.012989,0.301062,-0.068965,-0.020143,-0.070558
468106,0.011068,0.004998,0.204945,0.0,0.0,0.0,0.0,0.0,0.174533,3.0,0.306563,0.349012,0.284284,0.355033,0.0,-0.0,0.260968,0.0,0.0,0.336217,0.031098,-0.01379,0.299488,-0.053413,-0.035467,-0.077105
468126,0.010248,0.004232,0.203095,0.0,0.0,0.0,0.0,0.0,0.174533,3.0,0.311251,0.34564,0.288715,0.351093,0.0,-0.0,0.267443,0.0,0.0,0.302807,0.030401,-0.014548,0.297653,-0.074531,-0.037297,-0.07414
468146,0.009551,0.003453,0.20128,0.0,0.0,0.0,0.0,0.0,0.174533,3.0,0.313783,0.344655,0.290231,0.348717,0.0,-0.0,0.273245,0.0,0.0,0.268705,0.029589,-0.015421,0.295929,-0.055711,-0.02187,-0.096041
468166,0.008977,0.00266,0.199427,0.0,0.0,0.0,0.0,0.0,0.174533,3.0,0.315994,0.342713,0.292627,0.346815,0.0,-0.0,0.27836,0.0,0.0,0.234036,0.028885,-0.016095,0.294107,-0.034775,-0.062576,-0.074469
468186,0.008526,0.001853,0.197728,0.0,0.0,0.0,0.0,0.0,0.174533,3.0,0.318127,0.340308,0.29584,0.344708,0.0,-0.0,0.282778,0.0,0.0,0.198926,0.028426,-0.016793,0.29224,-0.028582,-0.038541,-0.07185
468206,0.008088,0.001168,0.195873,0.0,0.0,0.0,0.0,0.0,0.174533,3.0,0.321718,0.338091,0.298348,0.341565,0.0,-0.0,0.286491,0.0,0.0,0.163503,0.027871,-0.017591,0.290435,-0.032188,-0.037915,-0.074604
468226,0.007518,0.000372,0.194054,0.0,0.0,0.0,0.0,0.0,0.174533,3.0,0.323645,0.336974,0.300407,0.339149,0.0,-0.0,0.289494,0.0,0.0,0.127892,0.027406,-0.018379,0.288706,-0.049726,-0.040074,-0.096261
468246,0.00684,-0.000292,0.192318,0.0,0.0,0.0,0.0,0.0,0.174533,3.0,0.324551,0.335679,0.30156,0.338597,0.0,-0.0,0.291784,0.0,0.0,0.09222,0.026982,-0.01896,0.286983,-0.070264,-0.034525,-0.09157
468266,0.006394,-0.001102,0.190736,0.0,0.0,0.0,0.0,0.0,0.174533,3.0,0.327188,0.333863,0.304883,0.334998,0.0,-0.0,0.293361,0.0,0.0,0.056613,0.026539,-0.019753,0.285161,-0.049784,-0.04022,-0.077017
468286,0.006071,-0.001925,0.189153,0.0,0.0,0.0,0.0,0.0,0.174533,3.0,0.330801,0.331208,0.307702,0.331583,0.0,-0.0,0.294228,0.0,0.0,0.021194,0.02597,-0.020551,0.283447,-0.028538,-0.042292,-0.076039
468306,0.005408,-0.00247,0.187449,0.0,0.0,0.0,0.0,0.0,0.174533,3.0,0.331784,0.330623,0.307529,0.331341,0.0,-0.0,0.294388,0.0,0.0,-0.013915,0.025413,-0.021247,0.281962,-0.026091,-0.017703,-0.092105
468326,0.005144,-0.002686,0.185948,0.0,0.0,0.0,0.0,0.0,0.174533,3.0,0.332047,0.330179,0.307776,0.331296,0.0,-0.0,0.293849,0.0,0.0,-0.048593,0.024883,-0.021682,0.28048,-0.003232,0.000984,-0.067961
468346,0.004747,-0.003014,0.184721,0.0,0.0,0.0,0.0,0.0,0.174533,3.0,0.3337,0.32856,0.309706,0.32948,0.0,0.0,0.29262,0.0,0.0,-0.082723,0.024607,-0.022039,0.279013,-0.023969,0.00663,-0.047325
468366,0.004317,-0.003707,0.183494,0.0,0.0,0.0,0.0,0.0,0.174533,3.0,0.336146,0.327955,0.312021,0.32541,0.0,0.0,0.290713,0.0,0.0,-0.11619,0.02415,-0.02282,0.277685,0.002044,0.018002,-0.051202
468386,0.004043,-0.004047,0.182299,0.0,0.0,0.0,0.0,0.0,0.174533,3.0,0.337922,0.326726,0.31278,0.324064,0.0,0.0,0.288143,0.0,0.0,-0.148883,0.023608,-0.023378,0.276458,0.000365,-0.003058,-0.051319
468406,0.00388,-0.00452,0.18119,0.0,0.0,0.0,0.0,0.0,0.174533,3.0,0.338463,0.32551,0.313795,0.323748,0.0,0.0,0.284925,0.0,0.0,-0.180696,0.023347,-0.023593,0.27535,-0.001893,-0.024476,-0.051408
468426,0.003341,-0.005082,0.180201,0.0,0.0,0.0,0.0,0.0,0.174533,3.0,0.339052,0.325883,0.313554,0.322976,0.0,0.0,0.281078,0.0,0.0,-0.211523,0.023082,-0.02404,0.274349,-0.007977,-0.04866,-0.048758
468446,0.003056,-0.005545,0.179332,0.0,0.0,0.0,0.0,0.0,0.174533,3.0,0.340146,0.325334,0.314158,0.321776,0.0,0.0,0.276623,0.0,0.0,-0.241267,0.022683,-0.024615,0.273388,0.011212,-0.029327,-0.047778
468466,0.002904,-0.005898,0.178494,0.0,0.0,0.0,0.0,0.0,0.174533,3.0,0.340612,0.324424,0.315079,0.321302,0.0,0.0,0.271582,0.0,0.0,-0.269576,0.022531,-0.024984,0.272519,-0.032281,-0.042794,-0.027404
468486,0.00262,-0.006361,0.177744,0.0,0.0,0.0,0.0,0.0,0.174533,3.0,0.339503,0.325028,0.314431,0.322513,0.0,0.0,0.265993,0.0,0.0,-0.295422,0.022373,-0.025212,0.271905,-0.026828,-0.022393,-0.049924
468506,0.002335,-0.006825,0.177265,0.0,0.0,0.0,0.0,0.0,0.174533,3.0,0.340614,0.324677,0.315094,0.321028,0.0,0.0,0.259906,0.0,0.0,-0.318603,0.022087,-0.025678,0.271154,-0.026661,-0.022061,-0.023783
468526,0.002083,-0.006925,0.176786,0.0,0.0,0.0,0.0,0.0,0.174533,3.0,0.341306,0.32345,0.316356,0.320286,0.0,0.0,0.253377,0.0,0.0,-0.339015,0.021775,-0.026035,0.270555,0.004073,4e-06,-0.023823
468546,0.001852,-0.006781,0.176274,0.0,0.0,0.0,0.0,0.0,0.174533,3.0,0.342265,0.321667,0.316841,0.320562,0.0,0.0,0.24646,0.0,0.0,-0.356578,0.021579,-0.025909,0.270062,0.017688,0.002236,-0.007115
468566,0.001832,-0.007024,0.175915,0.0,0.0,0.0,0.0,0.0,0.174533,3.0,0.342242,0.323707,0.315797,0.319551,0.0,0.0,0.239214,0.0,0.0,-0.371234,0.021326,-0.026222,0.269686,0.013419,-0.004636,-0.023924
468586,0.0016,-0.006881,0.175675,0.0,0.0,0.0,0.0,0.0,0.174533,3.0,0.34116,0.324123,0.314604,0.321475,0.0,0.0,0.231697,-0.0,0.0,-0.382947,0.021186,-0.026224,0.26943,-0.024451,0.002167,-0.020518
468606,0.001368,-0.006738,0.175435,0.0,0.0,0.0,0.0,0.0,0.174533,3.0,0.340953,0.323859,0.314942,0.321637,0.0,0.0,0.223968,-0.0,0.0,-0.391701,0.021078,-0.026091,0.26919,-0.024758,0.00202,5.6e-05
468626,0.001236,-0.006849,0.175434,0.0,0.0,0.0,0.0,0.0,0.174533,3.0,0.340769,0.324086,0.314232,0.322296,0.0,0.0,0.216086,-0.0,-0.0,-0.397504,0.020862,-0.025968,0.26907,0.013694,0.002494,0.000189
468646,0.001268,-0.006484,0.175434,0.0,0.0,0.0,0.0,0.0,0.174533,3.0,0.339881,0.324159,0.314309,0.323103,0.0,0.0,0.208109,-0.0,-0.0,-0.400381,0.020836,-0.025842,0.269071,0.002299,0.024645,-2.1e-05
468666,0.001136,-0.006595,0.175434,0.0,0.0,0.0,0.0,0.0,0.174533,3.0,0.340451,0.3239,0.315281,0.321809,0.0,0.0,0.200097,-0.0,-0.0,-0.400381,0.020831,-0.025703,0.268949,-0.017137,0.001472,0.020632
468686,0.001247,-0.006727,0.175434,0.0,0.0,0.0,0.0,0.0,0.174533,3.0,0.339557,0.325036,0.314285,0.322589,0.0,0.0,0.192106,-0.0,-0.0,-0.397568,0.020696,-0.025833,0.26907,0.025093,0.001807,4.5e-05
468706,0.001379,-0.006616,0.175554,0.0,0.0,0.0,0.0,0.0,0.174533,3.0,0.339217,0.325309,0.314588,0.322383,0.0,0.0,0.184192,-0.0,-0.0,-0.392027,0.020951,-0.025959,0.269071,-0.000191,0.00016,0.020574
468726,0.00151,-0.006506,0.175674,0.0,0.0,0.0,0.0,0.0,0.174533,3.0,0.339003,0.325139,0.314427,0.322941,0.0,0.0,0.176409,-0.0,-0.0,-0.38386,0.021083,-0.025847,0.269191,0.001716,0.020745,-4.2e-05
468746,0.001643,-0.006395,0.175675,0.0,0.0,0.0,0.0,0.0,0.174533,3.0,0.338586,0.325602,0.314077,0.323255,0.0,0.0,0.168808,-0.0,0.0,-0.373184,0.021214,-0.025737,0.269312,-0.00011,-1.4e-05,-0.000155
468766,0.001875,-0.006538,0.175675,0.0,0.0,0.0,0.0,0.0,0.174533,3.0,0.338323,0.326091,0.314801,0.32234,0.0,0.0,0.161439,-0.0,0.0,-0.360132,0.021431,-0.025862,0.269312,0.005046,0.016796,0.020561
468786,0.001997,-0.006548,0.175676,0.0,0.0,0.0,0.0,0.0,0.174533,3.0,0.338758,0.32513,0.315114,0.322547,0.0,0.0,0.154347,-0.0,-0.0,-0.34485,0.021561,-0.025767,0.269311,0.024608,-0.002193,0.000197
468806,0.001732,-0.00677,0.175675,0.0,0.0,0.0,0.0,0.0,0.174533,3.0,0.339044,0.326206,0.314381,0.321858,0.0,0.0,0.147577,-0.0,-0.0,-0.327498,0.021538,-0.025994,0.269312,0.001803,-0.024847,4.3e-05
468826,0.001854,-0.006781,0.175556,0.0,0.0,0.0,0.0,0.0,0.174533,3.0,0.341077,0.324028,0.31491,0.321363,0.0,0.0,0.141169,-0.0,-0.0,-0.308244,0.021207,-0.02598,0.269208,0.017489,-0.001672,-0.00361
468846,0.001743,-0.006648,0.175555,0.0,0.0,0.0,0.0,0.0,0.174533,3.0,0.339592,0.324516,0.314273,0.323087,0.0,0.0,0.135159,-0.0,-0.0,-0.287267,0.021353,-0.025746,0.269192,-0.003918,0.000124,-1.2e-05
468866,0.001722,-0.006892,0.175436,0.0,0.0,0.0,0.0,0.0,0.174533,3.0,0.340327,0.324898,0.315258,0.320954,0.0,0.0,0.12958,-0.0,-0.0,-0.264756,0.021316,-0.025974,0.269071,-0.021207,-0.001721,5.5e-05
468886,0.001866,-0.006659,0.175316,0.0,0.0,0.0,0.0,0.0,0.174533,3.0,0.340339,0.323607,0.316449,0.321086,0.0,0.0,0.124462,-0.0,-0.0,-0.240902,0.021437,-0.026019,0.26897,0.000111,0.003895,-0.003667
468906,0.001977,-0.006791,0.175165,0.0,0.0,0.0,0.0,0.0,0.174533,3.0,0.339546,0.32443,0.315708,0.321833,0.0,0.0,0.11983,-0.0,-0.0,-0.215905,0.02157,-0.025889,0.268925,0.020766,-0.001968,-0.000917
468926,0.00222,-0.006812,0.175166,0.0,0.0,0.0,0.0,0.0,0.174533,3.0,0.339308,0.324184,0.316323,0.321738,0.0,0.0,0.115705,-0.0,-0.0,-0.189968,0.021794,-0.025927,0.268801,0.004081,0.003545,0.000159
468946,0.002374,-0.006458,0.175046,0.0,0.0,0.0,0.0,0.0,0.174533,3.0,0.33978,0.32314,0.316968,0.321652,0.0,0.0,0.112105,-0.0,-0.0,-0.163293,0.021906,-0.025832,0.268681,0.008211,0.006929,0.000117
