time_ms,roll,pitch,yaw,x,y,z,reference_roll,reference_pitch,reference_yaw,reference_throttle,throttle_1,throttle_2,throttle_3,throttle_4,roll_predicted,pitch_predicted,yaw_predicted,roll_rate_predicted,pitch_rate_predicted,yaw_rate_predicted,value1,value2,value3,value4,value5,value6
287026,0.004386,0.004281,-0.003916,0.0,0.0,0.0,0.0,0.0,0.0,3.0,0.345156,0.311846,0.321162,0.322745,-3e-06,-0.0,-0.0,1e-06,0.0,0.0,0.024091,-0.014834,0.089719,-0.021225,0.003688,3.8e-05
287046,0.004386,0.004281,-0.003916,0.0,0.0,0.0,0.0,0.0,0.0,3.0,0.345234,0.312716,0.321095,0.321893,-3e-06,-0.0,-0.0,1e-06,0.0,0.0,0.024091,-0.015063,0.08972,-0.021099,0.0212,-3e-06
287066,0.004631,0.00416,-0.004039,0.0,0.0,0.0,0.0,0.0,0.0,3.0,0.345734,0.312192,0.322582,0.320355,-3e-06,-0.0,-0.0,1e-06,0.0,0.0,0.024214,-0.015148,0.089596,0.020793,-0.007446,8.6e-05
287086,0.004875,0.004038,-0.004039,0.0,0.0,0.0,0.0,0.0,0.0,3.0,0.345173,0.312334,0.321712,0.321712,-3e-06,-0.0,-0.0,1e-06,0.0,0.0,0.024316,-0.015183,0.089598,0.003867,-4.3e-05,-9e-06
287106,0.005119,0.003917,-0.004161,0.0,0.0,0.0,0.0,0.0,0.0,3.0,0.34605,0.311191,0.323481,0.320058,-3e-06,-0.0,-0.0,1e-06,-0.0,0.0,0.024562,-0.015286,0.089493,0.024548,-0.003672,-0.00377
287126,0.005241,0.003674,-0.004283,0.0,0.0,0.0,0.0,0.0,0.0,3.0,0.345744,0.312479,0.321621,0.321034,-3e-06,-0.0,-0.0,1e-06,-0.0,-0.0,0.024577,-0.015408,0.089476,0.021112,-0.024662,2.2e-05
287146,0.005364,0.003674,-0.004283,0.0,0.0,0.0,0.0,0.0,0.0,3.0,0.34469,0.313137,0.321366,0.321816,-3e-06,-0.0,-0.0,1e-06,0.0,-0.0,0.024824,-0.015671,0.089458,-0.000258,0.021149,-0.017141
287166,0.005364,0.00343,-0.004282,0.0,0.0,0.0,0.0,0.0,0.0,3.0,0.345282,0.312025,0.322648,0.320948,-3e-06,-0.0,-0.0,1e-06,0.0,-0.0,0.025069,-0.01567,0.089353,-0.02124,4e-05,6.2e-05
287186,0.005608,0.00343,-0.004283,0.0,0.0,0.0,0.0,0.0,0.0,3.0,0.345725,0.311401,0.323966,0.319724,-3e-06,-0.0,-0.0,1e-06,0.0,-0.0,0.025173,-0.015914,0.08923,0.024618,0.00032,6.9e-05
287206,0.005731,0.003065,-0.004404,0.0,0.0,0.0,0.0,0.0,0.0,3.0,0.345262,0.312173,0.323804,0.319658,-3e-06,-0.0,-0.0,1e-06,-0.0,-0.0,0.025398,-0.015998,0.089231,-0.013311,-0.028622,5.4e-05
287226,0.005854,0.002821,-0.004403,0.0,0.0,0.0,0.0,0.0,0.0,3.0,0.345402,0.312528,0.322833,0.320143,-3e-06,-0.0,-0.0,1e-06,-0.0,-0.0,0.025293,-0.016261,0.089233,0.045867,-0.024582,6e-06
287246,0.00622,0.002577,-0.004403,0.0,0.0,0.0,0.0,0.0,0.0,3.0,0.345549,0.312148,0.323468,0.319705,-3e-06,-0.0,-0.0,1e-06,0.0,-0.0,0.025558,-0.016504,0.089252,0.020975,-0.003651,-0.003858
287266,0.006221,0.002089,-0.00428,0.0,0.0,0.0,0.0,0.0,0.0,3.0,0.344664,0.313768,0.321818,0.320781,-3e-06,-0.0,-0.0,1e-06,0.0,-0.0,0.025679,-0.016749,0.089357,-1.8e-05,-0.024548,-3.5e-05
287286,0.006465,0.002333,-0.004159,0.0,0.0,0.0,0.0,0.0,0.0,3.0,0.344204,0.312675,0.323525,0.320625,-3e-06,-0.0,-0.0,1e-06,0.0,0.0,0.026031,-0.01701,0.089356,0.003486,0.000166,0.020971
287306,0.006709,0.002333,-0.004159,0.0,0.0,0.0,0.0,0.0,0.0,3.0,0.344161,0.312998,0.323312,0.320575,-2e-06,-0.0,-0.0,1e-06,0.0,-0.0,0.026293,-0.016991,0.089478,-0.000209,-0.003888,-1.1e-05
287326,0.007198,0.002334,-0.004037,0.0,0.0,0.0,0.0,0.0,0.0,3.0,0.342854,0.314169,0.322396,0.321795,-2e-06,-0.0,-0.0,1e-06,-0.0,-0.0,0.026519,-0.016991,0.089582,0.003593,0.017077,0.003668
287346,0.00732,0.002456,-0.003916,0.0,0.0,0.0,0.0,0.0,0.0,3.0,0.344246,0.312393,0.322881,0.321499,-2e-06,-0.0,-0.0,1e-06,-0.0,0.0,0.026657,-0.016763,0.089599,0.041769,-0.000128,0.020927
287366,0.007686,0.002334,-0.003916,0.0,0.0,0.0,0.0,0.0,0.0,3.0,0.343637,0.313307,0.323368,0.320796,-2e-06,-0.0,-0.0,1e-06,0.0,0.0,0.027025,-0.016869,0.089721,0.041793,-0.003649,-5.7e-05
287386,0.008297,0.002457,-0.003795,0.0,0.0,0.0,0.0,0.0,0.0,3.0,0.342731,0.313349,0.322819,0.322297,-2e-06,-0.0,-0.0,1e-06,0.0,0.0,0.027391,-0.016763,0.089843,0.041788,-3.2e-05,-0.000159
287406,0.008663,0.002213,-0.003672,0.0,0.0,0.0,0.0,0.0,0.0,3.0,0.341565,0.314696,0.322924,0.322155,-2e-06,-0.0,-0.0,1e-06,0.0,0.0,0.027985,-0.016868,0.089947,0.024354,-0.003701,0.00372
287426,0.009274,0.002214,-0.003673,0.0,0.0,0.0,0.0,0.0,0.0,3.0,0.342006,0.313265,0.324823,0.321144,-2e-06,-0.0,-0.0,1e-06,-0.0,-0.0,0.028597,-0.017007,0.089964,0.024304,0.0002,-2.5e-05
287446,0.010007,0.002093,-0.003551,0.0,0.0,0.0,0.0,0.0,0.0,3.0,0.340549,0.313782,0.324214,0.322837,-2e-06,-0.0,-0.0,1e-06,-0.0,-0.0,0.029189,-0.016901,0.090067,0.028159,-0.017107,-0.017189
287466,0.010495,0.002094,-0.003551,0.0,0.0,0.0,0.0,0.0,0.0,3.0,0.340715,0.314211,0.324775,0.321678,-2e-06,-0.0,-0.0,1e-06,-0.0,0.0,0.029799,-0.017109,0.090067,0.028111,-0.003627,0.0037
287486,0.011105,0.002339,-0.003553,0.0,0.0,0.0,0.0,0.0,0.0,3.0,0.341312,0.312336,0.325473,0.32213,-2e-06,-0.0,-0.0,1e-06,0.0,0.0,0.030305,-0.016898,0.090083,0.045381,0.0037,-7e-05
287506,0.011715,0.00234,-0.003554,0.0,0.0,0.0,0.0,0.0,0.0,3.0,0.341545,0.312918,0.325375,0.32142,-2e-06,-0.0,0.0,1e-06,0.0,0.0,0.03081,-0.016881,0.090083,0.02066,3.9e-05,-2.3e-05
287526,0.012325,0.002463,-0.003433,0.0,0.0,0.0,0.0,0.0,0.0,3.0,0.33937,0.313998,0.325027,0.323074,-2e-06,-0.0,0.0,1e-06,0.0,0.0,0.031527,-0.016757,0.090186,0.024104,-9.1e-05,0.003703
287546,0.012814,0.002585,-0.003435,0.0,0.0,0.0,0.0,0.0,0.0,3.0,0.34028,0.312576,0.326328,0.322147,-2e-06,-0.0,0.0,1e-06,-0.0,0.0,0.032136,-0.016652,0.090202,0.003279,0.003738,-2.6e-05
287566,0.013302,0.002585,-0.003313,0.0,0.0,0.0,0.0,0.0,0.0,3.0,0.339722,0.313052,0.326808,0.321799,-2e-06,-0.0,0.0,1e-06,-0.0,0.0,0.032748,-0.016634,0.090201,0.003227,-0.000131,0.020969
287586,0.013424,0.002585,-0.003191,0.0,0.0,0.0,0.0,0.0,0.0,3.0,0.34016,0.312892,0.326018,0.322287,-2e-06,-0.0,0.0,1e-06,-0.0,-0.0,0.033007,-0.016511,0.090322,0.020709,-7.6e-05,-5e-05
287606,0.013546,0.002585,-0.003191,0.0,0.0,0.0,0.0,0.0,0.0,3.0,0.339543,0.313669,0.325168,0.323064,-2e-06,-0.0,0.0,1e-06,0.0,-0.0,0.033109,-0.016531,0.090426,0.003864,0.003871,0.003653
287626,0.013546,0.002584,-0.003069,0.0,0.0,0.0,0.0,0.0,0.0,3.0,0.340381,0.313694,0.325429,0.321874,-2e-06,-0.0,0.0,1e-06,-0.0,-0.0,0.033127,-0.016618,0.090445,3.5e-05,-0.003824,0.020999
287646,0.013547,0.002583,-0.002947,0.0,0.0,0.0,0.0,0.0,0.0,3.0,0.340857,0.313562,0.32471,0.322218,-2e-06,-0.0,0.0,1e-06,0.0,-0.0,0.033041,-0.016636,0.090567,-0.007572,-1.2e-05,-1.5e-05
287666,0.013425,0.002583,-0.002947,0.0,0.0,0.0,0.0,0.0,0.0,3.0,0.34027,0.31422,0.324601,0.322326,-2e-06,-0.0,-0.0,1e-06,0.0,-0.0,0.033024,-0.016761,0.090691,-0.003921,0.021077,-0.000294
287686,0.013058,0.002582,-0.002825,0.0,0.0,0.0,0.0,0.0,0.0,3.0,0.339806,0.314001,0.323975,0.323663,-2e-06,-0.0,-0.0,1e-06,0.0,-0.0,0.032882,-0.016533,0.090812,-0.020839,-0.017294,3.1e-05
287706,0.012692,0.002703,-0.002703,0.0,0.0,0.0,0.0,0.0,0.0,3.0,0.339664,0.315123,0.322975,0.323735,-2e-06,-0.0,-0.0,1e-06,0.0,-0.0,0.032534,-0.016639,0.090917,-0.003546,-4e-06,0.003737
287726,0.012936,0.002946,-0.002583,0.0,0.0,0.0,0.0,0.0,0.0,3.0,0.339239,0.313232,0.325492,0.323479,-2e-06,-0.0,-0.0,1e-06,0.0,0.0,0.032605,-0.016411,0.090932,-0.01331,0.024392,0.020835
287746,0.012693,0.002457,-0.002457,0.0,0.0,0.0,0.0,0.0,0.0,3.0,0.340108,0.314743,0.324337,0.32226,-2e-06,-0.0,-0.0,1e-06,-0.0,-0.0,0.032375,-0.016502,0.091055,-0.016961,-0.024636,0.000155
287766,0.013059,0.002823,-0.002338,0.0,0.0,0.0,0.0,0.0,0.0,3.0,0.339113,0.314383,0.324694,0.323314,-2e-06,-0.0,-0.0,1e-06,-0.0,-0.0,0.032378,-0.016641,0.091179,0.045671,0.021096,-0.000352
287786,0.012937,0.002701,-0.002337,0.0,0.0,0.0,0.0,0.0,0.0,3.0,0.339558,0.314507,0.32389,0.323527,-2e-06,-0.0,-0.0,1e-06,-0.0,-0.0,0.032535,-0.016378,0.091299,-0.003748,-0.024996,1e-05
287806,0.012937,0.002578,-0.002214,0.0,0.0,0.0,0.0,0.0,0.0,3.0,0.339084,0.315815,0.323233,0.323427,-2e-06,-0.0,-0.0,1e-06,0.0,0.0,0.032395,-0.016626,0.091424,0.000136,-0.024678,4.8e-05
287826,0.012937,0.002578,-0.002214,0.0,0.0,0.0,0.0,0.0,0.0,3.0,0.339318,0.313978,0.324636,0.323542,-2e-06,-0.0,-0.0,1e-06,0.0,0.0,0.032519,-0.016518,0.091421,0.020814,-0.000222,-2.5e-05
287846,0.012937,0.002578,-0.002214,0.0,0.0,0.0,0.0,0.0,0.0,3.0,0.339415,0.314612,0.324313,0.323154,-2e-06,-0.0,-0.0,1e-06,0.0,0.0,0.032517,-0.016643,0.091422,0.00016,2.3e-05,0.020972
287866,0.013059,0.002821,-0.002094,0.0,0.0,0.0,0.0,0.0,0.0,3.0,0.337955,0.315082,0.323915,0.32465,-2e-06,-0.0,-0.0,1e-06,0.0,0.0,0.032623,-0.01652,0.091525,0.003714,0.02084,0.003723
287886,0.012693,0.002943,-0.002094,0.0,0.0,0.0,0.0,0.0,0.0,3.0,0.34063,0.312469,0.325354,0.32286,-2e-06,-0.0,-0.0,1e-06,-0.0,-0.0,0.032516,-0.016294,0.091437,0.000111,0.024569,0.017084
287906,0.012815,0.002944,-0.002216,0.0,0.0,0.0,0.0,0.0,0.0,3.0,0.341275,0.313308,0.324939,0.321779,-2e-06,-0.0,-0.0,1e-06,-0.0,-0.0,0.032167,-0.016401,0.091438,0.017548,0.000288,-0.003782
287926,0.012815,0.002822,-0.002215,0.0,0.0,0.0,0.0,0.0,0.0,3.0,0.338726,0.314609,0.324044,0.324161,-2e-06,-0.0,-0.0,1e-06,0.0,0.0,0.032397,-0.016276,0.091544,-0.021209,0.020925,-0.021187
287946,0.012571,0.002577,-0.002214,0.0,0.0,0.0,0.0,0.0,0.0,3.0,0.339437,0.316099,0.32306,0.322948,-2e-06,-0.0,-0.0,1e-06,0.0,0.0,0.032169,-0.01663,0.091546,-0.024701,-0.024327,9.8e-05
287966,0.012571,0.002821,-0.002215,0.0,0.0,0.0,0.0,0.0,0.0,3.0,0.338292,0.314647,0.324016,0.324612,-2e-06,-0.0,-0.0,1e-06,0.0,0.0,0.032276,-0.016538,0.091526,-0.000267,0.024542,0.003734
287986,0.012449,0.002699,-0.002092,0.0,0.0,0.0,0.0,0.0,0.0,3.0,0.33963,0.313602,0.324967,0.323237,-2e-06,-0.0,-0.0,1e-06,0.0,0.0,0.032274,-0.016417,0.09142,-0.041869,0.003642,0.021166
288006,0.012571,0.002821,-0.002093,0.0,0.0,0.0,0.0,0.0,0.0,3.0,0.33941,0.31332,0.325858,0.322843,-2e-06,-0.0,-0.0,1e-06,-0.0,-0.0,0.032258,-0.016398,0.09142,0.0037,-8.2e-05,0.021054
288026,0.012571,0.002943,-0.002094,0.0,0.0,0.0,0.0,0.0,0.0,3.0,0.34062,0.312872,0.325725,0.322109,-2e-06,-0.0,-0.0,1e-06,-0.0,-0.0,0.032151,-0.016399,0.091438,0.000155,2.5e-05,-0.003757
288046,0.012571,0.002699,-0.002214,0.0,0.0,0.0,0.0,0.0,0.0,3.0,0.340678,0.313698,0.325348,0.321633,-2e-06,-0.0,-0.0,1e-06,-0.0,-0.0,0.032028,-0.016504,0.09144,0.000109,-0.003754,-0.003867
288066,0.012693,0.002944,-0.002216,0.0,0.0,0.0,0.0,0.0,0.0,3.0,0.338656,0.313946,0.324318,0.324596,-2e-06,-0.0,-0.0,1e-06,0.0,0.0,0.032153,-0.016293,0.091544,0.020778,0.003773,-0.021138
288086,0.012327,0.002699,-0.002214,0.0,0.0,0.0,0.0,0.0,0.0,3.0,0.339364,0.314799,0.323384,0.323959,-2e-06,-0.0,-0.0,1e-06,0.0,0.0,0.032046,-0.016278,0.091544,-0.003601,-0.041944,0.000181
288106,0.012449,0.002943,-0.002094,0.0,0.0,0.0,0.0,0.0,0.0,3.0,0.338899,0.314583,0.323569,0.324475,-2e-06,-0.0,-0.0,1e-06,0.0,0.0,0.031925,-0.016417,0.091526,0.017264,0.024744,0.003712
288126,0.012327,0.00282,-0.002093,0.0,0.0,0.0,0.0,0.0,0.0,3.0,0.339691,0.3131,0.325931,0.32268,-2e-06,-0.0,-0.0,1e-06,0.0,-0.0,0.032134,-0.016277,0.091419,-0.038206,-0.000194,0.02114
288146,0.012205,0.00282,-0.002093,0.0,0.0,0.0,0.0,0.0,0.0,3.0,0.340046,0.313976,0.325403,0.321989,-2e-06,-0.0,-0.0,1e-06,-0.0,0.0,0.031889,-0.016505,0.091421,-0.017049,-0.003721,0.021103
288166,0.012205,0.002942,-0.002093,0.0,0.0,0.0,0.0,0.0,0.0,3.0,0.340521,0.312615,0.326042,0.32214,-2e-06,-0.0,-0.0,1e-06,-0.0,-0.0,0.031767,-0.016398,0.091439,0.00386,-0.000132,-0.003761
288186,0.011717,0.002698,-0.002091,0.0,0.0,0.0,0.0,0.0,0.0,3.0,0.340637,0.314503,0.323177,0.323089,-2e-06,-0.0,-0.0,1e-06,-0.0,0.0,0.03131,-0.016382,0.091545,0.017569,-0.024717,-0.02101
288206,0.011595,0.002576,-0.00209,0.0,0.0,0.0,0.0,0.0,0.0,3.0,0.340291,0.314422,0.323437,0.323278,-2e-06,-0.0,-0.0,1e-06,0.0,0.0,0.031068,-0.016523,0.091546,0.017501,-0.020931,-3.5e-05
288226,0.01135,0.002819,-0.001969,0.0,0.0,0.0,0.0,0.0,0.0,3.0,0.339264,0.313856,0.323067,0.325282,-2e-06,-0.0,-0.0,1e-06,0.0,-0.0,0.031071,-0.016312,0.091668,-0.024716,-0.013619,2e-06
288246,0.011229,0.002817,-0.001725,0.0,0.0,0.0,0.0,0.0,0.0,3.0,0.338629,0.315241,0.323009,0.324687,-2e-06,-0.0,-0.0,1e-06,-0.0,-0.0,0.030913,-0.016421,0.091791,-0.059009,-0.017271,0.02104
288266,0.010985,0.002938,-0.001481,0.0,0.0,0.0,0.0,0.0,0.0,3.0,0.3378,0.315866,0.322396,0.325568,-2e-06,-0.0,-0.0,1e-06,-0.0,-0.0,0.030811,-0.016421,0.092016,-0.021212,0.003671,0.003717
288286,0.010985,0.002937,-0.001359,0.0,0.0,0.0,0.0,0.0,0.0,3.0,0.338687,0.315529,0.322682,0.324673,-2e-06,-0.0,-0.0,1e-06,0.0,0.0,0.030565,-0.016405,0.092157,0.000196,0.020811,0.020703
288306,0.011229,0.003058,-0.001116,0.0,0.0,0.0,0.0,0.0,0.0,3.0,0.337733,0.315535,0.322331,0.32602,-2e-06,-0.0,-0.0,1e-06,0.0,0.0,0.030566,-0.016179,0.0924,0.041941,0.003732,-0.000218
288326,0.011108,0.002812,-0.00087,0.0,0.0,0.0,0.0,0.0,0.0,3.0,0.337376,0.317052,0.320752,0.326487,-2e-06,-0.0,-0.0,1e-06,0.0,0.0,0.030582,-0.016163,0.092626,0.017319,-0.020982,0.003666
288346,0.010986,0.002812,-0.000748,0.0,0.0,0.0,0.0,0.0,0.0,3.0,0.33679,0.317462,0.320589,0.326863,-2e-06,-0.0,-0.0,1e-06,0.0,-0.0,0.030565,-0.016286,0.092871,-0.020875,-0.020928,0.00372
288366,0.010742,0.002688,-0.000503,0.0,0.0,0.0,0.0,0.0,0.0,3.0,0.337229,0.316986,0.321058,0.326405,-2e-06,-0.0,-0.0,1e-06,0.0,-0.0,0.030444,-0.016428,0.093012,-0.020969,0.003748,0.020874
288386,0.010498,0.002443,-0.000257,0.0,0.0,0.0,0.0,0.0,0.0,3.0,0.337141,0.317839,0.320218,0.326495,-2e-06,-0.0,-0.0,1e-06,-0.0,-0.0,0.030218,-0.016534,0.093257,-0.024646,-0.0419,0.021094
288406,0.010376,0.002564,-0.000135,0.0,0.0,0.0,0.0,0.0,0.0,3.0,0.337073,0.317633,0.321584,0.32543,-2e-06,-0.0,-0.0,1e-06,-0.0,0.0,0.030203,-0.016883,0.09338,-0.021036,0.017177,0.020885
288426,0.010499,0.002563,0.000109,0.0,0.0,0.0,0.0,0.0,0.0,3.0,0.336119,0.318213,0.320705,0.326726,-2e-06,-0.0,-0.0,1e-06,-0.0,0.0,0.030061,-0.016761,0.093625,0.003913,0.017059,-0.000228
288446,0.010499,0.002563,0.000109,0.0,0.0,0.0,0.0,0.0,0.0,3.0,0.336026,0.317484,0.321612,0.326637,-1e-06,-0.0,-0.0,1e-06,0.0,0.0,0.030166,-0.016657,0.093746,0.028545,-2.7e-05,-0.000193
288466,0.010743,0.002562,0.00023,0.0,0.0,0.0,0.0,0.0,0.0,3.0,0.336641,0.318151,0.319827,0.327096,-1e-06,-0.0,-0.0,1e-06,0.0,-0.0,0.029973,-0.016658,0.093869,0.038503,-0.020977,-4.8e-05
288486,0.011109,0.00305,0.000227,0.0,0.0,0.0,0.0,0.0,0.0,3.0,0.336174,0.315903,0.321983,0.327635,-1e-06,-0.0,-0.0,1e-06,-0.0,-0.0,0.030449,-0.016305,0.093865,0.020658,0.024347,-0.000163
288506,0.010987,0.00305,0.000349,0.0,0.0,0.0,0.0,0.0,0.0,3.0,0.335457,0.318242,0.320018,0.32805,-1e-06,-0.0,-0.0,1e-06,-0.0,-0.0,0.030568,-0.01617,0.093969,-0.021036,-3.6e-05,0.003764
288526,0.010987,0.003172,0.000349,0.0,0.0,0.0,0.0,0.0,0.0,3.0,0.336324,0.317164,0.32135,0.326892,-1e-06,-0.0,-0.0,1e-06,-0.0,0.0,0.030569,-0.01617,0.093986,-0.000131,0.020972,-0.000113
288546,0.010743,0.002927,0.000473,0.0,0.0,0.0,0.0,0.0,0.0,3.0,0.33596,0.318437,0.319902,0.327455,-1e-06,-0.0,-0.0,1e-06,0.0,0.0,0.030464,-0.016172,0.094109,-0.003736,-0.020884,9e-06
288566,0.010621,0.002805,0.000473,0.0,0.0,0.0,0.0,0.0,0.0,3.0,0.336495,0.317351,0.320905,0.326969,-1e-06,-0.0,-0.0,1e-06,0.0,0.0,0.030324,-0.016312,0.094109,0.000157,0.003864,-2e-05
288586,0.010255,0.002683,0.000475,0.0,0.0,0.0,0.0,0.0,0.0,3.0,0.336599,0.317257,0.320879,0.326977,-1e-06,-0.0,-0.0,1e-06,0.0,0.0,0.030201,-0.016293,0.094109,-0.02082,-0.020919,0.00014
288606,0.010255,0.002683,0.000475,0.0,0.0,0.0,0.0,0.0,0.0,3.0,0.337281,0.317546,0.320133,0.326714,-1e-06,-0.0,-0.0,1e-06,0.0,0.0,0.029729,-0.016557,0.094111,0.01758,0.004019,-4.4e-05
288626,0.010133,0.002561,0.000475,0.0,0.0,0.0,0.0,0.0,0.0,3.0,0.337282,0.317833,0.320119,0.326452,-1e-06,-0.0,-0.0,1e-06,0.0,-0.0,0.029608,-0.016661,0.094112,-0.003647,0.000111,4e-06
288646,0.010255,0.002805,0.000474,0.0,0.0,0.0,0.0,0.0,0.0,3.0,0.336337,0.316844,0.321156,0.327374,-1e-06,-0.0,-0.0,1e-06,-0.0,-0.0,0.029696,-0.016573,0.094111,0.003688,0.028542,-0.000149
288666,0.010011,0.002561,0.000476,0.0,0.0,0.0,0.0,0.0,0.0,3.0,0.336816,0.317791,0.320608,0.326501,-1e-06,-0.0,-0.0,1e-06,-0.0,0.0,0.029732,-0.01652,0.094111,-0.024861,-0.003747,5.3e-05
288686,0.010255,0.002683,0.000475,0.0,0.0,0.0,0.0,0.0,0.0,3.0,0.336229,0.3177,0.321235,0.326588,-1e-06,-0.0,-0.0,1e-06,-0.0,0.0,0.029697,-0.01666,0.094112,-0.017219,0.00016,2.1e-05
288706,0.010255,0.002805,0.000474,0.0,0.0,0.0,0.0,0.0,0.0,3.0,0.335703,0.31749,0.321473,0.327103,-1e-06,-0.0,-0.0,1e-06,-0.0,0.0,0.029961,-0.016536,0.094111,-0.000371,-0.000266,0.020975
288726,0.010255,0.002805,0.000474,0.0,0.0,0.0,0.0,0.0,0.0,3.0,0.336153,0.317395,0.321406,0.326793,-1e-06,-0.0,-0.0,1e-06,0.0,-0.0,0.029959,-0.016396,0.094109,0.021043,-0.025086,0.021209
288746,0.010133,0.002805,0.000474,0.0,0.0,0.0,0.0,0.0,0.0,3.0,0.336489,0.317097,0.321394,0.326741,-1e-06,-0.0,-0.0,1e-06,0.0,-0.0,0.029958,-0.016414,0.094109,-0.020791,-0.000129,0.000163
288766,0.010133,0.002683,0.000475,0.0,0.0,0.0,0.0,0.0,0.0,3.0,0.336465,0.317073,0.320995,0.327178,-1e-06,-0.0,-0.0,1e-06,-0.0,-0.0,0.029694,-0.016292,0.09411,0.004018,-0.021083,0.000101
288786,0.009767,0.002561,0.000476,0.0,0.0,0.0,0.0,0.0,0.0,3.0,0.33668,0.317707,0.320716,0.326618,-1e-06,-0.0,-0.0,1e-06,0.0,0.0,0.02959,-0.016538,0.094111,0.000105,-0.02079,0.000104
288806,0.010011,0.002805,0.000474,0.0,0.0,0.0,0.0,0.0,0.0,3.0,0.336962,0.317064,0.320747,0.326913,-1e-06,-0.0,-0.0,1e-06,0.0,0.0,0.029365,-0.016536,0.094111,0.038388,9e-06,-0.021026
288826,0.009889,0.002562,0.000354,0.0,0.0,0.0,0.0,0.0,0.0,3.0,0.336332,0.317414,0.320987,0.326998,-1e-06,-0.0,-0.0,1e-06,0.0,0.0,0.029592,-0.016395,0.094111,-0.042023,-0.003883,-0.021028
288846,0.010011,0.002684,0.000353,0.0,0.0,0.0,0.0,0.0,0.0,3.0,0.335698,0.318689,0.319985,0.327402,-1e-06,-0.0,0.0,1e-06,0.0,0.0,0.029328,-0.016661,0.094095,0.024792,0.000393,-0.017252
288866,0.010133,0.002806,0.000352,0.0,0.0,0.0,0.0,0.0,0.0,3.0,0.336065,0.316212,0.321944,0.327491,-1e-06,-0.0,0.0,1e-06,0.0,0.0,0.029716,-0.016307,0.093988,-0.000295,-0.017509,0.000115
288886,0.010133,0.002806,0.000352,0.0,0.0,0.0,0.0,0.0,0.0,3.0,0.336373,0.317115,0.321381,0.326858,-1e-06,-0.0,0.0,1e-06,0.0,0.0,0.029714,-0.016433,0.093988,-2e-06,-0.017104,8.7e-05
288906,0.010255,0.002928,0.000351,0.0,0.0,0.0,0.0,0.0,0.0,3.0,0.335911,0.317035,0.32186,0.326945,-1e-06,-0.0,0.0,1e-06,0.0,0.0,0.029819,-0.016414,0.093988,0.003734,0.020839,-0.000112
288926,0.010255,0.002806,0.000352,0.0,0.0,0.0,0.0,0.0,0.0,3.0,0.337963,0.315483,0.32244,0.325719,-1e-06,-0.0,0.0,1e-06,-0.0,-0.0,0.029731,-0.01631,0.093883,0.017238,0.003834,-0.003776
288946,0.010377,0.002806,0.00023,0.0,0.0,0.0,0.0,0.0,0.0,3.0,0.337635,0.316566,0.322147,0.325314,-1e-06,-0.0,0.0,1e-06,-0.0,-0.0,0.029731,-0.016538,0.093885,0.01721,0.000285,-0.003915
288966,0.010255,0.002685,0.000108,0.0,0.0,0.0,0.0,0.0,0.0,3.0,0.336727,0.316634,0.321796,0.326545,-1e-06,-0.0,0.0,1e-06,-0.0,-0.0,0.029835,-0.016413,0.093866,-0.000102,-5.1e-05,-0.020975
288986,0.01001,0.002686,-1.3e-05,0.0,0.0,0.0,0.0,0.0,0.0,3.0,0.337223,0.317328,0.321493,0.325656,-1e-06,-0.0,0.0,1e-06,-0.0,-0.0,0.029731,-0.016641,0.093745,-0.024704,-0.003572,7.4e-05
289006,0.01001,0.002686,-1.3e-05,0.0,0.0,0.0,0.0,0.0,0.0,3.0,0.337395,0.316174,0.322108,0.32598,-1e-06,-0.0,0.0,1e-06,0.0,0.0,0.02961,-0.016534,0.093622,-0.003818,-0.00016,0.000163
289026,0.01001,0.002686,-0.000136,0.0,0.0,0.0,0.0,0.0,0.0,3.0,0.337454,0.316094,0.323231,0.324885,-1e-06,-0.0,0.0,1e-06,0.0,0.0,0.029715,-0.016639,0.0935,-0.021084,0.01724,5.1e-05
289046,0.009888,0.002687,-0.000257,0.0,0.0,0.0,0.0,0.0,0.0,3.0,0.337465,0.315409,0.323622,0.325145,-1e-06,-0.0,0.0,1e-06,0.0,0.0,0.029696,-0.016533,0.093377,0.003756,-2.6e-05,0.000104
289066,0.01001,0.002565,-0.000379,0.0,0.0,0.0,0.0,0.0,0.0,3.0,0.337918,0.315682,0.323471,0.324555,-1e-06,-0.0,0.0,1e-06,0.0,0.0,0.02959,-0.016656,0.093256,0.021183,-0.020859,0.000187
289086,0.010376,0.002688,-0.000502,0.0,0.0,0.0,0.0,0.0,0.0,3.0,0.337963,0.314136,0.324894,0.32457,-1e-06,-0.0,0.0,1e-06,0.0,-0.0,0.029818,-0.01653,0.093151,0.003722,-0.000117,-0.02471
289106,0.010376,0.002567,-0.000746,0.0,0.0,0.0,0.0,0.0,0.0,3.0,0.338631,0.314974,0.324178,0.323776,-1e-06,-0.0,0.0,0.0,-0.0,-0.0,0.029834,-0.016636,0.093031,-7.6e-05,-0.003602,-0.024821
289126,0.010375,0.002569,-0.00099,0.0,0.0,0.0,0.0,0.0,0.0,3.0,0.33806,0.314879,0.32352,0.325126,-1e-06,-0.0,0.0,0.0,-0.0,-0.0,0.029834,-0.016529,0.09289,-7.6e-05,-4e-06,-0.020951
289146,0.010375,0.002691,-0.001113,0.0,0.0,0.0,0.0,0.0,0.0,3.0,0.339073,0.314128,0.323787,0.324508,-1e-06,-0.0,0.0,0.0,-0.0,-0.0,0.029729,-0.016548,0.092645,0.017163,0.004004,-0.020836
289166,0.010375,0.002448,-0.001356,0.0,0.0,0.0,0.0,0.0,0.0,3.0,0.338867,0.314127,0.325223,0.323289,-1e-06,-0.0,0.0,0.0,-0.0,0.0,0.029957,-0.016652,0.092401,-0.000184,0.000111,0.000133
289186,0.010375,0.002449,-0.001478,0.0,0.0,0.0,0.0,0.0,0.0,3.0,0.338339,0.314434,0.32498,0.3238,-1e-06,-0.0,0.0,0.0,0.0,0.0,0.030079,-0.016773,0.09228,-0.021096,0.021114,7.2e-05
289206,0.010497,0.00245,-0.0016,0.0,0.0,0.0,0.0,0.0,0.0,3.0,0.339746,0.312881,0.326507,0.322245,-1e-06,-0.0,0.0,0.0,0.0,-0.0,0.030079,-0.016771,0.092053,-7.2e-05,-0.02082,-0.003465
289226,0.010496,0.002451,-0.001844,0.0,0.0,0.0,0.0,0.0,0.0,3.0,0.339995,0.313033,0.325535,0.322819,-1e-06,-0.0,0.0,0.0,-0.0,-0.0,0.029973,-0.016769,0.091913,0.017217,-1e-05,-0.020886
289246,0.010374,0.002207,-0.001965,0.0,0.0,0.0,0.0,0.0,0.0,3.0,0.341053,0.312786,0.325793,0.321655,-1e-06,-0.0,-0.0,0.0,-0.0,-0.0,0.029868,-0.016892,0.091688,0.013501,-0.02083,-0.003616
289266,0.01074,0.002331,-0.002088,0.0,0.0,0.0,0.0,0.0,0.0,3.0,0.338864,0.312912,0.325831,0.323843,-1e-06,-0.0,-0.0,0.0,-0.0,-0.0,0.030079,-0.016784,0.09167,-0.000167,0.003754,-0.020995
289286,0.010618,0.002209,-0.002209,0.0,0.0,0.0,0.0,0.0,0.0,3.0,0.339721,0.312134,0.327082,0.322402,-1e-06,-0.0,-0.0,0.0,0.0,0.0,0.030304,-0.016785,0.091424,-0.038397,-0.017124,0.000269
289306,0.010618,0.002332,-0.002332,0.0,0.0,0.0,0.0,0.0,0.0,3.0,0.339651,0.312627,0.327229,0.321854,-1e-06,-0.0,-0.0,0.0,0.0,0.0,0.030305,-0.017011,0.091303,-0.017374,0.021134,1.5e-05
289326,0.01074,0.002455,-0.002455,0.0,0.0,0.0,0.0,0.0,0.0,3.0,0.339669,0.312181,0.327565,0.32192,-1e-06,-0.0,-0.0,0.0,0.0,-0.0,0.030446,-0.016887,0.091181,-0.021166,-5e-05,0.000133
289346,0.01074,0.002211,-0.002576,0.0,0.0,0.0,0.0,0.0,0.0,3.0,0.340318,0.31215,0.327997,0.320805,-1e-06,-0.0,-0.0,0.0,0.0,-0.0,0.030426,-0.017011,0.091078,-0.017219,6.1e-05,-0.003714
289366,0.01074,0.002212,-0.002698,0.0,0.0,0.0,0.0,0.0,0.0,3.0,0.339719,0.313261,0.326691,0.321722,-1e-06,-0.0,-0.0,0.0,0.0,0.0,0.030321,-0.017114,0.091061,0.02098,-0.003593,-0.020977
289386,0.010862,0.00209,-0.002697,0.0,0.0,0.0,0.0,0.0,0.0,3.0,0.339974,0.313293,0.326663,0.321444,-1e-06,-0.0,-0.0,0.0,0.0,0.0,0.030339,-0.017236,0.09094,0.017241,0.017215,-8.6e-05
289406,0.01074,0.001968,-0.002696,0.0,0.0,0.0,0.0,0.0,0.0,3.0,0.340063,0.312794,0.326257,0.322243,-1e-06,-0.0,-0.0,0.0,0.0,0.0,0.030338,-0.01713,0.090939,-0.024727,-5.9e-05,2.5e-05
289426,0.010618,0.001968,-0.002818,0.0,0.0,0.0,0.0,0.0,0.0,3.0,0.340834,0.312351,0.327384,0.320684,-1e-06,-0.0,-0.0,0.0,-0.0,-0.0,0.030198,-0.017377,0.090817,-2.5e-05,0.000267,0.000109
289446,0.01074,0.00209,-0.002819,0.0,0.0,0.0,0.0,0.0,0.0,3.0,0.339528,0.312492,0.327302,0.322042,-1e-06,-0.0,-0.0,0.0,-0.0,-0.0,0.030322,-0.017251,0.090818,0.020861,-0.000129,-2e-05
289466,0.010984,0.002091,-0.002819,0.0,0.0,0.0,0.0,0.0,0.0,3.0,0.33912,0.312561,0.327682,0.322025,-1e-06,-0.0,-0.0,0.0,-0.0,0.0,0.030548,-0.01711,0.090817,-0.017211,-0.004022,3.9e-05
289486,0.011106,0.002091,-0.002819,0.0,0.0,0.0,0.0,0.0,0.0,3.0,0.339095,0.313072,0.327725,0.321516,-1e-06,-0.0,-0.0,0.0,-0.0,0.0,0.030671,-0.017234,0.090817,0.003605,-0.003726,1.7e-05
289506,0.011106,0.001847,-0.002818,0.0,0.0,0.0,0.0,0.0,0.0,3.0,0.339966,0.312474,0.326859,0.32204,-1e-06,-0.0,-0.0,0.0,-0.0,-0.0,0.030582,-0.017129,0.090817,0.017273,-0.021107,0.0001
289526,0.011106,0.001847,-0.002818,0.0,0.0,0.0,0.0,0.0,0.0,3.0,0.340204,0.312845,0.326634,0.321658,-1e-06,-0.0,-0.0,0.0,0.0,-0.0,0.03044,-0.017375,0.090818,0.000194,0.000182,-1e-06
289546,0.010984,0.001847,-0.002818,0.0,0.0,0.0,0.0,0.0,0.0,3.0,0.340052,0.311688,0.327627,0.321916,-1e-06,-0.0,-0.0,0.0,0.0,-0.0,0.030565,-0.017269,0.090836,-0.000216,0.003752,-0.003862
289566,0.01074,0.001602,-0.002816,0.0,0.0,0.0,0.0,0.0,0.0,3.0,0.33973,0.313011,0.327298,0.321329,-1e-06,-0.0,-0.0,0.0,-0.0,-0.0,0.030565,-0.017498,0.090819,-0.020973,0.000239,1.5e-05
289586,0.010863,0.001602,-0.002817,0.0,0.0,0.0,0.0,0.0,0.0,3.0,0.339612,0.31285,0.327379,0.321529,-1e-06,-0.0,-0.0,0.0,-0.0,-0.0,0.030444,-0.017619,0.09082,7.1e-05,0.000156,-1e-06
289606,0.010985,0.00148,-0.002816,0.0,0.0,0.0,0.0,0.0,0.0,3.0,0.339351,0.312663,0.327691,0.321669,-1e-06,-0.0,-0.0,0.0,-0.0,-0.0,0.030567,-0.017618,0.09082,-0.000109,-0.0,0.0
289626,0.010985,0.00148,-0.002816,0.0,0.0,0.0,0.0,0.0,0.0,3.0,0.339996,0.312845,0.327042,0.321465,-1e-06,-0.0,-0.0,0.0,0.0,0.0,0.030461,-0.017741,0.09082,0.017242,0.000181,-1.3e-05
289646,0.011229,0.001359,-0.002938,0.0,0.0,0.0,0.0,0.0,0.0,3.0,0.340437,0.312156,0.328544,0.320105,-1e-06,-0.0,-0.0,0.0,0.0,0.0,0.030566,-0.017844,0.090697,0.020952,-0.003701,0.000117
289666,0.011473,0.001238,-0.003059,0.0,0.0,0.0,0.0,0.0,0.0,3.0,0.339491,0.312883,0.328069,0.320918,-1e-06,-0.0,-0.0,0.0,0.0,0.0,0.030811,-0.017985,0.090699,-0.000181,0.000108,-2e-06
289686,0.011595,0.001117,-0.003181,0.0,0.0,0.0,0.0,0.0,0.0,3.0,0.339336,0.312291,0.329302,0.320382,-1e-06,-0.0,-0.0,0.0,0.0,0.0,0.031161,-0.018105,0.090577,0.003384,0.021085,3.3e-05
289706,0.011718,0.000874,-0.003301,0.0,0.0,0.0,0.0,0.0,0.0,3.0,0.339403,0.312475,0.329631,0.31979,-1e-06,-0.0,-0.0,0.0,0.0,0.0,0.031405,-0.018208,0.090455,-0.01731,-0.024599,0.000309
289726,0.011962,0.000752,-0.003301,0.0,0.0,0.0,0.0,0.0,0.0,3.0,0.339514,0.311896,0.329901,0.319948,-1e-06,-0.0,-0.0,0.0,-0.0,-0.0,0.031527,-0.018346,0.090334,0.003682,-0.020945,0.000281
289746,0.012207,0.000631,-0.003422,0.0,0.0,0.0,0.0,0.0,0.0,3.0,0.339879,0.311593,0.33069,0.319019,-1e-06,-0.0,-0.0,0.0,-0.0,-0.0,0.031772,-0.018591,0.090213,0.003624,0.000139,0.000108
289766,0.012573,0.000388,-0.003543,0.0,0.0,0.0,0.0,0.0,0.0,3.0,0.340156,0.311371,0.330821,0.318794,-1e-06,-0.0,-0.0,0.0,-0.0,0.0,0.031893,-0.018712,0.090091,0.045677,0.000189,9.9e-05
289786,0.012696,0.000145,-0.003663,0.0,0.0,0.0,0.0,0.0,0.0,3.0,0.341024,0.311087,0.331043,0.317884,-1e-06,-0.0,-0.0,0.0,0.0,0.0,0.032173,-0.018955,0.089989,0.017122,-0.020651,-0.003602
289806,0.012818,-0.00022,-0.003783,0.0,0.0,0.0,0.0,0.0,0.0,3.0,0.339596,0.312686,0.330616,0.318341,-1e-06,-0.0,-0.0,0.0,0.0,0.0,0.032382,-0.019303,0.089975,0.003754,-0.024429,-0.020817
289826,0.013063,-0.000463,-0.003903,0.0,0.0,0.0,0.0,0.0,0.0,3.0,0.339337,0.312399,0.331146,0.318347,-1e-06,-0.0,0.0,0.0,0.0,0.0,0.032628,-0.019545,0.089854,0.003669,-0.024675,0.000186
289846,0.013307,-0.000584,-0.003903,0.0,0.0,0.0,0.0,0.0,0.0,3.0,0.339965,0.312019,0.331289,0.317879,-1e-06,-0.0,0.0,0.0,0.0,0.0,0.032768,-0.019788,0.089733,0.020872,-0.003669,0.000189
289866,0.013552,-0.000827,-0.004023,0.0,0.0,0.0,0.0,0.0,0.0,3.0,0.340037,0.310894,0.332434,0.31768,-1e-06,-0.0,0.0,0.0,0.0,-0.0,0.033117,-0.019803,0.08961,-0.017331,-0.021009,0.000244
289886,0.013553,-0.001193,-0.00402,0.0,0.0,0.0,0.0,0.0,0.0,3.0,0.34117,0.311623,0.33209,0.316086,-1e-06,-0.0,0.0,0.0,0.0,-0.0,0.032992,-0.020276,0.08951,0.00386,-0.02452,0.017407
289906,0.013553,-0.001315,-0.004142,0.0,0.0,0.0,0.0,0.0,0.0,3.0,0.34138,0.310937,0.331986,0.316636,-1e-06,-0.0,0.0,0.0,0.0,-0.0,0.03303,-0.020395,0.089511,0.017136,-0.02473,-0.003577
289926,0.013675,-0.001314,-0.004142,0.0,0.0,0.0,0.0,0.0,0.0,3.0,0.340489,0.311395,0.331744,0.31743,-1e-06,-0.0,0.0,0.0,0.0,-0.0,0.033134,-0.020535,0.089513,-2.3e-05,5e-05,-0.003843
289946,0.013431,-0.001437,-0.004141,0.0,0.0,0.0,0.0,0.0,0.0,3.0,0.339947,0.311269,0.331553,0.31835,-1e-06,-0.0,-0.0,0.0,-0.0,-0.0,0.033257,-0.02043,0.089494,-0.000121,-0.017241,0.000117
289966,0.01331,-0.001559,-0.00414,0.0,0.0,0.0,0.0,0.0,0.0,3.0,0.340424,0.311711,0.330698,0.318301,-1e-06,-0.0,-0.0,0.0,-0.0,-0.0,0.033029,-0.020553,0.089495,-0.024478,-0.017249,0.021068
289986,0.013309,-0.001194,-0.004021,0.0,0.0,0.0,0.0,0.0,0.0,3.0,0.339203,0.311873,0.33009,0.32011,-1e-06,-0.0,-0.0,0.0,-0.0,0.0,0.03289,-0.020448,0.089598,5e-06,0.007509,0.003814
290006,0.013187,-0.001317,-0.003898,0.0,0.0,0.0,0.0,0.0,0.0,3.0,0.340275,0.311822,0.330779,0.31827,-1e-06,-0.0,-0.0,0.0,-0.0,-0.0,0.032766,-0.020414,0.089616,0.00011,4e-06,1e-06
290026,0.013065,-0.001317,-0.003898,0.0,0.0,0.0,0.0,0.0,0.0,3.0,0.34039,0.313116,0.32973,0.317986,-1e-06,-0.0,-0.0,0.0,-0.0,-0.0,0.032558,-0.020643,0.08974,0.013516,-0.003546,-0.000123
290046,0.013065,-0.001561,-0.003896,0.0,0.0,0.0,0.0,0.0,0.0,3.0,0.338853,0.313565,0.32977,0.31918,-1e-06,-0.0,-0.0,0.0,-0.0,-0.0,0.032646,-0.020661,0.089844,-0.020987,2.3e-05,-0.017258
290066,0.012943,-0.001318,-0.003898,0.0,0.0,0.0,0.0,0.0,0.0,3.0,0.338756,0.312667,0.329872,0.320053,-1e-06,-0.0,-0.0,0.0,0.0,0.0,0.032646,-0.020555,0.089843,-0.021155,0.024684,0.003581
290086,0.012943,-0.001318,-0.003776,0.0,0.0,0.0,0.0,0.0,0.0,3.0,0.338811,0.312591,0.330282,0.319638,-1e-06,-0.0,0.0,0.0,0.0,0.0,0.032647,-0.020434,0.089842,-0.021068,0.003801,0.003851
290106,0.012821,-0.001686,-0.003652,0.0,0.0,0.0,0.0,0.0,0.0,3.0,0.339636,0.313418,0.330705,0.317489,-1e-06,-0.0,0.0,0.0,0.0,0.0,0.032505,-0.020768,0.089862,-0.038049,-0.02464,0.021098
290126,0.012821,-0.001563,-0.003652,0.0,0.0,0.0,0.0,0.0,0.0,3.0,0.340449,0.312062,0.33159,0.316987,-1e-06,-0.0,0.0,0.0,0.0,-0.0,0.032403,-0.021029,0.089862,-0.000149,0.021102,-4.9e-05
290146,0.012943,-0.001441,-0.003653,0.0,0.0,0.0,0.0,0.0,0.0,3.0,0.340795,0.31193,0.331706,0.31661,-1e-06,-0.0,0.0,0.0,-0.0,-0.0,0.032421,-0.02101,0.089881,-0.00387,0.017186,-0.004003
290166,0.012943,-0.001563,-0.003652,0.0,0.0,0.0,0.0,0.0,0.0,3.0,0.339627,0.312662,0.330393,0.318566,-1e-06,-0.0,-0.0,0.0,-0.0,-0.0,0.032401,-0.020783,0.089985,-0.021019,-0.000269,-0.000175
290186,0.012577,-0.001564,-0.003652,0.0,0.0,0.0,0.0,0.0,0.0,3.0,0.339788,0.312029,0.330886,0.31849,-1e-06,-0.0,-0.0,0.0,-0.0,-0.0,0.032402,-0.02066,0.089983,-0.000143,-0.021083,0.000135
290206,0.012577,-0.001564,-0.003652,0.0,0.0,0.0,0.0,0.0,0.0,3.0,0.339774,0.312206,0.330976,0.318237,-1e-06,-0.0,-0.0,0.0,-0.0,-0.0,0.032279,-0.020803,0.089984,0.000197,0.003866,-2.4e-05
290226,0.012577,-0.001687,-0.00353,0.0,0.0,0.0,0.0,0.0,0.0,3.0,0.339404,0.312492,0.33109,0.318242,-1e-06,-0.0,-0.0,0.0,-0.0,-0.0,0.032262,-0.020784,0.089984,-0.017062,-0.021135,0.021091
290246,0.012577,-0.001687,-0.00353,0.0,0.0,0.0,0.0,0.0,0.0,3.0,0.339382,0.31322,0.330759,0.317903,-1e-06,-0.0,-0.0,0.0,0.0,0.0,0.032139,-0.021012,0.090107,0.003836,0.017272,-0.000129
290266,0.012699,-0.001565,-0.003408,0.0,0.0,0.0,0.0,0.0,0.0,3.0,0.338454,0.313463,0.330528,0.318919,-1e-06,-0.0,-0.0,0.0,0.0,0.0,0.032262,-0.020889,0.09023,-0.017216,-0.003763,-0.021075
290286,0.012333,-0.001932,-0.003406,0.0,0.0,0.0,0.0,0.0,0.0,3.0,0.338649,0.314545,0.328797,0.319458,-1e-06,-0.0,-0.0,0.0,0.0,-0.0,0.032033,-0.020891,0.090334,-0.020827,-0.024788,-0.01724
290306,0.012211,-0.001933,-0.003284,0.0,0.0,0.0,0.0,0.0,0.0,3.0,0.339109,0.313562,0.32949,0.3192,-1e-06,-0.0,-0.0,0.0,0.0,-0.0,0.03179,-0.021031,0.090353,0.021104,0.000105,-6.5e-05
290326,0.012089,-0.002056,-0.003162,0.0,0.0,0.0,0.0,0.0,0.0,3.0,0.339012,0.313969,0.329059,0.319356,-1e-06,-0.0,-0.0,0.0,0.0,-0.0,0.031686,-0.021174,0.090475,0.017367,0.004028,-0.000116
290346,0.012089,-0.002058,-0.002917,0.0,0.0,0.0,0.0,0.0,0.0,3.0,0.338084,0.314685,0.32895,0.319773,-1e-06,-0.0,-0.0,0.0,-0.0,0.0,0.031669,-0.021278,0.09058,0.021067,0.021139,0.003626
290366,0.011844,-0.002058,-0.002918,0.0,0.0,0.0,0.0,0.0,0.0,3.0,0.33911,0.314058,0.329081,0.319139,-1e-06,-0.0,-0.0,0.0,-0.0,0.0,0.031564,-0.021279,0.09072,-0.003598,0.000129,-0.00016
290386,0.011844,-0.001937,-0.002796,0.0,0.0,0.0,0.0,0.0,0.0,3.0,0.338823,0.314498,0.328414,0.319714,-1e-06,-0.0,-0.0,0.0,-0.0,0.0,0.031319,-0.021279,0.090842,-0.003575,-5e-06,-0.000114
290406,0.011722,-0.002181,-0.002795,0.0,0.0,0.0,0.0,0.0,0.0,3.0,0.338485,0.315127,0.32798,0.319914,-1e-06,-0.0,0.0,0.0,-0.0,0.0,0.031198,-0.02128,0.090945,-0.003733,-0.020925,-0.017123
290426,0.011722,-0.002304,-0.002672,0.0,0.0,0.0,0.0,0.0,0.0,3.0,0.337778,0.31557,0.328698,0.319497,-1e-06,-0.0,0.0,0.0,-0.0,0.0,0.031304,-0.021507,0.090947,-0.021131,-0.003759,0.003753
290446,0.0116,-0.002305,-0.00255,0.0,0.0,0.0,0.0,0.0,0.0,3.0,0.338553,0.314171,0.329633,0.319057,-1e-06,-0.0,0.0,0.0,0.0,-0.0,0.031304,-0.021524,0.090964,-0.000157,-0.000125,0.020975
290466,0.011478,-0.002305,-0.00255,0.0,0.0,0.0,0.0,0.0,0.0,3.0,0.339061,0.313687,0.33051,0.318057,-1e-06,-0.0,0.0,0.0,0.0,-0.0,0.031285,-0.021647,0.090963,-0.017136,0.020937,0.020916
290486,0.011356,-0.002427,-0.00255,0.0,0.0,0.0,0.0,0.0,0.0,3.0,0.338872,0.314494,0.329221,0.318825,-1e-06,-0.0,0.0,0.0,0.0,-0.0,0.031058,-0.021648,0.091087,-0.020789,5.8e-05,-5.2e-05
290506,0.011356,-0.002427,-0.00255,0.0,0.0,0.0,0.0,0.0,0.0,3.0,0.339265,0.314342,0.329884,0.317852,-1e-06,-0.0,-0.0,0.0,0.0,-0.0,0.030937,-0.021733,0.091106,3.8e-05,-0.007551,-0.003798
290526,0.011478,-0.002672,-0.002426,0.0,0.0,0.0,0.0,0.0,0.0,3.0,0.337997,0.315812,0.328652,0.319069,-1e-06,-0.0,-0.0,0.0,0.0,-0.0,0.030937,-0.021875,0.091211,-0.020967,-0.003805,-0.000118
290546,0.011356,-0.002672,-0.002426,0.0,0.0,0.0,0.0,0.0,0.0,3.0,0.338238,0.314137,0.329877,0.319177,-1e-06,-0.0,-0.0,0.0,0.0,0.0,0.031042,-0.021768,0.091209,0.003576,-0.02108,0.000127
290566,0.011356,-0.002794,-0.002426,0.0,0.0,0.0,0.0,0.0,0.0,3.0,0.33843,0.314312,0.329786,0.318892,-1e-06,-0.0,-0.0,0.0,-0.0,-0.0,0.03106,-0.021911,0.09121,6.9e-05,-0.017106,9.8e-05
290586,0.011235,-0.002916,-0.002425,0.0,0.0,0.0,0.0,0.0,0.0,3.0,0.339687,0.313477,0.330434,0.31766,-1e-06,-0.0,-0.0,0.0,-0.0,-0.0,0.030937,-0.022014,0.091087,0.000185,-0.020948,0.000229
290606,0.011113,-0.002916,-0.002548,0.0,0.0,0.0,0.0,0.0,0.0,3.0,0.339281,0.314368,0.330185,0.317491,-1e-06,-0.0,-0.0,0.0,-0.0,-0.0,0.030796,-0.022241,0.091089,0.004003,-0.003702,-2.2e-05
290626,0.011357,-0.00267,-0.002671,0.0,0.0,0.0,0.0,0.0,0.0,3.0,0.339956,0.312616,0.331366,0.317224,-1e-06,-0.0,-0.0,0.0,0.0,0.0,0.030816,-0.022134,0.090984,0.020997,0.020863,-0.003819
290646,0.011235,-0.003037,-0.002669,0.0,0.0,0.0,0.0,0.0,0.0,3.0,0.339821,0.313776,0.330084,0.317589,-1e-06,-0.0,-0.0,0.0,0.0,0.0,0.030833,-0.021995,0.090985,-0.024688,-0.024896,-0.00374
290666,0.010991,-0.003036,-0.002791,0.0,0.0,0.0,0.0,0.0,0.0,3.0,0.339632,0.314301,0.329469,0.317926,-1e-06,-0.0,-0.0,0.0,0.0,0.0,0.03057,-0.022258,0.090967,8.5e-05,0.00018,-1e-06
290686,0.010991,-0.002915,-0.00267,0.0,0.0,0.0,0.0,0.0,0.0,3.0,0.338279,0.313734,0.330025,0.319371,-1e-06,-0.0,0.0,0.0,0.0,0.0,0.030676,-0.022029,0.090967,0.003752,-0.017346,0.000149
290706,0.011113,-0.002793,-0.00267,0.0,0.0,0.0,0.0,0.0,0.0,3.0,0.339478,0.312847,0.331165,0.317735,-1e-06,-0.0,0.0,0.0,0.0,0.0,0.030676,-0.022011,0.090842,0.003861,-0.000195,0.021091
290726,0.010991,-0.003036,-0.002791,0.0,0.0,0.0,0.0,0.0,0.0,3.0,0.339768,0.313428,0.330962,0.317062,-1e-06,-0.0,0.0,0.0,0.0,-0.0,0.030694,-0.022136,0.090843,1e-06,0.000111,8.4e-05
290746,0.010991,-0.002914,-0.002792,0.0,0.0,0.0,0.0,0.0,0.0,3.0,0.339912,0.314016,0.329628,0.317734,-1e-06,-0.0,-0.0,0.0,-0.0,-0.0,0.030485,-0.022258,0.090845,0.013557,0.000175,1.9e-05
290766,0.010991,-0.003036,-0.002791,0.0,0.0,0.0,0.0,0.0,0.0,3.0,0.33926,0.313675,0.330278,0.318098,-1e-06,-0.0,-0.0,0.0,-0.0,-0.0,0.030572,-0.022134,0.090844,-0.020998,-0.000187,-3.1e-05
290786,0.010747,-0.003159,-0.002791,0.0,0.0,0.0,0.0,0.0,0.0,3.0,0.33837,0.315271,0.328857,0.318984,-1e-06,-0.0,-0.0,0.0,-0.0,-0.0,0.030449,-0.022258,0.09095,-0.020969,0.000221,-0.017276
290806,0.010747,-0.003037,-0.002669,0.0,0.0,0.0,0.0,0.0,0.0,3.0,0.339327,0.31357,0.330157,0.318254,-1e-06,-0.0,-0.0,0.0,-0.0,-0.0,0.030328,-0.022275,0.090845,-4.2e-05,0.024747,0.020866
290826,0.010503,-0.00316,-0.002669,0.0,0.0,0.0,0.0,0.0,0.0,3.0,0.338654,0.314977,0.329545,0.318247,-1e-06,-0.0,-0.0,0.0,-0.0,-0.0,0.030328,-0.022382,0.090949,-0.021006,0.021168,0.003671
290846,0.010381,-0.003404,-0.002668,0.0,0.0,0.0,0.0,0.0,0.0,3.0,0.339382,0.314593,0.329835,0.317528,-1e-06,-0.0,-0.0,0.0,0.0,-0.0,0.030083,-0.022504,0.090968,0.000181,0.000242,-1e-06
290866,0.010259,-0.003527,-0.002546,0.0,0.0,0.0,0.0,0.0,0.0,3.0,0.340321,0.314519,0.329757,0.316651,-0.0,-0.0,-0.0,0.0,0.0,0.0,0.029875,-0.02273,0.090987,0.013596,-0.024508,-0.003689
290886,0.010259,-0.003649,-0.002545,0.0,0.0,0.0,0.0,0.0,0.0,3.0,0.338752,0.315198,0.329649,0.317814,-0.0,-0.0,-0.0,0.0,0.0,0.0,0.029963,-0.022851,0.091092,-0.041944,0.017052,-0.000322
290906,0.009893,-0.003772,-0.002545,0.0,0.0,0.0,0.0,0.0,0.0,3.0,0.339369,0.314764,0.329388,0.317842,-0.0,-0.0,-0.0,0.0,0.0,0.0,0.029717,-0.02287,0.091091,-0.021009,-0.0,0.020935
290926,0.009771,-0.004017,-0.002422,0.0,0.0,0.0,0.0,0.0,0.0,3.0,0.338627,0.316389,0.328254,0.318231,-0.0,-0.0,-0.0,0.0,0.0,0.0,0.029492,-0.023098,0.091196,-0.024636,-0.003624,0.003834
290946,0.009527,-0.004139,-0.0023,0.0,0.0,0.0,0.0,0.0,0.0,3.0,0.339009,0.315316,0.32937,0.317709,-0.0,-0.0,-0.0,0.0,0.0,0.0,0.029333,-0.023238,0.091214,-0.017126,-0.020939,0.021041
290966,0.009161,-0.004507,-0.002177,0.0,0.0,0.0,0.0,0.0,0.0,3.0,0.339488,0.316252,0.328654,0.317008,-0.0,-0.0,-0.0,0.0,-0.0,0.0,0.028983,-0.023588,0.091337,0.00032,-0.024569,9.2e-05
290986,0.008916,-0.00463,-0.002055,0.0,0.0,0.0,0.0,0.0,0.0,3.0,0.339928,0.31645,0.327484,0.317553,-0.0,-0.0,-0.0,0.0,-0.0,-0.0,0.02853,-0.023832,0.09146,0.013828,-0.003694,-0.000108
291006,0.008794,-0.00463,-0.002055,0.0,0.0,0.0,0.0,0.0,0.0,3.0,0.339055,0.315891,0.328081,0.318438,-0.0,-0.0,-0.0,0.0,-0.0,0.0,0.028515,-0.023708,0.091582,-0.024679,-0.003978,-0.000195
291026,0.008428,-0.005119,-0.001932,0.0,0.0,0.0,0.0,0.0,0.0,3.0,0.339084,0.317374,0.326917,0.318145,-0.0,-0.0,-0.0,0.0,-0.0,0.0,0.028147,-0.023957,0.091705,-0.003574,-0.024548,-1.3e-05
291046,0.008062,-0.00512,-0.001811,0.0,0.0,0.0,0.0,0.0,0.0,3.0,0.33867,0.317553,0.326238,0.319118,-0.0,-0.0,-0.0,0.0,-0.0,0.0,0.027761,-0.024218,0.091808,0.000365,0.000212,0.003733
291066,0.008061,-0.00512,-0.001689,0.0,0.0,0.0,0.0,0.0,0.0,3.0,0.339049,0.316552,0.327823,0.318058,-0.0,-0.0,-0.0,0.0,0.0,-0.0,0.027642,-0.02436,0.091826,0.021088,-0.017039,0.0211
291086,0.007695,-0.005365,-0.001689,0.0,0.0,0.0,0.0,0.0,0.0,3.0,0.339681,0.316922,0.32698,0.317878,-0.0,-0.0,-0.0,0.0,0.0,-0.0,0.027413,-0.024463,0.091948,-0.00347,-0.020998,4.9e-05
291106,0.007451,-0.005487,-0.001567,0.0,0.0,0.0,0.0,0.0,0.0,3.0,0.340407,0.316724,0.327057,0.317199,-0.0,-0.0,-0.0,0.0,0.0,-0.0,0.027066,-0.024709,0.091966,0.013617,8e-05,0.01717
291126,0.007329,-0.005488,-0.001567,0.0,0.0,0.0,0.0,0.0,0.0,3.0,0.339703,0.317217,0.326772,0.317776,-0.0,-0.0,-0.0,0.0,0.0,-0.0,0.026945,-0.024831,0.09207,-0.007458,0.021075,-0.000123
291146,0.006963,-0.005855,-0.001445,0.0,0.0,0.0,0.0,0.0,0.0,3.0,0.338878,0.318973,0.325205,0.31854,-0.0,-0.0,-0.0,0.0,0.0,0.0,0.0267,-0.024937,0.092174,-0.028444,-0.003681,0.003663
291166,0.00684,-0.005855,-0.001323,0.0,0.0,0.0,0.0,0.0,0.0,3.0,0.339101,0.317928,0.326882,0.31761,-0.0,-0.0,-0.0,0.0,0.0,0.0,0.026544,-0.025199,0.092192,-0.021014,0.000177,0.020913
291186,0.00684,-0.005733,-0.001323,0.0,0.0,0.0,0.0,0.0,0.0,3.0,0.338576,0.317636,0.326478,0.318891,-0.0,-0.0,-0.0,0.0,0.0,0.0,0.026421,-0.025093,0.092295,1e-05,0.003669,0.003805
291206,0.006596,-0.005978,-0.001201,0.0,0.0,0.0,0.0,0.0,0.0,3.0,0.339325,0.317181,0.326757,0.318239,-0.0,-0.0,-0.0,0.0,-0.0,0.0,0.026298,-0.024952,0.092313,0.000124,-0.021129,7.2e-05
291226,0.006352,-0.005978,-0.001202,0.0,0.0,0.0,0.0,0.0,0.0,3.0,0.339143,0.318151,0.325947,0.318309,-0.0,-0.0,-0.0,0.0,-0.0,0.0,0.026052,-0.025199,0.092436,-0.020706,0.000169,-0.00022
291246,0.00623,-0.005978,-0.001202,0.0,0.0,0.0,0.0,0.0,0.0,3.0,0.339349,0.317574,0.326502,0.318086,-0.0,-0.0,-0.0,0.0,-0.0,-0.0,0.025951,-0.025198,0.092434,-0.024791,-1.6e-05,-7.4e-05
291266,0.006108,-0.0061,-0.001202,0.0,0.0,0.0,0.0,0.0,0.0,3.0,0.339355,0.318344,0.326542,0.317267,-0.0,-0.0,-0.0,0.0,-0.0,-0.0,0.025829,-0.025427,0.092435,-0.003828,0.017349,-6.6e-05
291286,0.006229,-0.005856,-0.001203,0.0,0.0,0.0,0.0,0.0,0.0,3.0,0.338625,0.317099,0.327336,0.318482,-0.0,-0.0,-0.0,0.0,-0.0,-0.0,0.025916,-0.025215,0.092434,-0.017197,0.003694,-6.3e-05
291306,0.005741,-0.0061,-0.001203,0.0,0.0,0.0,0.0,0.0,0.0,3.0,0.339488,0.31773,0.326452,0.317831,-0.0,-0.0,-0.0,0.0,0.0,0.0,0.025687,-0.025199,0.092434,0.000149,-0.021018,6.5e-05
291326,0.005863,-0.005856,-0.001204,0.0,0.0,0.0,0.0,0.0,0.0,3.0,0.339717,0.317638,0.326233,0.3179,-0.0,-0.0,-0.0,0.0,0.0,0.0,0.02532,-0.025321,0.092433,0.02143,0.021009,4e-06
291346,0.005985,-0.005856,-0.001081,0.0,0.0,0.0,0.0,0.0,0.0,3.0,0.338988,0.316642,0.327019,0.31887,-0.0,-0.0,0.0,0.0,0.0,0.0,0.025568,-0.024828,0.092432,-0.021094,-0.021387,3e-06
291366,0.005741,-0.006101,-0.001081,0.0,0.0,0.0,0.0,0.0,0.0,3.0,0.339039,0.31868,0.325842,0.318001,-0.0,-0.0,0.0,0.0,0.0,0.0,0.025443,-0.025201,0.092556,-0.041956,-0.020702,-0.000225
291386,0.005863,-0.005856,-0.001082,0.0,0.0,0.0,0.0,0.0,0.0,3.0,0.338836,0.317524,0.32682,0.318365,-0.0,-0.0,0.0,0.0,0.0,-0.0,0.025446,-0.025197,0.092555,-0.000231,0.020885,-6.2e-05
291406,0.005741,-0.005979,-0.001082,0.0,0.0,0.0,0.0,0.0,0.0,3.0,0.339155,0.317681,0.326547,0.318145,-0.0,-0.0,-0.0,0.0,0.0,-0.0,0.025444,-0.025077,0.092555,-0.02096,-0.021007,-1e-06
291426,0.005741,-0.006101,-0.001081,0.0,0.0,0.0,0.0,0.0,0.0,3.0,0.339495,0.318686,0.326196,0.317129,-0.0,-0.0,-0.0,0.0,0.0,-0.0,0.025198,-0.025427,0.092555,0.021108,-0.003585,7.6e-05
291446,0.005741,-0.006101,-0.001081,0.0,0.0,0.0,0.0,0.0,0.0,3.0,0.339432,0.317048,0.327062,0.31794,-0.0,-0.0,-0.0,0.0,-0.0,-0.0,0.025322,-0.025197,0.092573,0.02097,-0.021219,-0.003716
291466,0.005741,-0.006101,-0.001081,0.0,0.0,0.0,0.0,0.0,0.0,3.0,0.338589,0.318288,0.324895,0.319854,-0.0,-0.0,-0.0,0.0,-0.0,-0.0,0.025216,-0.025093,0.092659,-0.003538,-0.01728,-0.017206
291486,0.005741,-0.005734,-0.001082,0.0,0.0,0.0,0.0,0.0,0.0,3.0,0.337931,0.318249,0.325695,0.319783,-0.0,-0.0,-0.0,0.0,-0.0,0.0,0.025304,-0.025094,0.092659,-0.017253,0.024817,-0.017338
291506,0.005497,-0.005735,-0.001083,0.0,0.0,0.0,0.0,0.0,0.0,3.0,0.339738,0.317255,0.326226,0.318266,-0.0,-0.0,-0.0,0.0,-0.0,-0.0,0.025236,-0.024973,0.092554,-0.007718,0.024788,-6.7e-05
291526,0.005619,-0.005857,-0.001082,0.0,0.0,0.0,0.0,0.0,0.0,3.0,0.339554,0.318381,0.326225,0.317341,-0.0,-0.0,-0.0,0.0,-0.0,-0.0,0.025095,-0.025203,0.092554,-0.003697,0.021324,-7e-05
291546,0.005741,-0.005857,-0.001082,0.0,0.0,0.0,0.0,0.0,0.0,3.0,0.338624,0.317581,0.327203,0.318142,-0.0,-0.0,-0.0,0.0,-0.0,0.0,0.025305,-0.025095,0.092554,0.003571,0.003817,-0.0
291566,0.005619,-0.005979,-0.001082,0.0,0.0,0.0,0.0,0.0,0.0,3.0,0.339357,0.318236,0.326449,0.317469,-0.0,-0.0,-0.0,0.0,0.0,0.0,0.025198,-0.025182,0.092554,0.021086,-0.003719,7.4e-05
291586,0.005619,-0.005978,-0.001204,0.0,0.0,0.0,0.0,0.0,0.0,3.0,0.339716,0.317556,0.326102,0.318117,-0.0,-0.0,-0.0,0.0,0.0,0.0,0.025094,-0.025075,0.092554,-0.003588,-0.021086,4.7e-05
291606,0.005619,-0.005734,-0.001205,0.0,0.0,0.0,0.0,0.0,0.0,3.0,0.338375,0.317859,0.325933,0.319448,-0.0,-0.0,-0.0,0.0,0.0,-0.0,0.025201,-0.024971,0.092536,-0.021145,0.003623,0.003818
291626,0.005619,-0.005856,-0.001204,0.0,0.0,0.0,0.0,0.0,0.0,3.0,0.339232,0.317017,0.327612,0.317616,-0.0,-0.0,-0.0,0.0,0.0,-0.0,0.025324,-0.024973,0.092431,-0.000246,0.003843,0.000147
291646,0.005742,-0.005856,-0.001326,0.0,0.0,0.0,0.0,0.0,0.0,3.0,0.339985,0.317207,0.328151,0.316034,-0.0,-0.0,-0.0,0.0,0.0,-0.0,0.025323,-0.025182,0.092309,0.021023,-0.003559,0.000183
291666,0.005986,-0.005733,-0.001448,0.0,0.0,0.0,0.0,0.0,0.0,3.0,0.33997,0.316177,0.329334,0.315834,-0.0,-0.0,-0.0,0.0,0.0,-0.0,0.02555,-0.025198,0.092206,0.024724,0.020953,-0.003722
291686,0.005987,-0.006099,-0.001569,0.0,0.0,0.0,0.0,0.0,0.0,3.0,0.340878,0.315884,0.329153,0.315314,-0.0,-0.0,-0.0,0.0,0.0,0.0,0.025548,-0.025057,0.092084,0.00407,-0.024809,-0.024622
291706,0.005987,-0.00622,-0.001813,0.0,0.0,0.0,0.0,0.0,0.0,3.0,0.341201,0.315749,0.328769,0.315496,-0.0,-0.0,-0.0,0.0,-0.0,0.0,0.025444,-0.025197,0.091963,0.021194,-0.041782,-0.024653
291726,0.005866,-0.006098,-0.001936,0.0,0.0,0.0,0.0,0.0,0.0,3.0,0.340467,0.315989,0.327983,0.316897,-0.0,-0.0,-0.0,0.0,-0.0,-0.0,0.025445,-0.025213,0.091822,0.0001,-0.017302,7.3e-05
291746,0.005744,-0.006098,-0.002058,0.0,0.0,0.0,0.0,0.0,0.0,3.0,0.340591,0.316307,0.328466,0.315934,-0.0,-0.0,-0.0,0.0,-0.0,0.0,0.025447,-0.025318,0.0917,-0.020974,5e-06,9.3e-05
291766,0.005866,-0.005853,-0.00218,0.0,0.0,0.0,0.0,0.0,0.0,3.0,0.341401,0.315024,0.329909,0.314789,-0.0,-0.0,-0.0,0.0,-0.0,-0.0,0.025449,-0.025318,0.091454,-0.00011,0.020971,0.000205
291786,0.005989,-0.005853,-0.002302,0.0,0.0,0.0,0.0,0.0,0.0,3.0,0.341732,0.31497,0.329993,0.314383,-0.0,-0.0,-0.0,0.0,-0.0,-0.0,0.025447,-0.025177,0.091351,0.020965,0.017096,-0.003721
291806,0.005989,-0.006097,-0.002424,0.0,0.0,0.0,0.0,0.0,0.0,3.0,0.342182,0.314908,0.329934,0.314004,-0.0,-0.0,-0.0,0.0,-0.0,-0.0,0.025447,-0.025196,0.091229,0.000122,-0.020877,-0.003672
291826,0.006355,-0.005852,-0.002545,0.0,0.0,0.0,0.0,0.0,0.0,3.0,0.340256,0.315171,0.329942,0.315879,-0.0,-0.0,-0.0,0.0,0.0,0.0,0.025657,-0.02507,0.091212,0.007502,-0.021096,-0.02089
291846,0.006111,-0.005974,-0.002546,0.0,0.0,0.0,0.0,0.0,0.0,3.0,0.34063,0.314801,0.329797,0.315987,-0.0,-0.0,0.0,0.0,0.0,0.0,0.025938,-0.024824,0.09109,-0.021231,-0.042323,9.5e-05
291866,0.00599,-0.005974,-0.002668,0.0,0.0,0.0,0.0,0.0,0.0,3.0,0.341094,0.316322,0.328219,0.315623,-0.0,-0.0,0.0,0.0,0.0,0.0,0.025587,-0.025214,0.091072,-0.00354,-0.01694,0.003881
291886,0.005868,-0.005852,-0.002669,0.0,0.0,0.0,0.0,0.0,0.0,3.0,0.341406,0.315087,0.329687,0.314957,-0.0,-0.0,0.0,0.0,0.0,-0.0,0.025571,-0.025193,0.090967,-3e-05,0.020839,9.5e-05
291906,0.005624,-0.005974,-0.002669,0.0,0.0,0.0,0.0,0.0,0.0,3.0,0.3417,0.315486,0.32877,0.315202,-0.0,-0.0,0.0,0.0,0.0,-0.0,0.025343,-0.025072,0.090967,-0.003546,-0.021001,5e-05
291926,0.00538,-0.006219,-0.002669,0.0,0.0,0.0,0.0,0.0,0.0,3.0,0.341882,0.316146,0.328571,0.314548,-0.0,-0.0,0.0,0.0,0.0,-0.0,0.025099,-0.0253,0.090967,-0.024543,-0.003741,-6.5e-05
291946,0.005258,-0.006341,-0.002669,0.0,0.0,0.0,0.0,0.0,0.0,3.0,0.340993,0.317933,0.327155,0.315233,-0.0,-0.0,-0.0,0.0,0.0,-0.0,0.024713,-0.025669,0.091072,-0.020698,0.017523,-0.017354
291966,0.005135,-0.005975,-0.002549,0.0,0.0,0.0,0.0,0.0,0.0,3.0,0.340034,0.316157,0.328082,0.317103,-0.0,-0.0,-0.0,0.0,0.0,-0.0,0.02484,-0.025333,0.091071,-0.000336,0.024556,0.003692
291986,0.005013,-0.00622,-0.002426,0.0,0.0,0.0,0.0,0.0,0.0,3.0,0.341305,0.316242,0.328463,0.31521,-0.0,-0.0,-0.0,0.0,-0.0,0.0,0.024734,-0.025319,0.091088,-0.003747,3e-05,0.020965
292006,0.00489,-0.00622,-0.002305,0.0,0.0,0.0,0.0,0.0,0.0,3.0,0.341333,0.316864,0.327924,0.315122,-0.0,-0.0,-0.0,0.0,-0.0,0.0,0.024469,-0.025565,0.09121,0.000176,0.021187,0.0209
292026,0.005134,-0.005976,-0.002182,0.0,0.0,0.0,0.0,0.0,0.0,3.0,0.340528,0.316492,0.328454,0.315831,-0.0,-0.0,-0.0,0.0,-0.0,-0.0,0.024613,-0.02544,0.091332,0.016932,0.020913,0.02095
292046,0.005134,-0.006099,-0.00206,0.0,0.0,0.0,0.0,0.0,0.0,3.0,0.339835,0.31807,0.32726,0.316266,-0.0,-0.0,-0.0,0.0,-0.0,-0.0,0.024733,-0.025424,0.091578,-0.024854,0.017144,-0.000254
292066,0.005255,-0.006099,-0.001815,0.0,0.0,0.0,0.087266,0.0,0.0,3.0,0.37588,0.31825,0.281513,0.316919,0.000101,-0.0,-0.0,0.040615,0.0,0.0,0.02482,-0.025442,0.091682,-0.017407,0.021029,0.003624
292086,0.005254,-0.005977,-0.001694,0.0,0.0,0.0,0.087266,0.0,0.0,3.0,0.376633,0.316979,0.281513,0.317248,0.001519,-0.0,-0.0,0.120461,0.0,0.0,0.024836,-0.025214,0.091822,0.020775,0.003669,0.020872
292106,0.005376,-0.0061,-0.001571,0.0,0.0,0.0,0.087266,0.0,0.0,3.0,0.377034,0.317739,0.2812,0.316245,0.004492,-0.0,0.0,0.194136,0.0,0.0,0.024835,-0.025321,0.091943,0.021058,-0.020899,0.021072
292126,0.006474,-0.005855,-0.001324,0.0,0.0,0.0,0.087266,0.0,0.0,3.0,0.374724,0.317966,0.282251,0.318024,0.008884,-0.0,0.0,0.260425,0.0,0.0,0.025395,-0.025196,0.09219,0.052989,0.020768,-3.8e-05
292146,0.008304,-0.005855,-0.001074,0.0,0.0,0.0,0.087266,0.0,0.0,3.0,0.372387,0.319257,0.283266,0.318762,0.014544,-0.0,0.0,0.31906,0.0,0.0,0.026724,-0.025075,0.09242,0.077097,1.4e-05,0.003802
292166,0.010989,-0.005977,-0.000822,0.0,0.0,0.0,0.087266,0.0,0.0,3.0,0.369367,0.319862,0.28621,0.319337,0.021319,-0.0,0.0,0.369935,0.0,0.0,0.029014,-0.025094,0.092671,0.125734,-0.017188,0.025009
292186,0.014895,-0.005978,-0.000444,0.0,0.0,0.0,0.087266,0.0,0.0,3.0,0.365025,0.321479,0.289543,0.320058,0.029053,-0.0,0.0,0.413045,0.0,0.0,0.032403,-0.025321,0.093049,0.17448,0.041971,0.024817
292206,0.019898,-0.006225,6.2e-05,0.0,0.0,0.0,0.087266,0.0,0.0,3.0,0.361989,0.3213,0.29507,0.318963,0.037592,-0.0,0.0,0.448463,0.0,0.0,0.036767,-0.025446,0.093325,0.265198,1e-06,0.042637
292226,0.026245,-0.006596,0.000453,0.0,0.0,0.0,0.087266,0.0,0.0,3.0,0.356764,0.32306,0.298552,0.320157,0.046782,-0.0,0.0,0.476342,-0.0,0.0,0.042249,-0.025675,0.093815,0.352284,-0.003915,0.025678
292246,0.033935,-0.007338,0.000979,0.0,0.0,0.0,0.087266,0.0,0.0,3.0,0.350588,0.324993,0.303016,0.321153,0.056474,-0.0,0.0,0.496904,-0.0,-0.0,0.049054,-0.026049,0.094332,0.401175,-0.04594,0.026515
292266,0.042601,-0.007839,0.001509,0.0,0.0,0.0,0.087266,0.0,0.0,3.0,0.343862,0.326076,0.309222,0.321712,0.066524,-0.0,0.0,0.510433,-0.0,-0.0,0.057169,-0.026671,0.09486,0.435958,-0.025012,0.026504
292286,0.052122,-0.008471,0.002172,0.0,0.0,0.0,0.087266,0.0,0.0,3.0,0.336526,0.327444,0.315421,0.322273,0.076794,-0.0,0.0,0.517267,-0.0,-0.0,0.066418,-0.027316,0.095397,0.48482,-0.021902,0.047857
292306,0.062745,-0.009228,0.002728,0.0,0.0,0.0,0.087266,0.0,0.0,3.0,0.328236,0.328901,0.322081,0.322863,0.087153,-0.0,0.0,0.517793,-0.0,-0.0,0.076766,-0.027951,0.096066,0.512692,-0.06358,0.028485
292326,0.074466,-0.010117,0.003423,0.0,0.0,0.0,0.087266,0.0,0.0,3.0,0.318285,0.331696,0.327798,0.324177,0.097478,-0.0,-0.0,0.512438,-0.0,-0.0,0.087932,-0.028818,0.096735,0.569277,-0.025936,0.031677
292346,0.086311,-0.011134,0.004133,0.0,0.0,0.0,0.087266,0.0,0.0,3.0,0.31238,0.33184,0.333822,0.323522,0.107654,-0.0,-0.0,0.501662,-0.0,0.0,0.099535,-0.029585,0.097325,0.590049,-0.067846,0.030128
292366,0.099017,-0.01191,0.004726,0.0,0.0,0.0,0.087266,0.0,0.0,3.0,0.304608,0.332441,0.34064,0.322968,0.117577,-0.0,-0.0,0.485951,-0.0,0.0,0.111734,-0.030601,0.097937,0.636284,-0.047083,0.02627
292386,0.111599,-0.013171,0.005232,0.0,0.0,0.0,0.087266,0.0,0.0,3.0,0.296051,0.335303,0.345189,0.322781,0.127151,-0.0,-0.0,0.465811,-0.0,0.0,0.124317,-0.031709,0.098531,0.635972,-0.075954,0.032216
292406,0.12456,-0.014437,0.005756,0.0,0.0,0.0,0.087266,0.0,0.0,3.0,0.286101,0.337273,0.350328,0.323636,0.136293,-0.0,0.0,0.441761,0.0,0.0,0.137292,-0.032998,0.09917,0.652824,-0.05141,0.031686
292426,0.137277,-0.015584,0.006285,0.0,0.0,0.0,0.087266,0.0,0.0,3.0,0.277943,0.337646,0.355658,0.323982,0.144927,-0.0,0.0,0.414325,0.0,0.0,0.150233,-0.03402,0.099684,0.615181,-0.051651,0.032206
292446,0.149631,-0.016592,0.006571,0.0,0.0,0.0,0.087266,0.0,0.0,3.0,0.272537,0.33728,0.361912,0.321487,0.15299,-0.0,0.0,0.38403,0.0,0.0,0.162829,-0.035275,0.099998,0.594108,-0.072068,0.030549
292466,0.161386,-0.017712,0.006753,0.0,0.0,0.0,0.087266,0.0,0.0,3.0,0.266259,0.337359,0.365903,0.321582,0.160429,-0.0,0.0,0.351396,0.0,0.0,0.174839,-0.036299,0.100289,0.591347,-0.046197,0.008378
292486,0.172403,-0.018452,0.006787,0.0,0.0,0.0,0.087266,0.0,0.0,3.0,0.263001,0.336067,0.370293,0.320168,0.167201,-0.0,0.0,0.316935,0.0,0.0,0.186128,-0.037163,0.100347,0.58446,-0.045677,0.005088
292506,0.182458,-0.019311,0.006832,0.0,0.0,0.0,0.087266,0.0,0.0,3.0,0.258417,0.336993,0.372905,0.319411,0.173273,-0.0,0.0,0.281143,0.0,0.0,0.196717,-0.038148,0.100403,0.532038,-0.024522,0.003248
292526,0.191277,-0.019897,0.006606,0.0,0.0,0.0,0.087266,0.0,0.0,3.0,0.254986,0.337757,0.374418,0.319232,0.178622,-0.0,0.0,0.244499,0.0,0.0,0.206199,-0.038983,0.100426,0.438215,-0.00568,-0.015924
292546,0.198763,-0.019993,0.006325,0.0,0.0,0.0,0.087266,0.0,0.0,3.0,0.254201,0.33547,0.377407,0.318541,0.183235,-0.0,0.0,0.207455,0.0,0.0,0.214565,-0.039359,0.100196,0.368379,0.002189,-0.020813
292566,0.204657,-0.020084,0.006029,0.0,0.0,0.0,0.087266,0.0,0.0,3.0,0.253485,0.334775,0.378243,0.318755,0.187106,-0.0,0.0,0.170442,0.0,0.0,0.22147,-0.039308,0.099878,0.276371,-0.002044,-0.017566
292586,0.208719,-0.020038,0.005583,0.0,0.0,0.0,0.087266,0.0,0.0,3.0,0.259565,0.331944,0.37957,0.315617,0.190239,-0.0,0.0,0.133857,0.0,0.0,0.226441,-0.039377,0.099365,0.20005,0.017688,-0.006956
292606,0.211057,-0.019867,0.005107,0.0,0.0,0.0,0.087266,0.0,0.0,3.0,0.260725,0.332449,0.378033,0.316154,0.192647,-0.0,0.0,0.09807,0.0,0.0,0.229786,-0.039339,0.099016,0.108323,0.019703,-0.025135
292626,0.211305,-0.019573,0.004598,0.0,0.0,0.0,0.087266,0.0,0.0,3.0,0.269213,0.329561,0.376514,0.314545,0.194346,-0.0,0.0,0.063415,0.0,0.0,0.230993,-0.039051,0.098414,0.003231,0.021433,-0.009304
292646,0.209965,-0.018901,0.003914,0.0,0.0,0.0,0.087266,0.0,0.0,3.0,0.274518,0.328908,0.372905,0.315481,0.195363,-0.0,0.0,0.03019,0.0,0.0,0.230338,-0.038522,0.097974,-0.077006,0.025194,-0.048032
292666,0.206533,-0.018378,0.003467,0.0,0.0,0.0,0.087266,0.0,0.0,3.0,0.280901,0.328712,0.368815,0.315433,0.195727,-0.0,0.0,-0.00134,0.0,0.0,0.22795,-0.037985,0.097417,-0.176755,0.023003,-0.02816
292686,0.201374,-0.017989,0.003141,0.0,0.0,0.0,0.087266,0.0,0.0,3.0,0.287518,0.328233,0.364652,0.315315,0.195475,-0.0,0.0,-0.030949,0.0,0.0,0.223821,-0.037462,0.096964,-0.270879,0.020737,-0.008046
292706,0.195121,-0.01725,0.002892,0.0,0.0,0.0,0.087266,0.0,0.0,3.0,0.292427,0.32812,0.359573,0.317175,0.194646,-0.0,0.0,-0.058445,0.0,0.0,0.218214,-0.036878,0.096719,-0.341633,0.048894,-0.007702
292726,0.187275,-0.016412,0.002867,0.0,0.0,0.0,0.087266,0.0,0.0,3.0,0.300412,0.32695,0.354086,0.317557,0.193285,-0.0,0.0,-0.083673,0.0,0.0,0.211019,-0.036015,0.096453,-0.372667,0.048759,-0.007611
292746,0.17796,-0.015683,0.002727,0.0,0.0,0.0,0.087266,0.0,0.0,3.0,0.308025,0.326634,0.347889,0.317802,0.191436,-0.0,0.0,-0.106515,0.0,0.0,0.202461,-0.035165,0.096304,-0.440342,0.004983,0.016789
292766,0.168036,-0.014731,0.002811,0.0,0.0,0.0,0.087266,0.0,0.0,3.0,0.312633,0.327633,0.341311,0.319634,0.189149,-0.0,0.0,-0.126884,0.0,0.0,0.193036,-0.034457,0.096411,-0.505995,0.048631,-0.008035
292786,0.157006,-0.013418,0.002991,0.0,0.0,0.0,0.087266,0.0,0.0,3.0,0.318783,0.327146,0.334202,0.321741,0.186474,-0.0,0.0,-0.14473,0.0,0.0,0.182656,-0.033255,0.096459,-0.535785,0.067578,0.015188
292806,0.145378,-0.012344,0.0032,0.0,0.0,0.0,0.087266,0.0,0.0,3.0,0.325077,0.327889,0.326722,0.322436,0.18346,-0.0,0.0,-0.16003,0.0,0.0,0.171424,-0.032187,0.096664,-0.58441,0.047198,0.017106
292826,0.133507,-0.011019,0.003405,0.0,0.0,0.0,0.087266,0.0,0.0,3.0,0.331332,0.327198,0.320403,0.323082,0.18016,-0.0,0.0,-0.172792,0.0,0.0,0.15969,-0.031111,0.096897,-0.587768,0.089516,0.010997
292846,0.121644,-0.009453,0.003732,0.0,0.0,0.0,0.087266,0.0,0.0,3.0,0.336068,0.327401,0.31206,0.326012,0.176623,-0.0,0.0,-0.183052,0.0,0.0,0.147571,-0.029544,0.097195,-0.586059,0.068335,0.01717
292866,0.109659,-0.008489,0.004112,0.0,0.0,0.0,0.087266,0.0,0.0,3.0,0.341432,0.328276,0.304215,0.326742,0.1729,-0.0,0.0,-0.190869,0.0,0.0,0.135358,-0.028201,0.097543,-0.568846,0.023051,0.020651
292886,0.098048,-0.006909,0.004475,0.0,0.0,0.0,0.087266,0.0,0.0,3.0,0.345784,0.326832,0.298023,0.329056,0.169038,0.0,0.0,-0.196326,0.0,0.0,0.123504,-0.026779,0.097906,-0.54917,0.072766,0.018612
292906,0.086564,-0.005811,0.004878,0.0,0.0,0.0,0.087266,0.0,0.0,3.0,0.349748,0.328171,0.291156,0.32935,0.165084,0.0,0.0,-0.199525,0.0,0.0,0.112036,-0.025529,0.098294,-0.57324,0.04489,0.020706
292926,0.075936,-0.004337,0.005159,0.0,0.0,0.0,0.087266,0.0,0.0,3.0,0.352036,0.327222,0.286821,0.33141,0.161082,0.0,0.0,-0.200586,0.0,0.0,0.101096,-0.024238,0.098697,-0.537505,0.077394,0.020085
292946,0.066047,-0.003358,0.005718,0.0,0.0,0.0,0.087266,0.0,0.0,3.0,0.353348,0.328979,0.2812,0.332783,0.157075,0.0,0.0,-0.199642,0.0,0.0,0.090929,-0.022977,0.099099,-0.509529,0.049033,0.025697
292966,0.057497,-0.00225,0.006161,0.0,0.0,0.0,0.087266,0.0,0.0,3.0,0.356294,0.328264,0.279057,0.331961,0.1531,0.0,0.0,-0.196841,0.0,0.0,0.081475,-0.022112,0.099439,-0.435007,0.069786,0.042926
292986,0.050053,-0.001013,0.006368,0.0,0.0,0.0,0.087266,0.0,0.0,3.0,0.358297,0.326668,0.278121,0.332052,0.149195,0.0,0.0,-0.19234,0.0,0.0,0.073389,-0.021019,0.099783,-0.386497,0.074224,0.018629
293006,0.043951,-0.000148,0.006713,0.0,0.0,0.0,0.087266,0.0,0.0,3.0,0.358323,0.327863,0.275246,0.333078,0.145391,0.0,0.0,-0.186303,0.0,0.0,0.066423,-0.020014,0.100122,-0.278706,0.070253,0.019086
293026,0.039558,0.000717,0.006941,0.0,0.0,0.0,0.087266,0.0,0.0,3.0,0.357309,0.328707,0.275519,0.333156,0.141718,0.0,0.0,-0.178898,0.0,0.0,0.061131,-0.019237,0.100471,-0.205504,0.063121,-0.001478
293046,0.036506,0.001211,0.007177,0.0,0.0,0.0,0.087266,0.0,0.0,3.0,0.355879,0.328743,0.277037,0.333517,0.138203,0.0,0.0,-0.170299,0.0,0.0,0.05741,-0.018516,0.100703,-0.171055,0.024872,-0.000819
293066,0.035287,0.001702,0.007291,0.0,0.0,0.0,0.087266,0.0,0.0,3.0,0.352863,0.329038,0.279411,0.334651,0.134868,0.0,0.0,-0.160679,0.0,0.0,0.055294,-0.017901,0.100917,-0.076788,0.024423,0.003223
293086,0.035411,0.002063,0.007529,0.0,0.0,0.0,0.087266,0.0,0.0,3.0,0.350773,0.328556,0.283539,0.33411,0.131732,0.0,0.0,-0.150209,0.0,0.0,0.054764,-0.017395,0.101049,-0.003593,0.020538,-0.000465
293106,0.036632,0.00218,0.007525,0.0,0.0,0.0,0.087266,0.0,0.0,3.0,0.348504,0.328196,0.287204,0.333927,0.12881,0.0,0.0,-0.13906,0.0,0.0,0.055469,-0.017053,0.101163,0.066002,0.003301,-0.000314
293126,0.039319,0.001924,0.007649,0.0,0.0,0.0,0.087266,0.0,0.0,3.0,0.344349,0.3295,0.291042,0.33387,0.126116,0.0,0.0,-0.127396,0.0,0.0,0.057502,-0.017047,0.101284,0.118375,-0.021425,0.000121
293146,0.042858,0.001785,0.007769,0.0,0.0,0.0,0.087266,0.0,0.0,3.0,0.341213,0.329242,0.296261,0.332998,0.123657,0.0,0.0,-0.115376,0.0,0.0,0.060608,-0.017304,0.101283,0.174813,-0.000939,0.020728
293166,0.047375,0.001524,0.00777,0.0,0.0,0.0,0.087266,0.0,0.0,3.0,0.338157,0.329452,0.301177,0.331691,0.121441,0.0,0.0,-0.103153,0.0,0.0,0.064607,-0.01767,0.101286,0.223845,0.016148,0.020374
293186,0.052625,0.001384,0.007646,0.0,0.0,0.0,0.087266,0.0,0.0,3.0,0.335073,0.328767,0.305144,0.332009,0.11947,0.0,0.0,-0.090869,0.0,0.0,0.069373,-0.017846,0.101285,0.265199,0.024014,-0.000866
293206,0.05861,0.001239,0.007645,0.0,0.0,0.0,0.087266,0.0,0.0,3.0,0.330674,0.329791,0.308571,0.332334,0.117745,0.0,0.0,-0.07866,0.0,0.0,0.074854,-0.017952,0.101284,0.310254,-0.004802,-0.000265
293226,0.065202,0.000847,0.007651,0.0,0.0,0.0,0.087266,0.0,0.0,3.0,0.326343,0.330934,0.312892,0.331519,0.116262,0.0,0.0,-0.066648,0.0,0.0,0.081065,-0.018468,0.101293,0.356141,0.01619,-0.000667
293246,0.072162,0.000337,0.007542,0.0,0.0,0.0,0.087266,0.0,0.0,3.0,0.322749,0.329979,0.319259,0.329992,0.115017,0.0,0.0,-0.054949,0.0,0.0,0.087975,-0.018838,0.101196,0.346184,0.012506,-0.004274
293266,0.079371,-0.000173,0.007437,0.0,0.0,0.0,0.087266,0.0,0.0,3.0,0.317761,0.330706,0.322233,0.331187,0.114004,0.0,0.0,-0.043663,0.0,0.0,0.095061,-0.019125,0.101185,0.366711,-0.04598,-0.019246
293286,0.08682,-0.000562,0.007329,0.0,0.0,0.0,0.087266,0.0,0.0,3.0,0.313339,0.330587,0.326586,0.331214,0.113212,0.0,0.0,-0.032882,0.0,0.0,0.102517,-0.019512,0.101076,0.386712,-0.047026,0.001756
293306,0.094395,-0.001315,0.007241,0.0,0.0,0.0,0.087266,0.0,0.0,3.0,0.309494,0.331364,0.330546,0.330053,0.112632,0.0,0.0,-0.022685,0.0,0.0,0.110088,-0.020129,0.100978,0.36651,-0.050542,0.002517
293326,0.102214,-0.002069,0.007159,0.0,0.0,0.0,0.087266,0.0,0.0,3.0,0.306829,0.329925,0.335775,0.328621,0.112251,0.0,0.0,-0.01314,0.0,0.0,0.117646,-0.020773,0.100784,0.391271,-0.025562,-0.00217
293346,0.109788,-0.003057,0.006973,0.0,0.0,0.0,0.087266,0.0,0.0,3.0,0.301763,0.330745,0.339216,0.328788,0.112056,0.0,0.0,-0.004302,0.0,0.0,0.125452,-0.021403,0.10068,0.372944,-0.06619,-0.017171
293366,0.117247,-0.004042,0.006796,0.0,0.0,0.0,0.087266,0.0,0.0,3.0,0.299021,0.331928,0.341815,0.327283,0.112031,0.0,0.0,0.003784,0.0,0.0,0.132815,-0.022637,0.100511,0.387843,-0.04475,-0.017687
293386,0.124456,-0.005017,0.006502,0.0,0.0,0.0,0.087266,0.0,0.0,3.0,0.295474,0.332539,0.344938,0.326434,0.112163,0.0,0.0,0.011084,0.0,-0.0,0.140151,-0.023724,0.100342,0.365795,-0.027463,-0.018616
293406,0.131307,-0.005988,0.006216,0.0,0.0,0.0,0.087266,0.0,0.0,3.0,0.293019,0.332641,0.348108,0.325016,0.112435,0.0,0.0,0.017578,0.0,-0.0,0.147274,-0.024821,0.100059,0.33862,-0.027198,-0.018013
293426,0.137419,-0.007189,0.005828,0.0,0.0,0.0,0.087266,0.0,0.0,3.0,0.292606,0.332225,0.351266,0.322303,0.11283,0.0,0.0,0.02325,0.0,-0.0,0.153772,-0.026009,0.099686,0.314404,-0.030492,-0.021257
