time_ms,roll,pitch,yaw,x,y,z,reference_roll,reference_pitch,reference_yaw,reference_throttle,throttle_1,throttle_2,throttle_3,throttle_4,roll_predicted,pitch_predicted,yaw_predicted,roll_rate_predicted,pitch_rate_predicted,yaw_rate_predicted,value1,value2,value3,value4,value5,value6
623100,0.006226,-0.000245,0.000245,0.0,0.0,0.0,0.0,0.0,0.0,3.0,0.295378,0.353601,0.288962,0.355956,-0.000292,-0.0,-8e-06,0.000109,0.0,1e-06,0.0,0.0,0.0,0.0,0.0,0.0
623120,0.006348,-0.000245,0.000245,0.0,0.0,0.0,0.0,0.0,0.0,3.0,0.29179,0.352847,0.290653,0.358175,-0.000291,-0.0,-8e-06,0.000109,0.0,1e-06,0.0,0.0,0.0,0.0,0.0,0.0
623140,0.006348,-0.000245,0.000245,0.0,0.0,0.0,0.0,0.0,0.0,3.0,0.294717,0.350968,0.292635,0.356278,-0.000289,-0.0,-8e-06,0.000108,0.0,1e-06,0.0,0.0,0.0,0.0,0.0,0.0
623160,0.006226,-0.000245,0.000245,0.0,0.0,0.0,0.0,0.0,0.0,3.0,0.295076,0.352402,0.290552,0.356176,-0.000287,-0.0,-8e-06,0.000107,0.0,1e-06,0.0,0.0,0.0,0.0,0.0,0.0
623180,0.006104,-0.000367,0.000367,0.0,0.0,0.0,0.0,0.0,0.0,3.0,0.290723,0.354992,0.287139,0.359485,-0.000284,-0.0,-8e-06,0.000106,0.0,1e-06,0.0,0.0,0.0,0.0,0.0,0.0
623200,0.006104,-0.00049,0.00049,0.0,0.0,0.0,0.0,0.0,0.0,3.0,0.293407,0.355442,0.287063,0.357065,-0.000282,-0.0,-8e-06,0.000105,0.0,1e-06,0.0,0.0,0.0,0.0,0.0,0.0
623220,0.006104,-0.00049,0.00049,0.0,0.0,0.0,0.0,0.0,0.0,3.0,0.297206,0.349934,0.292465,0.355484,-0.00028,-0.0,-8e-06,0.000105,0.0,1e-06,0.0,0.0,0.0,0.0,0.0,0.0
623240,0.005982,-0.000489,0.000368,0.0,0.0,0.0,0.0,0.0,0.0,3.0,0.299214,0.349682,0.294051,0.352918,-0.000278,-0.0,-8e-06,0.000104,0.0,1e-06,0.0,0.0,0.0,0.0,0.0,0.0
623260,0.005982,-0.00049,0.00049,0.0,0.0,0.0,0.0,0.0,0.0,3.0,0.29757,0.351653,0.291224,0.354457,-0.000275,-0.0,-8e-06,0.000103,0.0,1e-06,0.0,0.0,0.0,0.0,0.0,0.0
623280,0.006104,-0.000368,0.000612,0.0,0.0,0.0,0.0,0.0,0.0,3.0,0.291378,0.354406,0.288876,0.358284,-0.000274,-0.0,-8e-06,0.000102,0.0,1e-06,0.0,0.0,0.0,0.0,0.0,0.0
623300,0.006104,-0.000368,0.000612,0.0,0.0,0.0,0.0,0.0,0.0,3.0,0.295094,0.353216,0.289531,0.356129,-0.000271,-0.0,-8e-06,0.000101,0.0,1e-06,0.0,0.0,0.0,0.0,0.0,0.0
623320,0.006104,-0.000368,0.000612,0.0,0.0,0.0,0.0,0.0,0.0,3.0,0.295408,0.352047,0.290814,0.35607,-0.00027,-0.0,-8e-06,0.000101,0.0,1e-06,0.0,0.0,0.0,0.0,0.0,0.0
623340,0.006226,-0.000246,0.000611,0.0,0.0,0.0,0.0,0.0,0.0,3.0,0.289383,0.35485,0.288575,0.359565,-0.000268,-0.0,-8e-06,0.0001,0.0,1e-06,0.0,0.0,0.0,0.0,0.0,0.0
623360,0.006226,-0.000124,0.000733,0.0,0.0,0.0,0.0,0.0,0.0,3.0,0.29436,0.351497,0.292403,0.356212,-0.000266,-0.0,-8e-06,9.9e-05,0.0,1e-06,0.0,0.0,0.0,0.0,0.0,0.0
623380,0.006226,-0.000124,0.000611,0.0,0.0,0.0,0.0,0.0,0.0,3.0,0.296135,0.35181,0.290692,0.355831,-0.000263,-0.0,-8e-06,9.8e-05,0.0,1e-06,0.0,0.0,0.0,0.0,0.0,0.0
623400,0.006104,-2e-06,0.00061,0.0,0.0,0.0,0.0,0.0,0.0,3.0,0.294442,0.352563,0.29004,0.356893,-0.000262,-0.0,-8e-06,9.8e-05,0.0,1e-06,0.0,0.0,0.0,0.0,0.0,0.0
623420,0.006104,-3e-06,0.000855,0.0,0.0,0.0,0.0,0.0,0.0,3.0,0.291136,0.35446,0.287122,0.35971,-0.00026,-0.0,-8e-06,9.7e-05,0.0,1e-06,0.0,0.0,0.0,0.0,0.0,0.0
623440,0.006104,0.000242,0.000854,0.0,0.0,0.0,0.0,0.0,0.0,3.0,0.29458,0.352754,0.288391,0.357835,-0.000258,-0.0,-8e-06,9.6e-05,0.0,1e-06,0.0,0.0,0.0,0.0,0.0,0.0
623460,0.006104,0.000242,0.000732,0.0,0.0,0.0,0.0,0.0,0.0,3.0,0.299247,0.349726,0.292955,0.353698,-0.000256,-0.0,-7e-06,9.6e-05,0.0,1e-06,0.0,0.0,0.0,0.0,0.0,0.0
623480,0.006226,0.000364,0.000853,0.0,0.0,0.0,0.0,0.0,0.0,3.0,0.294338,0.351367,0.290487,0.357808,-0.000254,-0.0,-7e-06,9.5e-05,0.0,1e-06,0.0,0.0,0.0,0.0,0.0,0.0
623500,0.006226,0.000485,0.000975,0.0,0.0,0.0,0.0,0.0,0.0,3.0,0.290798,0.354191,0.287911,0.359647,-0.000252,-0.0,-7e-06,9.4e-05,0.0,1e-06,0.0,0.0,0.0,0.0,0.0,0.0
623520,0.006226,0.000607,0.000975,0.0,0.0,0.0,0.0,0.0,0.0,3.0,0.291534,0.353356,0.288446,0.359517,-0.00025,-0.0,-7e-06,9.4e-05,0.0,1e-06,0.0,0.0,0.0,0.0,0.0,0.0
623540,0.00647,0.000729,0.000974,0.0,0.0,0.0,0.0,0.0,0.0,3.0,0.29362,0.35232,0.291279,0.356827,-0.000249,-0.0,-7e-06,9.3e-05,0.0,1e-06,0.0,0.0,0.0,0.0,0.0,0.0
623560,0.006348,0.000729,0.000974,0.0,0.0,0.0,0.0,0.0,0.0,3.0,0.292372,0.352557,0.289218,0.359093,-0.000247,-0.0,-7e-06,9.2e-05,0.0,1e-06,0.0,0.0,0.0,0.0,0.0,0.0
623580,0.006348,0.000851,0.001096,0.0,0.0,0.0,0.0,0.0,0.0,3.0,0.294746,0.352171,0.288731,0.358024,-0.000244,-0.0,-7e-06,9.1e-05,0.0,1e-06,0.0,0.0,0.0,0.0,0.0,0.0
623600,0.006349,0.000851,0.001218,0.0,0.0,0.0,0.0,0.0,0.0,3.0,0.294952,0.351623,0.289679,0.357693,-0.000243,-0.0,-7e-06,9.1e-05,0.0,1e-06,0.0,0.0,0.0,0.0,0.0,0.0
623620,0.006349,0.000851,0.001218,0.0,0.0,0.0,0.0,0.0,0.0,3.0,0.294226,0.352152,0.28976,0.357672,-0.000241,-0.0,-7e-06,9e-05,0.0,1e-06,0.0,0.0,0.0,0.0,0.0,0.0
623640,0.006349,0.000851,0.001218,0.0,0.0,0.0,0.0,0.0,0.0,3.0,0.294684,0.352202,0.28964,0.357362,-0.000239,-0.0,-7e-06,8.9e-05,0.0,1e-06,0.0,0.0,0.0,0.0,0.0,0.0
623660,0.006349,0.000728,0.001341,0.0,0.0,0.0,0.0,0.0,0.0,3.0,0.29127,0.355796,0.286164,0.358999,-0.000238,-0.0,-7e-06,8.9e-05,0.0,1e-06,0.0,0.0,0.0,0.0,0.0,0.0
623680,0.006226,0.000728,0.001341,0.0,0.0,0.0,0.0,0.0,0.0,3.0,0.29526,0.352663,0.288462,0.357348,-0.000235,-0.0,-7e-06,8.8e-05,0.0,1e-06,0.0,0.0,0.0,0.0,0.0,0.0
623700,0.006348,0.000606,0.001463,0.0,0.0,0.0,0.0,0.0,0.0,3.0,0.290232,0.355257,0.286801,0.35984,-0.000234,-0.0,-7e-06,8.7e-05,0.0,1e-06,0.0,0.0,0.0,0.0,0.0,0.0
623720,0.006226,0.000484,0.001464,0.0,0.0,0.0,0.0,0.0,0.0,3.0,0.294476,0.35342,0.288629,0.357081,-0.000232,-0.0,-7e-06,8.7e-05,0.0,1e-06,0.0,0.0,0.0,0.0,0.0,0.0
623740,0.006226,0.000361,0.001586,0.0,0.0,0.0,0.0,0.0,0.0,3.0,0.293067,0.354422,0.286762,0.358556,-0.00023,-0.0,-7e-06,8.6e-05,0.0,1e-06,0.0,0.0,0.0,0.0,0.0,0.0
623760,0.006226,0.000361,0.001586,0.0,0.0,0.0,0.0,0.0,0.0,3.0,0.293345,0.352221,0.288783,0.359006,-0.000228,-0.0,-7e-06,8.5e-05,0.0,1e-06,0.0,0.0,0.0,0.0,0.0,0.0
623780,0.006226,0.000117,0.001587,0.0,0.0,0.0,0.0,0.0,0.0,3.0,0.293592,0.352987,0.28945,0.35757,-0.000227,-0.0,-7e-06,8.5e-05,0.0,1e-06,0.0,0.0,0.0,0.0,0.0,0.0
623800,0.006104,-5e-06,0.001709,0.0,0.0,0.0,0.0,0.0,0.0,3.0,0.293083,0.35386,0.287975,0.3582,-0.000225,-0.0,-7e-06,8.4e-05,0.0,1e-06,0.0,0.0,0.0,0.0,0.0,0.0
623820,0.005982,-0.000249,0.00171,0.0,0.0,0.0,0.0,0.0,0.0,3.0,0.292732,0.355623,0.28808,0.356644,-0.000224,-0.0,-7e-06,8.4e-05,0.0,1e-06,0.0,0.0,0.0,0.0,0.0,0.0
623840,0.006104,-0.00025,0.001832,0.0,0.0,0.0,0.0,0.0,0.0,3.0,0.289943,0.357209,0.285646,0.358973,-0.000222,-0.0,-7e-06,8.3e-05,0.0,1e-06,0.0,0.0,0.0,0.0,0.0,0.0
623860,0.006103,-0.000494,0.001833,0.0,0.0,0.0,0.0,0.0,0.0,3.0,0.293137,0.355217,0.288666,0.3563,-0.00022,-0.0,-7e-06,8.2e-05,0.0,1e-06,0.0,0.0,0.0,0.0,0.0,0.0
623880,0.006225,-0.000494,0.001955,0.0,0.0,0.0,0.0,0.0,0.0,3.0,0.291797,0.356204,0.286723,0.357785,-0.000219,-0.0,-7e-06,8.2e-05,0.0,1e-06,0.0,0.0,0.0,0.0,0.0,0.0
623900,0.006225,-0.000616,0.001955,0.0,0.0,0.0,0.0,0.0,0.0,3.0,0.292809,0.352159,0.288946,0.359352,-0.000217,-0.0,-7e-06,8.1e-05,0.0,1e-06,0.0,0.0,0.0,0.0,0.0,0.0
623920,0.006347,-0.000617,0.002077,0.0,0.0,0.0,0.0,0.0,0.0,3.0,0.289607,0.353804,0.287762,0.361021,-0.000215,-0.0,-7e-06,8e-05,0.0,1e-06,0.0,0.0,0.0,0.0,0.0,0.0
623940,0.006347,-0.000739,0.002078,0.0,0.0,0.0,0.0,0.0,0.0,3.0,0.29242,0.353172,0.288734,0.358815,-0.000214,-0.0,-7e-06,8e-05,0.0,1e-06,0.0,0.0,0.0,0.0,0.0,0.0
623960,0.006469,-0.000617,0.0022,0.0,0.0,0.0,0.0,0.0,0.0,3.0,0.292985,0.354657,0.288329,0.357224,-0.000212,-0.0,-7e-06,7.9e-05,0.0,1e-06,0.0,0.0,0.0,0.0,0.0,0.0
623980,0.006592,-0.000496,0.002199,0.0,0.0,0.0,0.0,0.0,0.0,3.0,0.290436,0.352527,0.289355,0.360472,-0.00021,-0.0,-7e-06,7.9e-05,0.0,1e-06,0.0,0.0,0.0,0.0,0.0,0.0
624000,0.006592,-0.000373,0.002199,0.0,0.0,0.0,0.0,0.0,0.0,3.0,0.292754,0.35529,0.287991,0.357026,-0.000209,-0.0,-7e-06,7.8e-05,0.0,1e-06,0.0,0.0,0.0,0.0,0.0,0.0
624020,0.006714,-0.000374,0.002199,0.0,0.0,0.0,0.0,0.0,0.0,3.0,0.291285,0.354874,0.289611,0.357343,-0.000208,-0.0,-7e-06,7.8e-05,0.0,1e-06,0.0,0.0,0.0,0.0,0.0,0.0
624040,0.006714,-0.000252,0.002198,0.0,0.0,0.0,0.0,0.0,0.0,3.0,0.291492,0.353587,0.289414,0.358603,-0.000206,-0.0,-7e-06,7.7e-05,0.0,1e-06,0.0,0.0,0.0,0.0,0.0,0.0
624060,0.006592,-0.000129,0.002198,0.0,0.0,0.0,0.0,0.0,0.0,3.0,0.293231,0.353207,0.287629,0.358985,-0.000204,-0.0,-7e-06,7.6e-05,0.0,1e-06,0.0,0.0,0.0,0.0,0.0,0.0
624080,0.006592,-0.000129,0.002198,0.0,0.0,0.0,0.0,0.0,0.0,3.0,0.292314,0.354187,0.28852,0.358058,-0.000203,-0.0,-7e-06,7.6e-05,0.0,1e-06,0.0,0.0,0.0,0.0,0.0,0.0
624100,0.00647,-7e-06,0.002198,0.0,0.0,0.0,0.0,0.0,0.0,3.0,0.293433,0.353983,0.287354,0.358273,-0.000201,-0.0,-7e-06,7.5e-05,0.0,1e-06,0.0,0.0,0.0,0.0,0.0,0.0
624120,0.00647,0.000115,0.002197,0.0,0.0,0.0,0.0,0.0,0.0,3.0,0.29235,0.35382,0.288444,0.358447,-0.0002,-0.0,-7e-06,7.5e-05,0.0,1e-06,0.0,0.0,0.0,0.0,0.0,0.0
624140,0.00647,0.000115,0.002197,0.0,0.0,0.0,0.0,0.0,0.0,3.0,0.289961,0.356444,0.285877,0.359548,-0.000198,-0.0,-7e-06,7.4e-05,0.0,1e-06,0.0,0.0,0.0,0.0,0.0,0.0
624160,0.006592,0.000237,0.002075,0.0,0.0,0.0,0.0,0.0,0.0,3.0,0.292062,0.352705,0.290127,0.358503,-0.000197,-0.0,-7e-06,7.4e-05,0.0,1e-06,0.0,0.0,0.0,0.0,0.0,0.0
624180,0.006714,0.000238,0.001953,0.0,0.0,0.0,0.0,0.0,0.0,3.0,0.292407,0.354423,0.289927,0.356699,-0.000195,-0.0,-7e-06,7.3e-05,0.0,1e-06,0.0,0.0,0.0,0.0,0.0,0.0
624200,0.006837,0.00036,0.001952,0.0,0.0,0.0,0.0,0.0,0.0,3.0,0.292215,0.354488,0.28931,0.357244,-0.000194,-0.0,-7e-06,7.2e-05,0.0,1e-06,0.0,0.0,0.0,0.0,0.0,0.0
624220,0.006837,0.000482,0.00183,0.0,0.0,0.0,0.0,0.0,0.0,3.0,0.292746,0.350512,0.290817,0.359603,-0.000193,-0.0,-7e-06,7.2e-05,0.0,1e-06,0.0,0.0,0.0,0.0,0.0,0.0
624240,0.006959,0.000604,0.001707,0.0,0.0,0.0,0.0,0.0,0.0,3.0,0.295518,0.352541,0.291568,0.354922,-0.000191,-0.0,-7e-06,7.1e-05,0.0,1e-06,0.0,0.0,0.0,0.0,0.0,0.0
624260,0.007081,0.000848,0.001706,0.0,0.0,0.0,0.0,0.0,0.0,3.0,0.293287,0.354129,0.289202,0.356864,-0.000189,-0.0,-7e-06,7.1e-05,0.0,1e-06,0.0,0.0,0.0,0.0,0.0,0.0
624280,0.007203,0.00097,0.001706,0.0,0.0,0.0,0.0,0.0,0.0,3.0,0.292266,0.354148,0.288311,0.358287,-0.000188,-0.0,-7e-06,7e-05,0.0,1e-06,0.0,0.0,0.0,0.0,0.0,0.0
624300,0.007203,0.000971,0.001584,0.0,0.0,0.0,0.0,0.0,0.0,3.0,0.29371,0.354286,0.289521,0.356143,-0.000187,-0.0,-6e-06,7e-05,0.0,1e-06,0.0,0.0,0.0,0.0,0.0,0.0
624320,0.007203,0.000971,0.001584,0.0,0.0,0.0,0.0,0.0,0.0,3.0,0.293364,0.354839,0.289177,0.356119,-0.000185,-0.0,-6e-06,6.9e-05,0.0,1e-06,0.0,0.0,0.0,0.0,0.0,0.0
624340,0.007203,0.001215,0.001461,0.0,0.0,0.0,0.0,0.0,0.0,3.0,0.293963,0.348949,0.290678,0.36029,-0.000184,-0.0,-6e-06,6.9e-05,0.0,1e-06,0.0,0.0,0.0,0.0,0.0,0.0
624360,0.007325,0.001216,0.001339,0.0,0.0,0.0,0.0,0.0,0.0,3.0,0.290398,0.352779,0.289421,0.360207,-0.000183,-0.0,-6e-06,6.8e-05,0.0,1e-06,0.0,0.0,0.0,0.0,0.0,0.0
624380,0.007326,0.001338,0.001338,0.0,0.0,0.0,0.0,0.0,0.0,3.0,0.29375,0.353727,0.289806,0.356453,-0.000181,-0.0,-6e-06,6.8e-05,0.0,1e-06,0.0,0.0,0.0,0.0,0.0,0.0
624400,0.007325,0.001216,0.001339,0.0,0.0,0.0,0.0,0.0,0.0,3.0,0.293582,0.354773,0.289648,0.355662,-0.00018,-0.0,-6e-06,6.7e-05,0.0,1e-06,0.0,0.0,0.0,0.0,0.0,0.0
624420,0.007325,0.001338,0.001216,0.0,0.0,0.0,0.0,0.0,0.0,3.0,0.295134,0.353446,0.289257,0.356076,-0.000178,-0.0,-6e-06,6.7e-05,0.0,1e-06,0.0,0.0,0.0,0.0,0.0,0.0
624440,0.007448,0.001338,0.001216,0.0,0.0,0.0,0.0,0.0,0.0,3.0,0.293615,0.353689,0.290037,0.35642,-0.000177,-0.0,-6e-06,6.6e-05,0.0,1e-06,0.0,0.0,0.0,0.0,0.0,0.0
624460,0.007447,0.001339,0.001094,0.0,0.0,0.0,0.0,0.0,0.0,3.0,0.296229,0.35146,0.292574,0.354665,-0.000176,-0.0,-6e-06,6.6e-05,0.0,1e-06,0.0,0.0,0.0,0.0,0.0,0.0
624480,0.007447,0.001217,0.001094,0.0,0.0,0.0,0.0,0.0,0.0,3.0,0.292901,0.350155,0.291778,0.359109,-0.000175,-0.0,-6e-06,6.5e-05,0.0,1e-06,0.0,0.0,0.0,0.0,0.0,0.0
624500,0.007447,0.001339,0.000972,0.0,0.0,0.0,0.0,0.0,0.0,3.0,0.294548,0.352686,0.290626,0.356247,-0.000173,-0.0,-6e-06,6.5e-05,0.0,1e-06,0.0,0.0,0.0,0.0,0.0,0.0
624520,0.007569,0.001218,0.00085,0.0,0.0,0.0,0.0,0.0,0.0,3.0,0.292462,0.351126,0.292059,0.358288,-0.000172,-0.0,-6e-06,6.4e-05,0.0,1e-06,0.0,0.0,0.0,0.0,0.0,0.0
624540,0.007569,0.00134,0.00085,0.0,0.0,0.0,0.0,0.0,0.0,3.0,0.294277,0.352895,0.290846,0.356084,-0.000171,-0.0,-6e-06,6.4e-05,0.0,1e-06,0.0,0.0,0.0,0.0,0.0,0.0
624560,0.007569,0.001218,0.00085,0.0,0.0,0.0,0.0,0.0,0.0,3.0,0.294066,0.35385,0.290644,0.355452,-0.000169,-0.0,-6e-06,6.3e-05,0.0,1e-06,0.0,0.0,0.0,0.0,0.0,0.0
624580,0.007569,0.001462,0.000727,0.0,0.0,0.0,0.0,0.0,0.0,3.0,0.294097,0.349633,0.29269,0.358013,-0.000168,-0.0,-6e-06,6.3e-05,0.0,1e-06,0.0,0.0,0.0,0.0,0.0,0.0
624600,0.007691,0.001218,0.000606,0.0,0.0,0.0,0.0,0.0,0.0,3.0,0.297268,0.350652,0.294631,0.353052,-0.000167,-0.0,-6e-06,6.2e-05,0.0,1e-06,0.0,0.0,0.0,0.0,0.0,0.0
624620,0.007569,0.001341,0.000605,0.0,0.0,0.0,0.0,0.0,0.0,3.0,0.290962,0.352911,0.288511,0.360332,-0.000166,-0.0,-6e-06,6.2e-05,0.0,1e-06,0.0,0.0,0.0,0.0,0.0,0.0
624640,0.007691,0.001218,0.000606,0.0,0.0,0.0,0.0,0.0,0.0,3.0,0.294267,0.350262,0.291712,0.358015,-0.000165,-0.0,-6e-06,6.2e-05,0.0,1e-06,0.0,0.0,0.0,0.0,0.0,0.0
624660,0.007569,0.001463,0.000483,0.0,0.0,0.0,0.0,0.0,0.0,3.0,0.298015,0.349542,0.292634,0.355102,-0.000163,-0.0,-6e-06,6.1e-05,0.0,1e-06,0.0,0.0,0.0,0.0,0.0,0.0
624680,0.007691,0.001341,0.000483,0.0,0.0,0.0,0.0,0.0,0.0,3.0,0.294542,0.352733,0.291584,0.355477,-0.000162,-0.0,-6e-06,6.1e-05,0.0,1e-06,0.0,0.0,0.0,0.0,0.0,0.0
624700,0.007691,0.001585,0.000482,0.0,0.0,0.0,0.0,0.0,0.0,3.0,0.294467,0.351714,0.2914,0.356679,-0.000161,-0.0,-6e-06,6e-05,0.0,1e-06,0.0,0.0,0.0,0.0,0.0,0.0
624720,0.007691,0.001585,0.000482,0.0,0.0,0.0,0.0,0.0,0.0,3.0,0.293646,0.352393,0.290587,0.357258,-0.00016,-0.0,-6e-06,6e-05,0.0,1e-06,0.0,0.0,0.0,0.0,0.0,0.0
624740,0.007691,0.001708,0.00036,0.0,0.0,0.0,0.0,0.0,0.0,3.0,0.294971,0.35118,0.29196,0.356389,-0.000158,-0.0,-6e-06,5.9e-05,0.0,1e-06,0.0,0.0,0.0,0.0,0.0,0.0
624760,0.007691,0.001708,0.000238,0.0,0.0,0.0,0.0,0.0,0.0,3.0,0.29441,0.348852,0.293959,0.357563,-0.000157,-0.0,-6e-06,5.9e-05,0.0,1e-06,0.0,0.0,0.0,0.0,0.0,0.0
624780,0.007569,0.001953,0.000115,0.0,0.0,0.0,0.0,0.0,0.0,3.0,0.297975,0.34875,0.294648,0.354354,-0.000156,-0.0,-6e-06,5.8e-05,0.0,1e-06,0.0,0.0,0.0,0.0,0.0,0.0
624800,0.007569,0.001831,0.000115,0.0,0.0,0.0,0.0,0.0,0.0,3.0,0.295624,0.35128,0.291705,0.355979,-0.000155,-0.0,-6e-06,5.8e-05,0.0,1e-06,0.0,0.0,0.0,0.0,0.0,0.0
624820,0.007447,0.001953,0.000115,0.0,0.0,0.0,0.0,0.0,0.0,3.0,0.295535,0.351045,0.291469,0.356458,-0.000154,-0.0,-6e-06,5.7e-05,0.0,1e-06,0.0,0.0,0.0,0.0,0.0,0.0
624840,0.007447,0.001953,-7e-06,0.0,0.0,0.0,0.0,0.0,0.0,3.0,0.297242,0.347794,0.29653,0.354396,-0.000153,-0.0,-6e-06,5.7e-05,0.0,1e-06,0.0,0.0,0.0,0.0,0.0,0.0
624860,0.007325,0.002075,-8e-06,0.0,0.0,0.0,0.0,0.0,0.0,3.0,0.295551,0.350723,0.292024,0.356339,-0.000151,-0.0,-6e-06,5.7e-05,0.0,1e-06,0.0,0.0,0.0,0.0,0.0,0.0
624880,0.007447,0.002075,-8e-06,0.0,0.0,0.0,0.0,0.0,0.0,3.0,0.291735,0.353114,0.29002,0.35843,-0.00015,-0.0,-6e-06,5.6e-05,0.0,1e-06,0.0,0.0,0.0,0.0,0.0,0.0
624900,0.007324,0.002198,-0.00013,0.0,0.0,0.0,0.0,0.0,0.0,3.0,0.295795,0.350441,0.292418,0.356125,-0.000149,-0.0,-6e-06,5.6e-05,0.0,1e-06,0.0,0.0,0.0,0.0,0.0,0.0
624920,0.007324,0.002198,-0.000252,0.0,0.0,0.0,0.0,0.0,0.0,3.0,0.296739,0.350039,0.293024,0.355319,-0.000148,-0.0,-6e-06,5.5e-05,0.0,1e-06,0.0,0.0,0.0,0.0,0.0,0.0
624940,0.007446,0.00232,-0.000253,0.0,0.0,0.0,0.0,0.0,0.0,3.0,0.295361,0.350706,0.292893,0.355839,-0.000147,-0.0,-6e-06,5.5e-05,0.0,1e-06,0.0,0.0,0.0,0.0,0.0,0.0
624960,0.007568,0.002442,-0.000253,0.0,0.0,0.0,0.0,0.0,0.0,3.0,0.291848,0.351777,0.29072,0.359126,-0.000146,-0.0,-6e-06,5.5e-05,0.0,1e-06,0.0,0.0,0.0,0.0,0.0,0.0
624980,0.007446,0.002443,-0.000375,0.0,0.0,0.0,0.0,0.0,0.0,3.0,0.29591,0.350182,0.293084,0.355779,-0.000145,-0.0,-6e-06,5.4e-05,0.0,1e-06,0.0,0.0,0.0,0.0,0.0,0.0
625000,0.007446,0.002443,-0.000497,0.0,0.0,0.0,0.0,0.0,0.0,3.0,0.299349,0.347717,0.295939,0.353265,-0.000144,-0.0,-6e-06,5.4e-05,0.0,1e-06,0.0,0.0,0.0,0.0,0.0,0.0
625020,0.007446,0.002443,-0.000497,0.0,0.0,0.0,0.0,0.0,0.0,3.0,0.291998,0.350631,0.290996,0.359918,-0.000143,-0.0,-6e-06,5.3e-05,0.0,1e-06,0.0,0.0,0.0,0.0,0.0,0.0
625040,0.007446,0.002443,-0.000497,0.0,0.0,0.0,0.0,0.0,0.0,3.0,0.2955,0.350838,0.292059,0.356239,-0.000142,-0.0,-6e-06,5.3e-05,0.0,1e-06,0.0,0.0,0.0,0.0,0.0,0.0
625060,0.007324,0.002444,-0.000619,0.0,0.0,0.0,0.0,0.0,0.0,3.0,0.297467,0.350602,0.292526,0.354576,-0.00014,-0.0,-6e-06,5.3e-05,0.0,1e-06,0.0,0.0,0.0,0.0,0.0,0.0
625080,0.007324,0.002566,-0.000742,0.0,0.0,0.0,0.0,0.0,0.0,3.0,0.298398,0.348203,0.294539,0.354639,-0.000139,-0.0,-6e-06,5.2e-05,0.0,1e-06,0.0,0.0,0.0,0.0,0.0,0.0
625100,0.007324,0.002444,-0.000741,0.0,0.0,0.0,0.0,0.0,0.0,3.0,0.296559,0.351389,0.293325,0.353898,-0.000138,-0.0,-6e-06,5.2e-05,0.0,1e-06,0.0,0.0,0.0,0.0,0.0,0.0
625120,0.007324,0.002566,-0.000742,0.0,0.0,0.0,0.0,0.0,0.0,3.0,0.29352,0.348933,0.293117,0.358806,-0.000138,-0.0,-6e-06,5.1e-05,0.0,1e-06,0.0,0.0,0.0,0.0,0.0,0.0
625140,0.007324,0.002567,-0.000864,0.0,0.0,0.0,0.0,0.0,0.0,3.0,0.296476,0.346473,0.296697,0.356146,-0.000137,-0.0,-6e-06,5.1e-05,0.0,1e-06,0.0,0.0,0.0,0.0,0.0,0.0
625160,0.007323,0.002689,-0.000864,0.0,0.0,0.0,0.0,0.0,0.0,3.0,0.29691,0.349115,0.294119,0.355245,-0.000135,-0.0,-6e-06,5.1e-05,0.0,1e-06,0.0,0.0,0.0,0.0,0.0,0.0
625180,0.007324,0.002567,-0.000864,0.0,0.0,0.0,0.0,0.0,0.0,3.0,0.296331,0.351337,0.293827,0.353738,-0.000134,-0.0,-6e-06,5e-05,0.0,1e-06,0.0,0.0,0.0,0.0,0.0,0.0
625200,0.007201,0.002811,-0.000865,0.0,0.0,0.0,0.0,0.0,0.0,3.0,0.29589,0.349964,0.291875,0.356931,-0.000133,-0.0,-6e-06,5e-05,0.0,1e-06,0.0,0.0,0.0,0.0,0.0,0.0
625220,0.007201,0.002689,-0.000986,0.0,0.0,0.0,0.0,0.0,0.0,3.0,0.297185,0.35008,0.29398,0.354189,-0.000132,-0.0,-6e-06,4.9e-05,0.0,1e-06,0.0,0.0,0.0,0.0,0.0,0.0
625240,0.007079,0.002934,-0.001109,0.0,0.0,0.0,0.0,0.0,0.0,3.0,0.299115,0.346965,0.295039,0.354887,-0.000131,-0.0,-6e-06,4.9e-05,0.0,1e-06,0.0,0.0,0.0,0.0,0.0,0.0
625260,0.007079,0.002812,-0.001109,0.0,0.0,0.0,0.0,0.0,0.0,3.0,0.297342,0.350235,0.293774,0.354074,-0.00013,-0.0,-5e-06,4.9e-05,0.0,1e-06,0.0,0.0,0.0,0.0,0.0,0.0
625280,0.006835,0.003056,-0.001109,0.0,0.0,0.0,0.0,0.0,0.0,3.0,0.29503,0.350295,0.290353,0.358421,-0.000129,-0.0,-5e-06,4.8e-05,0.0,1e-06,0.0,0.0,0.0,0.0,0.0,0.0
625300,0.006834,0.002812,-0.001353,0.0,0.0,0.0,0.0,0.0,0.0,3.0,0.300758,0.345521,0.298165,0.352519,-0.000129,-0.0,-5e-06,4.8e-05,0.0,1e-06,0.0,0.0,0.0,0.0,0.0,0.0
625320,0.00659,0.002813,-0.001474,0.0,0.0,0.0,0.0,0.0,0.0,3.0,0.302015,0.345618,0.29739,0.352024,-0.000127,-0.0,-5e-06,4.8e-05,0.0,1e-06,0.0,0.0,0.0,0.0,0.0,0.0
625340,0.00659,0.002813,-0.001474,0.0,0.0,0.0,0.0,0.0,0.0,3.0,0.298291,0.349015,0.294291,0.354122,-0.000127,-0.0,-5e-06,4.7e-05,0.0,1e-06,0.0,0.0,0.0,0.0,0.0,0.0
625360,0.006468,0.002935,-0.001475,0.0,0.0,0.0,0.0,0.0,0.0,3.0,0.297092,0.34888,0.292717,0.35641,-0.000126,-0.0,-5e-06,4.7e-05,0.0,1e-06,0.0,0.0,0.0,0.0,0.0,0.0
625380,0.006468,0.002813,-0.001596,0.0,0.0,0.0,0.0,0.0,0.0,3.0,0.296087,0.349322,0.293958,0.355809,-0.000125,-0.0,-5e-06,4.7e-05,0.0,1e-06,0.0,0.0,0.0,0.0,0.0,0.0
625400,0.006223,0.002813,-0.00184,0.0,0.0,0.0,0.0,0.0,0.0,3.0,0.302552,0.3441,0.298462,0.352211,-0.000124,-0.0,-5e-06,4.6e-05,0.0,1e-06,0.0,0.0,0.0,0.0,0.0,0.0
625420,0.006223,0.002691,-0.00184,0.0,0.0,0.0,0.0,0.0,0.0,3.0,0.298858,0.347417,0.29656,0.353462,-0.000123,-0.0,-5e-06,4.6e-05,0.0,1e-06,0.0,0.0,0.0,0.0,0.0,0.0
625440,0.006101,0.002813,-0.00184,0.0,0.0,0.0,0.0,0.0,0.0,3.0,0.298607,0.346842,0.294915,0.355505,-0.000122,-0.0,-5e-06,4.6e-05,0.0,1e-06,0.0,0.0,0.0,0.0,0.0,0.0
625460,0.006223,0.002692,-0.001962,0.0,0.0,0.0,0.0,0.0,0.0,3.0,0.299423,0.347329,0.297502,0.352352,-0.000121,-0.0,-5e-06,4.5e-05,0.0,1e-06,0.0,0.0,0.0,0.0,0.0,0.0
625480,0.005857,0.002692,-0.002083,0.0,0.0,0.0,0.0,0.0,0.0,3.0,0.301247,0.345021,0.296168,0.354189,-0.00012,-0.0,-5e-06,4.5e-05,0.0,1e-06,0.0,0.0,0.0,0.0,0.0,0.0
625500,0.005857,0.00257,-0.002083,0.0,0.0,0.0,0.0,0.0,0.0,3.0,0.299041,0.346628,0.296946,0.353781,-0.000119,-0.0,-5e-06,4.5e-05,0.0,1e-06,0.0,0.0,0.0,0.0,0.0,0.0
625520,0.005613,0.002814,-0.002083,0.0,0.0,0.0,0.0,0.0,0.0,3.0,0.298465,0.346514,0.293509,0.357016,-0.000118,-0.0,-5e-06,4.4e-05,0.0,1e-06,0.0,0.0,0.0,0.0,0.0,0.0
625540,0.005612,0.002814,-0.002206,0.0,0.0,0.0,0.0,0.0,0.0,3.0,0.296443,0.347432,0.294119,0.357242,-0.000117,-0.0,-5e-06,4.4e-05,0.0,1e-06,0.0,0.0,0.0,0.0,0.0,0.0
625560,0.005246,0.002936,-0.00245,0.0,0.0,0.0,0.0,0.0,0.0,3.0,0.30433,0.342077,0.298603,0.352599,-0.000117,-0.0,-5e-06,4.4e-05,0.0,1e-06,0.0,0.0,0.0,0.0,0.0,0.0
625580,0.005124,0.002814,-0.002449,0.0,0.0,0.0,0.0,0.0,0.0,3.0,0.303684,0.344377,0.297635,0.351676,-0.000116,-0.0,-5e-06,4.3e-05,0.0,1e-06,0.0,0.0,0.0,0.0,0.0,0.0
625600,0.00488,0.002936,-0.002449,0.0,0.0,0.0,0.0,0.0,0.0,3.0,0.299717,0.347109,0.294881,0.354392,-0.000115,-0.0,-5e-06,4.3e-05,0.0,1e-06,0.0,0.0,0.0,0.0,0.0,0.0
625620,0.004879,0.003058,-0.002571,0.0,0.0,0.0,0.0,0.0,0.0,3.0,0.299139,0.346782,0.298231,0.352535,-0.000114,-0.0,-5e-06,4.3e-05,0.0,1e-06,0.0,0.0,0.0,0.0,0.0,0.0
625640,0.004635,0.003058,-0.002693,0.0,0.0,0.0,0.0,0.0,0.0,3.0,0.30475,0.344807,0.297748,0.350289,-0.000113,-0.0,-5e-06,4.2e-05,0.0,1e-06,0.0,0.0,0.0,0.0,0.0,0.0
625660,0.004513,0.002936,-0.002815,0.0,0.0,0.0,0.0,0.0,0.0,3.0,0.304239,0.344406,0.298798,0.35026,-0.000112,-0.0,-5e-06,4.2e-05,0.0,1e-06,0.0,0.0,0.0,0.0,0.0,0.0
625680,0.004391,0.002936,-0.002815,0.0,0.0,0.0,0.0,0.0,0.0,3.0,0.300671,0.346996,0.296395,0.352552,-0.000111,-0.0,-5e-06,4.2e-05,0.0,1e-06,0.0,0.0,0.0,0.0,0.0,0.0
625700,0.004268,0.002936,-0.002936,0.0,0.0,0.0,0.0,0.0,0.0,3.0,0.301361,0.346332,0.296511,0.352553,-0.000111,-0.0,-5e-06,4.1e-05,0.0,1e-06,0.0,0.0,0.0,0.0,0.0,0.0
625720,0.004146,0.002936,-0.003058,0.0,0.0,0.0,0.0,0.0,0.0,3.0,0.301632,0.345243,0.297469,0.352637,-0.00011,-0.0,-5e-06,4.1e-05,0.0,1e-06,0.0,0.0,0.0,0.0,0.0,0.0
625740,0.003902,0.002692,-0.00318,0.0,0.0,0.0,0.0,0.0,0.0,3.0,0.305287,0.344349,0.299639,0.348765,-0.000109,-0.0,-5e-06,4.1e-05,0.0,1e-06,0.0,0.0,0.0,0.0,0.0,0.0
625760,0.003658,0.002692,-0.003179,0.0,0.0,0.0,0.0,0.0,0.0,3.0,0.304892,0.344907,0.298077,0.349808,-0.000108,-0.0,-5e-06,4e-05,0.0,1e-06,0.0,0.0,0.0,0.0,0.0,0.0
625780,0.003414,0.002569,-0.003179,0.0,0.0,0.0,0.0,0.0,0.0,3.0,0.301528,0.347762,0.295133,0.352102,-0.000107,-0.0,-5e-06,4e-05,0.0,1e-06,0.0,0.0,0.0,0.0,0.0,0.0
625800,0.003048,0.002691,-0.003301,0.0,0.0,0.0,0.0,0.0,0.0,3.0,0.303517,0.344745,0.296281,0.35253,-0.000107,-0.0,-5e-06,4e-05,0.0,1e-06,0.0,0.0,0.0,0.0,0.0,0.0
625820,0.002681,0.002446,-0.003544,0.0,0.0,0.0,0.0,0.0,0.0,3.0,0.305673,0.343243,0.299432,0.349695,-0.000106,-0.0,-5e-06,4e-05,0.0,1e-06,0.0,0.0,0.0,0.0,0.0,0.0
625840,0.002315,0.002568,-0.003544,0.0,0.0,0.0,0.0,0.0,0.0,3.0,0.306537,0.342779,0.298581,0.350114,-0.000105,-0.0,-5e-06,3.9e-05,0.0,1e-06,0.0,0.0,0.0,0.0,0.0,0.0
625860,0.002193,0.00269,-0.003544,0.0,0.0,0.0,0.0,0.0,0.0,3.0,0.302408,0.344824,0.295969,0.353599,-0.000104,-0.0,-5e-06,3.9e-05,0.0,1e-06,0.0,0.0,0.0,0.0,0.0,0.0
625880,0.001948,0.002933,-0.003666,0.0,0.0,0.0,0.0,0.0,0.0,3.0,0.302493,0.3453,0.294712,0.354053,-0.000103,-0.0,-5e-06,3.9e-05,0.0,1e-06,0.0,0.0,0.0,0.0,0.0,0.0
625900,0.001704,0.002811,-0.003787,0.0,0.0,0.0,0.0,0.0,0.0,3.0,0.304178,0.345123,0.297218,0.350876,-0.000103,-0.0,-5e-06,3.8e-05,0.0,1e-06,0.0,0.0,0.0,0.0,0.0,0.0
625920,0.001581,0.002933,-0.003909,0.0,0.0,0.0,0.0,0.0,0.0,3.0,0.30746,0.342159,0.299173,0.349464,-0.000102,-0.0,-5e-06,3.8e-05,0.0,1e-06,0.0,0.0,0.0,0.0,0.0,0.0
625940,0.001581,0.002933,-0.003787,0.0,0.0,0.0,0.0,0.0,0.0,3.0,0.301811,0.346243,0.297136,0.351781,-0.000101,-0.0,-5e-06,3.8e-05,0.0,1e-06,0.0,0.0,0.0,0.0,0.0,0.0
625960,0.001459,0.003055,-0.003909,0.0,0.0,0.0,0.0,0.0,0.0,3.0,0.303558,0.344511,0.29765,0.351637,-0.0001,-0.0,-5e-06,3.7e-05,0.0,1e-06,0.0,0.0,0.0,0.0,0.0,0.0
625980,0.001337,0.003055,-0.004031,0.0,0.0,0.0,0.0,0.0,0.0,3.0,0.303229,0.343913,0.299313,0.351157,-0.0001,-0.0,-5e-06,3.7e-05,0.0,1e-06,0.0,0.0,0.0,0.0,0.0,0.0
626000,0.001214,0.003176,-0.004031,0.0,0.0,0.0,0.0,0.0,0.0,3.0,0.303316,0.343213,0.297753,0.35301,-9.9e-05,-0.0,-5e-06,3.7e-05,0.0,1e-06,0.0,0.0,0.0,0.0,0.0,0.0
626020,0.000971,0.002932,-0.00403,0.0,0.0,0.0,0.0,0.0,0.0,3.0,0.305484,0.345069,0.295421,0.351276,-9.8e-05,-0.0,-5e-06,3.7e-05,0.0,1e-06,0.0,0.0,0.0,0.0,0.0,0.0
626040,0.00097,0.003176,-0.004031,0.0,0.0,0.0,0.0,0.0,0.0,3.0,0.301889,0.347093,0.29443,0.353016,-9.8e-05,-0.0,-5e-06,3.6e-05,0.0,1e-06,0.0,0.0,0.0,0.0,0.0,0.0
626060,0.000849,0.002932,-0.00403,0.0,0.0,0.0,0.0,0.0,0.0,3.0,0.30097,0.34669,0.296879,0.352227,-9.7e-05,-0.0,-5e-06,3.6e-05,0.0,1e-06,0.0,0.0,0.0,0.0,0.0,0.0
626080,0.000726,0.003175,-0.00403,0.0,0.0,0.0,0.0,0.0,0.0,3.0,0.304022,0.342739,0.296878,0.353582,-9.6e-05,-0.0,-5e-06,3.6e-05,0.0,1e-06,0.0,0.0,0.0,0.0,0.0,0.0
626100,0.000726,0.003053,-0.00403,0.0,0.0,0.0,0.0,0.0,0.0,3.0,0.302748,0.344453,0.298429,0.351734,-9.5e-05,-0.0,-5e-06,3.6e-05,0.0,1e-06,0.0,0.0,0.0,0.0,0.0,0.0
626120,0.000604,0.003175,-0.003908,0.0,0.0,0.0,0.0,0.0,0.0,3.0,0.30309,0.344924,0.294561,0.35405,-9.5e-05,-0.0,-5e-06,3.5e-05,0.0,1e-06,0.0,0.0,0.0,0.0,0.0,0.0
626140,0.000604,0.003175,-0.003908,0.0,0.0,0.0,0.0,0.0,0.0,3.0,0.303311,0.344406,0.297465,0.352089,-9.4e-05,-0.0,-5e-06,3.5e-05,0.0,1e-06,0.0,0.0,0.0,0.0,0.0,0.0
626160,0.000482,0.003175,-0.003908,0.0,0.0,0.0,0.0,0.0,0.0,3.0,0.304579,0.344373,0.296277,0.352024,-9.3e-05,-0.0,-5e-06,3.5e-05,0.0,1e-06,0.0,0.0,0.0,0.0,0.0,0.0
626180,0.000482,0.003297,-0.003786,0.0,0.0,0.0,0.0,0.0,0.0,3.0,0.303708,0.344432,0.296059,0.352852,-9.2e-05,-0.0,-5e-06,3.5e-05,0.0,1e-06,0.0,0.0,0.0,0.0,0.0,0.0
626200,0.000482,0.003175,-0.003786,0.0,0.0,0.0,0.0,0.0,0.0,3.0,0.304326,0.345386,0.296195,0.35131,-9.2e-05,-0.0,-5e-06,3.4e-05,0.0,1e-06,0.0,0.0,0.0,0.0,0.0,0.0
626220,0.000483,0.003053,-0.003664,0.0,0.0,0.0,0.0,0.0,0.0,3.0,0.303549,0.346062,0.295916,0.351508,-9.1e-05,-0.0,-5e-06,3.4e-05,0.0,1e-06,0.0,0.0,0.0,0.0,0.0,0.0
626240,0.000483,0.002931,-0.003663,0.0,0.0,0.0,0.0,0.0,0.0,3.0,0.30619,0.343878,0.298683,0.349248,-9e-05,-0.0,-5e-06,3.4e-05,0.0,1e-06,0.0,0.0,0.0,0.0,0.0,0.0
626260,0.000361,0.002808,-0.003541,0.0,0.0,0.0,0.0,0.0,0.0,3.0,0.306043,0.344448,0.296469,0.350588,-9e-05,-0.0,-5e-06,3.4e-05,0.0,1e-06,0.0,0.0,0.0,0.0,0.0,0.0
626280,0.000361,0.002808,-0.003419,0.0,0.0,0.0,0.0,0.0,0.0,3.0,0.301947,0.346364,0.29487,0.353337,-8.9e-05,-0.0,-5e-06,3.3e-05,0.0,1e-06,0.0,0.0,0.0,0.0,0.0,0.0
626300,0.000361,0.00293,-0.003419,0.0,0.0,0.0,0.0,0.0,0.0,3.0,0.304496,0.344216,0.295017,0.353234,-8.8e-05,-0.0,-5e-06,3.3e-05,0.0,1e-06,0.0,0.0,0.0,0.0,0.0,0.0
626320,0.000361,0.00293,-0.003297,0.0,0.0,0.0,0.0,0.0,0.0,3.0,0.303183,0.345256,0.295331,0.353052,-8.8e-05,-0.0,-5e-06,3.3e-05,0.0,1e-06,0.0,0.0,0.0,0.0,0.0,0.0
626340,0.000361,0.003175,-0.003175,0.0,0.0,0.0,0.0,0.0,0.0,3.0,0.302694,0.345323,0.294649,0.353916,-8.7e-05,-0.0,-5e-06,3.3e-05,0.0,1e-06,0.0,0.0,0.0,0.0,0.0,0.0
626360,0.000361,0.003297,-0.003053,0.0,0.0,0.0,0.0,0.0,0.0,3.0,0.299661,0.347754,0.291775,0.356202,-8.6e-05,-0.0,-5e-06,3.2e-05,0.0,1e-06,0.0,0.0,0.0,0.0,0.0,0.0
626380,0.000361,0.003419,-0.003053,0.0,0.0,0.0,0.0,0.0,0.0,3.0,0.30041,0.347193,0.292287,0.355761,-8.6e-05,-0.0,-5e-06,3.2e-05,0.0,1e-06,0.0,0.0,0.0,0.0,0.0,0.0
626400,0.000239,0.003296,-0.003053,0.0,0.0,0.0,0.0,0.0,0.0,3.0,0.304401,0.345039,0.293449,0.353737,-8.5e-05,-0.0,-5e-06,3.2e-05,0.0,1e-06,0.0,0.0,0.0,0.0,0.0,0.0
626420,0.000239,0.003296,-0.002931,0.0,0.0,0.0,0.0,0.0,0.0,3.0,0.30317,0.346231,0.293534,0.353517,-8.4e-05,-0.0,-5e-06,3.2e-05,0.0,1e-06,0.0,0.0,0.0,0.0,0.0,0.0
626440,0.000362,0.003175,-0.002687,0.0,0.0,0.0,0.0,0.0,0.0,3.0,0.302349,0.34695,0.29224,0.354481,-8.4e-05,-0.0,-4e-06,3.1e-05,0.0,1e-06,0.0,0.0,0.0,0.0,0.0,0.0
626460,0.000362,0.003297,-0.002687,0.0,0.0,0.0,0.0,0.0,0.0,3.0,0.30296,0.344523,0.295638,0.353702,-8.3e-05,-0.0,-4e-06,3.1e-05,0.0,1e-06,0.0,0.0,0.0,0.0,0.0,0.0
626480,0.000362,0.003175,-0.002687,0.0,0.0,0.0,0.0,0.0,0.0,3.0,0.302113,0.345975,0.295206,0.35332,-8.3e-05,-0.0,-4e-06,3.1e-05,0.0,1e-06,0.0,0.0,0.0,0.0,0.0,0.0
626500,0.000362,0.003175,-0.002687,0.0,0.0,0.0,0.0,0.0,0.0,3.0,0.301331,0.347411,0.29278,0.354435,-8.2e-05,-0.0,-4e-06,3.1e-05,0.0,1e-06,0.0,0.0,0.0,0.0,0.0,0.0
626520,0.000362,0.003052,-0.002564,0.0,0.0,0.0,0.0,0.0,0.0,3.0,0.303063,0.349118,0.28839,0.357495,-8.2e-05,-0.0,-4e-06,3e-05,0.0,1e-06,0.0,0.0,0.0,0.0,0.0,0.0
626540,0.000362,0.003174,-0.002442,0.0,0.0,0.0,0.0,0.0,0.0,3.0,0.299762,0.347036,0.291141,0.357297,-8.1e-05,-0.0,-4e-06,3e-05,0.0,1e-06,0.0,0.0,0.0,0.0,0.0,0.0
626560,0.00024,0.003052,-0.002442,0.0,0.0,0.0,0.0,0.0,0.0,3.0,0.302503,0.34624,0.294326,0.353434,-8e-05,-0.0,-4e-06,3e-05,0.0,1e-06,0.0,0.0,0.0,0.0,0.0,0.0
626580,0.000119,0.00293,-0.002442,0.0,0.0,0.0,0.0,0.0,0.0,3.0,0.306398,0.343959,0.29602,0.351126,-8e-05,-0.0,-4e-06,3e-05,0.0,1e-06,0.0,0.0,0.0,0.0,0.0,0.0
626600,0.000119,0.00293,-0.00232,0.0,0.0,0.0,0.0,0.0,0.0,3.0,0.298927,0.349289,0.290147,0.356525,-7.9e-05,-0.0,-4e-06,3e-05,0.0,1e-06,0.0,0.0,0.0,0.0,0.0,0.0
626620,0.000119,0.003052,-0.002198,0.0,0.0,0.0,0.0,0.0,0.0,3.0,0.299403,0.347378,0.290943,0.3574,-7.9e-05,-0.0,-4e-06,2.9e-05,0.0,1e-06,0.0,0.0,0.0,0.0,0.0,0.0
626640,0.000119,0.003174,-0.002198,0.0,0.0,0.0,0.0,0.0,0.0,3.0,0.300338,0.346962,0.292502,0.355877,-7.8e-05,-0.0,-4e-06,2.9e-05,0.0,1e-06,0.0,0.0,0.0,0.0,0.0,0.0
626660,0.000118,0.003296,-0.002198,0.0,0.0,0.0,0.0,0.0,0.0,3.0,0.304786,0.343777,0.296038,0.35262,-7.7e-05,-0.0,-4e-06,2.9e-05,0.0,1e-06,0.0,0.0,0.0,0.0,0.0,0.0
626680,-0.000125,0.003296,-0.002075,0.0,0.0,0.0,0.0,0.0,0.0,3.0,0.302926,0.346051,0.292392,0.354771,-7.7e-05,-0.0,-4e-06,2.9e-05,0.0,1e-06,0.0,0.0,0.0,0.0,0.0,0.0
626700,-0.000125,0.003296,-0.001953,0.0,0.0,0.0,0.0,0.0,0.0,3.0,0.298611,0.350312,0.289008,0.356633,-7.6e-05,-0.0,-4e-06,2.8e-05,0.0,1e-06,0.0,0.0,0.0,0.0,0.0,0.0
626720,-0.000248,0.00354,-0.001953,0.0,0.0,0.0,0.0,0.0,0.0,3.0,0.299511,0.34661,0.29037,0.358484,-7.5e-05,-0.0,-4e-06,2.8e-05,0.0,1e-06,0.0,0.0,0.0,0.0,0.0,0.0
626740,-0.000248,0.00354,-0.002075,0.0,0.0,0.0,0.0,0.0,0.0,3.0,0.303615,0.346203,0.29487,0.352139,-7.5e-05,-0.0,-4e-06,2.8e-05,0.0,1e-06,0.0,0.0,0.0,0.0,0.0,0.0
626760,-0.000248,0.003784,-0.002075,0.0,0.0,0.0,0.0,0.0,0.0,3.0,0.300754,0.348182,0.291959,0.354777,-7.5e-05,-0.0,-4e-06,2.8e-05,0.0,1e-06,0.0,0.0,0.0,0.0,0.0,0.0
626780,-0.000248,0.003906,-0.001953,0.0,0.0,0.0,0.0,0.0,0.0,3.0,0.299428,0.349629,0.290583,0.355467,-7.4e-05,-0.0,-4e-06,2.8e-05,0.0,1e-06,0.0,0.0,0.0,0.0,0.0,0.0
626800,-0.000248,0.00415,-0.001953,0.0,0.0,0.0,0.0,0.0,0.0,3.0,0.303622,0.345925,0.29369,0.353326,-7.3e-05,-0.0,-4e-06,2.7e-05,0.0,1e-06,0.0,0.0,0.0,0.0,0.0,0.0
626820,-0.00037,0.00415,-0.001953,0.0,0.0,0.0,0.0,0.0,0.0,3.0,0.304124,0.346272,0.294427,0.352002,-7.3e-05,-0.0,-4e-06,2.7e-05,0.0,1e-06,0.0,0.0,0.0,0.0,0.0,0.0
626840,-0.000492,0.004272,-0.001952,0.0,0.0,0.0,0.0,0.0,0.0,3.0,0.30345,0.347883,0.291623,0.353153,-7.2e-05,-0.0,-4e-06,2.7e-05,0.0,1e-06,0.0,0.0,0.0,0.0,0.0,0.0
626860,-0.000615,0.004394,-0.001952,0.0,0.0,0.0,0.0,0.0,0.0,3.0,0.301162,0.346825,0.293059,0.354926,-7.2e-05,-0.0,-4e-06,2.7e-05,0.0,1e-06,0.0,0.0,0.0,0.0,0.0,0.0
626880,-0.000493,0.004394,-0.001952,0.0,0.0,0.0,0.0,0.0,0.0,3.0,0.302086,0.345822,0.29565,0.353142,-7.1e-05,-0.0,-4e-06,2.7e-05,0.0,1e-06,0.0,0.0,0.0,0.0,0.0,0.0
626900,-0.000615,0.004516,-0.001952,0.0,0.0,0.0,0.0,0.0,0.0,3.0,0.29943,0.347326,0.290545,0.357728,-7.1e-05,-0.0,-4e-06,2.6e-05,0.0,1e-06,0.0,0.0,0.0,0.0,0.0,0.0
626920,-0.000737,0.004516,-0.001952,0.0,0.0,0.0,0.0,0.0,0.0,3.0,0.302147,0.346047,0.291748,0.355893,-7e-05,-0.0,-4e-06,2.6e-05,0.0,1e-06,0.0,0.0,0.0,0.0,0.0,0.0
626940,-0.000859,0.004516,-0.001952,0.0,0.0,0.0,0.0,0.0,0.0,3.0,0.299918,0.347329,0.292623,0.355763,-7e-05,-0.0,-4e-06,2.6e-05,0.0,1e-06,0.0,0.0,0.0,0.0,0.0,0.0
626960,-0.000859,0.004394,-0.001952,0.0,0.0,0.0,0.0,0.0,0.0,3.0,0.301863,0.347306,0.292364,0.35443,-6.9e-05,-0.0,-4e-06,2.6e-05,0.0,1e-06,0.0,0.0,0.0,0.0,0.0,0.0
626980,-0.000981,0.004516,-0.002073,0.0,0.0,0.0,0.0,0.0,0.0,3.0,0.303501,0.342824,0.295754,0.354806,-6.9e-05,-0.0,-4e-06,2.6e-05,0.0,1e-06,0.0,0.0,0.0,0.0,0.0,0.0
627000,-0.000981,0.004638,-0.002073,0.0,0.0,0.0,0.0,0.0,0.0,3.0,0.302198,0.344109,0.295944,0.354477,-6.8e-05,-0.0,-4e-06,2.5e-05,0.0,1e-06,0.0,0.0,0.0,0.0,0.0,0.0
627020,-0.001104,0.00476,-0.002073,0.0,0.0,0.0,0.0,0.0,0.0,3.0,0.301087,0.343238,0.295448,0.356586,-6.8e-05,-0.0,-4e-06,2.5e-05,0.0,1e-06,0.0,0.0,0.0,0.0,0.0,0.0
627040,-0.001104,0.004638,-0.002073,0.0,0.0,0.0,0.0,0.0,0.0,3.0,0.304136,0.345918,0.292965,0.353476,-6.7e-05,-0.0,-4e-06,2.5e-05,0.0,1e-06,0.0,0.0,0.0,0.0,0.0,0.0
627060,-0.001348,0.004638,-0.002072,0.0,0.0,0.0,0.0,0.0,0.0,3.0,0.305206,0.346283,0.291888,0.353077,-6.6e-05,-0.0,-4e-06,2.5e-05,0.0,1e-06,0.0,0.0,0.0,0.0,0.0,0.0
627080,-0.001347,0.004638,-0.00195,0.0,0.0,0.0,0.0,0.0,0.0,3.0,0.2982,0.346783,0.291677,0.358359,-6.6e-05,-0.0,-4e-06,2.5e-05,0.0,1e-06,0.0,0.0,0.0,0.0,0.0,0.0
627100,-0.00147,0.00476,-0.00195,0.0,0.0,0.0,0.0,0.0,0.0,3.0,0.303753,0.342968,0.295436,0.354712,-6.6e-05,-0.0,-4e-06,2.5e-05,0.0,1e-06,0.0,0.0,0.0,0.0,0.0,0.0
627120,-0.001591,0.004515,-0.00195,0.0,0.0,0.0,0.0,0.0,0.0,3.0,0.303775,0.344399,0.295209,0.353496,-6.5e-05,-0.0,-4e-06,2.4e-05,0.0,1e-06,0.0,0.0,0.0,0.0,0.0,0.0
627140,-0.001835,0.004393,-0.001949,0.0,0.0,0.0,0.0,0.0,0.0,3.0,0.30213,0.346407,0.293352,0.354328,-6.5e-05,-0.0,-4e-06,2.4e-05,0.0,1e-06,0.0,0.0,0.0,0.0,0.0,0.0
627160,-0.001713,0.004271,-0.00195,0.0,0.0,0.0,0.0,0.0,0.0,3.0,0.302362,0.346463,0.293734,0.35379,-6.4e-05,-0.0,-4e-06,2.4e-05,0.0,1e-06,0.0,0.0,0.0,0.0,0.0,0.0
627180,-0.001835,0.004393,-0.001827,0.0,0.0,0.0,0.0,0.0,0.0,3.0,0.302114,0.345102,0.294045,0.355066,-6.4e-05,-0.0,-4e-06,2.4e-05,0.0,1e-06,0.0,0.0,0.0,0.0,0.0,0.0
627200,-0.001713,0.004393,-0.001828,0.0,0.0,0.0,0.0,0.0,0.0,3.0,0.302865,0.346055,0.295695,0.352246,-6.3e-05,-0.0,-4e-06,2.4e-05,0.0,1e-06,0.0,0.0,0.0,0.0,0.0,0.0
627220,-0.001835,0.004393,-0.001827,0.0,0.0,0.0,0.0,0.0,0.0,3.0,0.30503,0.344439,0.294791,0.352757,-6.3e-05,-0.0,-4e-06,2.3e-05,0.0,1e-06,0.0,0.0,0.0,0.0,0.0,0.0
627240,-0.001713,0.004271,-0.001706,0.0,0.0,0.0,0.0,0.0,0.0,3.0,0.301639,0.346597,0.293166,0.354681,-6.2e-05,-0.0,-4e-06,2.3e-05,0.0,1e-06,0.0,0.0,0.0,0.0,0.0,0.0
627260,-0.001835,0.004393,-0.001583,0.0,0.0,0.0,0.0,0.0,0.0,3.0,0.300911,0.347002,0.290947,0.356567,-6.2e-05,-0.0,-4e-06,2.3e-05,0.0,1e-06,0.0,0.0,0.0,0.0,0.0,0.0
627280,-0.001713,0.004393,-0.001583,0.0,0.0,0.0,0.0,0.0,0.0,3.0,0.30179,0.346407,0.292916,0.354938,-6.1e-05,-0.0,-4e-06,2.3e-05,0.0,1e-06,0.0,0.0,0.0,0.0,0.0,0.0
627300,-0.001957,0.004515,-0.001583,0.0,0.0,0.0,0.0,0.0,0.0,3.0,0.305246,0.34353,0.294481,0.353701,-6.1e-05,-0.0,-4e-06,2.3e-05,0.0,1e-06,0.0,0.0,0.0,0.0,0.0,0.0
627320,-0.001834,0.004516,-0.001461,0.0,0.0,0.0,0.0,0.0,0.0,3.0,0.301491,0.345395,0.294241,0.355132,-6e-05,-0.0,-4e-06,2.3e-05,0.0,1e-06,0.0,0.0,0.0,0.0,0.0,0.0
627340,-0.001956,0.00476,-0.001338,0.0,0.0,0.0,0.0,0.0,0.0,3.0,0.301428,0.346151,0.291411,0.356624,-6e-05,-0.0,-4e-06,2.2e-05,0.0,1e-06,0.0,0.0,0.0,0.0,0.0,0.0
627360,-0.001956,0.00476,-0.001216,0.0,0.0,0.0,0.0,0.0,0.0,3.0,0.302493,0.346111,0.291665,0.355617,-6e-05,-0.0,-4e-06,2.2e-05,0.0,1e-06,0.0,0.0,0.0,0.0,0.0,0.0
627380,-0.002201,0.004882,-0.001338,0.0,0.0,0.0,0.0,0.0,0.0,3.0,0.304625,0.342656,0.295238,0.354456,-5.9e-05,-0.0,-4e-06,2.2e-05,0.0,1e-06,0.0,0.0,0.0,0.0,0.0,0.0
627400,-0.002078,0.00476,-0.001216,0.0,0.0,0.0,0.0,0.0,0.0,3.0,0.302737,0.344599,0.293209,0.355694,-5.9e-05,-0.0,-4e-06,2.2e-05,0.0,1e-06,0.0,0.0,0.0,0.0,0.0,0.0
627420,-0.002322,0.00476,-0.001215,0.0,0.0,0.0,0.0,0.0,0.0,3.0,0.300127,0.346052,0.29048,0.35845,-5.8e-05,-0.0,-4e-06,2.2e-05,0.0,1e-06,0.0,0.0,0.0,0.0,0.0,0.0
627440,-0.002444,0.00476,-0.001093,0.0,0.0,0.0,0.0,0.0,0.0,3.0,0.301482,0.345279,0.291183,0.357588,-5.8e-05,-0.0,-4e-06,2.2e-05,0.0,1e-06,0.0,0.0,0.0,0.0,0.0,0.0
627460,-0.002444,0.005004,-0.001093,0.0,0.0,0.0,0.0,0.0,0.0,3.0,0.302655,0.347053,0.290945,0.355124,-5.7e-05,-0.0,-4e-06,2.1e-05,0.0,1e-06,0.0,0.0,0.0,0.0,0.0,0.0
627480,-0.002444,0.005126,-0.001093,0.0,0.0,0.0,0.0,0.0,0.0,3.0,0.304288,0.341246,0.294071,0.35697,-5.7e-05,-0.0,-4e-06,2.1e-05,0.0,1e-06,0.0,0.0,0.0,0.0,0.0,0.0
627500,-0.002444,0.005248,-0.001092,0.0,0.0,0.0,0.0,0.0,0.0,3.0,0.299701,0.344531,0.292391,0.358791,-5.6e-05,-0.0,-4e-06,2.1e-05,0.0,1e-06,0.0,0.0,0.0,0.0,0.0,0.0
627520,-0.002566,0.00537,-0.00097,0.0,0.0,0.0,0.0,0.0,0.0,3.0,0.301706,0.34385,0.290696,0.359135,-5.6e-05,-0.0,-4e-06,2.1e-05,0.0,1e-06,0.0,0.0,0.0,0.0,0.0,0.0
627540,-0.002688,0.00537,-0.00097,0.0,0.0,0.0,0.0,0.0,0.0,3.0,0.301886,0.345499,0.291376,0.356911,-5.6e-05,-0.0,-4e-06,2.1e-05,0.0,1e-06,0.0,0.0,0.0,0.0,0.0,0.0
627560,-0.002932,0.005492,-0.000847,0.0,0.0,0.0,0.0,0.0,0.0,3.0,0.304889,0.342901,0.291462,0.356912,-5.5e-05,-0.0,-4e-06,2.1e-05,0.0,1e-06,0.0,0.0,0.0,0.0,0.0,0.0
627580,-0.00281,0.005492,-0.000847,0.0,0.0,0.0,0.0,0.0,0.0,3.0,0.30157,0.346658,0.291103,0.356257,-5.5e-05,-0.0,-4e-06,2e-05,0.0,1e-06,0.0,0.0,0.0,0.0,0.0,0.0
627600,-0.002932,0.005614,-0.000846,0.0,0.0,0.0,0.0,0.0,0.0,3.0,0.302621,0.345304,0.290238,0.357371,-5.4e-05,-0.0,-4e-06,2e-05,0.0,1e-06,0.0,0.0,0.0,0.0,0.0,0.0
627620,-0.00281,0.005736,-0.000847,0.0,0.0,0.0,0.0,0.0,0.0,3.0,0.298901,0.34889,0.287282,0.359068,-5.4e-05,-0.0,-4e-06,2e-05,0.0,1e-06,0.0,0.0,0.0,0.0,0.0,0.0
627640,-0.002932,0.005859,-0.000724,0.0,0.0,0.0,0.0,0.0,0.0,3.0,0.301365,0.345732,0.288356,0.359364,-5.4e-05,-0.0,-4e-06,2e-05,0.0,1e-06,0.0,0.0,0.0,0.0,0.0,0.0
627660,-0.003054,0.005859,-0.000724,0.0,0.0,0.0,0.0,0.0,0.0,3.0,0.302154,0.346797,0.290245,0.356305,-5.3e-05,-0.0,-4e-06,2e-05,0.0,1e-06,0.0,0.0,0.0,0.0,0.0,0.0
627680,-0.003054,0.005859,-0.000724,0.0,0.0,0.0,0.0,0.0,0.0,3.0,0.302076,0.346345,0.290501,0.35661,-5.3e-05,-0.0,-4e-06,2e-05,0.0,1e-06,0.0,0.0,0.0,0.0,0.0,0.0
627700,-0.002932,0.005859,-0.000602,0.0,0.0,0.0,0.0,0.0,0.0,3.0,0.299979,0.347196,0.290729,0.357283,-5.2e-05,-0.0,-4e-06,2e-05,0.0,1e-06,0.0,0.0,0.0,0.0,0.0,0.0
627720,-0.002932,0.005981,-0.000602,0.0,0.0,0.0,0.0,0.0,0.0,3.0,0.300016,0.345622,0.290473,0.358953,-5.2e-05,-0.0,-4e-06,1.9e-05,0.0,1e-06,0.0,0.0,0.0,0.0,0.0,0.0
627740,-0.002931,0.006103,-0.000479,0.0,0.0,0.0,0.0,0.0,0.0,3.0,0.298215,0.347942,0.287197,0.360572,-5.2e-05,-0.0,-4e-06,1.9e-05,0.0,1e-06,0.0,0.0,0.0,0.0,0.0,0.0
627760,-0.00281,0.006103,-0.000602,0.0,0.0,0.0,0.0,0.0,0.0,3.0,0.301834,0.345612,0.292847,0.355722,-5.1e-05,-0.0,-4e-06,1.9e-05,0.0,1e-06,0.0,0.0,0.0,0.0,0.0,0.0
627780,-0.002809,0.005981,-0.00048,0.0,0.0,0.0,0.0,0.0,0.0,3.0,0.300036,0.34821,0.290463,0.356459,-5.1e-05,-0.0,-4e-06,1.9e-05,0.0,1e-06,0.0,0.0,0.0,0.0,0.0,0.0
627800,-0.002808,0.005981,-0.000236,0.0,0.0,0.0,0.0,0.0,0.0,3.0,0.299242,0.348365,0.289017,0.358021,-5e-05,-0.0,-4e-06,1.9e-05,0.0,1e-06,0.0,0.0,0.0,0.0,0.0,0.0
627820,-0.00293,0.005982,-0.000113,0.0,0.0,0.0,0.0,0.0,0.0,3.0,0.299339,0.349246,0.285895,0.359403,-5e-05,-0.0,-4e-06,1.9e-05,0.0,1e-06,0.0,0.0,0.0,0.0,0.0,0.0
627840,-0.003052,0.006104,-0.000113,0.0,0.0,0.0,0.0,0.0,0.0,3.0,0.302018,0.345872,0.291129,0.356635,-5e-05,-0.0,-4e-06,1.9e-05,0.0,1e-06,0.0,0.0,0.0,0.0,0.0,0.0
627860,-0.003174,0.005982,-0.000113,0.0,0.0,0.0,0.0,0.0,0.0,3.0,0.300662,0.347861,0.289417,0.357089,-4.9e-05,-0.0,-4e-06,1.8e-05,0.0,1e-06,0.0,0.0,0.0,0.0,0.0,0.0
627880,-0.003174,0.006104,1e-05,0.0,0.0,0.0,0.0,0.0,0.0,3.0,0.297117,0.349723,0.286824,0.359986,-4.9e-05,-0.0,-4e-06,1.8e-05,0.0,1e-06,0.0,0.0,0.0,0.0,0.0,0.0
627900,-0.003296,0.006104,1e-05,0.0,0.0,0.0,0.0,0.0,0.0,3.0,0.298304,0.348038,0.286831,0.36068,-4.9e-05,-0.0,-4e-06,1.8e-05,0.0,1e-06,0.0,0.0,0.0,0.0,0.0,0.0
627920,-0.003296,0.006226,1e-05,0.0,0.0,0.0,0.0,0.0,0.0,3.0,0.300457,0.347294,0.289595,0.357665,-4.8e-05,-0.0,-3e-06,1.8e-05,0.0,1e-06,0.0,0.0,0.0,0.0,0.0,0.0
627940,-0.003418,0.006104,0.000133,0.0,0.0,0.0,0.0,0.0,0.0,3.0,0.301696,0.345205,0.290208,0.358224,-4.8e-05,-0.0,-3e-06,1.8e-05,0.0,1e-06,0.0,0.0,0.0,0.0,0.0,0.0
627960,-0.003418,0.00586,0.000132,0.0,0.0,0.0,0.0,0.0,0.0,3.0,0.299019,0.348061,0.290351,0.357489,-4.8e-05,-0.0,-3e-06,1.8e-05,0.0,1e-06,0.0,0.0,0.0,0.0,0.0,0.0
627980,-0.003662,0.00586,0.000255,0.0,0.0,0.0,0.0,0.0,0.0,3.0,0.296666,0.348544,0.28648,0.361712,-4.7e-05,-0.0,-3e-06,1.8e-05,0.0,1e-06,0.0,0.0,0.0,0.0,0.0,0.0
628000,-0.00354,0.005738,0.000254,0.0,0.0,0.0,0.0,0.0,0.0,3.0,0.297426,0.347673,0.288628,0.360385,-4.7e-05,-0.0,-3e-06,1.8e-05,0.0,1e-06,0.0,0.0,0.0,0.0,0.0,0.0
628020,-0.003784,0.005982,0.000256,0.0,0.0,0.0,0.0,0.0,0.0,3.0,0.297948,0.346668,0.288242,0.361222,-4.6e-05,-0.0,-3e-06,1.7e-05,0.0,1e-06,0.0,0.0,0.0,0.0,0.0,0.0
628040,-0.003784,0.00586,0.000255,0.0,0.0,0.0,0.0,0.0,0.0,3.0,0.30029,0.345663,0.28906,0.359752,-4.6e-05,-0.0,-3e-06,1.7e-05,0.0,1e-06,0.0,0.0,0.0,0.0,0.0,0.0
628060,-0.003906,0.005982,0.000256,0.0,0.0,0.0,0.0,0.0,0.0,3.0,0.296772,0.34835,0.28598,0.362179,-4.6e-05,-0.0,-3e-06,1.7e-05,0.0,1e-06,0.0,0.0,0.0,0.0,0.0,0.0
628080,-0.004027,0.006105,0.000379,0.0,0.0,0.0,0.0,0.0,0.0,3.0,0.299735,0.344754,0.290271,0.360146,-4.5e-05,-0.0,-3e-06,1.7e-05,0.0,1e-06,0.0,0.0,0.0,0.0,0.0,0.0
628100,-0.004028,0.006348,0.000257,0.0,0.0,0.0,0.0,0.0,0.0,3.0,0.29961,0.346073,0.289204,0.359788,-4.5e-05,-0.0,-3e-06,1.7e-05,0.0,1e-06,0.0,0.0,0.0,0.0,0.0,0.0
628120,-0.00415,0.006226,0.000135,0.0,0.0,0.0,0.0,0.087266,0.0,3.0,0.300362,0.498904,0.290785,0.15,-4.5e-05,0.000993,-5.4e-05,3.3e-05,0.315727,-0.014649,0.0,0.0,0.0,0.0,0.0,0.0
628140,-0.003784,0.006348,0.000134,0.0,0.0,0.0,0.0,0.087266,0.0,3.0,0.300848,0.388468,0.291611,0.308704,-4.4e-05,0.009081,-0.000368,0.000235,0.485255,-0.015583,0.0,0.0,0.0,0.0,0.0,0.0
628160,-0.003901,0.008182,0.001237,0.0,0.0,0.0,0.0,0.087266,0.0,3.0,0.291472,0.387487,0.271462,0.33502,-4e-05,0.021451,-0.000745,0.000516,0.499316,-0.014514,0.0,0.0,0.0,0.0,0.0,0.0
628180,-0.004264,0.011722,0.00149,0.0,0.0,0.0,0.0,0.087266,0.0,3.0,0.295791,0.374977,0.278169,0.341091,-3.6e-05,0.028915,-0.000954,0.000661,0.494491,-0.013377,0.0,0.0,0.0,0.0,0.0,0.0
628200,-0.00475,0.016483,0.001382,0.0,0.0,0.0,0.0,0.087266,0.0,3.0,0.306398,0.36078,0.286929,0.341082,-2.9e-05,0.041163,-0.001275,0.000856,0.482053,-0.011912,0.0,0.0,0.0,0.0,0.0,0.0
628220,-0.005113,0.023198,0.001281,0.0,0.0,0.0,0.0,0.087266,0.0,3.0,0.303446,0.355379,0.285963,0.349981,-2.4e-05,0.048348,-0.001449,0.000945,0.472389,-0.011018,0.0,0.0,0.0,0.0,0.0,0.0
628240,-0.00609,0.031622,0.000951,0.0,0.0,0.0,0.0,0.087266,0.0,3.0,0.306165,0.344055,0.283463,0.360704,-1.3e-05,0.059974,-0.00171,0.001048,0.453414,-0.009514,0.0,0.0,0.0,0.0,0.0,0.0
628260,-0.007074,0.041386,0.000391,0.0,0.0,0.0,0.0,0.087266,0.0,3.0,0.313584,0.329312,0.289928,0.363375,-5e-06,0.066712,-0.001849,0.001083,0.440626,-0.00861,0.0,0.0,0.0,0.0,0.0,0.0
628280,-0.008183,0.051641,-3.3e-05,0.0,0.0,0.0,0.0,0.087266,0.0,3.0,0.316493,0.322466,0.289417,0.367241,5e-06,0.075389,-0.002012,0.001101,0.422299,-0.007411,0.0,0.0,0.0,0.0,0.0,0.0
628300,-0.009536,0.062388,-0.000314,0.0,0.0,0.0,0.0,0.087266,0.0,3.0,0.318116,0.313478,0.286378,0.375385,1.9e-05,0.085705,-0.002183,0.00108,0.397841,-0.005932,0.0,0.0,0.0,0.0,0.0,0.0
628320,-0.010767,0.073988,-0.000458,0.0,0.0,0.0,0.0,0.087266,0.0,3.0,0.311848,0.308335,0.281358,0.387521,3.1e-05,0.091597,-0.002268,0.001046,0.382581,-0.005061,0.0,0.0,0.0,0.0,0.0,0.0
628340,-0.012127,0.085592,-0.000705,0.0,0.0,0.0,0.0,0.087266,0.0,3.0,0.317075,0.30105,0.282727,0.387954,3.9e-05,0.099093,-0.002361,0.000979,0.361797,-0.003926,0.0,0.0,0.0,0.0,0.0,0.0
628360,-0.013118,0.097562,-0.00083,0.0,0.0,0.0,0.0,0.087266,0.0,3.0,0.317665,0.293452,0.284111,0.391888,5.1e-05,0.106171,-0.002431,0.000888,0.340735,-0.002825,0.0,0.0,0.0,0.0,0.0,0.0
628380,-0.014354,0.109049,-0.000934,0.0,0.0,0.0,0.0,0.087266,0.0,3.0,0.31556,0.289827,0.279301,0.39891,6.3e-05,0.112828,-0.00248,0.000778,0.31961,-0.001764,0.0,0.0,0.0,0.0,0.0,0.0
628400,-0.015708,0.120178,-0.000896,0.0,0.0,0.0,0.0,0.087266,0.0,3.0,0.313968,0.286195,0.278585,0.402836,7.4e-05,0.119062,-0.002507,0.000652,0.298606,-0.00075,0.0,0.0,0.0,0.0,0.0,0.0
628420,-0.016573,0.130569,-0.000881,0.0,0.0,0.0,0.0,0.087266,0.0,3.0,0.312465,0.285859,0.277478,0.404791,8.8e-05,0.126268,-0.002513,0.000475,0.272755,0.000447,0.0,0.0,0.0,0.0,0.0,0.0
628440,-0.017315,0.140229,-0.000873,0.0,0.0,0.0,0.0,0.087266,0.0,3.0,0.312686,0.281825,0.279515,0.405906,9.6e-05,0.130283,-0.002503,0.000361,0.257558,0.001123,0.0,0.0,0.0,0.0,0.0,0.0
628460,-0.018059,0.149045,-0.000865,0.0,0.0,0.0,0.0,0.087266,0.0,3.0,0.313052,0.279976,0.279069,0.407041,0.000106,0.135284,-0.002473,0.000203,0.237756,0.001975,0.0,0.0,0.0,0.0,0.0,0.0
628480,-0.018681,0.157001,-0.000868,0.0,0.0,0.0,0.0,0.087266,0.0,3.0,0.311594,0.283536,0.277231,0.406997,0.000115,0.139894,-0.002426,4e-05,0.218564,0.002765,0.0,0.0,0.0,0.0,0.0,0.0
628500,-0.018805,0.16361,-0.000796,0.0,0.0,0.0,0.0,0.087266,0.0,3.0,0.312459,0.284994,0.277015,0.405614,0.000124,0.144126,-0.002364,-0.000124,0.200052,0.003493,0.0,0.0,0.0,0.0,0.0,0.0
628520,-0.018817,0.169245,-0.000866,0.0,0.0,0.0,0.0,0.087266,0.0,3.0,0.312778,0.284044,0.280508,0.403865,0.000131,0.147992,-0.002288,-0.000288,0.182277,0.004155,0.0,0.0,0.0,0.0,0.0,0.0
628540,-0.018697,0.173777,-0.000834,0.0,0.0,0.0,0.0,0.087266,0.0,3.0,0.310517,0.287949,0.280664,0.402916,0.000137,0.151509,-0.002199,-0.00045,0.165282,0.004752,0.0,0.0,0.0,0.0,0.0,0.0
628560,-0.018334,0.177082,-0.000836,0.0,0.0,0.0,0.0,0.087266,0.0,3.0,0.30757,0.289966,0.283941,0.401666,0.000142,0.154692,-0.002098,-0.000607,0.149097,0.005282,0.0,0.0,0.0,0.0,0.0,0.0
628580,-0.017605,0.179416,-0.000882,0.0,0.0,0.0,0.0,0.087266,0.0,3.0,0.306099,0.296132,0.282389,0.399613,0.000146,0.157558,-0.001987,-0.000757,0.133742,0.005746,0.0,0.0,0.0,0.0,0.0,0.0
628600,-0.017009,0.180279,-0.001054,0.0,0.0,0.0,0.0,0.087266,0.0,3.0,0.308055,0.298199,0.285755,0.394678,0.000149,0.160122,-0.001867,-0.000899,0.119226,0.006144,0.0,0.0,0.0,0.0,0.0,0.0
628620,-0.01628,0.180281,-0.001121,0.0,0.0,0.0,0.0,0.087266,0.0,3.0,0.311875,0.300723,0.287885,0.388716,0.000151,0.162403,-0.00174,-0.001032,0.10555,0.006476,0.0,0.0,0.0,0.0,0.0,0.0
628640,-0.015549,0.179664,-0.001192,0.0,0.0,0.0,0.0,0.087266,0.0,3.0,0.308929,0.304438,0.288511,0.387822,0.000151,0.164416,-0.001606,-0.001154,0.09271,0.006744,0.0,0.0,0.0,0.0,0.0,0.0
628660,-0.014952,0.178316,-0.001381,0.0,0.0,0.0,0.0,0.087266,0.0,3.0,0.307363,0.306776,0.288972,0.386962,0.00015,0.166179,-0.001468,-0.001264,0.080694,0.00695,0.0,0.0,0.0,0.0,0.0,0.0
628680,-0.014475,0.176725,-0.001561,0.0,0.0,0.0,0.0,0.087266,0.0,3.0,0.30667,0.31053,0.287427,0.38573,0.000147,0.167708,-0.001325,-0.001362,0.069485,0.007095,0.0,0.0,0.0,0.0,0.0,0.0
628700,-0.014374,0.175132,-0.00183,0.0,0.0,0.0,0.0,0.087266,0.0,3.0,0.314747,0.307604,0.289175,0.380629,0.000142,0.169313,-0.001144,-0.001467,0.056575,0.007195,0.0,0.0,0.0,0.0,0.0,0.0
628720,-0.013895,0.173287,-0.002009,0.0,0.0,0.0,0.0,0.087266,0.0,3.0,0.313701,0.309009,0.290555,0.379421,0.000139,0.170125,-0.001034,-0.00152,0.049399,0.007214,0.0,0.0,0.0,0.0,0.0,0.0
628740,-0.013428,0.171452,-0.00231,0.0,0.0,0.0,0.0,0.087266,0.0,3.0,0.314165,0.310381,0.289493,0.378753,0.000133,0.171045,-0.000888,-0.001578,0.040472,0.007192,0.0,0.0,0.0,0.0,0.0,0.0
628760,-0.013194,0.170104,-0.002464,0.0,0.0,0.0,0.0,0.087266,0.0,3.0,0.313148,0.306791,0.293368,0.379552,0.000126,0.171792,-0.000742,-0.001624,0.03225,0.007122,0.0,0.0,0.0,0.0,0.0,0.0
628780,-0.012848,0.168877,-0.002749,0.0,0.0,0.0,0.0,0.087266,0.0,3.0,0.310971,0.308111,0.291595,0.381474,0.000115,0.172503,-0.000563,-0.001662,0.022916,0.006968,0.0,0.0,0.0,0.0,0.0,0.0
628800,-0.012634,0.167648,-0.003147,0.0,0.0,0.0,0.0,0.087266,0.0,3.0,0.312863,0.306734,0.292669,0.380308,0.000108,0.172821,-0.000457,-0.001675,0.017794,0.006844,0.0,0.0,0.0,0.0,0.0,0.0
628820,-0.0124,0.166797,-0.003297,0.0,0.0,0.0,0.0,0.087266,0.0,3.0,0.314511,0.305211,0.293999,0.379231,9.8e-05,0.173128,-0.00032,-0.001681,0.011496,0.006645,0.0,0.0,0.0,0.0,0.0,0.0
628840,-0.012418,0.166177,-0.003547,0.0,0.0,0.0,0.0,0.087266,0.0,3.0,0.312818,0.30655,0.290204,0.382195,8.8e-05,0.173314,-0.000186,-0.001676,0.005774,0.006409,0.0,0.0,0.0,0.0,0.0,0.0
628860,-0.012307,0.166055,-0.003681,0.0,0.0,0.0,0.0,0.087266,0.0,3.0,0.313807,0.304772,0.292298,0.381302,7.7e-05,0.17339,-5.8e-05,-0.001659,0.000594,0.006141,0.0,0.0,0.0,0.0,0.0,0.0
628880,-0.012205,0.16581,-0.00394,0.0,0.0,0.0,0.0,0.087266,0.0,3.0,0.314071,0.304445,0.291482,0.381908,6.5e-05,0.173366,6.4e-05,-0.001631,-0.004077,0.005845,0.0,0.0,0.0,0.0,0.0,0.0
628900,-0.012093,0.16581,-0.004073,0.0,0.0,0.0,0.0,0.087266,0.0,3.0,0.314021,0.305016,0.288808,0.383367,5.2e-05,0.173252,0.00018,-0.001592,-0.008271,0.005523,0.0,0.0,0.0,0.0,0.0,0.0
628920,-0.012094,0.165932,-0.004072,0.0,0.0,0.0,0.0,0.087266,0.0,3.0,0.314112,0.303587,0.288975,0.38423,4e-05,0.173058,0.00029,-0.001545,-0.012021,0.00518,0.0,0.0,0.0,0.0,0.0,0.0
628940,-0.012104,0.166174,-0.004194,0.0,0.0,0.0,0.0,0.087266,0.0,3.0,0.313691,0.300984,0.291328,0.384829,2.4e-05,0.172715,0.000417,-0.001473,-0.016129,0.004727,0.0,0.0,0.0,0.0,0.0,0.0
628960,-0.012114,0.166173,-0.004318,0.0,0.0,0.0,0.0,0.087266,0.0,3.0,0.315887,0.299578,0.294699,0.381805,1.4e-05,0.172462,0.000487,-0.001424,-0.018309,0.004445,0.0,0.0,0.0,0.0,0.0,0.0
628980,-0.011992,0.166052,-0.004329,0.0,0.0,0.0,0.0,0.087266,0.0,3.0,0.313529,0.30295,0.292922,0.382423,1e-06,0.172076,0.000575,-0.001354,-0.020906,0.00406,0.0,0.0,0.0,0.0,0.0,0.0
629000,-0.012114,0.16593,-0.004319,0.0,0.0,0.0,0.0,0.087266,0.0,3.0,0.314555,0.304309,0.288493,0.383691,-1.5e-05,0.171525,0.000673,-0.001257,-0.023695,0.003567,0.0,0.0,0.0,0.0,0.0,0.0
629020,-0.011992,0.165566,-0.004332,0.0,0.0,0.0,0.0,0.087266,0.0,3.0,0.313594,0.303268,0.290206,0.384019,-2.5e-05,0.171162,0.000726,-0.001195,-0.025145,0.003269,0.0,0.0,0.0,0.0,0.0,0.0
629040,-0.011991,0.165444,-0.004332,0.0,0.0,0.0,0.0,0.087266,0.0,3.0,0.313077,0.303203,0.291219,0.383764,-3.7e-05,0.170646,0.000789,-0.001108,-0.026839,0.00287,0.0,0.0,0.0,0.0,0.0,0.0
629060,-0.011981,0.165323,-0.00421,0.0,0.0,0.0,0.0,0.087266,0.0,3.0,0.312639,0.304942,0.28942,0.384059,-4.9e-05,0.170098,0.000844,-0.001019,-0.028282,0.002473,0.0,0.0,0.0,0.0,0.0,0.0
629080,-0.011859,0.165202,-0.004221,0.0,0.0,0.0,0.0,0.087266,0.0,3.0,0.314254,0.304909,0.288627,0.38339,-6.1e-05,0.169523,0.000891,-0.000926,-0.029496,0.002081,0.0,0.0,0.0,0.0,0.0,0.0
629100,-0.011858,0.164827,-0.004222,0.0,0.0,0.0,0.0,0.087266,0.0,3.0,0.317802,0.300688,0.291521,0.381732,-7.2e-05,0.168925,0.000931,-0.000832,-0.030502,0.001695,0.0,0.0,0.0,0.0,0.0,0.0
629120,-0.011746,0.164705,-0.004356,0.0,0.0,0.0,0.0,0.087266,0.0,3.0,0.312538,0.303746,0.291431,0.383632,-8.3e-05,0.168308,0.000962,-0.000737,-0.03132,0.001318,0.0,0.0,0.0,0.0,0.0,0.0
629140,-0.011857,0.164462,-0.004224,0.0,0.0,0.0,0.0,0.087266,0.0,3.0,0.310468,0.306703,0.288155,0.385261,-9.3e-05,0.167677,0.000986,-0.000642,-0.03197,0.000952,0.0,0.0,0.0,0.0,0.0,0.0
629160,-0.011857,0.16434,-0.004225,0.0,0.0,0.0,0.0,0.087266,0.0,3.0,0.309619,0.305528,0.290377,0.385252,-0.000102,0.167034,0.001003,-0.000547,-0.032468,0.0006,0.0,0.0,0.0,0.0,0.0,0.0
629180,-0.011867,0.164096,-0.00435,0.0,0.0,0.0,0.0,0.087266,0.0,3.0,0.314362,0.302077,0.291158,0.383642,-0.000111,0.166381,0.001013,-0.000453,-0.03283,0.000263,0.0,0.0,0.0,0.0,0.0,0.0
629200,-0.011744,0.16361,-0.004363,0.0,0.0,0.0,0.0,0.087266,0.0,3.0,0.315487,0.30157,0.294116,0.38108,-0.000119,0.165723,0.001016,-0.000361,-0.033072,-5.8e-05,0.0,0.0,0.0,0.0,0.0,0.0
629220,-0.011865,0.163366,-0.004354,0.0,0.0,0.0,0.0,0.087266,0.0,3.0,0.312592,0.305214,0.288364,0.384612,-0.000126,0.16506,0.001012,-0.000271,-0.033207,-0.000361,0.0,0.0,0.0,0.0,0.0,0.0
629240,-0.011854,0.163114,-0.004231,0.0,0.0,0.0,0.0,0.087266,0.0,3.0,0.310839,0.308157,0.287724,0.384196,-0.000132,0.164396,0.001003,-0.000184,-0.033249,-0.000645,0.0,0.0,0.0,0.0,0.0,0.0
629260,-0.011611,0.162871,-0.004253,0.0,0.0,0.0,0.0,0.087266,0.0,3.0,0.316627,0.300834,0.293833,0.380928,-0.000138,0.163731,0.000988,-0.0001,-0.033208,-0.000909,0.0,0.0,0.0,0.0,0.0,0.0
629280,-0.011498,0.162506,-0.004388,0.0,0.0,0.0,0.0,0.087266,0.0,3.0,0.317017,0.300478,0.293107,0.381393,-0.000142,0.163067,0.000967,-2e-05,-0.033096,-0.001152,0.0,0.0,0.0,0.0,0.0,0.0
629300,-0.011498,0.162384,-0.004389,0.0,0.0,0.0,0.0,0.087266,0.0,3.0,0.314099,0.302377,0.290885,0.383814,-0.000146,0.162407,0.000942,5.6e-05,-0.032922,-0.001374,0.0,0.0,0.0,0.0,0.0,0.0
629320,-0.011619,0.162019,-0.004381,0.0,0.0,0.0,0.0,0.087266,0.0,3.0,0.314404,0.302771,0.289952,0.383935,-0.00015,0.161586,0.000905,0.000145,-0.032632,-0.001622,0.0,0.0,0.0,0.0,0.0,0.0
629340,-0.011506,0.161644,-0.004516,0.0,0.0,0.0,0.0,0.087266,0.0,3.0,0.314683,0.302022,0.294345,0.381212,-0.000152,0.161098,0.00088,0.000195,-0.032424,-0.001753,0.0,0.0,0.0,0.0,0.0,0.0
629360,-0.011383,0.161036,-0.004529,0.0,0.0,0.0,0.0,0.087266,0.0,3.0,0.310648,0.306979,0.288471,0.384709,-0.000153,0.160452,0.000843,0.000257,-0.032116,-0.00191,0.0,0.0,0.0,0.0,0.0,0.0
629380,-0.011383,0.160671,-0.004531,0.0,0.0,0.0,0.0,0.087266,0.0,3.0,0.310724,0.306379,0.288686,0.384949,-0.000154,0.159812,0.000804,0.000314,-0.031776,-0.002045,0.0,0.0,0.0,0.0,0.0,0.0
629400,-0.011381,0.160296,-0.004532,0.0,0.0,0.0,0.0,0.087266,0.0,3.0,0.314404,0.303843,0.291407,0.382148,-0.000154,0.159179,0.000761,0.000367,-0.031412,-0.002158,0.0,0.0,0.0,0.0,0.0,0.0
629420,-0.011381,0.159931,-0.004534,0.0,0.0,0.0,0.0,0.087266,0.0,3.0,0.314812,0.304855,0.292424,0.380374,-0.000153,0.158554,0.000717,0.000413,-0.031028,-0.00225,0.0,0.0,0.0,0.0,0.0,0.0
629440,-0.011015,0.159445,-0.004567,0.0,0.0,0.0,0.0,0.087266,0.0,3.0,0.317252,0.303154,0.2925,0.379673,-0.000152,0.157936,0.000671,0.000455,-0.030629,-0.002321,0.0,0.0,0.0,0.0,0.0,0.0
629460,-0.010892,0.159081,-0.004578,0.0,0.0,0.0,0.0,0.087266,0.0,3.0,0.312886,0.303191,0.293959,0.382012,-0.000149,0.157175,0.000612,0.0005,-0.030115,-0.002382,0.0,0.0,0.0,0.0,0.0,0.0
629480,-0.010769,0.158585,-0.00459,0.0,0.0,0.0,0.0,0.087266,0.0,3.0,0.313632,0.303376,0.292493,0.382329,-0.000147,0.156725,0.000575,0.000523,-0.029801,-0.002404,0.0,0.0,0.0,0.0,0.0,0.0
629500,-0.010647,0.15822,-0.004602,0.0,0.0,0.0,0.0,0.087266,0.0,3.0,0.312835,0.303617,0.29399,0.381716,-0.000144,0.156132,0.000527,0.000549,-0.02938,-0.002418,0.0,0.0,0.0,0.0,0.0,0.0
629520,-0.010524,0.157855,-0.004613,0.0,0.0,0.0,0.0,0.087266,0.0,3.0,0.312436,0.303416,0.294756,0.38163,-0.000141,0.155548,0.000478,0.00057,-0.028957,-0.002414,0.0,0.0,0.0,0.0,0.0,0.0
629540,-0.010412,0.157612,-0.004748,0.0,0.0,0.0,0.0,0.087266,0.0,3.0,0.313439,0.301644,0.295665,0.381515,-0.000137,0.154972,0.000429,0.000586,-0.028536,-0.002393,0.0,0.0,0.0,0.0,0.0,0.0
629560,-0.010167,0.157116,-0.004769,0.0,0.0,0.0,0.0,0.087266,0.0,3.0,0.317527,0.300158,0.29551,0.379525,-0.000132,0.154404,0.000381,0.000597,-0.028118,-0.002357,0.0,0.0,0.0,0.0,0.0,0.0
629580,-0.010175,0.156629,-0.004894,0.0,0.0,0.0,0.0,0.087266,0.0,3.0,0.313603,0.305624,0.293017,0.380322,-0.000128,0.153845,0.000334,0.000604,-0.027704,-0.002307,0.0,0.0,0.0,0.0,0.0,0.0
629600,-0.010052,0.155899,-0.004907,0.0,0.0,0.0,0.0,0.087266,0.0,3.0,0.312799,0.306527,0.291811,0.381112,-0.000123,0.153294,0.000288,0.000606,-0.027297,-0.002243,0.0,0.0,0.0,0.0,0.0,0.0
629620,-0.009685,0.155404,-0.004938,0.0,0.0,0.0,0.0,0.087266,0.0,3.0,0.313603,0.305515,0.295053,0.378962,-0.000117,0.152751,0.000243,0.000604,-0.026897,-0.002168,0.0,0.0,0.0,0.0,0.0,0.0
629640,-0.009319,0.154675,-0.00497,0.0,0.0,0.0,0.0,0.087266,0.0,3.0,0.317765,0.301997,0.295933,0.377681,-0.000112,0.152216,0.0002,0.000599,-0.026506,-0.002081,0.0,0.0,0.0,0.0,0.0,0.0
629660,-0.009083,0.154179,-0.005113,0.0,0.0,0.0,0.0,0.087266,0.0,3.0,0.31493,0.303356,0.296131,0.378766,-0.000106,0.151689,0.000158,0.00059,-0.026124,-0.001985,0.0,0.0,0.0,0.0,0.0,0.0
629680,-0.008838,0.15345,-0.005136,0.0,0.0,0.0,0.0,0.087266,0.0,3.0,0.313448,0.304451,0.295401,0.379627,-0.0001,0.151169,0.000119,0.000577,-0.025752,-0.00188,0.0,0.0,0.0,0.0,0.0,0.0
629700,-0.008592,0.152589,-0.005157,0.0,0.0,0.0,0.0,0.087266,0.0,3.0,0.310087,0.309056,0.29482,0.379163,-9.5e-05,0.150657,8.2e-05,0.000562,-0.025391,-0.001768,0.0,0.0,0.0,0.0,0.0,0.0
629720,-0.008113,0.15186,-0.005321,0.0,0.0,0.0,0.0,0.087266,0.0,3.0,0.312244,0.304344,0.299531,0.377655,-8.9e-05,0.150152,4.7e-05,0.000543,-0.025039,-0.00165,0.0,0.0,0.0,0.0,0.0,0.0
629740,-0.007747,0.151253,-0.005351,0.0,0.0,0.0,0.0,0.087266,0.0,3.0,0.313395,0.305796,0.296106,0.378157,-8.1e-05,0.14953,7e-06,0.000517,-0.024616,-0.001495,0.0,0.0,0.0,0.0,0.0,0.0
629760,-0.007135,0.150394,-0.0054,0.0,0.0,0.0,0.0,0.087266,0.0,3.0,0.312175,0.305488,0.298137,0.377868,-7.7e-05,0.149162,-1.5e-05,0.000499,-0.024369,-0.0014,0.0,0.0,0.0,0.0,0.0,0.0
629780,-0.006769,0.15003,-0.005429,0.0,0.0,0.0,0.0,0.087266,0.0,3.0,0.312963,0.305239,0.296895,0.378343,-7.1e-05,0.148677,-4.2e-05,0.000474,-0.024051,-0.00127,0.0,0.0,0.0,0.0,0.0,0.0
629800,-0.006402,0.149413,-0.005457,0.0,0.0,0.0,0.0,0.087266,0.0,3.0,0.313115,0.305811,0.29673,0.377915,-6.6e-05,0.148198,-6.7e-05,0.000448,-0.023742,-0.001139,0.0,0.0,0.0,0.0,0.0,0.0
629820,-0.006036,0.149049,-0.005486,0.0,0.0,0.0,0.0,0.087266,0.0,3.0,0.311829,0.307714,0.296423,0.377694,-6e-05,0.147726,-8.9e-05,0.000419,-0.023445,-0.001007,0.0,0.0,0.0,0.0,0.0,0.0
629840,-0.005661,0.148564,-0.005392,0.0,0.0,0.0,0.0,0.087266,0.0,3.0,0.311986,0.305771,0.297703,0.378117,-5.3e-05,0.147143,-0.000113,0.000383,-0.023087,-0.000843,0.0,0.0,0.0,0.0,0.0,0.0
629860,-0.005285,0.1482,-0.005297,0.0,0.0,0.0,0.0,0.087266,0.0,3.0,0.31243,0.305733,0.297526,0.377929,-5e-05,0.146798,-0.000125,0.00036,-0.02288,-0.000745,0.0,0.0,0.0,0.0,0.0,0.0
629880,-0.005042,0.148079,-0.005316,0.0,0.0,0.0,0.0,0.087266,0.0,3.0,0.312961,0.301933,0.299778,0.37871,-4.5e-05,0.146342,-0.000139,0.00033,-0.022612,-0.000617,0.0,0.0,0.0,0.0,0.0,0.0
629900,-0.005041,0.147949,-0.005315,0.0,0.0,0.0,0.0,0.087266,0.0,3.0,0.311982,0.304472,0.29711,0.379521,-4e-05,0.145892,-0.000151,0.000299,-0.022354,-0.000492,0.0,0.0,0.0,0.0,0.0,0.0
629920,-0.004919,0.147706,-0.005325,0.0,0.0,0.0,0.0,0.087266,0.0,3.0,0.312216,0.305325,0.297623,0.378332,-3.6e-05,0.145447,-0.00016,0.000268,-0.022105,-0.00037,0.0,0.0,0.0,0.0,0.0,0.0
629940,-0.00491,0.147828,-0.005201,0.0,0.0,0.0,0.0,0.087266,0.0,3.0,0.310707,0.30621,0.295667,0.380234,-3.1e-05,0.145007,-0.000166,0.000237,-0.021864,-0.000252,0.0,0.0,0.0,0.0,0.0,0.0
629960,-0.005031,0.147584,-0.005193,0.0,0.0,0.0,0.0,0.087266,0.0,3.0,0.312335,0.304779,0.296875,0.379188,-2.7e-05,0.144571,-0.00017,0.000207,-0.021632,-0.00014,0.0,0.0,0.0,0.0,0.0,0.0
629980,-0.005031,0.147462,-0.005193,0.0,0.0,0.0,0.0,0.087266,0.0,3.0,0.314772,0.304433,0.293084,0.380254,-2.4e-05,0.14414,-0.000172,0.000177,-0.021407,-3.2e-05,0.0,0.0,0.0,0.0,0.0,0.0
630000,-0.005265,0.147462,-0.005052,0.0,0.0,0.0,0.0,0.087266,0.0,3.0,0.312252,0.306433,0.292817,0.380899,-2.1e-05,0.143714,-0.000172,0.000147,-0.02119,7e-05,0.0,0.0,0.0,0.0,0.0,0.0
630020,-0.005144,0.147462,-0.005061,0.0,0.0,0.0,0.0,0.087266,0.0,3.0,0.313899,0.304103,0.293974,0.38055,-1.7e-05,0.143291,-0.00017,0.000119,-0.02098,0.000165,0.0,0.0,0.0,0.0,0.0,0.0
630040,-0.005144,0.147462,-0.005061,0.0,0.0,0.0,0.0,0.087266,0.0,3.0,0.312985,0.306163,0.295863,0.378374,-1.5e-05,0.142873,-0.000166,9.2e-05,-0.020777,0.000254,0.0,0.0,0.0,0.0,0.0,0.0
630060,-0.005143,0.14734,-0.005061,0.0,0.0,0.0,0.0,0.087266,0.0,3.0,0.315963,0.302155,0.297047,0.378185,-1.2e-05,0.142459,-0.00016,6.5e-05,-0.02058,0.000336,0.0,0.0,0.0,0.0,0.0,0.0
630080,-0.005012,0.147219,-0.004948,0.0,0.0,0.0,0.0,0.087266,0.0,3.0,0.311823,0.305048,0.295778,0.380168,-1e-05,0.142049,-0.000153,4e-05,-0.020389,0.000411,0.0,0.0,0.0,0.0,0.0,0.0
630100,-0.005125,0.147219,-0.004815,0.0,0.0,0.0,0.0,0.087266,0.0,3.0,0.309114,0.305921,0.293164,0.383417,-8e-06,0.141643,-0.000144,1.7e-05,-0.020204,0.000479,0.0,0.0,0.0,0.0,0.0,0.0
630120,-0.005247,0.147097,-0.004807,0.0,0.0,0.0,0.0,0.087266,0.0,3.0,0.309657,0.305778,0.293991,0.382537,-7e-06,0.14124,-0.000134,-6e-06,-0.020024,0.00054,0.0,0.0,0.0,0.0,0.0,0.0
630140,-0.005238,0.147097,-0.004684,0.0,0.0,0.0,0.0,0.087266,0.0,3.0,0.311916,0.303645,0.296571,0.38057,-5e-06,0.140841,-0.000123,-2.6e-05,-0.019849,0.000593,0.0,0.0,0.0,0.0,0.0,0.0
630160,-0.005481,0.146975,-0.004666,0.0,0.0,0.0,0.0,0.087266,0.0,3.0,0.313045,0.305637,0.293655,0.380293,-4e-06,0.140445,-0.00011,-4.6e-05,-0.019679,0.00064,0.0,0.0,0.0,0.0,0.0,0.0
630180,-0.005472,0.146854,-0.004543,0.0,0.0,0.0,0.0,0.087266,0.0,3.0,0.311419,0.306311,0.292811,0.381632,-3e-06,0.140053,-9.7e-05,-6.3e-05,-0.019513,0.000679,0.0,0.0,0.0,0.0,0.0,0.0
