time_ms,roll,pitch,yaw,x,y,z,reference_roll,reference_pitch,reference_yaw,reference_throttle,throttle_1,throttle_2,throttle_3,throttle_4,roll_predicted,pitch_predicted,yaw_predicted,roll_rate_predicted,pitch_rate_predicted,yaw_rate_predicted,value1,value2,value3,value4,value5,value6
670460,0.001848,0.009152,0.003654,0.0,0.0,0.0,0.0,0.0,0.0,3.0,0.298798,0.349554,0.285652,0.359705,-0.0,-8.8e-05,5e-06,0.0,3.3e-05,-1e-06,0.0,0.0,0.0,0.0,0.0,0.0
670480,0.001849,0.009396,0.003776,0.0,0.0,0.0,0.0,0.0,0.0,3.0,0.295004,0.350498,0.283367,0.363352,-0.0,-8.7e-05,4e-06,0.0,3.3e-05,-1e-06,0.0,0.0,0.0,0.0,0.0,0.0
670500,0.001727,0.009275,0.003777,0.0,0.0,0.0,0.0,0.0,0.0,3.0,0.298124,0.349752,0.286332,0.35954,-0.0,-8.7e-05,4e-06,0.0,3.2e-05,-1e-06,0.0,0.0,0.0,0.0,0.0,0.0
670520,0.001727,0.009275,0.003777,0.0,0.0,0.0,0.0,0.0,0.0,3.0,0.298927,0.348305,0.28833,0.358836,-0.0,-8.6e-05,4e-06,0.0,3.2e-05,-1e-06,0.0,0.0,0.0,0.0,0.0,0.0
670540,0.001605,0.009153,0.0039,0.0,0.0,0.0,0.0,0.0,0.0,3.0,0.298348,0.350585,0.285332,0.359293,-0.0,-8.6e-05,4e-06,0.0,3.2e-05,-1e-06,0.0,0.0,0.0,0.0,0.0,0.0
670560,0.001728,0.00903,0.004143,0.0,0.0,0.0,0.0,0.0,0.0,3.0,0.292479,0.354412,0.282975,0.361757,-0.0,-8.5e-05,4e-06,0.0,3.2e-05,-1e-06,0.0,0.0,0.0,0.0,0.0,0.0
670580,0.001606,0.00903,0.004144,0.0,0.0,0.0,0.0,0.0,0.0,3.0,0.294221,0.352173,0.28313,0.362505,-0.0,-8.4e-05,4e-06,0.0,3.1e-05,-1e-06,0.0,0.0,0.0,0.0,0.0,0.0
670600,0.001727,0.008786,0.004144,0.0,0.0,0.0,0.0,0.0,0.0,3.0,0.297002,0.350843,0.286973,0.358884,-0.0,-8.4e-05,4e-06,0.0,3.1e-05,-1e-06,0.0,0.0,0.0,0.0,0.0,0.0
670620,0.001605,0.008908,0.004144,0.0,0.0,0.0,0.0,0.0,0.0,3.0,0.300249,0.34703,0.288863,0.358629,-0.0,-8.3e-05,4e-06,0.0,3.1e-05,-1e-06,0.0,0.0,0.0,0.0,0.0,0.0
670640,0.001606,0.008786,0.004388,0.0,0.0,0.0,0.0,0.0,0.0,3.0,0.293188,0.353833,0.281621,0.36275,-0.0,-8.2e-05,4e-06,0.0,3.1e-05,-1e-06,0.0,0.0,0.0,0.0,0.0,0.0
670660,0.001484,0.008908,0.004389,0.0,0.0,0.0,0.0,0.0,0.0,3.0,0.294273,0.351288,0.282948,0.363444,-0.0,-8.2e-05,4e-06,0.0,3.1e-05,-1e-06,0.0,0.0,0.0,0.0,0.0,0.0
670680,0.001362,0.008664,0.004389,0.0,0.0,0.0,0.0,0.0,0.0,3.0,0.297159,0.350259,0.285866,0.360138,-0.0,-8.1e-05,4e-06,0.0,3e-05,-1e-06,0.0,0.0,0.0,0.0,0.0,0.0
670700,0.00124,0.008543,0.004512,0.0,0.0,0.0,0.0,0.0,0.0,3.0,0.296671,0.3518,0.284625,0.359926,-0.0,-8.1e-05,4e-06,0.0,3e-05,-1e-06,0.0,0.0,0.0,0.0,0.0,0.0
670720,0.001241,0.008543,0.004634,0.0,0.0,0.0,0.0,0.0,0.0,3.0,0.29538,0.352649,0.282933,0.361309,-0.0,-8e-05,4e-06,0.0,3e-05,-1e-06,0.0,0.0,0.0,0.0,0.0,0.0
670740,0.001241,0.008665,0.004634,0.0,0.0,0.0,0.0,0.0,0.0,3.0,0.293395,0.352589,0.282308,0.363309,-0.0,-7.9e-05,4e-06,0.0,3e-05,-1e-06,0.0,0.0,0.0,0.0,0.0,0.0
670760,0.001484,0.008664,0.004511,0.0,0.0,0.0,0.0,0.0,0.0,3.0,0.295794,0.349387,0.287539,0.3608,-0.0,-7.9e-05,4e-06,0.0,2.9e-05,-1e-06,0.0,0.0,0.0,0.0,0.0,0.0
670780,0.001484,0.008664,0.004511,0.0,0.0,0.0,0.0,0.0,0.0,3.0,0.297406,0.350114,0.287052,0.359218,-0.0,-7.8e-05,4e-06,0.0,2.9e-05,-1e-06,0.0,0.0,0.0,0.0,0.0,0.0
670800,0.001608,0.008908,0.004632,0.0,0.0,0.0,0.0,0.0,0.0,3.0,0.292424,0.352772,0.28273,0.363558,-0.0,-7.8e-05,4e-06,0.0,2.9e-05,-1e-06,0.0,0.0,0.0,0.0,0.0,0.0
670820,0.001608,0.008908,0.004632,0.0,0.0,0.0,0.0,0.0,0.0,3.0,0.292783,0.353398,0.282561,0.362808,-0.0,-7.7e-05,4e-06,0.0,2.9e-05,-1e-06,0.0,0.0,0.0,0.0,0.0,0.0
670840,0.001485,0.008786,0.004633,0.0,0.0,0.0,0.0,0.0,0.0,3.0,0.294882,0.352567,0.282821,0.361846,-0.0,-7.6e-05,4e-06,0.0,2.9e-05,-1e-06,0.0,0.0,0.0,0.0,0.0,0.0
670860,0.001363,0.008664,0.004634,0.0,0.0,0.0,0.0,0.0,0.0,3.0,0.296501,0.351539,0.284577,0.360344,-0.0,-7.6e-05,4e-06,0.0,2.8e-05,-1e-06,0.0,0.0,0.0,0.0,0.0,0.0
670880,0.001118,0.008421,0.004635,0.0,0.0,0.0,0.0,0.0,0.0,3.0,0.296721,0.352998,0.283654,0.359425,-0.0,-7.5e-05,4e-06,0.0,2.8e-05,-1e-06,0.0,0.0,0.0,0.0,0.0,0.0
670900,0.001118,0.008421,0.004635,0.0,0.0,0.0,0.0,0.0,0.0,3.0,0.2939,0.353312,0.281507,0.362801,-0.0,-7.5e-05,4e-06,0.0,2.8e-05,-1e-06,0.0,0.0,0.0,0.0,0.0,0.0
670920,0.000995,0.008177,0.004513,0.0,0.0,0.0,0.0,0.0,0.0,3.0,0.298349,0.351476,0.284372,0.359126,-0.0,-7.4e-05,4e-06,0.0,2.8e-05,-1e-06,0.0,0.0,0.0,0.0,0.0,0.0
670940,0.000994,0.008055,0.004391,0.0,0.0,0.0,0.0,0.0,0.0,3.0,0.29969,0.350535,0.285408,0.358238,-0.0,-7.4e-05,4e-06,0.0,2.8e-05,-1e-06,0.0,0.0,0.0,0.0,0.0,0.0
670960,0.000872,0.007933,0.004392,0.0,0.0,0.0,0.0,0.0,0.0,3.0,0.301001,0.350675,0.284893,0.357445,-0.0,-7.3e-05,4e-06,0.0,2.7e-05,-1e-06,0.0,0.0,0.0,0.0,0.0,0.0
670980,0.000872,0.007933,0.004514,0.0,0.0,0.0,0.0,0.0,0.0,3.0,0.296804,0.35299,0.281453,0.360947,-0.0,-7.3e-05,4e-06,0.0,2.7e-05,-1e-06,0.0,0.0,0.0,0.0,0.0,0.0
671000,0.000872,0.007933,0.004514,0.0,0.0,0.0,0.0,0.0,0.0,3.0,0.29677,0.352174,0.282679,0.360889,-0.0,-7.2e-05,4e-06,0.0,2.7e-05,-1e-06,0.0,0.0,0.0,0.0,0.0,0.0
671020,0.00075,0.007811,0.004515,0.0,0.0,0.0,0.0,0.0,0.0,3.0,0.29935,0.351363,0.282426,0.359861,-0.0,-7.1e-05,4e-06,0.0,2.7e-05,-1e-06,0.0,0.0,0.0,0.0,0.0,0.0
671040,0.000627,0.007567,0.004515,0.0,0.0,0.0,0.0,0.0,0.0,3.0,0.298618,0.352829,0.282494,0.358956,-0.0,-7.1e-05,4e-06,0.0,2.7e-05,-1e-06,0.0,0.0,0.0,0.0,0.0,0.0
671060,0.000628,0.007689,0.004637,0.0,0.0,0.0,0.0,0.0,0.0,3.0,0.293841,0.355136,0.278617,0.363103,-0.0,-7e-05,4e-06,0.0,2.6e-05,-1e-06,0.0,0.0,0.0,0.0,0.0,0.0
671080,0.000628,0.007689,0.004515,0.0,0.0,0.0,0.0,0.0,0.0,3.0,0.295714,0.352926,0.280718,0.36236,-0.0,-7e-05,4e-06,0.0,2.6e-05,-1e-06,0.0,0.0,0.0,0.0,0.0,0.0
671100,0.000628,0.007812,0.004515,0.0,0.0,0.0,0.0,0.0,0.0,3.0,0.296587,0.351576,0.281667,0.362326,-0.0,-6.9e-05,4e-06,0.0,2.6e-05,-1e-06,0.0,0.0,0.0,0.0,0.0,0.0
671120,0.000506,0.00769,0.004516,0.0,0.0,0.0,0.0,0.0,0.0,3.0,0.298279,0.352268,0.282443,0.359803,-0.0,-6.9e-05,4e-06,0.0,2.6e-05,-1e-06,0.0,0.0,0.0,0.0,0.0,0.0
671140,0.000628,0.007811,0.004637,0.0,0.0,0.0,0.0,0.0,0.0,3.0,0.295286,0.352226,0.282009,0.362447,-0.0,-6.8e-05,4e-06,0.0,2.6e-05,-1e-06,0.0,0.0,0.0,0.0,0.0,0.0
671160,0.000384,0.00769,0.004638,0.0,0.0,0.0,0.0,0.0,0.0,3.0,0.295166,0.354503,0.277542,0.363466,-0.0,-6.8e-05,4e-06,0.0,2.5e-05,-1e-06,0.0,0.0,0.0,0.0,0.0,0.0
671180,0.000384,0.00769,0.004516,0.0,0.0,0.0,0.0,0.0,0.0,3.0,0.298294,0.350176,0.283671,0.360932,-0.0,-6.7e-05,4e-06,0.0,2.5e-05,-1e-06,0.0,0.0,0.0,0.0,0.0,0.0
671200,0.000139,0.007691,0.004517,0.0,0.0,0.0,0.0,0.0,0.0,3.0,0.301119,0.349635,0.282765,0.359904,-0.0,-6.7e-05,4e-06,0.0,2.5e-05,-1e-06,0.0,0.0,0.0,0.0,0.0,0.0
671220,0.00014,0.007691,0.004639,0.0,0.0,0.0,0.0,0.0,0.0,3.0,0.297549,0.352597,0.279536,0.362109,-0.0,-6.6e-05,4e-06,0.0,2.5e-05,-1e-06,0.0,0.0,0.0,0.0,0.0,0.0
671240,0.000262,0.007812,0.004639,0.0,0.0,0.0,0.0,0.0,0.0,3.0,0.293322,0.352848,0.27939,0.365158,-0.0,-6.6e-05,4e-06,0.0,2.5e-05,-1e-06,0.0,0.0,0.0,0.0,0.0,0.0
671260,0.000139,0.007691,0.004517,0.0,0.0,0.0,0.0,0.0,0.0,3.0,0.298507,0.350865,0.28238,0.36103,-0.0,-6.5e-05,4e-06,0.0,2.4e-05,-1e-06,0.0,0.0,0.0,0.0,0.0,0.0
671280,0.000139,0.007691,0.004395,0.0,0.0,0.0,0.0,0.0,0.0,3.0,0.301295,0.348278,0.286114,0.358638,-0.0,-6.5e-05,4e-06,0.0,2.4e-05,-1e-06,0.0,0.0,0.0,0.0,0.0,0.0
671300,0.000139,0.007691,0.004517,0.0,0.0,0.0,0.0,0.0,0.0,3.0,0.296828,0.352066,0.280763,0.36231,-0.0,-6.4e-05,4e-06,0.0,2.4e-05,-1e-06,0.0,0.0,0.0,0.0,0.0,0.0
671320,1.7e-05,0.007691,0.004517,0.0,0.0,0.0,0.0,0.0,0.0,3.0,0.297817,0.352321,0.279855,0.361947,-0.0,-6.4e-05,4e-06,0.0,2.4e-05,-1e-06,0.0,0.0,0.0,0.0,0.0,0.0
671340,0.000139,0.007813,0.004395,0.0,0.0,0.0,0.0,0.0,0.0,3.0,0.298438,0.349123,0.28384,0.361708,-0.0,-6.3e-05,4e-06,0.0,2.4e-05,-1e-06,0.0,0.0,0.0,0.0,0.0,0.0
671360,1.6e-05,0.007691,0.004273,0.0,0.0,0.0,0.0,0.0,0.0,3.0,0.302249,0.348953,0.285341,0.357799,-0.0,-6.3e-05,4e-06,0.0,2.4e-05,-1e-06,0.0,0.0,0.0,0.0,0.0,0.0
671380,-0.000105,0.007813,0.004396,0.0,0.0,0.0,0.0,0.0,0.0,3.0,0.297896,0.351534,0.281524,0.361466,-0.0,-6.2e-05,4e-06,0.0,2.3e-05,-1e-06,0.0,0.0,0.0,0.0,0.0,0.0
671400,-0.000349,0.007936,0.004397,0.0,0.0,0.0,0.0,0.0,0.0,3.0,0.296449,0.353318,0.278225,0.363166,-0.0,-6.2e-05,4e-06,0.0,2.3e-05,-1e-06,0.0,0.0,0.0,0.0,0.0,0.0
671420,-0.000593,0.00818,0.004154,0.0,0.0,0.0,0.0,0.0,0.0,3.0,0.300753,0.348905,0.282545,0.361048,-0.0,-6.2e-05,4e-06,0.0,2.3e-05,-1e-06,0.0,0.0,0.0,0.0,0.0,0.0
671440,-0.000716,0.008059,0.004032,0.0,0.0,0.0,0.0,0.0,0.0,3.0,0.304299,0.347467,0.286248,0.356925,-0.0,-6.1e-05,4e-06,0.0,2.3e-05,-1e-06,0.0,0.0,0.0,0.0,0.0,0.0
671460,-0.00096,0.008059,0.004033,0.0,0.0,0.0,0.0,0.0,0.0,3.0,0.302835,0.349862,0.284071,0.357379,-0.0,-6.1e-05,4e-06,0.0,2.3e-05,-1e-06,0.0,0.0,0.0,0.0,0.0,0.0
671480,-0.001082,0.008059,0.004033,0.0,0.0,0.0,0.0,0.0,0.0,3.0,0.299004,0.351093,0.281221,0.361252,-0.0,-6e-05,4e-06,0.0,2.2e-05,-1e-06,0.0,0.0,0.0,0.0,0.0,0.0
671500,-0.001327,0.00806,0.003912,0.0,0.0,0.0,0.0,0.0,0.0,3.0,0.300886,0.349878,0.282477,0.360058,-0.0,-6e-05,4e-06,0.0,2.2e-05,-1e-06,0.0,0.0,0.0,0.0,0.0,0.0
671520,-0.001572,0.007938,0.003791,0.0,0.0,0.0,0.0,0.0,0.0,3.0,0.3054,0.34765,0.285617,0.356323,-0.0,-5.9e-05,4e-06,0.0,2.2e-05,-1e-06,0.0,0.0,0.0,0.0,0.0,0.0
671540,-0.001694,0.007816,0.003914,0.0,0.0,0.0,0.0,0.0,0.0,3.0,0.30052,0.35151,0.280909,0.359889,-0.0,-5.9e-05,4e-06,0.0,2.2e-05,-1e-06,0.0,0.0,0.0,0.0,0.0,0.0
671560,-0.001816,0.007816,0.003792,0.0,0.0,0.0,0.0,0.0,0.0,3.0,0.300826,0.350521,0.282041,0.359799,-0.0,-5.8e-05,4e-06,0.0,2.2e-05,-1e-06,0.0,0.0,0.0,0.0,0.0,0.0
671580,-0.001817,0.007694,0.003792,0.0,0.0,0.0,0.0,0.0,0.0,3.0,0.297127,0.352491,0.28016,0.362097,-0.0,-5.8e-05,4e-06,0.0,2.2e-05,-1e-06,0.0,0.0,0.0,0.0,0.0,0.0
671600,-0.001817,0.007816,0.00367,0.0,0.0,0.0,0.0,0.0,0.0,3.0,0.300842,0.348939,0.284603,0.359463,-0.0,-5.8e-05,4e-06,0.0,2.1e-05,-1e-06,0.0,0.0,0.0,0.0,0.0,0.0
671620,-0.001695,0.007816,0.003669,0.0,0.0,0.0,0.0,0.0,0.0,3.0,0.301087,0.348536,0.286486,0.358281,-0.0,-5.7e-05,4e-06,0.0,2.1e-05,-1e-06,0.0,0.0,0.0,0.0,0.0,0.0
671640,-0.001572,0.007938,0.003791,0.0,0.0,0.0,0.0,0.0,0.0,3.0,0.297835,0.350599,0.283824,0.36077,-0.0,-5.7e-05,4e-06,0.0,2.1e-05,-1e-06,0.0,0.0,0.0,0.0,0.0,0.0
671660,-0.001449,0.00806,0.003913,0.0,0.0,0.0,0.0,0.0,0.0,3.0,0.295419,0.351486,0.279633,0.364723,-0.0,-5.6e-05,4e-06,0.0,2.1e-05,-1e-06,0.0,0.0,0.0,0.0,0.0,0.0
671680,-0.001327,0.00806,0.003912,0.0,0.0,0.0,0.0,0.0,0.0,3.0,0.296242,0.350829,0.281741,0.363252,-0.0,-5.6e-05,4e-06,0.0,2.1e-05,-1e-06,0.0,0.0,0.0,0.0,0.0,0.0
671700,-0.001449,0.00806,0.003913,0.0,0.0,0.0,0.0,0.0,0.0,3.0,0.299926,0.3488,0.282957,0.361497,-0.0,-5.5e-05,4e-06,0.0,2.1e-05,-1e-06,0.0,0.0,0.0,0.0,0.0,0.0
671720,-0.001448,0.008182,0.004035,0.0,0.0,0.0,0.0,0.0,0.0,3.0,0.297294,0.350141,0.282323,0.362696,-0.0,-5.5e-05,4e-06,0.0,2.1e-05,-1e-06,0.0,0.0,0.0,0.0,0.0,0.0
671740,-0.001448,0.008304,0.004157,0.0,0.0,0.0,0.0,0.0,0.0,3.0,0.294689,0.352313,0.279358,0.364673,-0.0,-5.5e-05,4e-06,0.0,2e-05,-1e-06,0.0,0.0,0.0,0.0,0.0,0.0
671760,-0.001448,0.008304,0.004035,0.0,0.0,0.0,0.0,0.0,0.0,3.0,0.298532,0.349596,0.283764,0.361237,-0.0,-5.4e-05,4e-06,0.0,2e-05,-1e-06,0.0,0.0,0.0,0.0,0.0,0.0
671780,-0.00157,0.008304,0.004036,0.0,0.0,0.0,0.0,0.0,0.0,3.0,0.299469,0.349237,0.284049,0.36065,-0.0,-5.4e-05,4e-06,0.0,2e-05,-1e-06,0.0,0.0,0.0,0.0,0.0,0.0
671800,-0.00157,0.008304,0.004158,0.0,0.0,0.0,0.0,0.0,0.0,3.0,0.297634,0.351716,0.281434,0.361556,-0.0,-5.3e-05,4e-06,0.0,2e-05,-1e-06,0.0,0.0,0.0,0.0,0.0,0.0
671820,-0.001447,0.008182,0.004279,0.0,0.0,0.0,0.0,0.0,0.0,3.0,0.293215,0.353924,0.280386,0.36351,-0.0,-5.3e-05,4e-06,0.0,2e-05,-1e-06,0.0,0.0,0.0,0.0,0.0,0.0
671840,-0.001447,0.008182,0.004279,0.0,0.0,0.0,0.0,0.0,0.0,3.0,0.294426,0.352675,0.280399,0.363798,-0.0,-5.3e-05,4e-06,0.0,2e-05,-1e-06,0.0,0.0,0.0,0.0,0.0,0.0
671860,-0.00157,0.00806,0.004158,0.0,0.0,0.0,0.0,0.0,0.0,3.0,0.299782,0.350147,0.283539,0.359899,-0.0,-5.2e-05,4e-06,0.0,2e-05,-1e-06,0.0,0.0,0.0,0.0,0.0,0.0
671880,-0.001447,0.008182,0.004279,0.0,0.0,0.0,0.0,0.0,0.0,3.0,0.296635,0.350559,0.282812,0.362452,-0.0,-5.2e-05,4e-06,0.0,1.9e-05,-1e-06,0.0,0.0,0.0,0.0,0.0,0.0
671900,-0.001447,0.008182,0.004401,0.0,0.0,0.0,0.0,0.0,0.0,3.0,0.295745,0.352339,0.280517,0.363044,-0.0,-5.1e-05,4e-06,0.0,1.9e-05,-1e-06,0.0,0.0,0.0,0.0,0.0,0.0
671920,-0.001446,0.008426,0.004401,0.0,0.0,0.0,0.0,0.0,0.0,3.0,0.294326,0.351757,0.280113,0.36495,-0.0,-5.1e-05,4e-06,0.0,1.9e-05,-1e-06,0.0,0.0,0.0,0.0,0.0,0.0
671940,-0.001446,0.008426,0.004401,0.0,0.0,0.0,0.0,0.0,0.0,3.0,0.294226,0.353154,0.280062,0.363723,-0.0,-5.1e-05,4e-06,0.0,1.9e-05,-1e-06,0.0,0.0,0.0,0.0,0.0,0.0
671960,-0.001446,0.008671,0.00428,0.0,0.0,0.0,0.0,0.0,0.0,3.0,0.299913,0.347927,0.281062,0.364546,-0.0,-5e-05,3e-06,0.0,1.9e-05,-1e-06,0.0,0.0,0.0,0.0,0.0,0.0
671980,-0.001324,0.00867,0.004401,0.0,0.0,0.0,0.0,0.0,0.0,3.0,0.296039,0.351052,0.283028,0.362279,-0.0,-5e-05,3e-06,0.0,1.9e-05,-1e-06,0.0,0.0,0.0,0.0,0.0,0.0
672000,-0.001567,0.008671,0.004524,0.0,0.0,0.0,0.0,0.0,0.0,3.0,0.294494,0.354652,0.275999,0.364884,-0.0,-5e-05,3e-06,0.0,1.9e-05,-1e-06,0.0,0.0,0.0,0.0,0.0,0.0
672020,-0.001446,0.008549,0.004402,0.0,0.0,0.0,0.0,0.0,0.0,3.0,0.29535,0.35194,0.281882,0.362764,-0.0,-4.9e-05,3e-06,0.0,1.8e-05,-1e-06,0.0,0.0,0.0,0.0,0.0,0.0
672040,-0.001568,0.008427,0.004402,0.0,0.0,0.0,0.0,0.0,0.0,3.0,0.298411,0.352005,0.281439,0.360673,-0.0,-4.9e-05,3e-06,0.0,1.8e-05,-1e-06,0.0,0.0,0.0,0.0,0.0,0.0
672060,-0.001813,0.008427,0.004403,0.0,0.0,0.0,0.0,0.0,0.0,3.0,0.301223,0.350644,0.281008,0.360106,-0.0,-4.8e-05,3e-06,0.0,1.8e-05,-1e-06,0.0,0.0,0.0,0.0,0.0,0.0
672080,-0.001812,0.008427,0.004525,0.0,0.0,0.0,0.0,0.0,0.0,3.0,0.294451,0.354526,0.276098,0.364971,-0.0,-4.8e-05,3e-06,0.0,1.8e-05,-1e-06,0.0,0.0,0.0,0.0,0.0,0.0
672100,-0.001813,0.008427,0.004403,0.0,0.0,0.0,0.0,0.0,0.0,3.0,0.295783,0.352731,0.278617,0.363964,-0.0,-4.8e-05,3e-06,0.0,1.8e-05,-1e-06,0.0,0.0,0.0,0.0,0.0,0.0
672120,-0.001813,0.008305,0.004281,0.0,0.0,0.0,0.0,0.0,0.0,3.0,0.301526,0.348895,0.284011,0.359396,-0.0,-4.7e-05,3e-06,0.0,1.8e-05,-1e-06,0.0,0.0,0.0,0.0,0.0,0.0
672140,-0.001813,0.008305,0.004281,0.0,0.0,0.0,0.0,0.0,0.0,3.0,0.299901,0.350586,0.283074,0.359718,-0.0,-4.7e-05,3e-06,0.0,1.8e-05,-1e-06,0.0,0.0,0.0,0.0,0.0,0.0
672160,-0.001813,0.008549,0.004281,0.0,0.0,0.0,0.0,0.0,0.0,3.0,0.297962,0.35028,0.279833,0.363807,-0.0,-4.7e-05,3e-06,0.0,1.7e-05,-1e-06,0.0,0.0,0.0,0.0,0.0,0.0
672180,-0.001813,0.008549,0.004281,0.0,0.0,0.0,0.0,0.0,0.0,3.0,0.295558,0.351742,0.278648,0.365058,-0.0,-4.6e-05,3e-06,0.0,1.7e-05,-1e-06,0.0,0.0,0.0,0.0,0.0,0.0
672200,-0.001935,0.008671,0.00416,0.0,0.0,0.0,0.0,0.0,0.0,3.0,0.299745,0.348572,0.281041,0.363213,-0.0,-4.6e-05,3e-06,0.0,1.7e-05,-1e-06,0.0,0.0,0.0,0.0,0.0,0.0
672220,-0.001935,0.008671,0.00416,0.0,0.0,0.0,0.0,0.0,0.0,3.0,0.300621,0.348865,0.282157,0.361466,-0.0,-4.6e-05,3e-06,0.0,1.7e-05,-1e-06,0.0,0.0,0.0,0.0,0.0,0.0
672240,-0.002057,0.008672,0.004282,0.0,0.0,0.0,0.0,0.0,0.0,3.0,0.295962,0.352808,0.276615,0.365132,-0.0,-4.5e-05,3e-06,0.0,1.7e-05,-1e-06,0.0,0.0,0.0,0.0,0.0,0.0
672260,-0.002179,0.00855,0.004283,0.0,0.0,0.0,0.0,0.0,0.0,3.0,0.296124,0.353007,0.276617,0.364819,-0.0,-4.5e-05,3e-06,0.0,1.7e-05,-1e-06,0.0,0.0,0.0,0.0,0.0,0.0
672280,-0.00218,0.008306,0.00416,0.0,0.0,0.0,0.0,0.0,0.0,3.0,0.299832,0.350006,0.282027,0.361081,-0.0,-4.5e-05,3e-06,0.0,1.7e-05,-1e-06,0.0,0.0,0.0,0.0,0.0,0.0
672300,-0.002303,0.00794,0.00416,0.0,0.0,0.0,0.0,0.0,0.0,3.0,0.300842,0.350623,0.281733,0.359907,-0.0,-4.4e-05,3e-06,0.0,1.7e-05,-1e-06,0.0,0.0,0.0,0.0,0.0,0.0
672320,-0.002303,0.00794,0.00416,0.0,0.0,0.0,0.0,0.0,0.0,3.0,0.298983,0.351441,0.279586,0.362085,-0.0,-4.4e-05,3e-06,0.0,1.6e-05,-1e-06,0.0,0.0,0.0,0.0,0.0,0.0
672340,-0.00218,0.008062,0.004282,0.0,0.0,0.0,0.0,0.0,0.0,3.0,0.294064,0.353413,0.276471,0.366071,-0.0,-4.4e-05,3e-06,0.0,1.6e-05,-1e-06,0.0,0.0,0.0,0.0,0.0,0.0
672360,-0.002181,0.00794,0.00416,0.0,0.0,0.0,0.0,0.0,0.0,3.0,0.299399,0.351214,0.279993,0.361697,-0.0,-4.3e-05,3e-06,0.0,1.6e-05,-1e-06,0.0,0.0,0.0,0.0,0.0,0.0
672380,-0.00218,0.008184,0.00416,0.0,0.0,0.0,0.0,0.0,0.0,3.0,0.300084,0.350007,0.280598,0.361897,-0.0,-4.3e-05,3e-06,0.0,1.6e-05,-1e-06,0.0,0.0,0.0,0.0,0.0,0.0
672400,-0.00218,0.008184,0.004282,0.0,0.0,0.0,0.0,0.0,0.0,3.0,0.29705,0.353379,0.277546,0.363121,-0.0,-4.3e-05,3e-06,0.0,1.6e-05,-1e-06,0.0,0.0,0.0,0.0,0.0,0.0
672420,-0.002301,0.008428,0.004283,0.0,0.0,0.0,0.0,0.0,0.0,3.0,0.296535,0.353452,0.275928,0.364552,-0.0,-4.2e-05,3e-06,0.0,1.6e-05,-1e-06,0.0,0.0,0.0,0.0,0.0,0.0
672440,-0.00218,0.008184,0.00416,0.0,0.0,0.0,0.0,0.0,0.0,3.0,0.298928,0.351588,0.28135,0.360741,-0.0,-4.2e-05,3e-06,0.0,1.6e-05,-1e-06,0.0,0.0,0.0,0.0,0.0,0.0
672460,-0.002303,0.008062,0.00416,0.0,0.0,0.0,0.0,0.0,0.0,3.0,0.302005,0.350629,0.282632,0.358338,-0.0,-4.2e-05,3e-06,0.0,1.6e-05,-1e-06,0.0,0.0,0.0,0.0,0.0,0.0
672480,-0.002303,0.007818,0.004282,0.0,0.0,0.0,0.0,0.0,0.0,3.0,0.298223,0.354071,0.278953,0.360569,-0.0,-4.1e-05,3e-06,0.0,1.5e-05,-1e-06,0.0,0.0,0.0,0.0,0.0,0.0
672500,-0.002303,0.007696,0.004282,0.0,0.0,0.0,0.0,0.0,0.0,3.0,0.298113,0.353893,0.278553,0.361107,-0.0,-4.1e-05,3e-06,0.0,1.5e-05,-1e-06,0.0,0.0,0.0,0.0,0.0,0.0
672520,-0.002425,0.007574,0.004282,0.0,0.0,0.0,0.0,0.0,0.0,3.0,0.299204,0.352445,0.278983,0.361369,-0.0,-4.1e-05,3e-06,0.0,1.5e-05,-1e-06,0.0,0.0,0.0,0.0,0.0,0.0
672540,-0.002304,0.00733,0.004282,0.0,0.0,0.0,0.0,0.0,0.0,3.0,0.298239,0.352673,0.280128,0.361088,-0.0,-4e-05,3e-06,0.0,1.5e-05,-1e-06,0.0,0.0,0.0,0.0,0.0,0.0
672560,-0.002426,0.007208,0.004282,0.0,0.0,0.0,0.0,0.0,0.0,3.0,0.30128,0.352048,0.280137,0.359319,-0.0,-4e-05,3e-06,0.0,1.5e-05,-1e-06,0.0,0.0,0.0,0.0,0.0,0.0
672580,-0.002304,0.00733,0.004282,0.0,0.0,0.0,0.0,0.0,0.0,3.0,0.298327,0.351339,0.280145,0.362297,-0.0,-4e-05,3e-06,0.0,1.5e-05,-1e-06,0.0,0.0,0.0,0.0,0.0,0.0
672600,-0.002181,0.007451,0.004281,0.0,0.0,0.0,0.0,0.0,0.0,3.0,0.297002,0.351985,0.279634,0.363047,-0.0,-4e-05,3e-06,0.0,1.5e-05,-1e-06,0.0,0.0,0.0,0.0,0.0,0.0
672620,-0.002181,0.007696,0.004282,0.0,0.0,0.0,0.0,0.0,0.0,3.0,0.298217,0.350001,0.280702,0.36327,-0.0,-3.9e-05,3e-06,0.0,1.5e-05,-1e-06,0.0,0.0,0.0,0.0,0.0,0.0
672640,-0.002059,0.007695,0.004281,0.0,0.0,0.0,0.0,0.0,0.0,3.0,0.299752,0.349425,0.284253,0.360102,-0.0,-3.9e-05,3e-06,0.0,1.5e-05,-1e-06,0.0,0.0,0.0,0.0,0.0,0.0
672660,-0.001936,0.007817,0.004403,0.0,0.0,0.0,0.0,0.0,0.0,3.0,0.294965,0.351958,0.279954,0.364391,-0.0,-3.9e-05,3e-06,0.0,1.4e-05,-1e-06,0.0,0.0,0.0,0.0,0.0,0.0
672680,-0.001936,0.007817,0.004403,0.0,0.0,0.0,0.0,0.0,0.0,3.0,0.294,0.352741,0.278651,0.365269,-0.0,-3.8e-05,3e-06,0.0,1.4e-05,-1e-06,0.0,0.0,0.0,0.0,0.0,0.0
672700,-0.001815,0.007695,0.00428,0.0,0.0,0.0,0.0,0.0,0.0,3.0,0.297595,0.350233,0.2844,0.360891,-0.0,-3.8e-05,3e-06,0.0,1.4e-05,-1e-06,0.0,0.0,0.0,0.0,0.0,0.0
672720,-0.001936,0.007695,0.004403,0.0,0.0,0.0,0.0,0.0,0.0,3.0,0.296255,0.3518,0.280853,0.362938,-0.0,-3.8e-05,3e-06,0.0,1.4e-05,-1e-06,0.0,0.0,0.0,0.0,0.0,0.0
672740,-0.001936,0.007695,0.004525,0.0,0.0,0.0,0.0,0.0,0.0,3.0,0.292773,0.354534,0.276966,0.365618,-0.0,-3.8e-05,3e-06,0.0,1.4e-05,-1e-06,0.0,0.0,0.0,0.0,0.0,0.0
672760,-0.001814,0.007695,0.004524,0.0,0.0,0.0,0.0,0.0,0.0,3.0,0.293265,0.353224,0.278542,0.365428,-0.0,-3.7e-05,3e-06,0.0,1.4e-05,-1e-06,0.0,0.0,0.0,0.0,0.0,0.0
672780,-0.001936,0.007817,0.004403,0.0,0.0,0.0,0.0,0.0,0.0,3.0,0.298743,0.350153,0.281651,0.36205,-0.0,-3.7e-05,3e-06,0.0,1.4e-05,-1e-06,0.0,0.0,0.0,0.0,0.0,0.0
672800,-0.001813,0.007939,0.004525,0.0,0.0,0.0,0.0,0.0,0.0,3.0,0.295041,0.351853,0.281516,0.363339,-0.0,-3.7e-05,3e-06,0.0,1.4e-05,-1e-06,0.0,0.0,0.0,0.0,0.0,0.0
672820,-0.001813,0.007939,0.004647,0.0,0.0,0.0,0.0,0.0,0.0,3.0,0.293061,0.354839,0.276898,0.365158,-0.0,-3.6e-05,3e-06,0.0,1.4e-05,-1e-06,0.0,0.0,0.0,0.0,0.0,0.0
672840,-0.001813,0.008061,0.004525,0.0,0.0,0.0,0.0,0.0,0.0,3.0,0.295363,0.351877,0.280431,0.363835,-0.0,-3.6e-05,3e-06,0.0,1.4e-05,-1e-06,0.0,0.0,0.0,0.0,0.0,0.0
672860,-0.001936,0.007817,0.004525,0.0,0.0,0.0,0.0,0.0,0.0,3.0,0.294627,0.353301,0.278946,0.364059,-0.0,-3.6e-05,3e-06,0.0,1.3e-05,-1e-06,0.0,0.0,0.0,0.0,0.0,0.0
672880,-0.002058,0.007696,0.004525,0.0,0.0,0.0,0.0,0.0,0.0,3.0,0.29677,0.352964,0.279865,0.36212,-0.0,-3.6e-05,3e-06,0.0,1.3e-05,-1e-06,0.0,0.0,0.0,0.0,0.0,0.0
672900,-0.002058,0.007573,0.004525,0.0,0.0,0.0,0.0,0.0,0.0,3.0,0.297031,0.352987,0.278859,0.362602,-0.0,-3.5e-05,3e-06,0.0,1.3e-05,-1e-06,0.0,0.0,0.0,0.0,0.0,0.0
672920,-0.00218,0.007574,0.004526,0.0,0.0,0.0,0.0,0.0,0.0,3.0,0.294991,0.354856,0.27578,0.364464,-0.0,-3.5e-05,3e-06,0.0,1.3e-05,-1e-06,0.0,0.0,0.0,0.0,0.0,0.0
672940,-0.002181,0.007574,0.004404,0.0,0.0,0.0,0.0,0.0,0.0,3.0,0.298311,0.351263,0.279977,0.362499,-0.0,-3.5e-05,3e-06,0.0,1.3e-05,-1e-06,0.0,0.0,0.0,0.0,0.0,0.0
672960,-0.002303,0.007452,0.004404,0.0,0.0,0.0,0.0,0.0,0.0,3.0,0.299495,0.352002,0.279944,0.360896,-0.0,-3.5e-05,3e-06,0.0,1.3e-05,-1e-06,0.0,0.0,0.0,0.0,0.0,0.0
672980,-0.002303,0.007696,0.004404,0.0,0.0,0.0,0.0,0.0,0.0,3.0,0.300066,0.350867,0.280193,0.361372,-0.0,-3.4e-05,3e-06,0.0,1.3e-05,-1e-06,0.0,0.0,0.0,0.0,0.0,0.0
673000,-0.002424,0.00794,0.004405,0.0,0.0,0.0,0.0,0.0,0.0,3.0,0.297397,0.351363,0.277087,0.365104,-0.0,-3.4e-05,3e-06,0.0,1.3e-05,-1e-06,0.0,0.0,0.0,0.0,0.0,0.0
673020,-0.002425,0.007818,0.004283,0.0,0.0,0.0,0.0,0.0,0.0,3.0,0.298007,0.350498,0.280761,0.362913,-0.0,-3.4e-05,3e-06,0.0,1.3e-05,-0.0,0.0,0.0,0.0,0.0,0.0,0.0
673040,-0.00267,0.007696,0.004161,0.0,0.0,0.0,0.0,0.0,0.0,3.0,0.302558,0.349253,0.281446,0.360081,-0.0,-3.4e-05,3e-06,0.0,1.3e-05,-0.0,0.0,0.0,0.0,0.0,0.0,0.0
673060,-0.002791,0.007697,0.004284,0.0,0.0,0.0,0.0,0.0,0.0,3.0,0.297473,0.35288,0.276626,0.363913,-0.0,-3.3e-05,3e-06,0.0,1.2e-05,-0.0,0.0,0.0,0.0,0.0,0.0,0.0
673080,-0.002791,0.007697,0.004284,0.0,0.0,0.0,0.0,0.0,0.0,3.0,0.295124,0.353267,0.275929,0.365789,-0.0,-3.3e-05,3e-06,0.0,1.2e-05,-0.0,0.0,0.0,0.0,0.0,0.0,0.0
673100,-0.002914,0.007575,0.004162,0.0,0.0,0.0,0.0,0.0,0.0,3.0,0.296704,0.353127,0.276093,0.364624,-0.0,-3.3e-05,3e-06,0.0,1.2e-05,-0.0,0.0,0.0,0.0,0.0,0.0,0.0
673120,-0.002915,0.007575,0.00404,0.0,0.0,0.0,0.0,0.0,0.0,3.0,0.299807,0.349606,0.280923,0.362265,-0.0,-3.3e-05,3e-06,0.0,1.2e-05,-0.0,0.0,0.0,0.0,0.0,0.0,0.0
673140,-0.003037,0.007575,0.004041,0.0,0.0,0.0,0.0,0.0,0.0,3.0,0.301391,0.350401,0.279594,0.361208,-0.0,-3.2e-05,3e-06,0.0,1.2e-05,-0.0,0.0,0.0,0.0,0.0,0.0,0.0
673160,-0.003036,0.007697,0.004163,0.0,0.0,0.0,0.0,0.0,0.0,3.0,0.295638,0.353847,0.274237,0.365994,-0.0,-3.2e-05,3e-06,0.0,1.2e-05,-0.0,0.0,0.0,0.0,0.0,0.0,0.0
673180,-0.003158,0.007697,0.004041,0.0,0.0,0.0,0.0,0.0,0.0,3.0,0.297899,0.351933,0.276652,0.364478,-0.0,-3.2e-05,3e-06,0.0,1.2e-05,-0.0,0.0,0.0,0.0,0.0,0.0,0.0
673200,-0.003281,0.007575,0.003919,0.0,0.0,0.0,0.0,0.0,0.0,3.0,0.303745,0.349601,0.280271,0.359641,-0.0,-3.2e-05,3e-06,0.0,1.2e-05,-0.0,0.0,0.0,0.0,0.0,0.0,0.0
673220,-0.003281,0.007453,0.004041,0.0,0.0,0.0,0.0,0.0,0.0,3.0,0.299347,0.352703,0.277604,0.36197,-0.0,-3.1e-05,3e-06,0.0,1.2e-05,-0.0,0.0,0.0,0.0,0.0,0.0,0.0
673240,-0.003403,0.007454,0.004042,0.0,0.0,0.0,0.0,0.0,0.0,3.0,0.298212,0.353401,0.276633,0.362841,-0.0,-3.1e-05,3e-06,0.0,1.2e-05,-0.0,0.0,0.0,0.0,0.0,0.0,0.0
673260,-0.003648,0.007454,0.003798,0.0,0.0,0.0,0.0,0.0,0.0,3.0,0.301497,0.350184,0.278798,0.361891,-0.0,-3.1e-05,3e-06,0.0,1.2e-05,-0.0,0.0,0.0,0.0,0.0,0.0,0.0
673280,-0.003649,0.007087,0.003676,0.0,0.0,0.0,0.0,0.0,0.0,3.0,0.302095,0.351027,0.280571,0.359359,-0.0,-3.1e-05,3e-06,0.0,1.1e-05,-0.0,0.0,0.0,0.0,0.0,0.0,0.0
673300,-0.003893,0.007088,0.003677,0.0,0.0,0.0,0.0,0.0,0.0,3.0,0.301509,0.352111,0.276962,0.361307,-0.0,-3e-05,3e-06,0.0,1.1e-05,-0.0,0.0,0.0,0.0,0.0,0.0,0.0
673320,-0.004016,0.006843,0.003554,0.0,0.0,0.0,0.0,0.0,0.0,3.0,0.302562,0.350563,0.280236,0.359676,-0.0,-3e-05,3e-06,0.0,1.1e-05,-0.0,0.0,0.0,0.0,0.0,0.0,0.0
673340,-0.004016,0.006965,0.003555,0.0,0.0,0.0,0.0,0.0,0.0,3.0,0.29722,0.352001,0.276875,0.364776,-0.0,-3e-05,3e-06,0.0,1.1e-05,-0.0,0.0,0.0,0.0,0.0,0.0,0.0
673360,-0.004261,0.006965,0.003311,0.0,0.0,0.0,0.0,0.0,0.0,3.0,0.304791,0.347088,0.282402,0.359695,-0.0,-3e-05,3e-06,0.0,1.1e-05,-0.0,0.0,0.0,0.0,0.0,0.0,0.0
673380,-0.004384,0.006843,0.003189,0.0,0.0,0.0,0.0,0.0,0.0,3.0,0.305187,0.346823,0.284003,0.358474,-0.0,-3e-05,3e-06,0.0,1.1e-05,-0.0,0.0,0.0,0.0,0.0,0.0,0.0
673400,-0.004506,0.006966,0.00319,0.0,0.0,0.0,0.0,0.0,0.0,3.0,0.300625,0.349914,0.279781,0.36214,-0.0,-2.9e-05,3e-06,0.0,1.1e-05,-0.0,0.0,0.0,0.0,0.0,0.0,0.0
673420,-0.004628,0.006965,0.003068,0.0,0.0,0.0,0.0,0.0,0.0,3.0,0.300289,0.349421,0.280812,0.362146,-0.0,-2.9e-05,3e-06,0.0,1.1e-05,-0.0,0.0,0.0,0.0,0.0,0.0,0.0
673440,-0.004629,0.006965,0.002946,0.0,0.0,0.0,0.0,0.0,0.0,3.0,0.30065,0.347963,0.283368,0.361437,-0.0,-2.9e-05,3e-06,0.0,1.1e-05,-0.0,0.0,0.0,0.0,0.0,0.0,0.0
673460,-0.004873,0.006965,0.002825,0.0,0.0,0.0,0.0,0.0,0.0,3.0,0.304511,0.346695,0.282993,0.359868,-0.0,-2.9e-05,3e-06,0.0,1.1e-05,-0.0,0.0,0.0,0.0,0.0,0.0,0.0
673480,-0.004874,0.006721,0.002702,0.0,0.0,0.0,0.0,0.0,0.0,3.0,0.303732,0.348015,0.284498,0.358137,-0.0,-2.8e-05,3e-06,0.0,1.1e-05,-0.0,0.0,0.0,0.0,0.0,0.0,0.0
673500,-0.004752,0.006721,0.002702,0.0,0.0,0.0,0.0,0.0,0.0,3.0,0.298646,0.35026,0.281601,0.362058,-0.0,-2.8e-05,3e-06,0.0,1.1e-05,-0.0,0.0,0.0,0.0,0.0,0.0,0.0
673520,-0.004875,0.006598,0.00258,0.0,0.0,0.0,0.0,0.0,0.0,3.0,0.301081,0.348939,0.282166,0.36103,-0.0,-2.8e-05,3e-06,0.0,1e-05,-0.0,0.0,0.0,0.0,0.0,0.0,0.0
673540,-0.004875,0.006354,0.002457,0.0,0.0,0.0,0.0,0.0,0.0,3.0,0.301505,0.348622,0.283967,0.359706,-0.0,-2.8e-05,3e-06,0.0,1e-05,-0.0,0.0,0.0,0.0,0.0,0.0,0.0
673560,-0.004997,0.006232,0.002579,0.0,0.0,0.0,0.0,0.0,0.0,3.0,0.300407,0.351051,0.280609,0.360634,-0.0,-2.8e-05,3e-06,0.0,1e-05,-0.0,0.0,0.0,0.0,0.0,0.0,0.0
673580,-0.004997,0.005988,0.002579,0.0,0.0,0.0,0.0,0.0,0.0,3.0,0.297599,0.354033,0.278278,0.361559,-0.0,-2.7e-05,3e-06,0.0,1e-05,-0.0,0.0,0.0,0.0,0.0,0.0,0.0
673600,-0.004876,0.005866,0.002456,0.0,0.0,0.0,0.0,0.0,0.0,3.0,0.298824,0.351456,0.280401,0.36162,-0.0,-2.7e-05,3e-06,0.0,1e-05,-0.0,0.0,0.0,0.0,0.0,0.0,0.0
673620,-0.004999,0.005621,0.002334,0.0,0.0,0.0,0.0,0.0,0.0,3.0,0.30281,0.350159,0.282557,0.35821,-0.0,-2.7e-05,3e-06,0.0,1e-05,-0.0,0.0,0.0,0.0,0.0,0.0,0.0
673640,-0.004877,0.005621,0.002333,0.0,0.0,0.0,0.0,0.0,0.0,3.0,0.302182,0.349845,0.282754,0.358869,-0.0,-2.7e-05,3e-06,0.0,1e-05,-0.0,0.0,0.0,0.0,0.0,0.0,0.0
673660,-0.004755,0.005499,0.002333,0.0,0.0,0.0,0.0,0.0,0.0,3.0,0.300926,0.35137,0.281547,0.359251,-0.0,-2.7e-05,3e-06,0.0,1e-05,-0.0,0.0,0.0,0.0,0.0,0.0,0.0
673680,-0.004877,0.005377,0.002333,0.0,0.0,0.0,0.0,0.0,0.0,3.0,0.298461,0.354024,0.27807,0.361049,-0.0,-2.6e-05,3e-06,0.0,1e-05,-0.0,0.0,0.0,0.0,0.0,0.0,0.0
673700,-0.004877,0.005377,0.002211,0.0,0.0,0.0,0.0,0.0,0.0,3.0,0.301433,0.349695,0.282485,0.3598,-0.0,-2.6e-05,3e-06,0.0,1e-05,-0.0,0.0,0.0,0.0,0.0,0.0,0.0
673720,-0.005,0.005133,0.00221,0.0,0.0,0.0,0.0,0.0,0.0,3.0,0.301972,0.35161,0.281494,0.358229,-0.0,-2.6e-05,3e-06,0.0,1e-05,-0.0,0.0,0.0,0.0,0.0,0.0,0.0
673740,-0.005244,0.005011,0.002211,0.0,0.0,0.0,0.0,0.0,0.0,3.0,0.303074,0.351223,0.279323,0.359278,-0.0,-2.6e-05,3e-06,0.0,1e-05,-0.0,0.0,0.0,0.0,0.0,0.0,0.0
673760,-0.005244,0.004767,0.00221,0.0,0.0,0.0,0.0,0.0,0.0,3.0,0.300892,0.352356,0.279992,0.359427,-0.0,-2.6e-05,3e-06,0.0,1e-05,-0.0,0.0,0.0,0.0,0.0,0.0,0.0
673780,-0.005489,0.004523,0.002088,0.0,0.0,0.0,0.0,0.0,0.0,3.0,0.303815,0.351131,0.280424,0.357993,-0.0,-2.5e-05,3e-06,0.0,1e-05,-0.0,0.0,0.0,0.0,0.0,0.0,0.0
673800,-0.005611,0.004156,0.001965,0.0,0.0,0.0,0.0,0.0,0.0,3.0,0.304092,0.350956,0.280711,0.357737,-0.0,-2.5e-05,3e-06,0.0,9e-06,-0.0,0.0,0.0,0.0,0.0,0.0,0.0
673820,-0.005612,0.00379,0.001842,0.0,0.0,0.0,0.0,0.0,0.0,3.0,0.303755,0.351715,0.281516,0.356686,-0.0,-2.5e-05,3e-06,0.0,9e-06,-0.0,0.0,0.0,0.0,0.0,0.0,0.0
673840,-0.005857,0.003667,0.00172,0.0,0.0,0.0,0.0,0.0,0.0,3.0,0.307224,0.348685,0.283079,0.355695,-0.0,-2.5e-05,3e-06,0.0,9e-06,-0.0,0.0,0.0,0.0,0.0,0.0,0.0
673860,-0.005735,0.003301,0.001719,0.0,0.0,0.0,0.0,0.0,0.0,3.0,0.302338,0.352263,0.282093,0.356866,-0.0,-2.5e-05,3e-06,0.0,9e-06,-0.0,0.0,0.0,0.0,0.0,0.0,0.0
673880,-0.005857,0.003179,0.001596,0.0,0.0,0.0,0.0,0.0,0.0,3.0,0.30451,0.350777,0.281331,0.35713,-0.0,-2.5e-05,3e-06,0.0,9e-06,-0.0,0.0,0.0,0.0,0.0,0.0,0.0
673900,-0.005979,0.002935,0.001596,0.0,0.0,0.0,0.0,0.0,0.0,3.0,0.303912,0.350782,0.281206,0.357695,-0.0,-2.4e-05,3e-06,0.0,9e-06,-0.0,0.0,0.0,0.0,0.0,0.0,0.0
673920,-0.006102,0.00269,0.001473,0.0,0.0,0.0,0.0,0.0,0.0,3.0,0.305044,0.351184,0.281151,0.356429,-0.0,-2.4e-05,2e-06,0.0,9e-06,-0.0,0.0,0.0,0.0,0.0,0.0,0.0
673940,-0.006224,0.002568,0.001473,0.0,0.0,0.0,0.0,0.0,0.0,3.0,0.304269,0.351565,0.280342,0.357263,-0.0,-2.4e-05,2e-06,0.0,9e-06,-0.0,0.0,0.0,0.0,0.0,0.0,0.0
673960,-0.006224,0.002446,0.001473,0.0,0.0,0.0,0.0,0.0,0.0,3.0,0.302516,0.352045,0.280475,0.358102,-0.0,-2.4e-05,2e-06,0.0,9e-06,-0.0,0.0,0.0,0.0,0.0,0.0,0.0
673980,-0.006469,0.002324,0.00135,0.0,0.0,0.0,0.0,0.0,0.0,3.0,0.305451,0.350726,0.28088,0.356744,-0.0,-2.4e-05,2e-06,0.0,9e-06,-0.0,0.0,0.0,0.0,0.0,0.0,0.0
674000,-0.006591,0.00208,0.00135,0.0,0.0,0.0,0.0,0.0,0.0,3.0,0.305173,0.351179,0.280537,0.356773,-0.0,-2.3e-05,2e-06,0.0,9e-06,-0.0,0.0,0.0,0.0,0.0,0.0,0.0
674020,-0.006591,0.001836,0.001349,0.0,0.0,0.0,0.0,0.0,0.0,3.0,0.304249,0.351946,0.28068,0.356664,-0.0,-2.3e-05,2e-06,0.0,9e-06,-0.0,0.0,0.0,0.0,0.0,0.0,0.0
674040,-0.006835,0.001836,0.001349,0.0,0.0,0.0,0.0,0.0,0.0,3.0,0.305513,0.351339,0.279159,0.357327,-0.0,-2.3e-05,2e-06,0.0,9e-06,-0.0,0.0,0.0,0.0,0.0,0.0,0.0
674060,-0.006713,0.001592,0.001348,0.0,0.0,0.0,0.0,0.0,0.0,3.0,0.303665,0.351732,0.281241,0.35694,-0.0,-2.3e-05,2e-06,0.0,9e-06,-0.0,0.0,0.0,0.0,0.0,0.0,0.0
674080,-0.006835,0.001592,0.001348,0.0,0.0,0.0,0.0,0.0,0.0,3.0,0.303648,0.3514,0.279504,0.358521,-0.0,-2.3e-05,2e-06,0.0,9e-06,-0.0,0.0,0.0,0.0,0.0,0.0,0.0
674100,-0.006958,0.001225,0.001225,0.0,0.0,0.0,0.0,0.0,0.0,3.0,0.305837,0.351552,0.280795,0.355681,-0.0,-2.3e-05,2e-06,0.0,8e-06,-0.0,0.0,0.0,0.0,0.0,0.0,0.0
674120,-0.00708,0.000981,0.001224,0.0,0.0,0.0,0.0,0.0,0.0,3.0,0.307163,0.350947,0.282057,0.354273,-0.0,-2.2e-05,2e-06,0.0,8e-06,-0.0,0.0,0.0,0.0,0.0,0.0,0.0
674140,-0.007202,0.000981,0.001224,0.0,0.0,0.0,0.0,0.0,0.0,3.0,0.307449,0.350237,0.281013,0.355496,-0.0,-2.2e-05,2e-06,0.0,8e-06,-0.0,0.0,0.0,0.0,0.0,0.0,0.0
674160,-0.007202,0.000737,0.001224,0.0,0.0,0.0,0.0,0.0,0.0,3.0,0.30517,0.351881,0.28013,0.356378,-0.0,-2.2e-05,2e-06,0.0,8e-06,-0.0,0.0,0.0,0.0,0.0,0.0,0.0
674180,-0.007324,0.000615,0.001223,0.0,0.0,0.0,0.0,0.0,0.0,3.0,0.304583,0.352236,0.279704,0.356809,-0.0,-2.2e-05,2e-06,0.0,8e-06,-0.0,0.0,0.0,0.0,0.0,0.0,0.0
674200,-0.007447,0.00037,0.0011,0.0,0.0,0.0,0.0,0.0,0.0,3.0,0.307883,0.351084,0.280591,0.354611,-0.0,-2.2e-05,2e-06,0.0,8e-06,-0.0,0.0,0.0,0.0,0.0,0.0,0.0
674220,-0.007447,0.000248,0.0011,0.0,0.0,0.0,0.0,0.0,0.0,3.0,0.304747,0.352295,0.279243,0.356949,-0.0,-2.2e-05,2e-06,0.0,8e-06,-0.0,0.0,0.0,0.0,0.0,0.0,0.0
674240,-0.007569,0.000248,0.0011,0.0,0.0,0.0,0.0,0.0,0.0,3.0,0.304749,0.351936,0.278909,0.357537,-0.0,-2.1e-05,2e-06,0.0,8e-06,-0.0,0.0,0.0,0.0,0.0,0.0,0.0
674260,-0.007569,0.000126,0.001099,0.0,0.0,0.0,0.0,0.0,0.0,3.0,0.303085,0.352675,0.277286,0.35929,-0.0,-2.1e-05,2e-06,0.0,8e-06,-0.0,0.0,0.0,0.0,0.0,0.0,0.0
674280,-0.007691,-0.000118,0.001098,0.0,0.0,0.0,0.0,0.0,0.0,3.0,0.30321,0.354337,0.276961,0.357787,-0.0,-2.1e-05,2e-06,0.0,8e-06,-0.0,0.0,0.0,0.0,0.0,0.0,0.0
674300,-0.007813,-0.00024,0.000976,0.0,0.0,0.0,0.0,0.0,0.0,3.0,0.307032,0.351308,0.279905,0.355585,-0.0,-2.1e-05,2e-06,0.0,8e-06,-0.0,0.0,0.0,0.0,0.0,0.0,0.0
674320,-0.007813,-0.000362,0.001097,0.0,0.0,0.0,0.0,0.0,0.0,3.0,0.304144,0.353203,0.278024,0.357407,-0.0,-2.1e-05,2e-06,0.0,8e-06,-0.0,0.0,0.0,0.0,0.0,0.0,0.0
674340,-0.007935,-0.000362,0.001097,0.0,0.0,0.0,0.0,0.0,0.0,3.0,0.305468,0.352256,0.277926,0.357339,-0.0,-2.1e-05,2e-06,0.0,8e-06,-0.0,0.0,0.0,0.0,0.0,0.0,0.0
674360,-0.007813,-0.000484,0.001097,0.0,0.0,0.0,0.0,0.0,0.0,3.0,0.302351,0.353176,0.278064,0.358837,-0.0,-2e-05,2e-06,0.0,8e-06,-0.0,0.0,0.0,0.0,0.0,0.0,0.0
674380,-0.007935,-0.000728,0.001096,0.0,0.0,0.0,0.0,0.0,0.0,3.0,0.304591,0.353499,0.278817,0.356191,-0.0,-2e-05,2e-06,0.0,8e-06,-0.0,0.0,0.0,0.0,0.0,0.0,0.0
674400,-0.008058,-0.00085,0.001095,0.0,0.0,0.0,0.0,0.0,0.0,3.0,0.306352,0.35273,0.278728,0.355583,-0.0,-2e-05,2e-06,0.0,8e-06,-0.0,0.0,0.0,0.0,0.0,0.0,0.0
674420,-0.008058,-0.000972,0.001095,0.0,0.0,0.0,0.0,0.0,0.0,3.0,0.305793,0.352086,0.279453,0.356156,-0.0,-2e-05,2e-06,0.0,7e-06,-0.0,0.0,0.0,0.0,0.0,0.0,0.0
674440,-0.008058,-0.001094,0.001216,0.0,0.0,0.0,0.0,0.0,0.0,3.0,0.302654,0.354856,0.276547,0.358009,-0.0,-2e-05,2e-06,0.0,7e-06,-0.0,0.0,0.0,0.0,0.0,0.0,0.0
674460,-0.008058,-0.001094,0.001216,0.0,0.0,0.0,0.0,0.0,0.0,3.0,0.303117,0.353851,0.276473,0.358682,-0.0,-2e-05,2e-06,0.0,7e-06,-0.0,0.0,0.0,0.0,0.0,0.0,0.0
674480,-0.008058,-0.001338,0.001215,0.0,0.0,0.0,0.0,0.0,0.0,3.0,0.302902,0.354973,0.276771,0.357538,-0.0,-2e-05,2e-06,0.0,7e-06,-0.0,0.0,0.0,0.0,0.0,0.0,0.0
674500,-0.008058,-0.00146,0.001093,0.0,0.0,0.0,0.0,0.0,0.0,3.0,0.308162,0.351539,0.281546,0.353233,-0.0,-1.9e-05,2e-06,0.0,7e-06,-0.0,0.0,0.0,0.0,0.0,0.0,0.0
674520,-0.008058,-0.001582,0.001214,0.0,0.0,0.0,0.0,0.0,0.0,3.0,0.305135,0.353612,0.279206,0.355359,-0.0,-1.9e-05,2e-06,0.0,7e-06,-0.0,0.0,0.0,0.0,0.0,0.0,0.0
674540,-0.008058,-0.001582,0.001337,0.0,0.0,0.0,0.0,0.0,0.0,3.0,0.301333,0.356661,0.27492,0.358403,-0.0,-1.9e-05,2e-06,0.0,7e-06,-0.0,0.0,0.0,0.0,0.0,0.0,0.0
674560,-0.00818,-0.001459,0.001337,0.0,0.0,0.0,0.0,0.0,0.0,3.0,0.304758,0.352711,0.27743,0.357816,-0.0,-1.9e-05,2e-06,0.0,7e-06,-0.0,0.0,0.0,0.0,0.0,0.0,0.0
674580,-0.008302,-0.001826,0.001335,0.0,0.0,0.0,0.0,0.0,0.0,3.0,0.306355,0.353625,0.277783,0.355367,-0.0,-1.9e-05,2e-06,0.0,7e-06,-0.0,0.0,0.0,0.0,0.0,0.0,0.0
674600,-0.008302,-0.001826,0.001335,0.0,0.0,0.0,0.0,0.0,0.0,3.0,0.306053,0.353249,0.278236,0.355665,-0.0,-1.9e-05,2e-06,0.0,7e-06,-0.0,0.0,0.0,0.0,0.0,0.0,0.0
674620,-0.008425,-0.001825,0.001335,0.0,0.0,0.0,0.0,0.0,0.0,3.0,0.306497,0.3528,0.277707,0.356123,-0.0,-1.9e-05,2e-06,0.0,7e-06,-0.0,0.0,0.0,0.0,0.0,0.0,0.0
674640,-0.008181,-0.001947,0.001457,0.0,0.0,0.0,0.0,0.0,0.0,3.0,0.300883,0.356,0.276709,0.358167,-0.0,-1.8e-05,2e-06,0.0,7e-06,-0.0,0.0,0.0,0.0,0.0,0.0,0.0
674660,-0.008181,-0.001947,0.001457,0.0,0.0,0.0,0.0,0.0,0.0,3.0,0.304075,0.354124,0.277864,0.356666,-0.0,-1.8e-05,2e-06,0.0,7e-06,-0.0,0.0,0.0,0.0,0.0,0.0,0.0
674680,-0.008181,-0.002069,0.001457,0.0,0.0,0.0,0.0,0.0,0.0,3.0,0.30542,0.353135,0.27921,0.355597,-0.0,-1.8e-05,2e-06,0.0,7e-06,-0.0,0.0,0.0,0.0,0.0,0.0,0.0
674700,-0.008059,-0.002191,0.001578,0.0,0.0,0.0,0.0,0.0,0.0,3.0,0.304374,0.354117,0.278428,0.356031,-0.0,-1.8e-05,2e-06,0.0,7e-06,-0.0,0.0,0.0,0.0,0.0,0.0,0.0
674720,-0.008059,-0.002191,0.001578,0.0,0.0,0.0,0.0,0.0,0.0,3.0,0.305339,0.35346,0.27981,0.354909,-0.0,-1.8e-05,2e-06,0.0,7e-06,-0.0,0.0,0.0,0.0,0.0,0.0,0.0
674740,-0.008059,-0.00219,0.0017,0.0,0.0,0.0,0.0,0.0,0.0,3.0,0.30165,0.355487,0.274996,0.359261,-0.0,-1.8e-05,2e-06,0.0,7e-06,-0.0,0.0,0.0,0.0,0.0,0.0,0.0
674760,-0.008059,-0.00219,0.0017,0.0,0.0,0.0,0.0,0.0,0.0,3.0,0.30221,0.355318,0.275565,0.358591,-0.0,-1.8e-05,2e-06,0.0,7e-06,-0.0,0.0,0.0,0.0,0.0,0.0,0.0
674780,-0.008181,-0.00219,0.0017,0.0,0.0,0.0,0.0,0.0,0.0,3.0,0.305274,0.353133,0.277355,0.357038,-0.0,-1.8e-05,2e-06,0.0,7e-06,-0.0,0.0,0.0,0.0,0.0,0.0,0.0
674800,-0.008181,-0.002556,0.001821,0.0,0.0,0.0,0.0,0.0,0.0,3.0,0.301848,0.35728,0.274215,0.357867,-0.0,-1.7e-05,2e-06,0.0,6e-06,-0.0,0.0,0.0,0.0,0.0,0.0,0.0
674820,-0.008303,-0.002434,0.001821,0.0,0.0,0.0,0.0,0.0,0.0,3.0,0.304402,0.354668,0.276094,0.357112,-0.0,-1.7e-05,2e-06,0.0,6e-06,-0.0,0.0,0.0,0.0,0.0,0.0,0.0
674840,-0.008426,-0.002433,0.001943,0.0,0.0,0.0,0.0,0.0,0.0,3.0,0.304064,0.353993,0.274546,0.359127,-0.0,-1.7e-05,2e-06,0.0,6e-06,-0.0,0.0,0.0,0.0,0.0,0.0,0.0
674860,-0.008304,-0.002433,0.001943,0.0,0.0,0.0,0.0,0.0,0.0,3.0,0.301474,0.355114,0.275643,0.35932,-0.0,-1.7e-05,2e-06,0.0,6e-06,-0.0,0.0,0.0,0.0,0.0,0.0,0.0
674880,-0.008304,-0.002433,0.001943,0.0,0.0,0.0,0.0,0.0,0.0,3.0,0.304297,0.353334,0.277537,0.357499,-0.0,-1.7e-05,2e-06,0.0,6e-06,-0.0,0.0,0.0,0.0,0.0,0.0,0.0
674900,-0.008304,-0.002555,0.002065,0.0,0.0,0.0,0.0,0.0,0.0,3.0,0.303039,0.354888,0.27537,0.358492,-0.0,-1.7e-05,2e-06,0.0,6e-06,-0.0,0.0,0.0,0.0,0.0,0.0,0.0
674920,-0.008304,-0.002433,0.002065,0.0,0.0,0.0,0.0,0.0,0.0,3.0,0.302926,0.353993,0.277008,0.35832,-0.0,-1.7e-05,2e-06,0.0,6e-06,-0.0,0.0,0.0,0.0,0.0,0.0,0.0
674940,-0.008304,-0.002432,0.002187,0.0,0.0,0.0,0.0,0.0,0.0,3.0,0.300958,0.355202,0.273609,0.361038,-0.0,-1.6e-05,2e-06,0.0,6e-06,-0.0,0.0,0.0,0.0,0.0,0.0,0.0
674960,-0.008304,-0.002554,0.002187,0.0,0.0,0.0,0.0,0.0,0.0,3.0,0.300572,0.355988,0.274613,0.35988,-0.0,-1.6e-05,2e-06,0.0,6e-06,-0.0,0.0,0.0,0.0,0.0,0.0,0.0
674980,-0.008182,-0.002555,0.002187,0.0,0.0,0.0,0.0,0.0,0.0,3.0,0.303042,0.353561,0.27793,0.358003,-0.0,-1.6e-05,2e-06,0.0,6e-06,-0.0,0.0,0.0,0.0,0.0,0.0,0.0
675000,-0.008182,-0.002554,0.002309,0.0,0.0,0.0,0.0,0.0,0.0,3.0,0.30216,0.354806,0.275387,0.359259,-0.0,-1.6e-05,2e-06,0.0,6e-06,-0.0,0.0,0.0,0.0,0.0,0.0,0.0
675020,-0.008182,-0.002554,0.002309,0.0,0.0,0.0,0.0,0.0,0.0,3.0,0.302779,0.354898,0.27535,0.358703,-0.0,-1.6e-05,2e-06,0.0,6e-06,-0.0,0.0,0.0,0.0,0.0,0.0,0.0
675040,-0.007938,-0.002188,0.002433,0.0,0.0,0.0,0.0,0.0,0.0,3.0,0.298899,0.354529,0.274871,0.36243,-0.0,-1.6e-05,2e-06,0.0,6e-06,-0.0,0.0,0.0,0.0,0.0,0.0,0.0
675060,-0.007938,-0.002188,0.002433,0.0,0.0,0.0,0.0,0.0,0.0,3.0,0.302381,0.353515,0.27593,0.359973,-0.0,-1.6e-05,2e-06,0.0,6e-06,-0.0,0.0,0.0,0.0,0.0,0.0,0.0
675080,-0.007816,-0.002188,0.002433,0.0,0.0,0.0,0.0,0.0,0.0,3.0,0.302503,0.353709,0.27784,0.358351,-0.0,-1.6e-05,2e-06,0.0,6e-06,-0.0,0.0,0.0,0.0,0.0,0.0,0.0
675100,-0.007693,-0.001943,0.002556,0.0,0.0,0.0,0.0,0.0,0.0,3.0,0.299279,0.354642,0.274109,0.362547,-0.0,-1.6e-05,2e-06,0.0,6e-06,-0.0,0.0,0.0,0.0,0.0,0.0,0.0
675120,-0.007693,-0.001944,0.002434,0.0,0.0,0.0,0.0,0.0,0.0,3.0,0.303451,0.352735,0.277262,0.358957,-0.0,-1.5e-05,2e-06,0.0,6e-06,-0.0,0.0,0.0,0.0,0.0,0.0,0.0
675140,-0.007571,-0.0017,0.002435,0.0,0.0,0.0,0.0,0.0,0.0,3.0,0.302834,0.352087,0.2775,0.359912,-0.0,-1.5e-05,2e-06,0.0,6e-06,-0.0,0.0,0.0,0.0,0.0,0.0,0.0
675160,-0.007693,-0.001578,0.002436,0.0,0.0,0.0,0.0,0.0,0.0,3.0,0.303807,0.35201,0.276341,0.360023,-0.0,-1.5e-05,2e-06,0.0,6e-06,-0.0,0.0,0.0,0.0,0.0,0.0,0.0
675180,-0.007693,-0.001577,0.002558,0.0,0.0,0.0,0.0,0.0,0.0,3.0,0.3023,0.354493,0.274136,0.360318,-0.0,-1.5e-05,2e-06,0.0,6e-06,-0.0,0.0,0.0,0.0,0.0,0.0,0.0
675200,-0.00757,-0.001333,0.002559,0.0,0.0,0.0,0.0,0.0,0.0,3.0,0.302209,0.352755,0.276593,0.360389,-0.0,-1.5e-05,2e-06,0.0,6e-06,-0.0,0.0,0.0,0.0,0.0,0.0,0.0
675220,-0.00757,-0.001211,0.002559,0.0,0.0,0.0,0.0,0.0,0.0,3.0,0.30222,0.352381,0.275808,0.361285,-0.0,-1.5e-05,2e-06,0.0,6e-06,-0.0,0.0,0.0,0.0,0.0,0.0,0.0
675240,-0.00757,-0.001089,0.00256,0.0,0.0,0.0,0.0,0.0,0.0,3.0,0.303273,0.352672,0.276313,0.359823,-0.0,-1.5e-05,2e-06,0.0,6e-06,-0.0,0.0,0.0,0.0,0.0,0.0,0.0
675260,-0.007448,-0.000967,0.00256,0.0,0.0,0.0,0.0,0.0,0.0,3.0,0.305267,0.350246,0.280173,0.357868,-0.0,-1.5e-05,2e-06,0.0,5e-06,-0.0,0.0,0.0,0.0,0.0,0.0,0.0
675280,-0.007326,-0.001089,0.002682,0.0,0.0,0.0,0.0,0.0,0.0,3.0,0.301487,0.354285,0.274868,0.360658,-0.0,-1.5e-05,2e-06,0.0,5e-06,-0.0,0.0,0.0,0.0,0.0,0.0,0.0
675300,-0.007448,-0.000967,0.002682,0.0,0.0,0.0,0.0,0.0,0.0,3.0,0.302389,0.354064,0.274103,0.36069,-0.0,-1.4e-05,2e-06,0.0,5e-06,-0.0,0.0,0.0,0.0,0.0,0.0,0.0
675320,-0.007326,-0.000967,0.002682,0.0,0.0,0.0,0.0,0.0,0.0,3.0,0.300665,0.354241,0.273388,0.362354,-0.0,-1.4e-05,2e-06,0.0,5e-06,-0.0,0.0,0.0,0.0,0.0,0.0,0.0
675340,-0.007448,-0.001089,0.00256,0.0,0.0,0.0,0.0,0.0,0.0,3.0,0.30724,0.350774,0.278367,0.357037,-0.0,-1.4e-05,2e-06,0.0,5e-06,-0.0,0.0,0.0,0.0,0.0,0.0,0.0
675360,-0.007448,-0.001211,0.002681,0.0,0.0,0.0,0.0,0.0,0.0,3.0,0.302998,0.354545,0.27484,0.35923,-0.0,-1.4e-05,2e-06,0.0,5e-06,-0.0,0.0,0.0,0.0,0.0,0.0,0.0
675380,-0.007326,-0.001211,0.002681,0.0,0.0,0.0,0.0,0.0,0.0,3.0,0.301578,0.353704,0.275894,0.360446,-0.0,-1.4e-05,2e-06,0.0,5e-06,-0.0,0.0,0.0,0.0,0.0,0.0,0.0
675400,-0.007327,-0.001455,0.002681,0.0,0.0,0.0,0.0,0.0,0.0,3.0,0.301374,0.354844,0.276095,0.35935,-0.0,-1.4e-05,2e-06,0.0,5e-06,-0.0,0.0,0.0,0.0,0.0,0.0,0.0
675420,-0.007327,-0.001578,0.002558,0.0,0.0,0.0,0.0,0.0,0.0,3.0,0.303755,0.353367,0.277269,0.358091,-0.0,-1.4e-05,2e-06,0.0,5e-06,-0.0,0.0,0.0,0.0,0.0,0.0,0.0
675440,-0.007083,-0.001822,0.002435,0.0,0.0,0.0,0.0,0.0,0.0,3.0,0.304628,0.351707,0.28204,0.355609,-0.0,-1.4e-05,2e-06,0.0,5e-06,-0.0,0.0,0.0,0.0,0.0,0.0,0.0
675460,-0.007083,-0.001945,0.002435,0.0,0.0,0.0,0.0,0.0,0.0,3.0,0.304916,0.354101,0.278643,0.355454,-0.0,-1.4e-05,2e-06,0.0,5e-06,-0.0,0.0,0.0,0.0,0.0,0.0,0.0
675480,-0.006839,-0.001823,0.002436,0.0,0.0,0.0,0.0,0.087266,0.0,3.0,0.302305,0.45116,0.277851,0.19823,0.0,0.002558,-0.000122,5.3e-05,0.390061,-0.01615,0.0,0.0,0.0,0.0,0.0,0.0
675500,-0.006228,-0.001457,0.002437,0.0,0.0,0.0,0.0,0.087266,0.0,3.0,0.293235,0.395258,0.276267,0.319949,1e-06,0.011494,-0.00044,0.000277,0.493273,-0.01533,0.0,0.0,0.0,0.0,0.0,0.0
675520,-0.00647,-0.000111,0.003296,0.0,0.0,0.0,0.0,0.087266,0.0,3.0,0.299087,0.389189,0.265748,0.330708,4e-06,0.021438,-0.000739,0.000499,0.49882,-0.014237,0.0,0.0,0.0,0.0,0.0,0.0
675540,-0.006341,0.003674,0.003552,0.0,0.0,0.0,0.0,0.087266,0.0,3.0,0.295137,0.379314,0.271807,0.341391,8e-06,0.031374,-0.001015,0.000688,0.492437,-0.013093,0.0,0.0,0.0,0.0,0.0,0.0
675560,-0.006091,0.008067,0.003199,0.0,0.0,0.0,0.0,0.087266,0.0,3.0,0.304511,0.367233,0.283463,0.338365,1.4e-05,0.04115,-0.001268,0.000839,0.482056,-0.011919,0.0,0.0,0.0,0.0,0.0,0.0
675580,-0.005717,0.014901,0.002729,0.0,0.0,0.0,0.0,0.087266,0.0,3.0,0.308392,0.353659,0.288488,0.345649,2.2e-05,0.050696,-0.001497,0.000954,0.468864,-0.010726,0.0,0.0,0.0,0.0,0.0,0.0
675600,-0.005711,0.022835,0.002386,0.0,0.0,0.0,0.0,0.087266,0.0,3.0,0.306473,0.348342,0.282861,0.356801,3e-05,0.059961,-0.001703,0.001031,0.453418,-0.009524,0.0,0.0,0.0,0.0,0.0,0.0
675620,-0.005221,0.031868,0.001794,0.0,0.0,0.0,0.0,0.087266,0.0,3.0,0.30618,0.339366,0.287224,0.362322,4e-05,0.068902,-0.001885,0.001075,0.436173,-0.008321,0.0,0.0,0.0,0.0,0.0,0.0
675640,-0.00474,0.041266,0.001076,0.0,0.0,0.0,0.0,0.087266,0.0,3.0,0.3094,0.330807,0.292004,0.363926,5e-05,0.077488,-0.002042,0.001085,0.417531,-0.007125,0.0,0.0,0.0,0.0,0.0,0.0
675660,-0.00414,0.051278,0.000473,0.0,0.0,0.0,0.0,0.087266,0.0,3.0,0.31034,0.321341,0.295048,0.369026,6.1e-05,0.085692,-0.002176,0.001064,0.397845,-0.005946,0.0,0.0,0.0,0.0,0.0,0.0
675680,-0.003786,0.061656,-5e-06,0.0,0.0,0.0,0.0,0.087266,0.0,3.0,0.308927,0.317624,0.291748,0.375552,7.2e-05,0.093497,-0.002286,0.001016,0.377428,-0.004789,0.0,0.0,0.0,0.0,0.0,0.0
675700,-0.003194,0.072526,-0.000496,0.0,0.0,0.0,0.0,0.087266,0.0,3.0,0.307531,0.309426,0.294936,0.380737,8.4e-05,0.10089,-0.002373,0.000943,0.356553,-0.003663,0.0,0.0,0.0,0.0,0.0,0.0
675720,-0.002485,0.083401,-0.001,0.0,0.0,0.0,0.0,0.087266,0.0,3.0,0.308319,0.302886,0.296722,0.383742,9.5e-05,0.107863,-0.002438,0.000847,0.335457,-0.002572,0.0,0.0,0.0,0.0,0.0,0.0
675740,-0.002141,0.093661,-0.001372,0.0,0.0,0.0,0.0,0.087266,0.0,3.0,0.31024,0.301554,0.293845,0.385288,0.000106,0.114413,-0.002481,0.000733,0.314346,-0.001524,0.0,0.0,0.0,0.0,0.0,0.0
675760,-0.001551,0.103567,-0.00164,0.0,0.0,0.0,0.0,0.087266,0.0,3.0,0.30518,0.301008,0.291674,0.390877,0.000118,0.120543,-0.002503,0.000603,0.293397,-0.000522,0.0,0.0,0.0,0.0,0.0,0.0
675780,-0.00097,0.112736,-0.002037,0.0,0.0,0.0,0.0,0.087266,0.0,3.0,0.305632,0.29687,0.292926,0.39259,0.000128,0.124866,-0.002507,0.000497,0.277882,0.000195,0.0,0.0,0.0,0.0,0.0,0.0
675800,-0.000141,0.121418,-0.002333,0.0,0.0,0.0,0.0,0.087266,0.0,3.0,0.306406,0.293892,0.294904,0.392727,0.000138,0.131558,-0.00249,0.000308,0.25256,0.001322,0.0,0.0,0.0,0.0,0.0,0.0
675820,0.000444,0.129125,-0.00262,0.0,0.0,0.0,0.0,0.087266,0.0,3.0,0.309289,0.292018,0.297657,0.390006,0.000148,0.136461,-0.002456,0.000149,0.232903,0.002158,0.0,0.0,0.0,0.0,0.0,0.0
675840,0.000922,0.135971,-0.002657,0.0,0.0,0.0,0.0,0.087266,0.0,3.0,0.305094,0.297154,0.292794,0.392869,0.000157,0.140975,-0.002405,-1.5e-05,0.213874,0.002933,0.0,0.0,0.0,0.0,0.0,0.0
675860,0.001636,0.14173,-0.002837,0.0,0.0,0.0,0.0,0.087266,0.0,3.0,0.30465,0.297949,0.294452,0.391512,0.000164,0.145114,-0.00234,-0.000179,0.195542,0.003644,0.0,0.0,0.0,0.0,0.0,0.0
675880,0.002473,0.146506,-0.00303,0.0,0.0,0.0,0.0,0.087266,0.0,3.0,0.305073,0.295737,0.297502,0.390638,0.000171,0.148892,-0.002261,-0.000343,0.177959,0.004291,0.0,0.0,0.0,0.0,0.0,0.0
675900,0.003076,0.150055,-0.003082,0.0,0.0,0.0,0.0,0.087266,0.0,3.0,0.305426,0.300534,0.296189,0.387941,0.000177,0.152324,-0.002169,-0.000503,0.161164,0.004871,0.0,0.0,0.0,0.0,0.0,0.0
675920,0.003933,0.153118,-0.003031,0.0,0.0,0.0,0.0,0.087266,0.0,3.0,0.301486,0.302985,0.297984,0.387771,0.000181,0.154681,-0.002092,-0.00062,0.149102,0.005263,0.0,0.0,0.0,0.0,0.0,0.0
675940,0.004661,0.154954,-0.003093,0.0,0.0,0.0,0.0,0.087266,0.0,3.0,0.301214,0.307706,0.296116,0.385834,0.000185,0.158215,-0.001953,-0.000806,0.130039,0.005833,0.0,0.0,0.0,0.0,0.0,0.0
675960,0.005389,0.155928,-0.003153,0.0,0.0,0.0,0.0,0.087266,0.0,3.0,0.299379,0.31144,0.295811,0.384572,0.000187,0.160707,-0.001831,-0.000946,0.115733,0.006214,0.0,0.0,0.0,0.0,0.0,0.0
675980,0.005623,0.155807,-0.003295,0.0,0.0,0.0,0.0,0.087266,0.0,3.0,0.305412,0.312198,0.296604,0.379016,0.000188,0.162919,-0.001702,-0.001076,0.102267,0.006531,0.0,0.0,0.0,0.0,0.0,0.0
676000,0.005989,0.155442,-0.003323,0.0,0.0,0.0,0.0,0.087266,0.0,3.0,0.306696,0.314079,0.297148,0.376187,0.000187,0.164869,-0.001567,-0.001195,0.089635,0.006784,0.0,0.0,0.0,0.0,0.0,0.0
676020,0.006233,0.154955,-0.00334,0.0,0.0,0.0,0.0,0.087266,0.0,3.0,0.304551,0.315519,0.294688,0.378446,0.000185,0.166571,-0.001428,-0.001302,0.077822,0.006975,0.0,0.0,0.0,0.0,0.0,0.0
676040,0.006225,0.154094,-0.00346,0.0,0.0,0.0,0.0,0.087266,0.0,3.0,0.305785,0.316698,0.294811,0.3765,0.000182,0.168044,-0.001285,-0.001397,0.066811,0.007107,0.0,0.0,0.0,0.0,0.0,0.0
676060,0.006096,0.152999,-0.00357,0.0,0.0,0.0,0.0,0.087266,0.0,3.0,0.306664,0.31683,0.296062,0.374821,0.000178,0.169302,-0.00114,-0.001479,0.05658,0.007181,0.0,0.0,0.0,0.0,0.0,0.0
676080,0.005845,0.152016,-0.003671,0.0,0.0,0.0,0.0,0.087266,0.0,3.0,0.30652,0.317736,0.294893,0.375054,0.000173,0.170362,-0.000994,-0.001547,0.047105,0.0072,0.0,0.0,0.0,0.0,0.0,0.0
676100,0.005847,0.151155,-0.003667,0.0,0.0,0.0,0.0,0.087266,0.0,3.0,0.304295,0.319067,0.29428,0.376112,0.000166,0.171035,-0.000884,-0.00159,0.040477,0.00718,0.0,0.0,0.0,0.0,0.0,0.0
676120,0.005585,0.15079,-0.003894,0.0,0.0,0.0,0.0,0.087266,0.0,3.0,0.308079,0.315313,0.294098,0.376364,0.000159,0.171781,-0.000739,-0.001635,0.032254,0.00711,0.0,0.0,0.0,0.0,0.0,0.0
676140,0.005212,0.150303,-0.003988,0.0,0.0,0.0,0.0,0.087266,0.0,3.0,0.309102,0.31589,0.29426,0.375004,0.00015,0.172492,-0.00056,-0.001673,0.02292,0.006958,0.0,0.0,0.0,0.0,0.0,0.0
676160,0.004961,0.149816,-0.004091,0.0,0.0,0.0,0.0,0.087266,0.0,3.0,0.31108,0.313946,0.295725,0.373948,0.00014,0.172899,-0.00042,-0.001689,0.016169,0.006789,0.0,0.0,0.0,0.0,0.0,0.0
676180,0.004952,0.149442,-0.004213,0.0,0.0,0.0,0.0,0.087266,0.0,3.0,0.308311,0.314397,0.296998,0.37481,0.00013,0.173175,-0.000283,-0.001693,0.010018,0.006581,0.0,0.0,0.0,0.0,0.0,0.0
676200,0.004578,0.149442,-0.004308,0.0,0.0,0.0,0.0,0.087266,0.0,3.0,0.309243,0.314795,0.293729,0.376143,0.000119,0.173333,-0.000151,-0.001684,0.004434,0.006338,0.0,0.0,0.0,0.0,0.0,0.0
676220,0.004569,0.149442,-0.004431,0.0,0.0,0.0,0.0,0.087266,0.0,3.0,0.309226,0.313521,0.296221,0.375362,0.000107,0.173383,-2.5e-05,-0.001664,-0.000616,0.006064,0.0,0.0,0.0,0.0,0.0,0.0
676240,0.004559,0.149817,-0.004556,0.0,0.0,0.0,0.0,0.087266,0.0,3.0,0.308503,0.311208,0.29511,0.378516,9.5e-05,0.173336,9.6e-05,-0.001633,-0.005165,0.005762,0.0,0.0,0.0,0.0,0.0,0.0
676260,0.004802,0.149817,-0.004574,0.0,0.0,0.0,0.0,0.087266,0.0,3.0,0.304616,0.314329,0.296115,0.378307,8.2e-05,0.173201,0.000211,-0.001593,-0.009245,0.005436,0.0,0.0,0.0,0.0,0.0,0.0
676280,0.004915,0.149818,-0.004707,0.0,0.0,0.0,0.0,0.087266,0.0,3.0,0.307311,0.31128,0.298133,0.377185,6.9e-05,0.172988,0.000318,-0.001543,-0.012888,0.005089,0.0,0.0,0.0,0.0,0.0,0.0
676300,0.005149,0.149687,-0.004847,0.0,0.0,0.0,0.0,0.087266,0.0,3.0,0.307495,0.310503,0.300674,0.37578,5.6e-05,0.172706,0.000419,-0.001485,-0.016125,0.004726,0.0,0.0,0.0,0.0,0.0,0.0
676320,0.005027,0.149687,-0.004838,0.0,0.0,0.0,0.0,0.087266,0.0,3.0,0.310165,0.309708,0.299605,0.37513,4.3e-05,0.172361,0.000512,-0.001419,-0.018986,0.004349,0.0,0.0,0.0,0.0,0.0,0.0
676340,0.005159,0.149444,-0.004723,0.0,0.0,0.0,0.0,0.087266,0.0,3.0,0.305415,0.315078,0.295889,0.377283,3e-05,0.171962,0.000597,-0.001347,-0.021499,0.003962,0.0,0.0,0.0,0.0,0.0,0.0
676360,0.004915,0.149687,-0.004706,0.0,0.0,0.0,0.0,0.087266,0.0,3.0,0.306071,0.314366,0.29112,0.380725,1.7e-05,0.171515,0.000675,-0.001268,-0.023691,0.003569,0.0,0.0,0.0,0.0,0.0,0.0
676380,0.004784,0.149565,-0.004819,0.0,0.0,0.0,0.0,0.087266,0.0,3.0,0.308706,0.311763,0.296377,0.377022,4e-06,0.171027,0.000744,-0.001185,-0.02559,0.003172,0.0,0.0,0.0,0.0,0.0,0.0
676400,0.004542,0.149199,-0.0048,0.0,0.0,0.0,0.0,0.087266,0.0,3.0,0.309772,0.313089,0.295209,0.376012,-9e-06,0.170502,0.000806,-0.001098,-0.027219,0.002774,0.0,0.0,0.0,0.0,0.0,0.0
676420,0.004542,0.149321,-0.0048,0.0,0.0,0.0,0.0,0.087266,0.0,3.0,0.311284,0.310944,0.296905,0.375285,-2.1e-05,0.169947,0.000859,-0.001008,-0.028602,0.002378,0.0,0.0,0.0,0.0,0.0,0.0
676440,0.00455,0.149443,-0.004677,0.0,0.0,0.0,0.0,0.087266,0.0,3.0,0.306842,0.313988,0.2938,0.378555,-3.3e-05,0.169366,0.000904,-0.000915,-0.029762,0.001988,0.0,0.0,0.0,0.0,0.0,0.0
676460,0.004785,0.149443,-0.004819,0.0,0.0,0.0,0.0,0.087266,0.0,3.0,0.307695,0.311485,0.297467,0.377219,-4.4e-05,0.168763,0.000942,-0.000821,-0.03072,0.001604,0.0,0.0,0.0,0.0,0.0,0.0
676480,0.004906,0.149444,-0.004828,0.0,0.0,0.0,0.0,0.087266,0.0,3.0,0.3089,0.309788,0.297892,0.3773,-5.5e-05,0.168143,0.000971,-0.000725,-0.031494,0.001231,0.0,0.0,0.0,0.0,0.0,0.0
676500,0.005028,0.149322,-0.004837,0.0,0.0,0.0,0.0,0.087266,0.0,3.0,0.307253,0.311895,0.297696,0.377072,-6.5e-05,0.167508,0.000994,-0.00063,-0.032104,0.000869,0.0,0.0,0.0,0.0,0.0,0.0
676520,0.004916,0.1492,-0.004704,0.0,0.0,0.0,0.0,0.087266,0.0,3.0,0.30728,0.313434,0.294982,0.377812,-7.4e-05,0.166862,0.001009,-0.000535,-0.032567,0.00052,0.0,0.0,0.0,0.0,0.0,0.0
676540,0.004916,0.149322,-0.004705,0.0,0.0,0.0,0.0,0.087266,0.0,3.0,0.306698,0.311872,0.295881,0.378819,-8.3e-05,0.166208,0.001017,-0.000442,-0.032898,0.000187,0.0,0.0,0.0,0.0,0.0,0.0
676560,0.004673,0.149078,-0.004686,0.0,0.0,0.0,0.0,0.087266,0.0,3.0,0.307229,0.31241,0.297079,0.377138,-9.1e-05,0.165549,0.001018,-0.00035,-0.033112,-0.000129,0.0,0.0,0.0,0.0,0.0,0.0
676580,0.00443,0.148955,-0.004667,0.0,0.0,0.0,0.0,0.087266,0.0,3.0,0.310551,0.311495,0.295896,0.376158,-9.8e-05,0.164885,0.001013,-0.000261,-0.033223,-0.000427,0.0,0.0,0.0,0.0,0.0,0.0
676600,0.004317,0.148955,-0.004535,0.0,0.0,0.0,0.0,0.087266,0.0,3.0,0.305267,0.314713,0.292073,0.380391,-0.000104,0.164221,0.001002,-0.000175,-0.033243,-0.000706,0.0,0.0,0.0,0.0,0.0,0.0
676620,0.004309,0.148712,-0.004657,0.0,0.0,0.0,0.0,0.087266,0.0,3.0,0.308129,0.311913,0.296446,0.377296,-0.00011,0.163556,0.000986,-9.2e-05,-0.033183,-0.000965,0.0,0.0,0.0,0.0,0.0,0.0
676640,0.004431,0.148468,-0.004666,0.0,0.0,0.0,0.0,0.087266,0.0,3.0,0.310051,0.310267,0.299951,0.37453,-0.000115,0.162893,0.000965,-1.3e-05,-0.033055,-0.001203,0.0,0.0,0.0,0.0,0.0,0.0
676660,0.004309,0.148468,-0.004657,0.0,0.0,0.0,0.0,0.087266,0.0,3.0,0.310876,0.310314,0.298072,0.375237,-0.000119,0.162234,0.000939,6.2e-05,-0.032867,-0.001419,0.0,0.0,0.0,0.0,0.0,0.0
676680,0.004319,0.148225,-0.004533,0.0,0.0,0.0,0.0,0.087266,0.0,3.0,0.307566,0.313446,0.294864,0.377671,-0.000122,0.161578,0.000909,0.000133,-0.032628,-0.001614,0.0,0.0,0.0,0.0,0.0,0.0
676700,0.00431,0.148347,-0.004656,0.0,0.0,0.0,0.0,0.087266,0.0,3.0,0.308951,0.308672,0.296812,0.378895,-0.000124,0.160927,0.000875,0.000199,-0.032347,-0.001787,0.0,0.0,0.0,0.0,0.0,0.0
676720,0.00431,0.148094,-0.004655,0.0,0.0,0.0,0.0,0.087266,0.0,3.0,0.308353,0.310334,0.298966,0.376513,-0.000125,0.160283,0.000837,0.00026,-0.03203,-0.001939,0.0,0.0,0.0,0.0,0.0,0.0
676740,0.004067,0.14785,-0.004636,0.0,0.0,0.0,0.0,0.087266,0.0,3.0,0.31049,0.309054,0.299685,0.375325,-0.000126,0.159645,0.000797,0.000316,-0.031684,-0.002068,0.0,0.0,0.0,0.0,0.0,0.0
676760,0.003954,0.14785,-0.004504,0.0,0.0,0.0,0.0,0.087266,0.0,3.0,0.304572,0.314202,0.293857,0.380049,-0.000126,0.159014,0.000754,0.000367,-0.031314,-0.002176,0.0,0.0,0.0,0.0,0.0,0.0
676780,0.003702,0.147606,-0.004608,0.0,0.0,0.0,0.0,0.087266,0.0,3.0,0.308739,0.312007,0.295894,0.377155,-0.000126,0.15839,0.00071,0.000413,-0.030926,-0.002263,0.0,0.0,0.0,0.0,0.0,0.0
676800,0.003703,0.147241,-0.004607,0.0,0.0,0.0,0.0,0.087266,0.0,3.0,0.30706,0.313276,0.294095,0.378734,-0.000124,0.157775,0.000663,0.000453,-0.030524,-0.00233,0.0,0.0,0.0,0.0,0.0,0.0
676820,0.003573,0.147119,-0.004721,0.0,0.0,0.0,0.0,0.087266,0.0,3.0,0.312335,0.308393,0.297949,0.375673,-0.000122,0.157167,0.000616,0.000489,-0.030112,-0.002377,0.0,0.0,0.0,0.0,0.0,0.0
676840,0.003574,0.146754,-0.004721,0.0,0.0,0.0,0.0,0.087266,0.0,3.0,0.30877,0.31237,0.296446,0.37645,-0.00012,0.156568,0.000568,0.000519,-0.029693,-0.002404,0.0,0.0,0.0,0.0,0.0,0.0
676860,0.003331,0.14651,-0.004702,0.0,0.0,0.0,0.0,0.087266,0.0,3.0,0.309791,0.312941,0.294366,0.37672,-0.000117,0.155978,0.000519,0.000543,-0.029272,-0.002414,0.0,0.0,0.0,0.0,0.0,0.0
676880,0.003079,0.146379,-0.004806,0.0,0.0,0.0,0.0,0.087266,0.0,3.0,0.311101,0.31166,0.294721,0.37645,-0.000114,0.155395,0.00047,0.000563,-0.028849,-0.002406,0.0,0.0,0.0,0.0,0.0,0.0
676900,0.002826,0.146257,-0.004911,0.0,0.0,0.0,0.0,0.087266,0.0,3.0,0.314063,0.308738,0.296653,0.374997,-0.00011,0.154821,0.000422,0.000578,-0.028428,-0.002382,0.0,0.0,0.0,0.0,0.0,0.0
676920,0.002827,0.146013,-0.00491,0.0,0.0,0.0,0.0,0.087266,0.0,3.0,0.312763,0.308101,0.298252,0.37534,-0.000105,0.154256,0.000374,0.000589,-0.028011,-0.002342,0.0,0.0,0.0,0.0,0.0,0.0
676940,0.002584,0.145891,-0.004892,0.0,0.0,0.0,0.0,0.087266,0.0,3.0,0.310538,0.310504,0.294834,0.377698,-0.000101,0.153699,0.000327,0.000594,-0.027599,-0.002289,0.0,0.0,0.0,0.0,0.0,0.0
676960,0.002697,0.145648,-0.005024,0.0,0.0,0.0,0.0,0.087266,0.0,3.0,0.309771,0.309563,0.298212,0.37657,-9.6e-05,0.15315,0.000281,0.000596,-0.027194,-0.002222,0.0,0.0,0.0,0.0,0.0,0.0
676980,0.002567,0.145404,-0.005138,0.0,0.0,0.0,0.0,0.087266,0.0,3.0,0.31083,0.309412,0.29914,0.375186,-9.1e-05,0.152609,0.000237,0.000593,-0.026796,-0.002144,0.0,0.0,0.0,0.0,0.0,0.0
677000,0.002324,0.145282,-0.005119,0.0,0.0,0.0,0.0,0.087266,0.0,3.0,0.3106,0.310526,0.29776,0.376446,-8.7e-05,0.152209,0.000205,0.000589,-0.026504,-0.002079,0.0,0.0,0.0,0.0,0.0,0.0
677020,0.002447,0.144795,-0.005128,0.0,0.0,0.0,0.0,0.087266,0.0,3.0,0.306489,0.314369,0.295035,0.377643,-8e-05,0.151551,0.000153,0.000577,-0.026028,-0.001957,0.0,0.0,0.0,0.0,0.0,0.0
677040,0.002195,0.144542,-0.005232,0.0,0.0,0.0,0.0,0.087266,0.0,3.0,0.311787,0.311955,0.294633,0.375751,-7.4e-05,0.151033,0.000115,0.000564,-0.025658,-0.001851,0.0,0.0,0.0,0.0,0.0,0.0
677060,0.002066,0.144299,-0.005345,0.0,0.0,0.0,0.0,0.087266,0.0,3.0,0.31227,0.309799,0.29792,0.37466,-6.9e-05,0.150523,7.8e-05,0.000548,-0.025299,-0.001738,0.0,0.0,0.0,0.0,0.0,0.0
677080,0.001823,0.143933,-0.005327,0.0,0.0,0.0,0.0,0.087266,0.0,3.0,0.311593,0.312225,0.295266,0.375235,-6.3e-05,0.150019,4.4e-05,0.000529,-0.024951,-0.001619,0.0,0.0,0.0,0.0,0.0,0.0
677100,0.001815,0.143689,-0.00545,0.0,0.0,0.0,0.0,0.087266,0.0,3.0,0.311515,0.31179,0.29672,0.374579,-5.7e-05,0.149523,1.2e-05,0.000508,-0.024613,-0.001495,0.0,0.0,0.0,0.0,0.0,0.0
677120,0.001563,0.143567,-0.005555,0.0,0.0,0.0,0.0,0.087266,0.0,3.0,0.313965,0.309149,0.296351,0.374977,-5.2e-05,0.149033,-1.7e-05,0.000484,-0.024286,-0.001368,0.0,0.0,0.0,0.0,0.0,0.0
677140,0.001434,0.143071,-0.005668,0.0,0.0,0.0,0.0,0.087266,0.0,3.0,0.315688,0.308486,0.299193,0.372026,-4.6e-05,0.14855,-4.4e-05,0.000459,-0.02397,-0.001238,0.0,0.0,0.0,0.0,0.0,0.0
677160,0.001435,0.142706,-0.005668,0.0,0.0,0.0,0.0,0.087266,0.0,3.0,0.315389,0.307802,0.298157,0.373563,-4.1e-05,0.148073,-6.8e-05,0.000432,-0.023664,-0.001107,0.0,0.0,0.0,0.0,0.0,0.0
677180,0.001558,0.142219,-0.005676,0.0,0.0,0.0,0.0,0.087266,0.0,3.0,0.311263,0.31181,0.297821,0.373952,-3.5e-05,0.147601,-8.9e-05,0.000404,-0.023369,-0.000975,0.0,0.0,0.0,0.0,0.0,0.0
677200,0.00143,0.141488,-0.005789,0.0,0.0,0.0,0.0,0.087266,0.0,3.0,0.311738,0.312826,0.298152,0.372536,-3e-05,0.147136,-0.000108,0.000374,-0.023085,-0.000844,0.0,0.0,0.0,0.0,0.0,0.0
677220,0.001301,0.140992,-0.005902,0.0,0.0,0.0,0.0,0.087266,0.0,3.0,0.312491,0.310983,0.298512,0.373127,-2.5e-05,0.146677,-0.000124,0.000345,-0.02281,-0.000714,0.0,0.0,0.0,0.0,0.0,0.0
677240,0.00105,0.140504,-0.006008,0.0,0.0,0.0,0.0,0.087266,0.0,3.0,0.314102,0.309685,0.298538,0.372847,-2.1e-05,0.146222,-0.000138,0.000314,-0.022544,-0.000587,0.0,0.0,0.0,0.0,0.0,0.0
677260,0.000801,0.139521,-0.006111,0.0,0.0,0.0,0.0,0.087266,0.0,3.0,0.314101,0.313501,0.297137,0.370874,-1.6e-05,0.145773,-0.000148,0.000283,-0.022288,-0.000463,0.0,0.0,0.0,0.0,0.0,0.0
677280,0.000551,0.138668,-0.006217,0.0,0.0,0.0,0.0,0.087266,0.0,3.0,0.314621,0.313451,0.296806,0.370742,-1.2e-05,0.14533,-0.000157,0.000252,-0.022041,-0.000342,0.0,0.0,0.0,0.0,0.0,0.0
677300,0.000301,0.138058,-0.006322,0.0,0.0,0.0,0.0,0.087266,0.0,3.0,0.314748,0.311363,0.297172,0.372027,-8e-06,0.144891,-0.000163,0.000222,-0.021803,-0.000226,0.0,0.0,0.0,0.0,0.0,0.0
677320,5.2e-05,0.137318,-0.006427,0.0,0.0,0.0,0.0,0.087266,0.0,3.0,0.315881,0.312311,0.297861,0.369851,-4e-06,0.144456,-0.000167,0.000191,-0.021573,-0.000114,0.0,0.0,0.0,0.0,0.0,0.0
677340,-0.000198,0.136587,-0.006533,0.0,0.0,0.0,0.0,0.087266,0.0,3.0,0.314979,0.31311,0.298266,0.36964,-2e-06,0.144133,-0.000168,0.000169,-0.021405,-3.4e-05,0.0,0.0,0.0,0.0,0.0,0.0
677360,-0.000203,0.135726,-0.006655,0.0,0.0,0.0,0.0,0.087266,0.0,3.0,0.314644,0.313769,0.297922,0.369639,2e-06,0.143601,-0.000168,0.000133,-0.021135,9.2e-05,0.0,0.0,0.0,0.0,0.0,0.0
677380,-0.000461,0.135116,-0.006884,0.0,0.0,0.0,0.0,0.087266,0.0,3.0,0.319487,0.310236,0.299035,0.367667,5e-06,0.14318,-0.000165,0.000105,-0.020927,0.000185,0.0,0.0,0.0,0.0,0.0,0.0
677400,-0.000338,0.134508,-0.006892,0.0,0.0,0.0,0.0,0.087266,0.0,3.0,0.315358,0.313333,0.298421,0.369039,7e-06,0.142763,-0.000161,7.8e-05,-0.020725,0.000272,0.0,0.0,0.0,0.0,0.0,0.0
677420,-0.000588,0.134133,-0.006997,0.0,0.0,0.0,0.0,0.087266,0.0,3.0,0.318623,0.310797,0.299075,0.367905,1e-05,0.14235,-0.000154,5.2e-05,-0.02053,0.000353,0.0,0.0,0.0,0.0,0.0,0.0
677440,-0.000465,0.133646,-0.007005,0.0,0.0,0.0,0.0,0.087266,0.0,3.0,0.31459,0.313112,0.299182,0.369265,1.2e-05,0.141941,-0.000147,2.7e-05,-0.02034,0.000426,0.0,0.0,0.0,0.0,0.0,0.0
677460,-0.000594,0.133524,-0.00712,0.0,0.0,0.0,0.0,0.087266,0.0,3.0,0.315804,0.310152,0.298392,0.371226,1.3e-05,0.141535,-0.000138,4e-06,-0.020156,0.000492,0.0,0.0,0.0,0.0,0.0,0.0
677480,-0.000723,0.133158,-0.007235,0.0,0.0,0.0,0.0,0.087266,0.0,3.0,0.317339,0.30983,0.29947,0.369428,1.5e-05,0.141134,-0.000127,-1.8e-05,-0.019978,0.000551,0.0,0.0,0.0,0.0,0.0,0.0
677500,-0.000852,0.132914,-0.00735,0.0,0.0,0.0,0.0,0.087266,0.0,3.0,0.318752,0.307267,0.301837,0.368489,1.6e-05,0.140735,-0.000116,-3.8e-05,-0.019804,0.000603,0.0,0.0,0.0,0.0,0.0,0.0
677520,-0.000972,0.132548,-0.007341,0.0,0.0,0.0,0.0,0.087266,0.0,3.0,0.316418,0.311029,0.299109,0.369501,1.7e-05,0.140341,-0.000103,-5.7e-05,-0.019635,0.000648,0.0,0.0,0.0,0.0,0.0,0.0
677540,-0.001101,0.132174,-0.007455,0.0,0.0,0.0,0.0,0.087266,0.0,3.0,0.317121,0.310211,0.30103,0.368122,1.7e-05,0.139949,-9e-05,-7.4e-05,-0.019469,0.000685,0.0,0.0,0.0,0.0,0.0,0.0
677560,-0.001222,0.132052,-0.007447,0.0,0.0,0.0,0.0,0.087266,0.0,3.0,0.316477,0.310473,0.298436,0.370397,1.8e-05,0.139561,-7.6e-05,-9e-05,-0.019308,0.000716,0.0,0.0,0.0,0.0,0.0,0.0
677580,-0.001229,0.131808,-0.00757,0.0,0.0,0.0,0.0,0.087266,0.0,3.0,0.316365,0.310105,0.300889,0.368932,1.8e-05,0.139176,-6.1e-05,-0.000104,-0.019151,0.000739,0.0,0.0,0.0,0.0,0.0,0.0
677600,-0.00148,0.131563,-0.007677,0.0,0.0,0.0,0.0,0.087266,0.0,3.0,0.317987,0.309886,0.298986,0.369219,1.8e-05,0.138794,-4.6e-05,-0.000116,-0.018997,0.000757,0.0,0.0,0.0,0.0,0.0,0.0
677620,-0.001356,0.131077,-0.007685,0.0,0.0,0.0,0.0,0.087266,0.0,3.0,0.316069,0.310586,0.300296,0.369241,1.7e-05,0.13851,-3.5e-05,-0.000124,-0.018884,0.000765,0.0,0.0,0.0,0.0,0.0,0.0
