time_ms,roll,pitch,yaw,x,y,z,reference_roll,reference_pitch,reference_yaw,reference_throttle,throttle_1,throttle_2,throttle_3,throttle_4,roll_predicted,pitch_predicted,yaw_predicted,roll_rate_predicted,pitch_rate_predicted,yaw_rate_predicted,value1,value2,value3,value4,value5,value6
715300,-0.001103,-0.001829,0.004516,0.0,0.0,0.0,0.0,0.0,0.0,3.0,0.302393,0.352853,0.285658,0.353617,-0.0,-0.000226,7e-06,0.0,8.4e-05,-1e-06,0.0,0.0,0.0,0.0,0.0,0.0
715320,-0.001103,-0.001707,0.004516,0.0,0.0,0.0,0.0,0.0,0.0,3.0,0.300541,0.352366,0.28748,0.354227,-0.0,-0.000224,7e-06,0.0,8.4e-05,-1e-06,0.0,0.0,0.0,0.0,0.0,0.0
715340,-0.00098,-0.001463,0.004517,0.0,0.0,0.0,0.0,0.0,0.0,3.0,0.302183,0.353774,0.285676,0.352852,-0.0,-0.000223,7e-06,0.0,8.3e-05,-1e-06,0.0,0.0,0.0,0.0,0.0,0.0
715360,-0.000858,-0.001463,0.004517,0.0,0.0,0.0,0.0,0.0,0.0,3.0,0.303171,0.353695,0.286224,0.351717,-0.0,-0.000221,7e-06,0.0,8.3e-05,-1e-06,0.0,0.0,0.0,0.0,0.0,0.0
715380,-0.000858,-0.001707,0.004517,0.0,0.0,0.0,0.0,0.0,0.0,3.0,0.302248,0.355034,0.285616,0.351575,-0.0,-0.000219,7e-06,0.0,8.2e-05,-1e-06,0.0,0.0,0.0,0.0,0.0,0.0
715400,-0.00098,-0.001707,0.004517,0.0,0.0,0.0,0.0,0.0,0.0,3.0,0.303456,0.355505,0.28416,0.3512,-0.0,-0.000218,7e-06,0.0,8.1e-05,-1e-06,0.0,0.0,0.0,0.0,0.0,0.0
715420,-0.000981,-0.001829,0.004639,0.0,0.0,0.0,0.0,0.0,0.0,3.0,0.302697,0.355065,0.284929,0.351693,-0.0,-0.000216,7e-06,0.0,8.1e-05,-1e-06,0.0,0.0,0.0,0.0,0.0,0.0
715440,-0.001103,-0.001829,0.004638,0.0,0.0,0.0,0.0,0.0,0.0,3.0,0.305251,0.354822,0.284602,0.350084,-0.0,-0.000214,7e-06,0.0,8e-05,-1e-06,0.0,0.0,0.0,0.0,0.0,0.0
715460,-0.001469,-0.001828,0.004638,0.0,0.0,0.0,0.0,0.0,0.0,3.0,0.303607,0.356098,0.282755,0.35152,-0.0,-0.000213,7e-06,0.0,8e-05,-1e-06,0.0,0.0,0.0,0.0,0.0,0.0
715480,-0.001347,-0.00195,0.004638,0.0,0.0,0.0,0.0,0.0,0.0,3.0,0.304928,0.35508,0.285249,0.3496,-0.0,-0.000211,7e-06,0.0,7.9e-05,-1e-06,0.0,0.0,0.0,0.0,0.0,0.0
715500,-0.001469,-0.001584,0.004638,0.0,0.0,0.0,0.0,0.0,0.0,3.0,0.302912,0.35433,0.284294,0.352733,-0.0,-0.00021,7e-06,0.0,7.8e-05,-1e-06,0.0,0.0,0.0,0.0,0.0,0.0
715520,-0.001469,-0.001584,0.004638,0.0,0.0,0.0,0.0,0.0,0.0,3.0,0.302032,0.355504,0.28501,0.351729,-0.0,-0.000208,7e-06,0.0,7.8e-05,-1e-06,0.0,0.0,0.0,0.0,0.0,0.0
715540,-0.001224,-0.00134,0.004639,0.0,0.0,0.0,0.0,0.0,0.0,3.0,0.303173,0.354839,0.283703,0.352447,-0.0,-0.000207,7e-06,0.0,7.7e-05,-1e-06,0.0,0.0,0.0,0.0,0.0,0.0
715560,-0.001224,-0.001218,0.004639,0.0,0.0,0.0,0.0,0.0,0.0,3.0,0.30355,0.353971,0.286577,0.350861,-0.0,-0.000205,7e-06,0.0,7.7e-05,-1e-06,0.0,0.0,0.0,0.0,0.0,0.0
715580,-0.000979,-0.000974,0.004639,0.0,0.0,0.0,0.0,0.0,0.0,3.0,0.301958,0.354371,0.285127,0.352845,-0.0,-0.000204,7e-06,0.0,7.6e-05,-1e-06,0.0,0.0,0.0,0.0,0.0,0.0
715600,-0.0011,-0.00073,0.004639,0.0,0.0,0.0,0.0,0.0,0.0,3.0,0.303052,0.353338,0.283684,0.354065,-0.0,-0.000202,7e-06,0.0,7.5e-05,-1e-06,0.0,0.0,0.0,0.0,0.0,0.0
715620,-0.000978,-0.000608,0.004639,0.0,0.0,0.0,0.0,0.0,0.0,3.0,0.303239,0.354117,0.283418,0.353331,-0.0,-0.000201,7e-06,0.0,7.5e-05,-1e-06,0.0,0.0,0.0,0.0,0.0,0.0
715640,-0.0011,-0.000486,0.004639,0.0,0.0,0.0,0.0,0.0,0.0,3.0,0.304851,0.35276,0.286617,0.350982,-0.0,-0.000199,7e-06,0.0,7.4e-05,-1e-06,0.0,0.0,0.0,0.0,0.0,0.0
715660,-0.0011,-0.000608,0.004761,0.0,0.0,0.0,0.0,0.0,0.0,3.0,0.301047,0.355782,0.28225,0.354286,-0.0,-0.000198,7e-06,0.0,7.4e-05,-1e-06,0.0,0.0,0.0,0.0,0.0,0.0
715680,-0.0011,-0.000364,0.004883,0.0,0.0,0.0,0.0,0.0,0.0,3.0,0.298502,0.356448,0.28065,0.356798,-0.0,-0.000196,7e-06,0.0,7.3e-05,-1e-06,0.0,0.0,0.0,0.0,0.0,0.0
715700,-0.0011,-0.000364,0.004883,0.0,0.0,0.0,0.0,0.0,0.0,3.0,0.299511,0.354276,0.284336,0.355486,-0.0,-0.000195,7e-06,0.0,7.3e-05,-1e-06,0.0,0.0,0.0,0.0,0.0,0.0
715720,-0.000978,-0.000486,0.004883,0.0,0.0,0.0,0.0,0.0,0.0,3.0,0.301833,0.354569,0.283752,0.353769,-0.0,-0.000193,7e-06,0.0,7.2e-05,-1e-06,0.0,0.0,0.0,0.0,0.0,0.0
715740,-0.0011,-0.00073,0.004883,0.0,0.0,0.0,0.0,0.0,0.0,3.0,0.300591,0.355639,0.283085,0.354182,-0.0,-0.000192,7e-06,0.0,7.2e-05,-1e-06,0.0,0.0,0.0,0.0,0.0,0.0
715760,-0.001101,-0.000974,0.005005,0.0,0.0,0.0,0.0,0.0,0.0,3.0,0.298337,0.357738,0.279019,0.356804,-0.0,-0.00019,6e-06,0.0,7.1e-05,-1e-06,0.0,0.0,0.0,0.0,0.0,0.0
715780,-0.001224,-0.001096,0.005127,0.0,0.0,0.0,0.0,0.0,0.0,3.0,0.299443,0.357688,0.279087,0.355935,-0.0,-0.000189,6e-06,0.0,7.1e-05,-1e-06,0.0,0.0,0.0,0.0,0.0,0.0
715800,-0.001346,-0.001217,0.005005,0.0,0.0,0.0,0.0,0.0,0.0,3.0,0.303207,0.353802,0.28304,0.35395,-0.0,-0.000187,6e-06,0.0,7e-05,-1e-06,0.0,0.0,0.0,0.0,0.0,0.0
715820,-0.001346,-0.001339,0.005005,0.0,0.0,0.0,0.0,0.0,0.0,3.0,0.301143,0.355623,0.281944,0.354592,-0.0,-0.000186,6e-06,0.0,7e-05,-1e-06,0.0,0.0,0.0,0.0,0.0,0.0
715840,-0.001469,-0.001461,0.005127,0.0,0.0,0.0,0.0,0.0,0.0,3.0,0.297092,0.358329,0.278021,0.357891,-0.0,-0.000185,6e-06,0.0,6.9e-05,-1e-06,0.0,0.0,0.0,0.0,0.0,0.0
715860,-0.001468,-0.001339,0.005249,0.0,0.0,0.0,0.0,0.0,0.0,3.0,0.298661,0.356049,0.279188,0.358115,-0.0,-0.000183,6e-06,0.0,6.9e-05,-1e-06,0.0,0.0,0.0,0.0,0.0,0.0
715880,-0.001468,-0.001095,0.005249,0.0,0.0,0.0,0.0,0.0,0.0,3.0,0.299361,0.355604,0.281115,0.356629,-0.0,-0.000182,6e-06,0.0,6.8e-05,-1e-06,0.0,0.0,0.0,0.0,0.0,0.0
715900,-0.001467,-0.000973,0.005127,0.0,0.0,0.0,0.0,0.0,0.0,3.0,0.300318,0.353063,0.283566,0.356613,-0.0,-0.000181,6e-06,0.0,6.7e-05,-1e-06,0.0,0.0,0.0,0.0,0.0,0.0
715920,-0.001467,-0.000851,0.005249,0.0,0.0,0.0,0.0,0.0,0.0,3.0,0.300387,0.354386,0.282818,0.355794,-0.0,-0.000179,6e-06,0.0,6.7e-05,-1e-06,0.0,0.0,0.0,0.0,0.0,0.0
715940,-0.001467,-0.000607,0.005249,0.0,0.0,0.0,0.0,0.0,0.0,3.0,0.297158,0.354917,0.279856,0.359925,-0.0,-0.000178,6e-06,0.0,6.6e-05,-1e-06,0.0,0.0,0.0,0.0,0.0,0.0
715960,-0.001588,-0.000362,0.00525,0.0,0.0,0.0,0.0,0.0,0.0,3.0,0.301807,0.353223,0.282425,0.356102,-0.0,-0.000177,6e-06,0.0,6.6e-05,-1e-06,0.0,0.0,0.0,0.0,0.0,0.0
715980,-0.00171,-0.00024,0.00525,0.0,0.0,0.0,0.0,0.0,0.0,3.0,0.301737,0.353624,0.282051,0.356034,-0.0,-0.000175,6e-06,0.0,6.5e-05,-1e-06,0.0,0.0,0.0,0.0,0.0,0.0
716000,-0.00171,-0.00024,0.00525,0.0,0.0,0.0,0.0,0.0,0.0,3.0,0.301168,0.354326,0.282596,0.355394,-0.0,-0.000174,6e-06,0.0,6.5e-05,-1e-06,0.0,0.0,0.0,0.0,0.0,0.0
716020,-0.001587,-0.000118,0.00525,0.0,0.0,0.0,0.0,0.0,0.0,3.0,0.298824,0.356208,0.281293,0.356321,-0.0,-0.000173,6e-06,0.0,6.5e-05,-1e-06,0.0,0.0,0.0,0.0,0.0,0.0
716040,-0.001465,0.000126,0.005372,0.0,0.0,0.0,0.0,0.0,0.0,3.0,0.297002,0.356186,0.280435,0.358382,-0.0,-0.000171,6e-06,0.0,6.4e-05,-1e-06,0.0,0.0,0.0,0.0,0.0,0.0
716060,-0.001464,0.000492,0.00525,0.0,0.0,0.0,0.0,0.0,0.0,3.0,0.301665,0.353876,0.283181,0.355017,-0.0,-0.00017,6e-06,0.0,6.4e-05,-1e-06,0.0,0.0,0.0,0.0,0.0,0.0
716080,-0.001219,0.000614,0.00525,0.0,0.0,0.0,0.0,0.0,0.0,3.0,0.299653,0.354064,0.284087,0.355767,-0.0,-0.000169,6e-06,0.0,6.3e-05,-1e-06,0.0,0.0,0.0,0.0,0.0,0.0
716100,-0.001096,0.000857,0.00525,0.0,0.0,0.0,0.0,0.0,0.0,3.0,0.299451,0.354757,0.284176,0.355172,-0.0,-0.000168,6e-06,0.0,6.3e-05,-1e-06,0.0,0.0,0.0,0.0,0.0,0.0
716120,-0.000974,0.001101,0.00525,0.0,0.0,0.0,0.0,0.0,0.0,3.0,0.298714,0.355923,0.279813,0.357753,-0.0,-0.000166,6e-06,0.0,6.2e-05,-1e-06,0.0,0.0,0.0,0.0,0.0,0.0
716140,-0.000851,0.001223,0.005128,0.0,0.0,0.0,0.0,0.0,0.0,3.0,0.301198,0.35378,0.28393,0.354936,-0.0,-0.000165,6e-06,0.0,6.2e-05,-1e-06,0.0,0.0,0.0,0.0,0.0,0.0
716160,-0.000973,0.001467,0.005129,0.0,0.0,0.0,0.0,0.0,0.0,3.0,0.301359,0.353757,0.282407,0.355945,-0.0,-0.000164,6e-06,0.0,6.1e-05,-1e-06,0.0,0.0,0.0,0.0,0.0,0.0
716180,-0.000851,0.001467,0.005128,0.0,0.0,0.0,0.0,0.0,0.0,3.0,0.301882,0.353138,0.285072,0.354183,-0.0,-0.000163,6e-06,0.0,6.1e-05,-1e-06,0.0,0.0,0.0,0.0,0.0,0.0
716200,-0.00085,0.001589,0.005251,0.0,0.0,0.0,0.0,0.0,0.0,3.0,0.299145,0.354886,0.281035,0.35757,-0.0,-0.000161,6e-06,0.0,6e-05,-1e-06,0.0,0.0,0.0,0.0,0.0,0.0
716220,-0.00085,0.001711,0.005373,0.0,0.0,0.0,0.0,0.0,0.0,3.0,0.301666,0.353661,0.281197,0.356672,-0.0,-0.00016,6e-06,0.0,6e-05,-1e-06,0.0,0.0,0.0,0.0,0.0,0.0
716240,-0.00085,0.001589,0.005251,0.0,0.0,0.0,0.0,0.0,0.0,3.0,0.300633,0.354323,0.283316,0.355297,-0.0,-0.000159,6e-06,0.0,5.9e-05,-1e-06,0.0,0.0,0.0,0.0,0.0,0.0
716260,-0.000728,0.001711,0.005251,0.0,0.0,0.0,0.0,0.0,0.0,3.0,0.300562,0.353549,0.282549,0.356681,-0.0,-0.000158,6e-06,0.0,5.9e-05,-1e-06,0.0,0.0,0.0,0.0,0.0,0.0
716280,-0.000728,0.001589,0.005251,0.0,0.0,0.0,0.0,0.0,0.0,3.0,0.295568,0.357008,0.280654,0.358516,-0.0,-0.000157,6e-06,0.0,5.9e-05,-1e-06,0.0,0.0,0.0,0.0,0.0,0.0
716300,-0.000728,0.001589,0.005373,0.0,0.0,0.0,0.0,0.0,0.0,3.0,0.298321,0.354449,0.281445,0.358352,-0.0,-0.000155,6e-06,0.0,5.8e-05,-1e-06,0.0,0.0,0.0,0.0,0.0,0.0
716320,-0.000606,0.001711,0.005495,0.0,0.0,0.0,0.0,0.0,0.0,3.0,0.298079,0.355431,0.281037,0.357863,-0.0,-0.000154,6e-06,0.0,5.8e-05,-1e-06,0.0,0.0,0.0,0.0,0.0,0.0
716340,-0.000606,0.001711,0.005373,0.0,0.0,0.0,0.0,0.0,0.0,3.0,0.298971,0.353959,0.284211,0.35632,-0.0,-0.000153,6e-06,0.0,5.7e-05,-1e-06,0.0,0.0,0.0,0.0,0.0,0.0
716360,-0.000728,0.001711,0.005373,0.0,0.0,0.0,0.0,0.0,0.0,3.0,0.301063,0.35463,0.28128,0.356131,-0.0,-0.000152,6e-06,0.0,5.7e-05,-1e-06,0.0,0.0,0.0,0.0,0.0,0.0
716380,-0.000728,0.001711,0.005373,0.0,0.0,0.0,0.0,0.0,0.0,3.0,0.299051,0.353768,0.283386,0.357049,-0.0,-0.000151,6e-06,0.0,5.6e-05,-1e-06,0.0,0.0,0.0,0.0,0.0,0.0
716400,-0.000727,0.001955,0.005373,0.0,0.0,0.0,0.0,0.0,0.0,3.0,0.297576,0.355216,0.279815,0.359337,-0.0,-0.00015,6e-06,0.0,5.6e-05,-1e-06,0.0,0.0,0.0,0.0,0.0,0.0
716420,-0.000605,0.002077,0.005373,0.0,0.0,0.0,0.0,0.0,0.0,3.0,0.297217,0.355684,0.281543,0.357919,-0.0,-0.000149,6e-06,0.0,5.6e-05,-1e-06,0.0,0.0,0.0,0.0,0.0,0.0
716440,-0.000727,0.001955,0.005373,0.0,0.0,0.0,0.0,0.0,0.0,3.0,0.299566,0.355037,0.282417,0.35609,-0.0,-0.000148,6e-06,0.0,5.5e-05,-1e-06,0.0,0.0,0.0,0.0,0.0,0.0
716460,-0.000605,0.002077,0.005373,0.0,0.0,0.0,0.0,0.0,0.0,3.0,0.299823,0.354906,0.282293,0.356107,-0.0,-0.000146,6e-06,0.0,5.5e-05,-1e-06,0.0,0.0,0.0,0.0,0.0,0.0
716480,-0.000605,0.002077,0.005373,0.0,0.0,0.0,0.0,0.0,0.0,3.0,0.298006,0.354723,0.282527,0.357548,-0.0,-0.000145,6e-06,0.0,5.4e-05,-1e-06,0.0,0.0,0.0,0.0,0.0,0.0
716500,-0.000605,0.001955,0.005373,0.0,0.0,0.0,0.0,0.0,0.0,3.0,0.299954,0.355142,0.281938,0.356025,-0.0,-0.000144,6e-06,0.0,5.4e-05,-1e-06,0.0,0.0,0.0,0.0,0.0,0.0
716520,-0.000605,0.001833,0.005373,0.0,0.0,0.0,0.0,0.0,0.0,3.0,0.298753,0.355235,0.283289,0.355899,-0.0,-0.000143,6e-06,0.0,5.4e-05,-1e-06,0.0,0.0,0.0,0.0,0.0,0.0
716540,-0.000606,0.001711,0.005495,0.0,0.0,0.0,0.0,0.0,0.0,3.0,0.297036,0.357119,0.281291,0.356812,-0.0,-0.000142,6e-06,0.0,5.3e-05,-1e-06,0.0,0.0,0.0,0.0,0.0,0.0
716560,-0.000606,0.001711,0.005617,0.0,0.0,0.0,0.0,0.0,0.0,3.0,0.297697,0.355495,0.282002,0.357402,-0.0,-0.000141,6e-06,0.0,5.3e-05,-1e-06,0.0,0.0,0.0,0.0,0.0,0.0
716580,-0.000605,0.001833,0.005617,0.0,0.0,0.0,0.0,0.0,0.0,3.0,0.295551,0.357906,0.279675,0.358332,-0.0,-0.00014,6e-06,0.0,5.2e-05,-1e-06,0.0,0.0,0.0,0.0,0.0,0.0
716600,-0.000606,0.001589,0.005617,0.0,0.0,0.0,0.0,0.0,0.0,3.0,0.301463,0.352632,0.286055,0.354291,-0.0,-0.000139,6e-06,0.0,5.2e-05,-1e-06,0.0,0.0,0.0,0.0,0.0,0.0
716620,-0.000606,0.001711,0.005617,0.0,0.0,0.0,0.0,0.0,0.0,3.0,0.296618,0.357565,0.280222,0.357458,-0.0,-0.000138,6e-06,0.0,5.2e-05,-1e-06,0.0,0.0,0.0,0.0,0.0,0.0
716640,-0.000606,0.001589,0.005739,0.0,0.0,0.0,0.0,0.0,0.0,3.0,0.293443,0.358725,0.277356,0.360756,-0.0,-0.000137,6e-06,0.0,5.1e-05,-1e-06,0.0,0.0,0.0,0.0,0.0,0.0
716660,-0.000605,0.001711,0.005861,0.0,0.0,0.0,0.0,0.0,0.0,3.0,0.298999,0.354326,0.281617,0.357819,-0.0,-0.000136,6e-06,0.0,5.1e-05,-1e-06,0.0,0.0,0.0,0.0,0.0,0.0
716680,-0.000484,0.001588,0.005861,0.0,0.0,0.0,0.0,0.0,0.0,3.0,0.29559,0.35732,0.280342,0.358412,-0.0,-0.000135,6e-06,0.0,5e-05,-1e-06,0.0,0.0,0.0,0.0,0.0,0.0
716700,-0.000484,0.001466,0.005861,0.0,0.0,0.0,0.0,0.0,0.0,3.0,0.29933,0.35646,0.280197,0.35646,-0.0,-0.000134,6e-06,0.0,5e-05,-1e-06,0.0,0.0,0.0,0.0,0.0,0.0
716720,-0.000362,0.001344,0.005861,0.0,0.0,0.0,0.0,0.0,0.0,3.0,0.29516,0.359071,0.277639,0.358907,-0.0,-0.000133,6e-06,0.0,5e-05,-1e-06,0.0,0.0,0.0,0.0,0.0,0.0
716740,-0.000362,0.001344,0.005983,0.0,0.0,0.0,0.0,0.0,0.0,3.0,0.295276,0.357384,0.277894,0.360318,-0.0,-0.000132,5e-06,0.0,4.9e-05,-1e-06,0.0,0.0,0.0,0.0,0.0,0.0
716760,-0.000484,0.001466,0.005983,0.0,0.0,0.0,0.0,0.0,0.0,3.0,0.299188,0.35644,0.279607,0.357015,-0.0,-0.000131,5e-06,0.0,4.9e-05,-1e-06,0.0,0.0,0.0,0.0,0.0,0.0
716780,-0.000362,0.001344,0.005983,0.0,0.0,0.0,0.0,0.0,0.0,3.0,0.297415,0.357151,0.281857,0.356074,-0.0,-0.00013,5e-06,0.0,4.9e-05,-1e-06,0.0,0.0,0.0,0.0,0.0,0.0
716800,-0.000362,0.001466,0.005983,0.0,0.0,0.0,0.0,0.0,0.0,3.0,0.296332,0.356873,0.279149,0.359132,-0.0,-0.000129,5e-06,0.0,4.8e-05,-1e-06,0.0,0.0,0.0,0.0,0.0,0.0
716820,-0.000361,0.001588,0.006105,0.0,0.0,0.0,0.0,0.0,0.0,3.0,0.296921,0.356837,0.279086,0.358758,-0.0,-0.000128,5e-06,0.0,4.8e-05,-1e-06,0.0,0.0,0.0,0.0,0.0,0.0
716840,-0.000361,0.00171,0.006105,0.0,0.0,0.0,0.0,0.0,0.0,3.0,0.297317,0.355367,0.279483,0.359624,-0.0,-0.000127,5e-06,0.0,4.7e-05,-1e-06,0.0,0.0,0.0,0.0,0.0,0.0
716860,-0.000361,0.001832,0.006105,0.0,0.0,0.0,0.0,0.0,0.0,3.0,0.298104,0.355876,0.280329,0.357909,-0.0,-0.000126,5e-06,0.0,4.7e-05,-1e-06,0.0,0.0,0.0,0.0,0.0,0.0
716880,-0.000361,0.001832,0.006105,0.0,0.0,0.0,0.0,0.0,0.0,3.0,0.29546,0.357147,0.279406,0.359349,-0.0,-0.000125,5e-06,0.0,4.7e-05,-1e-06,0.0,0.0,0.0,0.0,0.0,0.0
716900,-0.000238,0.001832,0.006227,0.0,0.0,0.0,0.0,0.0,0.0,3.0,0.295749,0.356826,0.279675,0.359255,-0.0,-0.000124,5e-06,0.0,4.6e-05,-1e-06,0.0,0.0,0.0,0.0,0.0,0.0
716920,-0.000116,0.001954,0.006349,0.0,0.0,0.0,0.0,0.0,0.0,3.0,0.29693,0.356388,0.280936,0.357879,-0.0,-0.000123,5e-06,0.0,4.6e-05,-1e-06,0.0,0.0,0.0,0.0,0.0,0.0
716940,-0.000116,0.002076,0.006227,0.0,0.0,0.0,0.0,0.0,0.0,3.0,0.298052,0.355369,0.28066,0.358215,-0.0,-0.000122,5e-06,0.0,4.6e-05,-1e-06,0.0,0.0,0.0,0.0,0.0,0.0
716960,6e-06,0.002075,0.006227,0.0,0.0,0.0,0.0,0.0,0.0,3.0,0.298931,0.355487,0.282253,0.356261,-0.0,-0.000121,5e-06,0.0,4.5e-05,-1e-06,0.0,0.0,0.0,0.0,0.0,0.0
716980,-0.000115,0.00232,0.006349,0.0,0.0,0.0,0.0,0.0,0.0,3.0,0.296514,0.357157,0.277707,0.359725,-0.0,-0.000121,5e-06,0.0,4.5e-05,-1e-06,0.0,0.0,0.0,0.0,0.0,0.0
717000,-0.000114,0.002564,0.006349,0.0,0.0,0.0,0.0,0.0,0.0,3.0,0.293807,0.35827,0.278439,0.360175,-0.0,-0.00012,5e-06,0.0,4.5e-05,-1e-06,0.0,0.0,0.0,0.0,0.0,0.0
717020,9e-06,0.002808,0.006349,0.0,0.0,0.0,0.0,0.0,0.0,3.0,0.301433,0.352983,0.282311,0.356721,-0.0,-0.000119,5e-06,0.0,4.4e-05,-1e-06,0.0,0.0,0.0,0.0,0.0,0.0
717040,-0.000113,0.002808,0.006349,0.0,0.0,0.0,0.0,0.0,0.0,3.0,0.297755,0.3551,0.282347,0.3575,-0.0,-0.000118,5e-06,0.0,4.4e-05,-1e-06,0.0,0.0,0.0,0.0,0.0,0.0
717060,-0.000113,0.00293,0.006471,0.0,0.0,0.0,0.0,0.0,0.0,3.0,0.296548,0.356476,0.276924,0.360918,-0.0,-0.000117,5e-06,0.0,4.4e-05,-1e-06,0.0,0.0,0.0,0.0,0.0,0.0
717080,-0.000112,0.00293,0.006593,0.0,0.0,0.0,0.0,0.0,0.0,3.0,0.296722,0.355671,0.279739,0.359603,-0.0,-0.000116,5e-06,0.0,4.3e-05,-1e-06,0.0,0.0,0.0,0.0,0.0,0.0
717100,-0.000235,0.002931,0.006471,0.0,0.0,0.0,0.0,0.0,0.0,3.0,0.298404,0.355767,0.278866,0.358824,-0.0,-0.000115,5e-06,0.0,4.3e-05,-1e-06,0.0,0.0,0.0,0.0,0.0,0.0
717120,-0.000235,0.002809,0.006471,0.0,0.0,0.0,0.0,0.0,0.0,3.0,0.299606,0.353811,0.281827,0.3577,-0.0,-0.000114,5e-06,0.0,4.3e-05,-1e-06,0.0,0.0,0.0,0.0,0.0,0.0
717140,-0.000357,0.002687,0.006593,0.0,0.0,0.0,0.0,0.0,0.0,3.0,0.29666,0.355791,0.277969,0.360777,-0.0,-0.000114,5e-06,0.0,4.2e-05,-1e-06,0.0,0.0,0.0,0.0,0.0,0.0
717160,-0.000479,0.002809,0.006594,0.0,0.0,0.0,0.0,0.0,0.0,3.0,0.296515,0.355602,0.277635,0.361306,-0.0,-0.000113,5e-06,0.0,4.2e-05,-1e-06,0.0,0.0,0.0,0.0,0.0,0.0
717180,-0.00048,0.002565,0.006594,0.0,0.0,0.0,0.0,0.0,0.0,3.0,0.295815,0.35537,0.280038,0.360384,-0.0,-0.000112,5e-06,0.0,4.2e-05,-1e-06,0.0,0.0,0.0,0.0,0.0,0.0
717200,-0.000602,0.002566,0.006594,0.0,0.0,0.0,0.0,0.0,0.0,3.0,0.295243,0.356515,0.278551,0.360742,-0.0,-0.000111,5e-06,0.0,4.1e-05,-1e-06,0.0,0.0,0.0,0.0,0.0,0.0
717220,-0.000481,0.002321,0.006716,0.0,0.0,0.0,0.0,0.0,0.0,3.0,0.29558,0.356231,0.278871,0.360539,-0.0,-0.00011,5e-06,0.0,4.1e-05,-1e-06,0.0,0.0,0.0,0.0,0.0,0.0
717240,-0.000481,0.002321,0.006716,0.0,0.0,0.0,0.0,0.0,0.0,3.0,0.294927,0.356084,0.280415,0.360091,-0.0,-0.000109,5e-06,0.0,4.1e-05,-1e-06,0.0,0.0,0.0,0.0,0.0,0.0
717260,-0.000481,0.002077,0.006716,0.0,0.0,0.0,0.0,0.0,0.0,3.0,0.29618,0.35722,0.279033,0.358987,-0.0,-0.000109,5e-06,0.0,4.1e-05,-1e-06,0.0,0.0,0.0,0.0,0.0,0.0
717280,-0.000483,0.001711,0.006715,0.0,0.0,0.0,0.0,0.0,0.0,3.0,0.29664,0.357944,0.278456,0.358318,-0.0,-0.000108,5e-06,0.0,4e-05,-1e-06,0.0,0.0,0.0,0.0,0.0,0.0
717300,-0.000483,0.001589,0.006715,0.0,0.0,0.0,0.0,0.0,0.0,3.0,0.2943,0.359155,0.277052,0.359891,-0.0,-0.000107,5e-06,0.0,4e-05,-1e-06,0.0,0.0,0.0,0.0,0.0,0.0
717320,-0.000483,0.001589,0.006837,0.0,0.0,0.0,0.0,0.0,0.0,3.0,0.296267,0.358662,0.275459,0.359986,-0.0,-0.000106,5e-06,0.0,4e-05,-1e-06,0.0,0.0,0.0,0.0,0.0,0.0
717340,-0.000482,0.001711,0.006837,0.0,0.0,0.0,0.0,0.0,0.0,3.0,0.296842,0.356931,0.277408,0.359906,-0.0,-0.000105,5e-06,0.0,3.9e-05,-1e-06,0.0,0.0,0.0,0.0,0.0,0.0
717360,-0.000482,0.001711,0.006837,0.0,0.0,0.0,0.0,0.0,0.0,3.0,0.298152,0.357181,0.279517,0.357151,-0.0,-0.000105,5e-06,0.0,3.9e-05,-1e-06,0.0,0.0,0.0,0.0,0.0,0.0
717380,-0.000604,0.001711,0.00696,0.0,0.0,0.0,0.0,0.0,0.0,3.0,0.296814,0.358182,0.275507,0.36001,-0.0,-0.000104,5e-06,0.0,3.9e-05,-1e-06,0.0,0.0,0.0,0.0,0.0,0.0
717400,-0.000604,0.001711,0.007082,0.0,0.0,0.0,0.0,0.0,0.0,3.0,0.294613,0.359818,0.275376,0.360154,-0.0,-0.000103,5e-06,0.0,3.9e-05,-1e-06,0.0,0.0,0.0,0.0,0.0,0.0
717420,-0.000605,0.001589,0.007082,0.0,0.0,0.0,0.0,0.0,0.0,3.0,0.295481,0.357484,0.277707,0.360193,-0.0,-0.000102,5e-06,0.0,3.8e-05,-1e-06,0.0,0.0,0.0,0.0,0.0,0.0
717440,-0.000604,0.001711,0.007082,0.0,0.0,0.0,0.0,0.0,0.0,3.0,0.296057,0.357365,0.277202,0.360223,-0.0,-0.000102,5e-06,0.0,3.8e-05,-1e-06,0.0,0.0,0.0,0.0,0.0,0.0
717460,-0.000482,0.001711,0.007082,0.0,0.0,0.0,0.0,0.0,0.0,3.0,0.295784,0.357653,0.277436,0.359984,-0.0,-0.000101,5e-06,0.0,3.8e-05,-1e-06,0.0,0.0,0.0,0.0,0.0,0.0
717480,-0.000481,0.001955,0.007082,0.0,0.0,0.0,0.0,0.0,0.0,3.0,0.293042,0.359699,0.272913,0.36314,-0.0,-0.0001,5e-06,0.0,3.7e-05,-1e-06,0.0,0.0,0.0,0.0,0.0,0.0
717500,-0.000481,0.002077,0.007082,0.0,0.0,0.0,0.0,0.0,0.0,3.0,0.296078,0.357917,0.277387,0.359531,-0.0,-9.9e-05,5e-06,0.0,3.7e-05,-1e-06,0.0,0.0,0.0,0.0,0.0,0.0
717520,-0.000603,0.0022,0.007082,0.0,0.0,0.0,0.0,0.0,0.0,3.0,0.299076,0.355927,0.278788,0.358195,-0.0,-9.9e-05,5e-06,0.0,3.7e-05,-1e-06,0.0,0.0,0.0,0.0,0.0,0.0
717540,-0.000846,0.002322,0.007082,0.0,0.0,0.0,0.0,0.0,0.0,3.0,0.29713,0.358808,0.273755,0.36035,-0.0,-9.8e-05,5e-06,0.0,3.7e-05,-1e-06,0.0,0.0,0.0,0.0,0.0,0.0
717560,-0.000968,0.002323,0.007082,0.0,0.0,0.0,0.0,0.0,0.0,3.0,0.298549,0.357629,0.278234,0.357305,-0.0,-9.7e-05,5e-06,0.0,3.6e-05,-1e-06,0.0,0.0,0.0,0.0,0.0,0.0
717580,-0.000969,0.002079,0.007082,0.0,0.0,0.0,0.0,0.0,0.0,3.0,0.296558,0.359483,0.276365,0.358311,-0.0,-9.6e-05,5e-06,0.0,3.6e-05,-1e-06,0.0,0.0,0.0,0.0,0.0,0.0
717600,-0.00097,0.001835,0.00696,0.0,0.0,0.0,0.0,0.0,0.0,3.0,0.299049,0.358149,0.280635,0.354666,-0.0,-9.6e-05,5e-06,0.0,3.6e-05,-1e-06,0.0,0.0,0.0,0.0,0.0,0.0
717620,-0.000971,0.001713,0.007082,0.0,0.0,0.0,0.0,0.0,0.0,3.0,0.295017,0.359468,0.276328,0.359537,-0.0,-9.5e-05,5e-06,0.0,3.5e-05,-1e-06,0.0,0.0,0.0,0.0,0.0,0.0
717640,-0.000972,0.001468,0.00696,0.0,0.0,0.0,0.0,0.0,0.0,3.0,0.297828,0.358259,0.280002,0.355975,-0.0,-9.4e-05,5e-06,0.0,3.5e-05,-1e-06,0.0,0.0,0.0,0.0,0.0,0.0
717660,-0.000972,0.001224,0.00696,0.0,0.0,0.0,0.0,0.0,0.0,3.0,0.295863,0.359236,0.277288,0.358448,-0.0,-9.4e-05,5e-06,0.0,3.5e-05,-1e-06,0.0,0.0,0.0,0.0,0.0,0.0
717680,-0.000973,0.00098,0.00696,0.0,0.0,0.0,0.0,0.0,0.0,3.0,0.29571,0.35974,0.277077,0.358208,-0.0,-9.3e-05,5e-06,0.0,3.5e-05,-1e-06,0.0,0.0,0.0,0.0,0.0,0.0
717700,-0.000974,0.000858,0.00696,0.0,0.0,0.0,0.0,0.0,0.0,3.0,0.29566,0.358509,0.277028,0.359513,-0.0,-9.2e-05,5e-06,0.0,3.4e-05,-1e-06,0.0,0.0,0.0,0.0,0.0,0.0
717720,-0.000852,0.000858,0.00696,0.0,0.0,0.0,0.0,0.0,0.0,3.0,0.294996,0.357708,0.277673,0.360366,-0.0,-9.1e-05,5e-06,0.0,3.4e-05,-1e-06,0.0,0.0,0.0,0.0,0.0,0.0
717740,-0.000729,0.000857,0.006959,0.0,0.0,0.0,0.0,0.0,0.0,3.0,0.294301,0.357898,0.278351,0.360231,-0.0,-9.1e-05,5e-06,0.0,3.4e-05,-1e-06,0.0,0.0,0.0,0.0,0.0,0.0
717760,-0.000729,0.000979,0.00696,0.0,0.0,0.0,0.0,0.0,0.0,3.0,0.295862,0.357321,0.278303,0.359645,-0.0,-9e-05,5e-06,0.0,3.4e-05,-1e-06,0.0,0.0,0.0,0.0,0.0,0.0
717780,-0.000607,0.000979,0.007082,0.0,0.0,0.0,0.0,0.0,0.0,3.0,0.29442,0.358093,0.276008,0.361578,-0.0,-8.9e-05,5e-06,0.0,3.3e-05,-1e-06,0.0,0.0,0.0,0.0,0.0,0.0
717800,-0.000728,0.001223,0.007082,0.0,0.0,0.0,0.0,0.0,0.0,3.0,0.29406,0.357606,0.277855,0.36105,-0.0,-8.9e-05,5e-06,0.0,3.3e-05,-1e-06,0.0,0.0,0.0,0.0,0.0,0.0
717820,-0.000606,0.001345,0.007082,0.0,0.0,0.0,0.0,0.0,0.0,3.0,0.294009,0.357659,0.277926,0.360987,-0.0,-8.8e-05,5e-06,0.0,3.3e-05,-1e-06,0.0,0.0,0.0,0.0,0.0,0.0
717840,-0.000605,0.001589,0.007082,0.0,0.0,0.0,0.0,0.0,0.0,3.0,0.294116,0.358282,0.277737,0.360421,-0.0,-8.7e-05,5e-06,0.0,3.3e-05,-1e-06,0.0,0.0,0.0,0.0,0.0,0.0
717860,-0.000605,0.001589,0.007082,0.0,0.0,0.0,0.0,0.0,0.0,3.0,0.295338,0.357181,0.279788,0.359138,-0.0,-8.7e-05,5e-06,0.0,3.2e-05,-1e-06,0.0,0.0,0.0,0.0,0.0,0.0
717880,-0.000483,0.001589,0.007204,0.0,0.0,0.0,0.0,0.0,0.0,3.0,0.296079,0.357247,0.279116,0.358979,-0.0,-8.6e-05,5e-06,0.0,3.2e-05,-1e-06,0.0,0.0,0.0,0.0,0.0,0.0
717900,-0.000238,0.00171,0.007204,0.0,0.0,0.0,0.0,0.0,0.0,3.0,0.293783,0.357284,0.278953,0.360809,-0.0,-8.5e-05,4e-06,0.0,3.2e-05,-1e-06,0.0,0.0,0.0,0.0,0.0,0.0
717920,-0.000238,0.00171,0.007081,0.0,0.0,0.0,0.0,0.0,0.0,3.0,0.29355,0.358173,0.278965,0.360096,-0.0,-8.5e-05,4e-06,0.0,3.2e-05,-1e-06,0.0,0.0,0.0,0.0,0.0,0.0
717940,-0.000238,0.00171,0.006959,0.0,0.0,0.0,0.0,0.0,0.0,3.0,0.29689,0.354335,0.28168,0.359405,-0.0,-8.4e-05,4e-06,0.0,3.1e-05,-1e-06,0.0,0.0,0.0,0.0,0.0,0.0
717960,-0.00036,0.00171,0.006959,0.0,0.0,0.0,0.0,0.0,0.0,3.0,0.2936,0.357947,0.278669,0.360491,-0.0,-8.4e-05,4e-06,0.0,3.1e-05,-1e-06,0.0,0.0,0.0,0.0,0.0,0.0
717980,-0.000239,0.001466,0.006959,0.0,0.0,0.0,0.0,0.0,0.0,3.0,0.291032,0.358235,0.277476,0.362959,-0.0,-8.3e-05,4e-06,0.0,3.1e-05,-1e-06,0.0,0.0,0.0,0.0,0.0,0.0
718000,-0.00024,0.001222,0.006837,0.0,0.0,0.0,0.0,0.0,0.0,3.0,0.295237,0.357124,0.279955,0.359153,-0.0,-8.2e-05,4e-06,0.0,3.1e-05,-1e-06,0.0,0.0,0.0,0.0,0.0,0.0
718020,-0.000119,0.000977,0.006715,0.0,0.0,0.0,0.0,0.0,0.0,3.0,0.292666,0.358729,0.279621,0.35975,-0.0,-8.2e-05,4e-06,0.0,3.1e-05,-1e-06,0.0,0.0,0.0,0.0,0.0,0.0
718040,-0.000119,0.000855,0.006593,0.0,0.0,0.0,0.0,0.0,0.0,3.0,0.293,0.357588,0.28027,0.360172,-0.0,-8.1e-05,4e-06,0.0,3e-05,-1e-06,0.0,0.0,0.0,0.0,0.0,0.0
718060,0.000124,0.000732,0.006593,0.0,0.0,0.0,0.0,0.0,0.0,3.0,0.293772,0.358179,0.281531,0.358096,-0.0,-8.1e-05,4e-06,0.0,3e-05,-1e-06,0.0,0.0,0.0,0.0,0.0,0.0
718080,0.000124,0.000732,0.006471,0.0,0.0,0.0,0.0,0.0,0.0,3.0,0.295474,0.355374,0.284394,0.35751,-0.0,-8e-05,4e-06,0.0,3e-05,-1e-06,0.0,0.0,0.0,0.0,0.0,0.0
718100,0.000124,0.00061,0.006471,0.0,0.0,0.0,0.0,0.0,0.0,3.0,0.293611,0.358599,0.279784,0.359047,-0.0,-7.9e-05,4e-06,0.0,3e-05,-1e-06,0.0,0.0,0.0,0.0,0.0,0.0
718120,0.000246,0.00061,0.006471,0.0,0.0,0.0,0.0,0.0,0.0,3.0,0.291285,0.360302,0.278338,0.360121,-0.0,-7.9e-05,4e-06,0.0,2.9e-05,-1e-06,0.0,0.0,0.0,0.0,0.0,0.0
718140,0.000246,0.000732,0.006349,0.0,0.0,0.0,0.0,0.0,0.0,3.0,0.295212,0.356659,0.281107,0.358813,-0.0,-7.8e-05,4e-06,0.0,2.9e-05,-1e-06,0.0,0.0,0.0,0.0,0.0,0.0
718160,0.000246,0.00061,0.006349,0.0,0.0,0.0,0.0,0.0,0.0,3.0,0.29263,0.359778,0.280787,0.357895,-0.0,-7.8e-05,4e-06,0.0,2.9e-05,-1e-06,0.0,0.0,0.0,0.0,0.0,0.0
718180,0.000247,0.000854,0.006349,0.0,0.0,0.0,0.0,0.0,0.0,3.0,0.293768,0.357961,0.279312,0.359897,-0.0,-7.7e-05,4e-06,0.0,2.9e-05,-1e-06,0.0,0.0,0.0,0.0,0.0,0.0
718200,0.000247,0.000854,0.006227,0.0,0.0,0.0,0.0,0.0,0.0,3.0,0.29347,0.358245,0.281672,0.35816,-0.0,-7.6e-05,4e-06,0.0,2.9e-05,-1e-06,0.0,0.0,0.0,0.0,0.0,0.0
718220,0.00037,0.001098,0.006226,0.0,0.0,0.0,0.0,0.0,0.0,3.0,0.29439,0.356951,0.280728,0.359422,-0.0,-7.6e-05,4e-06,0.0,2.8e-05,-1e-06,0.0,0.0,0.0,0.0,0.0,0.0
718240,0.00037,0.00122,0.006226,0.0,0.0,0.0,0.0,0.0,0.0,3.0,0.293369,0.35739,0.281755,0.35903,-0.0,-7.5e-05,4e-06,0.0,2.8e-05,-1e-06,0.0,0.0,0.0,0.0,0.0,0.0
718260,0.00037,0.00122,0.006226,0.0,0.0,0.0,0.0,0.0,0.0,3.0,0.293809,0.358431,0.279502,0.359264,-0.0,-7.5e-05,4e-06,0.0,2.8e-05,-1e-06,0.0,0.0,0.0,0.0,0.0,0.0
718280,0.00037,0.001342,0.006226,0.0,0.0,0.0,0.0,0.0,0.0,3.0,0.29331,0.357718,0.279863,0.360097,-0.0,-7.4e-05,4e-06,0.0,2.8e-05,-1e-06,0.0,0.0,0.0,0.0,0.0,0.0
718300,0.00037,0.00122,0.006226,0.0,0.0,0.0,0.0,0.0,0.0,3.0,0.291498,0.35892,0.278277,0.361381,-0.0,-7.4e-05,4e-06,0.0,2.8e-05,-1e-06,0.0,0.0,0.0,0.0,0.0,0.0
718320,0.000249,0.001464,0.006104,0.0,0.0,0.0,0.0,0.0,0.0,3.0,0.295939,0.355826,0.280513,0.359502,-0.0,-7.3e-05,4e-06,0.0,2.7e-05,-1e-06,0.0,0.0,0.0,0.0,0.0,0.0
718340,0.000249,0.001586,0.006104,0.0,0.0,0.0,0.0,0.0,0.0,3.0,0.293738,0.356953,0.279803,0.360571,-0.0,-7.3e-05,4e-06,0.0,2.7e-05,-1e-06,0.0,0.0,0.0,0.0,0.0,0.0
718360,0.00025,0.00183,0.006104,0.0,0.0,0.0,0.0,0.0,0.0,3.0,0.290469,0.35731,0.279598,0.362808,-0.0,-7.2e-05,4e-06,0.0,2.7e-05,-1e-06,0.0,0.0,0.0,0.0,0.0,0.0
718380,0.00025,0.00183,0.005982,0.0,0.0,0.0,0.0,0.0,0.0,3.0,0.294993,0.356264,0.281739,0.358919,-0.0,-7.1e-05,4e-06,0.0,2.7e-05,-1e-06,0.0,0.0,0.0,0.0,0.0,0.0
718400,0.000128,0.002075,0.005982,0.0,0.0,0.0,0.0,0.0,0.0,3.0,0.29373,0.356575,0.281733,0.359579,-0.0,-7.1e-05,4e-06,0.0,2.6e-05,-1e-06,0.0,0.0,0.0,0.0,0.0,0.0
718420,6e-06,0.001953,0.00586,0.0,0.0,0.0,0.0,0.0,0.0,3.0,0.291174,0.360717,0.277428,0.360425,-0.0,-7e-05,4e-06,0.0,2.6e-05,-1e-06,0.0,0.0,0.0,0.0,0.0,0.0
718440,0.000128,0.002075,0.00586,0.0,0.0,0.0,0.0,0.0,0.0,3.0,0.292105,0.359721,0.278942,0.359661,-0.0,-7e-05,4e-06,0.0,2.6e-05,-1e-06,0.0,0.0,0.0,0.0,0.0,0.0
718460,0.000128,0.001953,0.005738,0.0,0.0,0.0,0.0,0.0,0.0,3.0,0.295645,0.358603,0.279912,0.357392,-0.0,-6.9e-05,4e-06,0.0,2.6e-05,-1e-06,0.0,0.0,0.0,0.0,0.0,0.0
718480,0.000127,0.001709,0.005616,0.0,0.0,0.0,0.0,0.0,0.0,3.0,0.296838,0.358366,0.282658,0.354718,-0.0,-6.9e-05,4e-06,0.0,2.6e-05,-1e-06,0.0,0.0,0.0,0.0,0.0,0.0
718500,0.000249,0.001586,0.005616,0.0,0.0,0.0,0.0,0.0,0.0,3.0,0.296712,0.359609,0.277814,0.357045,-0.0,-6.8e-05,4e-06,0.0,2.6e-05,-1e-06,0.0,0.0,0.0,0.0,0.0,0.0
718520,0.000249,0.001586,0.005494,0.0,0.0,0.0,0.0,0.0,0.0,3.0,0.295089,0.358144,0.281345,0.357255,-0.0,-6.8e-05,4e-06,0.0,2.5e-05,-1e-06,0.0,0.0,0.0,0.0,0.0,0.0
718540,0.000371,0.001708,0.005372,0.0,0.0,0.0,0.0,0.0,0.0,3.0,0.297572,0.357984,0.279083,0.357109,-0.0,-6.7e-05,4e-06,0.0,2.5e-05,-1e-06,0.0,0.0,0.0,0.0,0.0,0.0
718560,0.000493,0.001708,0.00525,0.0,0.0,0.0,0.0,0.0,0.0,3.0,0.299059,0.3558,0.282943,0.355345,-0.0,-6.7e-05,4e-06,0.0,2.5e-05,-1e-06,0.0,0.0,0.0,0.0,0.0,0.0
718580,0.000492,0.001586,0.00525,0.0,0.0,0.0,0.0,0.0,0.0,3.0,0.295108,0.357796,0.278951,0.359296,-0.0,-6.6e-05,4e-06,0.0,2.5e-05,-1e-06,0.0,0.0,0.0,0.0,0.0,0.0
718600,0.000493,0.001708,0.005127,0.0,0.0,0.0,0.0,0.0,0.0,3.0,0.297305,0.356945,0.279837,0.357819,-0.0,-6.6e-05,4e-06,0.0,2.5e-05,-1e-06,0.0,0.0,0.0,0.0,0.0,0.0
718620,0.00037,0.001586,0.005005,0.0,0.0,0.0,0.0,0.0,0.0,3.0,0.292761,0.359575,0.277993,0.35998,-0.0,-6.5e-05,4e-06,0.0,2.4e-05,-1e-06,0.0,0.0,0.0,0.0,0.0,0.0
718640,0.00037,0.001586,0.005005,0.0,0.0,0.0,0.0,0.0,0.0,3.0,0.297859,0.358009,0.278427,0.357327,-0.0,-6.5e-05,4e-06,0.0,2.4e-05,-1e-06,0.0,0.0,0.0,0.0,0.0,0.0
718660,0.00037,0.001586,0.005005,0.0,0.0,0.0,0.0,0.0,0.0,3.0,0.296422,0.357383,0.279439,0.358351,-0.0,-6.4e-05,4e-06,0.0,2.4e-05,-1e-06,0.0,0.0,0.0,0.0,0.0,0.0
718680,0.00037,0.001586,0.004883,0.0,0.0,0.0,0.0,0.0,0.0,3.0,0.292588,0.358019,0.278329,0.36142,-0.0,-6.4e-05,4e-06,0.0,2.4e-05,-1e-06,0.0,0.0,0.0,0.0,0.0,0.0
718700,0.00037,0.001586,0.004883,0.0,0.0,0.0,0.0,0.0,0.0,3.0,0.296913,0.356269,0.27971,0.358885,-0.0,-6.3e-05,4e-06,0.0,2.4e-05,-1e-06,0.0,0.0,0.0,0.0,0.0,0.0
718720,0.000492,0.001708,0.004761,0.0,0.0,0.0,0.0,0.0,0.0,3.0,0.295432,0.356762,0.280761,0.358789,-0.0,-6.3e-05,4e-06,0.0,2.4e-05,-1e-06,0.0,0.0,0.0,0.0,0.0,0.0
718740,0.000615,0.001952,0.004761,0.0,0.0,0.0,0.0,0.0,0.0,3.0,0.293425,0.35655,0.280268,0.360877,-0.0,-6.2e-05,4e-06,0.0,2.3e-05,-1e-06,0.0,0.0,0.0,0.0,0.0,0.0
718760,0.000737,0.001951,0.004761,0.0,0.0,0.0,0.0,0.0,0.0,3.0,0.296049,0.356694,0.281058,0.358169,-0.0,-6.2e-05,4e-06,0.0,2.3e-05,-1e-06,0.0,0.0,0.0,0.0,0.0,0.0
718780,0.000738,0.002196,0.004639,0.0,0.0,0.0,0.0,0.0,0.0,3.0,0.298233,0.354029,0.28181,0.358571,-0.0,-6.2e-05,4e-06,0.0,2.3e-05,-1e-06,0.0,0.0,0.0,0.0,0.0,0.0
718800,0.000615,0.002196,0.004639,0.0,0.0,0.0,0.0,0.0,0.0,3.0,0.298336,0.355416,0.281814,0.357117,-0.0,-6.1e-05,4e-06,0.0,2.3e-05,-1e-06,0.0,0.0,0.0,0.0,0.0,0.0
718820,0.000738,0.00244,0.004639,0.0,0.0,0.0,0.0,0.0,0.0,3.0,0.296605,0.355563,0.280242,0.359443,-0.0,-6.1e-05,4e-06,0.0,2.3e-05,-1e-06,0.0,0.0,0.0,0.0,0.0,0.0
718840,0.000617,0.002684,0.004639,0.0,0.0,0.0,0.0,0.0,0.0,3.0,0.29661,0.355324,0.27997,0.359867,-0.0,-6e-05,4e-06,0.0,2.2e-05,-1e-06,0.0,0.0,0.0,0.0,0.0,0.0
718860,0.000739,0.002684,0.004639,0.0,0.0,0.0,0.0,0.0,0.0,3.0,0.300387,0.354115,0.283009,0.355924,-0.0,-6e-05,4e-06,0.0,2.2e-05,-1e-06,0.0,0.0,0.0,0.0,0.0,0.0
718880,0.000739,0.002806,0.004516,0.0,0.0,0.0,0.0,0.0,0.0,3.0,0.299037,0.352737,0.284011,0.35762,-0.0,-5.9e-05,4e-06,0.0,2.2e-05,-1e-06,0.0,0.0,0.0,0.0,0.0,0.0
718900,0.000861,0.002928,0.004516,0.0,0.0,0.0,0.0,0.0,0.0,3.0,0.29783,0.354587,0.282701,0.357693,-0.0,-5.9e-05,4e-06,0.0,2.2e-05,-1e-06,0.0,0.0,0.0,0.0,0.0,0.0
718920,0.000861,0.002928,0.004516,0.0,0.0,0.0,0.0,0.0,0.0,3.0,0.296985,0.355358,0.279992,0.359529,-0.0,-5.8e-05,4e-06,0.0,2.2e-05,-1e-06,0.0,0.0,0.0,0.0,0.0,0.0
718940,0.000861,0.00305,0.004516,0.0,0.0,0.0,0.0,0.0,0.0,3.0,0.295458,0.35526,0.281379,0.359811,-0.0,-5.8e-05,4e-06,0.0,2.2e-05,-1e-06,0.0,0.0,0.0,0.0,0.0,0.0
718960,0.000862,0.003172,0.004394,0.0,0.0,0.0,0.0,0.0,0.0,3.0,0.300252,0.353025,0.283313,0.356888,-0.0,-5.7e-05,4e-06,0.0,2.1e-05,-1e-06,0.0,0.0,0.0,0.0,0.0,0.0
718980,0.000861,0.00305,0.004394,0.0,0.0,0.0,0.0,0.0,0.0,3.0,0.296075,0.354903,0.281436,0.359649,-0.0,-5.7e-05,4e-06,0.0,2.1e-05,-1e-06,0.0,0.0,0.0,0.0,0.0,0.0
719000,0.00074,0.003294,0.004394,0.0,0.0,0.0,0.0,0.0,0.0,3.0,0.2971,0.354551,0.279865,0.360322,-0.0,-5.7e-05,4e-06,0.0,2.1e-05,-1e-06,0.0,0.0,0.0,0.0,0.0,0.0
719020,0.000862,0.003172,0.004394,0.0,0.0,0.0,0.0,0.0,0.0,3.0,0.294097,0.355887,0.27962,0.361478,-0.0,-5.6e-05,4e-06,0.0,2.1e-05,-1e-06,0.0,0.0,0.0,0.0,0.0,0.0
719040,0.000861,0.00305,0.004272,0.0,0.0,0.0,0.0,0.0,0.0,3.0,0.29971,0.352931,0.283904,0.356978,-0.0,-5.6e-05,4e-06,0.0,2.1e-05,-1e-06,0.0,0.0,0.0,0.0,0.0,0.0
719060,0.000861,0.002806,0.004272,0.0,0.0,0.0,0.0,0.0,0.0,3.0,0.29542,0.355847,0.28022,0.360088,-0.0,-5.5e-05,4e-06,0.0,2.1e-05,-1e-06,0.0,0.0,0.0,0.0,0.0,0.0
719080,0.00086,0.002562,0.004272,0.0,0.0,0.0,0.0,0.0,0.0,3.0,0.296661,0.355167,0.281309,0.359029,-0.0,-5.5e-05,4e-06,0.0,2.1e-05,-1e-06,0.0,0.0,0.0,0.0,0.0,0.0
719100,0.000738,0.00244,0.004272,0.0,0.0,0.0,0.0,0.0,0.0,3.0,0.296651,0.354849,0.280547,0.359892,-0.0,-5.5e-05,4e-06,0.0,2e-05,-1e-06,0.0,0.0,0.0,0.0,0.0,0.0
719120,0.000859,0.002318,0.00415,0.0,0.0,0.0,0.0,0.0,0.0,3.0,0.299339,0.352253,0.284737,0.357327,-0.0,-5.4e-05,4e-06,0.0,2e-05,-1e-06,0.0,0.0,0.0,0.0,0.0,0.0
719140,0.000859,0.002318,0.004028,0.0,0.0,0.0,0.0,0.0,0.0,3.0,0.294601,0.353453,0.283454,0.360747,-0.0,-5.4e-05,4e-06,0.0,2e-05,-1e-06,0.0,0.0,0.0,0.0,0.0,0.0
719160,0.000982,0.00244,0.004028,0.0,0.0,0.0,0.0,0.0,0.0,3.0,0.296678,0.353246,0.282039,0.360377,-0.0,-5.3e-05,4e-06,0.0,2e-05,-1e-06,0.0,0.0,0.0,0.0,0.0,0.0
719180,0.001104,0.002561,0.004028,0.0,0.0,0.0,0.0,0.0,0.0,3.0,0.294719,0.353726,0.283278,0.360518,-0.0,-5.3e-05,4e-06,0.0,2e-05,-1e-06,0.0,0.0,0.0,0.0,0.0,0.0
719200,0.001348,0.002805,0.003905,0.0,0.0,0.0,0.0,0.0,0.0,3.0,0.294655,0.353281,0.283254,0.361017,-0.0,-5.3e-05,4e-06,0.0,2e-05,-1e-06,0.0,0.0,0.0,0.0,0.0,0.0
719220,0.00147,0.002805,0.003905,0.0,0.0,0.0,0.0,0.0,0.0,3.0,0.296747,0.354666,0.282206,0.358813,-0.0,-5.2e-05,4e-06,0.0,1.9e-05,-1e-06,0.0,0.0,0.0,0.0,0.0,0.0
719240,0.001348,0.002927,0.003783,0.0,0.0,0.0,0.0,0.0,0.0,3.0,0.294202,0.357147,0.278967,0.360617,-0.0,-5.2e-05,4e-06,0.0,1.9e-05,-1e-06,0.0,0.0,0.0,0.0,0.0,0.0
719260,0.00147,0.002805,0.003783,0.0,0.0,0.0,0.0,0.0,0.0,3.0,0.297405,0.356038,0.281491,0.35746,-0.0,-5.1e-05,4e-06,0.0,1.9e-05,-1e-06,0.0,0.0,0.0,0.0,0.0,0.0
719280,0.001592,0.002805,0.003783,0.0,0.0,0.0,0.0,0.0,0.0,3.0,0.296763,0.356292,0.281642,0.357596,-0.0,-5.1e-05,4e-06,0.0,1.9e-05,-1e-06,0.0,0.0,0.0,0.0,0.0,0.0
719300,0.00147,0.002927,0.003661,0.0,0.0,0.0,0.0,0.0,0.0,3.0,0.297392,0.355235,0.28089,0.358696,-0.0,-5.1e-05,4e-06,0.0,1.9e-05,-1e-06,0.0,0.0,0.0,0.0,0.0,0.0
719320,0.001592,0.002805,0.003661,0.0,0.0,0.0,0.0,0.0,0.0,3.0,0.29942,0.355819,0.283287,0.354787,-0.0,-5e-05,4e-06,0.0,1.9e-05,-1e-06,0.0,0.0,0.0,0.0,0.0,0.0
719340,0.001471,0.003049,0.003661,0.0,0.0,0.0,0.0,0.0,0.0,3.0,0.297694,0.355192,0.281152,0.358316,-0.0,-5e-05,4e-06,0.0,1.9e-05,-1e-06,0.0,0.0,0.0,0.0,0.0,0.0
719360,0.001714,0.002927,0.003538,0.0,0.0,0.0,0.0,0.0,0.0,3.0,0.300132,0.353735,0.285385,0.354756,-0.0,-5e-05,3e-06,0.0,1.8e-05,-1e-06,0.0,0.0,0.0,0.0,0.0,0.0
719380,0.001837,0.003415,0.003415,0.0,0.0,0.0,0.0,0.0,0.0,3.0,0.297472,0.355276,0.281882,0.357881,-0.0,-4.9e-05,3e-06,0.0,1.8e-05,-1e-06,0.0,0.0,0.0,0.0,0.0,0.0
719400,0.001837,0.003415,0.003415,0.0,0.0,0.0,0.0,0.0,0.0,3.0,0.296038,0.355992,0.280437,0.359317,-0.0,-4.9e-05,3e-06,0.0,1.8e-05,-1e-06,0.0,0.0,0.0,0.0,0.0,0.0
719420,0.00196,0.003781,0.003415,0.0,0.0,0.0,0.0,0.0,0.0,3.0,0.297838,0.354127,0.282088,0.358583,-0.0,-4.8e-05,3e-06,0.0,1.8e-05,-1e-06,0.0,0.0,0.0,0.0,0.0,0.0
719440,0.00196,0.003903,0.003293,0.0,0.0,0.0,0.0,0.0,0.0,3.0,0.300094,0.352196,0.28611,0.355774,-0.0,-4.8e-05,3e-06,0.0,1.8e-05,-1e-06,0.0,0.0,0.0,0.0,0.0,0.0
719460,0.00196,0.003903,0.003293,0.0,0.0,0.0,0.0,0.0,0.0,3.0,0.300481,0.353025,0.282662,0.357181,-0.0,-4.8e-05,3e-06,0.0,1.8e-05,-1e-06,0.0,0.0,0.0,0.0,0.0,0.0
719480,0.001838,0.00427,0.003293,0.0,0.0,0.0,0.0,0.0,0.0,3.0,0.297694,0.353351,0.282093,0.359452,-0.0,-4.7e-05,3e-06,0.0,1.8e-05,-1e-06,0.0,0.0,0.0,0.0,0.0,0.0
719500,0.001838,0.00427,0.003293,0.0,0.0,0.0,0.0,0.0,0.0,3.0,0.297085,0.354803,0.282484,0.358215,-0.0,-4.7e-05,3e-06,0.0,1.8e-05,-1e-06,0.0,0.0,0.0,0.0,0.0,0.0
719520,0.001838,0.004392,0.00317,0.0,0.0,0.0,0.0,0.0,0.0,3.0,0.30035,0.350613,0.286059,0.357163,-0.0,-4.7e-05,3e-06,0.0,1.7e-05,-1e-06,0.0,0.0,0.0,0.0,0.0,0.0
719540,0.001838,0.004392,0.00317,0.0,0.0,0.0,0.0,0.0,0.0,3.0,0.2993,0.352619,0.284214,0.35738,-0.0,-4.6e-05,3e-06,0.0,1.7e-05,-1e-06,0.0,0.0,0.0,0.0,0.0,0.0
719560,0.001716,0.004514,0.003171,0.0,0.0,0.0,0.0,0.0,0.0,3.0,0.297783,0.352796,0.282261,0.359804,-0.0,-4.6e-05,3e-06,0.0,1.7e-05,-1e-06,0.0,0.0,0.0,0.0,0.0,0.0
719580,0.001717,0.004758,0.00317,0.0,0.0,0.0,0.0,0.0,0.0,3.0,0.297871,0.353369,0.2819,0.359436,-0.0,-4.6e-05,3e-06,0.0,1.7e-05,-1e-06,0.0,0.0,0.0,0.0,0.0,0.0
719600,0.001472,0.004637,0.003171,0.0,0.0,0.0,0.0,0.0,0.0,3.0,0.297443,0.353356,0.282318,0.359479,-0.0,-4.5e-05,3e-06,0.0,1.7e-05,-1e-06,0.0,0.0,0.0,0.0,0.0,0.0
719620,0.001472,0.004637,0.003171,0.0,0.0,0.0,0.0,0.0,0.0,3.0,0.297101,0.355714,0.280521,0.358712,-0.0,-4.5e-05,3e-06,0.0,1.7e-05,-1e-06,0.0,0.0,0.0,0.0,0.0,0.0
719640,0.00135,0.004515,0.003171,0.0,0.0,0.0,0.0,0.0,0.0,3.0,0.29691,0.354347,0.281451,0.359542,-0.0,-4.5e-05,3e-06,0.0,1.7e-05,-1e-06,0.0,0.0,0.0,0.0,0.0,0.0
719660,0.001472,0.004515,0.003171,0.0,0.0,0.0,0.0,0.0,0.0,3.0,0.296227,0.355483,0.280489,0.359637,-0.0,-4.4e-05,3e-06,0.0,1.7e-05,-1e-06,0.0,0.0,0.0,0.0,0.0,0.0
719680,0.001594,0.004148,0.003293,0.0,0.0,0.0,0.0,0.0,0.0,3.0,0.294333,0.356815,0.280686,0.359631,-0.0,-4.4e-05,3e-06,0.0,1.6e-05,-1e-06,0.0,0.0,0.0,0.0,0.0,0.0
719700,0.001471,0.004026,0.003171,0.0,0.0,0.0,0.0,0.0,0.0,3.0,0.297357,0.355791,0.281531,0.357713,-0.0,-4.4e-05,3e-06,0.0,1.6e-05,-1e-06,0.0,0.0,0.0,0.0,0.0,0.0
719720,0.001471,0.003904,0.003294,0.0,0.0,0.0,0.0,0.0,0.0,3.0,0.296853,0.355762,0.28145,0.358191,-0.0,-4.3e-05,3e-06,0.0,1.6e-05,-1e-06,0.0,0.0,0.0,0.0,0.0,0.0
719740,0.001471,0.003782,0.003294,0.0,0.0,0.0,0.0,0.0,0.0,3.0,0.297198,0.354803,0.281859,0.358578,-0.0,-4.3e-05,3e-06,0.0,1.6e-05,-1e-06,0.0,0.0,0.0,0.0,0.0,0.0
719760,0.001471,0.003782,0.003294,0.0,0.0,0.0,0.0,0.0,0.0,3.0,0.298091,0.355132,0.280894,0.358252,-0.0,-4.3e-05,3e-06,0.0,1.6e-05,-1e-06,0.0,0.0,0.0,0.0,0.0,0.0
719780,0.001471,0.003782,0.003172,0.0,0.0,0.0,0.0,0.0,0.0,3.0,0.301022,0.352902,0.284851,0.35527,-0.0,-4.2e-05,3e-06,0.0,1.6e-05,-1e-06,0.0,0.0,0.0,0.0,0.0,0.0
719800,0.001471,0.003782,0.003172,0.0,0.0,0.0,0.0,0.0,0.0,3.0,0.298739,0.353419,0.284355,0.356931,-0.0,-4.2e-05,3e-06,0.0,1.6e-05,-1e-06,0.0,0.0,0.0,0.0,0.0,0.0
719820,0.001715,0.003904,0.003171,0.0,0.0,0.0,0.0,0.0,0.0,3.0,0.296805,0.355298,0.28284,0.357685,-0.0,-4.2e-05,3e-06,0.0,1.6e-05,-1e-06,0.0,0.0,0.0,0.0,0.0,0.0
719840,0.001593,0.003782,0.003049,0.0,0.0,0.0,0.0,0.0,0.0,3.0,0.301212,0.353229,0.284952,0.354718,-0.0,-4.1e-05,3e-06,0.0,1.5e-05,-1e-06,0.0,0.0,0.0,0.0,0.0,0.0
719860,0.001715,0.00366,0.003049,0.0,0.0,0.0,0.0,0.0,0.0,3.0,0.300004,0.353897,0.28496,0.355012,-0.0,-4.1e-05,3e-06,0.0,1.5e-05,-1e-06,0.0,0.0,0.0,0.0,0.0,0.0
719880,0.001715,0.003782,0.003049,0.0,0.0,0.0,0.0,0.0,0.0,3.0,0.29736,0.35466,0.282651,0.358023,-0.0,-4.1e-05,3e-06,0.0,1.5e-05,-1e-06,0.0,0.0,0.0,0.0,0.0,0.0
719900,0.001837,0.003782,0.002927,0.0,0.0,0.0,0.0,0.0,0.0,3.0,0.299246,0.352921,0.285722,0.356017,-0.0,-4e-05,3e-06,0.0,1.5e-05,-1e-06,0.0,0.0,0.0,0.0,0.0,0.0
719920,0.001837,0.003782,0.002927,0.0,0.0,0.0,0.0,0.0,0.0,3.0,0.297534,0.355399,0.282773,0.357067,-0.0,-4e-05,3e-06,0.0,1.5e-05,-1e-06,0.0,0.0,0.0,0.0,0.0,0.0
719940,0.001837,0.003782,0.002927,0.0,0.0,0.0,0.0,0.0,0.0,3.0,0.297135,0.354306,0.28288,0.35838,-0.0,-4e-05,3e-06,0.0,1.5e-05,-1e-06,0.0,0.0,0.0,0.0,0.0,0.0
719960,0.001959,0.003904,0.002804,0.0,0.0,0.0,0.0,0.0,0.0,3.0,0.300411,0.35166,0.286424,0.355818,-0.0,-4e-05,3e-06,0.0,1.5e-05,-1e-06,0.0,0.0,0.0,0.0,0.0,0.0
719980,0.001959,0.004026,0.002804,0.0,0.0,0.0,0.0,0.0,0.0,3.0,0.297598,0.353519,0.28313,0.358615,-0.0,-3.9e-05,3e-06,0.0,1.5e-05,-1e-06,0.0,0.0,0.0,0.0,0.0,0.0
720000,0.001959,0.004026,0.002804,0.0,0.0,0.0,0.0,0.0,0.0,3.0,0.30011,0.351653,0.287111,0.355552,-0.0,-3.9e-05,3e-06,0.0,1.5e-05,-1e-06,0.0,0.0,0.0,0.0,0.0,0.0
720020,0.002081,0.004148,0.002682,0.0,0.0,0.0,0.0,0.0,0.0,3.0,0.299718,0.351643,0.287063,0.355909,-0.0,-3.9e-05,3e-06,0.0,1.4e-05,-1e-06,0.0,0.0,0.0,0.0,0.0,0.0
720040,0.002203,0.004148,0.002681,0.0,0.0,0.0,0.0,0.0,0.0,3.0,0.298576,0.352863,0.285728,0.356599,-0.0,-3.8e-05,3e-06,0.0,1.4e-05,-1e-06,0.0,0.0,0.0,0.0,0.0,0.0
720060,0.002326,0.004514,0.002681,0.0,0.0,0.0,0.0,0.0,0.0,3.0,0.29713,0.353102,0.283738,0.358946,-0.0,-3.8e-05,3e-06,0.0,1.4e-05,-1e-06,0.0,0.0,0.0,0.0,0.0,0.0
720080,0.002326,0.004636,0.002681,0.0,0.0,0.0,0.0,0.0,0.0,3.0,0.297901,0.352002,0.286425,0.357458,-0.0,-3.8e-05,3e-06,0.0,1.4e-05,-1e-06,0.0,0.0,0.0,0.0,0.0,0.0
720100,0.002326,0.004758,0.002558,0.0,0.0,0.0,0.0,0.0,0.0,3.0,0.298829,0.351942,0.284755,0.358018,-0.0,-3.8e-05,3e-06,0.0,1.4e-05,-1e-06,0.0,0.0,0.0,0.0,0.0,0.0
720120,0.002326,0.00488,0.002558,0.0,0.0,0.0,0.0,0.0,0.0,3.0,0.29902,0.351282,0.286992,0.356867,-0.0,-3.7e-05,3e-06,0.0,1.4e-05,-1e-06,0.0,0.0,0.0,0.0,0.0,0.0
720140,0.002204,0.005002,0.002558,0.0,0.0,0.0,0.0,0.0,0.0,3.0,0.298919,0.351825,0.285554,0.357477,-0.0,-3.7e-05,3e-06,0.0,1.4e-05,-1e-06,0.0,0.0,0.0,0.0,0.0,0.0
720160,0.002326,0.005124,0.00268,0.0,0.0,0.0,0.0,0.0,0.0,3.0,0.296641,0.3524,0.284527,0.359437,-0.0,-3.7e-05,3e-06,0.0,1.4e-05,-1e-06,0.0,0.0,0.0,0.0,0.0,0.0
720180,0.002204,0.005124,0.002558,0.0,0.0,0.0,0.0,0.0,0.0,3.0,0.297528,0.35167,0.285852,0.358495,-0.0,-3.6e-05,3e-06,0.0,1.4e-05,-1e-06,0.0,0.0,0.0,0.0,0.0,0.0
720200,0.002326,0.005246,0.002558,0.0,0.0,0.0,0.0,0.0,0.0,3.0,0.29731,0.352222,0.28536,0.358486,-0.0,-3.6e-05,3e-06,0.0,1.4e-05,-1e-06,0.0,0.0,0.0,0.0,0.0,0.0
720220,0.002204,0.005247,0.002558,0.0,0.0,0.0,0.0,0.0,0.0,3.0,0.29663,0.352175,0.28434,0.3598,-0.0,-3.6e-05,3e-06,0.0,1.3e-05,-1e-06,0.0,0.0,0.0,0.0,0.0,0.0
720240,0.002326,0.005368,0.002558,0.0,0.0,0.0,0.0,0.0,0.0,3.0,0.295815,0.352504,0.285077,0.35957,-0.0,-3.6e-05,3e-06,0.0,1.3e-05,-1e-06,0.0,0.0,0.0,0.0,0.0,0.0
720260,0.002326,0.005246,0.002558,0.0,0.0,0.0,0.0,0.0,0.0,3.0,0.298069,0.351459,0.286382,0.35789,-0.0,-3.5e-05,3e-06,0.0,1.3e-05,-1e-06,0.0,0.0,0.0,0.0,0.0,0.0
720280,0.002326,0.005246,0.002436,0.0,0.0,0.0,0.0,0.0,0.0,3.0,0.29854,0.350348,0.288556,0.356993,-0.0,-3.5e-05,3e-06,0.0,1.3e-05,-1e-06,0.0,0.0,0.0,0.0,0.0,0.0
720300,0.002326,0.005124,0.002436,0.0,0.0,0.0,0.0,0.0,0.0,3.0,0.297235,0.352536,0.284243,0.359052,-0.0,-3.5e-05,3e-06,0.0,1.3e-05,-1e-06,0.0,0.0,0.0,0.0,0.0,0.0
720320,0.002204,0.005002,0.002558,0.0,0.0,0.0,0.0,0.087266,0.0,3.0,0.295552,0.504125,0.285662,0.15,-0.0,0.000958,-4.8e-05,1.6e-05,0.315736,-0.01465,0.0,0.0,0.0,0.0,0.0,0.0
720340,0.00257,0.005002,0.002435,0.0,0.0,0.0,0.0,0.087266,0.0,3.0,0.300223,0.392805,0.290177,0.304658,0.0,0.009046,-0.000361,0.000218,0.485261,-0.015586,0.0,0.0,0.0,0.0,0.0,0.0
720360,0.002574,0.006222,0.003411,0.0,0.0,0.0,0.0,0.087266,0.0,3.0,0.282414,0.394898,0.270317,0.334097,3e-06,0.01892,-0.000665,0.000447,0.499323,-0.014517,0.0,0.0,0.0,0.0,0.0,0.0
720380,0.002092,0.009396,0.003653,0.0,0.0,0.0,0.0,0.087266,0.0,3.0,0.291507,0.380912,0.274772,0.340322,7e-06,0.028881,-0.000947,0.000644,0.494499,-0.013382,0.0,0.0,0.0,0.0,0.0,0.0
720400,0.002222,0.014035,0.003525,0.0,0.0,0.0,0.0,0.087266,0.0,3.0,0.294717,0.37392,0.283521,0.339069,1.3e-05,0.038705,-0.001206,0.000805,0.484947,-0.012215,0.0,0.0,0.0,0.0,0.0,0.0
720420,0.002596,0.020382,0.003148,0.0,0.0,0.0,0.0,0.087266,0.0,3.0,0.298136,0.359702,0.289474,0.347157,2e-05,0.048314,-0.001441,0.000928,0.472398,-0.011026,0.0,0.0,0.0,0.0,0.0,0.0
720440,0.002356,0.028685,0.002531,0.0,0.0,0.0,0.0,0.087266,0.0,3.0,0.304481,0.347239,0.290003,0.354182,2.8e-05,0.057653,-0.001653,0.001015,0.457471,-0.009825,0.0,0.0,0.0,0.0,0.0,0.0
720460,0.00199,0.038333,0.001917,0.0,0.0,0.0,0.0,0.087266,0.0,3.0,0.306352,0.337836,0.2919,0.360131,3.7e-05,0.066679,-0.00184,0.001067,0.440637,-0.008621,0.0,0.0,0.0,0.0,0.0,0.0
720480,0.002107,0.04871,0.001293,0.0,0.0,0.0,0.0,0.087266,0.0,3.0,0.30606,0.329856,0.292291,0.367195,4.7e-05,0.075356,-0.002004,0.001085,0.422309,-0.007423,0.0,0.0,0.0,0.0,0.0,0.0
720500,0.0021,0.059581,0.000794,0.0,0.0,0.0,0.0,0.087266,0.0,3.0,0.305309,0.322197,0.292223,0.37428,5.8e-05,0.083658,-0.002143,0.001072,0.402854,-0.006239,0.0,0.0,0.0,0.0,0.0,0.0
720520,0.001847,0.07094,0.000424,0.0,0.0,0.0,0.0,0.087266,0.0,3.0,0.309634,0.312356,0.293966,0.377581,6.9e-05,0.091564,-0.002259,0.00103,0.382593,-0.005076,0.0,0.0,0.0,0.0,0.0,0.0
720540,0.001586,0.082665,-6.6e-05,0.0,0.0,0.0,0.0,0.087266,0.0,3.0,0.311944,0.303037,0.294685,0.382335,8.1e-05,0.099061,-0.002352,0.000963,0.361809,-0.003942,0.0,0.0,0.0,0.0,0.0,0.0
720560,0.001562,0.094522,-0.000565,0.0,0.0,0.0,0.0,0.087266,0.0,3.0,0.30831,0.299379,0.2938,0.388303,9.2e-05,0.106139,-0.002423,0.000873,0.340747,-0.002842,0.0,0.0,0.0,0.0,0.0,0.0
720580,0.001539,0.105885,-0.000943,0.0,0.0,0.0,0.0,0.087266,0.0,3.0,0.311689,0.290364,0.296879,0.389891,0.000104,0.112796,-0.002471,0.000763,0.319623,-0.001782,0.0,0.0,0.0,0.0,0.0,0.0
720600,0.001391,0.116896,-0.001313,0.0,0.0,0.0,0.0,0.087266,0.0,3.0,0.308559,0.290142,0.292341,0.395414,0.000115,0.11903,-0.002498,0.000637,0.298618,-0.000768,0.0,0.0,0.0,0.0,0.0,0.0
720620,0.001369,0.127291,-0.001568,0.0,0.0,0.0,0.0,0.087266,0.0,3.0,0.309115,0.285577,0.293231,0.397392,0.000126,0.124847,-0.002506,0.000497,0.27789,0.000195,0.0,0.0,0.0,0.0,0.0,0.0
720640,0.001466,0.136954,-0.001831,0.0,0.0,0.0,0.0,0.087266,0.0,3.0,0.303213,0.286294,0.293995,0.400579,0.000136,0.130251,-0.002494,0.000346,0.257571,0.001104,0.0,0.0,0.0,0.0,0.0,0.0
720660,0.001684,0.145887,-0.002104,0.0,0.0,0.0,0.0,0.087266,0.0,3.0,0.305761,0.281065,0.296079,0.400711,0.000146,0.135253,-0.002465,0.000189,0.237769,0.001955,0.0,0.0,0.0,0.0,0.0,0.0
720680,0.001891,0.15348,-0.002501,0.0,0.0,0.0,0.0,0.087266,0.0,3.0,0.305828,0.282074,0.296354,0.399852,0.000154,0.139864,-0.002419,2.6e-05,0.218577,0.002745,0.0,0.0,0.0,0.0,0.0,0.0
720700,0.002238,0.160213,-0.002663,0.0,0.0,0.0,0.0,0.087266,0.0,3.0,0.306852,0.281564,0.298823,0.397779,0.000162,0.144095,-0.002357,-0.000138,0.200065,0.003472,0.0,0.0,0.0,0.0,0.0,0.0
720720,0.003072,0.16585,-0.002867,0.0,0.0,0.0,0.0,0.087266,0.0,3.0,0.303731,0.287067,0.297565,0.39733,0.00017,0.147962,-0.002281,-0.000302,0.18229,0.004135,0.0,0.0,0.0,0.0,0.0,0.0
720740,0.003664,0.170139,-0.003052,0.0,0.0,0.0,0.0,0.087266,0.0,3.0,0.307669,0.285543,0.299983,0.393859,0.000175,0.151479,-0.002192,-0.000463,0.165295,0.004732,0.0,0.0,0.0,0.0,0.0,0.0
720760,0.004246,0.173688,-0.003361,0.0,0.0,0.0,0.0,0.087266,0.0,3.0,0.305333,0.288129,0.299832,0.39395,0.00018,0.154662,-0.002091,-0.00062,0.14911,0.005263,0.0,0.0,0.0,0.0,0.0,0.0
720780,0.00484,0.175778,-0.003545,0.0,0.0,0.0,0.0,0.087266,0.0,3.0,0.306526,0.29066,0.301204,0.39045,0.000184,0.157528,-0.001981,-0.00077,0.133755,0.005727,0.0,0.0,0.0,0.0,0.0,0.0
720800,0.005567,0.177005,-0.003615,0.0,0.0,0.0,0.0,0.087266,0.0,3.0,0.301279,0.29783,0.301854,0.388836,0.000186,0.160093,-0.001861,-0.000912,0.119239,0.006125,0.0,0.0,0.0,0.0,0.0,0.0
720820,0.00591,0.177128,-0.003895,0.0,0.0,0.0,0.0,0.087266,0.0,3.0,0.303433,0.301526,0.300228,0.385829,0.000187,0.162374,-0.001734,-0.001044,0.105563,0.006458,0.0,0.0,0.0,0.0,0.0,0.0
720840,0.006265,0.176764,-0.00405,0.0,0.0,0.0,0.0,0.087266,0.0,3.0,0.308051,0.3032,0.300728,0.380836,0.000187,0.164388,-0.001601,-0.001166,0.092723,0.006727,0.0,0.0,0.0,0.0,0.0,0.0
720860,0.006378,0.175659,-0.00418,0.0,0.0,0.0,0.0,0.087266,0.0,3.0,0.307897,0.305785,0.300866,0.37893,0.000186,0.166151,-0.001462,-0.001276,0.080707,0.006933,0.0,0.0,0.0,0.0,0.0,0.0
720880,0.006359,0.174555,-0.004423,0.0,0.0,0.0,0.0,0.087266,0.0,3.0,0.310727,0.305569,0.299023,0.378279,0.000183,0.167679,-0.00132,-0.001374,0.069497,0.007079,0.0,0.0,0.0,0.0,0.0,0.0
720900,0.006098,0.172964,-0.004642,0.0,0.0,0.0,0.0,0.087266,0.0,3.0,0.310546,0.306385,0.302574,0.375178,0.000179,0.16899,-0.001175,-0.001459,0.059074,0.007168,0.0,0.0,0.0,0.0,0.0,0.0
720920,0.005837,0.171494,-0.004862,0.0,0.0,0.0,0.0,0.087266,0.0,3.0,0.311034,0.307332,0.300819,0.375385,0.000174,0.170098,-0.00103,-0.001531,0.049412,0.0072,0.0,0.0,0.0,0.0,0.0,0.0
720940,0.005445,0.169903,-0.005195,0.0,0.0,0.0,0.0,0.087266,0.0,3.0,0.310391,0.306969,0.302873,0.374629,0.000168,0.171018,-0.000883,-0.00159,0.040484,0.00718,0.0,0.0,0.0,0.0,0.0,0.0
720960,0.005305,0.168798,-0.005427,0.0,0.0,0.0,0.0,0.087266,0.0,3.0,0.309925,0.30778,0.297433,0.378381,0.00016,0.171765,-0.000738,-0.001635,0.032262,0.00711,0.0,0.0,0.0,0.0,0.0,0.0
720980,0.004669,0.167693,-0.005741,0.0,0.0,0.0,0.0,0.087266,0.0,3.0,0.311454,0.307184,0.300041,0.375748,0.000152,0.172352,-0.000594,-0.001667,0.024713,0.006994,0.0,0.0,0.0,0.0,0.0,0.0
721000,0.004642,0.166842,-0.006109,0.0,0.0,0.0,0.0,0.087266,0.0,3.0,0.31462,0.304537,0.302657,0.373321,0.000143,0.172794,-0.000453,-0.001686,0.017806,0.006835,0.0,0.0,0.0,0.0,0.0,0.0
721020,0.004492,0.166102,-0.006465,0.0,0.0,0.0,0.0,0.087266,0.0,3.0,0.316083,0.304629,0.302035,0.372549,0.000133,0.173102,-0.000316,-0.001693,0.011508,0.006637,0.0,0.0,0.0,0.0,0.0,0.0
721040,0.004352,0.165494,-0.0067,0.0,0.0,0.0,0.0,0.087266,0.0,3.0,0.312444,0.306287,0.301207,0.374793,0.000122,0.173288,-0.000183,-0.001687,0.005786,0.006402,0.0,0.0,0.0,0.0,0.0,0.0
721060,0.004444,0.165374,-0.00708,0.0,0.0,0.0,0.0,0.087266,0.0,3.0,0.313913,0.300224,0.30191,0.37766,0.00011,0.173364,-5.5e-05,-0.00167,0.000605,0.006135,0.0,0.0,0.0,0.0,0.0,0.0
721080,0.004301,0.165496,-0.007317,0.0,0.0,0.0,0.0,0.087266,0.0,3.0,0.314077,0.298826,0.305321,0.376006,9.8e-05,0.17334,6.7e-05,-0.001642,-0.004066,0.00584,0.0,0.0,0.0,0.0,0.0,0.0
721100,0.004404,0.165253,-0.007573,0.0,0.0,0.0,0.0,0.087266,0.0,3.0,0.315579,0.297031,0.307003,0.374853,8.6e-05,0.173227,0.000184,-0.001604,-0.00826,0.005519,0.0,0.0,0.0,0.0,0.0,0.0
721120,0.004393,0.165375,-0.007697,0.0,0.0,0.0,0.0,0.087266,0.0,3.0,0.313578,0.297631,0.307127,0.375901,7.3e-05,0.173033,0.000293,-0.001556,-0.01201,0.005178,0.0,0.0,0.0,0.0,0.0,0.0
721140,0.004373,0.165497,-0.007944,0.0,0.0,0.0,0.0,0.087266,0.0,3.0,0.311758,0.299899,0.304451,0.377682,6e-05,0.172767,0.000395,-0.0015,-0.015346,0.004818,0.0,0.0,0.0,0.0,0.0,0.0
721160,0.004484,0.165498,-0.008078,0.0,0.0,0.0,0.0,0.087266,0.0,3.0,0.312483,0.300982,0.30238,0.377868,4.6e-05,0.172437,0.00049,-0.001436,-0.018298,0.004444,0.0,0.0,0.0,0.0,0.0,0.0
721180,0.004352,0.165498,-0.008191,0.0,0.0,0.0,0.0,0.087266,0.0,3.0,0.309724,0.301504,0.303452,0.378813,3.3e-05,0.172051,0.000578,-0.001365,-0.020895,0.00406,0.0,0.0,0.0,0.0,0.0,0.0
721200,0.004464,0.165377,-0.008324,0.0,0.0,0.0,0.0,0.087266,0.0,3.0,0.316837,0.297341,0.304432,0.375578,2e-05,0.171616,0.000657,-0.001288,-0.023166,0.003668,0.0,0.0,0.0,0.0,0.0,0.0
721220,0.004212,0.165133,-0.008426,0.0,0.0,0.0,0.0,0.087266,0.0,3.0,0.314712,0.299773,0.30381,0.375948,7e-06,0.171137,0.000729,-0.001206,-0.025135,0.003271,0.0,0.0,0.0,0.0,0.0,0.0
721240,0.004335,0.16488,-0.008434,0.0,0.0,0.0,0.0,0.087266,0.0,3.0,0.312275,0.303797,0.302573,0.375791,-6e-06,0.170622,0.000792,-0.00112,-0.02683,0.002873,0.0,0.0,0.0,0.0,0.0,0.0
721260,0.004213,0.164758,-0.008424,0.0,0.0,0.0,0.0,0.087266,0.0,3.0,0.315379,0.299615,0.303764,0.375572,-1.8e-05,0.170074,0.000847,-0.001031,-0.028272,0.002477,0.0,0.0,0.0,0.0,0.0,0.0
721280,0.004214,0.164636,-0.008424,0.0,0.0,0.0,0.0,0.087266,0.0,3.0,0.312721,0.301028,0.303658,0.376697,-3e-05,0.169499,0.000894,-0.000938,-0.029486,0.002085,0.0,0.0,0.0,0.0,0.0,0.0
721300,0.004326,0.164637,-0.008557,0.0,0.0,0.0,0.0,0.087266,0.0,3.0,0.315323,0.297599,0.303649,0.377179,-4.1e-05,0.168901,0.000934,-0.000844,-0.030493,0.001699,0.0,0.0,0.0,0.0,0.0,0.0
721320,0.004083,0.164514,-0.008536,0.0,0.0,0.0,0.0,0.087266,0.0,3.0,0.313202,0.299434,0.30351,0.377605,-5.2e-05,0.168285,0.000965,-0.000749,-0.031311,0.001323,0.0,0.0,0.0,0.0,0.0,0.0
721340,0.004084,0.164149,-0.008536,0.0,0.0,0.0,0.0,0.087266,0.0,3.0,0.313528,0.300474,0.302803,0.377114,-6.3e-05,0.167654,0.00099,-0.000654,-0.031961,0.000958,0.0,0.0,0.0,0.0,0.0,0.0
721360,0.003963,0.164027,-0.008525,0.0,0.0,0.0,0.0,0.087266,0.0,3.0,0.312459,0.299639,0.30471,0.377135,-7.2e-05,0.167011,0.001006,-0.000559,-0.032459,0.000606,0.0,0.0,0.0,0.0,0.0,0.0
721380,0.00372,0.164026,-0.008505,0.0,0.0,0.0,0.0,0.087266,0.0,3.0,0.31267,0.299561,0.304461,0.377215,-8.1e-05,0.166359,0.001016,-0.000465,-0.032821,0.000269,0.0,0.0,0.0,0.0,0.0,0.0
721400,0.003722,0.163661,-0.008504,0.0,0.0,0.0,0.0,0.087266,0.0,3.0,0.313296,0.299506,0.303512,0.377478,-8.9e-05,0.1657,0.001019,-0.000373,-0.033063,-5.2e-05,0.0,0.0,0.0,0.0,0.0,0.0
721420,0.0036,0.163529,-0.008492,0.0,0.0,0.0,0.0,0.087266,0.0,3.0,0.313126,0.299531,0.303795,0.37738,-9.6e-05,0.165038,0.001016,-0.000283,-0.033199,-0.000354,0.0,0.0,0.0,0.0,0.0,0.0
721440,0.003358,0.163285,-0.008471,0.0,0.0,0.0,0.0,0.087266,0.0,3.0,0.314741,0.299676,0.301249,0.377902,-0.000103,0.164373,0.001007,-0.000196,-0.03324,-0.000638,0.0,0.0,0.0,0.0,0.0,0.0
721460,0.003481,0.163042,-0.008481,0.0,0.0,0.0,0.0,0.087266,0.0,3.0,0.313879,0.300884,0.302809,0.376532,-0.000109,0.163709,0.000992,-0.000112,-0.0332,-0.000902,0.0,0.0,0.0,0.0,0.0,0.0
721480,0.003481,0.16292,-0.008481,0.0,0.0,0.0,0.0,0.087266,0.0,3.0,0.313752,0.301624,0.303116,0.375854,-0.000114,0.163045,0.000972,-3.2e-05,-0.033088,-0.001145,0.0,0.0,0.0,0.0,0.0,0.0
721500,0.003361,0.162676,-0.00847,0.0,0.0,0.0,0.0,0.087266,0.0,3.0,0.314021,0.301365,0.30277,0.376093,-0.000118,0.162385,0.000947,4.4e-05,-0.032914,-0.001367,0.0,0.0,0.0,0.0,0.0,0.0
721520,0.003361,0.162555,-0.00847,0.0,0.0,0.0,0.0,0.087266,0.0,3.0,0.31451,0.300772,0.302057,0.376679,-0.000121,0.161728,0.000917,0.000116,-0.032687,-0.001568,0.0,0.0,0.0,0.0,0.0,0.0
721540,0.003362,0.162311,-0.008469,0.0,0.0,0.0,0.0,0.087266,0.0,3.0,0.31445,0.29778,0.304814,0.37686,-0.000123,0.161076,0.000884,0.000183,-0.032416,-0.001746,0.0,0.0,0.0,0.0,0.0,0.0
721560,0.00311,0.162057,-0.008571,0.0,0.0,0.0,0.0,0.087266,0.0,3.0,0.315516,0.299484,0.302149,0.376768,-0.000125,0.16043,0.000848,0.000245,-0.032108,-0.001903,0.0,0.0,0.0,0.0,0.0,0.0
721580,0.00298,0.161692,-0.008683,0.0,0.0,0.0,0.0,0.087266,0.0,3.0,0.313633,0.300498,0.304406,0.375814,-0.000126,0.159791,0.000808,0.000303,-0.031768,-0.002038,0.0,0.0,0.0,0.0,0.0,0.0
721600,0.003112,0.161449,-0.008569,0.0,0.0,0.0,0.0,0.087266,0.0,3.0,0.313382,0.299266,0.303885,0.377308,-0.000126,0.159158,0.000766,0.000355,-0.031404,-0.002151,0.0,0.0,0.0,0.0,0.0,0.0
721620,0.002861,0.160961,-0.008672,0.0,0.0,0.0,0.0,0.087266,0.0,3.0,0.312522,0.29986,0.304345,0.377198,-0.000126,0.158533,0.000722,0.000402,-0.03102,-0.002244,0.0,0.0,0.0,0.0,0.0,0.0
721640,0.002985,0.160587,-0.008679,0.0,0.0,0.0,0.0,0.087266,0.0,3.0,0.314448,0.299781,0.304654,0.375514,-0.000125,0.157915,0.000676,0.000444,-0.030621,-0.002315,0.0,0.0,0.0,0.0,0.0,0.0
721660,0.002742,0.160343,-0.008659,0.0,0.0,0.0,0.0,0.087266,0.0,3.0,0.31485,0.29879,0.303265,0.376969,-0.000123,0.157306,0.000629,0.00048,-0.030211,-0.002367,0.0,0.0,0.0,0.0,0.0,0.0
721680,0.002743,0.160099,-0.008659,0.0,0.0,0.0,0.0,0.087266,0.0,3.0,0.315431,0.300421,0.302327,0.376011,-0.000121,0.156705,0.000581,0.000512,-0.029794,-0.002399,0.0,0.0,0.0,0.0,0.0,0.0
721700,0.002745,0.159734,-0.008658,0.0,0.0,0.0,0.0,0.087266,0.0,3.0,0.315016,0.299699,0.303147,0.37626,-0.000118,0.156112,0.000532,0.000538,-0.029373,-0.002413,0.0,0.0,0.0,0.0,0.0,0.0
721720,0.002746,0.159491,-0.008658,0.0,0.0,0.0,0.0,0.087266,0.0,3.0,0.31482,0.300431,0.303572,0.375555,-0.000114,0.155528,0.000483,0.000559,-0.02895,-0.002409,0.0,0.0,0.0,0.0,0.0,0.0
721740,0.002869,0.159126,-0.008667,0.0,0.0,0.0,0.0,0.087266,0.0,3.0,0.315667,0.301111,0.302244,0.375375,-0.000111,0.154952,0.000435,0.000575,-0.028529,-0.002389,0.0,0.0,0.0,0.0,0.0,0.0
721760,0.002871,0.158752,-0.008665,0.0,0.0,0.0,0.0,0.087266,0.0,3.0,0.315301,0.301006,0.30294,0.375222,-0.000107,0.154385,0.000387,0.000586,-0.028111,-0.002354,0.0,0.0,0.0,0.0,0.0,0.0
721780,0.002994,0.158387,-0.008674,0.0,0.0,0.0,0.0,0.087266,0.0,3.0,0.314602,0.299456,0.304265,0.375927,-0.000102,0.153825,0.000339,0.000593,-0.027697,-0.002304,0.0,0.0,0.0,0.0,0.0,0.0
721800,0.002996,0.158022,-0.008673,0.0,0.0,0.0,0.0,0.087266,0.0,3.0,0.314793,0.29904,0.30406,0.376235,-9.7e-05,0.153275,0.000293,0.000596,-0.02729,-0.00224,0.0,0.0,0.0,0.0,0.0,0.0
721820,0.002877,0.157403,-0.008661,0.0,0.0,0.0,0.0,0.087266,0.0,3.0,0.313555,0.300281,0.306083,0.374764,-9.2e-05,0.152732,0.000249,0.000594,-0.026891,-0.002165,0.0,0.0,0.0,0.0,0.0,0.0
721840,0.002756,0.157038,-0.00865,0.0,0.0,0.0,0.0,0.087266,0.0,3.0,0.314791,0.299548,0.304257,0.375715,-8.7e-05,0.152197,0.000205,0.000589,-0.026499,-0.002079,0.0,0.0,0.0,0.0,0.0,0.0
721860,0.002636,0.156672,-0.00864,0.0,0.0,0.0,0.0,0.087266,0.0,3.0,0.314188,0.3006,0.303364,0.376084,-8.1e-05,0.15167,0.000164,0.00058,-0.026118,-0.001983,0.0,0.0,0.0,0.0,0.0,0.0
721880,0.002639,0.155933,-0.008637,0.0,0.0,0.0,0.0,0.087266,0.0,3.0,0.31317,0.302747,0.304992,0.374056,-7.6e-05,0.15115,0.000125,0.000568,-0.025746,-0.001879,0.0,0.0,0.0,0.0,0.0,0.0
721900,0.00252,0.155445,-0.008627,0.0,0.0,0.0,0.0,0.087266,0.0,3.0,0.315768,0.30171,0.302778,0.374447,-7e-05,0.150638,8.8e-05,0.000552,-0.025384,-0.001767,0.0,0.0,0.0,0.0,0.0,0.0
721920,0.002269,0.155079,-0.00873,0.0,0.0,0.0,0.0,0.087266,0.0,3.0,0.315923,0.300209,0.302786,0.375435,-6.4e-05,0.150133,5.3e-05,0.000534,-0.025033,-0.001649,0.0,0.0,0.0,0.0,0.0,0.0
721940,0.00228,0.154592,-0.008606,0.0,0.0,0.0,0.0,0.087266,0.0,3.0,0.315137,0.301145,0.303202,0.375052,-5.9e-05,0.149635,2e-05,0.000513,-0.024692,-0.001526,0.0,0.0,0.0,0.0,0.0,0.0
721960,0.002038,0.154339,-0.008585,0.0,0.0,0.0,0.0,0.087266,0.0,3.0,0.31599,0.301746,0.302712,0.374294,-5.3e-05,0.149144,-9e-06,0.00049,-0.024363,-0.0014,0.0,0.0,0.0,0.0,0.0,0.0
721980,0.002151,0.154096,-0.008718,0.0,0.0,0.0,0.0,0.087266,0.0,3.0,0.31754,0.299515,0.304864,0.373085,-4.7e-05,0.148659,-3.7e-05,0.000465,-0.024044,-0.001271,0.0,0.0,0.0,0.0,0.0,0.0
722000,0.002041,0.153608,-0.008584,0.0,0.0,0.0,0.0,0.087266,0.0,3.0,0.318827,0.299868,0.305054,0.371632,-4.2e-05,0.14818,-6.1e-05,0.000439,-0.023736,-0.00114,0.0,0.0,0.0,0.0,0.0,0.0
722020,0.00192,0.153486,-0.008575,0.0,0.0,0.0,0.0,0.087266,0.0,3.0,0.314743,0.300023,0.304675,0.375086,-3.7e-05,0.147708,-8.3e-05,0.000411,-0.023438,-0.001008,0.0,0.0,0.0,0.0,0.0,0.0
722040,0.002052,0.153243,-0.008461,0.0,0.0,0.0,0.0,0.087266,0.0,3.0,0.315761,0.298287,0.303693,0.376299,-3.2e-05,0.147241,-0.000103,0.000382,-0.023151,-0.000877,0.0,0.0,0.0,0.0,0.0,0.0
722060,0.001801,0.152877,-0.008564,0.0,0.0,0.0,0.0,0.087266,0.0,3.0,0.315429,0.299089,0.305356,0.374718,-2.7e-05,0.14678,-0.00012,0.000352,-0.022874,-0.000747,0.0,0.0,0.0,0.0,0.0,0.0
722080,0.001802,0.152503,-0.008562,0.0,0.0,0.0,0.0,0.087266,0.0,3.0,0.315199,0.300341,0.306829,0.372843,-2.2e-05,0.146325,-0.000134,0.000322,-0.022606,-0.000619,0.0,0.0,0.0,0.0,0.0,0.0
722100,0.001682,0.152137,-0.008553,0.0,0.0,0.0,0.0,0.087266,0.0,3.0,0.315132,0.299494,0.305184,0.374784,-1.7e-05,0.145875,-0.000145,0.000291,-0.022348,-0.000494,0.0,0.0,0.0,0.0,0.0,0.0
722120,0.001439,0.151892,-0.008534,0.0,0.0,0.0,0.0,0.087266,0.0,3.0,0.312184,0.304807,0.301537,0.375873,-1.3e-05,0.145429,-0.000154,0.00026,-0.022098,-0.000372,0.0,0.0,0.0,0.0,0.0,0.0
722140,0.001573,0.151406,-0.008419,0.0,0.0,0.0,0.0,0.087266,0.0,3.0,0.312976,0.304398,0.300842,0.376079,-9e-06,0.144989,-0.000161,0.000229,-0.021858,-0.000255,0.0,0.0,0.0,0.0,0.0,0.0
722160,0.001443,0.151153,-0.008531,0.0,0.0,0.0,0.0,0.087266,0.0,3.0,0.313043,0.302899,0.301884,0.376378,-5e-06,0.144554,-0.000165,0.000199,-0.021626,-0.000142,0.0,0.0,0.0,0.0,0.0,0.0
722180,0.001322,0.150909,-0.008522,0.0,0.0,0.0,0.0,0.087266,0.0,3.0,0.318405,0.300192,0.302621,0.373583,-2e-06,0.144123,-0.000167,0.000169,-0.021401,-3.5e-05,0.0,0.0,0.0,0.0,0.0,0.0
722200,0.001202,0.150543,-0.008512,0.0,0.0,0.0,0.0,0.087266,0.0,3.0,0.318788,0.299092,0.305625,0.371806,1e-06,0.143697,-0.000167,0.00014,-0.021184,6.7e-05,0.0,0.0,0.0,0.0,0.0,0.0
722220,0.001203,0.150178,-0.008512,0.0,0.0,0.0,0.0,0.087266,0.0,3.0,0.315187,0.303099,0.303497,0.373325,4e-06,0.143275,-0.000165,0.000112,-0.020974,0.000162,0.0,0.0,0.0,0.0,0.0,0.0
722240,0.001335,0.149935,-0.008398,0.0,0.0,0.0,0.0,0.087266,0.0,3.0,0.318011,0.298339,0.305885,0.372797,7e-06,0.142857,-0.000161,8.4e-05,-0.020771,0.000251,0.0,0.0,0.0,0.0,0.0,0.0
722260,0.001458,0.149692,-0.008407,0.0,0.0,0.0,0.0,0.087266,0.0,3.0,0.316568,0.302147,0.304697,0.372023,9e-06,0.142443,-0.000155,5.8e-05,-0.020574,0.000333,0.0,0.0,0.0,0.0,0.0,0.0
722280,0.00146,0.149196,-0.008404,0.0,0.0,0.0,0.0,0.087266,0.0,3.0,0.317587,0.301353,0.304961,0.371597,1.1e-05,0.142033,-0.000148,3.3e-05,-0.020384,0.000408,0.0,0.0,0.0,0.0,0.0,0.0
722300,0.001452,0.148953,-0.008527,0.0,0.0,0.0,0.0,0.087266,0.0,3.0,0.316764,0.299605,0.304598,0.373845,1.3e-05,0.141626,-0.000139,9e-06,-0.020198,0.000476,0.0,0.0,0.0,0.0,0.0,0.0
722320,0.001341,0.148587,-0.008395,0.0,0.0,0.0,0.0,0.087266,0.0,3.0,0.315971,0.300499,0.304891,0.373591,1.4e-05,0.141224,-0.000129,-1.3e-05,-0.020018,0.000537,0.0,0.0,0.0,0.0,0.0,0.0
722340,0.001343,0.147978,-0.008394,0.0,0.0,0.0,0.0,0.087266,0.0,3.0,0.313792,0.303301,0.30306,0.374608,1.5e-05,0.140825,-0.000118,-3.3e-05,-0.019843,0.000591,0.0,0.0,0.0,0.0,0.0,0.0
722360,0.001345,0.147604,-0.008392,0.0,0.0,0.0,0.0,0.087266,0.0,3.0,0.315373,0.301202,0.305183,0.373322,1.6e-05,0.140429,-0.000106,-5.3e-05,-0.019673,0.000637,0.0,0.0,0.0,0.0,0.0,0.0
722380,0.001225,0.147238,-0.008383,0.0,0.0,0.0,0.0,0.087266,0.0,3.0,0.315512,0.301485,0.305366,0.372858,1.7e-05,0.140037,-9.2e-05,-7e-05,-0.019507,0.000676,0.0,0.0,0.0,0.0,0.0,0.0
722400,0.001218,0.146751,-0.008505,0.0,0.0,0.0,0.0,0.087266,0.0,3.0,0.315102,0.302745,0.304188,0.373134,1.7e-05,0.139648,-7.9e-05,-8.6e-05,-0.019345,0.000709,0.0,0.0,0.0,0.0,0.0,0.0
722420,0.00122,0.146255,-0.008503,0.0,0.0,0.0,0.0,0.087266,0.0,3.0,0.312619,0.304681,0.303251,0.374346,1.8e-05,0.139262,-6.4e-05,-0.0001,-0.019187,0.000734,0.0,0.0,0.0,0.0,0.0,0.0
