time_ms,roll,pitch,yaw,x,y,z,reference_roll,reference_pitch,reference_yaw,reference_throttle,throttle_1,throttle_2,throttle_3,throttle_4,roll_predicted,pitch_predicted,yaw_predicted,roll_rate_predicted,pitch_rate_predicted,yaw_rate_predicted,value1,value2,value3,value4,value5,value6
512140,0.003297,0.000362,0.002563,0.0,0.0,0.0,0.0,0.0,0.0,3.0,0.282887,0.360212,0.272928,0.36994,-0.0,-0.0,0.0,-0.0,0.0,0.0,0.0,0.0,0.0,0.0,0.0,0.0
512160,0.003297,0.000484,0.002685,0.0,0.0,0.0,0.0,0.0,0.0,3.0,0.28154,0.360117,0.270525,0.372523,-0.0,-0.0,0.0,-0.0,0.0,0.0,0.0,0.0,0.0,0.0,0.0,0.0
512180,0.003297,0.000606,0.002685,0.0,0.0,0.0,0.0,0.0,0.0,3.0,0.284829,0.356648,0.273962,0.371319,-0.0,-0.0,0.0,-0.0,0.0,0.0,0.0,0.0,0.0,0.0,0.0,0.0
512200,0.003297,0.000362,0.002808,0.0,0.0,0.0,0.0,0.0,0.0,3.0,0.281431,0.360216,0.270369,0.372603,-0.0,-0.0,0.0,0.0,0.0,0.0,0.0,0.0,0.0,0.0,0.0,0.0
512220,0.003297,0.000362,0.002808,0.0,0.0,0.0,0.0,0.0,0.0,3.0,0.284196,0.357635,0.272376,0.371862,-0.0,-0.0,0.0,0.0,-0.0,0.0,0.0,0.0,0.0,0.0,0.0,0.0
512240,0.003297,0.000483,0.002929,0.0,0.0,0.0,0.0,0.0,0.0,3.0,0.28176,0.359304,0.269421,0.373855,-0.0,-0.0,0.0,-0.0,0.0,0.0,0.0,0.0,0.0,0.0,0.0,0.0
512260,0.003297,0.000483,0.002929,0.0,0.0,0.0,0.0,0.0,0.0,3.0,0.28386,0.358101,0.271336,0.372328,-0.0,-0.0,0.0,-0.0,0.0,0.0,0.0,0.0,0.0,0.0,0.0,0.0
512280,0.003297,0.000361,0.00293,0.0,0.0,0.0,0.0,0.0,0.0,3.0,0.284781,0.358357,0.273243,0.370198,-0.0,-0.0,0.0,-0.0,0.0,0.0,0.0,0.0,0.0,0.0,0.0,0.0
512300,0.003174,-5e-06,0.003052,0.0,0.0,0.0,0.0,0.0,0.0,3.0,0.283298,0.360328,0.270955,0.370833,-0.0,-0.0,0.0,0.0,0.0,0.0,0.0,0.0,0.0,0.0,0.0,0.0
512320,0.003296,-0.000249,0.003053,0.0,0.0,0.0,0.0,0.0,0.0,3.0,0.28603,0.358218,0.274922,0.368337,-0.0,-0.0,0.0,0.0,0.0,-0.0,0.0,0.0,0.0,0.0,0.0,0.0
512340,0.003174,-0.000249,0.003175,0.0,0.0,0.0,0.0,0.0,0.0,3.0,0.285432,0.359868,0.27108,0.369707,-0.0,-0.0,0.0,0.0,0.0,-0.0,0.0,0.0,0.0,0.0,0.0,0.0
512360,0.003296,-0.000127,0.003175,0.0,0.0,0.0,0.0,0.0,0.0,3.0,0.286513,0.358615,0.274087,0.368169,-0.0,-0.0,0.0,-0.0,0.0,-0.0,0.0,0.0,0.0,0.0,0.0,0.0
512380,0.003418,-0.000128,0.003175,0.0,0.0,0.0,0.0,0.0,0.0,3.0,0.287609,0.358048,0.274903,0.367388,-0.0,-0.0,0.0,-0.0,0.0,-0.0,0.0,0.0,0.0,0.0,0.0,0.0
512400,0.00354,0.000116,0.003296,0.0,0.0,0.0,0.0,0.0,0.0,3.0,0.284337,0.35913,0.27186,0.370674,-0.0,-0.0,0.0,-0.0,0.0,-0.0,0.0,0.0,0.0,0.0,0.0,0.0
512420,0.003418,0.000116,0.003296,0.0,0.0,0.0,0.0,0.0,0.0,3.0,0.284615,0.358687,0.272039,0.370787,-0.0,-0.0,0.0,0.0,0.0,-0.0,0.0,0.0,0.0,0.0,0.0,0.0
512440,0.003296,-0.000128,0.003419,0.0,0.0,0.0,0.0,0.0,0.0,3.0,0.284786,0.36019,0.270505,0.370223,-0.0,-0.0,0.0,0.0,0.0,-0.0,0.0,0.0,0.0,0.0,0.0,0.0
512460,0.003296,-0.00025,0.003541,0.0,0.0,0.0,0.0,0.0,0.0,3.0,0.280433,0.361532,0.268305,0.37334,-0.0,-0.0,0.0,0.0,0.0,-0.0,0.0,0.0,0.0,0.0,0.0,0.0
512480,0.00354,-0.00025,0.003541,0.0,0.0,0.0,0.0,0.0,0.0,3.0,0.28162,0.358763,0.273813,0.371623,-0.0,-0.0,0.0,-0.0,0.0,-0.0,0.0,0.0,0.0,0.0,0.0,0.0
512500,0.003663,0.000115,0.003663,0.0,0.0,0.0,0.0,0.0,0.0,3.0,0.281434,0.357064,0.273102,0.373826,-0.0,-0.0,0.0,0.0,-0.0,-0.0,0.0,0.0,0.0,0.0,0.0,0.0
512520,0.003663,0.000115,0.003785,0.0,0.0,0.0,0.0,0.0,0.0,3.0,0.279106,0.360651,0.268726,0.374806,-0.0,-0.0,0.0,-0.0,0.0,-0.0,0.0,0.0,0.0,0.0,0.0,0.0
512540,0.003784,-0.000129,0.003785,0.0,0.0,0.0,0.0,0.0,0.0,3.0,0.282136,0.360053,0.272276,0.371039,-0.0,-0.0,0.0,0.0,0.0,-0.0,0.0,0.0,0.0,0.0,0.0,0.0
512560,0.003784,-0.000129,0.003785,0.0,0.0,0.0,0.0,0.0,0.0,3.0,0.282901,0.359057,0.27186,0.371739,-0.0,-0.0,0.0,0.0,0.0,-0.0,0.0,0.0,0.0,0.0,0.0,0.0
512580,0.003784,-0.000373,0.003786,0.0,0.0,0.0,0.0,0.0,0.0,3.0,0.283803,0.36029,0.270863,0.370579,-0.0,-0.0,0.0,0.0,-0.0,-0.0,0.0,0.0,0.0,0.0,0.0,0.0
512600,0.003783,-0.00074,0.003786,0.0,0.0,0.0,0.0,0.0,0.0,3.0,0.283237,0.361385,0.271407,0.369559,-0.0,-0.0,0.0,0.0,0.0,-0.0,0.0,0.0,0.0,0.0,0.0,0.0
512620,0.003905,-0.000984,0.003787,0.0,0.0,0.0,0.0,0.0,0.0,3.0,0.281812,0.361846,0.271079,0.370311,-0.0,-0.0,0.0,0.0,0.0,-0.0,0.0,0.0,0.0,0.0,0.0,0.0
512640,0.003905,-0.00074,0.003786,0.0,0.0,0.0,0.0,0.0,0.0,3.0,0.282027,0.361016,0.269812,0.371785,-0.0,-0.0,0.0,0.0,0.0,-0.0,0.0,0.0,0.0,0.0,0.0,0.0
512660,0.003783,-0.000617,0.003664,0.0,0.0,0.0,0.0,0.0,0.0,3.0,0.284565,0.360002,0.271028,0.370219,-0.0,-0.0,0.0,0.0,0.0,-0.0,0.0,0.0,0.0,0.0,0.0,0.0
512680,0.003783,-0.000617,0.003664,0.0,0.0,0.0,0.0,0.0,0.0,3.0,0.28549,0.35959,0.272889,0.368746,-0.0,-0.0,0.0,0.0,0.0,-0.0,0.0,0.0,0.0,0.0,0.0,0.0
512700,0.003905,-0.000862,0.003786,0.0,0.0,0.0,0.0,0.0,0.0,3.0,0.280836,0.362145,0.270367,0.371153,-0.0,-0.0,-0.0,0.0,0.0,-0.0,0.0,0.0,0.0,0.0,0.0,0.0
512720,0.004149,-0.001107,0.003787,0.0,0.0,0.0,0.0,0.0,0.0,3.0,0.280616,0.361717,0.272797,0.370135,-0.0,-0.0,-0.0,-0.0,0.0,-0.0,0.0,0.0,0.0,0.0,0.0,0.0
512740,0.004271,-0.000985,0.003787,0.0,0.0,0.0,0.0,0.0,0.0,3.0,0.281098,0.359633,0.273309,0.371477,-0.0,-0.0,-0.0,0.0,0.0,-0.0,0.0,0.0,0.0,0.0,0.0,0.0
512760,0.004393,-0.001107,0.003787,0.0,0.0,0.0,0.0,0.0,0.0,3.0,0.280729,0.360218,0.273701,0.370911,-0.0,-0.0,-0.0,-0.0,0.0,-0.0,0.0,0.0,0.0,0.0,0.0,0.0
512780,0.004515,-0.000985,0.003787,0.0,0.0,0.0,0.0,0.0,0.0,3.0,0.280771,0.358603,0.273648,0.372463,-0.0,-0.0,-0.0,0.0,0.0,-0.0,0.0,0.0,0.0,0.0,0.0,0.0
512800,0.004515,-0.000863,0.003665,0.0,0.0,0.0,0.0,0.0,0.0,3.0,0.283544,0.357202,0.274679,0.371213,-0.0,-0.0,-0.0,0.0,0.0,-0.0,0.0,0.0,0.0,0.0,0.0,0.0
512820,0.004393,-0.000985,0.003787,0.0,0.0,0.0,0.0,0.0,0.0,3.0,0.280312,0.361478,0.269764,0.372542,-0.0,-0.0,-0.0,0.0,0.0,-0.0,0.0,0.0,0.0,0.0,0.0,0.0
512840,0.004392,-0.001229,0.003788,0.0,0.0,0.0,0.0,0.0,0.0,3.0,0.280914,0.361902,0.271274,0.370747,-0.0,-0.0,-0.0,0.0,0.0,-0.0,0.0,0.0,0.0,0.0,0.0,0.0
512860,0.004392,-0.001351,0.003788,0.0,0.0,0.0,0.0,0.0,0.0,3.0,0.281776,0.361278,0.272252,0.370121,-0.0,-0.0,-0.0,0.0,0.0,-0.0,0.0,0.0,0.0,0.0,0.0,0.0
512880,0.004515,-0.001229,0.003788,0.0,0.0,0.0,0.0,0.0,0.0,3.0,0.28248,0.360558,0.2716,0.370758,-0.0,-0.0,-0.0,0.0,0.0,-0.0,0.0,0.0,0.0,0.0,0.0,0.0
512900,0.004515,-0.000863,0.003787,0.0,0.0,0.0,0.0,0.0,0.0,3.0,0.283251,0.359195,0.270772,0.372072,-0.0,-0.0,-0.0,0.0,0.0,-0.0,0.0,0.0,0.0,0.0,0.0,0.0
512920,0.004515,-0.000985,0.003909,0.0,0.0,0.0,0.0,0.0,0.0,3.0,0.282338,0.361137,0.270337,0.371117,-0.0,-0.0,-0.0,0.0,0.0,-0.0,0.0,0.0,0.0,0.0,0.0,0.0
512940,0.004514,-0.00123,0.00391,0.0,0.0,0.0,0.0,0.0,0.0,3.0,0.281195,0.361172,0.27233,0.370572,-0.0,-0.0,-0.0,0.0,0.0,-0.0,0.0,0.0,0.0,0.0,0.0,0.0
512960,0.004514,-0.00123,0.00391,0.0,0.0,0.0,0.0,0.0,0.0,3.0,0.28113,0.359558,0.271547,0.372676,-0.0,-0.0,-0.0,-0.0,0.0,-0.0,0.0,0.0,0.0,0.0,0.0,0.0
512980,0.004514,-0.00123,0.00391,0.0,0.0,0.0,0.0,0.0,0.0,3.0,0.281672,0.359276,0.271775,0.372428,-0.0,-0.0,-0.0,0.0,0.0,-0.0,0.0,0.0,0.0,0.0,0.0,0.0
513000,0.004515,-0.001108,0.003909,0.0,0.0,0.0,0.0,0.0,0.0,3.0,0.281077,0.359547,0.2724,0.37217,-0.0,-0.0,-0.0,0.0,0.0,-0.0,0.0,0.0,0.0,0.0,0.0,0.0
513020,0.004515,-0.000985,0.003909,0.0,0.0,0.0,0.0,0.0,0.0,3.0,0.28161,0.35953,0.2718,0.372212,-0.0,-0.0,-0.0,0.0,0.0,0.0,0.0,0.0,0.0,0.0,0.0,0.0
513040,0.004637,-0.001108,0.004032,0.0,0.0,0.0,0.0,0.0,0.0,3.0,0.276672,0.363234,0.269252,0.373621,-0.0,-0.0,-0.0,0.0,0.0,-0.0,0.0,0.0,0.0,0.0,0.0,0.0
513060,0.004636,-0.00123,0.004032,0.0,0.0,0.0,0.0,0.0,0.0,3.0,0.280108,0.361641,0.272366,0.370838,-0.0,-0.0,-0.0,0.0,-0.0,-0.0,0.0,0.0,0.0,0.0,0.0,0.0
513080,0.004636,-0.001352,0.004032,0.0,0.0,0.0,0.0,0.0,0.0,3.0,0.280593,0.361392,0.272235,0.370834,-0.0,-0.0,-0.0,0.0,0.0,0.0,0.0,0.0,0.0,0.0,0.0,0.0
513100,0.004758,-0.001475,0.004032,0.0,0.0,0.0,0.0,0.0,0.0,3.0,0.279767,0.361443,0.273069,0.370801,-0.0,-0.0,-0.0,0.0,0.0,-0.0,0.0,0.0,0.0,0.0,0.0,0.0
513120,0.004759,-0.001108,0.004032,0.0,0.0,0.0,0.0,0.0,0.0,3.0,0.28061,0.359052,0.272197,0.37309,-0.0,-0.0,-0.0,0.0,0.0,-0.0,0.0,0.0,0.0,0.0,0.0,0.0
513140,0.004759,-0.000986,0.004031,0.0,0.0,0.0,0.0,0.0,0.0,3.0,0.280628,0.359737,0.272119,0.372476,-0.0,-0.0,-0.0,0.0,0.0,-0.0,0.0,0.0,0.0,0.0,0.0,0.0
513160,0.004514,-0.00123,0.004032,0.0,0.0,0.0,0.0,0.0,0.0,3.0,0.282229,0.36129,0.270357,0.371031,-0.0,-0.0,-0.0,0.0,0.0,-0.0,0.0,0.0,0.0,0.0,0.0,0.0
513180,0.004514,-0.001474,0.004154,0.0,0.0,0.0,0.0,0.0,0.0,3.0,0.27775,0.364264,0.267335,0.373124,-0.0,-0.0,-0.0,0.0,0.0,0.0,0.0,0.0,0.0,0.0,0.0,0.0
513200,0.004514,-0.00123,0.004154,0.0,0.0,0.0,0.0,0.0,0.0,3.0,0.280077,0.360396,0.268982,0.374235,-0.0,-0.0,-0.0,0.0,0.0,-0.0,0.0,0.0,0.0,0.0,0.0,0.0
513220,0.004515,-0.001108,0.004154,0.0,0.0,0.0,0.0,0.0,0.0,3.0,0.281342,0.360159,0.269652,0.373177,-0.0,-0.0,-0.0,0.0,0.0,0.0,0.0,0.0,0.0,0.0,0.0,0.0
513240,0.004637,-0.001108,0.004154,0.0,0.0,0.0,0.0,0.0,0.0,3.0,0.279942,0.360187,0.272093,0.372528,-0.0,-0.0,-0.0,0.0,0.0,-0.0,0.0,0.0,0.0,0.0,0.0,0.0
513260,0.004636,-0.001352,0.004154,0.0,0.0,0.0,0.0,0.0,0.0,3.0,0.280724,0.361269,0.271271,0.37149,-0.0,-0.0,-0.0,0.0,0.0,0.0,0.0,0.0,0.0,0.0,0.0,0.0
513280,0.004636,-0.001352,0.004154,0.0,0.0,0.0,0.0,0.0,0.0,3.0,0.279991,0.361243,0.271992,0.371546,-0.0,-0.0,-0.0,0.0,0.0,0.0,0.0,0.0,0.0,0.0,0.0,0.0
513300,0.004514,-0.001474,0.004154,0.0,0.0,0.0,0.0,0.0,0.0,3.0,0.281333,0.362371,0.270518,0.370496,-0.0,-0.0,-0.0,0.0,0.0,-0.0,0.0,0.0,0.0,0.0,0.0,0.0
513320,0.004514,-0.001352,0.004032,0.0,0.0,0.0,0.0,0.0,0.0,3.0,0.285111,0.358978,0.27406,0.368829,-0.0,-0.0,-0.0,0.0,0.0,0.0,0.0,0.0,0.0,0.0,0.0,0.0
513340,0.004514,-0.001352,0.004154,0.0,0.0,0.0,0.0,0.0,0.0,3.0,0.280856,0.36178,0.270487,0.371415,-0.0,-0.0,-0.0,0.0,0.0,-0.0,0.0,0.0,0.0,0.0,0.0,0.0
513360,0.004515,-0.000986,0.004153,0.0,0.0,0.0,0.0,0.0,0.0,3.0,0.280408,0.359796,0.271365,0.373057,-0.0,-0.0,-0.0,0.0,0.0,0.0,0.0,0.0,0.0,0.0,0.0,0.0
513380,0.004393,-0.000986,0.004153,0.0,0.0,0.0,0.0,0.0,0.0,3.0,0.281021,0.359911,0.270697,0.372962,-0.0,-0.0,-0.0,0.0,0.0,0.0,0.0,0.0,0.0,0.0,0.0,0.0
513400,0.004515,-0.001108,0.004154,0.0,0.0,0.0,0.0,0.0,0.0,3.0,0.280454,0.35949,0.273026,0.372239,-0.0,-0.0,-0.0,0.0,0.0,-0.0,0.0,0.0,0.0,0.0,0.0,0.0
513420,0.004637,-0.001109,0.004276,0.0,0.0,0.0,0.0,0.0,0.0,3.0,0.277554,0.361318,0.269402,0.374777,-0.0,-0.0,-0.0,0.0,0.0,-0.0,0.0,0.0,0.0,0.0,0.0,0.0
513440,0.004637,-0.001109,0.004276,0.0,0.0,0.0,0.0,0.0,0.0,3.0,0.279663,0.360888,0.271255,0.372588,-0.0,-0.0,-0.0,0.0,0.0,0.0,0.0,0.0,0.0,0.0,0.0,0.0
513460,0.004637,-0.000987,0.004275,0.0,0.0,0.0,0.0,0.0,0.0,3.0,0.279162,0.360293,0.271991,0.373019,-0.0,-0.0,-0.0,0.0,0.0,-0.0,0.0,0.0,0.0,0.0,0.0,0.0
513480,0.004514,-0.00123,0.004276,0.0,0.0,0.0,0.0,0.0,0.0,3.0,0.280798,0.361463,0.271119,0.371352,-0.0,-0.0,-0.0,0.0,0.0,0.0,0.0,0.0,0.0,0.0,0.0,0.0
513500,0.004392,-0.00123,0.004398,0.0,0.0,0.0,0.0,0.0,0.0,3.0,0.279188,0.36362,0.267851,0.372456,-0.0,-0.0,-0.0,0.0,0.0,-0.0,0.0,0.0,0.0,0.0,0.0,0.0
513520,0.00427,-0.001108,0.004398,0.0,0.0,0.0,0.0,0.0,0.0,3.0,0.280453,0.362261,0.268017,0.372808,-0.0,-0.0,-0.0,0.0,0.0,-0.0,0.0,0.0,0.0,0.0,0.0,0.0
513540,0.004392,-0.001108,0.004398,0.0,0.0,0.0,0.0,0.0,0.0,3.0,0.28068,0.361275,0.269644,0.372565,-0.0,-0.0,-0.0,0.0,0.0,0.0,0.0,0.0,0.0,0.0,0.0,0.0
513560,0.004392,-0.001108,0.004398,0.0,0.0,0.0,0.0,0.0,0.0,3.0,0.280667,0.361231,0.269725,0.372564,-0.0,-0.0,-0.0,0.0,0.0,-0.0,0.0,0.0,0.0,0.0,0.0,0.0
513580,0.004392,-0.001109,0.00452,0.0,0.0,0.0,0.0,0.0,0.0,3.0,0.279161,0.363339,0.267182,0.373169,-0.0,-0.0,-0.0,0.0,0.0,0.0,0.0,0.0,0.0,0.0,0.0,0.0
513600,0.004514,-0.001109,0.00452,0.0,0.0,0.0,0.0,0.0,0.0,3.0,0.280114,0.362366,0.268632,0.372546,-0.0,-0.0,-0.0,0.0,0.0,-0.0,0.0,0.0,0.0,0.0,0.0,0.0
513620,0.004636,-0.001475,0.004399,0.0,0.0,0.0,0.0,0.0,0.0,3.0,0.282333,0.360557,0.273989,0.369288,-0.0,-0.0,-0.0,0.0,0.0,-0.0,0.0,0.0,0.0,0.0,0.0,0.0
513640,0.004636,-0.001353,0.004398,0.0,0.0,0.0,0.0,0.0,0.0,3.0,0.280314,0.360214,0.272086,0.372255,-0.0,-0.0,-0.0,0.0,0.0,0.0,0.0,0.0,0.0,0.0,0.0,0.0
513660,0.004758,-0.001231,0.004398,0.0,0.0,0.0,0.0,0.0,0.0,3.0,0.278621,0.360235,0.271766,0.373583,-0.0,-0.0,-0.0,0.0,0.0,-0.0,0.0,0.0,0.0,0.0,0.0,0.0
513680,0.004758,-0.001353,0.004398,0.0,0.0,0.0,0.0,0.0,0.0,3.0,0.278474,0.362338,0.271699,0.371706,-0.0,-0.0,-0.0,0.0,-0.0,-0.0,0.0,0.0,0.0,0.0,0.0,0.0
513700,0.004758,-0.001353,0.004276,0.0,0.0,0.0,0.0,0.0,0.0,3.0,0.282217,0.359165,0.275297,0.369843,-0.0,-0.0,-0.0,0.0,0.0,-0.0,0.0,0.0,0.0,0.0,0.0,0.0
513720,0.004758,-0.001475,0.004277,0.0,0.0,0.0,0.0,0.0,0.0,3.0,0.279438,0.362005,0.271468,0.371527,-0.0,-0.0,-0.0,0.0,0.0,-0.0,0.0,0.0,0.0,0.0,0.0,0.0
513740,0.004758,-0.001475,0.004277,0.0,0.0,0.0,0.0,0.0,0.0,3.0,0.279228,0.362728,0.271204,0.37114,-0.0,-0.0,-0.0,0.0,0.0,-0.0,0.0,0.0,0.0,0.0,0.0,0.0
513760,0.004758,-0.001353,0.004276,0.0,0.0,0.0,0.0,0.0,0.0,3.0,0.279943,0.362205,0.270393,0.371687,-0.0,-0.0,-0.0,0.0,0.0,-0.0,0.0,0.0,0.0,0.0,0.0,0.0
513780,0.004758,-0.001353,0.004276,0.0,0.0,0.0,0.0,0.0,0.0,3.0,0.280712,0.361659,0.269543,0.372239,-0.0,-0.0,-0.0,0.0,0.0,-0.0,0.0,0.0,0.0,0.0,0.0,0.0
513800,0.00488,-0.001475,0.004155,0.0,0.0,0.0,0.0,0.0,0.0,3.0,0.281959,0.361195,0.272186,0.370118,-0.0,-0.0,-0.0,0.0,0.0,-0.0,0.0,0.0,0.0,0.0,0.0,0.0
513820,0.00488,-0.001597,0.004155,0.0,0.0,0.0,0.0,0.0,0.0,3.0,0.280903,0.361273,0.269907,0.372246,-0.0,-0.0,-0.0,0.0,0.0,-0.0,0.0,0.0,0.0,0.0,0.0,0.0
513840,0.005001,-0.001964,0.004156,0.0,0.0,0.0,0.0,0.0,0.0,3.0,0.279372,0.361984,0.271237,0.371741,-0.0,-0.0,-0.0,0.0,0.0,-0.0,0.0,0.0,0.0,0.0,0.0,0.0
513860,0.005246,-0.001842,0.004034,0.0,0.0,0.0,0.0,0.0,0.0,3.0,0.279828,0.359347,0.274709,0.371695,-0.0,-0.0,-0.0,0.0,0.0,-0.0,0.0,0.0,0.0,0.0,0.0,0.0
513880,0.005124,-0.001719,0.004033,0.0,0.0,0.0,0.0,0.0,0.0,3.0,0.280291,0.360583,0.27085,0.372716,-0.0,-0.0,-0.0,0.0,0.0,-0.0,0.0,0.0,0.0,0.0,0.0,0.0
513900,0.005124,-0.001841,0.003912,0.0,0.0,0.0,0.0,0.0,0.0,3.0,0.281308,0.361284,0.272607,0.370204,-0.0,-0.0,-0.0,0.0,0.0,-0.0,0.0,0.0,0.0,0.0,0.0,0.0
513920,0.005123,-0.001963,0.003912,0.0,0.0,0.0,0.0,0.0,0.0,3.0,0.279898,0.361989,0.27151,0.371203,-0.0,-0.0,-0.0,0.0,0.0,-0.0,0.0,0.0,0.0,0.0,0.0,0.0
513940,0.005123,-0.002207,0.00379,0.0,0.0,0.0,0.0,0.0,0.0,3.0,0.283528,0.360116,0.275035,0.368186,-0.0,-0.0,-0.0,0.0,0.0,-0.0,0.0,0.0,0.0,0.0,0.0,0.0
513960,0.005367,-0.00233,0.003791,0.0,0.0,0.0,0.0,0.0,0.0,3.0,0.281656,0.360273,0.276471,0.368373,-0.0,-0.0,-0.0,0.0,0.0,-0.0,0.0,0.0,0.0,0.0,0.0,0.0
513980,0.005489,-0.00233,0.003913,0.0,0.0,0.0,0.0,0.0,0.0,3.0,0.274567,0.364344,0.270819,0.372932,-0.0,-0.0,-0.0,-0.0,-0.0,-0.0,0.0,0.0,0.0,0.0,0.0,0.0
514000,0.005489,-0.002452,0.003792,0.0,0.0,0.0,0.0,0.0,0.0,3.0,0.279156,0.362124,0.273754,0.370105,-0.0,-0.0,-0.0,0.0,0.0,-0.0,0.0,0.0,0.0,0.0,0.0,0.0
514020,0.005489,-0.002452,0.003792,0.0,0.0,0.0,0.0,0.0,0.0,3.0,0.279601,0.362074,0.27194,0.371042,-0.0,-0.0,-0.0,-0.0,0.0,-0.0,0.0,0.0,0.0,0.0,0.0,0.0
514040,0.005489,-0.002452,0.003792,0.0,0.0,0.0,0.0,0.0,0.0,3.0,0.277722,0.36308,0.270177,0.372478,-0.0,-0.0,-0.0,-0.0,0.0,-0.0,0.0,0.0,0.0,0.0,0.0,0.0
514060,0.005489,-0.002574,0.003792,0.0,0.0,0.0,0.0,0.0,0.0,3.0,0.276828,0.363936,0.269913,0.372415,-0.0,-0.0,-0.0,0.0,0.0,-0.0,0.0,0.0,0.0,0.0,0.0,0.0
514080,0.005367,-0.002574,0.003792,0.0,0.0,0.0,0.0,0.0,0.0,3.0,0.278299,0.362976,0.270088,0.372247,-0.0,-0.0,-0.0,0.0,0.0,-0.0,0.0,0.0,0.0,0.0,0.0,0.0
514100,0.005367,-0.002452,0.003791,0.0,0.0,0.0,0.0,0.0,0.0,3.0,0.279358,0.360484,0.27178,0.372841,-0.0,-0.0,-0.0,-0.0,0.0,-0.0,0.0,0.0,0.0,0.0,0.0,0.0
514120,0.005367,-0.002574,0.003792,0.0,0.0,0.0,0.0,0.0,0.0,3.0,0.279532,0.362109,0.271693,0.371216,-0.0,-0.0,-0.0,0.0,0.0,-0.0,0.0,0.0,0.0,0.0,0.0,0.0
514140,0.005244,-0.00294,0.003792,0.0,0.0,0.0,0.0,0.0,0.0,3.0,0.282335,0.362126,0.272282,0.36889,-0.0,-0.0,-0.0,0.0,0.0,-0.0,0.0,0.0,0.0,0.0,0.0,0.0
514160,0.005366,-0.003062,0.003793,0.0,0.0,0.0,0.0,0.0,0.0,3.0,0.281809,0.361656,0.273018,0.369227,-0.0,-0.0,-0.0,-0.0,0.0,-0.0,0.0,0.0,0.0,0.0,0.0,0.0
514180,0.00561,-0.00294,0.003793,0.0,0.0,0.0,0.0,0.0,0.0,3.0,0.281236,0.360261,0.276222,0.368842,-0.0,-0.0,-0.0,-0.0,0.0,-0.0,0.0,0.0,0.0,0.0,0.0,0.0
514200,0.005366,-0.002696,0.003914,0.0,0.0,0.0,0.0,0.0,0.0,3.0,0.280714,0.362644,0.269364,0.3714,-0.0,-0.0,-0.0,-0.0,0.0,-0.0,0.0,0.0,0.0,0.0,0.0,0.0
514220,0.005366,-0.002818,0.003914,0.0,0.0,0.0,0.0,0.0,0.0,3.0,0.279725,0.362456,0.270816,0.371318,-0.0,-0.0,-0.0,-0.0,0.0,-0.0,0.0,0.0,0.0,0.0,0.0,0.0
514240,0.005365,-0.003185,0.004038,0.0,0.0,0.0,0.0,0.0,0.0,3.0,0.277185,0.363789,0.271185,0.371499,-0.0,-0.0,-0.0,-0.0,0.0,-0.0,0.0,0.0,0.0,0.0,0.0,0.0
514260,0.005366,-0.002819,0.004037,0.0,0.0,0.0,0.0,0.0,0.0,3.0,0.277897,0.360559,0.272145,0.373513,-0.0,-0.0,-0.0,-0.0,0.0,-0.0,0.0,0.0,0.0,0.0,0.0,0.0
514280,0.005366,-0.002575,0.004158,0.0,0.0,0.0,0.0,0.0,0.0,3.0,0.27742,0.360837,0.271373,0.374064,-0.0,-0.0,-0.0,-0.0,0.0,-0.0,0.0,0.0,0.0,0.0,0.0,0.0
514300,0.005488,-0.002697,0.004158,0.0,0.0,0.0,0.0,0.0,0.0,3.0,0.276636,0.363395,0.272901,0.371129,-0.0,-0.0,-0.0,-0.0,0.0,-0.0,0.0,0.0,0.0,0.0,0.0,0.0
514320,0.005365,-0.002819,0.004281,0.0,0.0,0.0,0.0,0.0,0.0,3.0,0.277067,0.363531,0.271154,0.371848,-0.0,-0.0,-0.0,-0.0,0.0,-0.0,0.0,0.0,0.0,0.0,0.0,0.0
514340,0.005365,-0.00282,0.004403,0.0,0.0,0.0,0.0,0.0,0.0,3.0,0.275033,0.365461,0.266373,0.374366,-0.0,-0.0,-0.0,-0.0,0.0,-0.0,0.0,0.0,0.0,0.0,0.0,0.0
514360,0.005487,-0.00282,0.004403,0.0,0.0,0.0,0.0,0.0,0.0,3.0,0.277229,0.363416,0.270907,0.372011,-0.0,-0.0,-0.0,-0.0,0.0,-0.0,0.0,0.0,0.0,0.0,0.0,0.0
514380,0.005365,-0.00282,0.004525,0.0,0.0,0.0,0.0,0.0,0.0,3.0,0.277427,0.364556,0.267927,0.372682,-0.0,-0.0,-0.0,-0.0,0.0,-0.0,0.0,0.0,0.0,0.0,0.0,0.0
514400,0.005242,-0.002942,0.004647,0.0,0.0,0.0,0.0,0.0,0.0,3.0,0.276481,0.366525,0.263667,0.374061,-0.0,-0.0,-0.0,-0.0,0.0,-0.0,0.0,0.0,0.0,0.0,0.0,0.0
514420,0.005242,-0.002942,0.004647,0.0,0.0,0.0,0.0,0.0,0.0,3.0,0.277145,0.364158,0.269059,0.372535,-0.0,-0.0,-0.0,-0.0,0.0,-0.0,0.0,0.0,0.0,0.0,0.0,0.0
514440,0.005243,-0.002698,0.004769,0.0,0.0,0.0,0.0,0.0,0.0,3.0,0.274197,0.364263,0.265655,0.376512,-0.0,-0.0,-0.0,-0.0,0.0,-0.0,0.0,0.0,0.0,0.0,0.0,0.0
514460,0.005243,-0.002576,0.004768,0.0,0.0,0.0,0.0,0.0,0.0,3.0,0.276802,0.362841,0.2671,0.375272,-0.0,-0.0,-0.0,-0.0,0.0,-0.0,0.0,0.0,0.0,0.0,0.0,0.0
514480,0.005121,-0.002454,0.004768,0.0,0.0,0.0,0.0,0.0,0.0,3.0,0.279568,0.36104,0.270752,0.372831,-0.0,-0.0,-0.0,-0.0,0.0,-0.0,0.0,0.0,0.0,0.0,0.0,0.0
514500,0.004877,-0.002697,0.004768,0.0,0.0,0.0,0.0,0.0,0.0,3.0,0.281137,0.362581,0.271211,0.369976,-0.0,-0.0,-0.0,-0.0,0.0,-0.0,0.0,0.0,0.0,0.0,0.0,0.0
514520,0.004998,-0.002942,0.004891,0.0,0.0,0.0,0.0,0.0,0.0,3.0,0.276829,0.365672,0.269022,0.371294,-0.0,-0.0,-0.0,-0.0,0.0,-0.0,0.0,0.0,0.0,0.0,0.0,0.0
514540,0.004998,-0.002942,0.004891,0.0,0.0,0.0,0.0,0.0,0.0,3.0,0.276208,0.365154,0.270128,0.371503,-0.0,-0.0,-0.0,-0.0,0.0,-0.0,0.0,0.0,0.0,0.0,0.0,0.0
514560,0.004877,-0.002576,0.005012,0.0,0.0,0.0,0.0,0.0,0.0,3.0,0.276344,0.363635,0.268666,0.373824,-0.0,-0.0,-0.0,-0.0,0.0,-0.0,0.0,0.0,0.0,0.0,0.0,0.0
514580,0.004999,-0.002576,0.005012,0.0,0.0,0.0,0.0,0.0,0.0,3.0,0.275762,0.363372,0.270055,0.373576,-0.0,-0.0,-0.0,-0.0,0.0,-0.0,0.0,0.0,0.0,0.0,0.0,0.0
514600,0.004999,-0.002576,0.005134,0.0,0.0,0.0,0.0,0.0,0.0,3.0,0.272518,0.365317,0.267486,0.375443,-0.0,-0.0,-0.0,-0.0,0.0,-0.0,0.0,0.0,0.0,0.0,0.0,0.0
514620,0.004877,-0.002332,0.005133,0.0,0.0,0.0,0.0,0.0,0.0,3.0,0.274826,0.362948,0.266582,0.376786,-0.0,-0.0,-0.0,-0.0,0.0,-0.0,0.0,0.0,0.0,0.0,0.0,0.0
514640,0.004877,-0.002332,0.005133,0.0,0.0,0.0,0.0,0.0,0.0,3.0,0.275436,0.363329,0.269593,0.374128,-0.0,-0.0,-0.0,-0.0,0.0,-0.0,0.0,0.0,0.0,0.0,0.0,0.0
514660,0.004754,-0.002576,0.005134,0.0,0.0,0.0,0.0,0.0,0.0,3.0,0.276268,0.365689,0.268858,0.371756,-0.0,-0.0,-0.0,-0.0,0.0,-0.0,0.0,0.0,0.0,0.0,0.0,0.0
514680,0.00451,-0.002698,0.005256,0.0,0.0,0.0,0.0,0.0,0.0,3.0,0.275162,0.367274,0.263092,0.374552,-0.0,-0.0,-0.0,-0.0,0.0,-0.0,0.0,0.0,0.0,0.0,0.0,0.0
514700,0.00451,-0.002698,0.005256,0.0,0.0,0.0,0.0,0.0,0.0,3.0,0.276044,0.365781,0.265421,0.373986,-0.0,-0.0,-0.0,-0.0,0.0,-0.0,0.0,0.0,0.0,0.0,0.0,0.0
514720,0.00451,-0.002575,0.005256,0.0,0.0,0.0,0.0,0.0,0.0,3.0,0.276197,0.36452,0.266343,0.374531,-0.0,-0.0,-0.0,-0.0,0.0,0.0,0.0,0.0,0.0,0.0,0.0,0.0
514740,0.004388,-0.002453,0.005255,0.0,0.0,0.0,0.0,0.0,0.0,3.0,0.277881,0.363602,0.266422,0.37425,-0.0,-0.0,-0.0,-0.0,0.0,0.0,0.0,0.0,0.0,0.0,0.0,0.0
514760,0.004511,-0.002331,0.005255,0.0,0.0,0.0,0.0,0.0,0.0,3.0,0.2759,0.364248,0.267631,0.37418,-0.0,-0.0,-0.0,-0.0,0.0,0.0,0.0,0.0,0.0,0.0,0.0,0.0
514780,0.004633,-0.00221,0.005255,0.0,0.0,0.0,0.0,0.0,0.0,3.0,0.274429,0.364479,0.269032,0.374035,-0.0,-0.0,-0.0,-0.0,0.0,0.0,0.0,0.0,0.0,0.0,0.0,0.0
514800,0.004633,-0.002087,0.005255,0.0,0.0,0.0,0.0,0.0,0.0,3.0,0.275833,0.363424,0.268446,0.374503,-0.0,-0.0,-0.0,-0.0,0.0,0.0,0.0,0.0,0.0,0.0,0.0,0.0
514820,0.004633,-0.00221,0.005377,0.0,0.0,0.0,0.0,0.0,0.0,3.0,0.275098,0.365021,0.266919,0.374407,-0.0,-0.0,-0.0,-0.0,0.0,0.0,0.0,0.0,0.0,0.0,0.0,0.0
514840,0.00451,-0.002454,0.005377,0.0,0.0,0.0,0.0,0.0,0.0,3.0,0.275201,0.365585,0.268442,0.37283,-0.0,-0.0,-0.0,-0.0,0.0,0.0,0.0,0.0,0.0,0.0,0.0,0.0
514860,0.00451,-0.002576,0.005378,0.0,0.0,0.0,0.0,0.0,0.0,3.0,0.276506,0.364774,0.268957,0.372428,-0.0,-0.0,-0.0,0.0,0.0,0.0,0.0,0.0,0.0,0.0,0.0,0.0
514880,0.004633,-0.002332,0.005499,0.0,0.0,0.0,0.0,0.0,0.0,3.0,0.273031,0.365926,0.265788,0.375585,-0.0,-0.0,-0.0,-0.0,0.0,0.0,0.0,0.0,0.0,0.0,0.0,0.0
514900,0.004633,-0.00221,0.005499,0.0,0.0,0.0,0.0,0.0,0.0,3.0,0.275158,0.364581,0.267716,0.374292,-0.0,-0.0,-0.0,0.0,0.0,0.0,0.0,0.0,0.0,0.0,0.0,0.0
514920,0.004633,-0.002088,0.005499,0.0,0.0,0.0,0.0,0.0,0.0,3.0,0.275259,0.363309,0.267831,0.375378,-0.0,-0.0,-0.0,-0.0,0.0,0.0,0.0,0.0,0.0,0.0,0.0,0.0
514940,0.004755,-0.00221,0.005499,0.0,0.0,0.0,0.0,0.0,0.0,3.0,0.274218,0.363734,0.268844,0.37501,-0.0,-0.0,-0.0,-0.0,0.0,0.0,0.0,0.0,0.0,0.0,0.0,0.0
514960,0.004633,-0.00221,0.005499,0.0,0.0,0.0,0.0,0.0,0.0,3.0,0.275584,0.36462,0.267354,0.374203,-0.0,-0.0,-0.0,0.0,0.0,0.0,0.0,0.0,0.0,0.0,0.0,0.0
514980,0.004511,-0.00221,0.005499,0.0,0.0,0.0,0.0,0.0,0.0,3.0,0.27678,0.364272,0.266044,0.374571,-0.0,-0.0,-0.0,-0.0,-0.0,0.0,0.0,0.0,0.0,0.0,0.0,0.0
515000,0.00451,-0.002576,0.0055,0.0,0.0,0.0,0.0,0.0,0.0,3.0,0.276496,0.366005,0.266244,0.372953,-0.0,-0.0,-0.0,-0.0,0.0,0.0,0.0,0.0,0.0,0.0,0.0,0.0
515020,0.00451,-0.002454,0.0055,0.0,0.0,0.0,0.0,0.0,0.0,3.0,0.276601,0.364814,0.266092,0.374136,-0.0,-0.0,-0.0,0.0,0.0,0.0,0.0,0.0,0.0,0.0,0.0,0.0
515040,0.00451,-0.002454,0.005377,0.0,0.0,0.0,0.0,0.0,0.0,3.0,0.279094,0.363759,0.268407,0.372031,-0.0,-0.0,-0.0,0.0,-0.0,0.0,0.0,0.0,0.0,0.0,0.0,0.0
515060,0.004632,-0.002576,0.005378,0.0,0.0,0.0,0.0,0.0,0.0,3.0,0.274958,0.364963,0.268389,0.373629,-0.0,-0.0,-0.0,-0.0,0.0,0.0,0.0,0.0,0.0,0.0,0.0,0.0
515080,0.004632,-0.002576,0.005378,0.0,0.0,0.0,0.0,0.0,0.0,3.0,0.274507,0.365164,0.26852,0.373647,-0.0,-0.0,-0.0,0.0,0.0,0.0,0.0,0.0,0.0,0.0,0.0,0.0
515100,0.004632,-0.002454,0.005256,0.0,0.0,0.0,0.0,0.0,0.0,3.0,0.276873,0.363066,0.270076,0.373122,-0.0,-0.0,-0.0,0.0,0.0,0.0,0.0,0.0,0.0,0.0,0.0,0.0
515120,0.004632,-0.002576,0.005256,0.0,0.0,0.0,0.0,0.0,0.0,3.0,0.274594,0.365382,0.268943,0.373109,-0.0,-0.0,-0.0,-0.0,0.0,0.0,0.0,0.0,0.0,0.0,0.0,0.0
515140,0.004511,-0.002453,0.005133,0.0,0.0,0.0,0.0,0.0,0.0,3.0,0.277381,0.362988,0.269873,0.372989,-0.0,-0.0,-0.0,0.0,-0.0,0.0,0.0,0.0,0.0,0.0,0.0,0.0
515160,0.00451,-0.002575,0.005134,0.0,0.0,0.0,0.0,0.0,0.0,3.0,0.274826,0.364338,0.269036,0.37391,-0.0,-0.0,-0.0,0.0,0.0,0.0,0.0,0.0,0.0,0.0,0.0,0.0
515180,0.00451,-0.002697,0.005012,0.0,0.0,0.0,0.0,0.0,0.0,3.0,0.276944,0.364905,0.268803,0.372105,-0.0,-0.0,-0.0,-0.0,-0.0,0.0,0.0,0.0,0.0,0.0,0.0,0.0
515200,0.004633,-0.002575,0.00489,0.0,0.0,0.0,0.0,0.0,0.0,3.0,0.278139,0.362626,0.271659,0.371679,-0.0,-0.0,-0.0,0.0,0.0,0.0,0.0,0.0,0.0,0.0,0.0,0.0
515220,0.004389,-0.002452,0.004889,0.0,0.0,0.0,0.0,0.0,0.0,3.0,0.279077,0.363618,0.265417,0.374063,-0.0,-0.0,-0.0,-0.0,0.0,0.0,0.0,0.0,0.0,0.0,0.0,0.0
515240,0.004511,-0.002574,0.004767,0.0,0.0,0.0,0.0,0.0,0.0,3.0,0.27765,0.363762,0.268791,0.372752,-0.0,-0.0,-0.0,0.0,0.0,0.0,0.0,0.0,0.0,0.0,0.0,0.0
515260,0.004511,-0.002696,0.004646,0.0,0.0,0.0,0.0,0.0,0.0,3.0,0.276835,0.363583,0.26921,0.373202,-0.0,-0.0,-0.0,-0.0,0.0,0.0,0.0,0.0,0.0,0.0,0.0,0.0
515280,0.004511,-0.002696,0.004523,0.0,0.0,0.0,0.0,0.0,0.0,3.0,0.279768,0.362333,0.269202,0.372447,-0.0,-0.0,-0.0,0.0,-0.0,0.0,0.0,0.0,0.0,0.0,0.0,0.0
515300,0.004511,-0.002696,0.004401,0.0,0.0,0.0,0.0,0.0,0.0,3.0,0.280909,0.362108,0.272121,0.369998,-0.0,-0.0,-0.0,0.0,0.0,0.0,0.0,0.0,0.0,0.0,0.0,0.0
515320,0.004389,-0.002817,0.004279,0.0,0.0,0.0,0.0,0.0,0.0,3.0,0.281359,0.362666,0.272248,0.369061,-0.0,-0.0,-0.0,0.0,-0.0,0.0,0.0,0.0,0.0,0.0,0.0,0.0
515340,0.004511,-0.002939,0.004158,0.0,0.0,0.0,0.0,0.0,0.0,3.0,0.280724,0.361998,0.273307,0.369451,-0.0,-0.0,-0.0,0.0,0.0,0.0,0.0,0.0,0.0,0.0,0.0,0.0
515360,0.004633,-0.002817,0.004158,0.0,0.0,0.0,0.0,0.0,0.0,3.0,0.276667,0.363808,0.27031,0.372392,-0.0,-0.0,-0.0,-0.0,-0.0,0.0,0.0,0.0,0.0,0.0,0.0,0.0
515380,0.004634,-0.002695,0.004035,0.0,0.0,0.0,0.0,0.0,0.0,3.0,0.276722,0.363766,0.271081,0.371897,-0.0,-0.0,-0.0,0.0,0.0,0.0,0.0,0.0,0.0,0.0,0.0,0.0
515400,0.004511,-0.002817,0.003913,0.0,0.0,0.0,0.0,0.0,0.0,3.0,0.278188,0.363695,0.269983,0.371693,-0.0,-0.0,-0.0,-0.0,0.0,0.0,0.0,0.0,0.0,0.0,0.0,0.0
515420,0.004633,-0.002939,0.003792,0.0,0.0,0.0,0.0,0.0,0.0,3.0,0.277271,0.36354,0.272201,0.371021,-0.0,-0.0,-0.0,0.0,0.0,0.0,0.0,0.0,0.0,0.0,0.0,0.0
515440,0.004512,-0.002816,0.003669,0.0,0.0,0.0,0.0,0.0,0.0,3.0,0.278842,0.361971,0.271058,0.372228,-0.0,-0.0,-0.0,0.0,0.0,0.0,0.0,0.0,0.0,0.0,0.0,0.0
515460,0.004512,-0.002694,0.003547,0.0,0.0,0.0,0.0,0.0,0.0,3.0,0.278518,0.362009,0.27089,0.372518,-0.0,-0.0,-0.0,-0.0,0.0,0.0,0.0,0.0,0.0,0.0,0.0,0.0
515480,0.00439,-0.002693,0.003424,0.0,0.0,0.0,0.0,0.0,0.0,3.0,0.278734,0.362639,0.270987,0.371701,-0.0,-0.0,-0.0,0.0,-0.0,0.0,0.0,0.0,0.0,0.0,0.0,0.0
515500,0.004268,-0.002937,0.003303,0.0,0.0,0.0,0.0,0.0,0.0,3.0,0.280016,0.362888,0.270929,0.370628,-0.0,-0.0,-0.0,0.0,0.0,0.0,0.0,0.0,0.0,0.0,0.0,0.0
515520,0.004268,-0.003059,0.003181,0.0,0.0,0.0,0.0,0.0,0.0,3.0,0.280131,0.36334,0.270355,0.370482,-0.0,-0.0,-0.0,-0.0,0.0,0.0,0.0,0.0,0.0,0.0,0.0,0.0
515540,0.004268,-0.003058,0.003059,0.0,0.0,0.0,0.0,0.0,0.0,3.0,0.280002,0.363564,0.270824,0.370046,-0.0,-0.0,-0.0,0.0,-0.0,0.0,0.0,0.0,0.0,0.0,0.0,0.0
515560,0.004146,-0.002936,0.002936,0.0,0.0,0.0,0.0,0.0,0.0,3.0,0.280843,0.362768,0.270351,0.370554,-0.0,-0.0,-0.0,0.0,0.0,0.0,0.0,0.0,0.0,0.0,0.0,0.0
515580,0.004147,-0.002936,0.002814,0.0,0.0,0.0,0.0,0.0,0.0,3.0,0.282188,0.361377,0.272029,0.369887,-0.0,-0.0,-0.0,0.0,-0.0,0.0,0.0,0.0,0.0,0.0,0.0,0.0
515600,0.004147,-0.003057,0.002692,0.0,0.0,0.0,0.0,0.0,0.0,3.0,0.280564,0.362127,0.27161,0.370549,-0.0,-0.0,-0.0,0.0,0.0,0.0,0.0,0.0,0.0,0.0,0.0,0.0
515620,0.004025,-0.003179,0.002448,0.0,0.0,0.0,0.0,0.0,0.0,3.0,0.28459,0.359314,0.275162,0.368134,-0.0,-0.0,-0.0,-0.0,0.0,0.0,0.0,0.0,0.0,0.0,0.0,0.0
515640,0.004147,-0.003301,0.002327,0.0,0.0,0.0,0.0,0.0,0.0,3.0,0.282721,0.359169,0.277035,0.368322,-0.0,-0.0,-0.0,0.0,0.0,0.0,0.0,0.0,0.0,0.0,0.0,0.0
515660,0.004147,-0.003545,0.002205,0.0,0.0,0.0,0.0,0.0,0.0,3.0,0.28307,0.359993,0.277025,0.367284,-0.0,-0.0,-0.0,-0.0,0.0,0.0,0.0,0.0,0.0,0.0,0.0,0.0
515680,0.004147,-0.003667,0.002083,0.0,0.0,0.0,0.0,0.0,0.0,3.0,0.281717,0.361605,0.275309,0.367815,-0.0,-0.0,-0.0,0.0,-0.0,0.0,0.0,0.0,0.0,0.0,0.0,0.0
515700,0.004147,-0.003788,0.001839,0.0,0.0,0.0,0.0,0.0,0.0,3.0,0.284537,0.359558,0.278224,0.365856,-0.0,-0.0,-0.0,0.0,0.0,0.0,0.0,0.0,0.0,0.0,0.0,0.0
515720,0.004147,-0.00391,0.001717,0.0,0.0,0.0,0.0,0.0,0.0,3.0,0.282194,0.36161,0.276121,0.36693,-0.0,-0.0,-0.0,-0.0,-0.0,0.0,0.0,0.0,0.0,0.0,0.0,0.0
515740,0.004147,-0.004154,0.001596,0.0,0.0,0.0,0.0,0.0,0.0,3.0,0.28267,0.361497,0.275727,0.366974,-0.0,-0.0,-0.0,0.0,0.0,0.0,0.0,0.0,0.0,0.0,0.0,0.0
515760,0.00427,-0.004276,0.001474,0.0,0.0,0.0,0.0,0.0,0.0,3.0,0.282504,0.361306,0.276279,0.366905,-0.0,-0.0,-0.0,0.0,0.0,0.0,0.0,0.0,0.0,0.0,0.0,0.0
515780,0.00427,-0.004153,0.001352,0.0,0.0,0.0,0.0,0.0,0.0,3.0,0.282733,0.360433,0.274722,0.368643,-0.0,-0.0,-0.0,0.0,0.0,0.0,0.0,0.0,0.0,0.0,0.0,0.0
515800,0.00427,-0.004276,0.001352,0.0,0.0,0.0,0.0,0.0,0.0,3.0,0.279556,0.363012,0.272561,0.369753,-0.0,-0.0,-0.0,0.0,-0.0,0.0,0.0,0.0,0.0,0.0,0.0,0.0
515820,0.004148,-0.004275,0.00123,0.0,0.0,0.0,0.0,0.0,0.0,3.0,0.282208,0.361206,0.274325,0.368522,-0.0,-0.0,-0.0,0.0,0.0,0.0,0.0,0.0,0.0,0.0,0.0,0.0
515840,0.004148,-0.004397,0.001108,0.0,0.0,0.0,0.0,0.0,0.0,3.0,0.282396,0.360805,0.274795,0.368467,-0.0,-0.0,-0.0,-0.0,-0.0,0.0,0.0,0.0,0.0,0.0,0.0,0.0
515860,0.004148,-0.004519,0.000986,0.0,0.0,0.0,0.0,0.0,0.0,3.0,0.282259,0.360616,0.276226,0.367786,-0.0,-0.0,-0.0,-0.0,0.0,0.0,0.0,0.0,0.0,0.0,0.0,0.0
515880,0.004149,-0.004397,0.000864,0.0,0.0,0.0,0.0,0.0,0.0,3.0,0.283038,0.358917,0.275919,0.369097,-0.0,-0.0,-0.0,0.0,0.0,0.0,0.0,0.0,0.0,0.0,0.0,0.0
515900,0.004027,-0.004396,0.000863,0.0,0.0,0.0,0.0,0.0,0.0,3.0,0.282933,0.360577,0.2725,0.369836,-0.0,-0.0,-0.0,-0.0,0.0,0.0,0.0,0.0,0.0,0.0,0.0,0.0
515920,0.004027,-0.004518,0.000742,0.0,0.0,0.0,0.0,0.0,0.0,3.0,0.283178,0.360654,0.275064,0.367889,-0.0,-0.0,-0.0,0.0,-0.0,0.0,0.0,0.0,0.0,0.0,0.0,0.0
515940,0.003905,-0.00464,0.00062,0.0,0.0,0.0,0.0,0.0,0.0,3.0,0.286363,0.359201,0.278397,0.364781,-0.0,-0.0,0.0,0.0,-0.0,0.0,0.0,0.0,0.0,0.0,0.0,0.0
515960,0.003783,-0.004884,0.00062,0.0,0.0,0.0,0.0,0.0,0.0,3.0,0.284301,0.361649,0.273958,0.366867,-0.0,-0.0,0.0,0.0,0.0,0.0,0.0,0.0,0.0,0.0,0.0,0.0
515980,0.003783,-0.004884,0.000498,0.0,0.0,0.0,0.0,0.0,0.0,3.0,0.287129,0.358785,0.277134,0.365506,-0.0,-0.0,0.0,0.0,-0.0,0.0,0.0,0.0,0.0,0.0,0.0,0.0
516000,0.003783,-0.004762,0.000497,0.0,0.0,0.0,0.0,0.0,0.0,3.0,0.283777,0.360917,0.274865,0.367346,-0.0,-0.0,0.0,-0.0,0.0,-0.0,0.0,0.0,0.0,0.0,0.0,0.0
516020,0.003784,-0.004518,0.000375,0.0,0.0,0.0,0.0,0.0,0.0,3.0,0.287095,0.358055,0.278434,0.36535,-0.0,-0.0,-0.0,-0.0,0.0,-0.0,0.0,0.0,0.0,0.0,0.0,0.0
516040,0.003784,-0.004518,0.000375,0.0,0.0,0.0,0.0,0.0,0.0,3.0,0.283948,0.360337,0.275158,0.367595,-0.0,-0.0,-0.0,0.0,-0.0,-0.0,0.0,0.0,0.0,0.0,0.0,0.0
516060,0.003784,-0.004639,0.000253,0.0,0.0,0.0,0.0,0.0,0.0,3.0,0.285171,0.359392,0.277374,0.36615,-0.0,-0.0,-0.0,-0.0,0.0,-0.0,0.0,0.0,0.0,0.0,0.0,0.0
516080,0.003784,-0.004639,0.000253,0.0,0.0,0.0,0.0,0.0,0.0,3.0,0.282966,0.359064,0.276379,0.368696,-0.0,-0.0,-0.0,-0.0,0.0,-0.0,0.0,0.0,0.0,0.0,0.0,0.0
516100,0.003662,-0.004517,0.000252,0.0,0.0,0.0,0.0,0.0,0.0,3.0,0.283785,0.358887,0.275334,0.368997,-0.0,-0.0,-0.0,0.0,-0.0,-0.0,0.0,0.0,0.0,0.0,0.0,0.0
516120,0.003662,-0.004273,0.00013,0.0,0.0,0.0,0.0,0.0,0.0,3.0,0.284519,0.357309,0.27845,0.367895,-0.0,-0.0,-0.0,-0.0,0.0,-0.0,0.0,0.0,0.0,0.0,0.0,0.0
516140,0.00354,-0.004151,0.000129,0.0,0.0,0.0,0.0,0.0,0.0,3.0,0.283374,0.359478,0.276362,0.368021,-0.0,-0.0,-0.0,-0.0,-0.0,-0.0,0.0,0.0,0.0,0.0,0.0,0.0
516160,0.003418,-0.004151,0.000129,0.0,0.0,0.0,0.0,0.0,0.0,3.0,0.283507,0.360264,0.276011,0.367401,-0.0,-0.0,-0.0,0.0,0.0,-0.0,0.0,0.0,0.0,0.0,0.0,0.0
516180,0.003418,-0.004395,0.00013,0.0,0.0,0.0,0.0,0.0,0.0,3.0,0.282749,0.361918,0.27675,0.365811,-0.0,-0.0,-0.0,0.0,0.0,-0.0,0.0,0.0,0.0,0.0,0.0,0.0
516200,0.003418,-0.004273,7e-06,0.0,0.0,0.0,0.0,0.0,0.0,3.0,0.284588,0.359222,0.278756,0.365781,-0.0,-0.0,-0.0,0.0,0.0,-0.0,0.0,0.0,0.0,0.0,0.0,0.0
516220,0.003418,-0.004151,7e-06,0.0,0.0,0.0,0.0,0.0,0.0,3.0,0.284169,0.359715,0.276818,0.366924,-0.0,-0.0,-0.0,0.0,-0.0,-0.0,0.0,0.0,0.0,0.0,0.0,0.0
516240,0.003296,-0.003784,6e-06,0.0,0.0,0.0,0.0,0.0,0.0,3.0,0.284829,0.359363,0.275125,0.367943,-0.0,-0.0,-0.0,-0.0,0.0,-0.0,0.0,0.0,0.0,0.0,0.0,0.0
516260,0.003174,-0.003784,6e-06,0.0,0.0,0.0,0.0,0.0,0.0,3.0,0.28255,0.362133,0.272132,0.368832,-0.0,-0.0,-0.0,0.0,0.0,-0.0,0.0,0.0,0.0,0.0,0.0,0.0
516280,0.003052,-0.003662,-0.000117,0.0,0.0,0.0,0.0,0.0,0.0,3.0,0.28561,0.359889,0.2752,0.366828,-0.0,-0.0,-0.0,0.0,-0.0,-0.0,0.0,0.0,0.0,0.0,0.0,0.0
516300,0.00293,-0.003662,-0.000117,0.0,0.0,0.0,0.0,0.0,0.0,3.0,0.285731,0.359317,0.274572,0.367721,-0.0,-0.0,-0.0,-0.0,0.0,-0.0,0.0,0.0,0.0,0.0,0.0,0.0
516320,0.00293,-0.00354,-0.000117,0.0,0.0,0.0,0.0,0.0,0.0,3.0,0.28514,0.359343,0.275158,0.36772,-0.0,-0.0,-0.0,0.0,-0.0,-0.0,0.0,0.0,0.0,0.0,0.0,0.0
516340,0.002808,-0.003296,-0.000117,0.0,0.0,0.0,0.0,0.0,0.0,3.0,0.285618,0.357957,0.274673,0.369045,-0.0,-0.0,-0.0,0.0,0.0,-0.0,0.0,0.0,0.0,0.0,0.0,0.0
516360,0.002686,-0.003296,-0.00024,0.0,0.0,0.0,0.0,0.0,0.0,3.0,0.288359,0.356668,0.2783,0.365876,-0.0,-0.0,-0.0,-0.0,-0.0,-0.0,0.0,0.0,0.0,0.0,0.0,0.0
516380,0.002686,-0.003174,-0.00024,0.0,0.0,0.0,0.0,0.0,0.0,3.0,0.284884,0.357726,0.276242,0.368733,-0.0,-0.0,-0.0,0.0,0.0,-0.0,0.0,0.0,0.0,0.0,0.0,0.0
516400,0.002564,-0.003296,-0.00024,0.0,0.0,0.0,0.0,0.0,0.0,3.0,0.285463,0.358817,0.275274,0.367924,-0.0,-0.0,-0.0,0.0,0.0,-0.0,0.0,0.0,0.0,0.0,0.0,0.0
516420,0.002442,-0.003418,-0.00024,0.0,0.0,0.0,0.0,0.0,0.0,3.0,0.28556,0.359366,0.275148,0.367408,-0.0,-0.0,-0.0,-0.0,0.0,-0.0,0.0,0.0,0.0,0.0,0.0,0.0
516440,0.002442,-0.003418,-0.000362,0.0,0.0,0.0,0.0,0.0,0.0,3.0,0.288361,0.357114,0.278716,0.365155,-0.0,-0.0,-0.0,0.0,-0.0,-0.0,0.0,0.0,0.0,0.0,0.0,0.0
516460,0.00232,-0.003418,-0.000362,0.0,0.0,0.0,0.0,0.0,0.0,3.0,0.288875,0.35774,0.278553,0.364285,-0.0,-0.0,-0.0,0.0,0.0,-0.0,0.0,0.0,0.0,0.0,0.0,0.0
516480,0.00232,-0.00354,-0.000362,0.0,0.0,0.0,0.0,0.0,0.0,3.0,0.288318,0.358482,0.279153,0.363548,-0.0,-0.0,-0.0,0.0,0.0,-0.0,0.0,0.0,0.0,0.0,0.0,0.0
516500,0.00232,-0.00354,-0.000362,0.0,0.0,0.0,0.0,0.0,0.0,3.0,0.288426,0.358421,0.279046,0.363604,-0.0,-0.0,-0.0,-0.0,0.0,-0.0,0.0,0.0,0.0,0.0,0.0,0.0
516520,0.00232,-0.003418,-0.000362,0.0,0.0,0.0,0.0,0.0,0.0,3.0,0.286784,0.35873,0.277317,0.365682,-0.0,-0.0,-0.0,0.0,0.0,-0.0,0.0,0.0,0.0,0.0,0.0,0.0
516540,0.002198,-0.003296,-0.000363,0.0,0.0,0.0,0.0,0.0,0.0,3.0,0.286482,0.358901,0.276554,0.366253,-0.0,-0.0,-0.0,0.0,-0.0,-0.0,0.0,0.0,0.0,0.0,0.0,0.0
516560,0.002198,-0.003296,-0.000363,0.0,0.0,0.0,0.0,0.0,0.0,3.0,0.286308,0.359348,0.276667,0.365865,-0.0,-0.0,-0.0,-0.0,0.0,-0.0,0.0,0.0,0.0,0.0,0.0,0.0
516580,0.002198,-0.003296,-0.000363,0.0,0.0,0.0,0.0,0.0,0.0,3.0,0.285025,0.359239,0.276267,0.367156,-0.0,-0.0,-0.0,0.0,0.0,-0.0,0.0,0.0,0.0,0.0,0.0,0.0
516600,0.002198,-0.003296,-0.000485,0.0,0.0,0.0,0.0,0.0,0.0,3.0,0.286076,0.357438,0.278954,0.366321,-0.0,-0.0,-0.0,0.0,0.0,-0.0,0.0,0.0,0.0,0.0,0.0,0.0
516620,0.002198,-0.003174,-0.000363,0.0,0.0,0.0,0.0,0.0,0.0,3.0,0.284582,0.357991,0.275979,0.368868,-0.0,-0.0,-0.0,-0.0,-0.0,-0.0,0.0,0.0,0.0,0.0,0.0,0.0
516640,0.002076,-0.003174,-0.000363,0.0,0.0,0.0,0.0,0.0,0.0,3.0,0.285429,0.357931,0.275715,0.368507,-0.0,-0.0,-0.0,-0.0,0.0,-0.0,0.0,0.0,0.0,0.0,0.0,0.0
516660,0.001954,-0.003052,-0.000363,0.0,0.0,0.0,0.0,0.0,0.0,3.0,0.285962,0.35768,0.276073,0.368131,-0.0,-0.0,-0.0,0.0,0.0,-0.0,0.0,0.0,0.0,0.0,0.0,0.0
516680,0.001954,-0.003296,-0.000241,0.0,0.0,0.0,0.0,0.0,0.0,3.0,0.28292,0.361388,0.275356,0.367156,-0.0,-0.0,-0.0,0.0,0.0,-0.0,0.0,0.0,0.0,0.0,0.0,0.0
516700,0.001832,-0.003296,-0.000241,0.0,0.0,0.0,0.0,0.0,0.0,3.0,0.285259,0.359627,0.27535,0.367231,-0.0,-0.0,-0.0,0.0,-0.0,-0.0,0.0,0.0,0.0,0.0,0.0,0.0
516720,0.002076,-0.003418,-0.000119,0.0,0.0,0.0,0.0,0.0,0.0,3.0,0.280633,0.362249,0.272836,0.36958,-0.0,-0.0,-0.0,-0.0,-0.0,-0.0,0.0,0.0,0.0,0.0,0.0,0.0
516740,0.002198,-0.003418,-0.000118,0.0,0.0,0.0,0.0,0.0,0.0,3.0,0.283135,0.36059,0.275109,0.36795,-0.0,-0.0,-0.0,0.0,0.0,-0.0,0.0,0.0,0.0,0.0,0.0,0.0
516760,0.00232,-0.003296,-0.000118,0.0,0.0,0.0,0.0,0.0,0.0,3.0,0.284952,0.358972,0.275287,0.368126,-0.0,-0.0,-0.0,0.0,0.0,-0.0,0.0,0.0,0.0,0.0,0.0,0.0
516780,0.002442,-0.003418,-0.000118,0.0,0.0,0.0,0.0,0.0,0.0,3.0,0.285137,0.360107,0.275213,0.366942,-0.0,-0.0,-0.0,-0.0,-0.0,-0.0,0.0,0.0,0.0,0.0,0.0,0.0
516800,0.002442,-0.003418,-0.00024,0.0,0.0,0.0,0.0,0.0,0.0,3.0,0.286208,0.359299,0.275402,0.36684,-0.0,-0.0,-0.0,0.0,-0.0,-0.0,0.0,0.0,0.0,0.0,0.0,0.0
516820,0.002442,-0.003418,-0.00024,0.0,0.0,0.0,0.0,0.0,0.0,3.0,0.285404,0.35946,0.275428,0.367239,-0.0,-0.0,-0.0,0.0,0.0,-0.0,0.0,0.0,0.0,0.0,0.0,0.0
516840,0.002442,-0.00354,-0.00024,0.0,0.0,0.0,0.0,0.0,0.0,3.0,0.284931,0.360043,0.274995,0.367297,-0.0,-0.0,-0.0,-0.0,0.0,-0.0,0.0,0.0,0.0,0.0,0.0,0.0
516860,0.00232,-0.003662,-0.000362,0.0,0.0,0.0,0.0,0.0,0.0,3.0,0.288626,0.357759,0.278449,0.36452,-0.0,-0.0,-0.0,0.0,0.0,-0.0,0.0,0.0,0.0,0.0,0.0,0.0
516880,0.002198,-0.003662,-0.00024,0.0,0.0,0.0,0.0,0.0,0.0,3.0,0.284985,0.35998,0.274448,0.367687,-0.0,-0.0,-0.0,0.0,-0.0,-0.0,0.0,0.0,0.0,0.0,0.0,0.0
516900,0.00232,-0.003662,-0.00024,0.0,0.0,0.0,0.0,0.0,0.0,3.0,0.284665,0.359704,0.275196,0.367679,-0.0,-0.0,-0.0,-0.0,0.0,-0.0,0.0,0.0,0.0,0.0,0.0,0.0
516920,0.002564,-0.00354,-0.00024,0.0,0.0,0.0,0.0,0.0,0.0,3.0,0.283447,0.35859,0.277358,0.368156,-0.0,-0.0,-0.0,0.0,0.0,-0.0,0.0,0.0,0.0,0.0,0.0,0.0
516940,0.002808,-0.003662,-0.000239,0.0,0.0,0.0,0.0,0.0,0.0,3.0,0.283226,0.359866,0.277629,0.366888,-0.0,-0.0,-0.0,0.0,0.0,-0.0,0.0,0.0,0.0,0.0,0.0,0.0
516960,0.00293,-0.003784,-0.000239,0.0,0.0,0.0,0.0,0.0,0.0,3.0,0.283588,0.360531,0.277257,0.366237,-0.0,-0.0,-0.0,0.0,-0.0,-0.0,0.0,0.0,0.0,0.0,0.0,0.0
516980,0.003052,-0.004028,-0.000238,0.0,0.0,0.0,0.0,0.0,0.0,3.0,0.283238,0.361211,0.277608,0.365576,-0.0,-0.0,-0.0,-0.0,-0.0,-0.0,0.0,0.0,0.0,0.0,0.0,0.0
517000,0.003052,-0.00415,-0.000238,0.0,0.0,0.0,0.0,0.0,0.0,3.0,0.283366,0.360982,0.277482,0.365797,-0.0,-0.0,-0.0,0.0,0.0,0.0,0.0,0.0,0.0,0.0,0.0,0.0
517020,0.003174,-0.004028,-0.000238,0.0,0.0,0.0,0.0,0.0,0.0,3.0,0.283305,0.359849,0.277561,0.366895,-0.0,-0.0,-0.0,-0.0,0.0,0.0,0.0,0.0,0.0,0.0,0.0,0.0
517040,0.003297,-0.003906,-0.000238,0.0,0.0,0.0,0.0,0.0,0.0,3.0,0.283673,0.360268,0.277183,0.366485,-0.0,-0.0,-0.0,0.0,0.0,0.0,0.0,0.0,0.0,0.0,0.0,0.0
517060,0.003297,-0.00354,-0.00036,0.0,0.0,0.0,0.0,0.0,0.0,3.0,0.286021,0.357596,0.278661,0.366409,-0.0,-0.0,-0.0,0.0,-0.0,0.0,0.0,0.0,0.0,0.0,0.0,0.0
517080,0.003175,-0.00354,-0.000361,0.0,0.0,0.0,0.0,0.0,0.0,3.0,0.285411,0.358583,0.276917,0.367078,-0.0,-0.0,-0.0,0.0,0.0,0.0,0.0,0.0,0.0,0.0,0.0,0.0
517100,0.003175,-0.003662,-0.00036,0.0,0.0,0.0,0.0,0.0,0.0,3.0,0.284505,0.358899,0.276841,0.367465,-0.0,-0.0,-0.0,-0.0,0.0,0.0,0.0,0.0,0.0,0.0,0.0,0.0
517120,0.003297,-0.003784,-0.000238,0.0,0.0,0.0,0.0,0.0,0.0,3.0,0.281464,0.360425,0.275128,0.369259,-0.0,-0.0,-0.0,0.0,0.0,0.0,0.0,0.0,0.0,0.0,0.0,0.0
517140,0.003541,-0.003784,-0.000237,0.0,0.0,0.0,0.0,0.0,0.0,3.0,0.279963,0.360284,0.275516,0.370167,-0.0,-0.0,-0.0,0.0,-0.0,0.0,0.0,0.0,0.0,0.0,0.0,0.0
517160,0.003663,-0.003662,-0.000237,0.0,0.0,0.0,0.087266,0.0,0.0,3.0,0.40136,0.360227,0.15,0.370266,0.002671,0.0,0.000124,0.405102,5.4e-05,0.016144,0.0,0.0,0.0,0.0,0.0,0.0
517180,0.00403,-0.003539,-0.000603,0.0,0.0,0.0,0.087266,0.0,0.0,3.0,0.335453,0.356089,0.212841,0.365751,0.011942,1e-06,0.000442,0.510453,0.000284,0.015313,0.0,0.0,0.0,0.0,0.0,0.0
517200,0.004763,-0.003659,-0.001212,0.0,0.0,0.0,0.087266,0.0,0.0,3.0,0.331951,0.352954,0.234998,0.360891,0.022211,4e-06,0.00074,0.51336,0.00051,0.014221,0.0,0.0,0.0,0.0,0.0,0.0
517220,0.006596,-0.004145,-0.001696,0.0,0.0,0.0,0.087266,0.0,0.0,3.0,0.327901,0.354703,0.242008,0.358884,0.032416,8e-06,0.001016,0.504022,0.000703,0.013077,0.0,0.0,0.0,0.0,0.0,0.0
517240,0.010014,-0.004263,-0.001932,0.0,0.0,0.0,0.087266,0.0,0.0,3.0,0.316726,0.356296,0.248952,0.362899,0.042403,1.4e-05,0.001269,0.490854,0.000857,0.011904,0.0,0.0,0.0,0.0,0.0,0.0
517260,0.014776,-0.0045,-0.002164,0.0,0.0,0.0,0.087266,0.0,0.0,3.0,0.313255,0.355714,0.255378,0.36248,0.049709,2e-05,0.001444,0.479252,0.000947,0.01101,0.0,0.0,0.0,0.0,0.0,0.0
517280,0.02088,-0.004613,-0.002393,0.0,0.0,0.0,0.087266,0.0,0.0,3.0,0.300919,0.356639,0.270025,0.362078,0.061477,3e-05,0.001705,0.45735,0.001053,0.009507,0.0,0.0,0.0,0.0,0.0,0.0
517300,0.028205,-0.004236,-0.002503,0.0,0.0,0.0,0.087266,0.0,0.0,3.0,0.290956,0.356031,0.278209,0.364662,0.070481,4e-05,0.001887,0.438041,0.001097,0.008302,0.0,0.0,0.0,0.0,0.0,0.0
517320,0.036507,-0.003857,-0.002614,0.0,0.0,0.0,0.087266,0.0,0.0,3.0,0.281378,0.356382,0.288049,0.364239,0.07909,5.1e-05,0.002045,0.417577,0.001108,0.007104,0.0,0.0,0.0,0.0,0.0,0.0
517340,0.045665,-0.003475,-0.002726,0.0,0.0,0.0,0.087266,0.0,0.0,3.0,0.272468,0.356104,0.296688,0.364216,0.087283,6.2e-05,0.00218,0.396306,0.001088,0.005921,0.0,0.0,0.0,0.0,0.0,0.0
517360,0.055556,-0.003213,-0.002837,0.0,0.0,0.0,0.087266,0.0,0.0,3.0,0.262408,0.355731,0.305559,0.36428,0.095046,7.3e-05,0.002291,0.374531,0.001041,0.004761,0.0,0.0,0.0,0.0,0.0,0.0
517380,0.065812,-0.002706,-0.002958,0.0,0.0,0.0,0.087266,0.0,0.0,3.0,0.25343,0.354036,0.313133,0.365383,0.102372,8.5e-05,0.002379,0.352514,0.000968,0.003629,0.0,0.0,0.0,0.0,0.0,0.0
517400,0.076565,-0.002192,-0.003205,0.0,0.0,0.0,0.087266,0.0,0.0,3.0,0.246943,0.351202,0.324198,0.362672,0.109257,9.7e-05,0.002445,0.330479,0.000873,0.002534,0.0,0.0,0.0,0.0,0.0,0.0
517420,0.087313,-0.00168,-0.003335,0.0,0.0,0.0,0.087266,0.0,0.0,3.0,0.237475,0.351594,0.327862,0.364459,0.115702,0.000109,0.002489,0.308619,0.000759,0.001479,0.0,0.0,0.0,0.0,0.0,0.0
517440,0.097944,-0.001034,-0.00372,0.0,0.0,0.0,0.087266,0.0,0.0,3.0,0.235479,0.347295,0.336317,0.362123,0.121713,0.00012,0.002513,0.287094,0.00063,0.000472,0.0,0.0,0.0,0.0,0.0,0.0
517460,0.108092,-0.000148,-0.004003,0.0,0.0,0.0,0.087266,0.0,0.0,3.0,0.228156,0.348038,0.336822,0.364817,0.127296,0.000131,0.002517,0.26604,0.000488,-0.000484,0.0,0.0,0.0,0.0,0.0,0.0
517480,0.11799,0.000747,-0.004416,0.0,0.0,0.0,0.087266,0.0,0.0,3.0,0.223861,0.346029,0.34104,0.365028,0.132462,0.000142,0.002501,0.245568,0.000335,-0.001385,0.0,0.0,0.0,0.0,0.0,0.0
517500,0.127041,0.001894,-0.004975,0.0,0.0,0.0,0.087266,0.0,0.0,3.0,0.229022,0.341708,0.345197,0.36258,0.137224,0.000152,0.002468,0.225767,0.000176,-0.002228,0.0,0.0,0.0,0.0,0.0,0.0
517520,0.135475,0.002913,-0.005411,0.0,0.0,0.0,0.087266,0.0,0.0,3.0,0.229916,0.340677,0.346228,0.3621,0.141595,0.000161,0.002418,0.206708,1.3e-05,-0.003008,0.0,0.0,0.0,0.0,0.0,0.0
517540,0.142934,0.003932,-0.005854,0.0,0.0,0.0,0.087266,0.0,0.0,3.0,0.230878,0.34024,0.346783,0.361476,0.145591,0.00017,0.002353,0.188446,-0.000152,-0.003725,0.0,0.0,0.0,0.0,0.0,0.0
517560,0.149662,0.004708,-0.006284,0.0,0.0,0.0,0.087266,0.0,0.0,3.0,0.22992,0.3407,0.348019,0.360378,0.149228,0.000177,0.002274,0.171018,-0.000316,-0.004376,0.0,0.0,0.0,0.0,0.0,0.0
517580,0.155296,0.00523,-0.006577,0.0,0.0,0.0,0.087266,0.0,0.0,3.0,0.22615,0.342764,0.345829,0.36248,0.152522,0.000183,0.002182,0.154453,-0.000477,-0.00496,0.0,0.0,0.0,0.0,0.0,0.0
517600,0.160068,0.005759,-0.006991,0.0,0.0,0.0,0.087266,0.0,0.0,3.0,0.231954,0.339794,0.347879,0.360276,0.155492,0.000189,0.002078,0.138764,-0.000634,-0.005477,0.0,0.0,0.0,0.0,0.0,0.0
517620,0.163867,0.006156,-0.007274,0.0,0.0,0.0,0.087266,0.0,0.0,3.0,0.230638,0.34127,0.345266,0.362081,0.158155,0.000193,0.001965,0.123959,-0.000784,-0.005927,0.0,0.0,0.0,0.0,0.0,0.0
517640,0.166684,0.006317,-0.007656,0.0,0.0,0.0,0.087266,0.0,0.0,3.0,0.235267,0.341892,0.343484,0.360704,0.160529,0.000195,0.001842,0.110033,-0.000926,-0.00631,0.0,0.0,0.0,0.0,0.0,0.0
517660,0.168639,0.006344,-0.007904,0.0,0.0,0.0,0.087266,0.0,0.0,3.0,0.239161,0.342592,0.340395,0.360785,0.16263,0.000197,0.001712,0.096977,-0.001058,-0.006626,0.0,0.0,0.0,0.0,0.0,0.0
517680,0.169986,0.00638,-0.008272,0.0,0.0,0.0,0.087266,0.0,0.0,3.0,0.246345,0.340707,0.340559,0.358277,0.164477,0.000197,0.001576,0.084776,-0.00118,-0.006878,0.0,0.0,0.0,0.0,0.0,0.0
517700,0.170472,0.006524,-0.008527,0.0,0.0,0.0,0.087266,0.0,0.0,3.0,0.249537,0.341759,0.336178,0.35945,0.166086,0.000196,0.001434,0.073409,-0.00129,-0.007067,0.0,0.0,0.0,0.0,0.0,0.0
517720,0.170227,0.006666,-0.00878,0.0,0.0,0.0,0.087266,0.0,0.0,3.0,0.254794,0.340872,0.333416,0.359595,0.167473,0.000193,0.001289,0.06285,-0.001388,-0.007194,0.0,0.0,0.0,0.0,0.0,0.0
517740,0.169366,0.006308,-0.008868,0.0,0.0,0.0,0.087266,0.0,0.0,3.0,0.255912,0.344901,0.329071,0.359014,0.168656,0.000189,0.001142,0.053073,-0.001474,-0.007263,0.0,0.0,0.0,0.0,0.0,0.0
517760,0.168272,0.006071,-0.008968,0.0,0.0,0.0,0.087266,0.0,0.0,3.0,0.257742,0.344349,0.328251,0.35912,0.169648,0.000184,0.000994,0.044046,-0.001546,-0.007275,0.0,0.0,0.0,0.0,0.0,0.0
517780,0.16729,0.005833,-0.009066,0.0,0.0,0.0,0.087266,0.0,0.0,3.0,0.258908,0.343311,0.329256,0.358471,0.170466,0.000178,0.000845,0.035738,-0.001605,-0.007235,0.0,0.0,0.0,0.0,0.0,0.0
517800,0.166561,0.005597,-0.009167,0.0,0.0,0.0,0.087266,0.0,0.0,3.0,0.257809,0.343727,0.330268,0.357866,0.171122,0.00017,0.000698,0.028114,-0.001651,-0.007145,0.0,0.0,0.0,0.0,0.0,0.0
517820,0.165699,0.005472,-0.009154,0.0,0.0,0.0,0.087266,0.0,0.0,3.0,0.256793,0.343714,0.328861,0.359774,0.171631,0.000162,0.000552,0.02114,-0.001684,-0.007008,0.0,0.0,0.0,0.0,0.0,0.0
517840,0.16496,0.005235,-0.009253,0.0,0.0,0.0,0.087266,0.0,0.0,3.0,0.257264,0.344043,0.329078,0.358976,0.172005,0.000152,0.00041,0.01478,-0.001703,-0.006828,0.0,0.0,0.0,0.0,0.0,0.0
517860,0.164353,0.005,-0.009354,0.0,0.0,0.0,0.087266,0.0,0.0,3.0,0.256322,0.343394,0.330411,0.358986,0.172257,0.000141,0.000271,0.009,-0.00171,-0.006608,0.0,0.0,0.0,0.0,0.0,0.0
517880,0.163866,0.004886,-0.009466,0.0,0.0,0.0,0.087266,0.0,0.0,3.0,0.259164,0.342087,0.330905,0.357984,0.172397,0.00013,0.000137,0.003765,-0.001705,-0.006353,0.0,0.0,0.0,0.0,0.0,0.0
517900,0.163501,0.004894,-0.009587,0.0,0.0,0.0,0.087266,0.0,0.0,3.0,0.260003,0.341245,0.331073,0.358088,0.172436,0.000118,8e-06,-0.00096,-0.001689,-0.006066,0.0,0.0,0.0,0.0,0.0,0.0
517920,0.163371,0.00465,-0.009566,0.0,0.0,0.0,0.087266,0.0,0.0,3.0,0.256432,0.344168,0.330297,0.358289,0.172384,0.000105,-0.000115,-0.005208,-0.001661,-0.005751,0.0,0.0,0.0,0.0,0.0,0.0
517940,0.163624,0.004652,-0.009567,0.0,0.0,0.0,0.087266,0.0,0.0,3.0,0.251386,0.344741,0.331329,0.359925,0.172251,9.2e-05,-0.000232,-0.009013,-0.001623,-0.005411,0.0,0.0,0.0,0.0,0.0,0.0
517960,0.163502,0.004651,-0.009567,0.0,0.0,0.0,0.087266,0.0,0.0,3.0,0.257517,0.341097,0.335101,0.35614,0.172102,8.2e-05,-0.000315,-0.011594,-0.001588,-0.005143,0.0,0.0,0.0,0.0,0.0,0.0
517980,0.163867,0.004774,-0.009577,0.0,0.0,0.0,0.087266,0.0,0.0,3.0,0.25167,0.343664,0.333143,0.359136,0.171773,6.5e-05,-0.000443,-0.015416,-0.001518,-0.004674,0.0,0.0,0.0,0.0,0.0,0.0
518000,0.164111,0.004654,-0.009568,0.0,0.0,0.0,0.087266,0.0,0.0,3.0,0.250286,0.343548,0.334813,0.358565,0.171444,5.1e-05,-0.000538,-0.018075,-0.001454,-0.004284,0.0,0.0,0.0,0.0,0.0,0.0
518020,0.164111,0.004654,-0.009568,0.0,0.0,0.0,0.087266,0.0,0.0,3.0,0.254519,0.343679,0.3331,0.357412,0.171065,3.7e-05,-0.000624,-0.02041,-0.001382,-0.003884,0.0,0.0,0.0,0.0,0.0,0.0
518040,0.164111,0.004644,-0.009446,0.0,0.0,0.0,0.087266,0.0,0.0,3.0,0.253377,0.343959,0.332019,0.358831,0.170641,2.3e-05,-0.000702,-0.022447,-0.001305,-0.003477,0.0,0.0,0.0,0.0,0.0,0.0
518060,0.163868,0.004643,-0.009446,0.0,0.0,0.0,0.087266,0.0,0.0,3.0,0.255082,0.343597,0.331506,0.358583,0.170178,9e-06,-0.000772,-0.024212,-0.001221,-0.003068,0.0,0.0,0.0,0.0,0.0,0.0
518080,0.163867,0.004754,-0.009334,0.0,0.0,0.0,0.087266,0.0,0.0,3.0,0.251648,0.344383,0.331192,0.360226,0.169682,-5e-06,-0.000833,-0.025729,-0.001134,-0.002659,0.0,0.0,0.0,0.0,0.0,0.0
518100,0.163624,0.004753,-0.009334,0.0,0.0,0.0,0.087266,0.0,0.0,3.0,0.25373,0.344284,0.330834,0.359372,0.169158,-1.8e-05,-0.000887,-0.02702,-0.001042,-0.002253,0.0,0.0,0.0,0.0,0.0,0.0
518120,0.163502,0.004865,-0.009222,0.0,0.0,0.0,0.087266,0.0,0.0,3.0,0.250518,0.346023,0.328899,0.361395,0.168609,-3.1e-05,-0.000931,-0.028105,-0.000948,-0.001853,0.0,0.0,0.0,0.0,0.0,0.0
518140,0.163492,0.004986,-0.00923,0.0,0.0,0.0,0.087266,0.0,0.0,3.0,0.250811,0.343256,0.332393,0.360714,0.16804,-4.3e-05,-0.000968,-0.029006,-0.000852,-0.001461,0.0,0.0,0.0,0.0,0.0,0.0
518160,0.163369,0.005107,-0.00924,0.0,0.0,0.0,0.087266,0.0,0.0,3.0,0.253485,0.343635,0.331188,0.359818,0.167454,-5.5e-05,-0.000997,-0.02974,-0.000755,-0.00108,0.0,0.0,0.0,0.0,0.0,0.0
518180,0.163247,0.005228,-0.00925,0.0,0.0,0.0,0.087266,0.0,0.0,3.0,0.254145,0.343545,0.330893,0.359762,0.166854,-6.6e-05,-0.001018,-0.030324,-0.000658,-0.000712,0.0,0.0,0.0,0.0,0.0,0.0
518200,0.163125,0.005228,-0.00925,0.0,0.0,0.0,0.087266,0.0,0.0,3.0,0.250048,0.345019,0.331973,0.359888,0.166398,-7.3e-05,-0.001029,-0.030673,-0.000585,-0.000445,0.0,0.0,0.0,0.0,0.0,0.0
518220,0.163246,0.00535,-0.00926,0.0,0.0,0.0,0.087266,0.0,0.0,3.0,0.25355,0.342331,0.334522,0.359823,0.165781,-8.3e-05,-0.001037,-0.031032,-0.000488,-0.000104,0.0,0.0,0.0,0.0,0.0,0.0
518240,0.163246,0.00535,-0.00926,0.0,0.0,0.0,0.087266,0.0,0.0,3.0,0.253051,0.342181,0.333525,0.359344,0.165002,-9.4e-05,-0.001037,-0.031329,-0.000369,0.000298,0.0,0.0,0.0,0.0,0.0,0.0
518260,0.163003,0.005349,-0.00926,0.0,0.0,0.0,0.087266,0.0,0.0,3.0,0.254547,0.341853,0.332702,0.359476,0.164375,-0.000102,-0.00103,-0.031461,-0.000277,0.000597,0.0,0.0,0.0,0.0,0.0,0.0
518280,0.162882,0.005227,-0.00925,0.0,0.0,0.0,0.087266,0.0,0.0,3.0,0.253162,0.341991,0.333654,0.359337,0.163745,-0.000109,-0.001017,-0.03151,-0.000188,0.000876,0.0,0.0,0.0,0.0,0.0,0.0
518300,0.163004,0.005227,-0.00925,0.0,0.0,0.0,0.087266,0.0,0.0,3.0,0.252326,0.342649,0.334023,0.358895,0.163115,-0.000116,-0.000998,-0.031487,-0.000102,0.001133,0.0,0.0,0.0,0.0,0.0,0.0
518320,0.162883,0.005105,-0.00924,0.0,0.0,0.0,0.087266,0.0,0.0,3.0,0.252677,0.342995,0.333714,0.358635,0.162486,-0.000121,-0.000974,-0.031402,-1.9e-05,0.001369,0.0,0.0,0.0,0.0,0.0,0.0
518340,0.162518,0.005104,-0.00924,0.0,0.0,0.0,0.087266,0.0,0.0,3.0,0.255553,0.342561,0.331986,0.358836,0.161859,-0.000125,-0.000946,-0.031264,5.9e-05,0.001582,0.0,0.0,0.0,0.0,0.0,0.0
518360,0.162396,0.005103,-0.00924,0.0,0.0,0.0,0.087266,0.0,0.0,3.0,0.254442,0.342065,0.333006,0.359068,0.161235,-0.000129,-0.000913,-0.03108,0.000133,0.001772,0.0,0.0,0.0,0.0,0.0,0.0
518380,0.162396,0.005103,-0.00924,0.0,0.0,0.0,0.087266,0.0,0.0,3.0,0.252588,0.342963,0.333976,0.358482,0.160615,-0.000132,-0.000876,-0.030856,0.000202,0.001939,0.0,0.0,0.0,0.0,0.0,0.0
518400,0.162274,0.005103,-0.00924,0.0,0.0,0.0,0.087266,0.0,0.0,3.0,0.25289,0.343256,0.333721,0.358253,0.159999,-0.000134,-0.000836,-0.0306,0.000266,0.002083,0.0,0.0,0.0,0.0,0.0,0.0
518420,0.162032,0.004848,-0.009098,0.0,0.0,0.0,0.087266,0.0,0.0,3.0,0.248951,0.346831,0.330429,0.360206,0.159389,-0.000135,-0.000804,-0.03039,0.000311,0.002176,0.0,0.0,0.0,0.0,0.0,0.0
518440,0.161901,0.004857,-0.009218,0.0,0.0,0.0,0.087266,0.0,0.0,3.0,0.253183,0.342655,0.334129,0.358268,0.158785,-0.000135,-0.000747,-0.030013,0.000378,0.002303,0.0,0.0,0.0,0.0,0.0,0.0
518460,0.161778,0.004979,-0.009228,0.0,0.0,0.0,0.087266,0.0,0.0,3.0,0.254099,0.341494,0.333788,0.359106,0.158187,-0.000135,-0.0007,-0.029691,0.000426,0.002381,0.0,0.0,0.0,0.0,0.0,0.0
518480,0.161657,0.004978,-0.009228,0.0,0.0,0.0,0.087266,0.0,0.0,3.0,0.253803,0.342501,0.333646,0.358471,0.157596,-0.000134,-0.000663,-0.02944,0.000459,0.002425,0.0,0.0,0.0,0.0,0.0,0.0
518500,0.161292,0.004977,-0.009227,0.0,0.0,0.0,0.087266,0.0,0.0,3.0,0.254789,0.342525,0.333028,0.358402,0.157012,-0.000132,-0.000601,-0.029009,0.000506,0.002472,0.0,0.0,0.0,0.0,0.0,0.0
518520,0.161048,0.004985,-0.009349,0.0,0.0,0.0,0.087266,0.0,0.0,3.0,0.259527,0.340215,0.335287,0.355516,0.156434,-0.000129,-0.000551,-0.028657,0.000538,0.002489,0.0,0.0,0.0,0.0,0.0,0.0
518540,0.160803,0.005228,-0.009368,0.0,0.0,0.0,0.087266,0.0,0.0,3.0,0.258083,0.340508,0.337413,0.357754,0.156005,-0.000127,-0.000512,-0.02839,0.000558,0.002488,0.0,0.0,0.0,0.0,0.0,0.0
518560,0.160427,0.005469,-0.009386,0.0,0.0,0.0,0.087266,0.0,0.0,3.0,0.256373,0.341766,0.332702,0.358424,0.1553,-0.000122,-0.000449,-0.027943,0.000585,0.002466,0.0,0.0,0.0,0.0,0.0,0.0
518580,0.159939,0.005711,-0.009405,0.0,0.0,0.0,0.087266,0.0,0.0,3.0,0.252958,0.342735,0.331986,0.360268,0.154744,-0.000118,-0.000399,-0.027584,0.000601,0.002429,0.0,0.0,0.0,0.0,0.0,0.0
518600,0.159575,0.005597,-0.009517,0.0,0.0,0.0,0.087266,0.0,0.0,3.0,0.256502,0.341819,0.334415,0.356731,0.154195,-0.000114,-0.000349,-0.027228,0.000612,0.002377,0.0,0.0,0.0,0.0,0.0,0.0
518620,0.159331,0.005596,-0.009516,0.0,0.0,0.0,0.087266,0.0,0.0,3.0,0.255369,0.341631,0.335048,0.357039,0.153653,-0.000109,-0.000301,-0.026876,0.000618,0.002311,0.0,0.0,0.0,0.0,0.0,0.0
518640,0.158835,0.005594,-0.009514,0.0,0.0,0.0,0.087266,0.0,0.0,3.0,0.25648,0.342292,0.332929,0.357656,0.153118,-0.000104,-0.000254,-0.026527,0.00062,0.002253,0.0,0.0,0.0,0.0,0.0,0.0
518660,0.158591,0.005715,-0.009524,0.0,0.0,0.0,0.087266,0.0,0.0,3.0,0.255791,0.341898,0.333609,0.35784,0.15259,-9.8e-05,-0.000208,-0.026185,0.000617,0.002142,0.0,0.0,0.0,0.0,0.0,0.0
518680,0.158226,0.005713,-0.009523,0.0,0.0,0.0,0.087266,0.0,0.0,3.0,0.25614,0.341554,0.333565,0.357986,0.152069,-9.2e-05,-0.000165,-0.025848,0.00061,0.002041,0.0,0.0,0.0,0.0,0.0,0.0
518700,0.158104,0.005722,-0.009645,0.0,0.0,0.0,0.087266,0.0,0.0,3.0,0.25918,0.339822,0.336227,0.355238,0.151555,-8.6e-05,-0.000123,-0.025519,0.000603,0.00196,0.0,0.0,0.0,0.0,0.0,0.0
518720,0.158103,0.005844,-0.009654,0.0,0.0,0.0,0.087266,0.0,0.0,3.0,0.255181,0.340828,0.335125,0.35784,0.151047,-8e-05,-8.4e-05,-0.025197,0.000586,0.001814,0.0,0.0,0.0,0.0,0.0,0.0
518740,0.157982,0.005722,-0.009645,0.0,0.0,0.0,0.087266,0.0,0.0,3.0,0.254023,0.34217,0.335248,0.357184,0.150545,-7.4e-05,-4.8e-05,-0.024883,0.000569,0.00169,0.0,0.0,0.0,0.0,0.0,0.0
518760,0.15786,0.005721,-0.009645,0.0,0.0,0.0,0.087266,0.0,0.0,3.0,0.25359,0.34142,0.335336,0.358078,0.15005,-6.8e-05,-1.4e-05,-0.024577,0.000549,0.001561,0.0,0.0,0.0,0.0,0.0,0.0
518780,0.157617,0.005598,-0.009635,0.0,0.0,0.0,0.087266,0.0,0.0,3.0,0.254886,0.342376,0.334125,0.357482,0.14956,-6.2e-05,1.8e-05,-0.02428,0.000526,0.001427,0.0,0.0,0.0,0.0,0.0,0.0
518800,0.157495,0.00572,-0.009644,0.0,0.0,0.0,0.087266,0.0,0.0,3.0,0.254931,0.341425,0.33506,0.357495,0.149077,-5.6e-05,4.7e-05,-0.02399,0.000501,0.001291,0.0,0.0,0.0,0.0,0.0,0.0
518820,0.156999,0.005595,-0.009632,0.0,0.0,0.0,0.087266,0.0,0.0,3.0,0.256996,0.341547,0.333685,0.357345,0.148599,-5e-05,7.3e-05,-0.02371,0.000474,0.001154,0.0,0.0,0.0,0.0,0.0,0.0
518840,0.156757,0.005473,-0.009623,0.0,0.0,0.0,0.087266,0.0,0.0,3.0,0.256489,0.342121,0.333895,0.356931,0.148127,-4.4e-05,9.6e-05,-0.023437,0.000446,0.001015,0.0,0.0,0.0,0.0,0.0,0.0
518860,0.156636,0.005351,-0.009613,0.0,0.0,0.0,0.087266,0.0,0.0,3.0,0.255911,0.342171,0.33434,0.356839,0.14766,-3.8e-05,0.000116,-0.023172,0.000416,0.000877,0.0,0.0,0.0,0.0,0.0,0.0
518880,0.156392,0.00535,-0.009613,0.0,0.0,0.0,0.087266,0.0,0.0,3.0,0.256852,0.342546,0.333617,0.356555,0.147199,-3.2e-05,0.000134,-0.022916,0.000393,0.000774,0.0,0.0,0.0,0.0,0.0,0.0
518900,0.156027,0.005348,-0.009612,0.0,0.0,0.0,0.087266,0.0,0.0,3.0,0.256311,0.341546,0.334434,0.357092,0.146742,-2.7e-05,0.000148,-0.022667,0.000353,0.000606,0.0,0.0,0.0,0.0,0.0,0.0
518920,0.155532,0.005214,-0.009479,0.0,0.0,0.0,0.087266,0.0,0.0,3.0,0.260238,0.339343,0.334714,0.356406,0.146403,-2.3e-05,0.000158,-0.022485,0.000329,0.000507,0.0,0.0,0.0,0.0,0.0,0.0
518940,0.155288,0.005335,-0.009488,0.0,0.0,0.0,0.087266,0.0,0.0,3.0,0.256073,0.340444,0.33467,0.358059,0.145844,-1.7e-05,0.00017,-0.022192,0.000289,0.000347,0.0,0.0,0.0,0.0,0.0,0.0
518960,0.154923,0.005334,-0.009488,0.0,0.0,0.0,0.087266,0.0,0.0,3.0,0.257403,0.341158,0.333744,0.357401,0.145402,-1.2e-05,0.000177,-0.021965,0.000256,0.000224,0.0,0.0,0.0,0.0,0.0,0.0
518980,0.154679,0.005332,-0.009488,0.0,0.0,0.0,0.087266,0.0,0.0,3.0,0.260366,0.338948,0.336375,0.355158,0.144964,-8e-06,0.000181,-0.021744,0.000224,0.000107,0.0,0.0,0.0,0.0,0.0,0.0
519000,0.154438,0.004957,-0.009338,0.0,0.0,0.0,0.087266,0.0,0.0,3.0,0.255987,0.34236,0.333847,0.357064,0.144531,-4e-06,0.000183,-0.02153,0.000192,-5e-06,0.0,0.0,0.0,0.0,0.0,0.0
519020,0.154439,0.004826,-0.009206,0.0,0.0,0.0,0.087266,0.0,0.0,3.0,0.254846,0.342174,0.334242,0.357591,0.144102,-0.0,0.000182,-0.021323,0.00016,-0.000111,0.0,0.0,0.0,0.0,0.0,0.0
519040,0.154438,0.004948,-0.009216,0.0,0.0,0.0,0.087266,0.0,0.0,3.0,0.254819,0.340029,0.335645,0.358335,0.143677,3e-06,0.00018,-0.021121,0.00013,-0.00021,0.0,0.0,0.0,0.0,0.0,0.0
519060,0.154308,0.004937,-0.009092,0.0,0.0,0.0,0.087266,0.0,0.0,3.0,0.254053,0.342241,0.33406,0.358186,0.143256,6e-06,0.000175,-0.020925,0.0001,-0.000302,0.0,0.0,0.0,0.0,0.0,0.0
519080,0.15444,0.004807,-0.008963,0.0,0.0,0.0,0.087266,0.0,0.0,3.0,0.250304,0.343319,0.335976,0.357705,0.142839,9e-06,0.000169,-0.020734,7.2e-05,-0.000387,0.0,0.0,0.0,0.0,0.0,0.0
519100,0.154309,0.004684,-0.008952,0.0,0.0,0.0,0.087266,0.0,0.0,3.0,0.252172,0.342229,0.336218,0.357376,0.142426,1.1e-05,0.000161,-0.020548,4.5e-05,-0.000464,0.0,0.0,0.0,0.0,0.0,0.0
519120,0.154309,0.004675,-0.00883,0.0,0.0,0.0,0.087266,0.0,0.0,3.0,0.252204,0.343019,0.335234,0.357515,0.142016,1.3e-05,0.000151,-0.020367,1.9e-05,-0.000533,0.0,0.0,0.0,0.0,0.0,0.0
519140,0.154066,0.004786,-0.008718,0.0,0.0,0.0,0.087266,0.0,0.0,3.0,0.253469,0.341638,0.334138,0.359041,0.14161,1.5e-05,0.00014,-0.02019,-5e-06,-0.000595,0.0,0.0,0.0,0.0,0.0,0.0
519160,0.153701,0.004663,-0.008708,0.0,0.0,0.0,0.087266,0.0,0.0,3.0,0.257384,0.3418,0.334695,0.355935,0.141208,1.7e-05,0.000128,-0.020017,-2.8e-05,-0.000649,0.0,0.0,0.0,0.0,0.0,0.0
519180,0.153457,0.004775,-0.008596,0.0,0.0,0.0,0.087266,0.0,0.0,3.0,0.252524,0.343092,0.334375,0.358036,0.140908,1.7e-05,0.000118,-0.01989,-4.4e-05,-0.000685,0.0,0.0,0.0,0.0,0.0,0.0
519200,0.153214,0.004774,-0.008595,0.0,0.0,0.0,0.087266,0.0,0.0,3.0,0.256252,0.342005,0.333117,0.357899,0.140413,1.9e-05,0.000101,-0.019684,-6.8e-05,-0.000734,0.0,0.0,0.0,0.0,0.0,0.0
519220,0.153092,0.004886,-0.008483,0.0,0.0,0.0,0.087266,0.0,0.0,3.0,0.255124,0.342212,0.332539,0.358931,0.140021,1.9e-05,8.6e-05,-0.019522,-8.6e-05,-0.000765,0.0,0.0,0.0,0.0,0.0,0.0
519240,0.152849,0.004763,-0.008473,0.0,0.0,0.0,0.087266,0.0,0.0,3.0,0.254515,0.342959,0.333766,0.35749,0.139631,2e-05,7e-05,-0.019364,-0.000102,-0.000789,0.0,0.0,0.0,0.0,0.0,0.0
519260,0.152849,0.004875,-0.008361,0.0,0.0,0.0,0.087266,0.0,0.0,3.0,0.250046,0.342858,0.335597,0.358644,0.139245,2e-05,5.4e-05,-0.019209,-0.000116,-0.000806,0.0,0.0,0.0,0.0,0.0,0.0
519280,0.152596,0.004996,-0.008369,0.0,0.0,0.0,0.087266,0.0,0.0,3.0,0.25254,0.341967,0.335313,0.358229,0.138862,1.9e-05,3.7e-05,-0.019057,-0.000129,-0.000816,0.0,0.0,0.0,0.0,0.0,0.0
519300,0.152352,0.005229,-0.008265,0.0,0.0,0.0,0.087266,0.0,0.0,3.0,0.251854,0.342955,0.333086,0.359744,0.138482,1.9e-05,2.1e-05,-0.018907,-0.000139,-0.00082,0.0,0.0,0.0,0.0,0.0,0.0
519320,0.151986,0.00535,-0.008274,0.0,0.0,0.0,0.087266,0.0,0.0,3.0,0.255092,0.341308,0.333613,0.358826,0.138105,1.9e-05,4e-06,-0.01876,-0.000148,-0.000817,0.0,0.0,0.0,0.0,0.0,0.0
519340,0.151864,0.005462,-0.008161,0.0,0.0,0.0,0.087266,0.0,0.0,3.0,0.25312,0.341172,0.334379,0.359471,0.137731,1.8e-05,-1.2e-05,-0.018616,-0.000156,-0.000809,0.0,0.0,0.0,0.0,0.0,0.0
519360,0.151864,0.005574,-0.008049,0.0,0.0,0.0,0.087266,0.0,0.0,3.0,0.250891,0.340566,0.335315,0.360535,0.13736,1.7e-05,-2.5e-05,-0.018509,-0.00016,-0.000799,0.0,0.0,0.0,0.0,0.0,0.0
519380,0.151743,0.005564,-0.007927,0.0,0.0,0.0,0.087266,0.0,0.0,3.0,0.247661,0.344433,0.332491,0.361392,0.136991,1.6e-05,-4.5e-05,-0.018333,-0.000165,-0.000776,0.0,0.0,0.0,0.0,0.0,0.0
519400,0.151622,0.005433,-0.007796,0.0,0.0,0.0,0.087266,0.0,0.0,3.0,0.245769,0.345389,0.332953,0.361184,0.136626,1.5e-05,-6e-05,-0.018195,-0.000168,-0.000753,0.0,0.0,0.0,0.0,0.0,0.0
519420,0.151501,0.005189,-0.007777,0.0,0.0,0.0,0.087266,0.0,0.0,3.0,0.250705,0.34317,0.334957,0.358537,0.136263,1.4e-05,-7.2e-05,-0.018092,-0.000169,-0.000732,0.0,0.0,0.0,0.0,0.0,0.0
519440,0.151501,0.00518,-0.007656,0.0,0.0,0.0,0.087266,0.0,0.0,3.0,0.250598,0.343201,0.334532,0.35896,0.135903,1.2e-05,-9e-05,-0.017923,-0.000169,-0.000693,0.0,0.0,0.0,0.0,0.0,0.0
519460,0.151379,0.005301,-0.007665,0.0,0.0,0.0,0.087266,0.0,0.0,3.0,0.251841,0.34207,0.334701,0.359118,0.135545,1e-05,-0.000104,-0.01779,-0.000168,-0.000658,0.0,0.0,0.0,0.0,0.0,0.0
519480,0.151127,0.005291,-0.007541,0.0,0.0,0.0,0.087266,0.0,0.0,3.0,0.252191,0.34304,0.333341,0.359228,0.13519,9e-06,-0.000117,-0.017659,-0.000165,-0.000621,0.0,0.0,0.0,0.0,0.0,0.0
519500,0.151128,0.005151,-0.007289,0.0,0.0,0.0,0.087266,0.0,0.0,3.0,0.244909,0.347716,0.330909,0.361305,0.134926,8e-06,-0.000127,-0.017561,-0.000162,-0.000591,0.0,0.0,0.0,0.0,0.0,0.0
519520,0.151128,0.005029,-0.007279,0.0,0.0,0.0,0.087266,0.0,0.0,3.0,0.250874,0.343304,0.334085,0.359102,0.134489,6e-06,-0.000141,-0.0174,-0.000157,-0.000538,0.0,0.0,0.0,0.0,0.0,0.0
519540,0.151129,0.00502,-0.007158,0.0,0.0,0.0,0.087266,0.0,0.0,3.0,0.248879,0.342581,0.335102,0.360053,0.134142,4e-06,-0.000152,-0.017272,-0.000151,-0.000494,0.0,0.0,0.0,0.0,0.0,0.0
