time_ms,roll,pitch,yaw,x,y,z,reference_roll,reference_pitch,reference_yaw,reference_throttle,throttle_1,throttle_2,throttle_3,throttle_4,roll_predicted,pitch_predicted,yaw_predicted,roll_rate_predicted,pitch_rate_predicted,yaw_rate_predicted,value1,value2,value3,value4,value5,value6
546260,-0.011596,0.002447,0.000991,0.0,0.0,0.0,0.0,0.0,0.0,3.0,0.295703,0.348671,0.282783,0.36497,-0.01247,-2e-06,-4.4e-05,0.00466,1e-06,8e-06,0.0,0.0,0.0,0.0,0.0,0.0
546280,-0.011596,0.002447,0.000991,0.0,0.0,0.0,0.0,0.0,0.0,3.0,0.295727,0.347353,0.282691,0.366252,-0.0124,-2e-06,-4.4e-05,0.004634,1e-06,8e-06,0.0,0.0,0.0,0.0,0.0,0.0
546300,-0.011596,0.002569,0.000992,0.0,0.0,0.0,0.0,0.0,0.0,3.0,0.293261,0.347984,0.281887,0.368056,-0.012307,-2e-06,-4.4e-05,0.0046,1e-06,8e-06,0.0,0.0,0.0,0.0,0.0,0.0
546320,-0.011596,0.002691,0.000992,0.0,0.0,0.0,0.0,0.0,0.0,3.0,0.295777,0.347684,0.282519,0.366027,-0.012193,-2e-06,-4.3e-05,0.004557,1e-06,7e-06,0.0,0.0,0.0,0.0,0.0,0.0
546340,-0.011596,0.002691,0.000992,0.0,0.0,0.0,0.0,0.0,0.0,3.0,0.2946,0.347302,0.283846,0.366328,-0.012125,-2e-06,-4.3e-05,0.004532,1e-06,7e-06,0.0,0.0,0.0,0.0,0.0,0.0
546360,-0.011718,0.002569,0.000992,0.0,0.0,0.0,0.0,0.0,0.0,3.0,0.296307,0.349077,0.281229,0.365225,-0.012012,-2e-06,-4.3e-05,0.004489,1e-06,7e-06,0.0,0.0,0.0,0.0,0.0,0.0
546380,-0.011718,0.002569,0.000992,0.0,0.0,0.0,0.0,0.0,0.0,3.0,0.293947,0.347719,0.282723,0.367213,-0.011945,-2e-06,-4.3e-05,0.004464,1e-06,7e-06,0.0,0.0,0.0,0.0,0.0,0.0
546400,-0.011596,0.002691,0.00087,0.0,0.0,0.0,0.0,0.0,0.0,3.0,0.296229,0.346712,0.283275,0.366063,-0.011833,-2e-06,-4.3e-05,0.004423,1e-06,7e-06,0.0,0.0,0.0,0.0,0.0,0.0
546420,-0.011596,0.002813,0.000871,0.0,0.0,0.0,0.0,0.0,0.0,3.0,0.297087,0.346898,0.283317,0.365212,-0.011745,-2e-06,-4.3e-05,0.00439,1e-06,7e-06,0.0,0.0,0.0,0.0,0.0,0.0
546440,-0.011718,0.002935,0.000872,0.0,0.0,0.0,0.0,0.0,0.0,3.0,0.297112,0.347058,0.281619,0.366237,-0.011658,-2e-06,-4.2e-05,0.004357,1e-06,7e-06,0.0,0.0,0.0,0.0,0.0,0.0
546460,-0.011718,0.002691,0.00087,0.0,0.0,0.0,0.0,0.0,0.0,3.0,0.291775,0.349437,0.282146,0.367609,-0.011592,-2e-06,-4.2e-05,0.004333,1e-06,7e-06,0.0,0.0,0.0,0.0,0.0,0.0
546480,-0.011596,0.002568,0.000747,0.0,0.0,0.0,0.0,0.0,0.0,3.0,0.298875,0.345882,0.286491,0.362529,-0.011506,-2e-06,-4.2e-05,0.0043,1e-06,7e-06,0.0,0.0,0.0,0.0,0.0,0.0
546500,-0.011474,0.002568,0.000747,0.0,0.0,0.0,0.0,0.0,0.0,3.0,0.295731,0.348716,0.281733,0.365644,-0.01142,-2e-06,-4.2e-05,0.004268,1e-06,7e-06,0.0,0.0,0.0,0.0,0.0,0.0
546520,-0.011352,0.00269,0.00087,0.0,0.0,0.0,0.0,0.0,0.0,3.0,0.296115,0.348328,0.279919,0.366981,-0.011335,-2e-06,-4.2e-05,0.004236,1e-06,7e-06,0.0,0.0,0.0,0.0,0.0,0.0
546540,-0.011352,0.002935,0.000871,0.0,0.0,0.0,0.0,0.0,0.0,3.0,0.297303,0.347337,0.283248,0.364687,-0.011251,-2e-06,-4.2e-05,0.004205,1e-06,7e-06,0.0,0.0,0.0,0.0,0.0,0.0
546560,-0.011352,0.002934,0.000749,0.0,0.0,0.0,0.0,0.0,0.0,3.0,0.299822,0.345859,0.284999,0.362897,-0.011167,-2e-06,-4.2e-05,0.004174,1e-06,7e-06,0.0,0.0,0.0,0.0,0.0,0.0
546580,-0.011474,0.003056,0.00075,0.0,0.0,0.0,0.0,0.0,0.0,3.0,0.299461,0.345925,0.284813,0.363248,-0.011084,-2e-06,-4.2e-05,0.004142,1e-06,7e-06,0.0,0.0,0.0,0.0,0.0,0.0
546600,-0.011474,0.003057,0.000872,0.0,0.0,0.0,0.0,0.0,0.0,3.0,0.291336,0.349133,0.280958,0.369036,-0.01098,-2e-06,-4.1e-05,0.004104,1e-06,7e-06,0.0,0.0,0.0,0.0,0.0,0.0
546620,-0.011474,0.003057,0.000872,0.0,0.0,0.0,0.0,0.0,0.0,3.0,0.295785,0.347676,0.284188,0.364849,-0.010919,-2e-06,-4.1e-05,0.004081,1e-06,7e-06,0.0,0.0,0.0,0.0,0.0,0.0
546640,-0.011474,0.003057,0.000872,0.0,0.0,0.0,0.0,0.0,0.0,3.0,0.298138,0.34538,0.286712,0.363405,-0.010838,-2e-06,-4.1e-05,0.004051,1e-06,7e-06,0.0,0.0,0.0,0.0,0.0,0.0
546660,-0.011474,0.003179,0.000873,0.0,0.0,0.0,0.0,0.0,0.0,3.0,0.294586,0.347117,0.283652,0.366647,-0.010757,-2e-06,-4.1e-05,0.00402,1e-06,7e-06,0.0,0.0,0.0,0.0,0.0,0.0
546680,-0.011352,0.003179,0.000995,0.0,0.0,0.0,0.0,0.0,0.0,3.0,0.290789,0.349807,0.280924,0.368829,-0.010657,-2e-06,-4.1e-05,0.003983,1e-06,7e-06,0.0,0.0,0.0,0.0,0.0,0.0
546700,-0.011352,0.003179,0.000873,0.0,0.0,0.0,0.0,0.0,0.0,3.0,0.293313,0.348399,0.28294,0.366895,-0.010597,-2e-06,-4.1e-05,0.003961,1e-06,7e-06,0.0,0.0,0.0,0.0,0.0,0.0
546720,-0.01123,0.002812,0.00087,0.0,0.0,0.0,0.0,0.0,0.0,3.0,0.295018,0.347494,0.285211,0.364867,-0.010518,-2e-06,-4.1e-05,0.003931,1e-06,7e-06,0.0,0.0,0.0,0.0,0.0,0.0
546740,-0.01123,0.002935,0.000993,0.0,0.0,0.0,0.0,0.0,0.0,3.0,0.291985,0.348315,0.281415,0.369008,-0.01044,-2e-06,-4e-05,0.003902,1e-06,7e-06,0.0,0.0,0.0,0.0,0.0,0.0
546760,-0.010985,0.003057,0.000993,0.0,0.0,0.0,0.0,0.0,0.0,3.0,0.291636,0.347231,0.283041,0.369137,-0.010362,-2e-06,-4e-05,0.003873,1e-06,7e-06,0.0,0.0,0.0,0.0,0.0,0.0
546780,-0.010985,0.00318,0.001116,0.0,0.0,0.0,0.0,0.0,0.0,3.0,0.293045,0.347117,0.281615,0.369204,-0.010285,-2e-06,-4e-05,0.003844,1e-06,7e-06,0.0,0.0,0.0,0.0,0.0,0.0
546800,-0.011107,0.003057,0.000994,0.0,0.0,0.0,0.0,0.0,0.0,3.0,0.296775,0.347734,0.282501,0.365242,-0.010189,-2e-06,-4e-05,0.003808,1e-06,7e-06,0.0,0.0,0.0,0.0,0.0,0.0
546820,-0.011107,0.002936,0.001115,0.0,0.0,0.0,0.0,0.0,0.0,3.0,0.295784,0.349358,0.281239,0.365347,-0.010113,-2e-06,-4e-05,0.00378,1e-06,7e-06,0.0,0.0,0.0,0.0,0.0,0.0
546840,-0.011107,0.002936,0.001115,0.0,0.0,0.0,0.0,0.0,0.0,3.0,0.295352,0.345726,0.282235,0.368357,-0.010056,-2e-06,-4e-05,0.003759,1e-06,7e-06,0.0,0.0,0.0,0.0,0.0,0.0
546860,-0.010985,0.003058,0.001116,0.0,0.0,0.0,0.0,0.0,0.0,3.0,0.294904,0.346497,0.282828,0.367564,-0.009981,-2e-06,-4e-05,0.003731,1e-06,7e-06,0.0,0.0,0.0,0.0,0.0,0.0
546880,-0.010985,0.00318,0.001116,0.0,0.0,0.0,0.0,0.0,0.0,3.0,0.294676,0.34616,0.283052,0.367888,-0.009907,-2e-06,-3.9e-05,0.003703,1e-06,7e-06,0.0,0.0,0.0,0.0,0.0,0.0
546900,-0.010863,0.003058,0.001237,0.0,0.0,0.0,0.0,0.0,0.0,3.0,0.292942,0.34803,0.282827,0.367592,-0.009833,-2e-06,-3.9e-05,0.003675,1e-06,7e-06,0.0,0.0,0.0,0.0,0.0,0.0
546920,-0.010741,0.002937,0.001359,0.0,0.0,0.0,0.0,0.0,0.0,3.0,0.291377,0.350399,0.27883,0.369284,-0.00976,-2e-06,-3.9e-05,0.003648,1e-06,7e-06,0.0,0.0,0.0,0.0,0.0,0.0
546940,-0.010619,0.002693,0.001357,0.0,0.0,0.0,0.0,0.0,0.0,3.0,0.293064,0.349487,0.280136,0.368011,-0.009687,-2e-06,-3.9e-05,0.003621,1e-06,7e-06,0.0,0.0,0.0,0.0,0.0,0.0
546960,-0.010619,0.002815,0.001358,0.0,0.0,0.0,0.0,0.0,0.0,3.0,0.294907,0.347502,0.281733,0.367394,-0.009615,-2e-06,-3.9e-05,0.003594,1e-06,7e-06,0.0,0.0,0.0,0.0,0.0,0.0
546980,-0.010619,0.002815,0.001358,0.0,0.0,0.0,0.0,0.0,0.0,3.0,0.294613,0.348716,0.280157,0.367574,-0.009543,-2e-06,-3.9e-05,0.003567,1e-06,7e-06,0.0,0.0,0.0,0.0,0.0,0.0
547000,-0.010618,0.002938,0.001481,0.0,0.0,0.0,0.0,0.0,0.0,3.0,0.294221,0.349265,0.279618,0.367721,-0.009472,-2e-06,-3.9e-05,0.00354,1e-06,7e-06,0.0,0.0,0.0,0.0,0.0,0.0
547020,-0.010496,0.002937,0.00148,0.0,0.0,0.0,0.0,0.0,0.0,3.0,0.294233,0.348844,0.282123,0.36637,-0.009401,-2e-06,-3.8e-05,0.003514,1e-06,7e-06,0.0,0.0,0.0,0.0,0.0,0.0
547040,-0.010497,0.002815,0.00148,0.0,0.0,0.0,0.0,0.0,0.0,3.0,0.296921,0.347518,0.284488,0.363925,-0.009331,-2e-06,-3.8e-05,0.003488,1e-06,7e-06,0.0,0.0,0.0,0.0,0.0,0.0
547060,-0.010374,0.002938,0.001602,0.0,0.0,0.0,0.0,0.0,0.0,3.0,0.294403,0.347921,0.283669,0.366021,-0.009262,-2e-06,-3.8e-05,0.003462,1e-06,7e-06,0.0,0.0,0.0,0.0,0.0,0.0
547080,-0.010374,0.003061,0.001847,0.0,0.0,0.0,0.0,0.0,0.0,3.0,0.292759,0.349578,0.281408,0.367269,-0.009193,-2e-06,-3.8e-05,0.003436,1e-06,7e-06,0.0,0.0,0.0,0.0,0.0,0.0
547100,-0.010252,0.003061,0.001847,0.0,0.0,0.0,0.0,0.0,0.0,3.0,0.291625,0.349618,0.282812,0.367085,-0.009124,-2e-06,-3.8e-05,0.00341,1e-06,6e-06,0.0,0.0,0.0,0.0,0.0,0.0
547120,-0.01013,0.002818,0.001968,0.0,0.0,0.0,0.0,0.0,0.0,3.0,0.290796,0.351219,0.28249,0.366408,-0.009056,-2e-06,-3.8e-05,0.003385,1e-06,6e-06,0.0,0.0,0.0,0.0,0.0,0.0
547140,-0.010007,0.002696,0.002089,0.0,0.0,0.0,0.0,0.0,0.0,3.0,0.291057,0.350755,0.281706,0.367203,-0.008989,-2e-06,-3.8e-05,0.00336,1e-06,6e-06,0.0,0.0,0.0,0.0,0.0,0.0
547160,-0.009885,0.002697,0.002211,0.0,0.0,0.0,0.0,0.0,0.0,3.0,0.288104,0.353226,0.279247,0.368702,-0.008922,-2e-06,-3.8e-05,0.003335,1e-06,6e-06,0.0,0.0,0.0,0.0,0.0,0.0
547180,-0.009885,0.002941,0.002334,0.0,0.0,0.0,0.0,0.0,0.0,3.0,0.289105,0.349286,0.277467,0.372861,-0.008839,-2e-06,-3.7e-05,0.003304,1e-06,6e-06,0.0,0.0,0.0,0.0,0.0,0.0
547200,-0.009763,0.002819,0.002333,0.0,0.0,0.0,0.0,0.0,0.0,3.0,0.293013,0.350956,0.283139,0.364567,-0.008789,-2e-06,-3.7e-05,0.003285,1e-06,6e-06,0.0,0.0,0.0,0.0,0.0,0.0
547220,-0.009641,0.002697,0.002455,0.0,0.0,0.0,0.0,0.0,0.0,3.0,0.291692,0.351664,0.279986,0.367074,-0.008724,-2e-06,-3.7e-05,0.003261,1e-06,6e-06,0.0,0.0,0.0,0.0,0.0,0.0
547240,-0.009641,0.002698,0.002577,0.0,0.0,0.0,0.0,0.0,0.0,3.0,0.292502,0.350806,0.280542,0.366906,-0.008659,-2e-06,-3.7e-05,0.003236,1e-06,6e-06,0.0,0.0,0.0,0.0,0.0,0.0
547260,-0.009641,0.002698,0.002577,0.0,0.0,0.0,0.0,0.0,0.0,3.0,0.292384,0.351059,0.27945,0.367507,-0.008594,-1e-06,-3.7e-05,0.003212,1e-06,6e-06,0.0,0.0,0.0,0.0,0.0,0.0
547280,-0.009396,0.002698,0.002576,0.0,0.0,0.0,0.0,0.0,0.0,3.0,0.294058,0.349831,0.281878,0.365743,-0.00853,-1e-06,-3.7e-05,0.003188,1e-06,6e-06,0.0,0.0,0.0,0.0,0.0,0.0
547300,-0.009274,0.002576,0.002698,0.0,0.0,0.0,0.0,0.0,0.0,3.0,0.289626,0.3529,0.279578,0.367687,-0.008466,-1e-06,-3.7e-05,0.003164,0.0,6e-06,0.0,0.0,0.0,0.0,0.0,0.0
547320,-0.009152,0.002454,0.002697,0.0,0.0,0.0,0.0,0.0,0.0,3.0,0.291701,0.351458,0.28036,0.367004,-0.008403,-1e-06,-3.7e-05,0.003141,0.0,6e-06,0.0,0.0,0.0,0.0,0.0,0.0
547340,-0.00903,0.002576,0.00282,0.0,0.0,0.0,0.0,0.0,0.0,3.0,0.290599,0.351227,0.279522,0.3686,-0.008341,-1e-06,-3.6e-05,0.003117,0.0,6e-06,0.0,0.0,0.0,0.0,0.0,0.0
547360,-0.008908,0.002698,0.00282,0.0,0.0,0.0,0.0,0.0,0.0,3.0,0.292923,0.350203,0.282093,0.366083,-0.008278,-1e-06,-3.6e-05,0.003094,0.0,6e-06,0.0,0.0,0.0,0.0,0.0,0.0
547380,-0.008786,0.002699,0.002942,0.0,0.0,0.0,0.0,0.0,0.0,3.0,0.290377,0.351799,0.279518,0.368226,-0.008217,-1e-06,-3.6e-05,0.003071,0.0,6e-06,0.0,0.0,0.0,0.0,0.0,0.0
547400,-0.008786,0.002455,0.003063,0.0,0.0,0.0,0.0,0.0,0.0,3.0,0.287518,0.354506,0.276608,0.369697,-0.008155,-1e-06,-3.6e-05,0.003048,0.0,6e-06,0.0,0.0,0.0,0.0,0.0,0.0
547420,-0.008664,0.002333,0.003184,0.0,0.0,0.0,0.0,0.0,0.0,3.0,0.293204,0.350521,0.282272,0.365449,-0.008095,-1e-06,-3.6e-05,0.003026,0.0,6e-06,0.0,0.0,0.0,0.0,0.0,0.0
547440,-0.008541,0.002456,0.003307,0.0,0.0,0.0,0.0,0.0,0.0,3.0,0.289294,0.352577,0.278541,0.368942,-0.008034,-1e-06,-3.6e-05,0.003003,0.0,6e-06,0.0,0.0,0.0,0.0,0.0,0.0
547460,-0.008419,0.002456,0.003429,0.0,0.0,0.0,0.0,0.0,0.0,3.0,0.285229,0.354829,0.277598,0.37034,-0.007974,-1e-06,-3.6e-05,0.002981,0.0,6e-06,0.0,0.0,0.0,0.0,0.0,0.0
547480,-0.008297,0.002334,0.00355,0.0,0.0,0.0,0.0,0.0,0.0,3.0,0.2907,0.351865,0.28015,0.367495,-0.007915,-1e-06,-3.6e-05,0.002958,0.0,6e-06,0.0,0.0,0.0,0.0,0.0,0.0
547500,-0.008297,0.002334,0.00355,0.0,0.0,0.0,0.0,0.0,0.0,3.0,0.288827,0.352502,0.279605,0.368622,-0.007856,-1e-06,-3.5e-05,0.002936,0.0,6e-06,0.0,0.0,0.0,0.0,0.0,0.0
547520,-0.008175,0.002456,0.003673,0.0,0.0,0.0,0.0,0.0,0.0,3.0,0.287088,0.354376,0.27828,0.368996,-0.007797,-1e-06,-3.5e-05,0.002914,0.0,6e-06,0.0,0.0,0.0,0.0,0.0,0.0
547540,-0.00793,0.002823,0.003796,0.0,0.0,0.0,0.0,0.0,0.0,3.0,0.288836,0.351959,0.279646,0.369098,-0.007739,-1e-06,-3.5e-05,0.002893,0.0,6e-06,0.0,0.0,0.0,0.0,0.0,0.0
547560,-0.007808,0.0027,0.003795,0.0,0.0,0.0,0.0,0.0,0.0,3.0,0.288128,0.35256,0.279284,0.369287,-0.007682,-1e-06,-3.5e-05,0.002871,0.0,6e-06,0.0,0.0,0.0,0.0,0.0,0.0
547580,-0.007808,0.002579,0.003917,0.0,0.0,0.0,0.0,0.0,0.0,3.0,0.287348,0.351349,0.278702,0.371367,-0.00761,-1e-06,-3.5e-05,0.002844,0.0,6e-06,0.0,0.0,0.0,0.0,0.0,0.0
547600,-0.007686,0.002334,0.003916,0.0,0.0,0.0,0.0,0.0,0.0,3.0,0.289411,0.353603,0.278115,0.368178,-0.007568,-1e-06,-3.5e-05,0.002829,0.0,6e-06,0.0,0.0,0.0,0.0,0.0,0.0
547620,-0.007686,0.002334,0.003916,0.0,0.0,0.0,0.0,0.0,0.0,3.0,0.289413,0.353101,0.278261,0.368553,-0.007511,-1e-06,-3.5e-05,0.002807,0.0,6e-06,0.0,0.0,0.0,0.0,0.0,0.0
547640,-0.007442,0.002212,0.004037,0.0,0.0,0.0,0.0,0.0,0.0,3.0,0.287604,0.353852,0.277991,0.369321,-0.007455,-1e-06,-3.5e-05,0.002787,0.0,6e-06,0.0,0.0,0.0,0.0,0.0,0.0
547660,-0.00732,0.00209,0.004159,0.0,0.0,0.0,0.0,0.0,0.0,3.0,0.285638,0.352206,0.279468,0.371253,-0.007386,-1e-06,-3.4e-05,0.002761,0.0,6e-06,0.0,0.0,0.0,0.0,0.0,0.0
547680,-0.007321,0.001968,0.004158,0.0,0.0,0.0,0.0,0.0,0.0,3.0,0.288003,0.3535,0.278572,0.368975,-0.007344,-1e-06,-3.4e-05,0.002745,0.0,6e-06,0.0,0.0,0.0,0.0,0.0,0.0
547700,-0.007198,0.001968,0.004158,0.0,0.0,0.0,0.0,0.0,0.0,3.0,0.28951,0.352655,0.277111,0.369682,-0.00729,-1e-06,-3.4e-05,0.002725,0.0,6e-06,0.0,0.0,0.0,0.0,0.0,0.0
547720,-0.007199,0.001724,0.004157,0.0,0.0,0.0,0.0,0.0,0.0,3.0,0.289246,0.353212,0.277375,0.369169,-0.007235,-1e-06,-3.4e-05,0.002704,0.0,6e-06,0.0,0.0,0.0,0.0,0.0,0.0
547740,-0.007077,0.001602,0.004279,0.0,0.0,0.0,0.0,0.0,0.0,3.0,0.287126,0.353971,0.277416,0.369937,-0.007181,-1e-06,-3.4e-05,0.002684,0.0,6e-06,0.0,0.0,0.0,0.0,0.0,0.0
547760,-0.006955,0.00148,0.004278,0.0,0.0,0.0,0.0,0.0,0.0,3.0,0.287766,0.353935,0.278336,0.368892,-0.007128,-1e-06,-3.4e-05,0.002664,0.0,6e-06,0.0,0.0,0.0,0.0,0.0,0.0
547780,-0.007077,0.00148,0.004278,0.0,0.0,0.0,0.0,0.0,0.0,3.0,0.287091,0.352076,0.280782,0.369454,-0.007075,-1e-06,-3.4e-05,0.002644,0.0,6e-06,0.0,0.0,0.0,0.0,0.0,0.0
547800,-0.007077,0.001358,0.0044,0.0,0.0,0.0,0.0,0.0,0.0,3.0,0.287641,0.353048,0.276381,0.371134,-0.007022,-1e-06,-3.4e-05,0.002625,0.0,6e-06,0.0,0.0,0.0,0.0,0.0,0.0
547820,-0.007078,0.001115,0.004521,0.0,0.0,0.0,0.0,0.0,0.0,3.0,0.284103,0.356088,0.27512,0.371591,-0.006957,-1e-06,-3.4e-05,0.0026,0.0,6e-06,0.0,0.0,0.0,0.0,0.0,0.0
547840,-0.0072,0.001115,0.004521,0.0,0.0,0.0,0.0,0.0,0.0,3.0,0.285798,0.35528,0.275206,0.371115,-0.006918,-1e-06,-3.3e-05,0.002586,0.0,6e-06,0.0,0.0,0.0,0.0,0.0,0.0
547860,-0.007322,0.001115,0.004521,0.0,0.0,0.0,0.0,0.0,0.0,3.0,0.287438,0.351978,0.277372,0.371613,-0.006866,-1e-06,-3.3e-05,0.002566,0.0,6e-06,0.0,0.0,0.0,0.0,0.0,0.0
547880,-0.007444,0.000994,0.004643,0.0,0.0,0.0,0.0,0.0,0.0,3.0,0.283949,0.356036,0.273849,0.372582,-0.006815,-1e-06,-3.3e-05,0.002547,0.0,6e-06,0.0,0.0,0.0,0.0,0.0,0.0
547900,-0.007567,0.00075,0.004642,0.0,0.0,0.0,0.0,0.0,0.0,3.0,0.285761,0.354785,0.274984,0.371754,-0.006764,-1e-06,-3.3e-05,0.002528,0.0,6e-06,0.0,0.0,0.0,0.0,0.0,0.0
547920,-0.007567,0.00075,0.004642,0.0,0.0,0.0,0.0,0.0,0.0,3.0,0.287211,0.352559,0.277067,0.371436,-0.006714,-1e-06,-3.3e-05,0.002509,0.0,6e-06,0.0,0.0,0.0,0.0,0.0,0.0
547940,-0.007566,0.000994,0.004643,0.0,0.0,0.0,0.0,0.0,0.0,3.0,0.287566,0.351568,0.276842,0.37226,-0.006664,-1e-06,-3.3e-05,0.002491,0.0,6e-06,0.0,0.0,0.0,0.0,0.0,0.0
547960,-0.007322,0.000994,0.004765,0.0,0.0,0.0,0.0,0.0,0.0,3.0,0.283386,0.354118,0.273755,0.374827,-0.006614,-1e-06,-3.3e-05,0.002472,0.0,6e-06,0.0,0.0,0.0,0.0,0.0,0.0
547980,-0.0072,0.000872,0.004765,0.0,0.0,0.0,0.0,0.0,0.0,3.0,0.287215,0.352609,0.276286,0.371908,-0.006565,-1e-06,-3.3e-05,0.002454,0.0,6e-06,0.0,0.0,0.0,0.0,0.0,0.0
548000,-0.007078,0.000993,0.004765,0.0,0.0,0.0,0.0,0.0,0.0,3.0,0.282427,0.35473,0.274212,0.374613,-0.006516,-1e-06,-3.3e-05,0.002435,0.0,6e-06,0.0,0.0,0.0,0.0,0.0,0.0
548020,-0.006956,0.001116,0.004887,0.0,0.0,0.0,0.0,0.0,0.0,3.0,0.286968,0.352266,0.275113,0.373177,-0.006467,-1e-06,-3.2e-05,0.002417,0.0,6e-06,0.0,0.0,0.0,0.0,0.0,0.0
548040,-0.006956,0.000994,0.005009,0.0,0.0,0.0,0.0,0.0,0.0,3.0,0.28555,0.353624,0.275646,0.372552,-0.006419,-1e-06,-3.2e-05,0.002399,0.0,6e-06,0.0,0.0,0.0,0.0,0.0,0.0
548060,-0.006956,0.000872,0.005131,0.0,0.0,0.0,0.0,0.0,0.0,3.0,0.283141,0.354938,0.274137,0.37398,-0.006371,-1e-06,-3.2e-05,0.002381,0.0,6e-06,0.0,0.0,0.0,0.0,0.0,0.0
548080,-0.006956,0.000994,0.005131,0.0,0.0,0.0,0.0,0.0,0.0,3.0,0.285909,0.354056,0.276407,0.371391,-0.006312,-1e-06,-3.2e-05,0.002359,0.0,5e-06,0.0,0.0,0.0,0.0,0.0,0.0
548100,-0.006955,0.001117,0.005254,0.0,0.0,0.0,0.0,0.0,0.0,3.0,0.283809,0.353076,0.278669,0.372253,-0.006276,-1e-06,-3.2e-05,0.002346,0.0,5e-06,0.0,0.0,0.0,0.0,0.0,0.0
548120,-0.0072,0.000996,0.005253,0.0,0.0,0.0,0.0,0.0,0.0,3.0,0.284533,0.356991,0.271758,0.37264,-0.006218,-1e-06,-3.2e-05,0.002324,0.0,5e-06,0.0,0.0,0.0,0.0,0.0,0.0
548140,-0.007201,0.000751,0.005252,0.0,0.0,0.0,0.0,0.0,0.0,3.0,0.286002,0.355272,0.275202,0.370982,-0.006183,-1e-06,-3.2e-05,0.002311,0.0,5e-06,0.0,0.0,0.0,0.0,0.0,0.0
548160,-0.0072,0.000996,0.005375,0.0,0.0,0.0,0.0,0.0,0.0,3.0,0.284928,0.354039,0.27691,0.371756,-0.006137,-1e-06,-3.2e-05,0.002294,0.0,5e-06,0.0,0.0,0.0,0.0,0.0,0.0
548180,-0.007201,0.000752,0.005375,0.0,0.0,0.0,0.0,0.0,0.0,3.0,0.286678,0.355227,0.275969,0.370037,-0.006091,-1e-06,-3.2e-05,0.002277,0.0,5e-06,0.0,0.0,0.0,0.0,0.0,0.0
548200,-0.007323,0.000508,0.005374,0.0,0.0,0.0,0.0,0.0,0.0,3.0,0.284709,0.355813,0.27586,0.370937,-0.006046,-1e-06,-3.1e-05,0.00226,0.0,5e-06,0.0,0.0,0.0,0.0,0.0,0.0
548220,-0.007323,0.000508,0.005374,0.0,0.0,0.0,0.0,0.0,0.0,3.0,0.285262,0.356159,0.274227,0.371307,-0.006001,-1e-06,-3.1e-05,0.002243,0.0,5e-06,0.0,0.0,0.0,0.0,0.0,0.0
548240,-0.007446,0.000386,0.005373,0.0,0.0,0.0,0.0,0.0,0.0,3.0,0.287195,0.355362,0.273806,0.370981,-0.005956,-1e-06,-3.1e-05,0.002226,0.0,5e-06,0.0,0.0,0.0,0.0,0.0,0.0
548260,-0.007568,0.000387,0.005373,0.0,0.0,0.0,0.0,0.0,0.0,3.0,0.28383,0.357829,0.269869,0.373551,-0.005912,-1e-06,-3.1e-05,0.00221,0.0,5e-06,0.0,0.0,0.0,0.0,0.0,0.0
548280,-0.007568,0.000387,0.005495,0.0,0.0,0.0,0.0,0.0,0.0,3.0,0.28609,0.357628,0.271469,0.371139,-0.005868,-1e-06,-3.1e-05,0.002193,0.0,5e-06,0.0,0.0,0.0,0.0,0.0,0.0
548300,-0.007568,0.000387,0.005495,0.0,0.0,0.0,0.0,0.0,0.0,3.0,0.286633,0.355377,0.273707,0.371427,-0.005824,-1e-06,-3.1e-05,0.002177,0.0,5e-06,0.0,0.0,0.0,0.0,0.0,0.0
548320,-0.007323,0.00063,0.005496,0.0,0.0,0.0,0.0,0.0,0.0,3.0,0.28773,0.354618,0.272622,0.372081,-0.005781,-1e-06,-3.1e-05,0.002161,0.0,5e-06,0.0,0.0,0.0,0.0,0.0,0.0
548340,-0.007445,0.000631,0.005618,0.0,0.0,0.0,0.0,0.0,0.0,3.0,0.2854,0.356913,0.27291,0.37136,-0.005737,-1e-06,-3.1e-05,0.002145,0.0,5e-06,0.0,0.0,0.0,0.0,0.0,0.0
548360,-0.007323,0.000509,0.005618,0.0,0.0,0.0,0.0,0.0,0.0,3.0,0.284235,0.354638,0.275722,0.372466,-0.005684,-1e-06,-3.1e-05,0.002125,0.0,5e-06,0.0,0.0,0.0,0.0,0.0,0.0
548380,-0.007445,0.000509,0.005618,0.0,0.0,0.0,0.0,0.0,0.0,3.0,0.285697,0.355339,0.274201,0.371794,-0.005652,-1e-06,-3e-05,0.002113,0.0,5e-06,0.0,0.0,0.0,0.0,0.0,0.0
548400,-0.00769,0.000266,0.005617,0.0,0.0,0.0,0.0,0.0,0.0,3.0,0.28594,0.356659,0.273925,0.370557,-0.00561,-1e-06,-3e-05,0.002097,0.0,5e-06,0.0,0.0,0.0,0.0,0.0,0.0
548420,-0.007691,2.2e-05,0.005616,0.0,0.0,0.0,0.0,0.0,0.0,3.0,0.285769,0.356503,0.274021,0.370761,-0.005558,-1e-06,-3e-05,0.002077,0.0,5e-06,0.0,0.0,0.0,0.0,0.0,0.0
548440,-0.007813,-0.0001,0.005616,0.0,0.0,0.0,0.0,0.0,0.0,3.0,0.286038,0.356025,0.27367,0.371257,-0.005527,-1e-06,-3e-05,0.002066,0.0,5e-06,0.0,0.0,0.0,0.0,0.0,0.0
548460,-0.007935,-0.0001,0.005493,0.0,0.0,0.0,0.0,0.0,0.0,3.0,0.283156,0.356056,0.273068,0.37362,-0.005486,-1e-06,-3e-05,0.00205,0.0,5e-06,0.0,0.0,0.0,0.0,0.0,0.0
548480,-0.008058,-0.000222,0.005493,0.0,0.0,0.0,0.0,0.0,0.0,3.0,0.285071,0.355664,0.271631,0.3736,-0.005445,-1e-06,-3e-05,0.002035,0.0,5e-06,0.0,0.0,0.0,0.0,0.0,0.0
548500,-0.007936,-0.000222,0.005615,0.0,0.0,0.0,0.0,0.0,0.0,3.0,0.28364,0.35625,0.273149,0.373052,-0.005404,-1e-06,-3e-05,0.00202,0.0,5e-06,0.0,0.0,0.0,0.0,0.0,0.0
548520,-0.007935,-0.0001,0.005616,0.0,0.0,0.0,0.0,0.0,0.0,3.0,0.284411,0.354097,0.27489,0.373399,-0.005364,-1e-06,-3e-05,0.002005,0.0,5e-06,0.0,0.0,0.0,0.0,0.0,0.0
548540,-0.007813,0.000144,0.005617,0.0,0.0,0.0,0.0,0.0,0.0,3.0,0.285175,0.353561,0.27417,0.373843,-0.005324,-1e-06,-3e-05,0.00199,0.0,5e-06,0.0,0.0,0.0,0.0,0.0,0.0
548560,-0.00769,0.000144,0.005617,0.0,0.0,0.0,0.0,0.0,0.0,3.0,0.283425,0.356014,0.272019,0.374155,-0.005284,-1e-06,-3e-05,0.001975,0.0,5e-06,0.0,0.0,0.0,0.0,0.0,0.0
548580,-0.007446,0.000266,0.005739,0.0,0.0,0.0,0.0,0.0,0.0,3.0,0.283836,0.356322,0.274543,0.371935,-0.005235,-1e-06,-2.9e-05,0.001957,0.0,5e-06,0.0,0.0,0.0,0.0,0.0,0.0
548600,-0.007568,0.000266,0.005739,0.0,0.0,0.0,0.0,0.0,0.0,3.0,0.285657,0.355025,0.273013,0.372895,-0.005206,-1e-06,-2.9e-05,0.001946,0.0,5e-06,0.0,0.0,0.0,0.0,0.0,0.0
548620,-0.007568,0.000144,0.005739,0.0,0.0,0.0,0.0,0.0,0.0,3.0,0.288444,0.35449,0.273594,0.371058,-0.005167,-1e-06,-2.9e-05,0.001931,0.0,5e-06,0.0,0.0,0.0,0.0,0.0,0.0
548640,-0.007569,2.2e-05,0.005738,0.0,0.0,0.0,0.0,0.0,0.0,3.0,0.285291,0.356671,0.273614,0.371204,-0.005128,-1e-06,-2.9e-05,0.001917,0.0,5e-06,0.0,0.0,0.0,0.0,0.0,0.0
548660,-0.007568,0.000144,0.005861,0.0,0.0,0.0,0.0,0.0,0.0,3.0,0.287699,0.354007,0.276042,0.370418,-0.00509,-1e-06,-2.9e-05,0.001903,0.0,5e-06,0.0,0.0,0.0,0.0,0.0,0.0
548680,-0.007568,0.000266,0.005861,0.0,0.0,0.0,0.0,0.0,0.0,3.0,0.284143,0.356442,0.273473,0.372312,-0.005052,-1e-06,-2.9e-05,0.001888,0.0,5e-06,0.0,0.0,0.0,0.0,0.0,0.0
548700,-0.00769,0.000145,0.005861,0.0,0.0,0.0,0.0,0.0,0.0,3.0,0.284049,0.356782,0.274038,0.371685,-0.005014,-1e-06,-2.9e-05,0.001874,0.0,5e-06,0.0,0.0,0.0,0.0,0.0,0.0
548720,-0.007568,0.000267,0.005983,0.0,0.0,0.0,0.0,0.0,0.0,3.0,0.284481,0.357511,0.273569,0.371001,-0.004977,-1e-06,-2.9e-05,0.00186,0.0,5e-06,0.0,0.0,0.0,0.0,0.0,0.0
548740,-0.007568,0.000389,0.005984,0.0,0.0,0.0,0.0,0.0,0.0,3.0,0.284004,0.357339,0.27267,0.372085,-0.00494,-1e-06,-2.9e-05,0.001846,0.0,5e-06,0.0,0.0,0.0,0.0,0.0,0.0
548760,-0.007446,0.000388,0.005984,0.0,0.0,0.0,0.0,0.0,0.0,3.0,0.284984,0.357411,0.272404,0.371509,-0.004903,-1e-06,-2.9e-05,0.001833,0.0,5e-06,0.0,0.0,0.0,0.0,0.0,0.0
548780,-0.007568,0.000267,0.005983,0.0,0.0,0.0,0.0,0.0,0.0,3.0,0.285462,0.357121,0.271866,0.371802,-0.004867,-1e-06,-2.8e-05,0.001819,0.0,5e-06,0.0,0.0,0.0,0.0,0.0,0.0
548800,-0.007568,0.000266,0.005861,0.0,0.0,0.0,0.0,0.0,0.0,3.0,0.287425,0.354545,0.275429,0.370515,-0.00483,-1e-06,-2.8e-05,0.001805,0.0,5e-06,0.0,0.0,0.0,0.0,0.0,0.0
548820,-0.00769,0.000389,0.005862,0.0,0.0,0.0,0.0,0.0,0.0,3.0,0.286251,0.355465,0.271601,0.372986,-0.004794,-1e-06,-2.8e-05,0.001792,0.0,5e-06,0.0,0.0,0.0,0.0,0.0,0.0
548840,-0.00769,0.000145,0.005861,0.0,0.0,0.0,0.0,0.0,0.0,3.0,0.285895,0.357146,0.271651,0.371615,-0.004759,-1e-06,-2.8e-05,0.001779,0.0,5e-06,0.0,0.0,0.0,0.0,0.0,0.0
548860,-0.007568,0.000144,0.005861,0.0,0.0,0.0,0.0,0.0,0.0,3.0,0.286914,0.354968,0.274,0.371422,-0.004723,-1e-06,-2.8e-05,0.001765,0.0,5e-06,0.0,0.0,0.0,0.0,0.0,0.0
548880,-0.007568,0.000145,0.005983,0.0,0.0,0.0,0.0,0.0,0.0,3.0,0.288781,0.353318,0.273887,0.371727,-0.004688,-1e-06,-2.8e-05,0.001752,0.0,5e-06,0.0,0.0,0.0,0.0,0.0,0.0
548900,-0.007569,-0.0001,0.00586,0.0,0.0,0.0,0.0,0.0,0.0,3.0,0.284881,0.354069,0.275444,0.372734,-0.004653,-1e-06,-2.8e-05,0.001739,0.0,5e-06,0.0,0.0,0.0,0.0,0.0,0.0
548920,-0.007569,-0.0001,0.00586,0.0,0.0,0.0,0.0,0.0,0.0,3.0,0.285456,0.357371,0.271907,0.371542,-0.00461,-1e-06,-2.8e-05,0.001723,0.0,5e-06,0.0,0.0,0.0,0.0,0.0,0.0
548940,-0.007569,2.2e-05,0.005738,0.0,0.0,0.0,0.0,0.0,0.0,3.0,0.285704,0.351857,0.275353,0.374278,-0.004584,-1e-06,-2.8e-05,0.001713,0.0,5e-06,0.0,0.0,0.0,0.0,0.0,0.0
548960,-0.00769,0.000266,0.005739,0.0,0.0,0.0,0.0,0.0,0.0,3.0,0.283275,0.354571,0.274573,0.373946,-0.00455,-1e-06,-2.8e-05,0.001701,0.0,5e-06,0.0,0.0,0.0,0.0,0.0,0.0
548980,-0.007568,0.000265,0.005617,0.0,0.0,0.0,0.0,0.0,0.0,3.0,0.284854,0.35402,0.276606,0.372028,-0.004516,-1e-06,-2.8e-05,0.001688,0.0,5e-06,0.0,0.0,0.0,0.0,0.0,0.0
549000,-0.007568,0.000265,0.005617,0.0,0.0,0.0,0.0,0.0,0.0,3.0,0.285217,0.354605,0.272819,0.373721,-0.004482,-1e-06,-2.7e-05,0.001675,0.0,5e-06,0.0,0.0,0.0,0.0,0.0,0.0
549020,-0.007568,0.000387,0.005495,0.0,0.0,0.0,0.0,0.0,0.0,3.0,0.285433,0.35457,0.276311,0.371304,-0.004449,-1e-06,-2.7e-05,0.001663,0.0,5e-06,0.0,0.0,0.0,0.0,0.0,0.0
549040,-0.007568,0.000265,0.005495,0.0,0.0,0.0,0.0,0.0,0.0,3.0,0.282222,0.357856,0.272793,0.372741,-0.004416,-1e-06,-2.7e-05,0.00165,0.0,5e-06,0.0,0.0,0.0,0.0,0.0,0.0
549060,-0.007569,2e-05,0.005372,0.0,0.0,0.0,0.0,0.0,0.0,3.0,0.285625,0.35662,0.274473,0.370453,-0.004383,-1e-06,-2.7e-05,0.001638,0.0,5e-06,0.0,0.0,0.0,0.0,0.0,0.0
549080,-0.007569,2e-05,0.00525,0.0,0.0,0.0,0.0,0.0,0.0,3.0,0.285632,0.357228,0.272938,0.37088,-0.00435,-1e-06,-2.7e-05,0.001626,0.0,5e-06,0.0,0.0,0.0,0.0,0.0,0.0
549100,-0.007691,-0.000102,0.005127,0.0,0.0,0.0,0.0,0.0,0.0,3.0,0.28649,0.357384,0.271398,0.371136,-0.004317,-1e-06,-2.7e-05,0.001614,0.0,5e-06,0.0,0.0,0.0,0.0,0.0,0.0
549120,-0.007692,-0.000469,0.005126,0.0,0.0,0.0,0.0,0.0,0.0,3.0,0.287628,0.357613,0.272297,0.369525,-0.004285,-1e-06,-2.7e-05,0.001602,0.0,5e-06,0.0,0.0,0.0,0.0,0.0,0.0
549140,-0.007692,-0.000347,0.005004,0.0,0.0,0.0,0.0,0.0,0.0,3.0,0.288135,0.357193,0.273118,0.369025,-0.004253,-1e-06,-2.7e-05,0.00159,0.0,5e-06,0.0,0.0,0.0,0.0,0.0,0.0
549160,-0.00757,-0.000348,0.004882,0.0,0.0,0.0,0.0,0.0,0.0,3.0,0.287061,0.357829,0.270688,0.370771,-0.004222,-1e-06,-2.7e-05,0.001578,0.0,5e-06,0.0,0.0,0.0,0.0,0.0,0.0
549180,-0.00757,-0.000348,0.004882,0.0,0.0,0.0,0.0,0.0,0.0,3.0,0.287962,0.355599,0.27251,0.371065,-0.00419,-1e-06,-2.7e-05,0.001566,0.0,5e-06,0.0,0.0,0.0,0.0,0.0,0.0
549200,-0.00757,-0.000348,0.00476,0.0,0.0,0.0,0.0,0.0,0.0,3.0,0.287113,0.356481,0.274871,0.36927,-0.004159,-1e-06,-2.6e-05,0.001555,0.0,5e-06,0.0,0.0,0.0,0.0,0.0,0.0
549220,-0.007692,-0.000348,0.00476,0.0,0.0,0.0,0.0,0.0,0.0,3.0,0.286619,0.355519,0.273591,0.371379,-0.004128,-1e-06,-2.6e-05,0.001543,0.0,5e-06,0.0,0.0,0.0,0.0,0.0,0.0
549240,-0.007691,-0.000226,0.004638,0.0,0.0,0.0,0.0,0.0,0.0,3.0,0.286219,0.354344,0.276024,0.371158,-0.004097,-1e-06,-2.6e-05,0.001531,0.0,5e-06,0.0,0.0,0.0,0.0,0.0,0.0
549260,-0.007813,-0.000226,0.004638,0.0,0.0,0.0,0.0,0.0,0.0,3.0,0.287104,0.355773,0.273398,0.370925,-0.004067,-1e-06,-2.6e-05,0.00152,0.0,4e-06,0.0,0.0,0.0,0.0,0.0,0.0
549280,-0.007936,-0.00047,0.004637,0.0,0.0,0.0,0.0,0.0,0.0,3.0,0.286122,0.355934,0.274291,0.370875,-0.004036,-1e-06,-2.6e-05,0.001509,0.0,4e-06,0.0,0.0,0.0,0.0,0.0,0.0
549300,-0.008058,-0.000592,0.004515,0.0,0.0,0.0,0.0,0.0,0.0,3.0,0.286192,0.355689,0.274147,0.371152,-0.004006,-1e-06,-2.6e-05,0.001497,0.0,4e-06,0.0,0.0,0.0,0.0,0.0,0.0
549320,-0.008181,-0.000592,0.004515,0.0,0.0,0.0,0.0,0.0,0.0,3.0,0.288234,0.354584,0.273198,0.371378,-0.003976,-1e-06,-2.6e-05,0.001486,0.0,4e-06,0.0,0.0,0.0,0.0,0.0,0.0
549340,-0.008181,-0.000958,0.004513,0.0,0.0,0.0,0.0,0.0,0.0,3.0,0.286996,0.355977,0.27368,0.370622,-0.003947,-1e-06,-2.6e-05,0.001475,0.0,4e-06,0.0,0.0,0.0,0.0,0.0,0.0
549360,-0.008304,-0.00108,0.004391,0.0,0.0,0.0,0.0,0.0,0.0,3.0,0.286777,0.355246,0.271985,0.372575,-0.003917,-1e-06,-2.6e-05,0.001464,0.0,4e-06,0.0,0.0,0.0,0.0,0.0,0.0
549380,-0.008182,-0.001081,0.004391,0.0,0.0,0.0,0.0,0.0,0.0,3.0,0.284672,0.356221,0.273195,0.372337,-0.003888,-1e-06,-2.6e-05,0.001453,0.0,4e-06,0.0,0.0,0.0,0.0,0.0,0.0
549400,-0.008304,-0.00108,0.004391,0.0,0.0,0.0,0.0,0.0,0.0,3.0,0.286998,0.355276,0.270552,0.373317,-0.003859,-1e-06,-2.6e-05,0.001442,0.0,4e-06,0.0,0.0,0.0,0.0,0.0,0.0
549420,-0.008304,-0.001203,0.00439,0.0,0.0,0.0,0.0,0.0,0.0,3.0,0.286125,0.356255,0.271472,0.372413,-0.00383,-1e-06,-2.6e-05,0.001432,0.0,4e-06,0.0,0.0,0.0,0.0,0.0,0.0
549440,-0.008304,-0.001203,0.00439,0.0,0.0,0.0,0.0,0.0,0.0,3.0,0.285412,0.356598,0.272196,0.372118,-0.003802,-1e-06,-2.5e-05,0.001421,0.0,4e-06,0.0,0.0,0.0,0.0,0.0,0.0
549460,-0.008182,-0.00108,0.004513,0.0,0.0,0.0,0.0,0.0,0.0,3.0,0.287561,0.355215,0.271593,0.372308,-0.003773,-1e-06,-2.5e-05,0.00141,0.0,4e-06,0.0,0.0,0.0,0.0,0.0,0.0
549480,-0.008425,-0.000958,0.004513,0.0,0.0,0.0,0.0,0.0,0.0,3.0,0.287873,0.354791,0.272204,0.37209,-0.003745,-1e-06,-2.5e-05,0.0014,0.0,4e-06,0.0,0.0,0.0,0.0,0.0,0.0
549500,-0.008425,-0.000958,0.004513,0.0,0.0,0.0,0.0,0.0,0.0,3.0,0.289106,0.354409,0.274461,0.37009,-0.003717,-1e-06,-2.5e-05,0.00139,0.0,4e-06,0.0,0.0,0.0,0.0,0.0,0.0
549520,-0.008426,-0.000957,0.004635,0.0,0.0,0.0,0.0,0.0,0.0,3.0,0.286492,0.355761,0.27167,0.372494,-0.00369,-1e-06,-2.5e-05,0.001379,0.0,4e-06,0.0,0.0,0.0,0.0,0.0,0.0
549540,-0.008425,-0.000835,0.004636,0.0,0.0,0.0,0.0,0.0,0.0,3.0,0.286299,0.355935,0.273307,0.371398,-0.003662,-1e-06,-2.5e-05,0.001369,0.0,4e-06,0.0,0.0,0.0,0.0,0.0,0.0
549560,-0.008426,-0.000957,0.004635,0.0,0.0,0.0,0.0,0.0,0.0,3.0,0.288763,0.354538,0.276018,0.369173,-0.003635,-1e-06,-2.5e-05,0.001359,0.0,4e-06,0.0,0.0,0.0,0.0,0.0,0.0
549580,-0.008304,-0.001079,0.004757,0.0,0.0,0.0,0.0,0.0,0.0,3.0,0.283913,0.358116,0.272212,0.371708,-0.003608,-1e-06,-2.5e-05,0.001349,0.0,4e-06,0.0,0.0,0.0,0.0,0.0,0.0
549600,-0.008182,-0.001201,0.004756,0.0,0.0,0.0,0.0,0.0,0.0,3.0,0.288615,0.356589,0.274163,0.368566,-0.003581,-1e-06,-2.5e-05,0.001338,0.0,4e-06,0.0,0.0,0.0,0.0,0.0,0.0
549620,-0.008182,-0.00108,0.004635,0.0,0.0,0.0,0.0,0.0,0.0,3.0,0.287366,0.3556,0.274928,0.369891,-0.003554,-1e-06,-2.5e-05,0.001328,0.0,4e-06,0.0,0.0,0.0,0.0,0.0,0.0
549640,-0.008182,-0.001202,0.004634,0.0,0.0,0.0,0.0,0.0,0.0,3.0,0.287734,0.357593,0.271828,0.369776,-0.003528,-1e-06,-2.5e-05,0.001319,0.0,4e-06,0.0,0.0,0.0,0.0,0.0,0.0
549660,-0.008183,-0.001446,0.004633,0.0,0.0,0.0,0.0,0.0,0.0,3.0,0.286374,0.358265,0.273086,0.36927,-0.003501,-1e-06,-2.4e-05,0.001309,0.0,4e-06,0.0,0.0,0.0,0.0,0.0,0.0
549680,-0.008183,-0.001568,0.004633,0.0,0.0,0.0,0.0,0.0,0.0,3.0,0.287934,0.357252,0.271308,0.3703,-0.003475,-1e-06,-2.4e-05,0.001299,0.0,4e-06,0.0,0.0,0.0,0.0,0.0,0.0
549700,-0.008305,-0.001568,0.004511,0.0,0.0,0.0,0.0,0.0,0.0,3.0,0.287862,0.356625,0.271308,0.370948,-0.003449,-1e-06,-2.4e-05,0.001289,0.0,4e-06,0.0,0.0,0.0,0.0,0.0,0.0
549720,-0.008305,-0.00169,0.00451,0.0,0.0,0.0,0.0,0.0,0.0,3.0,0.289387,0.35551,0.274495,0.368821,-0.003424,-1e-06,-2.4e-05,0.00128,0.0,4e-06,0.0,0.0,0.0,0.0,0.0,0.0
549740,-0.008184,-0.001935,0.004509,0.0,0.0,0.0,0.0,0.0,0.0,3.0,0.2874,0.356628,0.272415,0.370549,-0.003398,-1e-06,-2.4e-05,0.00127,0.0,4e-06,0.0,0.0,0.0,0.0,0.0,0.0
549760,-0.008184,-0.002057,0.004509,0.0,0.0,0.0,0.0,0.0,0.0,3.0,0.288236,0.356044,0.272978,0.370142,-0.003373,-1e-06,-2.4e-05,0.001261,0.0,4e-06,0.0,0.0,0.0,0.0,0.0,0.0
549780,-0.008306,-0.002179,0.004508,0.0,0.0,0.0,0.0,0.0,0.0,3.0,0.288263,0.355167,0.272961,0.370964,-0.003348,-1e-06,-2.4e-05,0.001251,0.0,4e-06,0.0,0.0,0.0,0.0,0.0,0.0
549800,-0.008062,-0.002301,0.004508,0.0,0.0,0.0,0.0,0.0,0.0,3.0,0.285747,0.35522,0.273807,0.37213,-0.003323,-1e-06,-2.4e-05,0.001242,0.0,4e-06,0.0,0.0,0.0,0.0,0.0,0.0
549820,-0.008062,-0.002301,0.004508,0.0,0.0,0.0,0.0,0.0,0.0,3.0,0.288812,0.353043,0.277839,0.369325,-0.003298,-1e-06,-2.4e-05,0.001233,0.0,4e-06,0.0,0.0,0.0,0.0,0.0,0.0
549840,-0.00794,-0.002302,0.004386,0.0,0.0,0.0,0.0,0.0,0.0,3.0,0.286265,0.353786,0.276525,0.371316,-0.003273,-1e-06,-2.4e-05,0.001224,0.0,4e-06,0.0,0.0,0.0,0.0,0.0,0.0
549860,-0.008062,-0.002302,0.004386,0.0,0.0,0.0,0.0,0.0,0.0,3.0,0.285155,0.355371,0.274783,0.371758,-0.003249,-1e-06,-2.4e-05,0.001214,0.0,4e-06,0.0,0.0,0.0,0.0,0.0,0.0
549880,-0.007941,-0.002669,0.004262,0.0,0.0,0.0,0.0,0.0,0.0,3.0,0.286947,0.356691,0.27491,0.36916,-0.003225,-1e-06,-2.4e-05,0.001205,0.0,4e-06,0.0,0.0,0.0,0.0,0.0,0.0
549900,-0.008063,-0.002913,0.004139,0.0,0.0,0.0,0.0,0.0,0.0,3.0,0.289295,0.356606,0.274666,0.367725,-0.003201,-1e-06,-2.3e-05,0.001196,0.0,4e-06,0.0,0.0,0.0,0.0,0.0,0.0
549920,-0.008185,-0.003035,0.004139,0.0,0.0,0.0,0.0,0.0,0.0,3.0,0.287185,0.357367,0.273445,0.369318,-0.003177,-1e-06,-2.3e-05,0.001187,0.0,4e-06,0.0,0.0,0.0,0.0,0.0,0.0
549940,-0.008185,-0.003035,0.004139,0.0,0.0,0.0,0.0,0.0,0.0,3.0,0.285897,0.358701,0.271,0.370554,-0.003153,-1e-06,-2.3e-05,0.001179,0.0,4e-06,0.0,0.0,0.0,0.0,0.0,0.0
549960,-0.008064,-0.003524,0.004015,0.0,0.0,0.0,0.0,0.0,0.0,3.0,0.288069,0.357932,0.274187,0.367649,-0.00313,-1e-06,-2.3e-05,0.00117,0.0,4e-06,0.0,0.0,0.0,0.0,0.0,0.0
549980,-0.008064,-0.003647,0.003892,0.0,0.0,0.0,0.0,0.0,0.0,3.0,0.287142,0.358299,0.273674,0.368301,-0.003106,-1e-06,-2.3e-05,0.001161,0.0,4e-06,0.0,0.0,0.0,0.0,0.0,0.0
550000,-0.007942,-0.003525,0.003893,0.0,0.0,0.0,0.0,0.0,0.0,3.0,0.288049,0.357351,0.273859,0.368443,-0.003083,-1e-06,-2.3e-05,0.001152,0.0,4e-06,0.0,0.0,0.0,0.0,0.0,0.0
550020,-0.00782,-0.003525,0.003893,0.0,0.0,0.0,0.0,0.0,0.0,3.0,0.288247,0.356827,0.272741,0.369544,-0.00306,-1e-06,-2.3e-05,0.001144,0.0,4e-06,0.0,0.0,0.0,0.0,0.0,0.0
550040,-0.00782,-0.003647,0.003893,0.0,0.0,0.0,0.0,0.0,0.0,3.0,0.288041,0.356924,0.272866,0.369515,-0.003037,-1e-06,-2.3e-05,0.001135,0.0,4e-06,0.0,0.0,0.0,0.0,0.0,0.0
550060,-0.007698,-0.003647,0.003893,0.0,0.0,0.0,0.0,0.0,0.0,3.0,0.288469,0.357318,0.272371,0.369159,-0.003015,-1e-06,-2.3e-05,0.001127,0.0,4e-06,0.0,0.0,0.0,0.0,0.0,0.0
550080,-0.007576,-0.003647,0.003893,0.0,0.0,0.0,0.0,0.0,0.0,3.0,0.283857,0.35921,0.269652,0.372359,-0.002992,-1e-06,-2.3e-05,0.001118,0.0,4e-06,0.0,0.0,0.0,0.0,0.0,0.0
550100,-0.007698,-0.003769,0.003892,0.0,0.0,0.0,0.0,0.0,0.0,3.0,0.287215,0.358443,0.27007,0.370475,-0.00297,-1e-06,-2.3e-05,0.00111,0.0,4e-06,0.0,0.0,0.0,0.0,0.0,0.0
550120,-0.007821,-0.004013,0.004013,0.0,0.0,0.0,0.0,0.0,0.0,3.0,0.288595,0.357747,0.270576,0.369833,-0.002948,-1e-06,-2.3e-05,0.001102,0.0,4e-06,0.0,0.0,0.0,0.0,0.0,0.0
550140,-0.007822,-0.004379,0.004012,0.0,0.0,0.0,0.0,0.0,0.0,3.0,0.287625,0.357205,0.272585,0.369727,-0.002926,-1e-06,-2.3e-05,0.001094,0.0,4e-06,0.0,0.0,0.0,0.0,0.0,0.0
550160,-0.007578,-0.004379,0.004134,0.0,0.0,0.0,0.0,0.0,0.0,3.0,0.28595,0.356927,0.274365,0.370003,-0.002904,-1e-06,-2.2e-05,0.001085,0.0,4e-06,0.0,0.0,0.0,0.0,0.0,0.0
550180,-0.007578,-0.004379,0.004134,0.0,0.0,0.0,0.0,0.0,0.0,3.0,0.285738,0.356794,0.273222,0.371033,-0.002882,-1e-06,-2.2e-05,0.001077,0.0,4e-06,0.0,0.0,0.0,0.0,0.0,0.0
550200,-0.007456,-0.004379,0.004135,0.0,0.0,0.0,0.0,0.0,0.0,3.0,0.285922,0.355909,0.273788,0.37137,-0.002861,-0.0,-2.2e-05,0.001069,0.0,4e-06,0.0,0.0,0.0,0.0,0.0,0.0
550220,-0.007578,-0.004257,0.004135,0.0,0.0,0.0,0.0,0.0,0.0,3.0,0.285642,0.356201,0.274095,0.371088,-0.00284,-0.0,-2.2e-05,0.001061,0.0,4e-06,0.0,0.0,0.0,0.0,0.0,0.0
550240,-0.0077,-0.004134,0.004257,0.0,0.0,0.0,0.0,0.0,0.0,3.0,0.286068,0.356823,0.273621,0.370511,-0.002818,-0.0,-2.2e-05,0.001053,0.0,4e-06,0.0,0.0,0.0,0.0,0.0,0.0
550260,-0.007455,-0.004013,0.004258,0.0,0.0,0.0,0.0,0.0,0.0,3.0,0.285326,0.357496,0.273054,0.370764,-0.002797,-0.0,-2.2e-05,0.001046,0.0,4e-06,0.0,0.0,0.0,0.0,0.0,0.0
550280,-0.007578,-0.004012,0.00438,0.0,0.0,0.0,0.0,0.0,0.0,3.0,0.283337,0.360037,0.268368,0.372749,-0.002777,-0.0,-2.2e-05,0.001038,0.0,4e-06,0.0,0.0,0.0,0.0,0.0,0.0
550300,-0.007456,-0.004134,0.00438,0.0,0.0,0.0,0.0,0.0,0.0,3.0,0.285862,0.359835,0.272473,0.36852,-0.002756,-0.0,-2.2e-05,0.00103,0.0,4e-06,0.0,0.0,0.0,0.0,0.0,0.0
550320,-0.007334,-0.004379,0.004379,0.0,0.0,0.0,0.0,0.0,0.0,3.0,0.286138,0.358828,0.27252,0.369267,-0.002735,-0.0,-2.2e-05,0.001022,0.0,4e-06,0.0,0.0,0.0,0.0,0.0,0.0
550340,-0.007212,-0.004134,0.004502,0.0,0.0,0.0,0.0,0.0,0.0,3.0,0.285777,0.359429,0.270663,0.370158,-0.002715,-0.0,-2.2e-05,0.001015,0.0,4e-06,0.0,0.0,0.0,0.0,0.0,0.0
550360,-0.00709,-0.004012,0.004503,0.0,0.0,0.0,0.0,0.0,0.0,3.0,0.286152,0.358561,0.271875,0.369938,-0.002695,-0.0,-2.2e-05,0.001007,0.0,4e-06,0.0,0.0,0.0,0.0,0.0,0.0
550380,-0.00709,-0.004012,0.004503,0.0,0.0,0.0,0.0,0.0,0.0,3.0,0.288272,0.357791,0.273226,0.36828,-0.002675,-0.0,-2.2e-05,0.001,0.0,4e-06,0.0,0.0,0.0,0.0,0.0,0.0
550400,-0.00709,-0.004135,0.004503,0.0,0.0,0.0,0.0,0.0,0.0,3.0,0.287405,0.359353,0.270789,0.368998,-0.002655,-0.0,-2.2e-05,0.000992,0.0,4e-06,0.0,0.0,0.0,0.0,0.0,0.0
550420,-0.00709,-0.004257,0.004502,0.0,0.0,0.0,0.0,0.0,0.0,3.0,0.288822,0.357402,0.272542,0.368713,-0.002635,-0.0,-2.1e-05,0.000985,0.0,4e-06,0.0,0.0,0.0,0.0,0.0,0.0
550440,-0.00709,-0.004379,0.004502,0.0,0.0,0.0,0.0,0.0,0.0,3.0,0.290066,0.356152,0.273112,0.368638,-0.002615,-0.0,-2.1e-05,0.000978,0.0,4e-06,0.0,0.0,0.0,0.0,0.0,0.0
550460,-0.007091,-0.004623,0.004501,0.0,0.0,0.0,0.0,0.0,0.0,3.0,0.28712,0.357704,0.272808,0.369462,-0.002596,-0.0,-2.1e-05,0.00097,0.0,4e-06,0.0,0.0,0.0,0.0,0.0,0.0
550480,-0.007213,-0.004745,0.0045,0.0,0.0,0.0,0.0,0.0,0.0,3.0,0.286412,0.357394,0.27328,0.369949,-0.002576,-0.0,-2.1e-05,0.000963,0.0,4e-06,0.0,0.0,0.0,0.0,0.0,0.0
550500,-0.006969,-0.004867,0.0045,0.0,0.0,0.0,0.0,0.0,0.0,3.0,0.285396,0.356651,0.274259,0.370725,-0.002557,-0.0,-2.1e-05,0.000956,0.0,4e-06,0.0,0.0,0.0,0.0,0.0,0.0
550520,-0.006969,-0.004501,0.004502,0.0,0.0,0.0,0.0,0.0,0.0,3.0,0.283953,0.355966,0.273915,0.372603,-0.002538,-0.0,-2.1e-05,0.000949,0.0,4e-06,0.0,0.0,0.0,0.0,0.0,0.0
550540,-0.006846,-0.004501,0.004502,0.0,0.0,0.0,0.0,0.0,0.0,3.0,0.282763,0.357135,0.275016,0.371593,-0.002519,-0.0,-2.1e-05,0.000942,0.0,4e-06,0.0,0.0,0.0,0.0,0.0,0.0
550560,-0.006968,-0.004502,0.004379,0.0,0.0,0.0,0.0,0.0,0.0,3.0,0.287012,0.357173,0.274501,0.368926,-0.0025,-0.0,-2.1e-05,0.000935,0.0,4e-06,0.0,0.0,0.0,0.0,0.0,0.0
550580,-0.006846,-0.004502,0.00438,0.0,0.0,0.0,0.0,0.0,0.0,3.0,0.285888,0.358743,0.27234,0.369644,-0.002482,-0.0,-2.1e-05,0.000928,0.0,4e-06,0.0,0.0,0.0,0.0,0.0,0.0
550600,-0.00709,-0.004257,0.00438,0.0,0.0,0.0,0.0,0.0,0.0,3.0,0.28506,0.35818,0.272937,0.370373,-0.002463,-0.0,-2.1e-05,0.000921,0.0,4e-06,0.0,0.0,0.0,0.0,0.0,0.0
550620,-0.006969,-0.004624,0.004379,0.0,0.0,0.0,0.0,0.0,0.0,3.0,0.286274,0.359852,0.271636,0.368763,-0.002445,-0.0,-2.1e-05,0.000914,0.0,4e-06,0.0,0.0,0.0,0.0,0.0,0.0
550640,-0.006847,-0.004746,0.004379,0.0,0.0,0.0,0.0,0.0,0.0,3.0,0.284066,0.360552,0.27034,0.370483,-0.002427,-0.0,-2.1e-05,0.000907,0.0,4e-06,0.0,0.0,0.0,0.0,0.0,0.0
550660,-0.006724,-0.004625,0.004258,0.0,0.0,0.0,0.0,0.0,0.0,3.0,0.283728,0.360003,0.268585,0.372373,-0.002409,-0.0,-2.1e-05,0.0009,0.0,4e-06,0.0,0.0,0.0,0.0,0.0,0.0
550680,-0.006724,-0.004258,0.004381,0.0,0.0,0.0,0.0,0.0,0.0,3.0,0.283196,0.359512,0.268044,0.373552,-0.002391,-0.0,-2.1e-05,0.000894,0.0,4e-06,0.0,0.0,0.0,0.0,0.0,0.0
550700,-0.006723,-0.004136,0.004259,0.0,0.0,0.0,0.0,0.0,0.0,3.0,0.283736,0.359791,0.268272,0.372769,-0.002373,-0.0,-2e-05,0.000887,0.0,4e-06,0.0,0.0,0.0,0.0,0.0,0.0
550720,-0.006724,-0.00438,0.004258,0.0,0.0,0.0,0.0,0.0,0.0,3.0,0.284444,0.360034,0.270257,0.370773,-0.002355,-0.0,-2e-05,0.00088,0.0,3e-06,0.0,0.0,0.0,0.0,0.0,0.0
550740,-0.006724,-0.004502,0.004258,0.0,0.0,0.0,0.0,0.0,0.0,3.0,0.284455,0.358692,0.270328,0.372004,-0.002338,-0.0,-2e-05,0.000874,0.0,3e-06,0.0,0.0,0.0,0.0,0.0,0.0
550760,-0.006602,-0.004381,0.004259,0.0,0.0,0.0,0.0,0.0,0.0,3.0,0.286337,0.358695,0.272324,0.369384,-0.00232,-0.0,-2e-05,0.000867,0.0,3e-06,0.0,0.0,0.0,0.0,0.0,0.0
550780,-0.00648,-0.004503,0.004259,0.0,0.0,0.0,0.0,0.0,0.0,3.0,0.285781,0.357916,0.27217,0.370623,-0.002303,-0.0,-2e-05,0.000861,0.0,3e-06,0.0,0.0,0.0,0.0,0.0,0.0
550800,-0.00648,-0.004747,0.004258,0.0,0.0,0.0,0.0,0.0,0.0,3.0,0.286035,0.35789,0.271808,0.370706,-0.002286,-0.0,-2e-05,0.000854,0.0,3e-06,0.0,0.0,0.0,0.0,0.0,0.0
550820,-0.00648,-0.004625,0.004258,0.0,0.0,0.0,0.0,0.0,0.0,3.0,0.285077,0.357329,0.272752,0.371295,-0.002269,-0.0,-2e-05,0.000848,0.0,3e-06,0.0,0.0,0.0,0.0,0.0,0.0
550840,-0.006236,-0.004504,0.004259,0.0,0.0,0.0,0.0,0.0,0.0,3.0,0.287075,0.354875,0.278025,0.368704,-0.002252,-0.0,-2e-05,0.000842,0.0,3e-06,0.0,0.0,0.0,0.0,0.0,0.0
550860,-0.006235,-0.00426,0.004138,0.0,0.0,0.0,0.0,0.0,0.0,3.0,0.285744,0.356585,0.273698,0.370914,-0.002235,-0.0,-2e-05,0.000835,0.0,3e-06,0.0,0.0,0.0,0.0,0.0,0.0
550880,-0.006234,-0.00426,0.004016,0.0,0.0,0.0,0.0,0.0,0.0,3.0,0.288401,0.355758,0.277074,0.367559,-0.002218,-0.0,-2e-05,0.000829,0.0,3e-06,0.0,0.0,0.0,0.0,0.0,0.0
550900,-0.006234,-0.00426,0.004016,0.0,0.0,0.0,0.0,0.0,0.0,3.0,0.285392,0.358555,0.273566,0.369366,-0.002202,-0.0,-2e-05,0.000823,0.0,3e-06,0.0,0.0,0.0,0.0,0.0,0.0
550920,-0.00599,-0.004261,0.003894,0.0,0.0,0.0,0.0,0.0,0.0,3.0,0.286096,0.35685,0.276277,0.368695,-0.002185,-0.0,-2e-05,0.000817,0.0,3e-06,0.0,0.0,0.0,0.0,0.0,0.0
550940,-0.00599,-0.004139,0.003894,0.0,0.0,0.0,0.0,0.0,0.0,3.0,0.285786,0.358203,0.273251,0.369635,-0.002169,-0.0,-2e-05,0.000811,0.0,3e-06,0.0,0.0,0.0,0.0,0.0,0.0
550960,-0.005868,-0.004262,0.003772,0.0,0.0,0.0,0.0,0.0,0.0,3.0,0.289841,0.356291,0.276161,0.366626,-0.002153,-0.0,-2e-05,0.000805,0.0,3e-06,0.0,0.0,0.0,0.0,0.0,0.0
550980,-0.005868,-0.004384,0.003772,0.0,0.0,0.0,0.0,0.0,0.0,3.0,0.286936,0.358909,0.272612,0.368563,-0.002137,-0.0,-2e-05,0.000799,0.0,3e-06,0.0,0.0,0.0,0.0,0.0,0.0
551000,-0.005745,-0.004262,0.00365,0.0,0.0,0.0,0.0,0.0,0.0,3.0,0.289864,0.356232,0.276481,0.366448,-0.002121,-0.0,-1.9e-05,0.000793,0.0,3e-06,0.0,0.0,0.0,0.0,0.0,0.0
551020,-0.005745,-0.004018,0.003651,0.0,0.0,0.0,0.0,0.0,0.0,3.0,0.288179,0.356893,0.271574,0.370295,-0.002105,-0.0,-1.9e-05,0.000787,0.0,3e-06,0.0,0.0,0.0,0.0,0.0,0.0
551040,-0.005745,-0.004018,0.003651,0.0,0.0,0.0,0.0,0.0,0.0,3.0,0.286836,0.357452,0.27256,0.370068,-0.002089,-0.0,-1.9e-05,0.000781,0.0,3e-06,0.0,0.0,0.0,0.0,0.0,0.0
551060,-0.005745,-0.00414,0.003529,0.0,0.0,0.0,0.0,0.0,0.0,3.0,0.28631,0.357619,0.273053,0.369956,-0.002074,-0.0,-1.9e-05,0.000775,0.0,3e-06,0.0,0.0,0.0,0.0,0.0,0.0
551080,-0.005745,-0.004263,0.003528,0.0,0.0,0.0,0.0,0.0,0.0,3.0,0.288405,0.356917,0.272081,0.369779,-0.002058,-0.0,-1.9e-05,0.000769,0.0,3e-06,0.0,0.0,0.0,0.0,0.0,0.0
551100,-0.005623,-0.004141,0.003529,0.0,0.0,0.0,0.0,0.0,0.0,3.0,0.286052,0.356523,0.273698,0.370757,-0.002043,-0.0,-1.9e-05,0.000764,0.0,3e-06,0.0,0.0,0.0,0.0,0.0,0.0
551120,-0.005622,-0.004019,0.003407,0.0,0.0,0.0,0.0,0.0,0.0,3.0,0.289827,0.353415,0.277022,0.368798,-0.002028,-0.0,-1.9e-05,0.000758,0.0,3e-06,0.0,0.0,0.0,0.0,0.0,0.0
551140,-0.005623,-0.004141,0.003407,0.0,0.0,0.0,0.0,0.0,0.0,3.0,0.287896,0.356876,0.274264,0.368739,-0.002013,-0.0,-1.9e-05,0.000752,0.0,3e-06,0.0,0.0,0.0,0.0,0.0,0.0
551160,-0.005501,-0.004141,0.003407,0.0,0.0,0.0,0.0,0.0,0.0,3.0,0.285682,0.356443,0.274472,0.370581,-0.001998,-0.0,-1.9e-05,0.000747,0.0,3e-06,0.0,0.0,0.0,0.0,0.0,0.0
551180,-0.005256,-0.00402,0.003286,0.0,0.0,0.0,0.0,0.0,0.0,3.0,0.285787,0.354579,0.27808,0.369858,-0.001983,-0.0,-1.9e-05,0.000741,0.0,3e-06,0.0,0.0,0.0,0.0,0.0,0.0
551200,-0.005255,-0.003654,0.003287,0.0,0.0,0.0,0.0,0.0,0.0,3.0,0.28463,0.355406,0.275976,0.3713,-0.001968,-0.0,-1.9e-05,0.000736,0.0,3e-06,0.0,0.0,0.0,0.0,0.0,0.0
551220,-0.005255,-0.003654,0.003287,0.0,0.0,0.0,0.0,0.0,0.0,3.0,0.286872,0.355013,0.277319,0.369196,-0.001953,-0.0,-1.9e-05,0.00073,0.0,3e-06,0.0,0.0,0.0,0.0,0.0,0.0
551240,-0.005377,-0.003654,0.003042,0.0,0.0,0.0,0.0,0.0,0.0,3.0,0.28856,0.355843,0.277033,0.36739,-0.001939,-0.0,-1.9e-05,0.000725,0.0,3e-06,0.0,0.0,0.0,0.0,0.0,0.0
551260,-0.005255,-0.003776,0.003042,0.0,0.0,0.0,0.0,0.0,0.0,3.0,0.286008,0.358569,0.275413,0.367684,-0.001924,-0.0,-1.9e-05,0.000719,0.0,3e-06,0.0,0.0,0.0,0.0,0.0,0.0
551280,-0.005255,-0.003532,0.003043,0.0,0.0,0.0,0.0,0.0,0.0,3.0,0.289053,0.355825,0.275787,0.367896,-0.00191,-0.0,-1.9e-05,0.000714,0.0,3e-06,0.0,0.0,0.0,0.0,0.0,0.0
551300,-0.005377,-0.003654,0.00292,0.0,0.0,0.0,0.087266,0.0,0.0,3.0,0.465543,0.358048,0.15,0.367402,-0.000865,-0.0,3.2e-05,0.328456,1.7e-05,0.014667,0.0,0.0,0.0,0.0,0.0,0.0
551320,-0.005254,-0.003778,0.002554,0.0,0.0,0.0,0.087266,0.0,0.0,3.0,0.347419,0.353751,0.198809,0.363072,0.007539,1e-06,0.000346,0.503079,0.000221,0.0156,0.0,0.0,0.0,0.0,0.0,0.0
551340,-0.004521,-0.004024,0.001822,0.0,0.0,0.0,0.087266,0.0,0.0,3.0,0.337267,0.35253,0.225558,0.36145,0.017755,4e-06,0.00065,0.51495,0.000451,0.01453,0.0,0.0,0.0,0.0,0.0,0.0
551360,-0.002566,-0.003661,0.001216,0.0,0.0,0.0,0.087266,0.0,0.0,3.0,0.331777,0.349615,0.235469,0.363996,0.028007,8e-06,0.000932,0.50722,0.000649,0.013394,0.0,0.0,0.0,0.0,0.0,0.0
551380,0.000853,-0.003296,0.000856,0.0,0.0,0.0,0.087266,0.0,0.0,3.0,0.323104,0.351144,0.244421,0.365114,0.038064,1.4e-05,0.001192,0.494879,0.00081,0.012225,0.0,0.0,0.0,0.0,0.0,0.0
551400,0.005859,-0.002931,0.000497,0.0,0.0,0.0,0.087266,0.0,0.0,3.0,0.31468,0.349741,0.256342,0.366446,0.047852,2.1e-05,0.001428,0.479761,0.000934,0.011034,0.0,0.0,0.0,0.0,0.0,0.0
551420,0.012085,-0.002687,0.00026,0.0,0.0,0.0,0.087266,0.0,0.0,3.0,0.306749,0.349392,0.26908,0.365098,0.057321,3e-05,0.00164,0.4625,0.001021,0.00983,0.0,0.0,0.0,0.0,0.0,0.0
551440,0.019776,-0.002198,0.000144,0.0,0.0,0.0,0.087266,0.0,0.0,3.0,0.294144,0.350544,0.277009,0.368361,0.066431,3.9e-05,0.001829,0.443574,0.001073,0.008623,0.0,0.0,0.0,0.0,0.0,0.0
551460,0.028566,-0.001709,2.4e-05,0.0,0.0,0.0,0.087266,0.0,0.0,3.0,0.284362,0.35122,0.287121,0.367747,0.075153,5e-05,0.001993,0.423394,0.001092,0.00742,0.0,0.0,0.0,0.0,0.0,0.0
551480,0.038335,-0.001218,-9.9e-05,0.0,0.0,0.0,0.087266,0.0,0.0,3.0,0.274693,0.350083,0.296733,0.36843,0.083464,6e-05,0.002134,0.40232,0.00108,0.006231,0.0,0.0,0.0,0.0,0.0,0.0
551500,0.049077,-0.000482,-0.000232,0.0,0.0,0.0,0.087266,0.0,0.0,3.0,0.265533,0.349616,0.305089,0.36848,0.091348,7.2e-05,0.002251,0.380666,0.001039,0.005062,0.0,0.0,0.0,0.0,0.0,0.0
551520,0.06007,0.000377,-0.000377,0.0,0.0,0.0,0.087266,0.0,0.0,3.0,0.259904,0.347056,0.316227,0.365504,0.098797,8.3e-05,0.002345,0.358705,0.000973,0.003921,0.0,0.0,0.0,0.0,0.0,0.0
551540,0.071428,0.001237,-0.000532,0.0,0.0,0.0,0.087266,0.0,0.0,3.0,0.247077,0.347294,0.32291,0.367378,0.105806,9.5e-05,0.002417,0.336671,0.000884,0.002814,0.0,0.0,0.0,0.0,0.0,0.0
551560,0.082791,0.001982,-0.000813,0.0,0.0,0.0,0.087266,0.0,0.0,3.0,0.244671,0.34458,0.32942,0.365692,0.112375,0.000106,0.002467,0.314763,0.000776,0.001747,0.0,0.0,0.0,0.0,0.0,0.0
551580,0.094032,0.002729,-0.001102,0.0,0.0,0.0,0.087266,0.0,0.0,3.0,0.234992,0.344362,0.334988,0.366317,0.118508,0.000118,0.002495,0.293151,0.000651,0.000726,0.0,0.0,0.0,0.0,0.0,0.0
551600,0.104907,0.003471,-0.001276,0.0,0.0,0.0,0.087266,0.0,0.0,3.0,0.226214,0.344578,0.338914,0.367131,0.124211,0.000129,0.002504,0.271975,0.000513,-0.000246,0.0,0.0,0.0,0.0,0.0,0.0
551620,0.1153,0.00435,-0.001709,0.0,0.0,0.0,0.087266,0.0,0.0,3.0,0.228551,0.340122,0.344719,0.364726,0.129495,0.00014,0.002493,0.251354,0.000365,-0.001162,0.0,0.0,0.0,0.0,0.0,0.0
551640,0.124962,0.005346,-0.002034,0.0,0.0,0.0,0.087266,0.0,0.0,3.0,0.223364,0.339743,0.346436,0.366074,0.134371,0.00015,0.002465,0.231381,0.000209,-0.002021,0.0,0.0,0.0,0.0,0.0,0.0
551660,0.133762,0.005985,-0.002462,0.0,0.0,0.0,0.087266,0.0,0.0,3.0,0.222744,0.338804,0.349986,0.363894,0.138853,0.000159,0.002419,0.212133,4.8e-05,-0.002818,0.0,0.0,0.0,0.0,0.0,0.0
551680,0.141597,0.006505,-0.002885,0.0,0.0,0.0,0.087266,0.0,0.0,3.0,0.223856,0.337756,0.350723,0.363595,0.142956,0.000167,0.002358,0.193667,-0.000115,-0.003552,0.0,0.0,0.0,0.0,0.0,0.0
551700,0.14857,0.006904,-0.003299,0.0,0.0,0.0,0.087266,0.0,0.0,3.0,0.222315,0.337688,0.352365,0.362847,0.146696,0.000175,0.002282,0.176027,-0.000278,-0.004221,0.0,0.0,0.0,0.0,0.0,0.0
551720,0.154691,0.007305,-0.003712,0.0,0.0,0.0,0.087266,0.0,0.0,3.0,0.2193,0.339008,0.349901,0.365459,0.150089,0.000181,0.002193,0.159241,-0.000439,-0.004823,0.0,0.0,0.0,0.0,0.0,0.0
551740,0.159586,0.007583,-0.004113,0.0,0.0,0.0,0.087266,0.0,0.0,3.0,0.223944,0.338627,0.348666,0.364712,0.153153,0.000186,0.002092,0.143329,-0.000595,-0.005358,0.0,0.0,0.0,0.0,0.0,0.0
551760,0.163498,0.007731,-0.00438,0.0,0.0,0.0,0.087266,0.0,0.0,3.0,0.23283,0.336109,0.348569,0.362525,0.155906,0.000191,0.00198,0.128298,-0.000746,-0.005826,0.0,0.0,0.0,0.0,0.0,0.0
551780,0.166436,0.007766,-0.004755,0.0,0.0,0.0,0.087266,0.0,0.0,3.0,0.232426,0.338743,0.344931,0.363772,0.158364,0.000193,0.00186,0.114147,-0.000888,-0.006226,0.0,0.0,0.0,0.0,0.0,0.0
551800,0.168524,0.007547,-0.004986,0.0,0.0,0.0,0.087266,0.0,0.0,3.0,0.234273,0.340467,0.34301,0.363,0.160546,0.000195,0.001731,0.100869,-0.001022,-0.00656,0.0,0.0,0.0,0.0,0.0,0.0
551820,0.169751,0.007205,-0.005202,0.0,0.0,0.0,0.087266,0.0,0.0,3.0,0.240069,0.341045,0.339783,0.36228,0.162469,0.000195,0.001596,0.08845,-0.001145,-0.006828,0.0,0.0,0.0,0.0,0.0,0.0
551840,0.169995,0.00674,-0.005405,0.0,0.0,0.0,0.087266,0.0,0.0,3.0,0.245137,0.343107,0.336271,0.360694,0.16415,0.000194,0.001456,0.076868,-0.001257,-0.007033,0.0,0.0,0.0,0.0,0.0,0.0
551860,0.169631,0.006263,-0.005484,0.0,0.0,0.0,0.087266,0.0,0.0,3.0,0.250204,0.343038,0.333518,0.360269,0.165605,0.000192,0.001312,0.066102,-0.001358,-0.007176,0.0,0.0,0.0,0.0,0.0,0.0
551880,0.168769,0.005916,-0.005694,0.0,0.0,0.0,0.087266,0.0,0.0,3.0,0.254322,0.34295,0.329405,0.361534,0.166851,0.000188,0.001165,0.056124,-0.001446,-0.00726,0.0,0.0,0.0,0.0,0.0,0.0
551900,0.167787,0.005671,-0.005671,0.0,0.0,0.0,0.087266,0.0,0.0,3.0,0.255746,0.343871,0.32765,0.361344,0.167903,0.000184,0.001017,0.046904,-0.00152,-0.007286,0.0,0.0,0.0,0.0,0.0,0.0
551920,0.166692,0.005435,-0.00577,0.0,0.0,0.0,0.087266,0.0,0.0,3.0,0.25848,0.341275,0.327623,0.362087,0.168776,0.000178,0.000868,0.038411,-0.001582,-0.007259,0.0,0.0,0.0,0.0,0.0,0.0
551940,0.16583,0.005565,-0.0059,0.0,0.0,0.0,0.087266,0.0,0.0,3.0,0.259603,0.339306,0.330135,0.360984,0.169485,0.00017,0.00072,0.03061,-0.001631,-0.007181,0.0,0.0,0.0,0.0,0.0,0.0
551960,0.164847,0.00545,-0.006009,0.0,0.0,0.0,0.087266,0.0,0.0,3.0,0.256221,0.342288,0.327087,0.363017,0.170043,0.000162,0.000574,0.023467,-0.001666,-0.007056,0.0,0.0,0.0,0.0,0.0,0.0
551980,0.163995,0.00557,-0.006017,0.0,0.0,0.0,0.087266,0.0,0.0,3.0,0.256632,0.339911,0.329482,0.362858,0.170462,0.000153,0.00043,0.016948,-0.001689,-0.006886,0.0,0.0,0.0,0.0,0.0,0.0
552000,0.163254,0.005578,-0.006137,0.0,0.0,0.0,0.087266,0.0,0.0,3.0,0.254962,0.33985,0.329132,0.364242,0.170756,0.000142,0.00029,0.011017,-0.001699,-0.006676,0.0,0.0,0.0,0.0,0.0,0.0
552020,0.16301,0.005699,-0.006146,0.0,0.0,0.0,0.087266,0.0,0.0,3.0,0.2511,0.341677,0.330482,0.363705,0.170935,0.000131,0.000154,0.00564,-0.001696,-0.00643,0.0,0.0,0.0,0.0,0.0,0.0
552040,0.162889,0.005577,-0.006136,0.0,0.0,0.0,0.087266,0.0,0.0,3.0,0.253675,0.340755,0.331538,0.362073,0.17101,0.000119,2.4e-05,0.000781,-0.001682,-0.00615,0.0,0.0,0.0,0.0,0.0,0.0
552060,0.163011,0.005456,-0.006126,0.0,0.0,0.0,0.087266,0.0,0.0,3.0,0.252651,0.34107,0.331744,0.362219,0.170992,0.000107,-0.000101,-0.003592,-0.001657,-0.005841,0.0,0.0,0.0,0.0,0.0,0.0
552080,0.163011,0.005456,-0.006126,0.0,0.0,0.0,0.087266,0.0,0.0,3.0,0.251754,0.34168,0.332129,0.361852,0.17089,9.4e-05,-0.000219,-0.007514,-0.001622,-0.005507,0.0,0.0,0.0,0.0,0.0,0.0
552100,0.163012,0.005202,-0.005985,0.0,0.0,0.0,0.087266,0.0,0.0,3.0,0.246565,0.345319,0.329556,0.363802,0.170713,8.1e-05,-0.00033,-0.011016,-0.001577,-0.005151,0.0,0.0,0.0,0.0,0.0,0.0
552120,0.163377,0.005203,-0.005985,0.0,0.0,0.0,0.087266,0.0,0.0,3.0,0.249212,0.341795,0.333333,0.362183,0.170469,6.7e-05,-0.000434,-0.014128,-0.001523,-0.004778,0.0,0.0,0.0,0.0,0.0,0.0
552140,0.163499,0.005325,-0.005995,0.0,0.0,0.0,0.087266,0.0,0.0,3.0,0.251082,0.339858,0.333136,0.363035,0.170165,5.3e-05,-0.000531,-0.016881,-0.00146,-0.00439,0.0,0.0,0.0,0.0,0.0,0.0
552160,0.163498,0.005447,-0.006005,0.0,0.0,0.0,0.087266,0.0,0.0,3.0,0.251235,0.340354,0.332894,0.362704,0.169809,3.9e-05,-0.000619,-0.019303,-0.001391,-0.003992,0.0,0.0,0.0,0.0,0.0,0.0
552180,0.163499,0.005325,-0.005995,0.0,0.0,0.0,0.087266,0.0,0.0,3.0,0.25233,0.34008,0.3323,0.362828,0.169407,2.5e-05,-0.0007,-0.02142,-0.001315,-0.003587,0.0,0.0,0.0,0.0,0.0,0.0
552200,0.163377,0.005437,-0.005884,0.0,0.0,0.0,0.087266,0.0,0.0,3.0,0.251968,0.340454,0.33244,0.362579,0.168964,1.2e-05,-0.000772,-0.023259,-0.001234,-0.003178,0.0,0.0,0.0,0.0,0.0,0.0
552220,0.163133,0.005558,-0.005893,0.0,0.0,0.0,0.087266,0.0,0.0,3.0,0.252689,0.341371,0.330818,0.36274,0.168487,-2e-06,-0.000835,-0.024844,-0.001148,-0.002768,0.0,0.0,0.0,0.0,0.0,0.0
552240,0.16289,0.005435,-0.005883,0.0,0.0,0.0,0.087266,0.0,0.0,3.0,0.251777,0.342311,0.33162,0.361706,0.167979,-1.5e-05,-0.000891,-0.026196,-0.001058,-0.00236,0.0,0.0,0.0,0.0,0.0,0.0
552260,0.16277,0.005182,-0.005741,0.0,0.0,0.0,0.087266,0.0,0.0,3.0,0.248477,0.343149,0.332224,0.362351,0.167446,-2.8e-05,-0.000938,-0.027339,-0.000965,-0.001958,0.0,0.0,0.0,0.0,0.0,0.0
552280,0.162892,0.005172,-0.00562,0.0,0.0,0.0,0.087266,0.0,0.0,3.0,0.247526,0.343378,0.332473,0.362474,0.166892,-4e-05,-0.000976,-0.028291,-0.00087,-0.001563,0.0,0.0,0.0,0.0,0.0,0.0
552300,0.162892,0.005172,-0.00562,0.0,0.0,0.0,0.087266,0.0,0.0,3.0,0.249035,0.343453,0.332564,0.361435,0.16632,-5.2e-05,-0.001007,-0.029072,-0.000774,-0.001178,0.0,0.0,0.0,0.0,0.0,0.0
552320,0.162527,0.005283,-0.005507,0.0,0.0,0.0,0.087266,0.0,0.0,3.0,0.25122,0.344119,0.329576,0.362167,0.165734,-6.3e-05,-0.00103,-0.029699,-0.000677,-0.000806,0.0,0.0,0.0,0.0,0.0,0.0
552340,0.162526,0.005527,-0.005527,0.0,0.0,0.0,0.087266,0.0,0.0,3.0,0.251673,0.340874,0.33162,0.363097,0.165136,-7.4e-05,-0.001045,-0.030187,-0.00058,-0.000448,0.0,0.0,0.0,0.0,0.0,0.0
552360,0.162404,0.005638,-0.005415,0.0,0.0,0.0,0.087266,0.0,0.0,3.0,0.249533,0.341136,0.331705,0.36405,0.164529,-8.3e-05,-0.001053,-0.030553,-0.000484,-0.000106,0.0,0.0,0.0,0.0,0.0,0.0
552380,0.162526,0.005628,-0.005294,0.0,0.0,0.0,0.087266,0.0,0.0,3.0,0.24334,0.343762,0.331174,0.365667,0.163916,-9.2e-05,-0.001055,-0.030809,-0.00039,0.000218,0.0,0.0,0.0,0.0,0.0,0.0
552400,0.162406,0.005375,-0.005152,0.0,0.0,0.0,0.087266,0.0,0.0,3.0,0.242595,0.345155,0.330661,0.365247,0.163299,-0.0001,-0.001049,-0.030968,-0.000298,0.000523,0.0,0.0,0.0,0.0,0.0,0.0
552420,0.162407,0.005243,-0.00502,0.0,0.0,0.0,0.087266,0.0,0.0,3.0,0.24223,0.344589,0.33088,0.365784,0.162679,-0.000108,-0.001038,-0.031043,-0.000208,0.000808,0.0,0.0,0.0,0.0,0.0,0.0
552440,0.162285,0.005243,-0.00502,0.0,0.0,0.0,0.087266,0.0,0.0,3.0,0.246496,0.342476,0.33336,0.363119,0.162058,-0.000114,-0.00102,-0.031042,-0.000121,0.001071,0.0,0.0,0.0,0.0,0.0,0.0
552460,0.162032,0.005232,-0.004897,0.0,0.0,0.0,0.087266,0.0,0.0,3.0,0.242273,0.344165,0.331087,0.36597,0.161437,-0.000119,-0.000997,-0.030978,-3.9e-05,0.001313,0.0,0.0,0.0,0.0,0.0,0.0
552480,0.16191,0.005476,-0.004917,0.0,0.0,0.0,0.087266,0.0,0.0,3.0,0.246872,0.33975,0.333975,0.364855,0.160819,-0.000124,-0.00097,-0.030857,4e-05,0.001532,0.0,0.0,0.0,0.0,0.0,0.0
552500,0.161666,0.00583,-0.004824,0.0,0.0,0.0,0.087266,0.0,0.0,3.0,0.241992,0.342086,0.331897,0.367323,0.160203,-0.000128,-0.000938,-0.030688,0.000115,0.001728,0.0,0.0,0.0,0.0,0.0,0.0
552520,0.161422,0.006073,-0.004843,0.0,0.0,0.0,0.087266,0.0,0.0,3.0,0.247613,0.339334,0.333449,0.365271,0.15959,-0.000131,-0.000902,-0.030478,0.000185,0.001901,0.0,0.0,0.0,0.0,0.0,0.0
552540,0.1613,0.006063,-0.004721,0.0,0.0,0.0,0.087266,0.0,0.0,3.0,0.244873,0.342149,0.333085,0.364597,0.158983,-0.000133,-0.000863,-0.030235,0.000249,0.002052,0.0,0.0,0.0,0.0,0.0,0.0
552560,0.161301,0.005932,-0.00459,0.0,0.0,0.0,0.087266,0.0,0.0,3.0,0.240909,0.345465,0.330763,0.365809,0.15838,-0.000134,-0.00082,-0.029962,0.000309,0.002179,0.0,0.0,0.0,0.0,0.0,0.0
552580,0.161058,0.0058,-0.004458,0.0,0.0,0.0,0.087266,0.0,0.0,3.0,0.241738,0.347028,0.329158,0.365294,0.157783,-0.000135,-0.000775,-0.029667,0.000364,0.002285,0.0,0.0,0.0,0.0,0.0,0.0
552600,0.160816,0.005556,-0.004438,0.0,0.0,0.0,0.087266,0.0,0.0,3.0,0.247121,0.343555,0.331442,0.36346,0.157192,-0.000134,-0.000729,-0.029353,0.000413,0.002368,0.0,0.0,0.0,0.0,0.0,0.0
552620,0.160563,0.005555,-0.004436,0.0,0.0,0.0,0.087266,0.0,0.0,3.0,0.247556,0.342694,0.331771,0.363714,0.156607,-0.000133,-0.00068,-0.029024,0.000457,0.002429,0.0,0.0,0.0,0.0,0.0,0.0
552640,0.160562,0.005677,-0.004446,0.0,0.0,0.0,0.087266,0.0,0.0,3.0,0.246627,0.341478,0.332922,0.364353,0.156029,-0.000132,-0.00063,-0.028684,0.000495,0.002471,0.0,0.0,0.0,0.0,0.0,0.0
552660,0.160441,0.005677,-0.004446,0.0,0.0,0.0,0.087266,0.0,0.0,3.0,0.251295,0.338056,0.335754,0.362204,0.155458,-0.000129,-0.00058,-0.028337,0.000528,0.002492,0.0,0.0,0.0,0.0,0.0,0.0
552680,0.160197,0.005798,-0.004455,0.0,0.0,0.0,0.087266,0.0,0.0,3.0,0.244261,0.34276,0.331566,0.365726,0.154894,-0.000126,-0.000529,-0.027985,0.000555,0.002494,0.0,0.0,0.0,0.0,0.0,0.0
552700,0.160076,0.005676,-0.004445,0.0,0.0,0.0,0.087266,0.0,0.0,3.0,0.247869,0.34087,0.33227,0.364768,0.154337,-0.000123,-0.000478,-0.027631,0.000577,0.002479,0.0,0.0,0.0,0.0,0.0,0.0
552720,0.159832,0.005554,-0.004435,0.0,0.0,0.0,0.087266,0.0,0.0,3.0,0.247586,0.341917,0.332223,0.364013,0.153787,-0.000119,-0.000427,-0.027276,0.000594,0.002446,0.0,0.0,0.0,0.0,0.0,0.0
552740,0.159711,0.005311,-0.004415,0.0,0.0,0.0,0.087266,0.0,0.0,3.0,0.248994,0.343554,0.330683,0.363037,0.153244,-0.000115,-0.000377,-0.026922,0.000607,0.002398,0.0,0.0,0.0,0.0,0.0,0.0
552760,0.159711,0.005311,-0.004415,0.0,0.0,0.0,0.087266,0.0,0.0,3.0,0.245781,0.343525,0.331494,0.364217,0.152708,-0.00011,-0.000328,-0.026572,0.000614,0.002336,0.0,0.0,0.0,0.0,0.0,0.0
552780,0.159711,0.005432,-0.004425,0.0,0.0,0.0,0.087266,0.0,0.0,3.0,0.246022,0.343014,0.332042,0.364066,0.152179,-0.000105,-0.000281,-0.026225,0.000617,0.00226,0.0,0.0,0.0,0.0,0.0,0.0
552800,0.159467,0.005554,-0.004434,0.0,0.0,0.0,0.087266,0.0,0.0,3.0,0.24764,0.340976,0.334267,0.363026,0.151658,-9.9e-05,-0.000235,-0.025884,0.000615,0.002173,0.0,0.0,0.0,0.0,0.0,0.0
552820,0.159224,0.005441,-0.004546,0.0,0.0,0.0,0.087266,0.0,0.0,3.0,0.246501,0.343302,0.33265,0.362983,0.151142,-9.3e-05,-0.000191,-0.025549,0.000609,0.002075,0.0,0.0,0.0,0.0,0.0,0.0
552840,0.159224,0.005553,-0.004434,0.0,0.0,0.0,0.087266,0.0,0.0,3.0,0.245933,0.34229,0.332802,0.364112,0.150634,-8.8e-05,-0.000149,-0.025221,0.0006,0.001967,0.0,0.0,0.0,0.0,0.0,0.0
552860,0.159093,0.005553,-0.004433,0.0,0.0,0.0,0.087266,0.0,0.0,3.0,0.245793,0.343343,0.333005,0.363039,0.150132,-8.2e-05,-0.000109,-0.0249,0.000587,0.001851,0.0,0.0,0.0,0.0,0.0,0.0
552880,0.158972,0.005309,-0.004413,0.0,0.0,0.0,0.087266,0.0,0.0,3.0,0.248789,0.342464,0.333628,0.361549,0.149636,-7.6e-05,-7.2e-05,-0.024587,0.000571,0.001729,0.0,0.0,0.0,0.0,0.0,0.0
552900,0.15885,0.005065,-0.004394,0.0,0.0,0.0,0.087266,0.0,0.0,3.0,0.249588,0.343421,0.332896,0.360838,0.149147,-6.9e-05,-3.7e-05,-0.024282,0.000552,0.001601,0.0,0.0,0.0,0.0,0.0,0.0
552920,0.158972,0.004944,-0.004384,0.0,0.0,0.0,0.087266,0.0,0.0,3.0,0.246745,0.341901,0.335387,0.361685,0.148663,-6.3e-05,-4e-06,-0.023985,0.00053,0.001468,0.0,0.0,0.0,0.0,0.0,0.0
552940,0.158851,0.004822,-0.004374,0.0,0.0,0.0,0.087266,0.0,0.0,3.0,0.243389,0.343073,0.332524,0.365086,0.148186,-5.7e-05,2.5e-05,-0.023696,0.000506,0.001333,0.0,0.0,0.0,0.0,0.0,0.0
552960,0.158607,0.004943,-0.004384,0.0,0.0,0.0,0.087266,0.0,0.0,3.0,0.245428,0.341426,0.334582,0.363611,0.147714,-5.1e-05,5.2e-05,-0.023416,0.000479,0.001195,0.0,0.0,0.0,0.0,0.0,0.0
552980,0.158364,0.004943,-0.004383,0.0,0.0,0.0,0.087266,0.0,0.0,3.0,0.244653,0.341154,0.334822,0.36409,0.147248,-4.5e-05,7.6e-05,-0.023144,0.000452,0.001057,0.0,0.0,0.0,0.0,0.0,0.0
553000,0.158242,0.005064,-0.004393,0.0,0.0,0.0,0.087266,0.0,0.0,3.0,0.239915,0.34435,0.331989,0.366314,0.146787,-3.9e-05,9.7e-05,-0.02288,0.000422,0.000918,0.0,0.0,0.0,0.0,0.0,0.0
553020,0.158121,0.004811,-0.004251,0.0,0.0,0.0,0.087266,0.0,0.0,3.0,0.241515,0.345179,0.33205,0.364607,0.146331,-3.4e-05,0.000116,-0.022624,0.000392,0.000781,0.0,0.0,0.0,0.0,0.0,0.0
553040,0.157879,0.004324,-0.004212,0.0,0.0,0.0,0.087266,0.0,0.0,3.0,0.242962,0.345347,0.331722,0.363928,0.145881,-2.8e-05,0.000131,-0.022375,0.00036,0.000646,0.0,0.0,0.0,0.0,0.0,0.0
553060,0.157626,0.004202,-0.004202,0.0,0.0,0.0,0.087266,0.0,0.0,3.0,0.246641,0.343178,0.332426,0.363217,0.145435,-2.3e-05,0.000144,-0.022135,0.000328,0.000513,0.0,0.0,0.0,0.0,0.0,0.0
553080,0.157383,0.004211,-0.004323,0.0,0.0,0.0,0.087266,0.0,0.0,3.0,0.249904,0.34082,0.33379,0.362266,0.144994,-1.8e-05,0.000154,-0.021901,0.000296,0.000384,0.0,0.0,0.0,0.0,0.0,0.0
553100,0.156896,0.004332,-0.004332,0.0,0.0,0.0,0.087266,0.0,0.0,3.0,0.247654,0.342549,0.332612,0.363044,0.144558,-1.4e-05,0.000162,-0.021675,0.000264,0.00026,0.0,0.0,0.0,0.0,0.0,0.0
553120,0.156287,0.004331,-0.004331,0.0,0.0,0.0,0.087266,0.0,0.0,3.0,0.246244,0.343046,0.333248,0.362836,0.144126,-9e-06,0.000167,-0.021455,0.000231,0.000141,0.0,0.0,0.0,0.0,0.0,0.0
553140,0.155912,0.004452,-0.004339,0.0,0.0,0.0,0.087266,0.0,0.0,3.0,0.247094,0.341885,0.333145,0.36351,0.143698,-5e-06,0.000169,-0.021242,0.0002,2.7e-05,0.0,0.0,0.0,0.0,0.0,0.0
553160,0.155547,0.004451,-0.004339,0.0,0.0,0.0,0.087266,0.0,0.0,3.0,0.246765,0.34239,0.332107,0.364157,0.143275,-1e-06,0.000169,-0.021036,0.000168,-8e-05,0.0,0.0,0.0,0.0,0.0,0.0
553180,0.155061,0.004085,-0.00431,0.0,0.0,0.0,0.087266,0.0,0.0,3.0,0.247772,0.343673,0.332015,0.362463,0.142856,2e-06,0.000167,-0.020835,0.000138,-0.000181,0.0,0.0,0.0,0.0,0.0,0.0
553200,0.154698,0.003466,-0.004141,0.0,0.0,0.0,0.087266,0.0,0.0,3.0,0.248557,0.344402,0.331312,0.361946,0.142441,5e-06,0.000164,-0.020639,0.000108,-0.000275,0.0,0.0,0.0,0.0,0.0,0.0
