time_ms,roll,pitch,yaw,x,y,z,reference_roll,reference_pitch,reference_yaw,reference_throttle,throttle_1,throttle_2,throttle_3,throttle_4,roll_predicted,pitch_predicted,yaw_predicted,roll_rate_predicted,pitch_rate_predicted,yaw_rate_predicted,value1,value2,value3,value4,value5,value6
578940,-0.033322,0.010027,0.001265,0.0,0.0,0.0,0.0,0.0,0.0,3.0,0.301365,0.350382,0.272399,0.36617,-0.021509,-4e-06,-5.8e-05,0.008037,1e-06,1e-05,0.0,0.0,0.0,0.0,0.0,0.0
578960,-0.0332,0.010149,0.001267,0.0,0.0,0.0,0.0,0.0,0.0,3.0,0.299973,0.349976,0.270167,0.369081,-0.021349,-4e-06,-5.8e-05,0.007977,1e-06,1e-05,0.0,0.0,0.0,0.0,0.0,0.0
578980,-0.032956,0.010149,0.001266,0.0,0.0,0.0,0.0,0.0,0.0,3.0,0.3006,0.349312,0.272897,0.36743,-0.02119,-4e-06,-5.8e-05,0.007918,1e-06,1e-05,0.0,0.0,0.0,0.0,0.0,0.0
579000,-0.032833,0.010271,0.001267,0.0,0.0,0.0,0.0,0.0,0.0,3.0,0.301712,0.349433,0.271804,0.36719,-0.021032,-4e-06,-5.8e-05,0.007859,1e-06,1e-05,0.0,0.0,0.0,0.0,0.0,0.0
579020,-0.032833,0.010271,0.001267,0.0,0.0,0.0,0.0,0.0,0.0,3.0,0.302684,0.350288,0.270759,0.366328,-0.020875,-4e-06,-5.7e-05,0.0078,1e-06,1e-05,0.0,0.0,0.0,0.0,0.0,0.0
579040,-0.032834,0.010149,0.001265,0.0,0.0,0.0,0.0,0.0,0.0,3.0,0.302241,0.35017,0.269343,0.367708,-0.02072,-4e-06,-5.7e-05,0.007742,1e-06,1e-05,0.0,0.0,0.0,0.0,0.0,0.0
579060,-0.032712,0.010025,0.00114,0.0,0.0,0.0,0.0,0.0,0.0,3.0,0.303537,0.349001,0.271776,0.366206,-0.020565,-4e-06,-5.7e-05,0.007684,1e-06,1e-05,0.0,0.0,0.0,0.0,0.0,0.0
579080,-0.032468,0.010025,0.001139,0.0,0.0,0.0,0.0,0.0,0.0,3.0,0.30094,0.35059,0.269603,0.368139,-0.020412,-4e-06,-5.7e-05,0.007627,1e-06,1e-05,0.0,0.0,0.0,0.0,0.0,0.0
579100,-0.032225,0.010145,0.001018,0.0,0.0,0.0,0.0,0.0,0.0,3.0,0.304719,0.347119,0.274206,0.365423,-0.02026,-4e-06,-5.7e-05,0.00757,1e-06,1e-05,0.0,0.0,0.0,0.0,0.0,0.0
579120,-0.032103,0.010023,0.001015,0.0,0.0,0.0,0.0,0.0,0.0,3.0,0.303663,0.350444,0.270806,0.36539,-0.020109,-4e-06,-5.6e-05,0.007514,1e-06,1e-05,0.0,0.0,0.0,0.0,0.0,0.0
579140,-0.031859,0.010143,0.000894,0.0,0.0,0.0,0.0,0.0,0.0,3.0,0.302914,0.348096,0.273274,0.366203,-0.019997,-4e-06,-5.6e-05,0.007472,1e-06,1e-05,0.0,0.0,0.0,0.0,0.0,0.0
579160,-0.031737,0.009899,0.000889,0.0,0.0,0.0,0.0,0.0,0.0,3.0,0.300714,0.35068,0.270784,0.367455,-0.01981,-4e-06,-5.6e-05,0.007402,1e-06,1e-05,0.0,0.0,0.0,0.0,0.0,0.0
579180,-0.031616,0.009897,0.000767,0.0,0.0,0.0,0.0,0.0,0.0,3.0,0.304988,0.347643,0.272944,0.365569,-0.019663,-4e-06,-5.6e-05,0.007347,1e-06,1e-05,0.0,0.0,0.0,0.0,0.0,0.0
579200,-0.031371,0.009897,0.000766,0.0,0.0,0.0,0.0,0.0,0.0,3.0,0.303569,0.34977,0.271594,0.365578,-0.019516,-4e-06,-5.6e-05,0.007293,1e-06,1e-05,0.0,0.0,0.0,0.0,0.0,0.0
579220,-0.031127,0.010019,0.000766,0.0,0.0,0.0,0.0,0.0,0.0,3.0,0.30315,0.350156,0.270025,0.366575,-0.019371,-4e-06,-5.5e-05,0.007238,1e-06,1e-05,0.0,0.0,0.0,0.0,0.0,0.0
579240,-0.031006,0.009895,0.000642,0.0,0.0,0.0,0.0,0.0,0.0,3.0,0.304867,0.349452,0.271985,0.364602,-0.019226,-4e-06,-5.5e-05,0.007184,1e-06,1e-05,0.0,0.0,0.0,0.0,0.0,0.0
579260,-0.031006,0.00965,0.000638,0.0,0.0,0.0,0.0,0.0,0.0,3.0,0.305971,0.350044,0.271897,0.363228,-0.019083,-3e-06,-5.5e-05,0.007131,1e-06,1e-05,0.0,0.0,0.0,0.0,0.0,0.0
579280,-0.030884,0.009528,0.000635,0.0,0.0,0.0,0.0,0.0,0.0,3.0,0.306769,0.349168,0.273716,0.362199,-0.018941,-3e-06,-5.5e-05,0.007078,1e-06,9e-06,0.0,0.0,0.0,0.0,0.0,0.0
579300,-0.030762,0.009528,0.000635,0.0,0.0,0.0,0.0,0.0,0.0,3.0,0.303577,0.350441,0.272247,0.364501,-0.0188,-3e-06,-5.5e-05,0.007025,1e-06,9e-06,0.0,0.0,0.0,0.0,0.0,0.0
579320,-0.03064,0.009773,0.000638,0.0,0.0,0.0,0.0,0.0,0.0,3.0,0.303378,0.348395,0.271869,0.366835,-0.01866,-3e-06,-5.4e-05,0.006973,1e-06,9e-06,0.0,0.0,0.0,0.0,0.0,0.0
579340,-0.030518,0.00965,0.000636,0.0,0.0,0.0,0.0,0.0,0.0,3.0,0.303142,0.34916,0.27317,0.365433,-0.018521,-3e-06,-5.4e-05,0.006921,1e-06,9e-06,0.0,0.0,0.0,0.0,0.0,0.0
579360,-0.030518,0.00965,0.000636,0.0,0.0,0.0,0.0,0.0,0.0,3.0,0.304242,0.349312,0.271922,0.365267,-0.018383,-3e-06,-5.4e-05,0.006869,1e-06,9e-06,0.0,0.0,0.0,0.0,0.0,0.0
579380,-0.03064,0.00965,0.000636,0.0,0.0,0.0,0.0,0.0,0.0,3.0,0.306451,0.347737,0.27377,0.363772,-0.018246,-3e-06,-5.4e-05,0.006818,1e-06,9e-06,0.0,0.0,0.0,0.0,0.0,0.0
579400,-0.030517,0.009652,0.000758,0.0,0.0,0.0,0.0,0.0,0.0,3.0,0.300968,0.350903,0.27019,0.367441,-0.01811,-3e-06,-5.4e-05,0.006767,1e-06,9e-06,0.0,0.0,0.0,0.0,0.0,0.0
579420,-0.030517,0.009652,0.000758,0.0,0.0,0.0,0.0,0.0,0.0,3.0,0.301793,0.349082,0.273077,0.366612,-0.017975,-3e-06,-5.4e-05,0.006717,1e-06,9e-06,0.0,0.0,0.0,0.0,0.0,0.0
579440,-0.030639,0.009652,0.000758,0.0,0.0,0.0,0.0,0.0,0.0,3.0,0.304696,0.348031,0.272549,0.365698,-0.017841,-3e-06,-5.3e-05,0.006667,1e-06,9e-06,0.0,0.0,0.0,0.0,0.0,0.0
579460,-0.030516,0.009776,0.000882,0.0,0.0,0.0,0.0,0.0,0.0,3.0,0.302337,0.3492,0.271478,0.367144,-0.017708,-3e-06,-5.3e-05,0.006617,1e-06,9e-06,0.0,0.0,0.0,0.0,0.0,0.0
579480,-0.030516,0.009656,0.001002,0.0,0.0,0.0,0.0,0.0,0.0,3.0,0.301637,0.35146,0.269055,0.367145,-0.017576,-3e-06,-5.3e-05,0.006568,1e-06,9e-06,0.0,0.0,0.0,0.0,0.0,0.0
579500,-0.030515,0.009658,0.001124,0.0,0.0,0.0,0.0,0.0,0.0,3.0,0.299864,0.352133,0.266749,0.369346,-0.017445,-3e-06,-5.3e-05,0.006519,1e-06,9e-06,0.0,0.0,0.0,0.0,0.0,0.0
579520,-0.030393,0.009414,0.00112,0.0,0.0,0.0,0.0,0.0,0.0,3.0,0.301585,0.351225,0.268155,0.36799,-0.017315,-3e-06,-5.3e-05,0.00647,1e-06,9e-06,0.0,0.0,0.0,0.0,0.0,0.0
579540,-0.030149,0.009414,0.001118,0.0,0.0,0.0,0.0,0.0,0.0,3.0,0.302441,0.349045,0.270887,0.367597,-0.017186,-3e-06,-5.2e-05,0.006422,1e-06,9e-06,0.0,0.0,0.0,0.0,0.0,0.0
579560,-0.030027,0.009415,0.00124,0.0,0.0,0.0,0.0,0.0,0.0,3.0,0.301309,0.350629,0.26937,0.367974,-0.017058,-3e-06,-5.2e-05,0.006374,1e-06,9e-06,0.0,0.0,0.0,0.0,0.0,0.0
579580,-0.029904,0.009539,0.001363,0.0,0.0,0.0,0.0,0.0,0.0,3.0,0.29962,0.352057,0.266116,0.370004,-0.01693,-3e-06,-5.2e-05,0.006327,1e-06,9e-06,0.0,0.0,0.0,0.0,0.0,0.0
579600,-0.029904,0.009661,0.001365,0.0,0.0,0.0,0.0,0.0,0.0,3.0,0.301864,0.349574,0.268559,0.369061,-0.016804,-3e-06,-5.2e-05,0.00628,1e-06,9e-06,0.0,0.0,0.0,0.0,0.0,0.0
579620,-0.029904,0.009417,0.001361,0.0,0.0,0.0,0.0,0.0,0.0,3.0,0.303116,0.349315,0.269249,0.367896,-0.016679,-3e-06,-5.2e-05,0.006233,1e-06,9e-06,0.0,0.0,0.0,0.0,0.0,0.0
579640,-0.02978,0.009418,0.001483,0.0,0.0,0.0,0.0,0.0,0.0,3.0,0.30207,0.349848,0.269306,0.368164,-0.016555,-3e-06,-5.2e-05,0.006187,1e-06,9e-06,0.0,0.0,0.0,0.0,0.0,0.0
579660,-0.029535,0.00942,0.001604,0.0,0.0,0.0,0.0,0.0,0.0,3.0,0.301248,0.350644,0.26891,0.368304,-0.016431,-3e-06,-5.1e-05,0.00614,1e-06,9e-06,0.0,0.0,0.0,0.0,0.0,0.0
579680,-0.029413,0.00942,0.001603,0.0,0.0,0.0,0.0,0.0,0.0,3.0,0.302221,0.349842,0.269471,0.367947,-0.016309,-3e-06,-5.1e-05,0.006095,1e-06,9e-06,0.0,0.0,0.0,0.0,0.0,0.0
579700,-0.029291,0.009298,0.001601,0.0,0.0,0.0,0.0,0.0,0.0,3.0,0.302781,0.349523,0.26885,0.368219,-0.016187,-3e-06,-5.1e-05,0.006049,1e-06,9e-06,0.0,0.0,0.0,0.0,0.0,0.0
579720,-0.029047,0.009298,0.0016,0.0,0.0,0.0,0.0,0.0,0.0,3.0,0.303221,0.348541,0.271053,0.367358,-0.016067,-3e-06,-5.1e-05,0.006004,1e-06,9e-06,0.0,0.0,0.0,0.0,0.0,0.0
579740,-0.028802,0.009177,0.001719,0.0,0.0,0.0,0.0,0.0,0.0,3.0,0.300559,0.350875,0.270436,0.367618,-0.015947,-3e-06,-5.1e-05,0.00596,1e-06,9e-06,0.0,0.0,0.0,0.0,0.0,0.0
579760,-0.028557,0.009423,0.001843,0.0,0.0,0.0,0.0,0.0,0.0,3.0,0.298066,0.350498,0.269789,0.370272,-0.015828,-3e-06,-5.1e-05,0.005915,1e-06,9e-06,0.0,0.0,0.0,0.0,0.0,0.0
579780,-0.028557,0.009545,0.001845,0.0,0.0,0.0,0.0,0.0,0.0,3.0,0.300569,0.348426,0.270159,0.370074,-0.01571,-3e-06,-5e-05,0.005871,1e-06,9e-06,0.0,0.0,0.0,0.0,0.0,0.0
579800,-0.028435,0.009301,0.001841,0.0,0.0,0.0,0.0,0.0,0.0,3.0,0.30195,0.349049,0.27164,0.367475,-0.015593,-3e-06,-5e-05,0.005827,1e-06,8e-06,0.0,0.0,0.0,0.0,0.0,0.0
579820,-0.028313,0.00918,0.001961,0.0,0.0,0.0,0.0,0.0,0.0,3.0,0.30013,0.350213,0.269869,0.368934,-0.015477,-3e-06,-5e-05,0.005784,1e-06,8e-06,0.0,0.0,0.0,0.0,0.0,0.0
579840,-0.028068,0.00906,0.00208,0.0,0.0,0.0,0.0,0.0,0.0,3.0,0.296509,0.353485,0.267153,0.370327,-0.015361,-3e-06,-5e-05,0.005741,1e-06,8e-06,0.0,0.0,0.0,0.0,0.0,0.0
579860,-0.027946,0.009304,0.002083,0.0,0.0,0.0,0.0,0.0,0.0,3.0,0.296726,0.351894,0.267205,0.371621,-0.015247,-3e-06,-5e-05,0.005698,1e-06,8e-06,0.0,0.0,0.0,0.0,0.0,0.0
579880,-0.027946,0.009061,0.002201,0.0,0.0,0.0,0.0,0.0,0.0,3.0,0.297746,0.35311,0.265673,0.3707,-0.015133,-3e-06,-5e-05,0.005656,1e-06,8e-06,0.0,0.0,0.0,0.0,0.0,0.0
579900,-0.027946,0.008817,0.002198,0.0,0.0,0.0,0.0,0.0,0.0,3.0,0.300765,0.351725,0.268612,0.367849,-0.015021,-3e-06,-4.9e-05,0.005613,1e-06,8e-06,0.0,0.0,0.0,0.0,0.0,0.0
579920,-0.027945,0.008819,0.00232,0.0,0.0,0.0,0.0,0.0,0.0,3.0,0.30039,0.351667,0.267063,0.369186,-0.014909,-3e-06,-4.9e-05,0.005572,1e-06,8e-06,0.0,0.0,0.0,0.0,0.0,0.0
579940,-0.0277,0.009065,0.002444,0.0,0.0,0.0,0.0,0.0,0.0,3.0,0.296191,0.352602,0.265826,0.372228,-0.014797,-3e-06,-4.9e-05,0.00553,1e-06,8e-06,0.0,0.0,0.0,0.0,0.0,0.0
579960,-0.0277,0.009065,0.002444,0.0,0.0,0.0,0.0,0.0,0.0,3.0,0.298007,0.352149,0.265133,0.371743,-0.014687,-3e-06,-4.9e-05,0.005489,1e-06,8e-06,0.0,0.0,0.0,0.0,0.0,0.0
579980,-0.027701,0.008943,0.002443,0.0,0.0,0.0,0.0,0.0,0.0,3.0,0.300534,0.350932,0.267822,0.369279,-0.014578,-3e-06,-4.9e-05,0.005448,1e-06,8e-06,0.0,0.0,0.0,0.0,0.0,0.0
580000,-0.027823,0.008821,0.002442,0.0,0.0,0.0,0.0,0.0,0.0,3.0,0.303643,0.349132,0.269929,0.367217,-0.014469,-3e-06,-4.9e-05,0.005407,1e-06,8e-06,0.0,0.0,0.0,0.0,0.0,0.0
580020,-0.0277,0.008822,0.002563,0.0,0.0,0.0,0.0,0.0,0.0,3.0,0.299304,0.351341,0.267658,0.36993,-0.014361,-3e-06,-4.8e-05,0.005367,1e-06,8e-06,0.0,0.0,0.0,0.0,0.0,0.0
580040,-0.0277,0.009066,0.002567,0.0,0.0,0.0,0.0,0.0,0.0,3.0,0.29836,0.350721,0.266294,0.372077,-0.014254,-3e-06,-4.8e-05,0.005327,1e-06,8e-06,0.0,0.0,0.0,0.0,0.0,0.0
580060,-0.027578,0.008944,0.002564,0.0,0.0,0.0,0.0,0.0,0.0,3.0,0.300454,0.350974,0.26749,0.369513,-0.014148,-3e-06,-4.8e-05,0.005287,1e-06,8e-06,0.0,0.0,0.0,0.0,0.0,0.0
580080,-0.027578,0.008822,0.002563,0.0,0.0,0.0,0.0,0.0,0.0,3.0,0.30185,0.351367,0.267975,0.367771,-0.014042,-3e-06,-4.8e-05,0.005248,1e-06,8e-06,0.0,0.0,0.0,0.0,0.0,0.0
580100,-0.027334,0.0087,0.00256,0.0,0.0,0.0,0.0,0.0,0.0,3.0,0.300545,0.352265,0.267844,0.368005,-0.013938,-3e-06,-4.8e-05,0.005209,1e-06,8e-06,0.0,0.0,0.0,0.0,0.0,0.0
580120,-0.02709,0.008822,0.002561,0.0,0.0,0.0,0.0,0.0,0.0,3.0,0.298822,0.350983,0.269617,0.369365,-0.013834,-3e-06,-4.8e-05,0.00517,1e-06,8e-06,0.0,0.0,0.0,0.0,0.0,0.0
580140,-0.026968,0.008821,0.00256,0.0,0.0,0.0,0.0,0.0,0.0,3.0,0.299367,0.350909,0.268922,0.369474,-0.013731,-3e-06,-4.7e-05,0.005132,1e-06,8e-06,0.0,0.0,0.0,0.0,0.0,0.0
580160,-0.026969,0.008576,0.002435,0.0,0.0,0.0,0.0,0.0,0.0,3.0,0.303334,0.34984,0.272072,0.365376,-0.013628,-2e-06,-4.7e-05,0.005093,1e-06,8e-06,0.0,0.0,0.0,0.0,0.0,0.0
580180,-0.026969,0.008333,0.002553,0.0,0.0,0.0,0.0,0.0,0.0,3.0,0.300473,0.352629,0.267253,0.368095,-0.013527,-2e-06,-4.7e-05,0.005055,1e-06,8e-06,0.0,0.0,0.0,0.0,0.0,0.0
580200,-0.026846,0.008333,0.002553,0.0,0.0,0.0,0.0,0.0,0.0,3.0,0.297187,0.353484,0.265931,0.3706,-0.013426,-2e-06,-4.7e-05,0.005018,1e-06,8e-06,0.0,0.0,0.0,0.0,0.0,0.0
580220,-0.026847,0.008453,0.002432,0.0,0.0,0.0,0.0,0.0,0.0,3.0,0.302317,0.350831,0.26882,0.367369,-0.013351,-2e-06,-4.7e-05,0.00499,1e-06,8e-06,0.0,0.0,0.0,0.0,0.0,0.0
580240,-0.026847,0.008453,0.002432,0.0,0.0,0.0,0.0,0.0,0.0,3.0,0.300468,0.351497,0.269041,0.368012,-0.013227,-2e-06,-4.7e-05,0.004943,1e-06,8e-06,0.0,0.0,0.0,0.0,0.0,0.0
580260,-0.026969,0.008209,0.00243,0.0,0.0,0.0,0.0,0.0,0.0,3.0,0.300362,0.352833,0.268308,0.367306,-0.013128,-2e-06,-4.6e-05,0.004906,1e-06,8e-06,0.0,0.0,0.0,0.0,0.0,0.0
580280,-0.026969,0.007967,0.002548,0.0,0.0,0.0,0.0,0.0,0.0,3.0,0.299032,0.354084,0.265641,0.368838,-0.01303,-2e-06,-4.6e-05,0.00487,1e-06,8e-06,0.0,0.0,0.0,0.0,0.0,0.0
580300,-0.026969,0.008089,0.00255,0.0,0.0,0.0,0.0,0.0,0.0,3.0,0.301296,0.351704,0.266212,0.369007,-0.012933,-2e-06,-4.6e-05,0.004834,1e-06,8e-06,0.0,0.0,0.0,0.0,0.0,0.0
580320,-0.026847,0.007967,0.002548,0.0,0.0,0.0,0.0,0.0,0.0,3.0,0.301027,0.352028,0.26774,0.367927,-0.012837,-2e-06,-4.6e-05,0.004798,1e-06,8e-06,0.0,0.0,0.0,0.0,0.0,0.0
580340,-0.026969,0.008089,0.00255,0.0,0.0,0.0,0.0,0.0,0.0,3.0,0.302148,0.351369,0.266341,0.368589,-0.012741,-2e-06,-4.6e-05,0.004762,1e-06,8e-06,0.0,0.0,0.0,0.0,0.0,0.0
580360,-0.026969,0.007723,0.002545,0.0,0.0,0.0,0.0,0.0,0.0,3.0,0.301671,0.353161,0.266144,0.367388,-0.012646,-2e-06,-4.6e-05,0.004726,1e-06,8e-06,0.0,0.0,0.0,0.0,0.0,0.0
580380,-0.026969,0.007723,0.002545,0.0,0.0,0.0,0.0,0.0,0.0,3.0,0.300313,0.352932,0.265742,0.368896,-0.012552,-2e-06,-4.5e-05,0.004691,1e-06,8e-06,0.0,0.0,0.0,0.0,0.0,0.0
580400,-0.026847,0.007723,0.002545,0.0,0.0,0.0,0.0,0.0,0.0,3.0,0.300806,0.351662,0.266777,0.369059,-0.012458,-2e-06,-4.5e-05,0.004656,1e-06,8e-06,0.0,0.0,0.0,0.0,0.0,0.0
580420,-0.026847,0.007723,0.002545,0.0,0.0,0.0,0.0,0.0,0.0,3.0,0.302384,0.352334,0.26598,0.367729,-0.012365,-2e-06,-4.5e-05,0.004621,1e-06,8e-06,0.0,0.0,0.0,0.0,0.0,0.0
580440,-0.026847,0.007601,0.002543,0.0,0.0,0.0,0.0,0.0,0.0,3.0,0.303939,0.351605,0.268847,0.365362,-0.012273,-2e-06,-4.5e-05,0.004587,1e-06,8e-06,0.0,0.0,0.0,0.0,0.0,0.0
580460,-0.02697,0.007236,0.002661,0.0,0.0,0.0,0.0,0.0,0.0,3.0,0.301071,0.355482,0.262934,0.367672,-0.012182,-2e-06,-4.5e-05,0.004553,1e-06,8e-06,0.0,0.0,0.0,0.0,0.0,0.0
580480,-0.02697,0.007114,0.002659,0.0,0.0,0.0,0.0,0.0,0.0,3.0,0.30132,0.352838,0.265603,0.368308,-0.012091,-2e-06,-4.5e-05,0.004519,1e-06,8e-06,0.0,0.0,0.0,0.0,0.0,0.0
580500,-0.026848,0.006992,0.002657,0.0,0.0,0.0,0.0,0.0,0.0,3.0,0.303047,0.349986,0.269114,0.36741,-0.012023,-2e-06,-4.5e-05,0.004494,1e-06,8e-06,0.0,0.0,0.0,0.0,0.0,0.0
580520,-0.026847,0.006994,0.002779,0.0,0.0,0.0,0.0,0.0,0.0,3.0,0.300724,0.353962,0.265363,0.367849,-0.011911,-2e-06,-4.4e-05,0.004452,1e-06,8e-06,0.0,0.0,0.0,0.0,0.0,0.0
580540,-0.026726,0.006871,0.002777,0.0,0.0,0.0,0.0,0.0,0.0,3.0,0.299935,0.353915,0.267021,0.367434,-0.011822,-2e-06,-4.4e-05,0.004419,1e-06,8e-06,0.0,0.0,0.0,0.0,0.0,0.0
580560,-0.026848,0.006627,0.002774,0.0,0.0,0.0,0.0,0.0,0.0,3.0,0.301209,0.354125,0.265512,0.367229,-0.011734,-2e-06,-4.4e-05,0.004386,1e-06,8e-06,0.0,0.0,0.0,0.0,0.0,0.0
580580,-0.026604,0.006505,0.002772,0.0,0.0,0.0,0.0,0.0,0.0,3.0,0.300078,0.35355,0.267748,0.367203,-0.011647,-2e-06,-4.4e-05,0.004353,1e-06,8e-06,0.0,0.0,0.0,0.0,0.0,0.0
580600,-0.026605,0.006381,0.002648,0.0,0.0,0.0,0.0,0.0,0.0,3.0,0.304544,0.35146,0.269291,0.364735,-0.01156,-2e-06,-4.4e-05,0.004321,1e-06,8e-06,0.0,0.0,0.0,0.0,0.0,0.0
580620,-0.02636,0.006383,0.002769,0.0,0.0,0.0,0.0,0.0,0.0,3.0,0.29962,0.354894,0.265983,0.367405,-0.011474,-2e-06,-4.4e-05,0.004288,1e-06,8e-06,0.0,0.0,0.0,0.0,0.0,0.0
580640,-0.026238,0.006138,0.002766,0.0,0.0,0.0,0.0,0.0,0.0,3.0,0.297459,0.356423,0.263285,0.36928,-0.011388,-2e-06,-4.3e-05,0.004256,1e-06,7e-06,0.0,0.0,0.0,0.0,0.0,0.0
580660,-0.026117,0.00577,0.002638,0.0,0.0,0.0,0.0,0.0,0.0,3.0,0.299198,0.355398,0.266031,0.367212,-0.011304,-2e-06,-4.3e-05,0.004225,1e-06,7e-06,0.0,0.0,0.0,0.0,0.0,0.0
580680,-0.025996,0.005403,0.002511,0.0,0.0,0.0,0.0,0.0,0.0,3.0,0.302623,0.354115,0.266309,0.365638,-0.011219,-2e-06,-4.3e-05,0.004193,1e-06,7e-06,0.0,0.0,0.0,0.0,0.0,0.0
580700,-0.02563,0.005402,0.00251,0.0,0.0,0.0,0.0,0.0,0.0,3.0,0.300128,0.35433,0.267652,0.366483,-0.011136,-2e-06,-4.3e-05,0.004162,1e-06,7e-06,0.0,0.0,0.0,0.0,0.0,0.0
580720,-0.025386,0.005402,0.00251,0.0,0.0,0.0,0.0,0.0,0.0,3.0,0.299762,0.354547,0.266057,0.367582,-0.011053,-2e-06,-4.3e-05,0.004131,1e-06,7e-06,0.0,0.0,0.0,0.0,0.0,0.0
580740,-0.025142,0.00528,0.002508,0.0,0.0,0.0,0.0,0.0,0.0,3.0,0.297644,0.355214,0.264647,0.369437,-0.01097,-2e-06,-4.3e-05,0.0041,1e-06,7e-06,0.0,0.0,0.0,0.0,0.0,0.0
580760,-0.024898,0.004912,0.00238,0.0,0.0,0.0,0.0,0.0,0.0,3.0,0.300933,0.35405,0.268456,0.365612,-0.010888,-2e-06,-4.3e-05,0.00407,1e-06,7e-06,0.0,0.0,0.0,0.0,0.0,0.0
580780,-0.024532,0.004667,0.002376,0.0,0.0,0.0,0.0,0.0,0.0,3.0,0.300036,0.354172,0.268065,0.366437,-0.010807,-2e-06,-4.2e-05,0.004039,1e-06,7e-06,0.0,0.0,0.0,0.0,0.0,0.0
580800,-0.024166,0.004667,0.002376,0.0,0.0,0.0,0.0,0.0,0.0,3.0,0.298371,0.354891,0.267136,0.367614,-0.010727,-2e-06,-4.2e-05,0.004009,1e-06,7e-06,0.0,0.0,0.0,0.0,0.0,0.0
580820,-0.024044,0.004665,0.002253,0.0,0.0,0.0,0.0,0.0,0.0,3.0,0.300405,0.353546,0.266726,0.367616,-0.010647,-2e-06,-4.2e-05,0.003979,1e-06,7e-06,0.0,0.0,0.0,0.0,0.0,0.0
580840,-0.023801,0.004175,0.002125,0.0,0.0,0.0,0.0,0.0,0.0,3.0,0.302079,0.353453,0.270003,0.364283,-0.010567,-2e-06,-4.2e-05,0.00395,1e-06,7e-06,0.0,0.0,0.0,0.0,0.0,0.0
580860,-0.023558,0.003563,0.001995,0.0,0.0,0.0,0.0,0.0,0.0,3.0,0.303441,0.353049,0.272806,0.361731,-0.010489,-2e-06,-4.2e-05,0.00392,1e-06,7e-06,0.0,0.0,0.0,0.0,0.0,0.0
580880,-0.023314,0.003074,0.001989,0.0,0.0,0.0,0.0,0.0,0.0,3.0,0.302037,0.354672,0.271125,0.362392,-0.01041,-2e-06,-4.2e-05,0.003891,1e-06,7e-06,0.0,0.0,0.0,0.0,0.0,0.0
580900,-0.022948,0.002586,0.001983,0.0,0.0,0.0,0.0,0.0,0.0,3.0,0.298973,0.355041,0.270761,0.364644,-0.010333,-2e-06,-4.2e-05,0.003862,1e-06,7e-06,0.0,0.0,0.0,0.0,0.0,0.0
580920,-0.022705,0.002218,0.001856,0.0,0.0,0.0,0.0,0.0,0.0,3.0,0.301072,0.35277,0.271996,0.364393,-0.010256,-2e-06,-4.1e-05,0.003833,1e-06,7e-06,0.0,0.0,0.0,0.0,0.0,0.0
580940,-0.022217,0.001729,0.00185,0.0,0.0,0.0,0.0,0.0,0.0,3.0,0.300948,0.354788,0.270907,0.363272,-0.010198,-2e-06,-4.1e-05,0.003812,1e-06,7e-06,0.0,0.0,0.0,0.0,0.0,0.0
580960,-0.021728,0.001239,0.001722,0.0,0.0,0.0,0.0,0.0,0.0,3.0,0.298935,0.354124,0.274109,0.363313,-0.010103,-2e-06,-4.1e-05,0.003776,1e-06,7e-06,0.0,0.0,0.0,0.0,0.0,0.0
580980,-0.021362,0.000751,0.001717,0.0,0.0,0.0,0.0,0.0,0.0,3.0,0.297234,0.355673,0.273504,0.363522,-0.010028,-2e-06,-4.1e-05,0.003748,1e-06,7e-06,0.0,0.0,0.0,0.0,0.0,0.0
581000,-0.020874,0.000261,0.001589,0.0,0.0,0.0,0.0,0.0,0.0,3.0,0.295315,0.355796,0.27317,0.365078,-0.009953,-2e-06,-4.1e-05,0.00372,1e-06,7e-06,0.0,0.0,0.0,0.0,0.0,0.0
581020,-0.020386,-0.000107,0.001464,0.0,0.0,0.0,0.0,0.0,0.0,3.0,0.298039,0.35323,0.276492,0.363237,-0.009879,-2e-06,-4.1e-05,0.003692,1e-06,7e-06,0.0,0.0,0.0,0.0,0.0,0.0
581040,-0.019898,-0.00035,0.001583,0.0,0.0,0.0,0.0,0.0,0.0,3.0,0.294518,0.356199,0.2715,0.366397,-0.009806,-2e-06,-4.1e-05,0.003665,1e-06,7e-06,0.0,0.0,0.0,0.0,0.0,0.0
581060,-0.019288,-0.000473,0.001582,0.0,0.0,0.0,0.0,0.0,0.0,3.0,0.295579,0.354678,0.274196,0.365268,-0.009733,-2e-06,-4e-05,0.003638,1e-06,7e-06,0.0,0.0,0.0,0.0,0.0,0.0
581080,-0.0188,-0.000595,0.001581,0.0,0.0,0.0,0.0,0.0,0.0,3.0,0.293158,0.356168,0.271759,0.367262,-0.00966,-2e-06,-4e-05,0.00361,1e-06,7e-06,0.0,0.0,0.0,0.0,0.0,0.0
581100,-0.018434,-0.000841,0.001457,0.0,0.0,0.0,0.0,0.0,0.0,3.0,0.29735,0.354069,0.274308,0.364442,-0.009588,-2e-06,-4e-05,0.003584,1e-06,7e-06,0.0,0.0,0.0,0.0,0.0,0.0
581120,-0.018312,-0.001085,0.001455,0.0,0.0,0.0,0.0,0.0,0.0,3.0,0.298032,0.355098,0.273127,0.363726,-0.009516,-2e-06,-4e-05,0.003557,1e-06,7e-06,0.0,0.0,0.0,0.0,0.0,0.0
581140,-0.018068,-0.001452,0.001452,0.0,0.0,0.0,0.0,0.0,0.0,3.0,0.297586,0.355729,0.272718,0.36373,-0.009446,-2e-06,-4e-05,0.00353,1e-06,7e-06,0.0,0.0,0.0,0.0,0.0,0.0
581160,-0.017946,-0.001697,0.001327,0.0,0.0,0.0,0.0,0.0,0.0,3.0,0.299309,0.35468,0.272872,0.363324,-0.009375,-2e-06,-4e-05,0.003504,1e-06,7e-06,0.0,0.0,0.0,0.0,0.0,0.0
581180,-0.017702,-0.002064,0.001202,0.0,0.0,0.0,0.0,0.0,0.0,3.0,0.299326,0.35411,0.274247,0.362933,-0.009305,-2e-06,-4e-05,0.003478,1e-06,7e-06,0.0,0.0,0.0,0.0,0.0,0.0
581200,-0.017458,-0.002309,0.0012,0.0,0.0,0.0,0.0,0.0,0.0,3.0,0.298839,0.354811,0.27399,0.362803,-0.009236,-2e-06,-3.9e-05,0.003452,1e-06,7e-06,0.0,0.0,0.0,0.0,0.0,0.0
581220,-0.017336,-0.002432,0.001078,0.0,0.0,0.0,0.0,0.0,0.0,3.0,0.302603,0.351839,0.276189,0.361246,-0.009167,-2e-06,-3.9e-05,0.003426,1e-06,7e-06,0.0,0.0,0.0,0.0,0.0,0.0
581240,-0.01697,-0.002431,0.0012,0.0,0.0,0.0,0.0,0.0,0.0,3.0,0.296572,0.355749,0.272375,0.364709,-0.009099,-2e-06,-3.9e-05,0.003401,1e-06,7e-06,0.0,0.0,0.0,0.0,0.0,0.0
581260,-0.016726,-0.00231,0.001079,0.0,0.0,0.0,0.0,0.0,0.0,3.0,0.298232,0.353399,0.274647,0.364185,-0.009031,-2e-06,-3.9e-05,0.003375,1e-06,7e-06,0.0,0.0,0.0,0.0,0.0,0.0
581280,-0.016604,-0.002432,0.001078,0.0,0.0,0.0,0.0,0.0,0.0,3.0,0.297256,0.35484,0.275208,0.363157,-0.00898,-2e-06,-3.9e-05,0.003357,1e-06,7e-06,0.0,0.0,0.0,0.0,0.0,0.0
581300,-0.016482,-0.002554,0.001078,0.0,0.0,0.0,0.0,0.0,0.0,3.0,0.298813,0.355571,0.273416,0.362473,-0.008897,-2e-06,-3.9e-05,0.003325,1e-06,7e-06,0.0,0.0,0.0,0.0,0.0,0.0
581320,-0.016359,-0.002677,0.001077,0.0,0.0,0.0,0.0,0.0,0.0,3.0,0.298464,0.355576,0.273792,0.362481,-0.00883,-2e-06,-3.9e-05,0.0033,1e-06,7e-06,0.0,0.0,0.0,0.0,0.0,0.0
581340,-0.01636,-0.002799,0.001076,0.0,0.0,0.0,0.0,0.0,0.0,3.0,0.298781,0.355926,0.271627,0.363356,-0.008765,-2e-06,-3.9e-05,0.003276,1e-06,7e-06,0.0,0.0,0.0,0.0,0.0,0.0
581360,-0.016115,-0.003044,0.000952,0.0,0.0,0.0,0.0,0.0,0.0,3.0,0.301541,0.353141,0.277629,0.359817,-0.008699,-2e-06,-3.8e-05,0.003251,1e-06,7e-06,0.0,0.0,0.0,0.0,0.0,0.0
581380,-0.015994,-0.003287,0.001072,0.0,0.0,0.0,0.0,0.0,0.0,3.0,0.298556,0.356745,0.273266,0.361623,-0.008634,-2e-06,-3.8e-05,0.003227,1e-06,7e-06,0.0,0.0,0.0,0.0,0.0,0.0
581400,-0.015872,-0.003531,0.001071,0.0,0.0,0.0,0.0,0.0,0.0,3.0,0.293148,0.357296,0.270194,0.367214,-0.008586,-2e-06,-3.8e-05,0.003209,1e-06,7e-06,0.0,0.0,0.0,0.0,0.0,0.0
581420,-0.015628,-0.003653,0.001192,0.0,0.0,0.0,0.0,0.0,0.0,3.0,0.295817,0.359051,0.269367,0.364058,-0.008506,-2e-06,-3.8e-05,0.003179,1e-06,7e-06,0.0,0.0,0.0,0.0,0.0,0.0
581440,-0.015506,-0.003654,0.00107,0.0,0.0,0.0,0.0,0.0,0.0,3.0,0.299886,0.355914,0.273494,0.361254,-0.008443,-2e-06,-3.8e-05,0.003156,1e-06,6e-06,0.0,0.0,0.0,0.0,0.0,0.0
581460,-0.015383,-0.003532,0.001071,0.0,0.0,0.0,0.0,0.0,0.0,3.0,0.302823,0.353925,0.275045,0.359834,-0.00838,-2e-06,-3.8e-05,0.003132,1e-06,6e-06,0.0,0.0,0.0,0.0,0.0,0.0
581480,-0.015384,-0.003409,0.001194,0.0,0.0,0.0,0.0,0.0,0.0,3.0,0.301461,0.355346,0.272045,0.361566,-0.008317,-2e-06,-3.8e-05,0.003109,1e-06,6e-06,0.0,0.0,0.0,0.0,0.0,0.0
581500,-0.015262,-0.003408,0.001317,0.0,0.0,0.0,0.0,0.0,0.0,3.0,0.296133,0.358336,0.268425,0.365139,-0.008255,-2e-06,-3.8e-05,0.003086,1e-06,6e-06,0.0,0.0,0.0,0.0,0.0,0.0
581520,-0.015506,-0.003653,0.001192,0.0,0.0,0.0,0.0,0.0,0.0,3.0,0.300017,0.35419,0.274107,0.362417,-0.008209,-2e-06,-3.7e-05,0.003068,1e-06,6e-06,0.0,0.0,0.0,0.0,0.0,0.0
581540,-0.015506,-0.004019,0.00119,0.0,0.0,0.0,0.0,0.0,0.0,3.0,0.302644,0.354607,0.274804,0.359474,-0.008133,-1e-06,-3.7e-05,0.00304,1e-06,6e-06,0.0,0.0,0.0,0.0,0.0,0.0
581560,-0.015506,-0.004262,0.00131,0.0,0.0,0.0,0.0,0.0,0.0,3.0,0.299308,0.357291,0.270898,0.362104,-0.008087,-1e-06,-3.7e-05,0.003023,1e-06,6e-06,0.0,0.0,0.0,0.0,0.0,0.0
581580,-0.015385,-0.004261,0.001432,0.0,0.0,0.0,0.0,0.0,0.0,3.0,0.293936,0.357561,0.27017,0.366391,-0.008012,-1e-06,-3.7e-05,0.002995,0.0,6e-06,0.0,0.0,0.0,0.0,0.0,0.0
581600,-0.015385,-0.004261,0.001432,0.0,0.0,0.0,0.0,0.0,0.0,3.0,0.297924,0.354317,0.272352,0.365082,-0.007952,-1e-06,-3.7e-05,0.002972,0.0,6e-06,0.0,0.0,0.0,0.0,0.0,0.0
581620,-0.01514,-0.004139,0.001434,0.0,0.0,0.0,0.0,0.0,0.0,3.0,0.297435,0.353367,0.275935,0.363946,-0.007893,-1e-06,-3.7e-05,0.00295,0.0,6e-06,0.0,0.0,0.0,0.0,0.0,0.0
581640,-0.015018,-0.004016,0.001557,0.0,0.0,0.0,0.0,0.0,0.0,3.0,0.298677,0.35365,0.276111,0.362603,-0.007834,-1e-06,-3.7e-05,0.002928,0.0,6e-06,0.0,0.0,0.0,0.0,0.0,0.0
581660,-0.015019,-0.003893,0.001802,0.0,0.0,0.0,0.0,0.0,0.0,3.0,0.293442,0.358742,0.268807,0.366502,-0.007776,-1e-06,-3.6e-05,0.002906,0.0,6e-06,0.0,0.0,0.0,0.0,0.0,0.0
581680,-0.015019,-0.00377,0.001803,0.0,0.0,0.0,0.0,0.0,0.0,3.0,0.295878,0.35573,0.273306,0.364627,-0.007718,-1e-06,-3.6e-05,0.002885,0.0,6e-06,0.0,0.0,0.0,0.0,0.0,0.0
581700,-0.015263,-0.004013,0.001923,0.0,0.0,0.0,0.0,0.0,0.0,3.0,0.296146,0.358483,0.268616,0.364861,-0.00766,-1e-06,-3.6e-05,0.002863,0.0,6e-06,0.0,0.0,0.0,0.0,0.0,0.0
581720,-0.015386,-0.004256,0.002042,0.0,0.0,0.0,0.0,0.0,0.0,3.0,0.297245,0.358416,0.270324,0.362965,-0.007603,-1e-06,-3.6e-05,0.002842,0.0,6e-06,0.0,0.0,0.0,0.0,0.0,0.0
581740,-0.015264,-0.004378,0.002164,0.0,0.0,0.0,0.0,0.0,0.0,3.0,0.294494,0.359526,0.270487,0.363846,-0.007546,-1e-06,-3.6e-05,0.002821,0.0,6e-06,0.0,0.0,0.0,0.0,0.0,0.0
581760,-0.015264,-0.004378,0.002164,0.0,0.0,0.0,0.0,0.0,0.0,3.0,0.295421,0.358673,0.271041,0.363619,-0.00749,-1e-06,-3.6e-05,0.0028,0.0,6e-06,0.0,0.0,0.0,0.0,0.0,0.0
581780,-0.015142,-0.004256,0.002165,0.0,0.0,0.0,0.0,0.0,0.0,3.0,0.296881,0.357352,0.27213,0.363078,-0.007434,-1e-06,-3.6e-05,0.002779,0.0,6e-06,0.0,0.0,0.0,0.0,0.0,0.0
581800,-0.01502,-0.004011,0.002289,0.0,0.0,0.0,0.0,0.0,0.0,3.0,0.295923,0.357312,0.271093,0.364537,-0.007379,-1e-06,-3.6e-05,0.002758,0.0,6e-06,0.0,0.0,0.0,0.0,0.0,0.0
581820,-0.014898,-0.003888,0.002412,0.0,0.0,0.0,0.0,0.0,0.0,3.0,0.295266,0.358668,0.27043,0.364147,-0.007324,-1e-06,-3.6e-05,0.002737,0.0,6e-06,0.0,0.0,0.0,0.0,0.0,0.0
581840,-0.014898,-0.003765,0.002535,0.0,0.0,0.0,0.0,0.0,0.0,3.0,0.292689,0.360546,0.265494,0.367437,-0.007269,-1e-06,-3.5e-05,0.002717,0.0,6e-06,0.0,0.0,0.0,0.0,0.0,0.0
581860,-0.01502,-0.003888,0.002412,0.0,0.0,0.0,0.0,0.0,0.0,3.0,0.296037,0.356056,0.273708,0.36392,-0.007229,-1e-06,-3.5e-05,0.002702,0.0,6e-06,0.0,0.0,0.0,0.0,0.0,0.0
581880,-0.015021,-0.004131,0.002532,0.0,0.0,0.0,0.0,0.0,0.0,3.0,0.297036,0.358962,0.268969,0.363485,-0.007161,-1e-06,-3.5e-05,0.002677,0.0,6e-06,0.0,0.0,0.0,0.0,0.0,0.0
581900,-0.015021,-0.00413,0.002655,0.0,0.0,0.0,0.0,0.0,0.0,3.0,0.290913,0.359923,0.268793,0.367219,-0.007121,-1e-06,-3.5e-05,0.002662,0.0,6e-06,0.0,0.0,0.0,0.0,0.0,0.0
581920,-0.014899,-0.004008,0.002656,0.0,0.0,0.0,0.0,0.0,0.0,3.0,0.292656,0.360529,0.268345,0.365639,-0.007068,-1e-06,-3.5e-05,0.002642,0.0,6e-06,0.0,0.0,0.0,0.0,0.0,0.0
581940,-0.014776,-0.003886,0.002657,0.0,0.0,0.0,0.0,0.0,0.0,3.0,0.293177,0.35793,0.267834,0.368114,-0.007002,-1e-06,-3.5e-05,0.002617,0.0,6e-06,0.0,0.0,0.0,0.0,0.0,0.0
581960,-0.014654,-0.00352,0.00266,0.0,0.0,0.0,0.0,0.0,0.0,3.0,0.295692,0.355149,0.270165,0.36741,-0.00695,-1e-06,-3.5e-05,0.002598,0.0,6e-06,0.0,0.0,0.0,0.0,0.0,0.0
581980,-0.014654,-0.003275,0.002784,0.0,0.0,0.0,0.0,0.0,0.0,3.0,0.294502,0.356273,0.267745,0.368786,-0.006898,-1e-06,-3.5e-05,0.002578,0.0,6e-06,0.0,0.0,0.0,0.0,0.0,0.0
582000,-0.014531,-0.003153,0.002785,0.0,0.0,0.0,0.0,0.0,0.0,3.0,0.293664,0.356321,0.269377,0.368304,-0.006847,-1e-06,-3.4e-05,0.002559,0.0,6e-06,0.0,0.0,0.0,0.0,0.0,0.0
582020,-0.014654,-0.003275,0.002784,0.0,0.0,0.0,0.0,0.0,0.0,3.0,0.299602,0.357756,0.269443,0.362391,-0.006809,-1e-06,-3.4e-05,0.002545,0.0,6e-06,0.0,0.0,0.0,0.0,0.0,0.0
582040,-0.014654,-0.003519,0.002782,0.0,0.0,0.0,0.0,0.0,0.0,3.0,0.295202,0.356927,0.270253,0.366007,-0.006745,-1e-06,-3.4e-05,0.002521,0.0,6e-06,0.0,0.0,0.0,0.0,0.0,0.0
582060,-0.014654,-0.003642,0.002781,0.0,0.0,0.0,0.0,0.0,0.0,3.0,0.297396,0.357503,0.270861,0.363388,-0.006695,-1e-06,-3.4e-05,0.002502,0.0,6e-06,0.0,0.0,0.0,0.0,0.0,0.0
582080,-0.014776,-0.003519,0.002782,0.0,0.0,0.0,0.0,0.0,0.0,3.0,0.296847,0.357981,0.267991,0.36523,-0.006645,-1e-06,-3.4e-05,0.002484,0.0,6e-06,0.0,0.0,0.0,0.0,0.0,0.0
582100,-0.014654,-0.003519,0.002782,0.0,0.0,0.0,0.0,0.0,0.0,3.0,0.297023,0.35825,0.270027,0.365641,-0.006608,-1e-06,-3.4e-05,0.00247,0.0,6e-06,0.0,0.0,0.0,0.0,0.0,0.0
582120,-0.014654,-0.00352,0.00266,0.0,0.0,0.0,0.0,0.0,0.0,3.0,0.301319,0.356658,0.27307,0.35969,-0.006546,-1e-06,-3.4e-05,0.002447,0.0,6e-06,0.0,0.0,0.0,0.0,0.0,0.0
582140,-0.014654,-0.003519,0.002782,0.0,0.0,0.0,0.0,0.0,0.0,3.0,0.298827,0.35918,0.269794,0.361349,-0.006498,-1e-06,-3.4e-05,0.002429,0.0,6e-06,0.0,0.0,0.0,0.0,0.0,0.0
582160,-0.014654,-0.003519,0.002782,0.0,0.0,0.0,0.0,0.0,0.0,3.0,0.299063,0.358305,0.269988,0.361903,-0.006449,-1e-06,-3.3e-05,0.002411,0.0,6e-06,0.0,0.0,0.0,0.0,0.0,0.0
582180,-0.014532,-0.003642,0.002781,0.0,0.0,0.0,0.0,0.0,0.0,3.0,0.296463,0.35934,0.270258,0.362694,-0.006401,-1e-06,-3.3e-05,0.002393,0.0,6e-06,0.0,0.0,0.0,0.0,0.0,0.0
582200,-0.014532,-0.003642,0.002781,0.0,0.0,0.0,0.0,0.0,0.0,3.0,0.297481,0.357441,0.270617,0.363547,-0.006353,-1e-06,-3.3e-05,0.002375,0.0,6e-06,0.0,0.0,0.0,0.0,0.0,0.0
582220,-0.01441,-0.003398,0.002783,0.0,0.0,0.0,0.0,0.0,0.0,3.0,0.297524,0.355263,0.27323,0.363885,-0.006306,-1e-06,-3.3e-05,0.002357,0.0,6e-06,0.0,0.0,0.0,0.0,0.0,0.0
582240,-0.01441,-0.003275,0.002906,0.0,0.0,0.0,0.0,0.0,0.0,3.0,0.292743,0.358682,0.265643,0.369109,-0.006259,-1e-06,-3.3e-05,0.002339,0.0,6e-06,0.0,0.0,0.0,0.0,0.0,0.0
582260,-0.014288,-0.003398,0.002783,0.0,0.0,0.0,0.0,0.0,0.0,3.0,0.294912,0.356288,0.271909,0.365747,-0.006212,-1e-06,-3.3e-05,0.002322,0.0,6e-06,0.0,0.0,0.0,0.0,0.0,0.0
582280,-0.014288,-0.003398,0.002783,0.0,0.0,0.0,0.0,0.0,0.0,3.0,0.296131,0.355318,0.271884,0.365786,-0.006166,-1e-06,-3.3e-05,0.002305,0.0,6e-06,0.0,0.0,0.0,0.0,0.0,0.0
582300,-0.014166,-0.003398,0.002784,0.0,0.0,0.0,0.0,0.0,0.0,3.0,0.29507,0.356114,0.272262,0.365562,-0.00612,-1e-06,-3.3e-05,0.002288,0.0,6e-06,0.0,0.0,0.0,0.0,0.0,0.0
582320,-0.014043,-0.003275,0.002907,0.0,0.0,0.0,0.0,0.0,0.0,3.0,0.291177,0.35964,0.2671,0.368396,-0.006074,-1e-06,-3.3e-05,0.00227,0.0,6e-06,0.0,0.0,0.0,0.0,0.0,0.0
582340,-0.013921,-0.003153,0.002908,0.0,0.0,0.0,0.0,0.0,0.0,3.0,0.292498,0.358393,0.268639,0.367645,-0.006029,-1e-06,-3.2e-05,0.002254,0.0,6e-06,0.0,0.0,0.0,0.0,0.0,0.0
582360,-0.013921,-0.003276,0.002907,0.0,0.0,0.0,0.0,0.0,0.0,3.0,0.292916,0.35964,0.268405,0.366278,-0.005984,-1e-06,-3.2e-05,0.002237,0.0,6e-06,0.0,0.0,0.0,0.0,0.0,0.0
582380,-0.013921,-0.003276,0.002907,0.0,0.0,0.0,0.0,0.0,0.0,3.0,0.295401,0.35872,0.26922,0.364793,-0.00594,-1e-06,-3.2e-05,0.00222,0.0,6e-06,0.0,0.0,0.0,0.0,0.0,0.0
582400,-0.013922,-0.003519,0.003027,0.0,0.0,0.0,0.0,0.0,0.0,3.0,0.291095,0.362364,0.264744,0.367301,-0.005895,-1e-06,-3.2e-05,0.002204,0.0,6e-06,0.0,0.0,0.0,0.0,0.0,0.0
582420,-0.0138,-0.00352,0.002906,0.0,0.0,0.0,0.0,0.0,0.0,3.0,0.294283,0.358896,0.269168,0.365492,-0.005851,-1e-06,-3.2e-05,0.002187,0.0,5e-06,0.0,0.0,0.0,0.0,0.0,0.0
582440,-0.0138,-0.003398,0.002906,0.0,0.0,0.0,0.0,0.0,0.0,3.0,0.296526,0.35772,0.26885,0.365165,-0.005808,-1e-06,-3.2e-05,0.002171,0.0,5e-06,0.0,0.0,0.0,0.0,0.0,0.0
582460,-0.0138,-0.003275,0.003029,0.0,0.0,0.0,0.0,0.0,0.0,3.0,0.291118,0.358499,0.266383,0.369995,-0.005775,-1e-06,-3.2e-05,0.002159,0.0,5e-06,0.0,0.0,0.0,0.0,0.0,0.0
582480,-0.013921,-0.003031,0.003031,0.0,0.0,0.0,0.0,0.0,0.0,3.0,0.295981,0.359131,0.265173,0.366579,-0.005721,-1e-06,-3.2e-05,0.002139,0.0,5e-06,0.0,0.0,0.0,0.0,0.0,0.0
582500,-0.013921,-0.003153,0.00303,0.0,0.0,0.0,0.0,0.0,0.0,3.0,0.295386,0.359895,0.266848,0.3652,-0.005679,-1e-06,-3.2e-05,0.002123,0.0,5e-06,0.0,0.0,0.0,0.0,0.0,0.0
582520,-0.014044,-0.003275,0.003029,0.0,0.0,0.0,0.0,0.0,0.0,3.0,0.296762,0.358872,0.267095,0.365007,-0.005636,-1e-06,-3.1e-05,0.002107,0.0,5e-06,0.0,0.0,0.0,0.0,0.0,0.0
582540,-0.014044,-0.003519,0.003027,0.0,0.0,0.0,0.0,0.0,0.0,3.0,0.296714,0.358817,0.267231,0.365009,-0.005594,-1e-06,-3.1e-05,0.002091,0.0,5e-06,0.0,0.0,0.0,0.0,0.0,0.0
582560,-0.0138,-0.003397,0.003028,0.0,0.0,0.0,0.0,0.0,0.0,3.0,0.29446,0.357404,0.268758,0.367077,-0.005553,-1e-06,-3.1e-05,0.002075,0.0,5e-06,0.0,0.0,0.0,0.0,0.0,0.0
582580,-0.013799,-0.003153,0.00303,0.0,0.0,0.0,0.0,0.0,0.0,3.0,0.295695,0.356287,0.268121,0.367647,-0.005511,-1e-06,-3.1e-05,0.00206,0.0,5e-06,0.0,0.0,0.0,0.0,0.0,0.0
582600,-0.013677,-0.002787,0.003033,0.0,0.0,0.0,0.0,0.0,0.0,3.0,0.295558,0.355663,0.268259,0.368257,-0.00547,-1e-06,-3.1e-05,0.002045,0.0,5e-06,0.0,0.0,0.0,0.0,0.0,0.0
582620,-0.013677,-0.002787,0.003033,0.0,0.0,0.0,0.0,0.0,0.0,3.0,0.29734,0.356539,0.269935,0.364983,-0.005429,-1e-06,-3.1e-05,0.002029,0.0,5e-06,0.0,0.0,0.0,0.0,0.0,0.0
582640,-0.013799,-0.002787,0.003033,0.0,0.0,0.0,0.0,0.0,0.0,3.0,0.297399,0.356491,0.269138,0.36551,-0.005389,-1e-06,-3.1e-05,0.002014,0.0,5e-06,0.0,0.0,0.0,0.0,0.0,0.0
582660,-0.013921,-0.003153,0.00303,0.0,0.0,0.0,0.0,0.0,0.0,3.0,0.296328,0.358731,0.26764,0.365119,-0.005349,-1e-06,-3.1e-05,0.001999,0.0,5e-06,0.0,0.0,0.0,0.0,0.0,0.0
582680,-0.013922,-0.003397,0.003028,0.0,0.0,0.0,0.0,0.0,0.0,3.0,0.295954,0.358793,0.269705,0.363985,-0.005309,-1e-06,-3.1e-05,0.001984,0.0,5e-06,0.0,0.0,0.0,0.0,0.0,0.0
582700,-0.0138,-0.003274,0.003151,0.0,0.0,0.0,0.0,0.0,0.0,3.0,0.29393,0.35949,0.267966,0.365959,-0.005269,-1e-06,-3.1e-05,0.00197,0.0,5e-06,0.0,0.0,0.0,0.0,0.0,0.0
582720,-0.013799,-0.00303,0.003153,0.0,0.0,0.0,0.0,0.0,0.0,3.0,0.295453,0.358411,0.267763,0.366007,-0.00523,-1e-06,-3e-05,0.001955,0.0,5e-06,0.0,0.0,0.0,0.0,0.0,0.0
582740,-0.013677,-0.002908,0.003154,0.0,0.0,0.0,0.0,0.0,0.0,3.0,0.294388,0.35916,0.269079,0.365213,-0.005191,-1e-06,-3e-05,0.00194,0.0,5e-06,0.0,0.0,0.0,0.0,0.0,0.0
582760,-0.013799,-0.002908,0.003154,0.0,0.0,0.0,0.0,0.0,0.0,3.0,0.297001,0.358727,0.268822,0.36384,-0.005152,-1e-06,-3e-05,0.001926,0.0,5e-06,0.0,0.0,0.0,0.0,0.0,0.0
582780,-0.013799,-0.002907,0.003276,0.0,0.0,0.0,0.0,0.0,0.0,3.0,0.295757,0.359052,0.268101,0.364934,-0.005114,-1e-06,-3e-05,0.001912,0.0,5e-06,0.0,0.0,0.0,0.0,0.0,0.0
582800,-0.0138,-0.002906,0.003398,0.0,0.0,0.0,0.0,0.0,0.0,3.0,0.292024,0.361113,0.263449,0.368665,-0.005076,-1e-06,-3e-05,0.001897,0.0,5e-06,0.0,0.0,0.0,0.0,0.0,0.0
582820,-0.013677,-0.002906,0.003398,0.0,0.0,0.0,0.0,0.0,0.0,3.0,0.292197,0.359418,0.266345,0.36835,-0.005038,-1e-06,-3e-05,0.001883,0.0,5e-06,0.0,0.0,0.0,0.0,0.0,0.0
582840,-0.013555,-0.002907,0.003398,0.0,0.0,0.0,0.0,0.0,0.0,3.0,0.293319,0.357587,0.268848,0.367684,-0.005,-1e-06,-3e-05,0.001869,0.0,5e-06,0.0,0.0,0.0,0.0,0.0,0.0
582860,-0.013677,-0.002906,0.003398,0.0,0.0,0.0,0.0,0.0,0.0,3.0,0.295035,0.358114,0.267137,0.367013,-0.004963,-1e-06,-3e-05,0.001855,0.0,5e-06,0.0,0.0,0.0,0.0,0.0,0.0
582880,-0.013678,-0.002906,0.00352,0.0,0.0,0.0,0.0,0.0,0.0,3.0,0.291606,0.360842,0.263213,0.369381,-0.004926,-1e-06,-3e-05,0.001841,0.0,5e-06,0.0,0.0,0.0,0.0,0.0,0.0
582900,-0.013678,-0.003028,0.003519,0.0,0.0,0.0,0.0,0.0,0.0,3.0,0.293409,0.359569,0.266226,0.367391,-0.004889,-1e-06,-3e-05,0.001828,0.0,5e-06,0.0,0.0,0.0,0.0,0.0,0.0
582920,-0.0138,-0.003027,0.003519,0.0,0.0,0.0,0.0,0.0,0.0,3.0,0.295905,0.35827,0.266374,0.366703,-0.004853,-1e-06,-2.9e-05,0.001814,0.0,5e-06,0.0,0.0,0.0,0.0,0.0,0.0
582940,-0.013678,-0.003271,0.00364,0.0,0.0,0.0,0.0,0.0,0.0,3.0,0.294068,0.360427,0.266441,0.365927,-0.004817,-1e-06,-2.9e-05,0.0018,0.0,5e-06,0.0,0.0,0.0,0.0,0.0,0.0
582960,-0.013678,-0.003148,0.003763,0.0,0.0,0.0,0.0,0.0,0.0,3.0,0.292396,0.360211,0.264917,0.368345,-0.004781,-1e-06,-2.9e-05,0.001787,0.0,5e-06,0.0,0.0,0.0,0.0,0.0,0.0
582980,-0.013678,-0.003026,0.003764,0.0,0.0,0.0,0.0,0.0,0.0,3.0,0.293953,0.35934,0.264735,0.368162,-0.004745,-1e-06,-2.9e-05,0.001774,0.0,5e-06,0.0,0.0,0.0,0.0,0.0,0.0
583000,-0.0138,-0.003026,0.003763,0.0,0.0,0.0,0.0,0.0,0.0,3.0,0.295493,0.359115,0.264889,0.367141,-0.00471,-1e-06,-2.9e-05,0.00176,0.0,5e-06,0.0,0.0,0.0,0.0,0.0,0.0
583020,-0.013801,-0.003269,0.003884,0.0,0.0,0.0,0.0,0.0,0.0,3.0,0.293951,0.361642,0.264561,0.366026,-0.004675,-1e-06,-2.9e-05,0.001747,0.0,5e-06,0.0,0.0,0.0,0.0,0.0,0.0
583040,-0.013801,-0.00339,0.004005,0.0,0.0,0.0,0.0,0.0,0.0,3.0,0.292862,0.36208,0.263331,0.36718,-0.00464,-1e-06,-2.9e-05,0.001734,0.0,5e-06,0.0,0.0,0.0,0.0,0.0,0.0
583060,-0.013802,-0.003512,0.004004,0.0,0.0,0.0,0.0,0.0,0.0,3.0,0.292767,0.361138,0.264157,0.367651,-0.004605,-1e-06,-2.9e-05,0.001721,0.0,5e-06,0.0,0.0,0.0,0.0,0.0,0.0
583080,-0.013802,-0.003512,0.004004,0.0,0.0,0.0,0.0,0.0,0.0,3.0,0.294513,0.359559,0.264889,0.367438,-0.004571,-1e-06,-2.9e-05,0.001709,0.0,5e-06,0.0,0.0,0.0,0.0,0.0,0.0
583100,-0.013802,-0.003389,0.004127,0.0,0.0,0.0,0.0,0.0,0.0,3.0,0.294483,0.360281,0.262744,0.368112,-0.004537,-1e-06,-2.9e-05,0.001696,0.0,5e-06,0.0,0.0,0.0,0.0,0.0,0.0
583120,-0.013679,-0.003268,0.004128,0.0,0.0,0.0,0.0,0.0,0.0,3.0,0.292583,0.359555,0.26379,0.369553,-0.004503,-1e-06,-2.8e-05,0.001683,0.0,5e-06,0.0,0.0,0.0,0.0,0.0,0.0
583140,-0.013679,-0.00339,0.004127,0.0,0.0,0.0,0.0,0.0,0.0,3.0,0.293854,0.359928,0.265071,0.36745,-0.00447,-1e-06,-2.8e-05,0.001671,0.0,5e-06,0.0,0.0,0.0,0.0,0.0,0.0
583160,-0.01368,-0.003512,0.004127,0.0,0.0,0.0,0.0,0.0,0.0,3.0,0.293105,0.360544,0.266086,0.366753,-0.004436,-1e-06,-2.8e-05,0.001658,0.0,5e-06,0.0,0.0,0.0,0.0,0.0,0.0
583180,-0.01368,-0.003634,0.004126,0.0,0.0,0.0,0.0,0.0,0.0,3.0,0.296451,0.35935,0.26775,0.364348,-0.004403,-1e-06,-2.8e-05,0.001646,0.0,5e-06,0.0,0.0,0.0,0.0,0.0,0.0
583200,-0.013558,-0.003633,0.004248,0.0,0.0,0.0,0.0,0.0,0.0,3.0,0.29248,0.361353,0.265715,0.366659,-0.00437,-1e-06,-2.8e-05,0.001634,0.0,5e-06,0.0,0.0,0.0,0.0,0.0,0.0
583220,-0.013558,-0.003633,0.004248,0.0,0.0,0.0,0.0,0.0,0.0,3.0,0.292787,0.360979,0.265841,0.36672,-0.004338,-1e-06,-2.8e-05,0.001621,0.0,5e-06,0.0,0.0,0.0,0.0,0.0,0.0
583240,-0.013558,-0.003633,0.004248,0.0,0.0,0.0,0.0,0.0,0.0,3.0,0.294287,0.359859,0.266854,0.366054,-0.004305,-1e-06,-2.8e-05,0.001609,0.0,5e-06,0.0,0.0,0.0,0.0,0.0,0.0
583260,-0.013559,-0.003877,0.004246,0.0,0.0,0.0,0.0,0.0,0.0,3.0,0.294571,0.360939,0.265783,0.365473,-0.004273,-1e-06,-2.8e-05,0.001597,0.0,5e-06,0.0,0.0,0.0,0.0,0.0,0.0
583280,-0.013437,-0.003755,0.00437,0.0,0.0,0.0,0.0,0.0,0.0,3.0,0.289093,0.362264,0.262092,0.370507,-0.004241,-1e-06,-2.8e-05,0.001585,0.0,5e-06,0.0,0.0,0.0,0.0,0.0,0.0
583300,-0.013436,-0.003756,0.004247,0.0,0.0,0.0,0.0,0.0,0.0,3.0,0.29373,0.359401,0.265909,0.367519,-0.00421,-1e-06,-2.8e-05,0.001574,0.0,5e-06,0.0,0.0,0.0,0.0,0.0,0.0
583320,-0.013436,-0.003756,0.004247,0.0,0.0,0.0,0.0,0.0,0.0,3.0,0.293219,0.360276,0.265165,0.36752,-0.004178,-1e-06,-2.7e-05,0.001562,0.0,5e-06,0.0,0.0,0.0,0.0,0.0,0.0
583340,-0.013559,-0.003877,0.004246,0.0,0.0,0.0,0.0,0.0,0.0,3.0,0.293962,0.360293,0.264175,0.367584,-0.004147,-1e-06,-2.7e-05,0.00155,0.0,5e-06,0.0,0.0,0.0,0.0,0.0,0.0
583360,-0.013559,-0.003999,0.004246,0.0,0.0,0.0,0.0,0.0,0.0,3.0,0.293738,0.360781,0.264404,0.367128,-0.004116,-1e-06,-2.7e-05,0.001539,0.0,5e-06,0.0,0.0,0.0,0.0,0.0,0.0
583380,-0.013559,-0.004121,0.004245,0.0,0.0,0.0,0.0,0.0,0.0,3.0,0.293303,0.360882,0.264855,0.367063,-0.004086,-1e-06,-2.7e-05,0.001527,0.0,5e-06,0.0,0.0,0.0,0.0,0.0,0.0
583400,-0.013681,-0.004121,0.004244,0.0,0.0,0.0,0.0,0.0,0.0,3.0,0.294755,0.360793,0.263121,0.367174,-0.004055,-1e-06,-2.7e-05,0.001516,0.0,5e-06,0.0,0.0,0.0,0.0,0.0,0.0
583420,-0.013559,-0.003999,0.004246,0.0,0.0,0.0,0.0,0.0,0.0,3.0,0.294058,0.360346,0.263848,0.367667,-0.004025,-1e-06,-2.7e-05,0.001504,0.0,5e-06,0.0,0.0,0.0,0.0,0.0,0.0
583440,-0.013437,-0.003878,0.004247,0.0,0.0,0.0,0.0,0.0,0.0,3.0,0.292012,0.360799,0.26428,0.368456,-0.003995,-1e-06,-2.7e-05,0.001493,0.0,5e-06,0.0,0.0,0.0,0.0,0.0,0.0
583460,-0.013559,-0.003999,0.004246,0.0,0.0,0.0,0.0,0.0,0.0,3.0,0.293826,0.361619,0.262064,0.367718,-0.003965,-1e-06,-2.7e-05,0.001482,0.0,5e-06,0.0,0.0,0.0,0.0,0.0,0.0
583480,-0.013437,-0.004244,0.004244,0.0,0.0,0.0,0.0,0.0,0.0,3.0,0.293023,0.362325,0.263928,0.366443,-0.003936,-1e-06,-2.7e-05,0.001471,0.0,5e-06,0.0,0.0,0.0,0.0,0.0,0.0
583500,-0.013559,-0.004121,0.004245,0.0,0.0,0.0,0.0,0.0,0.0,3.0,0.294708,0.36118,0.261909,0.367591,-0.003906,-1e-06,-2.7e-05,0.00146,0.0,5e-06,0.0,0.0,0.0,0.0,0.0,0.0
583520,-0.013437,-0.004,0.004124,0.0,0.0,0.0,0.0,0.0,0.0,3.0,0.294173,0.36003,0.26477,0.367307,-0.003877,-1e-06,-2.7e-05,0.001449,0.0,5e-06,0.0,0.0,0.0,0.0,0.0,0.0
583540,-0.013437,-0.004,0.004124,0.0,0.0,0.0,0.0,0.0,0.0,3.0,0.29483,0.360209,0.265032,0.366477,-0.003848,-1e-06,-2.6e-05,0.001438,0.0,5e-06,0.0,0.0,0.0,0.0,0.0,0.0
583560,-0.013437,-0.004123,0.004123,0.0,0.0,0.0,0.0,0.0,0.0,3.0,0.294092,0.361416,0.264081,0.366449,-0.00382,-1e-06,-2.6e-05,0.001428,0.0,5e-06,0.0,0.0,0.0,0.0,0.0,0.0
583580,-0.013437,-0.004245,0.004122,0.0,0.0,0.0,0.0,0.0,0.0,3.0,0.293894,0.361039,0.264121,0.366939,-0.003791,-1e-06,-2.6e-05,0.001417,0.0,4e-06,0.0,0.0,0.0,0.0,0.0,0.0
583600,-0.013193,-0.004368,0.004,0.0,0.0,0.0,0.0,0.0,0.0,3.0,0.295314,0.359051,0.27022,0.363875,-0.003763,-1e-06,-2.6e-05,0.001407,0.0,4e-06,0.0,0.0,0.0,0.0,0.0,0.0
583620,-0.013193,-0.004246,0.004001,0.0,0.0,0.0,0.0,0.0,0.0,3.0,0.29438,0.35989,0.267121,0.365781,-0.003735,-1e-06,-2.6e-05,0.001396,0.0,4e-06,0.0,0.0,0.0,0.0,0.0,0.0
583640,-0.01307,-0.004124,0.004002,0.0,0.0,0.0,0.0,0.0,0.0,3.0,0.294756,0.359324,0.26913,0.364744,-0.003707,-1e-06,-2.6e-05,0.001386,0.0,4e-06,0.0,0.0,0.0,0.0,0.0,0.0
583660,-0.01307,-0.004002,0.004002,0.0,0.0,0.0,0.0,0.0,0.0,3.0,0.293079,0.360553,0.265634,0.367054,-0.003679,-1e-06,-2.6e-05,0.001375,0.0,4e-06,0.0,0.0,0.0,0.0,0.0,0.0
583680,-0.01307,-0.004247,0.003879,0.0,0.0,0.0,0.0,0.0,0.0,3.0,0.294803,0.360546,0.267464,0.364598,-0.003652,-1e-06,-2.6e-05,0.001365,0.0,4e-06,0.0,0.0,0.0,0.0,0.0,0.0
583700,-0.013071,-0.004491,0.003877,0.0,0.0,0.0,0.0,0.0,0.0,3.0,0.294493,0.360554,0.267048,0.365092,-0.003625,-1e-06,-2.6e-05,0.001355,0.0,4e-06,0.0,0.0,0.0,0.0,0.0,0.0
583720,-0.013071,-0.004369,0.003878,0.0,0.0,0.0,0.0,0.0,0.0,3.0,0.293802,0.35996,0.264902,0.367564,-0.003598,-1e-06,-2.6e-05,0.001345,0.0,4e-06,0.0,0.0,0.0,0.0,0.0,0.0
583740,-0.012948,-0.004247,0.003879,0.0,0.0,0.0,0.0,0.0,0.0,3.0,0.289972,0.361197,0.263444,0.370072,-0.003571,-1e-06,-2.6e-05,0.001335,0.0,4e-06,0.0,0.0,0.0,0.0,0.0,0.0
583760,-0.01307,-0.004248,0.003757,0.0,0.0,0.0,0.0,0.0,0.0,3.0,0.294838,0.359857,0.26446,0.367178,-0.003544,-1e-06,-2.5e-05,0.001325,0.0,4e-06,0.0,0.0,0.0,0.0,0.0,0.0
583780,-0.013193,-0.004492,0.003755,0.0,0.0,0.0,0.0,0.0,0.0,3.0,0.29555,0.361971,0.263154,0.365402,-0.003518,-1e-06,-2.5e-05,0.001315,0.0,4e-06,0.0,0.0,0.0,0.0,0.0,0.0
583800,-0.013071,-0.004736,0.003753,0.0,0.0,0.0,0.0,0.0,0.0,3.0,0.291421,0.363818,0.262247,0.367207,-0.003492,-1e-06,-2.5e-05,0.001305,0.0,4e-06,0.0,0.0,0.0,0.0,0.0,0.0
583820,-0.013071,-0.004859,0.003631,0.0,0.0,0.0,0.0,0.0,0.0,3.0,0.29459,0.361335,0.265143,0.36548,-0.003466,-1e-06,-2.5e-05,0.001295,0.0,4e-06,0.0,0.0,0.0,0.0,0.0,0.0
583840,-0.013071,-0.004859,0.003631,0.0,0.0,0.0,0.0,0.0,0.0,3.0,0.295217,0.361188,0.263813,0.366005,-0.00344,-1e-06,-2.5e-05,0.001286,0.0,4e-06,0.0,0.0,0.0,0.0,0.0,0.0
583860,-0.01307,-0.004616,0.00351,0.0,0.0,0.0,0.0,0.0,0.0,3.0,0.297101,0.358406,0.267472,0.364961,-0.003414,-1e-06,-2.5e-05,0.001276,0.0,4e-06,0.0,0.0,0.0,0.0,0.0,0.0
583880,-0.013192,-0.004493,0.003511,0.0,0.0,0.0,0.0,0.0,0.0,3.0,0.296015,0.359612,0.263476,0.367164,-0.003389,-1e-06,-2.5e-05,0.001267,0.0,4e-06,0.0,0.0,0.0,0.0,0.0,0.0
583900,-0.013193,-0.004737,0.003509,0.0,0.0,0.0,0.0,0.0,0.0,3.0,0.293506,0.361351,0.263264,0.367462,-0.003363,-1e-06,-2.5e-05,0.001257,0.0,4e-06,0.0,0.0,0.0,0.0,0.0,0.0
583920,-0.013315,-0.004982,0.003385,0.0,0.0,0.0,0.0,0.0,0.0,3.0,0.296351,0.360838,0.26394,0.365418,-0.003338,-1e-06,-2.5e-05,0.001248,0.0,4e-06,0.0,0.0,0.0,0.0,0.0,0.0
583940,-0.013193,-0.004982,0.003385,0.0,0.0,0.0,0.0,0.0,0.0,3.0,0.295188,0.360197,0.264488,0.366569,-0.003313,-1e-06,-2.5e-05,0.001239,0.0,4e-06,0.0,0.0,0.0,0.0,0.0,0.0
583960,-0.01307,-0.004861,0.003386,0.0,0.0,0.0,0.0,0.0,0.0,3.0,0.294368,0.360117,0.264399,0.367313,-0.003289,-1e-06,-2.5e-05,0.001229,0.0,4e-06,0.0,0.0,0.0,0.0,0.0,0.0
583980,-0.01307,-0.004861,0.003264,0.0,0.0,0.0,0.087266,0.0,0.0,3.0,0.411315,0.359903,0.15,0.366094,-0.000596,-0.0,0.0001,0.405762,5.4e-05,0.016186,0.0,0.0,0.0,0.0,0.0,0.0
584000,-0.012947,-0.004743,0.002777,0.0,0.0,0.0,0.087266,0.0,0.0,3.0,0.348131,0.355102,0.196983,0.361826,0.008685,2e-06,0.000418,0.510987,0.000219,0.015621,0.0,0.0,0.0,0.0,0.0,0.0
584020,-0.012458,-0.005235,0.002287,0.0,0.0,0.0,0.087266,0.0,0.0,3.0,0.343702,0.356111,0.214675,0.357285,0.018966,5e-06,0.000718,0.513998,0.000498,0.01427,0.0,0.0,0.0,0.0,0.0,0.0
584040,-0.010626,-0.005606,0.001801,0.0,0.0,0.0,0.087266,0.0,0.0,3.0,0.337696,0.356442,0.226047,0.356961,0.029185,1e-05,0.000995,0.504756,0.000685,0.013123,0.0,0.0,0.0,0.0,0.0,0.0
584060,-0.007329,-0.005854,0.001444,0.0,0.0,0.0,0.087266,0.0,0.0,3.0,0.327597,0.358469,0.235299,0.359172,0.039187,1.7e-05,0.001249,0.491675,0.000835,0.011946,0.0,0.0,0.0,0.0,0.0,0.0
584080,-0.002445,-0.006103,0.001091,0.0,0.0,0.0,0.087266,0.0,0.0,3.0,0.318153,0.357737,0.250218,0.359527,0.048906,2.5e-05,0.001479,0.476003,0.000949,0.010749,0.0,0.0,0.0,0.0,0.0,0.0
584100,0.003538,-0.00635,0.000866,0.0,0.0,0.0,0.087266,0.0,0.0,3.0,0.313328,0.3566,0.262282,0.357187,0.058296,3.3e-05,0.001686,0.458312,0.001026,0.009542,0.0,0.0,0.0,0.0,0.0,0.0
584120,0.010496,-0.006474,0.000889,0.0,0.0,0.0,0.087266,0.0,0.0,3.0,0.302741,0.358976,0.266212,0.360865,0.06732,4.3e-05,0.001869,0.439059,0.001069,0.008334,0.0,0.0,0.0,0.0,0.0,0.0
584140,0.018675,-0.006721,0.000795,0.0,0.0,0.0,0.087266,0.0,0.0,3.0,0.295757,0.357664,0.279135,0.358799,0.07595,5.3e-05,0.002027,0.418644,0.00108,0.007132,0.0,0.0,0.0,0.0,0.0,0.0
584160,0.027953,-0.00709,0.000831,0.0,0.0,0.0,0.087266,0.0,0.0,3.0,0.283025,0.359444,0.286401,0.361261,0.084165,6.4e-05,0.002162,0.397416,0.00106,0.005946,0.0,0.0,0.0,0.0,0.0,0.0
584180,0.037844,-0.007457,0.000751,0.0,0.0,0.0,0.087266,0.0,0.0,3.0,0.277619,0.356945,0.297018,0.359609,0.09195,7.6e-05,0.002274,0.375677,0.001013,0.004782,0.0,0.0,0.0,0.0,0.0,0.0
584200,0.04822,-0.007581,0.000793,0.0,0.0,0.0,0.087266,0.0,0.0,3.0,0.268562,0.356848,0.303597,0.360743,0.099299,8.7e-05,0.002362,0.353689,0.000942,0.003648,0.0,0.0,0.0,0.0,0.0,0.0
584220,0.059091,-0.007583,0.000834,0.0,0.0,0.0,0.087266,0.0,0.0,3.0,0.255228,0.357382,0.309705,0.363831,0.106208,9.9e-05,0.002429,0.331679,0.000848,0.002549,0.0,0.0,0.0,0.0,0.0,0.0
584240,0.070084,-0.007703,0.000758,0.0,0.0,0.0,0.087266,0.0,0.0,3.0,0.246511,0.357342,0.31733,0.362798,0.112677,0.00011,0.002473,0.309839,0.000736,0.001491,0.0,0.0,0.0,0.0,0.0,0.0
584260,0.08059,-0.007933,0.000442,0.0,0.0,0.0,0.087266,0.0,0.0,3.0,0.249859,0.354118,0.324347,0.357983,0.118712,0.000121,0.002497,0.28833,0.000609,0.000481,0.0,0.0,0.0,0.0,0.0,0.0
584280,0.090978,-0.008293,0.000378,0.0,0.0,0.0,0.087266,0.0,0.0,3.0,0.239847,0.357049,0.327803,0.357875,0.12432,0.000132,0.0025,0.267288,0.000469,-0.000478,0.0,0.0,0.0,0.0,0.0,0.0
584300,0.100879,-0.008644,0.000193,0.0,0.0,0.0,0.087266,0.0,0.0,3.0,0.232615,0.359029,0.328443,0.359318,0.129511,0.000142,0.002485,0.246824,0.00032,-0.001381,0.0,0.0,0.0,0.0,0.0,0.0
584320,0.110294,-0.008858,-0.00024,0.0,0.0,0.0,0.087266,0.0,0.0,3.0,0.237005,0.353726,0.335145,0.356127,0.134298,0.000152,0.002452,0.227028,0.000163,-0.002226,0.0,0.0,0.0,0.0,0.0,0.0
584340,0.118977,-0.009074,-0.000552,0.0,0.0,0.0,0.087266,0.0,0.0,3.0,0.234518,0.35457,0.336981,0.354966,0.138695,0.000161,0.002402,0.207972,3e-06,-0.003009,0.0,0.0,0.0,0.0,0.0,0.0
584360,0.126684,-0.009045,-0.000883,0.0,0.0,0.0,0.087266,0.0,0.0,3.0,0.235448,0.353613,0.336963,0.355421,0.142716,0.000169,0.002337,0.189709,-0.00016,-0.003728,0.0,0.0,0.0,0.0,0.0,0.0
584380,0.133653,-0.009135,-0.001208,0.0,0.0,0.0,0.087266,0.0,0.0,3.0,0.232386,0.356117,0.335346,0.356103,0.146378,0.000176,0.002258,0.172279,-0.000321,-0.004381,0.0,0.0,0.0,0.0,0.0,0.0
584400,0.139535,-0.009337,-0.00165,0.0,0.0,0.0,0.087266,0.0,0.0,3.0,0.238551,0.35353,0.336754,0.353954,0.149698,0.000182,0.002166,0.155708,-0.00048,-0.004967,0.0,0.0,0.0,0.0,0.0,0.0
584420,0.144556,-0.009416,-0.002104,0.0,0.0,0.0,0.087266,0.0,0.0,3.0,0.242972,0.351807,0.33701,0.352873,0.152693,0.000187,0.002062,0.140013,-0.000634,-0.005486,0.0,0.0,0.0,0.0,0.0,0.0
584440,0.148471,-0.009635,-0.00231,0.0,0.0,0.0,0.087266,0.0,0.0,3.0,0.240911,0.354806,0.332895,0.354905,0.155381,0.00019,0.001948,0.125199,-0.000781,-0.005937,0.0,0.0,0.0,0.0,0.0,0.0
584460,0.151535,-0.009845,-0.002642,0.0,0.0,0.0,0.087266,0.0,0.0,3.0,0.243855,0.354399,0.331722,0.354673,0.157779,0.000193,0.001825,0.111264,-0.000921,-0.006321,0.0,0.0,0.0,0.0,0.0,0.0
584480,0.153858,-0.009811,-0.002995,0.0,0.0,0.0,0.087266,0.0,0.0,3.0,0.247871,0.351214,0.331714,0.355452,0.159905,0.000194,0.001695,0.098197,-0.001051,-0.006639,0.0,0.0,0.0,0.0,0.0,0.0
584500,0.154844,-0.009893,-0.003467,0.0,0.0,0.0,0.087266,0.0,0.0,3.0,0.26013,0.349859,0.329508,0.351105,0.161776,0.000194,0.001558,0.085984,-0.001171,-0.006892,0.0,0.0,0.0,0.0,0.0,0.0
584520,0.15521,-0.009995,-0.003699,0.0,0.0,0.0,0.087266,0.0,0.0,3.0,0.262595,0.351278,0.325285,0.351902,0.163409,0.000193,0.001417,0.074604,-0.001279,-0.007081,0.0,0.0,0.0,0.0,0.0,0.0
584540,0.15509,-0.010098,-0.003934,0.0,0.0,0.0,0.087266,0.0,0.0,3.0,0.265508,0.351965,0.322749,0.351535,0.16482,0.00019,0.001272,0.064032,-0.001376,-0.007209,0.0,0.0,0.0,0.0,0.0,0.0
584560,0.154604,-0.010081,-0.00418,0.0,0.0,0.0,0.087266,0.0,0.0,3.0,0.268352,0.350304,0.322397,0.351569,0.166026,0.000186,0.001124,0.05424,-0.00146,-0.007279,0.0,0.0,0.0,0.0,0.0,0.0
584580,0.153744,-0.010195,-0.004297,0.0,0.0,0.0,0.087266,0.0,0.0,3.0,0.266992,0.352315,0.319544,0.35301,0.167042,0.000181,0.000975,0.045198,-0.001531,-0.007292,0.0,0.0,0.0,0.0,0.0,0.0
584600,0.152892,-0.010067,-0.004433,0.0,0.0,0.0,0.087266,0.0,0.0,3.0,0.266601,0.350761,0.320572,0.353919,0.167882,0.000174,0.000827,0.036874,-0.001589,-0.007252,0.0,0.0,0.0,0.0,0.0,0.0
584620,0.151788,-0.00993,-0.004691,0.0,0.0,0.0,0.087266,0.0,0.0,3.0,0.272182,0.349601,0.320207,0.35155,0.168562,0.000167,0.000679,0.029235,-0.001634,-0.007162,0.0,0.0,0.0,0.0,0.0,0.0
584640,0.150685,-0.009793,-0.00495,0.0,0.0,0.0,0.087266,0.0,0.0,3.0,0.275588,0.348565,0.319282,0.35098,0.169093,0.000158,0.000533,0.022244,-0.001665,-0.007025,0.0,0.0,0.0,0.0,0.0,0.0
584660,0.149833,-0.009665,-0.005086,0.0,0.0,0.0,0.087266,0.0,0.0,3.0,0.273503,0.348687,0.320105,0.351616,0.169489,0.000149,0.00039,0.015869,-0.001685,-0.006845,0.0,0.0,0.0,0.0,0.0,0.0
584680,0.149094,-0.009537,-0.00522,0.0,0.0,0.0,0.087266,0.0,0.0,3.0,0.27322,0.348897,0.320474,0.351283,0.169762,0.000138,0.000251,0.010073,-0.001691,-0.006626,0.0,0.0,0.0,0.0,0.0,0.0
584700,0.148485,-0.00953,-0.005345,0.0,0.0,0.0,0.087266,0.0,0.0,3.0,0.273059,0.349395,0.319595,0.351677,0.169923,0.000127,0.000117,0.004822,-0.001686,-0.006371,0.0,0.0,0.0,0.0,0.0,0.0
584720,0.147878,-0.009645,-0.005461,0.0,0.0,0.0,0.087266,0.0,0.0,3.0,0.271583,0.35182,0.317741,0.351921,0.169983,0.000115,-1.3e-05,8.1e-05,-0.001669,-0.006083,0.0,0.0,0.0,0.0,0.0,0.0
584740,0.147756,-0.009515,-0.005593,0.0,0.0,0.0,0.087266,0.0,0.0,3.0,0.272418,0.348636,0.321956,0.350792,0.169952,0.000103,-0.000136,-0.004183,-0.001641,-0.005768,0.0,0.0,0.0,0.0,0.0,0.0
584760,0.147626,-0.009636,-0.005584,0.0,0.0,0.0,0.087266,0.0,0.0,3.0,0.267455,0.352827,0.319767,0.351988,0.169839,9e-05,-0.000253,-0.008003,-0.001604,-0.005428,0.0,0.0,0.0,0.0,0.0,0.0
584780,0.147748,-0.009627,-0.005705,0.0,0.0,0.0,0.087266,0.0,0.0,3.0,0.268106,0.351547,0.320385,0.35228,0.169653,7.6e-05,-0.000362,-0.011411,-0.001556,-0.005067,0.0,0.0,0.0,0.0,0.0,0.0
584800,0.148001,-0.009739,-0.005817,0.0,0.0,0.0,0.087266,0.0,0.0,3.0,0.269511,0.349389,0.32452,0.349776,0.169401,6.3e-05,-0.000465,-0.014438,-0.0015,-0.00469,0.0,0.0,0.0,0.0,0.0,0.0
584820,0.148001,-0.009739,-0.005817,0.0,0.0,0.0,0.087266,0.0,0.0,3.0,0.269419,0.350793,0.322086,0.350622,0.169092,4.9e-05,-0.000559,-0.017111,-0.001436,-0.004299,0.0,0.0,0.0,0.0,0.0,0.0
584840,0.148245,-0.009616,-0.005825,0.0,0.0,0.0,0.087266,0.0,0.0,3.0,0.266137,0.351175,0.322043,0.352526,0.168732,3.5e-05,-0.000646,-0.019461,-0.001366,-0.003898,0.0,0.0,0.0,0.0,0.0,0.0
584860,0.148245,-0.009738,-0.005816,0.0,0.0,0.0,0.087266,0.0,0.0,3.0,0.26599,0.351918,0.321766,0.35213,0.168327,2.1e-05,-0.000724,-0.021512,-0.001289,-0.003491,0.0,0.0,0.0,0.0,0.0,0.0
584880,0.148123,-0.009608,-0.005947,0.0,0.0,0.0,0.087266,0.0,0.0,3.0,0.270465,0.349523,0.323061,0.35029,0.167883,8e-06,-0.000794,-0.023291,-0.001207,-0.003081,0.0,0.0,0.0,0.0,0.0,0.0
584900,0.148123,-0.009617,-0.005825,0.0,0.0,0.0,0.087266,0.0,0.0,3.0,0.265138,0.352779,0.321231,0.352317,0.167405,-6e-06,-0.000856,-0.024821,-0.00112,-0.002671,0.0,0.0,0.0,0.0,0.0,0.0
584920,0.147758,-0.009618,-0.005827,0.0,0.0,0.0,0.087266,0.0,0.0,3.0,0.266871,0.35276,0.3203,0.351985,0.166898,-1.9e-05,-0.000909,-0.026125,-0.00103,-0.002264,0.0,0.0,0.0,0.0,0.0,0.0
584940,0.147627,-0.009618,-0.005827,0.0,0.0,0.0,0.087266,0.0,0.0,3.0,0.267336,0.350983,0.321261,0.352594,0.166367,-3.1e-05,-0.000954,-0.027223,-0.000937,-0.001863,0.0,0.0,0.0,0.0,0.0,0.0
584960,0.147505,-0.00974,-0.005819,0.0,0.0,0.0,0.087266,0.0,0.0,3.0,0.2664,0.352513,0.321476,0.351512,0.165816,-4.4e-05,-0.000991,-0.028136,-0.000842,-0.00147,0.0,0.0,0.0,0.0,0.0,0.0
584980,0.147384,-0.009741,-0.00582,0.0,0.0,0.0,0.087266,0.0,0.0,3.0,0.2667,0.351799,0.321585,0.351927,0.165247,-5.5e-05,-0.00102,-0.028882,-0.000746,-0.001088,0.0,0.0,0.0,0.0,0.0,0.0
585000,0.147384,-0.009863,-0.005811,0.0,0.0,0.0,0.087266,0.0,0.0,3.0,0.266042,0.352738,0.321764,0.351275,0.164665,-6.6e-05,-0.001041,-0.029477,-0.000649,-0.000718,0.0,0.0,0.0,0.0,0.0,0.0
585020,0.147505,-0.009993,-0.005679,0.0,0.0,0.0,0.087266,0.0,0.0,3.0,0.26335,0.352992,0.322283,0.352368,0.164072,-7.6e-05,-0.001054,-0.029938,-0.000577,-0.000451,0.0,0.0,0.0,0.0,0.0,0.0
585040,0.147384,-0.010115,-0.005671,0.0,0.0,0.0,0.087266,0.0,0.0,3.0,0.265659,0.352793,0.321784,0.351461,0.16347,-8.6e-05,-0.00106,-0.03028,-0.000458,-2.6e-05,0.0,0.0,0.0,0.0,0.0,0.0
585060,0.147384,-0.010115,-0.005671,0.0,0.0,0.0,0.087266,0.0,0.0,3.0,0.26604,0.352765,0.321631,0.351367,0.162863,-9.4e-05,-0.00106,-0.030515,-0.000365,0.000294,0.0,0.0,0.0,0.0,0.0,0.0
585080,0.147383,-0.010002,-0.005558,0.0,0.0,0.0,0.087266,0.0,0.0,3.0,0.261311,0.354999,0.319433,0.354206,0.162251,-0.000102,-0.001053,-0.030656,-0.000273,0.000594,0.0,0.0,0.0,0.0,0.0,0.0
585100,0.147505,-0.00988,-0.005566,0.0,0.0,0.0,0.087266,0.0,0.0,3.0,0.263662,0.352183,0.322584,0.352703,0.161638,-0.000109,-0.00104,-0.030715,-0.000185,0.000874,0.0,0.0,0.0,0.0,0.0,0.0
585120,0.147383,-0.009881,-0.005567,0.0,0.0,0.0,0.087266,0.0,0.0,3.0,0.265652,0.352066,0.322017,0.351987,0.161023,-0.000115,-0.001021,-0.030701,-0.0001,0.001133,0.0,0.0,0.0,0.0,0.0,0.0
585140,0.147261,-0.00989,-0.005446,0.0,0.0,0.0,0.087266,0.0,0.0,3.0,0.263185,0.353484,0.320826,0.353272,0.16041,-0.00012,-0.000997,-0.030626,-1.8e-05,0.001369,0.0,0.0,0.0,0.0,0.0,0.0
585160,0.147139,-0.009891,-0.005447,0.0,0.0,0.0,0.087266,0.0,0.0,3.0,0.266694,0.352922,0.320647,0.351636,0.159798,-0.000125,-0.000969,-0.030496,5.9e-05,0.001583,0.0,0.0,0.0,0.0,0.0,0.0
585180,0.147138,-0.009778,-0.005334,0.0,0.0,0.0,0.087266,0.0,0.0,3.0,0.259537,0.354883,0.320454,0.354585,0.159189,-0.000128,-0.000936,-0.030319,0.000132,0.001774,0.0,0.0,0.0,0.0,0.0,0.0
585200,0.146894,-0.009535,-0.005353,0.0,0.0,0.0,0.087266,0.0,0.0,3.0,0.264756,0.352592,0.320177,0.353686,0.158585,-0.000131,-0.000899,-0.030104,0.000201,0.001942,0.0,0.0,0.0,0.0,0.0,0.0
585220,0.146894,-0.009535,-0.005353,0.0,0.0,0.0,0.087266,0.0,0.0,3.0,0.263839,0.352303,0.322886,0.352197,0.157984,-0.000133,-0.000859,-0.029856,0.000264,0.002087,0.0,0.0,0.0,0.0,0.0,0.0
585240,0.14665,-0.009536,-0.005355,0.0,0.0,0.0,0.087266,0.0,0.0,3.0,0.265268,0.353186,0.321661,0.351439,0.157389,-0.000134,-0.000816,-0.02958,0.000322,0.002209,0.0,0.0,0.0,0.0,0.0,0.0
585260,0.146528,-0.009415,-0.005365,0.0,0.0,0.0,0.087266,0.0,0.0,3.0,0.265622,0.352772,0.321615,0.351657,0.1568,-0.000134,-0.000782,-0.029359,0.000362,0.002286,0.0,0.0,0.0,0.0,0.0,0.0
585280,0.14665,-0.009293,-0.005373,0.0,0.0,0.0,0.087266,0.0,0.0,3.0,0.263011,0.351379,0.324108,0.35258,0.156216,-0.000134,-0.000723,-0.028968,0.000423,0.002387,0.0,0.0,0.0,0.0,0.0,0.0
585300,0.146407,-0.009537,-0.005356,0.0,0.0,0.0,0.087266,0.0,0.0,3.0,0.264299,0.353643,0.322352,0.351017,0.15564,-0.000133,-0.000674,-0.028639,0.000465,0.002444,0.0,0.0,0.0,0.0,0.0,0.0
585320,0.146407,-0.009659,-0.005347,0.0,0.0,0.0,0.087266,0.0,0.0,3.0,0.264777,0.352512,0.322484,0.351715,0.155069,-0.000131,-0.000624,-0.0283,0.000502,0.002481,0.0,0.0,0.0,0.0,0.0,0.0
585340,0.146285,-0.009659,-0.005348,0.0,0.0,0.0,0.087266,0.0,0.0,3.0,0.264033,0.352831,0.322956,0.351475,0.154506,-0.000128,-0.000573,-0.027954,0.000533,0.002497,0.0,0.0,0.0,0.0,0.0,0.0
585360,0.146285,-0.009538,-0.005357,0.0,0.0,0.0,0.087266,0.0,0.0,3.0,0.264451,0.351087,0.324496,0.351563,0.153949,-0.000125,-0.000522,-0.027604,0.000553,0.002497,0.0,0.0,0.0,0.0,0.0,0.0
585380,0.146285,-0.009538,-0.005357,0.0,0.0,0.0,0.087266,0.0,0.0,3.0,0.262835,0.352013,0.324314,0.351882,0.1534,-0.000122,-0.000471,-0.027251,0.00058,0.002476,0.0,0.0,0.0,0.0,0.0,0.0
585400,0.146033,-0.009538,-0.005357,0.0,0.0,0.0,0.087266,0.0,0.0,3.0,0.265496,0.352259,0.322807,0.351196,0.152858,-0.000118,-0.00042,-0.026899,0.000596,0.00244,0.0,0.0,0.0,0.0,0.0,0.0
585420,0.146032,-0.009416,-0.005366,0.0,0.0,0.0,0.087266,0.0,0.0,3.0,0.26623,0.35144,0.323776,0.350652,0.152322,-0.000113,-0.000371,-0.026548,0.000606,0.002388,0.0,0.0,0.0,0.0,0.0,0.0
585440,0.146032,-0.009416,-0.005366,0.0,0.0,0.0,0.087266,0.0,0.0,3.0,0.262692,0.35238,0.325571,0.350475,0.151794,-0.000108,-0.000322,-0.026201,0.000613,0.002322,0.0,0.0,0.0,0.0,0.0,0.0
585460,0.14591,-0.009295,-0.005376,0.0,0.0,0.0,0.087266,0.0,0.0,3.0,0.265613,0.350702,0.32467,0.351006,0.151272,-0.000103,-0.000275,-0.025858,0.000614,0.002244,0.0,0.0,0.0,0.0,0.0,0.0
585480,0.145911,-0.009417,-0.005367,0.0,0.0,0.0,0.087266,0.0,0.0,3.0,0.262254,0.352428,0.32484,0.351378,0.150758,-9.8e-05,-0.000229,-0.025521,0.000612,0.002153,0.0,0.0,0.0,0.0,0.0,0.0
585500,0.145667,-0.009539,-0.00536,0.0,0.0,0.0,0.087266,0.0,0.0,3.0,0.264896,0.352459,0.32399,0.350341,0.15025,-9.2e-05,-0.000186,-0.02519,0.000605,0.002053,0.0,0.0,0.0,0.0,0.0,0.0
585520,0.145545,-0.009549,-0.005239,0.0,0.0,0.0,0.087266,0.0,0.0,3.0,0.26149,0.354225,0.321075,0.353429,0.149749,-8.6e-05,-0.000144,-0.024865,0.000595,0.001943,0.0,0.0,0.0,0.0,0.0,0.0
585540,0.145546,-0.009662,-0.005351,0.0,0.0,0.0,0.087266,0.0,0.0,3.0,0.263248,0.351511,0.325985,0.350601,0.149254,-8e-05,-0.000105,-0.024548,0.000581,0.001826,0.0,0.0,0.0,0.0,0.0,0.0
585560,0.145424,-0.00954,-0.005361,0.0,0.0,0.0,0.087266,0.0,0.0,3.0,0.264958,0.3502,0.325588,0.351121,0.148765,-7.4e-05,-6.8e-05,-0.024239,0.000564,0.001702,0.0,0.0,0.0,0.0,0.0,0.0
585580,0.145303,-0.009662,-0.005353,0.0,0.0,0.0,0.087266,0.0,0.0,3.0,0.266147,0.349825,0.327172,0.349246,0.148282,-6.8e-05,-3.3e-05,-0.023938,0.000545,0.001572,0.0,0.0,0.0,0.0,0.0,0.0
585600,0.145059,-0.009785,-0.005345,0.0,0.0,0.0,0.087266,0.0,0.0,3.0,0.265976,0.351523,0.324605,0.349995,0.147806,-6.2e-05,-2e-06,-0.023645,0.000522,0.001439,0.0,0.0,0.0,0.0,0.0,0.0
585620,0.145181,-0.009663,-0.005354,0.0,0.0,0.0,0.087266,0.0,0.0,3.0,0.264067,0.349981,0.326483,0.35113,0.147335,-5.6e-05,2.7e-05,-0.02336,0.000498,0.001303,0.0,0.0,0.0,0.0,0.0,0.0
585640,0.14518,-0.00955,-0.005241,0.0,0.0,0.0,0.087266,0.0,0.0,3.0,0.261451,0.350599,0.325647,0.353008,0.14687,-5e-05,5.3e-05,-0.023084,0.000471,0.001165,0.0,0.0,0.0,0.0,0.0,0.0
585660,0.144937,-0.009542,-0.005364,0.0,0.0,0.0,0.087266,0.0,0.0,3.0,0.268305,0.348605,0.326654,0.349454,0.14641,-4.4e-05,7.7e-05,-0.022816,0.000443,0.001026,0.0,0.0,0.0,0.0,0.0,0.0
585680,0.145059,-0.009663,-0.005354,0.0,0.0,0.0,0.087266,0.0,0.0,3.0,0.266566,0.349018,0.327566,0.349405,0.145956,-3.8e-05,9.7e-05,-0.022556,0.000413,0.000888,0.0,0.0,0.0,0.0,0.0,0.0
585700,0.144937,-0.009542,-0.005364,0.0,0.0,0.0,0.087266,0.0,0.0,3.0,0.26576,0.349052,0.325931,0.35141,0.145507,-3.3e-05,0.000115,-0.022303,0.000383,0.000751,0.0,0.0,0.0,0.0,0.0,0.0
585720,0.144936,-0.009299,-0.005381,0.0,0.0,0.0,0.087266,0.0,0.0,3.0,0.265694,0.347451,0.326475,0.352542,0.145063,-2.7e-05,0.00013,-0.022059,0.000351,0.000616,0.0,0.0,0.0,0.0,0.0,0.0
585740,0.144815,-0.009299,-0.005382,0.0,0.0,0.0,0.087266,0.0,0.0,3.0,0.265242,0.34864,0.326964,0.351233,0.144623,-2.2e-05,0.000142,-0.021822,0.00032,0.000484,0.0,0.0,0.0,0.0,0.0,0.0
585760,0.144571,-0.009422,-0.005375,0.0,0.0,0.0,0.087266,0.0,0.0,3.0,0.268264,0.349783,0.326097,0.348813,0.144188,-1.7e-05,0.000152,-0.021592,0.000287,0.000356,0.0,0.0,0.0,0.0,0.0,0.0
585780,0.14445,-0.009422,-0.005375,0.0,0.0,0.0,0.087266,0.0,0.0,3.0,0.268408,0.34931,0.32632,0.348983,0.143758,-1.3e-05,0.000159,-0.021369,0.000255,0.000233,0.0,0.0,0.0,0.0,0.0,0.0
585800,0.144319,-0.009431,-0.005253,0.0,0.0,0.0,0.087266,0.0,0.0,3.0,0.263603,0.352407,0.323937,0.351312,0.143333,-8e-06,0.000163,-0.021153,0.000223,0.000115,0.0,0.0,0.0,0.0,0.0,0.0
585820,0.144197,-0.00931,-0.005263,0.0,0.0,0.0,0.087266,0.0,0.0,3.0,0.264308,0.350738,0.32439,0.3521,0.142911,-4e-06,0.000165,-0.020943,0.000191,3e-06,0.0,0.0,0.0,0.0,0.0,0.0
585840,0.144075,-0.00931,-0.005264,0.0,0.0,0.0,0.087266,0.0,0.0,3.0,0.263536,0.351825,0.324313,0.351389,0.142598,-2e-06,0.000165,-0.02079,0.000168,-7.8e-05,0.0,0.0,0.0,0.0,0.0,0.0
