time_ms,roll,pitch,yaw,x,y,z,reference_roll,reference_pitch,reference_yaw,reference_throttle,throttle_1,throttle_2,throttle_3,throttle_4,roll_predicted,pitch_predicted,yaw_predicted,roll_rate_predicted,pitch_rate_predicted,yaw_rate_predicted,value1,value2,value3,value4,value5,value6
757360,0.001708,-0.00171,0.000978,0.0,0.0,0.0,0.0,0.0,0.0,3.0,0.306443,0.349222,0.296855,0.345187,-0.0,-0.00064,1.1e-05,0.0,0.000239,-2e-06,0.0,0.0,0.0,0.0,0.0,0.0
757380,0.001586,-0.00171,0.0011,0.0,0.0,0.0,0.0,0.0,0.0,3.0,0.304454,0.352016,0.295573,0.345058,-0.0,-0.000635,1.1e-05,0.0,0.000237,-2e-06,0.0,0.0,0.0,0.0,0.0,0.0
757400,0.001342,-0.001466,0.0011,0.0,0.0,0.0,0.0,0.0,0.0,3.0,0.306152,0.350459,0.295197,0.345519,-0.0,-0.000631,1.1e-05,0.0,0.000236,-2e-06,0.0,0.0,0.0,0.0,0.0,0.0
757420,0.001342,-0.001588,0.001222,0.0,0.0,0.0,0.0,0.0,0.0,3.0,0.302431,0.353667,0.293986,0.346331,-0.0,-0.000626,1.1e-05,0.0,0.000234,-2e-06,0.0,0.0,0.0,0.0,0.0,0.0
757440,0.001342,-0.001466,0.001222,0.0,0.0,0.0,0.0,0.0,0.0,3.0,0.305392,0.34965,0.296963,0.345554,-0.0,-0.000621,1.1e-05,0.0,0.000232,-2e-06,0.0,0.0,0.0,0.0,0.0,0.0
757460,0.001464,-0.00171,0.001222,0.0,0.0,0.0,0.0,0.0,0.0,3.0,0.305101,0.351286,0.297618,0.343594,-0.0,-0.000617,1.1e-05,0.0,0.00023,-2e-06,0.0,0.0,0.0,0.0,0.0,0.0
757480,0.001708,-0.001588,0.001344,0.0,0.0,0.0,0.0,0.0,0.0,3.0,0.30089,0.353328,0.295264,0.346931,-0.0,-0.000612,1.1e-05,0.0,0.000229,-2e-06,0.0,0.0,0.0,0.0,0.0,0.0
757500,0.001952,-0.001588,0.001345,0.0,0.0,0.0,0.0,0.0,0.0,3.0,0.300074,0.352708,0.296481,0.347257,-0.0,-0.000608,1.1e-05,0.0,0.000227,-2e-06,0.0,0.0,0.0,0.0,0.0,0.0
757520,0.001952,-0.00171,0.001345,0.0,0.0,0.0,0.0,0.0,0.0,3.0,0.302131,0.352779,0.296758,0.34526,-0.0,-0.000603,1.1e-05,0.0,0.000225,-2e-06,0.0,0.0,0.0,0.0,0.0,0.0
757540,0.001952,-0.001588,0.001345,0.0,0.0,0.0,0.0,0.0,0.0,3.0,0.304725,0.349933,0.29739,0.345482,-0.0,-0.000598,1.1e-05,0.0,0.000224,-2e-06,0.0,0.0,0.0,0.0,0.0,0.0
757560,0.001708,-0.001588,0.001344,0.0,0.0,0.0,0.0,0.0,0.0,3.0,0.305936,0.35087,0.296322,0.34437,-0.0,-0.000594,1.1e-05,0.0,0.000222,-2e-06,0.0,0.0,0.0,0.0,0.0,0.0
757580,0.001464,-0.001344,0.001344,0.0,0.0,0.0,0.0,0.0,0.0,3.0,0.306655,0.34961,0.295576,0.345648,-0.0,-0.00059,1.1e-05,0.0,0.000221,-2e-06,0.0,0.0,0.0,0.0,0.0,0.0
757600,0.001586,-0.001466,0.001344,0.0,0.0,0.0,0.0,0.0,0.0,3.0,0.303813,0.351705,0.298492,0.343534,-0.0,-0.000585,1.1e-05,0.0,0.000219,-2e-06,0.0,0.0,0.0,0.0,0.0,0.0
757620,0.001464,-0.001466,0.001222,0.0,0.0,0.0,0.0,0.0,0.0,3.0,0.308758,0.34861,0.299997,0.341222,-0.0,-0.000581,1.1e-05,0.0,0.000217,-2e-06,0.0,0.0,0.0,0.0,0.0,0.0
757640,0.001586,-0.001588,0.001222,0.0,0.0,0.0,0.0,0.0,0.0,3.0,0.305306,0.351122,0.297703,0.343518,-0.0,-0.000577,1.1e-05,0.0,0.000215,-2e-06,0.0,0.0,0.0,0.0,0.0,0.0
757660,0.001708,-0.001588,0.001222,0.0,0.0,0.0,0.0,0.0,0.0,3.0,0.305153,0.351171,0.29748,0.34378,-0.0,-0.000572,1.1e-05,0.0,0.000214,-2e-06,0.0,0.0,0.0,0.0,0.0,0.0
757680,0.002074,-0.00171,0.001223,0.0,0.0,0.0,0.0,0.0,0.0,3.0,0.303199,0.35212,0.299435,0.342843,-0.0,-0.000568,1.1e-05,0.0,0.000212,-2e-06,0.0,0.0,0.0,0.0,0.0,0.0
757700,0.002074,-0.001588,0.001223,0.0,0.0,0.0,0.0,0.0,0.0,3.0,0.304582,0.351116,0.297236,0.344521,-0.0,-0.000564,1.1e-05,0.0,0.000211,-2e-06,0.0,0.0,0.0,0.0,0.0,0.0
757720,0.002074,-0.001588,0.001223,0.0,0.0,0.0,0.0,0.0,0.0,3.0,0.303763,0.351801,0.296444,0.345154,-0.0,-0.00056,1.1e-05,0.0,0.000209,-2e-06,0.0,0.0,0.0,0.0,0.0,0.0
757740,0.00183,-0.00171,0.001345,0.0,0.0,0.0,0.0,0.0,0.0,3.0,0.302811,0.353829,0.292955,0.34667,-0.0,-0.000555,1.1e-05,0.0,0.000208,-2e-06,0.0,0.0,0.0,0.0,0.0,0.0
757760,0.001586,-0.001588,0.001344,0.0,0.0,0.0,0.0,0.0,0.0,3.0,0.305832,0.351474,0.294323,0.345456,-0.0,-0.000551,1.1e-05,0.0,0.000206,-2e-06,0.0,0.0,0.0,0.0,0.0,0.0
757780,0.001464,-0.001832,0.001466,0.0,0.0,0.0,0.0,0.0,0.0,3.0,0.304053,0.353865,0.294468,0.344381,-0.0,-0.000547,1.1e-05,0.0,0.000204,-2e-06,0.0,0.0,0.0,0.0,0.0,0.0
757800,0.001464,-0.001832,0.001466,0.0,0.0,0.0,0.0,0.0,0.0,3.0,0.305596,0.351771,0.295944,0.344041,-0.0,-0.000543,1.1e-05,0.0,0.000203,-2e-06,0.0,0.0,0.0,0.0,0.0,0.0
757820,0.001708,-0.001955,0.001589,0.0,0.0,0.0,0.0,0.0,0.0,3.0,0.300416,0.35424,0.294742,0.346804,-0.0,-0.000539,1e-05,0.0,0.000201,-2e-06,0.0,0.0,0.0,0.0,0.0,0.0
757840,0.001708,-0.001955,0.001589,0.0,0.0,0.0,0.0,0.0,0.0,3.0,0.303362,0.35186,0.296079,0.345726,-0.0,-0.000535,1e-05,0.0,0.0002,-2e-06,0.0,0.0,0.0,0.0,0.0,0.0
757860,0.00183,-0.002077,0.001589,0.0,0.0,0.0,0.0,0.0,0.0,3.0,0.303827,0.352578,0.297422,0.343501,-0.0,-0.000531,1e-05,0.0,0.000198,-2e-06,0.0,0.0,0.0,0.0,0.0,0.0
757880,0.001952,-0.001955,0.001711,0.0,0.0,0.0,0.0,0.0,0.0,3.0,0.302567,0.352583,0.296864,0.345012,-0.0,-0.000527,1e-05,0.0,0.000197,-2e-06,0.0,0.0,0.0,0.0,0.0,0.0
757900,0.001951,-0.001955,0.001833,0.0,0.0,0.0,0.0,0.0,0.0,3.0,0.300534,0.355144,0.293696,0.34661,-0.0,-0.000523,1e-05,0.0,0.000195,-2e-06,0.0,0.0,0.0,0.0,0.0,0.0
757920,0.001829,-0.001955,0.001833,0.0,0.0,0.0,0.0,0.0,0.0,3.0,0.303328,0.352234,0.295279,0.346017,-0.0,-0.000519,1e-05,0.0,0.000194,-2e-06,0.0,0.0,0.0,0.0,0.0,0.0
757940,0.001707,-0.001955,0.001833,0.0,0.0,0.0,0.0,0.0,0.0,3.0,0.305185,0.350935,0.297561,0.343929,-0.0,-0.000515,1e-05,0.0,0.000193,-2e-06,0.0,0.0,0.0,0.0,0.0,0.0
757960,0.001585,-0.001833,0.001955,0.0,0.0,0.0,0.0,0.0,0.0,3.0,0.306058,0.349778,0.298096,0.343932,-0.0,-0.000511,1e-05,0.0,0.000191,-2e-06,0.0,0.0,0.0,0.0,0.0,0.0
757980,0.001585,-0.001833,0.002077,0.0,0.0,0.0,0.0,0.0,0.0,3.0,0.302587,0.353269,0.295873,0.345093,-0.0,-0.000508,1e-05,0.0,0.00019,-2e-06,0.0,0.0,0.0,0.0,0.0,0.0
758000,0.001707,-0.001711,0.002199,0.0,0.0,0.0,0.0,0.0,0.0,3.0,0.302027,0.352781,0.294126,0.347462,-0.0,-0.000504,1e-05,0.0,0.000188,-2e-06,0.0,0.0,0.0,0.0,0.0,0.0
758020,0.001829,-0.001833,0.002199,0.0,0.0,0.0,0.0,0.0,0.0,3.0,0.302923,0.352549,0.296228,0.345265,-0.0,-0.0005,1e-05,0.0,0.000187,-2e-06,0.0,0.0,0.0,0.0,0.0,0.0
758040,0.001829,-0.001711,0.002199,0.0,0.0,0.0,0.0,0.0,0.0,3.0,0.307494,0.350068,0.297177,0.34316,-0.0,-0.000496,1e-05,0.0,0.000185,-2e-06,0.0,0.0,0.0,0.0,0.0,0.0
758060,0.002073,-0.00159,0.002443,0.0,0.0,0.0,0.0,0.0,0.0,3.0,0.301456,0.353423,0.2951,0.346498,-0.0,-0.000493,1e-05,0.0,0.000184,-2e-06,0.0,0.0,0.0,0.0,0.0,0.0
758080,0.001952,-0.001345,0.002565,0.0,0.0,0.0,0.0,0.0,0.0,3.0,0.301421,0.353415,0.292659,0.348476,-0.0,-0.000489,1e-05,0.0,0.000183,-2e-06,0.0,0.0,0.0,0.0,0.0,0.0
758100,0.001952,-0.001223,0.002565,0.0,0.0,0.0,0.0,0.0,0.0,3.0,0.303199,0.351259,0.294661,0.347613,-0.0,-0.000485,1e-05,0.0,0.000181,-2e-06,0.0,0.0,0.0,0.0,0.0,0.0
758120,0.001829,-0.001345,0.002565,0.0,0.0,0.0,0.0,0.0,0.0,3.0,0.306418,0.349874,0.297062,0.344375,-0.0,-0.000482,1e-05,0.0,0.00018,-2e-06,0.0,0.0,0.0,0.0,0.0,0.0
758140,0.001829,-0.001467,0.002687,0.0,0.0,0.0,0.0,0.0,0.0,3.0,0.30412,0.352013,0.295451,0.34544,-0.0,-0.000478,1e-05,0.0,0.000179,-2e-06,0.0,0.0,0.0,0.0,0.0,0.0
758160,0.001707,-0.001589,0.002809,0.0,0.0,0.0,0.0,0.0,0.0,3.0,0.301435,0.354744,0.292006,0.347619,-0.0,-0.000475,1e-05,0.0,0.000177,-2e-06,0.0,0.0,0.0,0.0,0.0,0.0
758180,0.001707,-0.001467,0.002931,0.0,0.0,0.0,0.0,0.0,0.0,3.0,0.298444,0.354927,0.290289,0.351199,-0.0,-0.000471,1e-05,0.0,0.000176,-2e-06,0.0,0.0,0.0,0.0,0.0,0.0
758200,0.001707,-0.001589,0.002809,0.0,0.0,0.0,0.0,0.0,0.0,3.0,0.30358,0.351695,0.296272,0.345555,-0.0,-0.000468,1e-05,0.0,0.000175,-2e-06,0.0,0.0,0.0,0.0,0.0,0.0
758220,0.001707,-0.001467,0.002931,0.0,0.0,0.0,0.0,0.0,0.0,3.0,0.304872,0.35052,0.295995,0.345893,-0.0,-0.000464,1e-05,0.0,0.000173,-2e-06,0.0,0.0,0.0,0.0,0.0,0.0
758240,0.001829,-0.001468,0.003054,0.0,0.0,0.0,0.0,0.0,0.0,3.0,0.300569,0.354406,0.292955,0.347929,-0.0,-0.000461,1e-05,0.0,0.000172,-2e-06,0.0,0.0,0.0,0.0,0.0,0.0
758260,0.001829,-0.001468,0.003176,0.0,0.0,0.0,0.0,0.0,0.0,3.0,0.297628,0.356002,0.290282,0.350765,-0.0,-0.000457,1e-05,0.0,0.000171,-2e-06,0.0,0.0,0.0,0.0,0.0,0.0
758280,0.001829,-0.001712,0.003054,0.0,0.0,0.0,0.0,0.0,0.0,3.0,0.302017,0.353436,0.295411,0.345769,-0.0,-0.000454,1e-05,0.0,0.00017,-2e-06,0.0,0.0,0.0,0.0,0.0,0.0
758300,0.001706,-0.001956,0.003054,0.0,0.0,0.0,0.0,0.0,0.0,3.0,0.304373,0.351725,0.297475,0.343876,-0.0,-0.00045,1e-05,0.0,0.000168,-2e-06,0.0,0.0,0.0,0.0,0.0,0.0
758320,0.001706,-0.001834,0.003176,0.0,0.0,0.0,0.0,0.0,0.0,3.0,0.299767,0.354204,0.294953,0.347204,-0.0,-0.000447,1e-05,0.0,0.000167,-2e-06,0.0,0.0,0.0,0.0,0.0,0.0
758340,0.001706,-0.001834,0.003176,0.0,0.0,0.0,0.0,0.0,0.0,3.0,0.29908,0.354349,0.294397,0.34806,-0.0,-0.000444,1e-05,0.0,0.000166,-2e-06,0.0,0.0,0.0,0.0,0.0,0.0
758360,0.001584,-0.001712,0.003176,0.0,0.0,0.0,0.0,0.0,0.0,3.0,0.29897,0.354193,0.293604,0.348936,-0.0,-0.00044,1e-05,0.0,0.000165,-2e-06,0.0,0.0,0.0,0.0,0.0,0.0
758380,0.001706,-0.002078,0.003176,0.0,0.0,0.0,0.0,0.0,0.0,3.0,0.301183,0.353606,0.296806,0.345157,-0.0,-0.000437,1e-05,0.0,0.000163,-2e-06,0.0,0.0,0.0,0.0,0.0,0.0
758400,0.001706,-0.002078,0.003176,0.0,0.0,0.0,0.0,0.0,0.0,3.0,0.302598,0.35231,0.298032,0.344312,-0.0,-0.000434,9e-06,0.0,0.000162,-2e-06,0.0,0.0,0.0,0.0,0.0,0.0
758420,0.001828,-0.001834,0.003176,0.0,0.0,0.0,0.0,0.0,0.0,3.0,0.300152,0.352474,0.295943,0.347864,-0.0,-0.000431,9e-06,0.0,0.000161,-2e-06,0.0,0.0,0.0,0.0,0.0,0.0
758440,0.001829,-0.00159,0.003176,0.0,0.0,0.0,0.0,0.0,0.0,3.0,0.298563,0.353099,0.294066,0.350012,-0.0,-0.000427,9e-06,0.0,0.00016,-2e-06,0.0,0.0,0.0,0.0,0.0,0.0
758460,0.001829,-0.001346,0.003054,0.0,0.0,0.0,0.0,0.0,0.0,3.0,0.304351,0.349465,0.297773,0.34596,-0.0,-0.000424,9e-06,0.0,0.000159,-2e-06,0.0,0.0,0.0,0.0,0.0,0.0
758480,0.001951,-0.001468,0.003054,0.0,0.0,0.0,0.0,0.0,0.0,3.0,0.30358,0.351831,0.297524,0.344396,-0.0,-0.000421,9e-06,0.0,0.000157,-2e-06,0.0,0.0,0.0,0.0,0.0,0.0
758500,0.001951,-0.001346,0.002932,0.0,0.0,0.0,0.0,0.0,0.0,3.0,0.3054,0.350935,0.297506,0.343792,-0.0,-0.000418,9e-06,0.0,0.000156,-2e-06,0.0,0.0,0.0,0.0,0.0,0.0
758520,0.002073,-0.001346,0.002932,0.0,0.0,0.0,0.0,0.0,0.0,3.0,0.301419,0.35319,0.295356,0.346562,-0.0,-0.000415,9e-06,0.0,0.000155,-2e-06,0.0,0.0,0.0,0.0,0.0,0.0
758540,0.001952,-0.001224,0.002809,0.0,0.0,0.0,0.0,0.0,0.0,3.0,0.30429,0.351337,0.295531,0.345925,-0.0,-0.000412,9e-06,0.0,0.000154,-2e-06,0.0,0.0,0.0,0.0,0.0,0.0
758560,0.001952,-0.001101,0.002809,0.0,0.0,0.0,0.0,0.0,0.0,3.0,0.302326,0.351713,0.29612,0.346706,-0.0,-0.000409,9e-06,0.0,0.000153,-2e-06,0.0,0.0,0.0,0.0,0.0,0.0
758580,0.001952,-0.000979,0.002809,0.0,0.0,0.0,0.0,0.0,0.0,3.0,0.301415,0.352435,0.295353,0.34734,-0.0,-0.000406,9e-06,0.0,0.000152,-2e-06,0.0,0.0,0.0,0.0,0.0,0.0
758600,0.002074,-0.000857,0.002809,0.0,0.0,0.0,0.0,0.0,0.0,3.0,0.300208,0.352756,0.295661,0.347757,-0.0,-0.000403,9e-06,0.0,0.00015,-2e-06,0.0,0.0,0.0,0.0,0.0,0.0
758620,0.002074,-0.000613,0.002687,0.0,0.0,0.0,0.0,0.0,0.0,3.0,0.304445,0.348038,0.29872,0.34655,-0.0,-0.0004,9e-06,0.0,0.000149,-2e-06,0.0,0.0,0.0,0.0,0.0,0.0
758640,0.002074,-0.000735,0.002687,0.0,0.0,0.0,0.0,0.0,0.0,3.0,0.302019,0.351788,0.295313,0.347533,-0.0,-0.000397,9e-06,0.0,0.000148,-2e-06,0.0,0.0,0.0,0.0,0.0,0.0
758660,0.002074,-0.000613,0.002687,0.0,0.0,0.0,0.0,0.0,0.0,3.0,0.302257,0.351314,0.294673,0.348327,-0.0,-0.000394,9e-06,0.0,0.000147,-2e-06,0.0,0.0,0.0,0.0,0.0,0.0
758680,0.002074,-0.000613,0.002687,0.0,0.0,0.0,0.0,0.0,0.0,3.0,0.301578,0.351631,0.29532,0.348049,-0.0,-0.000391,9e-06,0.0,0.000146,-2e-06,0.0,0.0,0.0,0.0,0.0,0.0
758700,0.002075,-0.000491,0.002564,0.0,0.0,0.0,0.0,0.0,0.0,3.0,0.301956,0.350703,0.29608,0.348069,-0.0,-0.000388,9e-06,0.0,0.000145,-2e-06,0.0,0.0,0.0,0.0,0.0,0.0
758720,0.002075,-0.000613,0.002565,0.0,0.0,0.0,0.0,0.0,0.0,3.0,0.30143,0.351698,0.295845,0.347683,-0.0,-0.000385,9e-06,0.0,0.000144,-2e-06,0.0,0.0,0.0,0.0,0.0,0.0
758740,0.001953,-0.000491,0.002564,0.0,0.0,0.0,0.0,0.0,0.0,3.0,0.3028,0.35116,0.294363,0.348281,-0.0,-0.000382,9e-06,0.0,0.000143,-2e-06,0.0,0.0,0.0,0.0,0.0,0.0
758760,0.001952,-0.000613,0.002565,0.0,0.0,0.0,0.0,0.0,0.0,3.0,0.300973,0.353273,0.296206,0.346161,-0.0,-0.00038,9e-06,0.0,0.000142,-2e-06,0.0,0.0,0.0,0.0,0.0,0.0
758780,0.00183,-0.000613,0.002564,0.0,0.0,0.0,0.0,0.0,0.0,3.0,0.30339,0.35128,0.295281,0.346937,-0.0,-0.000376,9e-06,0.0,0.000141,-2e-06,0.0,0.0,0.0,0.0,0.0,0.0
758800,0.001952,-0.000735,0.002565,0.0,0.0,0.0,0.0,0.0,0.0,3.0,0.301379,0.352377,0.295836,0.347042,-0.0,-0.000374,9e-06,0.0,0.00014,-2e-06,0.0,0.0,0.0,0.0,0.0,0.0
758820,0.001953,-0.000491,0.002564,0.0,0.0,0.0,0.0,0.0,0.0,3.0,0.301515,0.350914,0.295587,0.348613,-0.0,-0.000371,9e-06,0.0,0.000139,-2e-06,0.0,0.0,0.0,0.0,0.0,0.0
758840,0.001953,-0.000491,0.002564,0.0,0.0,0.0,0.0,0.0,0.0,3.0,0.301372,0.351392,0.295699,0.348159,-0.0,-0.000368,9e-06,0.0,0.000138,-2e-06,0.0,0.0,0.0,0.0,0.0,0.0
758860,0.001952,-0.000613,0.002565,0.0,0.0,0.0,0.0,0.0,0.0,3.0,0.301825,0.351539,0.297568,0.346127,-0.0,-0.000365,9e-06,0.0,0.000137,-2e-06,0.0,0.0,0.0,0.0,0.0,0.0
758880,0.001952,-0.000613,0.002442,0.0,0.0,0.0,0.0,0.0,0.0,3.0,0.304343,0.349054,0.299413,0.345041,-0.0,-0.000363,9e-06,0.0,0.000135,-1e-06,0.0,0.0,0.0,0.0,0.0,0.0
758900,0.00183,-0.000735,0.002443,0.0,0.0,0.0,0.0,0.0,0.0,3.0,0.303185,0.351082,0.296119,0.346635,-0.0,-0.00036,9e-06,0.0,0.000134,-1e-06,0.0,0.0,0.0,0.0,0.0,0.0
758920,0.001708,-0.000612,0.002442,0.0,0.0,0.0,0.0,0.0,0.0,3.0,0.300714,0.351831,0.293594,0.349923,-0.0,-0.000357,9e-06,0.0,0.000133,-1e-06,0.0,0.0,0.0,0.0,0.0,0.0
758940,0.001708,-0.000612,0.002198,0.0,0.0,0.0,0.0,0.0,0.0,3.0,0.306753,0.346978,0.300395,0.344285,-0.0,-0.000355,9e-06,0.0,0.000132,-1e-06,0.0,0.0,0.0,0.0,0.0,0.0
758960,0.001709,-0.00049,0.002198,0.0,0.0,0.0,0.0,0.0,0.0,3.0,0.305865,0.348572,0.298148,0.345281,-0.0,-0.000352,9e-06,0.0,0.000131,-1e-06,0.0,0.0,0.0,0.0,0.0,0.0
758980,0.001708,-0.000612,0.002198,0.0,0.0,0.0,0.0,0.0,0.0,3.0,0.303398,0.352268,0.294949,0.346189,-0.0,-0.000349,9e-06,0.0,0.000131,-1e-06,0.0,0.0,0.0,0.0,0.0,0.0
759000,0.001831,-0.00049,0.002076,0.0,0.0,0.0,0.0,0.0,0.0,3.0,0.302927,0.350554,0.296237,0.34729,-0.0,-0.000347,9e-06,0.0,0.00013,-1e-06,0.0,0.0,0.0,0.0,0.0,0.0
759020,0.001831,-0.000612,0.001954,0.0,0.0,0.0,0.0,0.0,0.0,3.0,0.304475,0.349757,0.29739,0.345873,-0.0,-0.000344,9e-06,0.0,0.000129,-1e-06,0.0,0.0,0.0,0.0,0.0,0.0
759040,0.001831,-0.000612,0.001832,0.0,0.0,0.0,0.0,0.0,0.0,3.0,0.307131,0.348339,0.299839,0.343042,-0.0,-0.000342,9e-06,0.0,0.000128,-1e-06,0.0,0.0,0.0,0.0,0.0,0.0
759060,0.001953,-0.00049,0.001954,0.0,0.0,0.0,0.0,0.0,0.0,3.0,0.301789,0.352366,0.295827,0.34672,-0.0,-0.000339,8e-06,0.0,0.000127,-1e-06,0.0,0.0,0.0,0.0,0.0,0.0
759080,0.002075,-0.000246,0.001832,0.0,0.0,0.0,0.0,0.0,0.0,3.0,0.302329,0.349764,0.297442,0.347613,-0.0,-0.000336,8e-06,0.0,0.000126,-1e-06,0.0,0.0,0.0,0.0,0.0,0.0
759100,0.002075,-0.000368,0.00171,0.0,0.0,0.0,0.0,0.0,0.0,3.0,0.301912,0.351355,0.295968,0.347535,-0.0,-0.000334,8e-06,0.0,0.000125,-1e-06,0.0,0.0,0.0,0.0,0.0,0.0
759120,0.002075,-0.000368,0.001588,0.0,0.0,0.0,0.0,0.0,0.0,3.0,0.305865,0.347937,0.299975,0.344421,-0.0,-0.000331,8e-06,0.0,0.000124,-1e-06,0.0,0.0,0.0,0.0,0.0,0.0
759140,0.002075,-0.000368,0.001588,0.0,0.0,0.0,0.0,0.0,0.0,3.0,0.30586,0.349154,0.298877,0.344096,-0.0,-0.000329,8e-06,0.0,0.000123,-1e-06,0.0,0.0,0.0,0.0,0.0,0.0
759160,0.002197,-0.000124,0.001709,0.0,0.0,0.0,0.0,0.0,0.0,3.0,0.299009,0.352135,0.294406,0.350358,-0.0,-0.000327,8e-06,0.0,0.000122,-1e-06,0.0,0.0,0.0,0.0,0.0,0.0
759180,0.002319,-2e-06,0.001587,0.0,0.0,0.0,0.0,0.0,0.0,3.0,0.299735,0.350849,0.295722,0.350022,-0.0,-0.000324,8e-06,0.0,0.000121,-1e-06,0.0,0.0,0.0,0.0,0.0,0.0
759200,0.002442,0.00012,0.001465,0.0,0.0,0.0,0.0,0.0,0.0,3.0,0.304293,0.347848,0.298618,0.346952,-0.0,-0.000322,8e-06,0.0,0.00012,-1e-06,0.0,0.0,0.0,0.0,0.0,0.0
759220,0.002564,-2e-06,0.001465,0.0,0.0,0.0,0.0,0.0,0.0,3.0,0.305624,0.348902,0.300002,0.343622,-0.0,-0.000319,8e-06,0.0,0.000119,-1e-06,0.0,0.0,0.0,0.0,0.0,0.0
759240,0.002564,-2e-06,0.001465,0.0,0.0,0.0,0.0,0.0,0.0,3.0,0.303438,0.350734,0.296931,0.346121,-0.0,-0.000317,8e-06,0.0,0.000118,-1e-06,0.0,0.0,0.0,0.0,0.0,0.0
759260,0.002564,0.00012,0.001465,0.0,0.0,0.0,0.0,0.0,0.0,3.0,0.300167,0.3518,0.295198,0.349131,-0.0,-0.000315,8e-06,0.0,0.000118,-1e-06,0.0,0.0,0.0,0.0,0.0,0.0
759280,0.002442,-2e-06,0.001343,0.0,0.0,0.0,0.0,0.0,0.0,3.0,0.303057,0.350224,0.297028,0.346878,-0.0,-0.000312,8e-06,0.0,0.000117,-1e-06,0.0,0.0,0.0,0.0,0.0,0.0
759300,0.002441,-0.000124,0.001221,0.0,0.0,0.0,0.0,0.0,0.0,3.0,0.307033,0.347335,0.302144,0.342219,-0.0,-0.00031,8e-06,0.0,0.000116,-1e-06,0.0,0.0,0.0,0.0,0.0,0.0
759320,0.002441,-0.000246,0.001343,0.0,0.0,0.0,0.0,0.0,0.0,3.0,0.301839,0.351387,0.298282,0.345689,-0.0,-0.000308,8e-06,0.0,0.000115,-1e-06,0.0,0.0,0.0,0.0,0.0,0.0
759340,0.002441,-0.000124,0.001343,0.0,0.0,0.0,0.0,0.0,0.0,3.0,0.30113,0.350455,0.297663,0.347725,-0.0,-0.000305,8e-06,0.0,0.000114,-1e-06,0.0,0.0,0.0,0.0,0.0,0.0
759360,0.002319,-0.000246,0.001221,0.0,0.0,0.0,0.0,0.0,0.0,3.0,0.304164,0.349524,0.299536,0.344611,-0.0,-0.000303,8e-06,0.0,0.000113,-1e-06,0.0,0.0,0.0,0.0,0.0,0.0
759380,0.002319,-1e-06,0.001221,0.0,0.0,0.0,0.0,0.0,0.0,3.0,0.304488,0.347791,0.298715,0.346767,-0.0,-0.000301,8e-06,0.0,0.000112,-1e-06,0.0,0.0,0.0,0.0,0.0,0.0
759400,0.002442,-1e-06,0.001221,0.0,0.0,0.0,0.0,0.0,0.0,3.0,0.305037,0.347971,0.300437,0.344706,-0.0,-0.000298,8e-06,0.0,0.000112,-1e-06,0.0,0.0,0.0,0.0,0.0,0.0
759420,0.002442,0.000121,0.001221,0.0,0.0,0.0,0.0,0.0,0.0,3.0,0.303718,0.349388,0.297236,0.347005,-0.0,-0.000296,8e-06,0.0,0.000111,-1e-06,0.0,0.0,0.0,0.0,0.0,0.0
759440,0.002441,-0.000124,0.001221,0.0,0.0,0.0,0.0,0.0,0.0,3.0,0.302814,0.350812,0.297854,0.345813,-0.0,-0.000294,8e-06,0.0,0.00011,-1e-06,0.0,0.0,0.0,0.0,0.0,0.0
759460,0.002197,-0.000123,0.001221,0.0,0.0,0.0,0.0,0.0,0.0,3.0,0.304891,0.3499,0.295686,0.346756,-0.0,-0.000292,8e-06,0.0,0.000109,-1e-06,0.0,0.0,0.0,0.0,0.0,0.0
759480,0.002197,-0.000123,0.001221,0.0,0.0,0.0,0.0,0.0,0.0,3.0,0.305094,0.349439,0.29704,0.345957,-0.0,-0.00029,8e-06,0.0,0.000108,-1e-06,0.0,0.0,0.0,0.0,0.0,0.0
759500,0.002075,-0.000123,0.001221,0.0,0.0,0.0,0.0,0.0,0.0,3.0,0.306937,0.348707,0.298349,0.344066,-0.0,-0.000288,8e-06,0.0,0.000108,-1e-06,0.0,0.0,0.0,0.0,0.0,0.0
759520,0.002197,-0.000124,0.001343,0.0,0.0,0.0,0.0,0.0,0.0,3.0,0.300368,0.353325,0.293877,0.348468,-0.0,-0.000285,8e-06,0.0,0.000107,-1e-06,0.0,0.0,0.0,0.0,0.0,0.0
759540,0.002197,-0.000123,0.001221,0.0,0.0,0.0,0.0,0.0,0.0,3.0,0.302672,0.349867,0.298333,0.3465,-0.0,-0.000283,8e-06,0.0,0.000106,-1e-06,0.0,0.0,0.0,0.0,0.0,0.0
759560,0.002197,-0.000246,0.001343,0.0,0.0,0.0,0.0,0.0,0.0,3.0,0.301491,0.353289,0.297199,0.344908,-0.0,-0.000282,8e-06,0.0,0.000105,-1e-06,0.0,0.0,0.0,0.0,0.0,0.0
759580,0.002197,-0.000246,0.001343,0.0,0.0,0.0,0.0,0.0,0.0,3.0,0.302828,0.350295,0.296524,0.347403,-0.0,-0.000279,8e-06,0.0,0.000104,-1e-06,0.0,0.0,0.0,0.0,0.0,0.0
759600,0.002197,-1e-06,0.001343,0.0,0.0,0.0,0.0,0.0,0.0,3.0,0.303309,0.348879,0.296809,0.348201,-0.0,-0.000277,8e-06,0.0,0.000103,-1e-06,0.0,0.0,0.0,0.0,0.0,0.0
759620,0.002075,-0.000124,0.001465,0.0,0.0,0.0,0.0,0.0,0.0,3.0,0.300777,0.353304,0.293492,0.34846,-0.0,-0.000275,8e-06,0.0,0.000103,-1e-06,0.0,0.0,0.0,0.0,0.0,0.0
759640,0.001953,0.000121,0.001465,0.0,0.0,0.0,0.0,0.0,0.0,3.0,0.303784,0.349284,0.295612,0.348361,-0.0,-0.000273,8e-06,0.0,0.000102,-1e-06,0.0,0.0,0.0,0.0,0.0,0.0
759660,0.001953,-0.000124,0.001587,0.0,0.0,0.0,0.0,0.0,0.0,3.0,0.302846,0.351831,0.295703,0.34649,-0.0,-0.000271,8e-06,0.0,0.000101,-1e-06,0.0,0.0,0.0,0.0,0.0,0.0
759680,0.001709,-0.000123,0.001587,0.0,0.0,0.0,0.0,0.0,0.0,3.0,0.303974,0.350561,0.295287,0.347174,-0.0,-0.000269,8e-06,0.0,0.0001,-1e-06,0.0,0.0,0.0,0.0,0.0,0.0
759700,0.001831,-0.000368,0.001588,0.0,0.0,0.0,0.0,0.0,0.0,3.0,0.301785,0.350946,0.298353,0.346125,-0.0,-0.000267,8e-06,0.0,0.0001,-1e-06,0.0,0.0,0.0,0.0,0.0,0.0
759720,0.001587,-0.000245,0.001587,0.0,0.0,0.0,0.0,0.0,0.0,3.0,0.303908,0.349493,0.297008,0.346925,-0.0,-0.000265,8e-06,0.0,9.9e-05,-1e-06,0.0,0.0,0.0,0.0,0.0,0.0
759740,0.001709,-0.000246,0.001587,0.0,0.0,0.0,0.0,0.0,0.0,3.0,0.301844,0.350376,0.297585,0.347279,-0.0,-0.000263,8e-06,0.0,9.8e-05,-1e-06,0.0,0.0,0.0,0.0,0.0,0.0
759760,0.001709,-0.000123,0.001587,0.0,0.0,0.0,0.0,0.0,0.0,3.0,0.30198,0.349497,0.29734,0.34825,-0.0,-0.000261,8e-06,0.0,9.7e-05,-1e-06,0.0,0.0,0.0,0.0,0.0,0.0
759780,0.001831,-0.000124,0.001587,0.0,0.0,0.0,0.0,0.0,0.0,3.0,0.304364,0.349834,0.299571,0.344098,-0.0,-0.000259,8e-06,0.0,9.7e-05,-1e-06,0.0,0.0,0.0,0.0,0.0,0.0
759800,0.001709,-0.000246,0.001587,0.0,0.0,0.0,0.0,0.0,0.0,3.0,0.305474,0.34864,0.299342,0.344563,-0.0,-0.000257,7e-06,0.0,9.6e-05,-1e-06,0.0,0.0,0.0,0.0,0.0,0.0
759820,0.001587,-0.000123,0.001709,0.0,0.0,0.0,0.0,0.0,0.0,3.0,0.302616,0.350098,0.295813,0.348349,-0.0,-0.000255,7e-06,0.0,9.5e-05,-1e-06,0.0,0.0,0.0,0.0,0.0,0.0
759840,0.001587,-0.000123,0.001587,0.0,0.0,0.0,0.0,0.0,0.0,3.0,0.303117,0.348851,0.296862,0.348345,-0.0,-0.000253,7e-06,0.0,9.5e-05,-1e-06,0.0,0.0,0.0,0.0,0.0,0.0
759860,0.001465,-1e-06,0.001587,0.0,0.0,0.0,0.0,0.0,0.0,3.0,0.303995,0.349291,0.29601,0.347859,-0.0,-0.000251,7e-06,0.0,9.4e-05,-1e-06,0.0,0.0,0.0,0.0,0.0,0.0
759880,0.001465,-0.000123,0.001587,0.0,0.0,0.0,0.0,0.0,0.0,3.0,0.304549,0.350175,0.296208,0.346343,-0.0,-0.000249,7e-06,0.0,9.3e-05,-1e-06,0.0,0.0,0.0,0.0,0.0,0.0
759900,0.001343,-0.000123,0.001587,0.0,0.0,0.0,0.0,0.0,0.0,3.0,0.304143,0.350973,0.295076,0.346784,-0.0,-0.000248,7e-06,0.0,9.3e-05,-1e-06,0.0,0.0,0.0,0.0,0.0,0.0
759920,0.001343,-0.000123,0.001465,0.0,0.0,0.0,0.0,0.0,0.0,3.0,0.304536,0.35001,0.295734,0.346904,-0.0,-0.000246,7e-06,0.0,9.2e-05,-1e-06,0.0,0.0,0.0,0.0,0.0,0.0
759940,0.001343,-0.000245,0.001465,0.0,0.0,0.0,0.0,0.0,0.0,3.0,0.302223,0.35203,0.294185,0.348017,-0.0,-0.000244,7e-06,0.0,9.1e-05,-1e-06,0.0,0.0,0.0,0.0,0.0,0.0
759960,0.001221,-0.000245,0.001343,0.0,0.0,0.0,0.0,0.0,0.0,3.0,0.305772,0.349382,0.296966,0.345503,-0.0,-0.000242,7e-06,0.0,9e-05,-1e-06,0.0,0.0,0.0,0.0,0.0,0.0
759980,0.001343,-0.000245,0.001343,0.0,0.0,0.0,0.0,0.0,0.0,3.0,0.303044,0.350494,0.296999,0.346638,-0.0,-0.00024,7e-06,0.0,9e-05,-1e-06,0.0,0.0,0.0,0.0,0.0,0.0
760000,0.001343,-0.000367,0.001343,0.0,0.0,0.0,0.0,0.0,0.0,3.0,0.302753,0.351708,0.296318,0.346196,-0.0,-0.000238,7e-06,0.0,8.9e-05,-1e-06,0.0,0.0,0.0,0.0,0.0,0.0
760020,0.001343,-0.000245,0.001343,0.0,0.0,0.0,0.0,0.0,0.0,3.0,0.303767,0.351609,0.297895,0.344164,-0.0,-0.000237,7e-06,0.0,8.9e-05,-1e-06,0.0,0.0,0.0,0.0,0.0,0.0
760040,0.001221,-0.000367,0.001221,0.0,0.0,0.0,0.0,0.0,0.0,3.0,0.308542,0.347973,0.30054,0.341608,-0.0,-0.000235,7e-06,0.0,8.8e-05,-1e-06,0.0,0.0,0.0,0.0,0.0,0.0
760060,0.001099,-0.000245,0.001099,0.0,0.0,0.0,0.0,0.0,0.0,3.0,0.307545,0.346791,0.299025,0.344929,-0.0,-0.000233,7e-06,0.0,8.7e-05,-1e-06,0.0,0.0,0.0,0.0,0.0,0.0
760080,0.001099,-0.000245,0.001099,0.0,0.0,0.0,0.0,0.0,0.0,3.0,0.30591,0.348812,0.29808,0.345056,-0.0,-0.000231,7e-06,0.0,8.6e-05,-1e-06,0.0,0.0,0.0,0.0,0.0,0.0
760100,0.001099,-1e-06,0.001099,0.0,0.0,0.0,0.0,0.0,0.0,3.0,0.303519,0.349289,0.295654,0.348542,-0.0,-0.00023,7e-06,0.0,8.6e-05,-1e-06,0.0,0.0,0.0,0.0,0.0,0.0
760120,0.001099,-0.000123,0.001099,0.0,0.0,0.0,0.0,0.0,0.0,3.0,0.301554,0.351416,0.294182,0.349191,-0.0,-0.000228,7e-06,0.0,8.5e-05,-1e-06,0.0,0.0,0.0,0.0,0.0,0.0
760140,0.000977,-0.000245,0.000977,0.0,0.0,0.0,0.0,0.0,0.0,3.0,0.306028,0.348966,0.297616,0.345178,-0.0,-0.000226,7e-06,0.0,8.5e-05,-1e-06,0.0,0.0,0.0,0.0,0.0,0.0
760160,0.001099,-0.000245,0.001099,0.0,0.0,0.0,0.0,0.0,0.0,3.0,0.302931,0.350553,0.29697,0.346697,-0.0,-0.000225,7e-06,0.0,8.4e-05,-1e-06,0.0,0.0,0.0,0.0,0.0,0.0
760180,0.000976,-0.000367,0.001099,0.0,0.0,0.0,0.0,0.0,0.0,3.0,0.302187,0.350725,0.296682,0.347372,-0.0,-0.000223,7e-06,0.0,8.3e-05,-1e-06,0.0,0.0,0.0,0.0,0.0,0.0
760200,0.001099,-0.000245,0.000977,0.0,0.0,0.0,0.0,0.0,0.0,3.0,0.303732,0.34918,0.298632,0.346068,-0.0,-0.000221,7e-06,0.0,8.3e-05,-1e-06,0.0,0.0,0.0,0.0,0.0,0.0
760220,0.001099,-0.000367,0.000855,0.0,0.0,0.0,0.0,0.0,0.0,3.0,0.30565,0.347912,0.301066,0.343722,-0.0,-0.00022,7e-06,0.0,8.2e-05,-1e-06,0.0,0.0,0.0,0.0,0.0,0.0
760240,0.000976,-0.000367,0.000855,0.0,0.0,0.0,0.0,0.0,0.0,3.0,0.307761,0.346646,0.300691,0.343511,-0.0,-0.000218,7e-06,0.0,8.1e-05,-1e-06,0.0,0.0,0.0,0.0,0.0,0.0
760260,0.000976,-0.000367,0.000977,0.0,0.0,0.0,0.0,0.0,0.0,3.0,0.303111,0.350229,0.297397,0.346529,-0.0,-0.000216,7e-06,0.0,8.1e-05,-1e-06,0.0,0.0,0.0,0.0,0.0,0.0
760280,0.000855,-0.0,0.000855,0.0,0.0,0.0,0.0,0.0,0.0,3.0,0.304642,0.347946,0.297283,0.347644,-0.0,-0.000215,7e-06,0.0,8e-05,-1e-06,0.0,0.0,0.0,0.0,0.0,0.0
760300,0.000855,-0.0,0.000733,0.0,0.0,0.0,0.0,0.0,0.0,3.0,0.305504,0.34806,0.299178,0.345261,-0.0,-0.000213,7e-06,0.0,8e-05,-1e-06,0.0,0.0,0.0,0.0,0.0,0.0
760320,0.000733,0.000122,0.00061,0.0,0.0,0.0,0.0,0.0,0.0,3.0,0.309207,0.344963,0.301303,0.343447,-0.0,-0.000212,7e-06,0.0,7.9e-05,-1e-06,0.0,0.0,0.0,0.0,0.0,0.0
760340,0.000732,-0.000122,0.000611,0.0,0.0,0.0,0.0,0.0,0.0,3.0,0.308052,0.348635,0.299735,0.34203,-0.0,-0.00021,7e-06,0.0,7.8e-05,-1e-06,0.0,0.0,0.0,0.0,0.0,0.0
760360,0.00061,-0.0,0.00061,0.0,0.0,0.0,0.0,0.0,0.0,3.0,0.305801,0.349131,0.296412,0.346182,-0.0,-0.000208,7e-06,0.0,7.8e-05,-1e-06,0.0,0.0,0.0,0.0,0.0,0.0
760380,0.00061,-0.0,0.00061,0.0,0.0,0.0,0.0,0.0,0.0,3.0,0.302964,0.351168,0.294238,0.348236,-0.0,-0.000207,7e-06,0.0,7.7e-05,-1e-06,0.0,0.0,0.0,0.0,0.0,0.0
760400,0.00061,0.000122,0.000488,0.0,0.0,0.0,0.0,0.0,0.0,3.0,0.306237,0.347378,0.298798,0.345639,-0.0,-0.000205,7e-06,0.0,7.7e-05,-1e-06,0.0,0.0,0.0,0.0,0.0,0.0
760420,0.00061,0.000122,0.00061,0.0,0.0,0.0,0.0,0.0,0.0,3.0,0.304768,0.349876,0.295687,0.346883,-0.0,-0.000204,7e-06,0.0,7.6e-05,-1e-06,0.0,0.0,0.0,0.0,0.0,0.0
760440,0.000488,-0.0,0.00061,0.0,0.0,0.0,0.0,0.0,0.0,3.0,0.304366,0.351275,0.295035,0.346323,-0.0,-0.000202,7e-06,0.0,7.6e-05,-1e-06,0.0,0.0,0.0,0.0,0.0,0.0
760460,0.00061,0.000122,0.00061,0.0,0.0,0.0,0.0,0.0,0.0,3.0,0.303446,0.349335,0.296714,0.347705,-0.0,-0.000201,7e-06,0.0,7.5e-05,-1e-06,0.0,0.0,0.0,0.0,0.0,0.0
760480,0.000488,0.000122,0.00061,0.0,0.0,0.0,0.0,0.0,0.0,3.0,0.304484,0.349253,0.297257,0.346483,-0.0,-0.000199,7e-06,0.0,7.4e-05,-1e-06,0.0,0.0,0.0,0.0,0.0,0.0
760500,0.000366,0.000244,0.000488,0.0,0.0,0.0,0.0,0.0,0.0,3.0,0.307849,0.346468,0.298943,0.345062,-0.0,-0.000198,7e-06,0.0,7.4e-05,-1e-06,0.0,0.0,0.0,0.0,0.0,0.0
760520,0.000244,-0.0,0.000488,0.0,0.0,0.0,0.0,0.0,0.0,3.0,0.30571,0.350212,0.296752,0.344885,-0.0,-0.000196,7e-06,0.0,7.3e-05,-1e-06,0.0,0.0,0.0,0.0,0.0,0.0
760540,0.000244,0.000122,0.000488,0.0,0.0,0.0,0.0,0.0,0.0,3.0,0.30517,0.349168,0.297033,0.346173,-0.0,-0.000195,7e-06,0.0,7.3e-05,-1e-06,0.0,0.0,0.0,0.0,0.0,0.0
760560,0.000122,-0.0,0.000366,0.0,0.0,0.0,0.0,0.0,0.0,3.0,0.306759,0.348076,0.298879,0.344423,-0.0,-0.000193,7e-06,0.0,7.2e-05,-1e-06,0.0,0.0,0.0,0.0,0.0,0.0
760580,-0.000122,0.000122,0.000366,0.0,0.0,0.0,0.0,0.0,0.0,3.0,0.306763,0.348913,0.296708,0.345347,-0.0,-0.000192,7e-06,0.0,7.2e-05,-1e-06,0.0,0.0,0.0,0.0,0.0,0.0
760600,-0.000122,0.000122,0.000366,0.0,0.0,0.0,0.0,0.0,0.0,3.0,0.305315,0.349729,0.297291,0.345273,-0.0,-0.000191,7e-06,0.0,7.1e-05,-1e-06,0.0,0.0,0.0,0.0,0.0,0.0
760620,-0.000122,0.000122,0.000244,0.0,0.0,0.0,0.0,0.0,0.0,3.0,0.305232,0.348775,0.299261,0.344698,-0.0,-0.000189,6e-06,0.0,7.1e-05,-1e-06,0.0,0.0,0.0,0.0,0.0,0.0
760640,-0.000122,0.0,0.000244,0.0,0.0,0.0,0.0,0.0,0.0,3.0,0.304968,0.349761,0.298842,0.344263,-0.0,-0.000188,6e-06,0.0,7e-05,-1e-06,0.0,0.0,0.0,0.0,0.0,0.0
760660,-0.000244,0.0,0.000122,0.0,0.0,0.0,0.0,0.0,0.0,3.0,0.309018,0.346444,0.300432,0.342844,-0.0,-0.000186,6e-06,0.0,7e-05,-1e-06,0.0,0.0,0.0,0.0,0.0,0.0
760680,-0.000244,0.000122,0.000122,0.0,0.0,0.0,0.0,0.0,0.0,3.0,0.305987,0.348959,0.297673,0.345173,-0.0,-0.000185,6e-06,0.0,6.9e-05,-1e-06,0.0,0.0,0.0,0.0,0.0,0.0
760700,-0.000244,0.000366,0.0,0.0,0.0,0.0,0.0,0.0,0.0,3.0,0.307617,0.346585,0.299116,0.345,-0.0,-0.000184,6e-06,0.0,6.9e-05,-1e-06,0.0,0.0,0.0,0.0,0.0,0.0
760720,-0.000366,0.000366,0.0,0.0,0.0,0.0,0.0,0.0,0.0,3.0,0.307303,0.348189,0.297264,0.345167,-0.0,-0.000182,6e-06,0.0,6.8e-05,-1e-06,0.0,0.0,0.0,0.0,0.0,0.0
760740,-0.000366,0.000244,0.0,0.0,0.0,0.0,0.0,0.0,0.0,3.0,0.308259,0.347692,0.300105,0.342506,-0.0,-0.000181,6e-06,0.0,6.8e-05,-1e-06,0.0,0.0,0.0,0.0,0.0,0.0
760760,-0.000366,0.000366,0.0,0.0,0.0,0.0,0.0,0.0,0.0,3.0,0.30842,0.347272,0.299965,0.342911,-0.0,-0.000179,6e-06,0.0,6.7e-05,-1e-06,0.0,0.0,0.0,0.0,0.0,0.0
760780,-0.000366,0.000488,0.0,0.0,0.0,0.0,0.0,0.0,0.0,3.0,0.306597,0.348923,0.296531,0.345622,-0.0,-0.000178,6e-06,0.0,6.7e-05,-1e-06,0.0,0.0,0.0,0.0,0.0,0.0
760800,-0.000244,0.00061,-0.000122,0.0,0.0,0.0,0.0,0.0,0.0,3.0,0.306542,0.347424,0.29899,0.345175,-0.0,-0.000177,6e-06,0.0,6.6e-05,-1e-06,0.0,0.0,0.0,0.0,0.0,0.0
760820,-0.000244,0.00061,-0.000122,0.0,0.0,0.0,0.0,0.0,0.0,3.0,0.307437,0.347136,0.298969,0.34472,-0.0,-0.000175,6e-06,0.0,6.6e-05,-1e-06,0.0,0.0,0.0,0.0,0.0,0.0
760840,-0.000122,0.00061,-0.000122,0.0,0.0,0.0,0.0,0.0,0.0,3.0,0.30577,0.348849,0.29841,0.344866,-0.0,-0.000174,6e-06,0.0,6.5e-05,-1e-06,0.0,0.0,0.0,0.0,0.0,0.0
760860,-0.000244,0.000732,-0.000122,0.0,0.0,0.0,0.0,0.0,0.0,3.0,0.306019,0.348885,0.297223,0.345589,-0.0,-0.000173,6e-06,0.0,6.5e-05,-1e-06,0.0,0.0,0.0,0.0,0.0,0.0
760880,-0.000366,0.000977,-0.000122,0.0,0.0,0.0,0.0,0.0,0.0,3.0,0.306246,0.34821,0.296135,0.346958,-0.0,-0.000172,6e-06,0.0,6.4e-05,-1e-06,0.0,0.0,0.0,0.0,0.0,0.0
760900,-0.000366,0.000855,-0.000122,0.0,0.0,0.0,0.0,0.0,0.0,3.0,0.304703,0.349635,0.296115,0.346836,-0.0,-0.00017,6e-06,0.0,6.4e-05,-1e-06,0.0,0.0,0.0,0.0,0.0,0.0
760920,-0.000244,0.000855,-0.000244,0.0,0.0,0.0,0.0,0.0,0.0,3.0,0.307354,0.347476,0.299921,0.34366,-0.0,-0.000169,6e-06,0.0,6.3e-05,-1e-06,0.0,0.0,0.0,0.0,0.0,0.0
760940,-0.000244,0.000732,-0.000244,0.0,0.0,0.0,0.0,0.0,0.0,3.0,0.306892,0.348372,0.299226,0.343721,-0.0,-0.000168,6e-06,0.0,6.3e-05,-1e-06,0.0,0.0,0.0,0.0,0.0,0.0
760960,-0.000244,0.000855,-0.000244,0.0,0.0,0.0,0.0,0.0,0.0,3.0,0.306374,0.347779,0.298126,0.345668,-0.0,-0.000167,6e-06,0.0,6.2e-05,-1e-06,0.0,0.0,0.0,0.0,0.0,0.0
760980,-0.000244,0.000855,-0.000244,0.0,0.0,0.0,0.0,0.0,0.0,3.0,0.30888,0.346155,0.302032,0.341915,-0.0,-0.000166,6e-06,0.0,6.2e-05,-1e-06,0.0,0.0,0.0,0.0,0.0,0.0
761000,-0.000122,0.000977,-0.000366,0.0,0.0,0.0,0.0,0.0,0.0,3.0,0.306132,0.346566,0.301569,0.344255,-0.0,-0.000164,6e-06,0.0,6.1e-05,-1e-06,0.0,0.0,0.0,0.0,0.0,0.0
761020,-0.000122,0.000977,-0.000366,0.0,0.0,0.0,0.0,0.0,0.0,3.0,0.309031,0.345266,0.302819,0.34202,-0.0,-0.000163,6e-06,0.0,6.1e-05,-1e-06,0.0,0.0,0.0,0.0,0.0,0.0
761040,-0.0,0.000977,-0.000244,0.0,0.0,0.0,0.0,0.0,0.0,3.0,0.303892,0.349283,0.299477,0.345134,-0.0,-0.000162,6e-06,0.0,6e-05,-1e-06,0.0,0.0,0.0,0.0,0.0,0.0
761060,-0.0,0.001221,-0.000244,0.0,0.0,0.0,0.0,0.0,0.0,3.0,0.304634,0.347986,0.29898,0.346231,-0.0,-0.00016,6e-06,0.0,6e-05,-1e-06,0.0,0.0,0.0,0.0,0.0,0.0
761080,0.000122,0.001221,-0.000366,0.0,0.0,0.0,0.0,0.0,0.0,3.0,0.306032,0.346946,0.301824,0.343742,-0.0,-0.000159,6e-06,0.0,6e-05,-1e-06,0.0,0.0,0.0,0.0,0.0,0.0
761100,0.000122,0.001221,-0.000366,0.0,0.0,0.0,0.0,0.0,0.0,3.0,0.309212,0.345595,0.301109,0.342969,-0.0,-0.000158,6e-06,0.0,5.9e-05,-1e-06,0.0,0.0,0.0,0.0,0.0,0.0
761120,0.000244,0.001099,-0.000366,0.0,0.0,0.0,0.0,0.0,0.0,3.0,0.307663,0.347225,0.302102,0.341823,-0.0,-0.000157,6e-06,0.0,5.9e-05,-1e-06,0.0,0.0,0.0,0.0,0.0,0.0
761140,0.000244,0.001099,-0.000244,0.0,0.0,0.0,0.0,0.0,0.0,3.0,0.305428,0.349676,0.297771,0.344839,-0.0,-0.000156,6e-06,0.0,5.8e-05,-1e-06,0.0,0.0,0.0,0.0,0.0,0.0
761160,0.000244,0.001221,-0.000244,0.0,0.0,0.0,0.0,0.0,0.0,3.0,0.305925,0.348464,0.298434,0.345105,-0.0,-0.000155,6e-06,0.0,5.8e-05,-1e-06,0.0,0.0,0.0,0.0,0.0,0.0
761180,0.000244,0.001343,-0.000244,0.0,0.0,0.0,0.0,0.0,0.0,3.0,0.308608,0.346202,0.300404,0.343467,-0.0,-0.000153,6e-06,0.0,5.7e-05,-1e-06,0.0,0.0,0.0,0.0,0.0,0.0
761200,0.000366,0.001465,-0.000122,0.0,0.0,0.0,0.0,0.0,0.0,3.0,0.304857,0.348483,0.297972,0.346366,-0.0,-0.000152,6e-06,0.0,5.7e-05,-1e-06,0.0,0.0,0.0,0.0,0.0,0.0
761220,0.000488,0.001465,-0.000122,0.0,0.0,0.0,0.0,0.0,0.0,3.0,0.304799,0.348537,0.299227,0.345333,-0.0,-0.000151,6e-06,0.0,5.6e-05,-1e-06,0.0,0.0,0.0,0.0,0.0,0.0
761240,0.000488,0.001343,-0.0,0.0,0.0,0.0,0.0,0.0,0.0,3.0,0.303758,0.350672,0.296855,0.345978,-0.0,-0.00015,6e-06,0.0,5.6e-05,-1e-06,0.0,0.0,0.0,0.0,0.0,0.0
761260,0.000366,0.001343,-0.0,0.0,0.0,0.0,0.0,0.0,0.0,3.0,0.305292,0.348864,0.298226,0.345407,-0.0,-0.000149,6e-06,0.0,5.6e-05,-1e-06,0.0,0.0,0.0,0.0,0.0,0.0
761280,0.000244,0.001343,-0.0,0.0,0.0,0.0,0.0,0.0,0.0,3.0,0.308011,0.347034,0.298714,0.344541,-0.0,-0.000148,6e-06,0.0,5.5e-05,-1e-06,0.0,0.0,0.0,0.0,0.0,0.0
761300,0.000244,0.001343,0.000122,0.0,0.0,0.0,0.0,0.0,0.0,3.0,0.304042,0.349717,0.296383,0.34709,-0.0,-0.000147,6e-06,0.0,5.5e-05,-1e-06,0.0,0.0,0.0,0.0,0.0,0.0
761320,0.000244,0.001221,0.000122,0.0,0.0,0.0,0.0,0.0,0.0,3.0,0.304109,0.34949,0.298897,0.345219,-0.0,-0.000146,6e-06,0.0,5.4e-05,-1e-06,0.0,0.0,0.0,0.0,0.0,0.0
761340,0.000244,0.001343,0.000122,0.0,0.0,0.0,0.0,0.0,0.0,3.0,0.305171,0.348573,0.298156,0.345861,-0.0,-0.000144,6e-06,0.0,5.4e-05,-1e-06,0.0,0.0,0.0,0.0,0.0,0.0
761360,0.000244,0.001343,0.000122,0.0,0.0,0.0,0.0,0.0,0.0,3.0,0.306509,0.348156,0.299909,0.343703,-0.0,-0.000143,6e-06,0.0,5.4e-05,-1e-06,0.0,0.0,0.0,0.0,0.0,0.0
761380,0.000244,0.001465,0.000244,0.0,0.0,0.0,0.0,0.0,0.0,3.0,0.303503,0.349759,0.296558,0.347356,-0.0,-0.000142,6e-06,0.0,5.3e-05,-1e-06,0.0,0.0,0.0,0.0,0.0,0.0
761400,0.000366,0.001587,0.000244,0.0,0.0,0.0,0.0,0.0,0.0,3.0,0.301684,0.350538,0.296469,0.348148,-0.0,-0.000141,6e-06,0.0,5.3e-05,-1e-06,0.0,0.0,0.0,0.0,0.0,0.0
761420,0.000488,0.001587,0.000122,0.0,0.0,0.0,0.0,0.0,0.0,3.0,0.305516,0.347383,0.300626,0.344738,-0.0,-0.00014,6e-06,0.0,5.2e-05,-1e-06,0.0,0.0,0.0,0.0,0.0,0.0
761440,0.000488,0.001587,0.000122,0.0,0.0,0.0,0.0,0.0,0.0,3.0,0.304693,0.349334,0.297057,0.346388,-0.0,-0.000139,6e-06,0.0,5.2e-05,-1e-06,0.0,0.0,0.0,0.0,0.0,0.0
761460,0.000366,0.001587,0.000244,0.0,0.0,0.0,0.0,0.0,0.0,3.0,0.304636,0.349913,0.297113,0.345803,-0.0,-0.000138,6e-06,0.0,5.2e-05,-1e-06,0.0,0.0,0.0,0.0,0.0,0.0
761480,0.000366,0.001465,0.000244,0.0,0.0,0.0,0.0,0.0,0.0,3.0,0.304321,0.349815,0.298579,0.344971,-0.0,-0.000137,6e-06,0.0,5.1e-05,-1e-06,0.0,0.0,0.0,0.0,0.0,0.0
761500,0.000244,0.001465,0.000244,0.0,0.0,0.0,0.0,0.0,0.0,3.0,0.305429,0.34903,0.297273,0.345666,-0.0,-0.000136,6e-06,0.0,5.1e-05,-1e-06,0.0,0.0,0.0,0.0,0.0,0.0
761520,0.000244,0.001465,0.000122,0.0,0.0,0.0,0.0,0.0,0.0,3.0,0.308422,0.346843,0.301018,0.342466,-0.0,-0.000135,6e-06,0.0,5e-05,-1e-06,0.0,0.0,0.0,0.0,0.0,0.0
761540,0.000244,0.001709,0.000122,0.0,0.0,0.0,0.0,0.0,0.0,3.0,0.310624,0.34486,0.301432,0.342209,-0.0,-0.000134,6e-06,0.0,5e-05,-1e-06,0.0,0.0,0.0,0.0,0.0,0.0
761560,0.000489,0.001831,0.000244,0.0,0.0,0.0,0.0,0.0,0.0,3.0,0.30412,0.349316,0.297848,0.346244,-0.0,-0.000133,6e-06,0.0,5e-05,-1e-06,0.0,0.0,0.0,0.0,0.0,0.0
761580,0.000366,0.001831,0.000244,0.0,0.0,0.0,0.0,0.0,0.0,3.0,0.30588,0.348621,0.296961,0.346185,-0.0,-0.000132,6e-06,0.0,4.9e-05,-1e-06,0.0,0.0,0.0,0.0,0.0,0.0
761600,0.000611,0.001831,0.000244,0.0,0.0,0.0,0.0,0.0,0.0,3.0,0.304128,0.348795,0.298838,0.345956,-0.0,-0.000131,5e-06,0.0,4.9e-05,-1e-06,0.0,0.0,0.0,0.0,0.0,0.0
761620,0.000489,0.001831,0.000244,0.0,0.0,0.0,0.0,0.0,0.0,3.0,0.306176,0.34873,0.298285,0.344745,-0.0,-0.00013,5e-06,0.0,4.9e-05,-1e-06,0.0,0.0,0.0,0.0,0.0,0.0
761640,0.000611,0.001831,0.000366,0.0,0.0,0.0,0.0,0.0,0.0,3.0,0.303121,0.351192,0.295649,0.346954,-0.0,-0.000129,5e-06,0.0,4.8e-05,-1e-06,0.0,0.0,0.0,0.0,0.0,0.0
761660,0.000733,0.001953,0.000366,0.0,0.0,0.0,0.0,0.0,0.0,3.0,0.303242,0.349546,0.296769,0.347618,-0.0,-0.000128,5e-06,0.0,4.8e-05,-1e-06,0.0,0.0,0.0,0.0,0.0,0.0
761680,0.000855,0.001953,0.000365,0.0,0.0,0.0,0.0,0.0,0.0,3.0,0.30217,0.349948,0.299766,0.344857,-0.0,-0.000127,5e-06,0.0,4.8e-05,-1e-06,0.0,0.0,0.0,0.0,0.0,0.0
761700,0.000855,0.001831,0.000365,0.0,0.0,0.0,0.0,0.0,0.0,3.0,0.30491,0.349308,0.297028,0.346255,-0.0,-0.000127,5e-06,0.0,4.7e-05,-1e-06,0.0,0.0,0.0,0.0,0.0,0.0
761720,0.000733,0.002075,0.000366,0.0,0.0,0.0,0.0,0.0,0.0,3.0,0.300302,0.351589,0.295647,0.348877,-0.0,-0.000126,5e-06,0.0,4.7e-05,-1e-06,0.0,0.0,0.0,0.0,0.0,0.0
761740,0.000855,0.002197,0.000487,0.0,0.0,0.0,0.0,0.0,0.0,3.0,0.302901,0.349739,0.296373,0.348025,-0.0,-0.000124,5e-06,0.0,4.6e-05,-1e-06,0.0,0.0,0.0,0.0,0.0,0.0
761760,0.000733,0.002441,0.000487,0.0,0.0,0.0,0.0,0.0,0.0,3.0,0.304367,0.348407,0.296048,0.348406,-0.0,-0.000123,5e-06,0.0,4.6e-05,-1e-06,0.0,0.0,0.0,0.0,0.0,0.0
761780,0.000855,0.002319,0.000487,0.0,0.0,0.0,0.0,0.0,0.0,3.0,0.304463,0.348653,0.298386,0.346188,-0.0,-0.000123,5e-06,0.0,4.6e-05,-1e-06,0.0,0.0,0.0,0.0,0.0,0.0
761800,0.000855,0.002319,0.000609,0.0,0.0,0.0,0.0,0.0,0.0,3.0,0.304457,0.348896,0.296582,0.347411,-0.0,-0.000122,5e-06,0.0,4.5e-05,-1e-06,0.0,0.0,0.0,0.0,0.0,0.0
761820,0.0011,0.002319,0.000731,0.0,0.0,0.0,0.0,0.0,0.0,3.0,0.300587,0.351144,0.297681,0.34746,-0.0,-0.000121,5e-06,0.0,4.5e-05,-1e-06,0.0,0.0,0.0,0.0,0.0,0.0
761840,0.001222,0.002441,0.000853,0.0,0.0,0.0,0.0,0.0,0.0,3.0,0.299464,0.350702,0.295267,0.350749,-0.0,-0.00012,5e-06,0.0,4.5e-05,-1e-06,0.0,0.0,0.0,0.0,0.0,0.0
761860,0.001344,0.002563,0.000853,0.0,0.0,0.0,0.0,0.0,0.0,3.0,0.299603,0.349658,0.296409,0.350773,-0.0,-0.000119,5e-06,0.0,4.4e-05,-1e-06,0.0,0.0,0.0,0.0,0.0,0.0
761880,0.001466,0.002563,0.000853,0.0,0.0,0.0,0.0,0.0,0.0,3.0,0.302273,0.347919,0.298484,0.348665,-0.0,-0.000118,5e-06,0.0,4.4e-05,-1e-06,0.0,0.0,0.0,0.0,0.0,0.0
761900,0.001466,0.002563,0.000853,0.0,0.0,0.0,0.0,0.0,0.0,3.0,0.305261,0.346909,0.300392,0.345625,-0.0,-0.000117,5e-06,0.0,4.4e-05,-1e-06,0.0,0.0,0.0,0.0,0.0,0.0
761920,0.001466,0.002685,0.000975,0.0,0.0,0.0,0.0,0.0,0.0,3.0,0.301295,0.349226,0.296549,0.349718,-0.0,-0.000116,5e-06,0.0,4.3e-05,-1e-06,0.0,0.0,0.0,0.0,0.0,0.0
761940,0.001222,0.002929,0.000975,0.0,0.0,0.0,0.0,0.0,0.0,3.0,0.300831,0.349653,0.294151,0.351568,-0.0,-0.000115,5e-06,0.0,4.3e-05,-1e-06,0.0,0.0,0.0,0.0,0.0,0.0
761960,0.001222,0.002929,0.000975,0.0,0.0,0.0,0.0,0.0,0.0,3.0,0.301272,0.348847,0.295901,0.350631,-0.0,-0.000115,5e-06,0.0,4.3e-05,-1e-06,0.0,0.0,0.0,0.0,0.0,0.0
761980,0.0011,0.003051,0.000975,0.0,0.0,0.0,0.0,0.0,0.0,3.0,0.304359,0.351058,0.295765,0.345962,-0.0,-0.000114,5e-06,0.0,4.3e-05,-1e-06,0.0,0.0,0.0,0.0,0.0,0.0
762000,0.001222,0.002929,0.000975,0.0,0.0,0.0,0.0,0.0,0.0,3.0,0.303277,0.348761,0.296527,0.348573,-0.0,-0.000113,5e-06,0.0,4.2e-05,-1e-06,0.0,0.0,0.0,0.0,0.0,0.0
762020,0.001344,0.002807,0.000975,0.0,0.0,0.0,0.0,0.0,0.0,3.0,0.303013,0.349247,0.297542,0.347486,-0.0,-0.000112,5e-06,0.0,4.2e-05,-1e-06,0.0,0.0,0.0,0.0,0.0,0.0
762040,0.001344,0.002563,0.000975,0.0,0.0,0.0,0.0,0.0,0.0,3.0,0.303795,0.349938,0.296764,0.346766,-0.0,-0.000111,5e-06,0.0,4.2e-05,-1e-06,0.0,0.0,0.0,0.0,0.0,0.0
762060,0.001344,0.002563,0.001097,0.0,0.0,0.0,0.0,0.0,0.0,3.0,0.303807,0.349556,0.295572,0.3481,-0.0,-0.00011,5e-06,0.0,4.1e-05,-1e-06,0.0,0.0,0.0,0.0,0.0,0.0
762080,0.001344,0.002441,0.001219,0.0,0.0,0.0,0.0,0.0,0.0,3.0,0.301938,0.351334,0.294681,0.348563,-0.0,-0.00011,5e-06,0.0,4.1e-05,-1e-06,0.0,0.0,0.0,0.0,0.0,0.0
762100,0.001344,0.002563,0.001219,0.0,0.0,0.0,0.0,0.0,0.0,3.0,0.302577,0.349662,0.296247,0.348472,-0.0,-0.000109,5e-06,0.0,4.1e-05,-1e-06,0.0,0.0,0.0,0.0,0.0,0.0
762120,0.001345,0.002685,0.001341,0.0,0.0,0.0,0.0,0.0,0.0,3.0,0.300726,0.350714,0.29552,0.349513,-0.0,-0.000108,5e-06,0.0,4e-05,-1e-06,0.0,0.0,0.0,0.0,0.0,0.0
762140,0.001223,0.002807,0.001341,0.0,0.0,0.0,0.0,0.0,0.0,3.0,0.302896,0.348351,0.296305,0.349473,-0.0,-0.000107,5e-06,0.0,4e-05,-1e-06,0.0,0.0,0.0,0.0,0.0,0.0
762160,0.001345,0.002685,0.001463,0.0,0.0,0.0,0.0,0.0,0.0,3.0,0.301189,0.350265,0.296272,0.348986,-0.0,-0.000106,5e-06,0.0,4e-05,-1e-06,0.0,0.0,0.0,0.0,0.0,0.0
762180,0.001345,0.002685,0.001585,0.0,0.0,0.0,0.0,0.0,0.0,3.0,0.300067,0.35164,0.29214,0.351774,-0.0,-0.000106,5e-06,0.0,3.9e-05,-1e-06,0.0,0.0,0.0,0.0,0.0,0.0
762200,0.001589,0.00244,0.001585,0.0,0.0,0.0,0.0,0.0,0.0,3.0,0.299772,0.351354,0.296128,0.34916,-0.0,-0.000105,5e-06,0.0,3.9e-05,-1e-06,0.0,0.0,0.0,0.0,0.0,0.0
762220,0.001589,0.002562,0.001707,0.0,0.0,0.0,0.0,0.0,0.0,3.0,0.298706,0.351897,0.29306,0.351894,-0.0,-0.000104,5e-06,0.0,3.9e-05,-1e-06,0.0,0.0,0.0,0.0,0.0,0.0
762240,0.001589,0.002562,0.001707,0.0,0.0,0.0,0.0,0.0,0.0,3.0,0.300724,0.350248,0.294733,0.350604,-0.0,-0.000103,5e-06,0.0,3.9e-05,-1e-06,0.0,0.0,0.0,0.0,0.0,0.0
762260,0.001467,0.002684,0.001829,0.0,0.0,0.0,0.0,0.0,0.0,3.0,0.299862,0.351929,0.291432,0.352198,-0.0,-0.000102,5e-06,0.0,3.8e-05,-1e-06,0.0,0.0,0.0,0.0,0.0,0.0
762280,0.001467,0.002684,0.001829,0.0,0.0,0.0,0.0,0.0,0.0,3.0,0.300039,0.351403,0.292611,0.351668,-0.0,-0.000102,5e-06,0.0,3.8e-05,-1e-06,0.0,0.0,0.0,0.0,0.0,0.0
762300,0.001467,0.002562,0.00183,0.0,0.0,0.0,0.0,0.0,0.0,3.0,0.301818,0.350866,0.295633,0.348375,-0.0,-0.000101,5e-06,0.0,3.8e-05,-1e-06,0.0,0.0,0.0,0.0,0.0,0.0
762320,0.001467,0.002562,0.001952,0.0,0.0,0.0,0.0,0.0,0.0,3.0,0.299913,0.351687,0.294314,0.350151,-0.0,-0.0001,5e-06,0.0,3.7e-05,-1e-06,0.0,0.0,0.0,0.0,0.0,0.0
762340,0.001345,0.002318,0.002074,0.0,0.0,0.0,0.0,0.0,0.0,3.0,0.299474,0.353896,0.290944,0.35091,-0.0,-9.9e-05,5e-06,0.0,3.7e-05,-1e-06,0.0,0.0,0.0,0.0,0.0,0.0
762360,0.001467,0.002318,0.002196,0.0,0.0,0.0,0.0,0.0,0.0,3.0,0.297272,0.352856,0.292613,0.352425,-0.0,-9.9e-05,5e-06,0.0,3.7e-05,-1e-06,0.0,0.0,0.0,0.0,0.0,0.0
762380,0.00159,0.002318,0.002196,0.0,0.0,0.0,0.0,0.0,0.087266,3.0,0.557114,0.15,0.555457,0.15,-0.0,-9.8e-05,0.000646,0.0,4e-06,0.107251,0.0,0.0,0.0,0.0,0.0,0.0
762400,0.002081,0.002803,0.004392,0.0,0.0,0.0,0.0,0.0,0.087266,3.0,0.394511,0.225041,0.394494,0.226889,-0.0,-9.8e-05,0.003169,2e-06,-3.9e-05,0.149271,0.0,0.0,0.0,0.0,0.0,0.0
762420,0.002581,0.003283,0.010373,0.0,0.0,0.0,0.0,0.0,0.087266,3.0,0.338491,0.312433,0.337521,0.312343,-1e-06,-9.9e-05,0.006338,4e-06,-3.2e-05,0.167115,0.0,0.0,0.0,0.0,0.0,0.0
762440,0.002839,0.003638,0.01733,0.0,0.0,0.0,0.0,0.0,0.087266,3.0,0.319039,0.330649,0.317953,0.334104,-1e-06,-0.0001,0.009927,6e-06,-2.1e-05,0.186429,0.0,0.0,0.0,0.0,0.0,0.0
762460,0.002975,0.003749,0.023924,0.0,0.0,0.0,0.0,0.0,0.087266,3.0,0.322971,0.330647,0.317686,0.330606,-1e-06,-0.0001,0.012852,8e-06,-1.1e-05,0.203135,0.0,0.0,0.0,0.0,0.0,0.0
762480,0.002986,0.00374,0.030026,0.0,0.0,0.0,0.0,0.0,0.087266,3.0,0.319203,0.333524,0.31522,0.333637,-1e-06,-0.0001,0.018114,1.1e-05,1e-06,0.22074,0.0,0.0,0.0,0.0,0.0,0.0
762500,0.00275,0.003614,0.035522,0.0,0.0,0.0,0.0,0.0,0.087266,3.0,0.316649,0.339095,0.308472,0.336535,-2e-06,-0.0001,0.022619,1.4e-05,8e-06,0.232254,0.0,0.0,0.0,0.0,0.0,0.0
762520,0.002757,0.003485,0.040408,0.0,0.0,0.0,0.0,0.0,0.087266,3.0,0.313091,0.34037,0.308268,0.338666,-2e-06,-0.0001,0.027337,1.6e-05,1.5e-05,0.241533,0.0,0.0,0.0,0.0,0.0,0.0
762540,0.002642,0.003482,0.044806,0.0,0.0,0.0,0.0,0.0,0.087266,3.0,0.316015,0.33705,0.311122,0.336808,-2e-06,-9.9e-05,0.032224,1.8e-05,2.1e-05,0.248632,0.0,0.0,0.0,0.0,0.0,0.0
762560,0.002638,0.002988,0.049196,0.0,0.0,0.0,0.0,0.0,0.087266,3.0,0.312416,0.342486,0.308358,0.337048,-2e-06,-9.9e-05,0.037237,2e-05,2.7e-05,0.253621,0.0,0.0,0.0,0.0,0.0,0.0
762580,0.002519,0.002864,0.053227,0.0,0.0,0.0,0.0,0.0,0.087266,3.0,0.308418,0.345558,0.301891,0.343039,-2e-06,-9.8e-05,0.042335,2.1e-05,3.1e-05,0.25658,0.0,0.0,0.0,0.0,0.0,0.0
762600,0.002395,0.002619,0.056771,0.0,0.0,0.0,0.0,0.0,0.087266,3.0,0.307305,0.347779,0.300392,0.343001,-2e-06,-9.8e-05,0.047477,2.3e-05,3.5e-05,0.257597,0.0,0.0,0.0,0.0,0.0,0.0
762620,0.002155,0.002622,0.05995,0.0,0.0,0.0,0.0,0.0,0.087266,3.0,0.309183,0.345184,0.301875,0.342766,-2e-06,-9.7e-05,0.052626,2.4e-05,3.8e-05,0.256771,0.0,0.0,0.0,0.0,0.0,0.0
762640,0.002037,0.002623,0.062884,0.0,0.0,0.0,0.0,0.0,0.087266,3.0,0.310281,0.343089,0.304776,0.341457,-2e-06,-9.6e-05,0.057745,2.5e-05,4.1e-05,0.254209,0.0,0.0,0.0,0.0,0.0,0.0
762660,0.001678,0.002754,0.065685,0.0,0.0,0.0,0.0,0.0,0.087266,3.0,0.308756,0.345405,0.300259,0.344263,-2e-06,-9.5e-05,0.0628,2.5e-05,4.3e-05,0.250021,0.0,0.0,0.0,0.0,0.0,0.0
762680,0.001556,0.002634,0.068133,0.0,0.0,0.0,0.0,0.0,0.087266,3.0,0.304213,0.348563,0.29852,0.346379,-2e-06,-9.4e-05,0.06776,2.6e-05,4.5e-05,0.244325,0.0,0.0,0.0,0.0,0.0,0.0
762700,0.001192,0.002645,0.070215,0.0,0.0,0.0,0.0,0.0,0.087266,3.0,0.309857,0.344023,0.301499,0.343663,-2e-06,-9.3e-05,0.072595,2.6e-05,4.6e-05,0.237242,0.0,0.0,0.0,0.0,0.0,0.0
762720,0.001199,0.002766,0.072284,0.0,0.0,0.0,0.0,0.0,0.087266,3.0,0.308918,0.343674,0.302566,0.343932,-2e-06,-9.2e-05,0.077279,2.6e-05,4.7e-05,0.228897,0.0,0.0,0.0,0.0,0.0,0.0
762740,0.000963,0.002896,0.074244,0.0,0.0,0.0,0.0,0.0,0.087266,3.0,0.305052,0.347939,0.29705,0.347497,-2e-06,-9.1e-05,0.081788,2.6e-05,4.8e-05,0.219415,0.0,0.0,0.0,0.0,0.0,0.0
762760,0.000847,0.003022,0.075704,0.0,0.0,0.0,0.0,0.0,0.087266,3.0,0.305859,0.346299,0.298834,0.347011,-2e-06,-9e-05,0.086099,2.6e-05,4.8e-05,0.208925,0.0,0.0,0.0,0.0,0.0,0.0
762780,0.000845,0.002899,0.077056,0.0,0.0,0.0,0.0,0.0,0.087266,3.0,0.308147,0.344976,0.302766,0.343123,-2e-06,-9e-05,0.090193,2.5e-05,4.9e-05,0.197553,0.0,0.0,0.0,0.0,0.0,0.0
762800,0.000851,0.003021,0.078272,0.0,0.0,0.0,0.0,0.0,0.087266,3.0,0.311317,0.341689,0.305135,0.341643,-1e-06,-8.9e-05,0.094055,2.5e-05,4.9e-05,0.185426,0.0,0.0,0.0,0.0,0.0,0.0
762820,0.000863,0.003264,0.079488,0.0,0.0,0.0,0.0,0.0,0.087266,3.0,0.305992,0.345471,0.300731,0.346167,-1e-06,-8.8e-05,0.097668,2.4e-05,4.8e-05,0.17267,0.0,0.0,0.0,0.0,0.0,0.0
762840,0.000869,0.003386,0.080476,0.0,0.0,0.0,0.0,0.0,0.087266,3.0,0.304424,0.346999,0.298117,0.348097,-1e-06,-8.7e-05,0.101023,2.3e-05,4.8e-05,0.159406,0.0,0.0,0.0,0.0,0.0,0.0
762860,0.000982,0.003137,0.081084,0.0,0.0,0.0,0.0,0.0,0.087266,3.0,0.311429,0.342116,0.305279,0.340992,-1e-06,-8.6e-05,0.104109,2.2e-05,4.7e-05,0.145755,0.0,0.0,0.0,0.0,0.0,0.0
762880,0.001091,0.002765,0.081813,0.0,0.0,0.0,0.0,0.0,0.087266,3.0,0.312535,0.343914,0.306026,0.337532,-1e-06,-8.5e-05,0.10692,2.1e-05,4.7e-05,0.131832,0.0,0.0,0.0,0.0,0.0,0.0
762900,0.001091,0.002765,0.082421,0.0,0.0,0.0,0.0,0.0,0.087266,3.0,0.311892,0.343422,0.304424,0.339999,-1e-06,-8.4e-05,0.109451,1.9e-05,4.6e-05,0.117747,0.0,0.0,0.0,0.0,0.0,0.0
762920,0.001092,0.002765,0.083044,0.0,0.0,0.0,0.0,0.0,0.087266,3.0,0.305893,0.34731,0.300905,0.34426,-0.0,-8.3e-05,0.1117,1.8e-05,4.5e-05,0.103609,0.0,0.0,0.0,0.0,0.0,0.0
762940,0.000854,0.002897,0.083287,0.0,0.0,0.0,0.0,0.0,0.087266,3.0,0.313521,0.341123,0.305015,0.340356,-0.0,-8.2e-05,0.113667,1.7e-05,4.5e-05,0.09303,0.0,0.0,0.0,0.0,0.0,0.0
762960,0.000854,0.002897,0.083652,0.0,0.0,0.0,0.0,0.0,0.087266,3.0,0.312377,0.341857,0.305183,0.340494,0.0,-8.1e-05,0.115352,1.5e-05,4.4e-05,0.075567,0.0,0.0,0.0,0.0,0.0,0.0
762980,0.000733,0.002902,0.083895,0.0,0.0,0.0,0.0,0.0,0.087266,3.0,0.312419,0.341612,0.305207,0.340682,0.0,-8e-05,0.11676,1.4e-05,4.3e-05,0.061847,0.0,0.0,0.0,0.0,0.0,0.0
763000,0.000733,0.002902,0.084017,0.0,0.0,0.0,0.0,0.0,0.087266,3.0,0.313041,0.341752,0.305791,0.339481,0.0,-7.9e-05,0.117896,1.2e-05,4.2e-05,0.048441,0.0,0.0,0.0,0.0,0.0,0.0
763020,0.00086,0.003018,0.084138,0.0,0.0,0.0,0.0,0.0,0.087266,3.0,0.312063,0.341177,0.306574,0.340254,1e-06,-7.9e-05,0.118766,1.1e-05,4.1e-05,0.035425,0.0,0.0,0.0,0.0,0.0,0.0
763040,0.00086,0.003018,0.084259,0.0,0.0,0.0,0.0,0.0,0.087266,3.0,0.312757,0.341358,0.305527,0.34036,1e-06,-7.8e-05,0.11938,9e-06,4e-05,0.022867,0.0,0.0,0.0,0.0,0.0,0.0
763060,0.000988,0.003135,0.084381,0.0,0.0,0.0,0.0,0.0,0.087266,3.0,0.310174,0.341973,0.30484,0.342614,1e-06,-7.7e-05,0.119746,8e-06,3.9e-05,0.010829,0.0,0.0,0.0,0.0,0.0,0.0
763080,0.000982,0.003013,0.084381,0.0,0.0,0.0,0.0,0.0,0.087266,3.0,0.311215,0.34241,0.305119,0.341023,1e-06,-7.6e-05,0.119876,6e-06,3.8e-05,-0.000632,0.0,0.0,0.0,0.0,0.0,0.0
763100,0.000855,0.002896,0.084381,0.0,0.0,0.0,0.0,0.0,0.087266,3.0,0.314332,0.340844,0.306527,0.338596,1e-06,-7.5e-05,0.119781,5e-06,3.7e-05,-0.011469,0.0,0.0,0.0,0.0,0.0,0.0
763120,0.000856,0.002896,0.084503,0.0,0.0,0.0,0.0,0.0,0.087266,3.0,0.31232,0.340889,0.307065,0.339888,1e-06,-7.5e-05,0.119474,4e-06,3.6e-05,-0.02164,0.0,0.0,0.0,0.0,0.0,0.0
763140,0.000739,0.003023,0.084503,0.0,0.0,0.0,0.0,0.0,0.087266,3.0,0.312988,0.339667,0.30708,0.340502,1e-06,-7.4e-05,0.118969,2e-06,3.5e-05,-0.031111,0.0,0.0,0.0,0.0,0.0,0.0
763160,0.000861,0.003018,0.084503,0.0,0.0,0.0,0.0,0.0,0.087266,3.0,0.312482,0.34009,0.30842,0.33936,1e-06,-7.3e-05,0.11828,1e-06,3.5e-05,-0.039855,0.0,0.0,0.0,0.0,0.0,0.0
763180,0.000983,0.003013,0.084502,0.0,0.0,0.0,0.0,0.0,0.087266,3.0,0.313626,0.339119,0.309559,0.338302,2e-06,-7.3e-05,0.117422,-0.0,3.4e-05,-0.04785,0.0,0.0,0.0,0.0,0.0,0.0
763200,0.000856,0.002896,0.084624,0.0,0.0,0.0,0.0,0.0,0.087266,3.0,0.314355,0.341401,0.305607,0.338815,2e-06,-7.2e-05,0.116676,-1e-06,3.3e-05,-0.053345,0.0,0.0,0.0,0.0,0.0,0.0
763220,0.000973,0.002769,0.084624,0.0,0.0,0.0,0.0,0.0,0.087266,3.0,0.312809,0.341313,0.307815,0.338367,2e-06,-7.1e-05,0.115258,-2e-06,3.2e-05,-0.061539,0.0,0.0,0.0,0.0,0.0,0.0
763240,0.000978,0.002891,0.084745,0.0,0.0,0.0,0.0,0.0,0.087266,3.0,0.310344,0.343152,0.304016,0.341988,2e-06,-7.1e-05,0.113984,-3e-06,3.1e-05,-0.067222,0.0,0.0,0.0,0.0,0.0,0.0
763260,0.000978,0.002891,0.084745,0.0,0.0,0.0,0.0,0.0,0.087266,3.0,0.31134,0.342702,0.304152,0.341448,2e-06,-7e-05,0.112601,-4e-06,3.1e-05,-0.072133,0.0,0.0,0.0,0.0,0.0,0.0
763280,0.000739,0.003023,0.084746,0.0,0.0,0.0,0.0,0.0,0.087266,3.0,0.313537,0.340564,0.306199,0.339879,2e-06,-6.9e-05,0.111503,-5e-06,3e-05,-0.075313,0.0,0.0,0.0,0.0,0.0,0.0
763300,0.000734,0.002901,0.084867,0.0,0.0,0.0,0.0,0.0,0.087266,3.0,0.312812,0.342114,0.304185,0.340706,2e-06,-6.9e-05,0.109574,-6e-06,2.9e-05,-0.079671,0.0,0.0,0.0,0.0,0.0,0.0
763320,0.000851,0.002774,0.084867,0.0,0.0,0.0,0.0,0.0,0.087266,3.0,0.31272,0.340996,0.307161,0.339339,2e-06,-6.8e-05,0.10796,-6e-06,2.9e-05,-0.08233,0.0,0.0,0.0,0.0,0.0,0.0
763340,0.000729,0.002779,0.084989,0.0,0.0,0.0,0.0,0.0,0.087266,3.0,0.313656,0.341339,0.305272,0.339796,2e-06,-6.8e-05,0.106297,-7e-06,2.8e-05,-0.084274,0.0,0.0,0.0,0.0,0.0,0.0
763360,0.000856,0.002896,0.08511,0.0,0.0,0.0,0.0,0.0,0.087266,3.0,0.310097,0.342768,0.304798,0.341922,2e-06,-6.7e-05,0.104601,-7e-06,2.8e-05,-0.085531,0.0,0.0,0.0,0.0,0.0,0.0
763380,0.000856,0.002896,0.08511,0.0,0.0,0.0,0.0,0.0,0.087266,3.0,0.31202,0.341815,0.307132,0.339164,2e-06,-6.6e-05,0.102885,-8e-06,2.7e-05,-0.086127,0.0,0.0,0.0,0.0,0.0,0.0
763400,0.000862,0.003018,0.085232,0.0,0.0,0.0,0.0,0.0,0.087266,3.0,0.311656,0.340562,0.304624,0.340522,2e-06,-6.6e-05,0.101593,-8e-06,2.7e-05,-0.086161,0.0,0.0,0.0,0.0,0.0,0.0
763420,0.000857,0.002896,0.085232,0.0,0.0,0.0,0.0,0.0,0.087266,3.0,0.313707,0.340775,0.306808,0.338985,2e-06,-6.5e-05,0.099444,-8e-06,2.6e-05,-0.085471,0.0,0.0,0.0,0.0,0.0,0.0
763440,0.000852,0.002774,0.085353,0.0,0.0,0.0,0.0,0.0,0.087266,3.0,0.311708,0.342671,0.306412,0.339204,1e-06,-6.5e-05,0.097743,-9e-06,2.6e-05,-0.084288,0.0,0.0,0.0,0.0,0.0,0.0
763460,0.000724,0.002657,0.085354,0.0,0.0,0.0,0.0,0.0,0.087266,3.0,0.315021,0.341146,0.306626,0.337579,1e-06,-6.4e-05,0.096069,-9e-06,2.6e-05,-0.082586,0.0,0.0,0.0,0.0,0.0,0.0
763480,0.000608,0.002784,0.085475,0.0,0.0,0.0,0.0,0.0,0.087266,3.0,0.312545,0.34156,0.304947,0.340845,1e-06,-6.4e-05,0.094433,-9e-06,2.5e-05,-0.080405,0.0,0.0,0.0,0.0,0.0,0.0
763500,0.000613,0.002906,0.085491,0.0,0.0,0.0,0.0,0.0,0.087266,3.0,0.313139,0.341662,0.304789,0.340351,1e-06,-6.3e-05,0.092844,-9e-06,2.5e-05,-0.077787,0.0,0.0,0.0,0.0,0.0,0.0
763520,0.000496,0.003033,0.085612,0.0,0.0,0.0,0.0,0.0,0.087266,3.0,0.311653,0.342661,0.303368,0.34188,1e-06,-6.3e-05,0.09131,-9e-06,2.5e-05,-0.075561,0.0,0.0,0.0,0.0,0.0,0.0
763540,0.000486,0.00279,0.085734,0.0,0.0,0.0,0.0,0.0,0.087266,3.0,0.311586,0.3441,0.302922,0.340869,1e-06,-6.2e-05,0.089839,-9e-06,2.4e-05,-0.071404,0.0,0.0,0.0,0.0,0.0,0.0
763560,0.000486,0.00279,0.085734,0.0,0.0,0.0,0.0,0.0,0.087266,3.0,0.312431,0.342803,0.302808,0.341526,1e-06,-6.2e-05,0.088438,-8e-06,2.4e-05,-0.067725,0.0,0.0,0.0,0.0,0.0,0.0
763580,0.000608,0.002784,0.085855,0.0,0.0,0.0,0.0,0.0,0.087266,3.0,0.309365,0.344285,0.301872,0.343515,1e-06,-6.1e-05,0.087113,-8e-06,2.4e-05,-0.063776,0.0,0.0,0.0,0.0,0.0,0.0
763600,0.000603,0.002662,0.085855,0.0,0.0,0.0,0.0,0.0,0.087266,3.0,0.31154,0.342655,0.3055,0.34016,1e-06,-6.1e-05,0.085868,-8e-06,2.3e-05,-0.059601,0.0,0.0,0.0,0.0,0.0,0.0
763620,0.000609,0.002784,0.085977,0.0,0.0,0.0,0.0,0.0,0.087266,3.0,0.309955,0.342453,0.304117,0.342941,1e-06,-6e-05,0.084709,-8e-06,2.3e-05,-0.055241,0.0,0.0,0.0,0.0,0.0,0.0
763640,0.00073,0.002779,0.085977,0.0,0.0,0.0,0.0,0.0,0.087266,3.0,0.309631,0.341761,0.307323,0.341165,1e-06,-6e-05,0.083897,-7e-06,2.3e-05,-0.051873,0.0,0.0,0.0,0.0,0.0,0.0
763660,0.000614,0.002906,0.085977,0.0,0.0,0.0,0.0,0.0,0.087266,3.0,0.310817,0.34104,0.3063,0.341729,1e-06,-6e-05,0.082657,-7e-06,2.2e-05,-0.046123,0.0,0.0,0.0,0.0,0.0,0.0
763680,0.000481,0.002667,0.086099,0.0,0.0,0.0,0.0,0.0,0.087266,3.0,0.310615,0.343054,0.30541,0.340653,1e-06,-5.9e-05,0.08177,-6e-06,2.2e-05,-0.041442,0.0,0.0,0.0,0.0,0.0,0.0
763700,0.000481,0.002667,0.086099,0.0,0.0,0.0,0.0,0.0,0.087266,3.0,0.310955,0.342263,0.305782,0.340829,0.0,-5.9e-05,0.080976,-6e-06,2.2e-05,-0.03673,0.0,0.0,0.0,0.0,0.0,0.0
763720,0.000359,0.002673,0.086099,0.0,0.0,0.0,0.0,0.0,0.087266,3.0,0.312587,0.34215,0.304143,0.340907,0.0,-5.8e-05,0.080277,-6e-06,2.2e-05,-0.032019,0.0,0.0,0.0,0.0,0.0,0.0
763740,0.000476,0.002545,0.08622,0.0,0.0,0.0,0.0,0.0,0.087266,3.0,0.307559,0.345241,0.30366,0.342608,0.0,-5.8e-05,0.079672,-5e-06,2.2e-05,-0.027343,0.0,0.0,0.0,0.0,0.0,0.0
763760,0.000227,0.002434,0.086221,0.0,0.0,0.0,0.0,0.0,0.087266,3.0,0.312974,0.343456,0.303061,0.340169,0.0,-5.7e-05,0.07916,-5e-06,2.1e-05,-0.022732,0.0,0.0,0.0,0.0,0.0,0.0
763780,0.000349,0.002429,0.08622,0.0,0.0,0.0,0.0,0.0,0.087266,3.0,0.311557,0.343053,0.304865,0.34029,0.0,-5.7e-05,0.078739,-4e-06,2.1e-05,-0.018215,0.0,0.0,0.0,0.0,0.0,0.0
763800,0.00036,0.002673,0.08622,0.0,0.0,0.0,0.0,0.0,0.087266,3.0,0.311561,0.34211,0.304891,0.341214,0.0,-5.6e-05,0.078408,-4e-06,2.1e-05,-0.013818,0.0,0.0,0.0,0.0,0.0,0.0
763820,0.000238,0.002678,0.08622,0.0,0.0,0.0,0.0,0.0,0.087266,3.0,0.312667,0.34224,0.303749,0.341081,0.0,-5.6e-05,0.078164,-3e-06,2.1e-05,-0.009564,0.0,0.0,0.0,0.0,0.0,0.0
763840,0.000232,0.002556,0.086221,0.0,0.0,0.0,0.0,0.0,0.087266,3.0,0.311923,0.343851,0.303011,0.340746,-0.0,-5.6e-05,0.078004,-3e-06,2.1e-05,-0.005477,0.0,0.0,0.0,0.0,0.0,0.0
763860,0.000232,0.002556,0.086221,0.0,0.0,0.0,0.0,0.0,0.087266,3.0,0.312022,0.341723,0.30435,0.341658,-0.0,-5.5e-05,0.077924,-3e-06,2e-05,-0.001574,0.0,0.0,0.0,0.0,0.0,0.0
763880,0.000105,0.002439,0.086221,0.0,0.0,0.0,0.0,0.0,0.087266,3.0,0.313284,0.342278,0.303127,0.341024,-0.0,-5.5e-05,0.07792,-2e-06,2e-05,0.002127,0.0,0.0,0.0,0.0,0.0,0.0
763900,0.000105,0.002439,0.086221,0.0,0.0,0.0,0.0,0.0,0.087266,3.0,0.312338,0.342338,0.304136,0.340944,-0.0,-5.4e-05,0.077989,-2e-06,2e-05,0.005612,0.0,0.0,0.0,0.0,0.0,0.0
763920,0.00011,0.002561,0.086221,0.0,0.0,0.0,0.0,0.0,0.087266,3.0,0.312398,0.342047,0.304084,0.341228,-0.0,-5.4e-05,0.078126,-1e-06,2e-05,0.008867,0.0,0.0,0.0,0.0,0.0,0.0
763940,0.000355,0.002551,0.086342,0.0,0.0,0.0,0.0,0.0,0.087266,3.0,0.309455,0.343496,0.306014,0.340706,-0.0,-5.4e-05,0.078327,-1e-06,2e-05,0.011883,0.0,0.0,0.0,0.0,0.0,0.0
763960,0.000355,0.002551,0.086342,0.0,0.0,0.0,0.0,0.0,0.087266,3.0,0.310436,0.343107,0.305726,0.340485,-0.0,-5.3e-05,0.078515,-1e-06,2e-05,0.013983,0.0,0.0,0.0,0.0,0.0,0.0
763980,0.000349,0.002429,0.086342,0.0,0.0,0.0,0.0,0.0,0.087266,3.0,0.31088,0.34289,0.305321,0.340662,-0.0,-5.3e-05,0.078898,-0.0,2e-05,0.017168,0.0,0.0,0.0,0.0,0.0,0.0
764000,0.000344,0.002307,0.08622,0.0,0.0,0.0,0.0,0.0,0.087266,3.0,0.3139,0.340406,0.308595,0.337611,-0.0,-5.2e-05,0.079258,0.0,1.9e-05,0.019427,0.0,0.0,0.0,0.0,0.0,0.0
764020,0.0001,0.002317,0.086342,0.0,0.0,0.0,0.0,0.0,0.087266,3.0,0.312705,0.343552,0.302676,0.34064,-0.0,-5.2e-05,0.079558,0.0,1.9e-05,0.020952,0.0,0.0,0.0,0.0,0.0,0.0
764040,-1.7e-05,0.002445,0.086342,0.0,0.0,0.0,0.0,0.0,0.087266,3.0,0.311819,0.342683,0.303593,0.341521,-0.0,-5.2e-05,0.080104,1e-06,1.9e-05,0.02317,0.0,0.0,0.0,0.0,0.0,0.0
764060,-1.7e-05,0.002445,0.086342,0.0,0.0,0.0,0.0,0.0,0.087266,3.0,0.312545,0.342207,0.30358,0.341366,-0.0,-5.1e-05,0.080579,1e-06,1.9e-05,0.024309,0.0,0.0,0.0,0.0,0.0,0.0
764080,-1.1e-05,0.002566,0.086342,0.0,0.0,0.0,0.0,0.0,0.087266,3.0,0.311552,0.341924,0.304672,0.341597,-0.0,-5.1e-05,0.081082,1e-06,1.9e-05,0.02589,0.0,0.0,0.0,0.0,0.0,0.0
764100,0.00011,0.002561,0.086221,0.0,0.0,0.0,0.0,0.0,0.087266,3.0,0.313913,0.339629,0.308628,0.338354,-0.0,-5.1e-05,0.081608,1e-06,1.9e-05,0.026876,0.0,0.0,0.0,0.0,0.0,0.0
764120,-1.1e-05,0.002566,0.086221,0.0,0.0,0.0,0.0,0.0,0.087266,3.0,0.307801,0.344667,0.303232,0.34334,-0.0,-5e-05,0.082014,1e-06,1.9e-05,0.027456,0.0,0.0,0.0,0.0,0.0,0.0
764140,0.000222,0.002312,0.086221,0.0,0.0,0.0,0.0,0.0,0.087266,3.0,0.311394,0.343302,0.305657,0.3395,-0.0,-5e-05,0.082568,2e-06,1.8e-05,0.028026,0.0,0.0,0.0,0.0,0.0,0.0
764160,-2.2e-05,0.002323,0.086221,0.0,0.0,0.0,0.0,0.0,0.087266,3.0,0.312976,0.341961,0.303607,0.341207,-0.0,-4.9e-05,0.083273,2e-06,1.8e-05,0.02842,0.0,0.0,0.0,0.0,0.0,0.0
764180,-2.2e-05,0.002323,0.086221,0.0,0.0,0.0,0.0,0.0,0.087266,3.0,0.310339,0.343739,0.30177,0.343301,-0.0,-4.9e-05,0.083842,2e-06,1.8e-05,0.028494,0.0,0.0,0.0,0.0,0.0,0.0
764200,0.000105,0.002439,0.086099,0.0,0.0,0.0,0.0,0.0,0.087266,3.0,0.311167,0.340978,0.306335,0.341453,-0.0,-4.9e-05,0.084411,2e-06,1.8e-05,0.028365,0.0,0.0,0.0,0.0,0.0,0.0
764220,-1.2e-05,0.002566,0.085978,0.0,0.0,0.0,0.0,0.0,0.087266,3.0,0.312591,0.340243,0.306306,0.340951,-0.0,-4.8e-05,0.084977,2e-06,1.8e-05,0.028045,0.0,0.0,0.0,0.0,0.0,0.0
764240,-1.2e-05,0.002566,0.085978,0.0,0.0,0.0,0.0,0.0,0.087266,3.0,0.309864,0.34308,0.304661,0.341929,-0.0,-4.8e-05,0.085534,2e-06,1.8e-05,0.027547,0.0,0.0,0.0,0.0,0.0,0.0
764260,0.00011,0.002561,0.085856,0.0,0.0,0.0,0.0,0.0,0.087266,3.0,0.310884,0.341506,0.307488,0.340175,-0.0,-4.8e-05,0.08608,2e-06,1.8e-05,0.026883,0.0,0.0,0.0,0.0,0.0,0.0
764280,9.9e-05,0.002317,0.085735,0.0,0.0,0.0,0.0,0.0,0.087266,3.0,0.313087,0.342011,0.306564,0.338506,-0.0,-4.7e-05,0.086612,2e-06,1.8e-05,0.026068,0.0,0.0,0.0,0.0,0.0,0.0
764300,0.000104,0.002439,0.085613,0.0,0.0,0.0,0.0,0.0,0.087266,3.0,0.313644,0.33924,0.307926,0.339602,-0.0,-4.7e-05,0.087126,2e-06,1.7e-05,0.025116,0.0,0.0,0.0,0.0,0.0,0.0
764320,0.000104,0.002439,0.085613,0.0,0.0,0.0,0.0,0.0,0.087266,3.0,0.312751,0.340815,0.305957,0.34054,-0.0,-4.7e-05,0.087621,2e-06,1.7e-05,0.024039,0.0,0.0,0.0,0.0,0.0,0.0
764340,-1.7e-05,0.002445,0.085613,0.0,0.0,0.0,0.0,0.0,0.087266,3.0,0.312468,0.341335,0.306092,0.340153,-0.0,-4.6e-05,0.087977,2e-06,1.7e-05,0.023159,0.0,0.0,0.0,0.0,0.0,0.0
764360,-1.2e-05,0.002567,0.085492,0.0,0.0,0.0,0.0,0.0,0.087266,3.0,0.312413,0.341734,0.304627,0.341063,-0.0,-4.6e-05,0.088431,2e-06,1.7e-05,0.021901,0.0,0.0,0.0,0.0,0.0,0.0
764380,-0.000134,0.002572,0.085476,0.0,0.0,0.0,0.0,0.0,0.087266,3.0,0.31353,0.34094,0.30584,0.339819,-0.0,-4.6e-05,0.088962,2e-06,1.7e-05,0.02021,0.0,0.0,0.0,0.0,0.0,0.0
764400,-0.000135,0.002572,0.085355,0.0,0.0,0.0,0.0,0.0,0.087266,3.0,0.313987,0.34008,0.306852,0.339392,-0.0,-4.5e-05,0.089355,2e-06,1.7e-05,0.01878,0.0,0.0,0.0,0.0,0.0,0.0
764420,-0.000257,0.002577,0.085355,0.0,0.0,0.0,0.0,0.0,0.087266,3.0,0.314219,0.340184,0.305188,0.340522,-0.0,-4.5e-05,0.08972,2e-06,1.7e-05,0.017296,0.0,0.0,0.0,0.0,0.0,0.0
764440,-0.00014,0.00245,0.085355,0.0,0.0,0.0,0.0,0.0,0.087266,3.0,0.313202,0.341188,0.306178,0.339569,-0.0,-4.5e-05,0.090054,2e-06,1.7e-05,0.015771,0.0,0.0,0.0,0.0,0.0,0.0
764460,-1.8e-05,0.002444,0.085354,0.0,0.0,0.0,0.0,0.0,0.087266,3.0,0.31295,0.341014,0.306453,0.339731,-0.0,-4.4e-05,0.090358,2e-06,1.6e-05,0.014219,0.0,0.0,0.0,0.0,0.0,0.0
764480,0.000343,0.002307,0.085354,0.0,0.0,0.0,0.0,0.0,0.087266,3.0,0.311243,0.341565,0.308227,0.33915,-0.0,-4.4e-05,0.090631,2e-06,1.6e-05,0.012651,0.0,0.0,0.0,0.0,0.0,0.0
764500,0.000221,0.002312,0.085476,0.0,0.0,0.0,0.0,0.0,0.087266,3.0,0.31207,0.341556,0.306285,0.340118,-0.0,-4.4e-05,0.090872,1e-06,1.6e-05,0.011079,0.0,0.0,0.0,0.0,0.0,0.0
764520,9.9e-05,0.002317,0.085476,0.0,0.0,0.0,0.0,0.0,0.087266,3.0,0.313076,0.341191,0.305967,0.339862,-0.0,-4.3e-05,0.091082,1e-06,1.6e-05,0.009515,0.0,0.0,0.0,0.0,0.0,0.0
764540,-0.00014,0.00245,0.085492,0.0,0.0,0.0,0.0,0.0,0.087266,3.0,0.312933,0.341055,0.306035,0.340069,-0.0,-4.3e-05,0.091261,1e-06,1.6e-05,0.007968,0.0,0.0,0.0,0.0,0.0,0.0
