time_ms,roll,pitch,yaw,x,y,z,reference_roll,reference_pitch,reference_yaw,reference_throttle,throttle_1,throttle_2,throttle_3,throttle_4,roll_predicted,pitch_predicted,yaw_predicted,roll_rate_predicted,pitch_rate_predicted,yaw_rate_predicted,value1,value2,value3,value4,value5,value6
793880,-0.000367,0.002075,-0.000732,0.0,0.0,0.0,0.0,0.0,0.0,3.0,0.300352,0.350757,0.290129,0.353968,0.0,0.0,0.000292,-0.0,-0.0,-4.9e-05,0.0,0.0,0.0,0.0,0.0,0.0
793900,-0.000245,0.001831,-0.000732,0.0,0.0,0.0,0.0,0.0,0.0,3.0,0.299941,0.353152,0.288591,0.353085,0.0,0.0,0.000291,-0.0,-0.0,-4.9e-05,0.0,0.0,0.0,0.0,0.0,0.0
793920,-0.000245,0.001831,-0.000732,0.0,0.0,0.0,0.0,0.0,0.0,3.0,0.300119,0.352424,0.289133,0.353259,0.0,0.0,0.00029,-0.0,-0.0,-4.9e-05,0.0,0.0,0.0,0.0,0.0,0.0
793940,-0.000123,0.001709,-0.00061,0.0,0.0,0.0,0.0,0.0,0.0,3.0,0.297506,0.35528,0.28493,0.355629,0.0,0.0,0.00029,-0.0,-0.0,-4.9e-05,0.0,0.0,0.0,0.0,0.0,0.0
793960,-0.000245,0.001709,-0.000488,0.0,0.0,0.0,0.0,0.0,0.0,3.0,0.29735,0.353327,0.288016,0.3554,0.0,0.0,0.000289,-0.0,-0.0,-4.9e-05,0.0,0.0,0.0,0.0,0.0,0.0
793980,-0.000245,0.001709,-0.000488,0.0,0.0,0.0,0.0,0.0,0.0,3.0,0.302918,0.351018,0.288051,0.35322,0.0,0.0,0.000288,-0.0,-0.0,-4.8e-05,0.0,0.0,0.0,0.0,0.0,0.0
794000,-0.000367,0.001831,-0.000488,0.0,0.0,0.0,0.0,0.0,0.0,3.0,0.299906,0.352487,0.287958,0.354255,0.0,0.0,0.000287,-0.0,-0.0,-4.8e-05,0.0,0.0,0.0,0.0,0.0,0.0
794020,-0.000367,0.001709,-0.000366,0.0,0.0,0.0,0.0,0.0,0.0,3.0,0.300528,0.352801,0.287944,0.353455,0.0,0.0,0.000286,-0.0,-0.0,-4.8e-05,0.0,0.0,0.0,0.0,0.0,0.0
794040,-0.000366,0.001831,-0.000244,0.0,0.0,0.0,0.0,0.0,0.0,3.0,0.299449,0.35224,0.287914,0.354897,0.0,0.0,0.000285,-0.0,-0.0,-4.8e-05,0.0,0.0,0.0,0.0,0.0,0.0
794060,-0.000244,0.001953,-0.000244,0.0,0.0,0.0,0.0,0.0,0.0,3.0,0.296233,0.353505,0.285895,0.357669,0.0,0.0,0.000284,-0.0,-0.0,-4.8e-05,0.0,0.0,0.0,0.0,0.0,0.0
794080,-0.000244,0.001953,-0.000244,0.0,0.0,0.0,0.0,0.0,0.0,3.0,0.299896,0.351831,0.287512,0.355248,0.0,0.0,0.000283,-0.0,-0.0,-4.8e-05,0.0,0.0,0.0,0.0,0.0,0.0
794100,-0.000244,0.002075,-0.000244,0.0,0.0,0.0,0.0,0.0,0.0,3.0,0.29861,0.352225,0.28717,0.356131,0.0,0.0,0.000282,-0.0,-0.0,-4.8e-05,0.0,0.0,0.0,0.0,0.0,0.0
794120,-0.000122,0.002319,-0.000122,0.0,0.0,0.0,0.0,0.0,0.0,3.0,0.29948,0.351384,0.286992,0.356405,0.0,0.0,0.000281,-0.0,-0.0,-4.7e-05,0.0,0.0,0.0,0.0,0.0,0.0
794140,-0.000244,0.002442,0.0,0.0,0.0,0.0,0.0,0.0,0.0,3.0,0.296738,0.353835,0.283715,0.358547,0.0,0.0,0.00028,-0.0,-0.0,-4.7e-05,0.0,0.0,0.0,0.0,0.0,0.0
794160,-0.000244,0.002564,0.0,0.0,0.0,0.0,0.0,0.0,0.0,3.0,0.300732,0.351653,0.285766,0.356058,0.0,0.0,0.000279,-0.0,-0.0,-4.7e-05,0.0,0.0,0.0,0.0,0.0,0.0
794180,-0.000366,0.002808,1e-06,0.0,0.0,0.0,0.0,0.0,0.0,3.0,0.301808,0.349793,0.289963,0.353876,0.0,0.0,0.000278,-0.0,-0.0,-4.7e-05,0.0,0.0,0.0,0.0,0.0,0.0
794200,-0.000366,0.002808,0.000123,0.0,0.0,0.0,0.0,0.0,0.0,3.0,0.299328,0.351687,0.285937,0.357008,0.0,0.0,0.000277,-0.0,-0.0,-4.7e-05,0.0,0.0,0.0,0.0,0.0,0.0
794220,-0.000366,0.003174,0.000123,0.0,0.0,0.0,0.0,0.0,0.0,3.0,0.297134,0.352994,0.284541,0.358465,0.0,0.0,0.000276,-0.0,-0.0,-4.7e-05,0.0,0.0,0.0,0.0,0.0,0.0
794240,-0.000244,0.003174,0.000122,0.0,0.0,0.0,0.0,0.0,0.0,3.0,0.303639,0.34892,0.289349,0.35372,0.0,0.0,0.000275,-0.0,-0.0,-4.7e-05,0.0,0.0,0.0,0.0,0.0,0.0
794260,-0.000244,0.003296,0.0,0.0,0.0,0.0,0.0,0.0,0.0,3.0,0.302775,0.349318,0.290161,0.353412,0.0,0.0,0.000274,-0.0,-0.0,-4.7e-05,0.0,0.0,0.0,0.0,0.0,0.0
794280,-0.000122,0.003418,0.0,0.0,0.0,0.0,0.0,0.0,0.0,3.0,0.29803,0.351659,0.287402,0.35697,0.0,0.0,0.000273,-0.0,-0.0,-4.6e-05,0.0,0.0,0.0,0.0,0.0,0.0
794300,0.0,0.003662,0.000122,0.0,0.0,0.0,0.0,0.0,0.0,3.0,0.299268,0.351243,0.284766,0.358349,0.0,0.0,0.000272,-0.0,-0.0,-4.6e-05,0.0,0.0,0.0,0.0,0.0,0.0
794320,0.0,0.003662,0.000122,0.0,0.0,0.0,0.0,0.0,0.0,3.0,0.299497,0.351375,0.286947,0.356434,0.0,0.0,0.000271,-0.0,-0.0,-4.6e-05,0.0,0.0,0.0,0.0,0.0,0.0
794340,0.0,0.003784,0.000122,0.0,0.0,0.0,0.0,0.0,0.0,3.0,0.30293,0.349373,0.29041,0.353042,0.0,0.0,0.000271,-0.0,-0.0,-4.6e-05,0.0,0.0,0.0,0.0,0.0,0.0
794360,-0.000122,0.003906,0.000122,0.0,0.0,0.0,0.0,0.0,0.0,3.0,0.300616,0.352074,0.285479,0.355948,0.0,0.0,0.00027,-0.0,-0.0,-4.6e-05,0.0,0.0,0.0,0.0,0.0,0.0
794380,-0.000122,0.003906,0.000122,0.0,0.0,0.0,0.0,0.0,0.0,3.0,0.299546,0.352488,0.285354,0.356479,0.0,0.0,0.000269,-0.0,-0.0,-4.6e-05,0.0,0.0,0.0,0.0,0.0,0.0
794400,-0.000244,0.004151,0.000123,0.0,0.0,0.0,0.0,0.0,0.0,3.0,0.299207,0.352621,0.28564,0.356405,0.0,0.0,0.000268,-0.0,-0.0,-4.6e-05,0.0,0.0,0.0,0.0,0.0,0.0
794420,0.0,0.004029,-0.0,0.0,0.0,0.0,0.0,0.0,0.0,3.0,0.300522,0.350727,0.28795,0.355508,0.0,0.0,0.000267,-0.0,-0.0,-4.6e-05,0.0,0.0,0.0,0.0,0.0,0.0
794440,-0.000122,0.004151,0.0,0.0,0.0,0.0,0.0,0.0,0.0,3.0,0.300358,0.351686,0.286673,0.35565,0.0,0.0,0.000266,-0.0,-0.0,-4.6e-05,0.0,0.0,0.0,0.0,0.0,0.0
794460,0.000122,0.004029,-0.0,0.0,0.0,0.0,0.0,0.0,0.0,3.0,0.298449,0.351128,0.288625,0.356248,0.0,0.0,0.000265,-0.0,-0.0,-4.5e-05,0.0,0.0,0.0,0.0,0.0,0.0
794480,0.000122,0.004273,-0.0,0.0,0.0,0.0,0.0,0.0,0.0,3.0,0.299972,0.350163,0.286993,0.35721,0.0,0.0,0.000264,-0.0,-0.0,-4.5e-05,0.0,0.0,0.0,0.0,0.0,0.0
794500,0.000244,0.004151,-1e-06,0.0,0.0,0.0,0.0,0.0,0.0,3.0,0.298913,0.351581,0.288126,0.355812,0.0,0.0,0.000263,-0.0,-0.0,-4.5e-05,0.0,0.0,0.0,0.0,0.0,0.0
794520,0.000244,0.004273,-0.000123,0.0,0.0,0.0,0.0,0.0,0.0,3.0,0.303214,0.34783,0.290504,0.354253,0.0,0.0,0.000262,-0.0,-0.0,-4.5e-05,0.0,0.0,0.0,0.0,0.0,0.0
794540,0.000244,0.004395,-0.000123,0.0,0.0,0.0,0.0,0.0,0.0,3.0,0.302701,0.348628,0.289826,0.354404,0.0,0.0,0.000261,-0.0,-0.0,-4.5e-05,0.0,0.0,0.0,0.0,0.0,0.0
794560,0.000244,0.004273,-0.000123,0.0,0.0,0.0,0.0,0.0,0.0,3.0,0.300352,0.350073,0.287322,0.356752,0.0,0.0,0.000261,-0.0,-0.0,-4.5e-05,0.0,0.0,0.0,0.0,0.0,0.0
794580,0.000244,0.004517,-0.000245,0.0,0.0,0.0,0.0,0.0,0.0,3.0,0.301167,0.349378,0.288188,0.356138,0.0,0.0,0.00026,-0.0,-0.0,-4.5e-05,0.0,0.0,0.0,0.0,0.0,0.0
794600,0.000365,0.004273,-0.000367,0.0,0.0,0.0,0.0,0.0,0.0,3.0,0.302566,0.347722,0.29209,0.353668,0.0,0.0,0.000259,-0.0,-0.0,-4.5e-05,0.0,0.0,0.0,0.0,0.0,0.0
794620,0.000243,0.004395,-0.000367,0.0,0.0,0.0,0.0,0.0,0.0,3.0,0.302949,0.34876,0.290363,0.353666,0.0,0.0,0.000258,-0.0,-0.0,-4.4e-05,0.0,0.0,0.0,0.0,0.0,0.0
794640,0.000365,0.004151,-0.000489,0.0,0.0,0.0,0.0,0.0,0.0,3.0,0.300524,0.350706,0.287946,0.355531,0.0,0.0,0.000257,-0.0,-0.0,-4.4e-05,0.0,0.0,0.0,0.0,0.0,0.0
794660,0.000365,0.004273,-0.000489,0.0,0.0,0.0,0.0,0.0,0.0,3.0,0.299936,0.349463,0.289488,0.356055,0.0,0.0,0.000256,-0.0,-0.0,-4.4e-05,0.0,0.0,0.0,0.0,0.0,0.0
794680,0.000365,0.004151,-0.000611,0.0,0.0,0.0,0.0,0.0,0.0,3.0,0.301377,0.350279,0.290843,0.353072,0.0,0.0,0.000255,-0.0,-0.0,-4.4e-05,0.0,0.0,0.0,0.0,0.0,0.0
794700,0.000365,0.004029,-0.000611,0.0,0.0,0.0,0.0,0.0,0.0,3.0,0.303365,0.348701,0.290515,0.35327,0.0,0.0,0.000254,-0.0,-0.0,-4.4e-05,0.0,0.0,0.0,0.0,0.0,0.0
794720,0.000365,0.004029,-0.000611,0.0,0.0,0.0,0.0,0.0,0.0,3.0,0.301042,0.351313,0.288193,0.354333,0.0,0.0,0.000253,-0.0,-0.0,-4.4e-05,0.0,0.0,0.0,0.0,0.0,0.0
794740,0.000487,0.003907,-0.000611,0.0,0.0,0.0,0.0,0.0,0.0,3.0,0.3009,0.349755,0.288051,0.356084,0.0,0.0,0.000253,-0.0,-0.0,-4.4e-05,0.0,0.0,0.0,0.0,0.0,0.0
794760,0.000365,0.004151,-0.000733,0.0,0.0,0.0,0.0,0.0,0.0,3.0,0.299136,0.351844,0.286611,0.356507,0.0,0.0,0.000252,-0.0,-0.0,-4.3e-05,0.0,0.0,0.0,0.0,0.0,0.0
794780,0.000487,0.003907,-0.000734,0.0,0.0,0.0,0.0,0.0,0.0,3.0,0.303473,0.347513,0.291224,0.353803,0.0,0.0,0.000251,-0.0,-0.0,-4.3e-05,0.0,0.0,0.0,0.0,0.0,0.0
794800,0.000487,0.004029,-0.000734,0.0,0.0,0.0,0.0,0.0,0.0,3.0,0.30021,0.352006,0.287483,0.354846,0.0,0.0,0.00025,-0.0,-0.0,-4.3e-05,0.0,0.0,0.0,0.0,0.0,0.0
794820,0.000487,0.003907,-0.000611,0.0,0.0,0.0,0.0,0.0,0.0,3.0,0.300408,0.350904,0.287677,0.35563,0.0,0.0,0.000249,-0.0,-0.0,-4.3e-05,0.0,0.0,0.0,0.0,0.0,0.0
794840,0.000487,0.004029,-0.000611,0.0,0.0,0.0,0.0,0.0,0.0,3.0,0.300476,0.350294,0.288465,0.355585,0.0,0.0,0.000248,-0.0,-0.0,-4.3e-05,0.0,0.0,0.0,0.0,0.0,0.0
794860,0.000365,0.004151,-0.000611,0.0,0.0,0.0,0.0,0.0,0.0,3.0,0.301226,0.350088,0.287717,0.355749,0.0,0.0,0.000247,-0.0,-0.0,-4.3e-05,0.0,0.0,0.0,0.0,0.0,0.0
794880,0.000365,0.004273,-0.000611,0.0,0.0,0.0,0.0,0.0,0.0,3.0,0.301838,0.350324,0.288721,0.354272,0.0,0.0,0.000247,-0.0,-0.0,-4.2e-05,0.0,0.0,0.0,0.0,0.0,0.0
794900,0.000243,0.004273,-0.000611,0.0,0.0,0.0,0.0,0.0,0.0,3.0,0.300611,0.351797,0.286437,0.355515,0.0,0.0,0.000246,-0.0,-0.0,-4.2e-05,0.0,0.0,0.0,0.0,0.0,0.0
794920,0.000243,0.004395,-0.000611,0.0,0.0,0.0,0.0,0.0,0.0,3.0,0.300426,0.351807,0.285603,0.35627,0.0,0.0,0.000245,-0.0,-0.0,-4.2e-05,0.0,0.0,0.0,0.0,0.0,0.0
794940,0.000121,0.004517,-0.000611,0.0,0.0,0.0,0.0,0.0,0.0,3.0,0.301343,0.349675,0.288285,0.355633,0.0,0.0,0.000244,-0.0,-0.0,-4.2e-05,0.0,0.0,0.0,0.0,0.0,0.0
794960,0.000243,0.004639,-0.000611,0.0,0.0,0.0,0.0,0.0,0.0,3.0,0.300869,0.349808,0.288177,0.355963,0.0,0.0,0.000243,-0.0,-0.0,-4.2e-05,0.0,0.0,0.0,0.0,0.0,0.0
794980,0.000487,0.004883,-0.000734,0.0,0.0,0.0,0.0,0.0,0.0,3.0,0.300035,0.350911,0.289038,0.354897,0.0,0.0,0.000242,-0.0,-0.0,-4.2e-05,0.0,0.0,0.0,0.0,0.0,0.0
795000,0.000487,0.004883,-0.000734,0.0,0.0,0.0,0.0,0.0,0.0,3.0,0.300082,0.350519,0.288167,0.3559,0.0,0.0,0.000242,-0.0,-0.0,-4.2e-05,0.0,0.0,0.0,0.0,0.0,0.0
795020,0.000609,0.00525,-0.000612,0.0,0.0,0.0,0.0,0.0,0.0,3.0,0.297883,0.351609,0.285483,0.358549,0.0,0.0,0.000241,-0.0,-0.0,-4.1e-05,0.0,0.0,0.0,0.0,0.0,0.0
795040,0.000486,0.005494,-0.000734,0.0,0.0,0.0,0.0,0.0,0.0,3.0,0.302883,0.348063,0.289327,0.355187,0.0,0.0,0.00024,-0.0,-0.0,-4.1e-05,0.0,0.0,0.0,0.0,0.0,0.0
795060,0.000608,0.00586,-0.000734,0.0,0.0,0.0,0.0,0.0,0.0,3.0,0.303282,0.347768,0.29109,0.353811,0.0,0.0,0.000239,-0.0,-0.0,-4.1e-05,0.0,0.0,0.0,0.0,0.0,0.0
795080,0.000486,0.005982,-0.000734,0.0,0.0,0.0,0.0,0.0,0.0,3.0,0.302675,0.347887,0.290248,0.354828,0.0,0.0,0.000238,-0.0,-0.0,-4.1e-05,0.0,0.0,0.0,0.0,0.0,0.0
795100,0.000608,0.006226,-0.000734,0.0,0.0,0.0,0.0,0.0,0.0,3.0,0.300962,0.349329,0.288711,0.355956,0.0,0.0,0.000237,-0.0,-0.0,-4.1e-05,0.0,0.0,0.0,0.0,0.0,0.0
795120,0.000608,0.006348,-0.000857,0.0,0.0,0.0,0.0,0.0,0.0,3.0,0.301618,0.348237,0.289848,0.355639,0.0,0.0,0.000237,-0.0,-0.0,-4.1e-05,0.0,0.0,0.0,0.0,0.0,0.0
795140,0.00073,0.00647,-0.000857,0.0,0.0,0.0,0.0,0.0,0.0,3.0,0.300413,0.34847,0.289596,0.356563,0.0,0.0,0.000236,-0.0,-0.0,-4e-05,0.0,0.0,0.0,0.0,0.0,0.0
795160,0.00073,0.006592,-0.000857,0.0,0.0,0.0,0.0,0.0,0.0,3.0,0.300881,0.349484,0.289001,0.355651,0.0,0.0,0.000235,-0.0,-0.0,-4e-05,0.0,0.0,0.0,0.0,0.0,0.0
795180,0.000852,0.006593,-0.000857,0.0,0.0,0.0,0.0,0.0,0.0,3.0,0.298148,0.351821,0.284876,0.35858,0.0,0.0,0.000234,-0.0,-0.0,-4e-05,0.0,0.0,0.0,0.0,0.0,0.0
795200,0.000852,0.006837,-0.000858,0.0,0.0,0.0,0.0,0.0,0.0,3.0,0.300947,0.349017,0.289356,0.355787,0.0,0.0,0.000233,-0.0,-0.0,-4e-05,0.0,0.0,0.0,0.0,0.0,0.0
795220,0.000852,0.006959,-0.000858,0.0,0.0,0.0,0.0,0.0,0.0,3.0,0.300531,0.348047,0.28943,0.357004,0.0,0.0,0.000233,-0.0,-0.0,-4e-05,0.0,0.0,0.0,0.0,0.0,0.0
795240,0.000973,0.007203,-0.00098,0.0,0.0,0.0,0.0,0.0,0.0,3.0,0.300644,0.34893,0.28929,0.356163,0.0,0.0,0.000232,-0.0,-0.0,-4e-05,0.0,0.0,0.0,0.0,0.0,0.0
795260,0.000973,0.007325,-0.00098,0.0,0.0,0.0,0.0,0.0,0.0,3.0,0.299796,0.348847,0.289384,0.356844,0.0,0.0,0.000231,-0.0,-0.0,-4e-05,0.0,0.0,0.0,0.0,0.0,0.0
795280,0.001218,0.007569,-0.000859,0.0,0.0,0.0,0.0,0.0,0.0,3.0,0.299042,0.348583,0.2885,0.358354,0.0,0.0,0.00023,-0.0,-0.0,-3.9e-05,0.0,0.0,0.0,0.0,0.0,0.0
795300,0.001217,0.007691,-0.000859,0.0,0.0,0.0,0.0,0.0,0.0,3.0,0.297895,0.349677,0.287136,0.3592,0.0,0.0,0.000229,-0.0,-0.0,-3.9e-05,0.0,0.0,0.0,0.0,0.0,0.0
795320,0.001462,0.007814,-0.00086,0.0,0.0,0.0,0.0,0.0,0.0,3.0,0.29997,0.349668,0.289728,0.355648,0.0,0.0,0.000229,-0.0,-0.0,-3.9e-05,0.0,0.0,0.0,0.0,0.0,0.0
795340,0.001462,0.007814,-0.00086,0.0,0.0,0.0,0.0,0.0,0.0,3.0,0.299909,0.348429,0.290108,0.356615,0.0,0.0,0.000228,-0.0,-0.0,-3.9e-05,0.0,0.0,0.0,0.0,0.0,0.0
795360,0.001462,0.007936,-0.00086,0.0,0.0,0.0,0.0,0.0,0.0,3.0,0.298149,0.351424,0.284957,0.358908,0.0,0.0,0.000227,-0.0,-0.0,-3.9e-05,0.0,0.0,0.0,0.0,0.0,0.0
795380,0.00134,0.008058,-0.000738,0.0,0.0,0.0,0.0,0.0,0.0,3.0,0.298037,0.349617,0.28552,0.360331,0.0,0.0,0.000226,-0.0,-0.0,-3.9e-05,0.0,0.0,0.0,0.0,0.0,0.0
795400,0.001339,0.00818,-0.00086,0.0,0.0,0.0,0.0,0.0,0.0,3.0,0.30165,0.347994,0.289542,0.356081,0.0,0.0,0.000226,-0.0,-0.0,-3.9e-05,0.0,0.0,0.0,0.0,0.0,0.0
795420,0.001339,0.00818,-0.00086,0.0,0.0,0.0,0.0,0.0,0.0,3.0,0.302261,0.347611,0.289355,0.356105,0.0,0.0,0.000225,-0.0,-0.0,-3.8e-05,0.0,0.0,0.0,0.0,0.0,0.0
795440,0.001583,0.00818,-0.000861,0.0,0.0,0.0,0.0,0.0,0.0,3.0,0.29891,0.350839,0.287634,0.356911,0.0,0.0,0.000224,-0.0,-0.0,-3.8e-05,0.0,0.0,0.0,0.0,0.0,0.0
795460,0.001706,0.008302,-0.00074,0.0,0.0,0.0,0.0,0.0,0.0,3.0,0.296999,0.351016,0.286886,0.358781,0.0,0.0,0.000223,-0.0,-0.0,-3.8e-05,0.0,0.0,0.0,0.0,0.0,0.0
795480,0.00195,0.008302,-0.000863,0.0,0.0,0.0,0.0,0.0,0.0,3.0,0.300067,0.34824,0.291291,0.355777,0.0,0.0,0.000222,-0.0,-0.0,-3.8e-05,0.0,0.0,0.0,0.0,0.0,0.0
795500,0.002194,0.008546,-0.000864,0.0,0.0,0.0,0.0,0.0,0.0,3.0,0.299588,0.347329,0.292264,0.356298,0.0,0.0,0.000222,-0.0,-0.0,-3.8e-05,0.0,0.0,0.0,0.0,0.0,0.0
795520,0.002316,0.008546,-0.000865,0.0,0.0,0.0,0.0,0.0,0.0,3.0,0.301081,0.348087,0.292334,0.354321,0.0,0.0,0.000221,-0.0,-0.0,-3.8e-05,0.0,0.0,0.0,0.0,0.0,0.0
795540,0.002316,0.008913,-0.000865,0.0,0.0,0.0,0.0,0.0,0.0,3.0,0.297662,0.350857,0.285786,0.35923,0.0,0.0,0.00022,-0.0,-0.0,-3.8e-05,0.0,0.0,0.0,0.0,0.0,0.0
795560,0.002316,0.009157,-0.000865,0.0,0.0,0.0,0.0,0.0,0.0,3.0,0.300897,0.347069,0.289596,0.357533,0.0,0.0,0.000219,-0.0,-0.0,-3.7e-05,0.0,0.0,0.0,0.0,0.0,0.0
795580,0.002193,0.009523,-0.000865,0.0,0.0,0.0,0.0,0.0,0.0,3.0,0.304021,0.346077,0.292778,0.353559,0.0,0.0,0.000219,-0.0,-0.0,-3.7e-05,0.0,0.0,0.0,0.0,0.0,0.0
795600,0.002193,0.009645,-0.000987,0.0,0.0,0.0,0.0,0.0,0.0,3.0,0.304149,0.345551,0.292221,0.354394,0.0,0.0,0.000218,-0.0,-0.0,-3.7e-05,0.0,0.0,0.0,0.0,0.0,0.0
795620,0.002315,0.009889,-0.000988,0.0,0.0,0.0,0.0,0.0,0.0,3.0,0.300458,0.34846,0.290443,0.355897,0.0,0.0,0.000217,-0.0,-0.0,-3.7e-05,0.0,0.0,0.0,0.0,0.0,0.0
795640,0.002437,0.009889,-0.000989,0.0,0.0,0.0,0.0,0.0,0.0,3.0,0.301398,0.347229,0.291125,0.355825,0.0,0.0,0.000216,-0.0,-0.0,-3.7e-05,0.0,0.0,0.0,0.0,0.0,0.0
795660,0.002803,0.010134,-0.000991,0.0,0.0,0.0,0.0,0.0,0.0,3.0,0.300907,0.346651,0.292565,0.355677,0.0,0.0,0.000216,-0.0,-0.0,-3.7e-05,0.0,0.0,0.0,0.0,0.0,0.0
795680,0.002925,0.010256,-0.000992,0.0,0.0,0.0,0.0,0.0,0.0,3.0,0.299686,0.347815,0.290264,0.357269,0.0,0.0,0.000215,-0.0,-0.0,-3.7e-05,0.0,0.0,0.0,0.0,0.0,0.0
795700,0.003169,0.0105,-0.000993,0.0,0.0,0.0,0.0,0.0,0.0,3.0,0.300084,0.34828,0.29046,0.356356,0.0,0.0,0.000214,-0.0,-0.0,-3.7e-05,0.0,0.0,0.0,0.0,0.0,0.0
795720,0.003291,0.010622,-0.000994,0.0,0.0,0.0,0.0,0.0,0.0,3.0,0.300998,0.346236,0.289541,0.358292,0.0,0.0,0.000214,-0.0,-0.0,-3.7e-05,0.0,0.0,0.0,0.0,0.0,0.0
795740,0.003169,0.010866,-0.000994,0.0,0.0,0.0,0.0,0.0,0.0,3.0,0.300455,0.346713,0.290138,0.357817,0.0,0.0,0.000213,-0.0,-0.0,-3.6e-05,0.0,0.0,0.0,0.0,0.0,0.0
795760,0.003169,0.010866,-0.000994,0.0,0.0,0.0,0.0,0.0,0.0,3.0,0.301558,0.346801,0.288946,0.357752,0.0,0.0,0.000212,-0.0,-0.0,-3.6e-05,0.0,0.0,0.0,0.0,0.0,0.0
795780,0.003168,0.010744,-0.001116,0.0,0.0,0.0,0.0,0.0,0.0,3.0,0.305061,0.3456,0.292108,0.35369,0.0,0.0,0.000211,-0.0,-0.0,-3.6e-05,0.0,0.0,0.0,0.0,0.0,0.0
795800,0.003046,0.010744,-0.001115,0.0,0.0,0.0,0.0,0.0,0.0,3.0,0.301541,0.346881,0.289796,0.357051,0.0,0.0,0.000211,-0.0,-0.0,-3.6e-05,0.0,0.0,0.0,0.0,0.0,0.0
795820,0.003046,0.010866,-0.001115,0.0,0.0,0.0,0.0,0.0,0.0,3.0,0.301191,0.346102,0.289811,0.358066,0.0,0.0,0.00021,-0.0,-0.0,-3.6e-05,0.0,0.0,0.0,0.0,0.0,0.0
795840,0.003169,0.010988,-0.000994,0.0,0.0,0.0,0.0,0.0,0.0,3.0,0.300029,0.346698,0.291049,0.357481,0.0,0.0,0.000209,-0.0,-0.0,-3.6e-05,0.0,0.0,0.0,0.0,0.0,0.0
795860,0.003168,0.01111,-0.000994,0.0,0.0,0.0,0.0,0.0,0.0,3.0,0.29932,0.346796,0.290604,0.358279,0.0,0.0,0.000208,-0.0,-0.0,-3.6e-05,0.0,0.0,0.0,0.0,0.0,0.0
795880,0.003291,0.011111,-0.000995,0.0,0.0,0.0,0.0,0.0,0.0,3.0,0.302407,0.344711,0.292985,0.356023,0.0,0.0,0.000208,-0.0,-0.0,-3.6e-05,0.0,0.0,0.0,0.0,0.0,0.0
795900,0.003291,0.01111,-0.000873,0.0,0.0,0.0,0.0,0.0,0.0,3.0,0.298057,0.34752,0.28941,0.359464,0.0,0.0,0.000207,-0.0,-0.0,-3.5e-05,0.0,0.0,0.0,0.0,0.0,0.0
795920,0.003413,0.011233,-0.000996,0.0,0.0,0.0,0.0,0.0,0.0,3.0,0.299926,0.346213,0.292262,0.357109,0.0,0.0,0.000206,-0.0,-0.0,-3.5e-05,0.0,0.0,0.0,0.0,0.0,0.0
795940,0.003413,0.011233,-0.000996,0.0,0.0,0.0,0.0,0.0,0.0,3.0,0.30423,0.343403,0.294829,0.354381,0.0,0.0,0.000206,-0.0,-0.0,-3.5e-05,0.0,0.0,0.0,0.0,0.0,0.0
795960,0.003291,0.010988,-0.000995,0.0,0.0,0.0,0.0,0.0,0.0,3.0,0.300807,0.346121,0.292853,0.356048,0.0,0.0,0.000205,-0.0,-0.0,-3.5e-05,0.0,0.0,0.0,0.0,0.0,0.0
795980,0.003169,0.010988,-0.000994,0.0,0.0,0.0,0.0,0.0,0.0,3.0,0.301723,0.345888,0.292367,0.355913,0.0,0.0,0.000204,-0.0,-0.0,-3.5e-05,0.0,0.0,0.0,0.0,0.0,0.0
796000,0.003169,0.010866,-0.000994,0.0,0.0,0.0,0.0,0.0,0.0,3.0,0.299146,0.347506,0.291889,0.356762,0.0,0.0,0.000204,-0.0,-0.0,-3.5e-05,0.0,0.0,0.0,0.0,0.0,0.0
796020,0.003169,0.010744,-0.000994,0.0,0.0,0.0,0.0,0.0,0.0,3.0,0.300906,0.346342,0.291458,0.35682,0.0,0.0,0.000203,-0.0,-0.0,-3.5e-05,0.0,0.0,0.0,0.0,0.0,0.0
796040,0.003291,0.010622,-0.000994,0.0,0.0,0.0,0.0,0.0,0.0,3.0,0.301822,0.345688,0.293835,0.354899,0.0,0.0,0.000202,-0.0,-0.0,-3.5e-05,0.0,0.0,0.0,0.0,0.0,0.0
796060,0.003414,0.0105,-0.000873,0.0,0.0,0.0,0.0,0.0,0.0,3.0,0.298518,0.348383,0.290644,0.357351,0.0,0.0,0.000201,-0.0,-0.0,-3.5e-05,0.0,0.0,0.0,0.0,0.0,0.0
796080,0.003658,0.0105,-0.000874,0.0,0.0,0.0,0.0,0.0,0.0,3.0,0.299045,0.347436,0.291343,0.357323,0.0,0.0,0.000201,-0.0,-0.0,-3.4e-05,0.0,0.0,0.0,0.0,0.0,0.0
796100,0.003658,0.010378,-0.000874,0.0,0.0,0.0,0.0,0.0,0.0,3.0,0.304091,0.344947,0.292939,0.354472,0.0,0.0,0.0002,-0.0,-0.0,-3.4e-05,0.0,0.0,0.0,0.0,0.0,0.0
796120,0.003535,0.010378,-0.000995,0.0,0.0,0.0,0.0,0.0,0.0,3.0,0.303738,0.346056,0.292917,0.353704,0.0,0.0,0.000199,-0.0,-0.0,-3.4e-05,0.0,0.0,0.0,0.0,0.0,0.0
796140,0.003535,0.010256,-0.000995,0.0,0.0,0.0,0.0,0.0,0.0,3.0,0.302166,0.34672,0.292152,0.354919,0.0,0.0,0.000199,-0.0,-0.0,-3.4e-05,0.0,0.0,0.0,0.0,0.0,0.0
796160,0.003535,0.010256,-0.000995,0.0,0.0,0.0,0.0,0.0,0.0,3.0,0.301118,0.34819,0.289847,0.356085,0.0,0.0,0.000198,-0.0,-0.0,-3.4e-05,0.0,0.0,0.0,0.0,0.0,0.0
796180,0.003657,0.010134,-0.000995,0.0,0.0,0.0,0.0,0.0,0.0,3.0,0.300049,0.347464,0.290806,0.356911,0.0,0.0,0.000197,-0.0,-0.0,-3.4e-05,0.0,0.0,0.0,0.0,0.0,0.0
796200,0.003779,0.010012,-0.000996,0.0,0.0,0.0,0.0,0.0,0.0,3.0,0.299375,0.348286,0.291514,0.356111,0.0,0.0,0.000197,-0.0,-0.0,-3.4e-05,0.0,0.0,0.0,0.0,0.0,0.0
796220,0.003901,0.010012,-0.000996,0.0,0.0,0.0,0.0,0.0,0.0,3.0,0.30084,0.345239,0.293254,0.356561,0.0,0.0,0.000196,-0.0,-0.0,-3.4e-05,0.0,0.0,0.0,0.0,0.0,0.0
796240,0.004024,0.010012,-0.000997,0.0,0.0,0.0,0.0,0.0,0.0,3.0,0.299311,0.346543,0.291829,0.357604,0.0,0.0,0.000195,-0.0,-0.0,-3.3e-05,0.0,0.0,0.0,0.0,0.0,0.0
796260,0.004146,0.010012,-0.000998,0.0,0.0,0.0,0.0,0.0,0.0,3.0,0.299156,0.346155,0.291819,0.358105,0.0,0.0,0.000195,-0.0,-0.0,-3.3e-05,0.0,0.0,0.0,0.0,0.0,0.0
796280,0.004267,0.010013,-0.00112,0.0,0.0,0.0,0.0,0.0,0.0,3.0,0.302367,0.34435,0.295281,0.354627,0.0,0.0,0.000194,-0.0,-0.0,-3.3e-05,0.0,0.0,0.0,0.0,0.0,0.0
796300,0.004145,0.010013,-0.00112,0.0,0.0,0.0,0.0,0.0,0.0,3.0,0.301201,0.343044,0.295344,0.356759,0.0,0.0,0.000193,-0.0,-0.0,-3.3e-05,0.0,0.0,0.0,0.0,0.0,0.0
796320,0.004145,0.010135,-0.00112,0.0,0.0,0.0,0.0,0.0,0.0,3.0,0.298785,0.346019,0.292955,0.357663,0.0,0.0,0.000193,-0.0,-0.0,-3.3e-05,0.0,0.0,0.0,0.0,0.0,0.0
796340,0.004023,0.010257,-0.001119,0.0,0.0,0.0,0.0,0.0,0.0,3.0,0.299788,0.34462,0.29161,0.359229,0.0,0.0,0.000192,-0.0,-0.0,-3.3e-05,0.0,0.0,0.0,0.0,0.0,0.0
796360,0.004144,0.010135,-0.001242,0.0,0.0,0.0,0.0,0.0,0.0,3.0,0.3013,0.34534,0.293615,0.355821,0.0,0.0,0.000191,-0.0,-0.0,-3.3e-05,0.0,0.0,0.0,0.0,0.0,0.0
796380,0.004144,0.010013,-0.001242,0.0,0.0,0.0,0.0,0.0,0.0,3.0,0.300393,0.343597,0.294816,0.357281,0.0,0.0,0.000191,-0.0,-0.0,-3.3e-05,0.0,0.0,0.0,0.0,0.0,0.0
796400,0.004267,0.010135,-0.00112,0.0,0.0,0.0,0.0,0.0,0.0,3.0,0.296805,0.347378,0.291707,0.358849,0.0,0.0,0.00019,-0.0,-0.0,-3.3e-05,0.0,0.0,0.0,0.0,0.0,0.0
796420,0.004389,0.010135,-0.001121,0.0,0.0,0.0,0.0,0.0,0.0,3.0,0.298477,0.346001,0.291193,0.359253,0.0,0.0,0.000189,-0.0,-0.0,-3.2e-05,0.0,0.0,0.0,0.0,0.0,0.0
796440,0.004389,0.010257,-0.001121,0.0,0.0,0.0,0.0,0.0,0.0,3.0,0.300026,0.346338,0.291255,0.357672,0.0,0.0,0.000189,-0.0,-0.0,-3.2e-05,0.0,0.0,0.0,0.0,0.0,0.0
796460,0.004512,0.010379,-0.001,0.0,0.0,0.0,0.0,0.0,0.0,3.0,0.300003,0.344753,0.294664,0.356606,0.0,0.0,0.000188,-0.0,-0.0,-3.2e-05,0.0,0.0,0.0,0.0,0.0,0.0
796480,0.004512,0.010379,-0.001,0.0,0.0,0.0,0.0,0.0,0.0,3.0,0.300079,0.3471,0.290314,0.357609,0.0,0.0,0.000187,-0.0,-0.0,-3.2e-05,0.0,0.0,0.0,0.0,0.0,0.0
796500,0.004512,0.010623,-0.001001,0.0,0.0,0.0,0.0,0.0,0.0,3.0,0.298942,0.345643,0.29214,0.358518,0.0,0.0,0.000187,-0.0,-0.0,-3.2e-05,0.0,0.0,0.0,0.0,0.0,0.0
796520,0.004512,0.010745,-0.000879,0.0,0.0,0.0,0.0,0.0,0.0,3.0,0.30014,0.346686,0.290887,0.357527,0.0,0.0,0.000186,-0.0,-0.0,-3.2e-05,0.0,0.0,0.0,0.0,0.0,0.0
796540,0.004513,0.010866,-0.000757,0.0,0.0,0.0,0.0,0.0,0.0,3.0,0.298692,0.346576,0.291242,0.358502,0.0,0.0,0.000186,-0.0,-0.0,-3.2e-05,0.0,0.0,0.0,0.0,0.0,0.0
796560,0.004513,0.010866,-0.000757,0.0,0.0,0.0,0.0,0.0,0.0,3.0,0.299224,0.347609,0.290218,0.357865,0.0,0.0,0.000185,-0.0,-0.0,-3.2e-05,0.0,0.0,0.0,0.0,0.0,0.0
796580,0.004513,0.010744,-0.000635,0.0,0.0,0.0,0.0,0.0,0.0,3.0,0.29517,0.348608,0.288369,0.36141,0.0,0.0,0.000184,-0.0,-0.0,-3.2e-05,0.0,0.0,0.0,0.0,0.0,0.0
796600,0.004636,0.010988,-0.000514,0.0,0.0,0.0,0.0,0.0,0.0,3.0,0.298776,0.345375,0.290812,0.359901,0.0,0.0,0.000184,-0.0,-0.0,-3.1e-05,0.0,0.0,0.0,0.0,0.0,0.0
796620,0.004637,0.01111,-0.000392,0.0,0.0,0.0,0.0,0.0,0.0,3.0,0.295821,0.346452,0.289837,0.361879,0.0,0.0,0.000183,-0.0,-0.0,-3.1e-05,0.0,0.0,0.0,0.0,0.0,0.0
796640,0.004759,0.011354,-0.000393,0.0,0.0,0.0,0.0,0.0,0.0,3.0,0.296834,0.345881,0.291434,0.360457,0.0,0.0,0.000182,-0.0,-0.0,-3.1e-05,0.0,0.0,0.0,0.0,0.0,0.0
796660,0.00476,0.011232,-0.000271,0.0,0.0,0.0,0.0,0.0,0.0,3.0,0.2966,0.345626,0.290668,0.361449,0.0,0.0,0.000182,-0.0,-0.0,-3.1e-05,0.0,0.0,0.0,0.0,0.0,0.0
796680,0.004638,0.011353,-0.000148,0.0,0.0,0.0,0.0,0.0,0.0,3.0,0.294284,0.347777,0.287701,0.363357,0.0,0.0,0.000181,-0.0,-0.0,-3.1e-05,0.0,0.0,0.0,0.0,0.0,0.0
796700,0.004639,0.011353,-2.6e-05,0.0,0.0,0.0,0.0,0.0,0.0,3.0,0.294784,0.345978,0.290201,0.362842,0.0,0.0,0.000181,-0.0,-0.0,-3.1e-05,0.0,0.0,0.0,0.0,0.0,0.0
796720,0.004517,0.011353,-2.6e-05,0.0,0.0,0.0,0.0,0.0,0.0,3.0,0.300299,0.341461,0.293583,0.360306,0.0,0.0,0.00018,-0.0,-0.0,-3.1e-05,0.0,0.0,0.0,0.0,0.0,0.0
796740,0.004395,0.011109,9.8e-05,0.0,0.0,0.0,0.0,0.0,0.0,3.0,0.293063,0.347945,0.289481,0.362811,0.0,0.0,0.000179,-0.0,-0.0,-3.1e-05,0.0,0.0,0.0,0.0,0.0,0.0
796760,0.004274,0.011108,0.00022,0.0,0.0,0.0,0.0,0.0,0.0,3.0,0.296726,0.34513,0.290731,0.361772,0.0,0.0,0.000179,-0.0,-0.0,-3.1e-05,0.0,0.0,0.0,0.0,0.0,0.0
796780,0.004397,0.010864,0.000342,0.0,0.0,0.0,0.0,0.0,0.0,3.0,0.292746,0.348735,0.290678,0.361413,0.0,0.0,0.000178,-0.0,-0.0,-3e-05,0.0,0.0,0.0,0.0,0.0,0.0
796800,0.004397,0.010742,0.000343,0.0,0.0,0.0,0.0,0.0,0.0,3.0,0.297414,0.345665,0.292127,0.359694,0.0,0.0,0.000177,-0.0,-0.0,-3e-05,0.0,0.0,0.0,0.0,0.0,0.0
796820,0.004519,0.010498,0.000343,0.0,0.0,0.0,0.0,0.0,0.0,3.0,0.295407,0.347019,0.292585,0.359605,0.0,0.0,0.000177,-0.0,-0.0,-3e-05,0.0,0.0,0.0,0.0,0.0,0.0
796840,0.00452,0.010497,0.000587,0.0,0.0,0.0,0.0,0.0,0.0,3.0,0.295009,0.347072,0.290074,0.361734,0.0,0.0,0.000176,-0.0,-0.0,-3e-05,0.0,0.0,0.0,0.0,0.0,0.0
796860,0.004764,0.010497,0.000585,0.0,0.0,0.0,0.0,0.0,0.0,3.0,0.290877,0.348854,0.291331,0.362209,0.0,0.0,0.000176,-0.0,-0.0,-3e-05,0.0,0.0,0.0,0.0,0.0,0.0
796880,0.004764,0.010497,0.000585,0.0,0.0,0.0,0.0,0.0,0.0,3.0,0.294186,0.346807,0.291853,0.361285,0.0,0.0,0.000175,-0.0,-0.0,-3e-05,0.0,0.0,0.0,0.0,0.0,0.0
796900,0.004764,0.010375,0.000586,0.0,0.0,0.0,0.0,0.0,0.0,3.0,0.295168,0.347209,0.292685,0.35953,0.0,0.0,0.000174,-0.0,-0.0,-3e-05,0.0,0.0,0.0,0.0,0.0,0.0
796920,0.004765,0.010741,0.000707,0.0,0.0,0.0,0.0,0.0,0.0,3.0,0.291009,0.349594,0.288498,0.363494,0.0,0.0,0.000174,-0.0,-0.0,-3e-05,0.0,0.0,0.0,0.0,0.0,0.0
796940,0.004887,0.010741,0.000706,0.0,0.0,0.0,0.0,0.0,0.0,3.0,0.291181,0.348838,0.291113,0.362161,0.0,0.0,0.000173,-0.0,-0.0,-3e-05,0.0,0.0,0.0,0.0,0.0,0.0
796960,0.004887,0.010863,0.000706,0.0,0.0,0.0,0.0,0.0,0.0,3.0,0.293884,0.346765,0.293404,0.360387,0.0,0.0,0.000173,-0.0,-0.0,-3e-05,0.0,0.0,0.0,0.0,0.0,0.0
796980,0.004888,0.010863,0.000828,0.0,0.0,0.0,0.0,0.0,0.0,3.0,0.29306,0.349515,0.290871,0.360286,0.0,0.0,0.000172,-0.0,-0.0,-2.9e-05,0.0,0.0,0.0,0.0,0.0,0.0
797000,0.004889,0.011106,0.001072,0.0,0.0,0.0,0.0,0.0,0.0,3.0,0.289386,0.350379,0.287082,0.364968,0.0,0.0,0.000171,-0.0,-0.0,-2.9e-05,0.0,0.0,0.0,0.0,0.0,0.0
797020,0.00489,0.010984,0.001194,0.0,0.0,0.0,0.0,0.0,0.0,3.0,0.291067,0.350764,0.288209,0.362548,0.0,0.0,0.000171,-0.0,-0.0,-2.9e-05,0.0,0.0,0.0,0.0,0.0,0.0
797040,0.00489,0.010984,0.001194,0.0,0.0,0.0,0.0,0.0,0.0,3.0,0.293607,0.349356,0.289477,0.361062,0.0,0.0,0.00017,-0.0,-0.0,-2.9e-05,0.0,0.0,0.0,0.0,0.0,0.0
797060,0.004768,0.010739,0.001317,0.0,0.0,0.0,0.0,0.0,0.0,3.0,0.292759,0.352285,0.287691,0.360196,0.0,0.0,0.00017,-0.0,-0.0,-2.9e-05,0.0,0.0,0.0,0.0,0.0,0.0
797080,0.004647,0.010617,0.00144,0.0,0.0,0.0,0.0,0.0,0.0,3.0,0.291106,0.352627,0.285532,0.362673,0.0,0.0,0.000169,-0.0,-0.0,-2.9e-05,0.0,0.0,0.0,0.0,0.0,0.0
797100,0.004647,0.010373,0.001563,0.0,0.0,0.0,0.0,0.0,0.0,3.0,0.293663,0.35083,0.289294,0.359737,0.0,0.0,0.000169,-0.0,-0.0,-2.9e-05,0.0,0.0,0.0,0.0,0.0,0.0
797120,0.004647,0.010251,0.001563,0.0,0.0,0.0,0.0,0.0,0.0,3.0,0.293831,0.351556,0.288264,0.359668,0.0,0.0,0.000168,-0.0,-0.0,-2.9e-05,0.0,0.0,0.0,0.0,0.0,0.0
797140,0.004647,0.010006,0.001686,0.0,0.0,0.0,0.0,0.0,0.0,3.0,0.292859,0.351623,0.28635,0.361741,0.0,0.0,0.000167,-0.0,-0.0,-2.9e-05,0.0,0.0,0.0,0.0,0.0,0.0
797160,0.004648,0.009884,0.001808,0.0,0.0,0.0,0.0,0.0,0.0,3.0,0.292597,0.352143,0.286038,0.361662,0.0,0.0,0.000167,-0.0,-0.0,-2.9e-05,0.0,0.0,0.0,0.0,0.0,0.0
797180,0.004527,0.010006,0.001931,0.0,0.0,0.0,0.0,0.0,0.0,3.0,0.294473,0.34907,0.287409,0.362201,0.0,0.0,0.000166,-0.0,-0.0,-2.8e-05,0.0,0.0,0.0,0.0,0.0,0.0
797200,0.004527,0.01025,0.00193,0.0,0.0,0.0,0.0,0.0,0.0,3.0,0.293901,0.350402,0.286947,0.361696,0.0,0.0,0.000166,-0.0,-0.0,-2.8e-05,0.0,0.0,0.0,0.0,0.0,0.0
797220,0.004406,0.010494,0.002175,0.0,0.0,0.0,0.0,0.0,0.0,3.0,0.295012,0.348066,0.287841,0.362433,0.0,0.0,0.000165,-0.0,-0.0,-2.8e-05,0.0,0.0,0.0,0.0,0.0,0.0
797240,0.004407,0.010616,0.002296,0.0,0.0,0.0,0.0,0.0,0.0,3.0,0.292634,0.351386,0.283776,0.363987,0.0,0.0,0.000165,-0.0,-0.0,-2.8e-05,0.0,0.0,0.0,0.0,0.0,0.0
797260,0.004408,0.010737,0.002418,0.0,0.0,0.0,0.0,0.0,0.0,3.0,0.294084,0.349218,0.286088,0.363311,0.0,0.0,0.000164,-0.0,-0.0,-2.8e-05,0.0,0.0,0.0,0.0,0.0,0.0
797280,0.004286,0.010615,0.002419,0.0,0.0,0.0,0.0,0.0,0.0,3.0,0.293276,0.350825,0.285897,0.362523,0.0,0.0,0.000163,-0.0,-0.0,-2.8e-05,0.0,0.0,0.0,0.0,0.0,0.0
797300,0.004408,0.010371,0.002541,0.0,0.0,0.0,0.0,0.0,0.0,3.0,0.292198,0.352358,0.285713,0.361989,0.0,0.0,0.000163,-0.0,-0.0,-2.8e-05,0.0,0.0,0.0,0.0,0.0,0.0
797320,0.004408,0.010126,0.002664,0.0,0.0,0.0,0.0,0.0,0.0,3.0,0.291199,0.351717,0.284612,0.364137,0.0,0.0,0.000162,-0.0,-0.0,-2.8e-05,0.0,0.0,0.0,0.0,0.0,0.0
797340,0.00453,0.009882,0.002664,0.0,0.0,0.0,0.0,0.0,0.0,3.0,0.293156,0.35223,0.285749,0.361369,0.0,0.0,0.000162,-0.0,-0.0,-2.8e-05,0.0,0.0,0.0,0.0,0.0,0.0
797360,0.004409,0.010004,0.002786,0.0,0.0,0.0,0.0,0.0,0.0,3.0,0.292753,0.351372,0.284279,0.363553,0.0,0.0,0.000161,-0.0,-0.0,-2.8e-05,0.0,0.0,0.0,0.0,0.0,0.0
797380,0.004165,0.010126,0.002787,0.0,0.0,0.0,0.0,0.0,0.0,3.0,0.295797,0.349981,0.285957,0.361383,0.0,0.0,0.000161,-0.0,-0.0,-2.8e-05,0.0,0.0,0.0,0.0,0.0,0.0
797400,0.004043,0.010493,0.002787,0.0,0.0,0.0,0.0,0.0,0.0,3.0,0.292359,0.351177,0.282754,0.365114,0.0,0.0,0.00016,-0.0,-0.0,-2.7e-05,0.0,0.0,0.0,0.0,0.0,0.0
797420,0.003922,0.010615,0.002909,0.0,0.0,0.0,0.0,0.0,0.0,3.0,0.293121,0.351359,0.284041,0.363461,0.0,0.0,0.00016,-0.0,-0.0,-2.7e-05,0.0,0.0,0.0,0.0,0.0,0.0
797440,0.003923,0.010737,0.003031,0.0,0.0,0.0,0.0,0.0,0.0,3.0,0.295455,0.349776,0.287543,0.360683,0.0,0.0,0.000159,-0.0,-0.0,-2.7e-05,0.0,0.0,0.0,0.0,0.0,0.0
797460,0.003923,0.010615,0.003032,0.0,0.0,0.0,0.0,0.0,0.0,3.0,0.292996,0.351812,0.284207,0.363002,0.0,0.0,0.000158,-0.0,-0.0,-2.7e-05,0.0,0.0,0.0,0.0,0.0,0.0
797480,0.003922,0.010126,0.003155,0.0,0.0,0.0,0.0,0.0,0.0,3.0,0.294827,0.352449,0.286068,0.359657,0.0,0.0,0.000158,-0.0,-0.0,-2.7e-05,0.0,0.0,0.0,0.0,0.0,0.0
797500,0.003922,0.009882,0.003155,0.0,0.0,0.0,0.0,0.0,0.0,3.0,0.29557,0.350306,0.288014,0.359737,0.0,0.0,0.000157,-0.0,-0.0,-2.7e-05,0.0,0.0,0.0,0.0,0.0,0.0
797520,0.003799,0.009638,0.003034,0.0,0.0,0.0,0.0,0.0,0.0,3.0,0.296483,0.350279,0.287175,0.359681,0.0,0.0,0.000157,-0.0,-0.0,-2.7e-05,0.0,0.0,0.0,0.0,0.0,0.0
797540,0.003678,0.00976,0.003156,0.0,0.0,0.0,0.0,0.0,0.0,3.0,0.292243,0.351913,0.283704,0.363825,0.0,0.0,0.000156,-0.0,-0.0,-2.7e-05,0.0,0.0,0.0,0.0,0.0,0.0
797560,0.003434,0.009761,0.003158,0.0,0.0,0.0,0.0,0.0,0.0,3.0,0.292561,0.350548,0.284565,0.364278,0.0,0.0,0.000156,-0.0,-0.0,-2.7e-05,0.0,0.0,0.0,0.0,0.0,0.0
797580,0.003311,0.009761,0.003036,0.0,0.0,0.0,0.0,0.0,0.0,3.0,0.294894,0.350777,0.285878,0.361362,0.0,0.0,0.000155,-0.0,-0.0,-2.7e-05,0.0,0.0,0.0,0.0,0.0,0.0
797600,0.003189,0.009761,0.003037,0.0,0.0,0.0,0.0,0.0,0.0,3.0,0.292125,0.348742,0.287352,0.364308,0.0,0.0,0.000155,-0.0,-0.0,-2.6e-05,0.0,0.0,0.0,0.0,0.0,0.0
797620,0.003066,0.009517,0.003038,0.0,0.0,0.0,0.0,0.0,0.0,3.0,0.292714,0.352035,0.284885,0.362512,0.0,0.0,0.000154,-0.0,-0.0,-2.6e-05,0.0,0.0,0.0,0.0,0.0,0.0
797640,0.002944,0.009395,0.003039,0.0,0.0,0.0,0.0,0.0,0.0,3.0,0.291892,0.351394,0.285622,0.363209,0.0,0.0,0.000154,-0.0,-0.0,-2.6e-05,0.0,0.0,0.0,0.0,0.0,0.0
797660,0.002943,0.009029,0.002917,0.0,0.0,0.0,0.0,0.0,0.0,3.0,0.294103,0.351708,0.286988,0.360255,0.0,0.0,0.000153,-0.0,-0.0,-2.6e-05,0.0,0.0,0.0,0.0,0.0,0.0
797680,0.002942,0.008785,0.002795,0.0,0.0,0.0,0.0,0.0,0.0,3.0,0.291902,0.352029,0.286144,0.362215,0.0,0.0,0.000153,-0.0,-0.0,-2.6e-05,0.0,0.0,0.0,0.0,0.0,0.0
797700,0.00282,0.008786,0.002796,0.0,0.0,0.0,0.0,0.0,0.0,3.0,0.292345,0.351082,0.286698,0.362392,0.0,0.0,0.000152,-0.0,-0.0,-2.6e-05,0.0,0.0,0.0,0.0,0.0,0.0
797720,0.002576,0.008908,0.002675,0.0,0.0,0.0,0.0,0.0,0.0,3.0,0.294569,0.349553,0.287276,0.361764,0.0,0.0,0.000152,-0.0,-0.0,-2.6e-05,0.0,0.0,0.0,0.0,0.0,0.0
797740,0.002331,0.009031,0.002553,0.0,0.0,0.0,0.0,0.0,0.0,3.0,0.29631,0.347322,0.289295,0.361082,0.0,0.0,0.000151,-0.0,-0.0,-2.6e-05,0.0,0.0,0.0,0.0,0.0,0.0
797760,0.002086,0.008909,0.002433,0.0,0.0,0.0,0.0,0.0,0.0,3.0,0.297247,0.348166,0.288876,0.359868,0.0,0.0,0.000151,-0.0,-0.0,-2.6e-05,0.0,0.0,0.0,0.0,0.0,0.0
797780,0.001841,0.008787,0.002312,0.0,0.0,0.0,0.0,0.0,0.0,3.0,0.295489,0.350635,0.286125,0.360867,0.0,0.0,0.00015,-0.0,-0.0,-2.6e-05,0.0,0.0,0.0,0.0,0.0,0.0
797800,0.001596,0.008422,0.002069,0.0,0.0,0.0,0.0,0.0,0.0,3.0,0.295048,0.351786,0.286653,0.359705,0.0,0.0,0.00015,-0.0,-0.0,-2.6e-05,0.0,0.0,0.0,0.0,0.0,0.0
797820,0.001473,0.007934,0.001948,0.0,0.0,0.0,0.0,0.0,0.0,3.0,0.298406,0.350452,0.289651,0.356173,0.0,0.0,0.000149,-0.0,-0.0,-2.6e-05,0.0,0.0,0.0,0.0,0.0,0.0
797840,0.001349,0.007568,0.001704,0.0,0.0,0.0,0.0,0.0,0.0,3.0,0.29593,0.351693,0.28722,0.358702,0.0,0.0,0.000148,-0.0,-0.0,-2.5e-05,0.0,0.0,0.0,0.0,0.0,0.0
797860,0.001104,0.00708,0.001583,0.0,0.0,0.0,0.0,0.0,0.0,3.0,0.298535,0.351627,0.287372,0.356628,0.0,0.0,0.000148,-0.0,-0.0,-2.5e-05,0.0,0.0,0.0,0.0,0.0,0.0
797880,0.000859,0.006714,0.00134,0.0,0.0,0.0,0.0,0.0,0.0,3.0,0.299555,0.350285,0.288031,0.356648,0.0,0.0,0.000147,-0.0,-0.0,-2.5e-05,0.0,0.0,0.0,0.0,0.0,0.0
797900,0.000614,0.006348,0.001097,0.0,0.0,0.0,0.0,0.0,0.0,3.0,0.301365,0.349739,0.290231,0.354082,0.0,0.0,0.000147,-0.0,-0.0,-2.5e-05,0.0,0.0,0.0,0.0,0.0,0.0
797920,0.000369,0.006226,0.000976,0.0,0.0,0.0,0.0,0.0,0.0,3.0,0.301252,0.347854,0.289306,0.356711,0.0,0.0,0.000146,-0.0,-0.0,-2.5e-05,0.0,0.0,0.0,0.0,0.0,0.0
797940,0.000247,0.006104,0.000854,0.0,0.0,0.0,0.0,0.0,0.0,3.0,0.298595,0.349872,0.287485,0.358209,0.0,0.0,0.000146,-0.0,-0.0,-2.5e-05,0.0,0.0,0.0,0.0,0.0,0.0
797960,0.000246,0.006104,0.000732,0.0,0.0,0.0,0.0,0.0,0.0,3.0,0.298934,0.350344,0.287195,0.3577,0.0,0.0,0.000145,-0.0,-0.0,-2.5e-05,0.0,0.0,0.0,0.0,0.0,0.0
797980,0.000246,0.006104,0.00061,0.0,0.0,0.0,0.0,0.0,0.0,3.0,0.301051,0.347043,0.290259,0.356936,0.0,0.0,0.000145,-0.0,-0.0,-2.5e-05,0.0,0.0,0.0,0.0,0.0,0.0
798000,0.000368,0.006104,0.000609,0.0,0.0,0.0,0.0,0.0,0.0,3.0,0.297162,0.350151,0.288101,0.358596,0.0,0.0,0.000144,-0.0,-0.0,-2.5e-05,0.0,0.0,0.0,0.0,0.0,0.0
798020,0.000368,0.006104,0.000487,0.0,0.0,0.0,0.0,0.0,0.0,3.0,0.297226,0.349098,0.285962,0.361132,0.0,0.0,0.000144,-0.0,-0.0,-2.5e-05,0.0,0.0,0.0,0.0,0.0,0.0
798040,0.000368,0.006348,0.000487,0.0,0.0,0.0,0.0,0.0,0.0,3.0,0.297983,0.349038,0.287921,0.359169,0.0,0.0,0.000143,-0.0,-0.0,-2.5e-05,0.0,0.0,0.0,0.0,0.0,0.0
798060,0.000368,0.006348,0.000487,0.0,0.0,0.0,0.0,0.0,0.0,3.0,0.298037,0.348137,0.287175,0.36054,0.0,0.0,0.000143,-0.0,-0.0,-2.4e-05,0.0,0.0,0.0,0.0,0.0,0.0
798080,0.000368,0.00647,0.000487,0.0,0.0,0.0,0.0,0.0,0.0,3.0,0.297763,0.349413,0.287418,0.359349,0.0,0.0,0.000142,-0.0,-0.0,-2.4e-05,0.0,0.0,0.0,0.0,0.0,0.0
798100,0.000246,0.00647,0.000488,0.0,0.0,0.0,0.0,0.0,0.0,3.0,0.298627,0.348884,0.286482,0.359876,0.0,0.0,0.000142,-0.0,-0.0,-2.4e-05,0.0,0.0,0.0,0.0,0.0,0.0
798120,2e-06,0.006592,0.000488,0.0,0.0,0.0,0.0,0.0,0.0,3.0,0.298837,0.348656,0.284565,0.361324,0.0,0.0,0.000142,-0.0,-0.0,-2.4e-05,0.0,0.0,0.0,0.0,0.0,0.0
798140,1e-06,0.006592,0.000366,0.0,0.0,0.0,0.0,0.0,0.0,3.0,0.30038,0.347607,0.286541,0.359689,0.0,0.0,0.000141,-0.0,-0.0,-2.4e-05,0.0,0.0,0.0,0.0,0.0,0.0
798160,-0.000121,0.006714,0.000367,0.0,0.0,0.0,0.0,0.0,0.0,3.0,0.301067,0.346151,0.289321,0.358483,0.0,0.0,0.000141,-0.0,-0.0,-2.4e-05,0.0,0.0,0.0,0.0,0.0,0.0
798180,-0.000121,0.006592,0.000367,0.0,0.0,0.0,0.0,0.0,0.0,3.0,0.300801,0.347254,0.288166,0.358497,0.0,0.0,0.00014,-0.0,-0.0,-2.4e-05,0.0,0.0,0.0,0.0,0.0,0.0
798200,1e-06,0.00647,0.000366,0.0,0.0,0.0,0.0,0.0,0.0,3.0,0.297692,0.348212,0.286422,0.361284,0.0,0.0,0.00014,-0.0,-0.0,-2.4e-05,0.0,0.0,0.0,0.0,0.0,0.0
798220,1e-06,0.00647,0.000244,0.0,0.0,0.0,0.0,0.0,0.0,3.0,0.302122,0.34554,0.290031,0.357699,0.0,0.0,0.000139,-0.0,-0.0,-2.4e-05,0.0,0.0,0.0,0.0,0.0,0.0
798240,0.000123,0.00647,0.000244,0.0,0.0,0.0,0.0,0.0,0.0,3.0,0.300472,0.345665,0.29065,0.358421,0.0,0.0,0.000139,-0.0,-0.0,-2.4e-05,0.0,0.0,0.0,0.0,0.0,0.0
798260,1e-06,0.006348,0.000244,0.0,0.0,0.0,0.0,0.0,0.0,3.0,0.297357,0.35017,0.285203,0.360553,0.0,0.0,0.000138,-0.0,-0.0,-2.4e-05,0.0,0.0,0.0,0.0,0.0,0.0
798280,0.000123,0.006104,0.000244,0.0,0.0,0.0,0.0,0.0,0.0,3.0,0.296464,0.352139,0.283092,0.360862,0.0,0.0,0.000138,-0.0,-0.0,-2.4e-05,0.0,0.0,0.0,0.0,0.0,0.0
798300,1e-06,0.006104,0.000244,0.0,0.0,0.0,0.0,0.0,0.0,3.0,0.299733,0.347583,0.28651,0.360241,0.0,0.0,0.000137,-0.0,-0.0,-2.4e-05,0.0,0.0,0.0,0.0,0.0,0.0
798320,0.000122,0.00586,0.000122,0.0,0.0,0.0,0.0,0.0,0.0,3.0,0.298244,0.349989,0.287682,0.358224,0.0,0.0,0.000137,-0.0,-0.0,-2.3e-05,0.0,0.0,0.0,0.0,0.0,0.0
798340,0.000122,0.005738,0.000122,0.0,0.0,0.0,0.0,0.0,0.0,3.0,0.298579,0.348504,0.286459,0.360294,0.0,0.0,0.000136,-0.0,-0.0,-2.3e-05,0.0,0.0,0.0,0.0,0.0,0.0
798360,0.000245,0.005616,0.000243,0.0,0.0,0.0,0.0,0.0,0.0,3.0,0.294074,0.35277,0.284097,0.361347,0.0,0.0,0.000136,-0.0,-0.0,-2.3e-05,0.0,0.0,0.0,0.0,0.0,0.0
798380,0.000245,0.005493,0.000244,0.0,0.0,0.0,0.0,0.0,0.0,3.0,0.295711,0.351293,0.283606,0.361884,0.0,0.0,0.000135,-0.0,-0.0,-2.3e-05,0.0,0.0,0.0,0.0,0.0,0.0
798400,0.000489,0.005371,0.000243,0.0,0.0,0.0,0.0,0.0,0.0,3.0,0.297293,0.349738,0.287032,0.359683,0.0,0.0,0.000135,-0.0,-0.0,-2.3e-05,0.0,0.0,0.0,0.0,0.0,0.0
798420,0.000489,0.005371,0.000365,0.0,0.0,0.0,0.0,0.0,0.0,3.0,0.29835,0.349301,0.286214,0.359886,0.0,0.0,0.000134,-0.0,-0.0,-2.3e-05,0.0,0.0,0.0,0.0,0.0,0.0
798440,0.000611,0.005371,0.000365,0.0,0.0,0.0,0.0,0.0,0.0,3.0,0.296152,0.351736,0.285666,0.359629,0.0,0.0,0.000134,-0.0,-0.0,-2.3e-05,0.0,0.0,0.0,0.0,0.0,0.0
798460,0.000612,0.005493,0.000487,0.0,0.0,0.0,0.0,0.0,0.0,3.0,0.297522,0.350791,0.284876,0.360065,0.0,0.0,0.000134,-0.0,-0.0,-2.3e-05,0.0,0.0,0.0,0.0,0.0,0.0
798480,0.000612,0.005493,0.000609,0.0,0.0,0.0,0.0,0.0,0.0,3.0,0.29516,0.35162,0.282821,0.362548,0.0,0.0,0.000133,-0.0,-0.0,-2.3e-05,0.0,0.0,0.0,0.0,0.0,0.0
798500,0.00049,0.005737,0.000609,0.0,0.0,0.0,0.0,0.0,0.0,3.0,0.297635,0.350358,0.28664,0.359107,0.0,0.0,0.000133,-0.0,-0.0,-2.3e-05,0.0,0.0,0.0,0.0,0.0,0.0
798520,0.000368,0.005738,0.000732,0.0,0.0,0.0,0.0,0.0,0.0,3.0,0.294817,0.352732,0.280789,0.363176,0.0,0.0,0.000132,-0.0,-0.0,-2.3e-05,0.0,0.0,0.0,0.0,0.0,0.0
798540,0.000369,0.00586,0.000854,0.0,0.0,0.0,0.0,0.0,0.0,3.0,0.294441,0.353573,0.281122,0.362413,0.0,0.0,0.000132,-0.0,-0.0,-2.3e-05,0.0,0.0,0.0,0.0,0.0,0.0
798560,0.000247,0.00586,0.000976,0.0,0.0,0.0,0.0,0.0,0.0,3.0,0.295983,0.350911,0.284583,0.361343,0.0,0.0,0.000131,-0.0,-0.0,-2.2e-05,0.0,0.0,0.0,0.0,0.0,0.0
798580,0.000247,0.005982,0.001098,0.0,0.0,0.0,0.0,0.0,0.0,3.0,0.298282,0.350358,0.284938,0.359851,0.0,0.0,0.000131,-0.0,-0.0,-2.2e-05,0.0,0.0,0.0,0.0,0.0,0.0
798600,0.000247,0.005982,0.001098,0.0,0.0,0.0,0.0,0.0,0.0,3.0,0.295098,0.3518,0.283501,0.361936,0.0,0.0,0.00013,-0.0,-0.0,-2.2e-05,0.0,0.0,0.0,0.0,0.0,0.0
798620,0.000248,0.006104,0.00122,0.0,0.0,0.0,0.0,0.0,0.0,3.0,0.29368,0.352892,0.280932,0.363774,0.0,0.0,0.00013,-0.0,-0.0,-2.2e-05,0.0,0.0,0.0,0.0,0.0,0.0
798640,0.00037,0.006104,0.001342,0.0,0.0,0.0,0.0,0.0,0.0,3.0,0.293495,0.353031,0.282601,0.3626,0.0,0.0,0.000129,-0.0,-0.0,-2.2e-05,0.0,0.0,0.0,0.0,0.0,0.0
798660,0.000371,0.005859,0.001464,0.0,0.0,0.0,0.0,0.0,0.0,3.0,0.297337,0.350601,0.286165,0.359452,0.0,0.0,0.000129,-0.0,-0.0,-2.2e-05,0.0,0.0,0.0,0.0,0.0,0.0
798680,0.00037,0.005615,0.001464,0.0,0.0,0.0,0.0,0.0,0.0,3.0,0.295641,0.351747,0.285521,0.360116,0.0,0.0,0.000129,-0.0,-0.0,-2.2e-05,0.0,0.0,0.0,0.0,0.0,0.0
798700,0.000371,0.005493,0.001586,0.0,0.0,0.0,0.0,0.0,0.0,3.0,0.294706,0.351575,0.283438,0.362495,0.0,0.0,0.000128,-0.0,-0.0,-2.2e-05,0.0,0.0,0.0,0.0,0.0,0.0
798720,0.000371,0.005493,0.001586,0.0,0.0,0.0,0.0,0.0,0.0,3.0,0.293853,0.352998,0.282467,0.362459,0.0,0.0,0.000128,-0.0,-0.0,-2.2e-05,0.0,0.0,0.0,0.0,0.0,0.0
798740,0.00037,0.005371,0.001586,0.0,0.0,0.0,0.0,0.0,0.0,3.0,0.295905,0.349991,0.285219,0.361826,0.0,0.0,0.000127,-0.0,-0.0,-2.2e-05,0.0,0.0,0.0,0.0,0.0,0.0
798760,0.000248,0.005371,0.001587,0.0,0.0,0.0,0.0,0.0,0.0,3.0,0.295659,0.350916,0.283679,0.362234,0.0,0.0,0.000127,-0.0,-0.0,-2.2e-05,0.0,0.0,0.0,0.0,0.0,0.0
798780,0.000249,0.005493,0.001709,0.0,0.0,0.0,0.0,0.0,0.0,3.0,0.295763,0.350206,0.284308,0.362383,0.0,0.0,0.000126,-0.0,-0.0,-2.2e-05,0.0,0.0,0.0,0.0,0.0,0.0
798800,0.000127,0.005493,0.001831,0.0,0.0,0.0,0.0,0.0,0.0,3.0,0.291928,0.35234,0.282082,0.364798,0.0,0.0,0.000126,-0.0,-0.0,-2.2e-05,0.0,0.0,0.0,0.0,0.0,0.0
798820,0.000249,0.005737,0.001831,0.0,0.0,0.0,0.0,0.0,0.0,3.0,0.294763,0.350287,0.285457,0.362236,0.0,0.0,0.000126,-0.0,-0.0,-2.1e-05,0.0,0.0,0.0,0.0,0.0,0.0
798840,0.000249,0.005737,0.001831,0.0,0.0,0.0,0.0,0.0,0.0,3.0,0.293276,0.3508,0.283636,0.364168,0.0,0.0,0.000125,-0.0,-0.0,-2.1e-05,0.0,0.0,0.0,0.0,0.0,0.0
798860,0.00025,0.005859,0.001953,0.0,0.0,0.0,0.0,0.0,0.0,3.0,0.294043,0.350324,0.285149,0.362965,0.0,0.0,0.000125,-0.0,-0.0,-2.1e-05,0.0,0.0,0.0,0.0,0.0,0.0
798880,0.00025,0.005859,0.002075,0.0,0.0,0.0,0.0,0.0,0.0,3.0,0.290011,0.353398,0.283203,0.364403,0.0,0.0,0.000124,-0.0,-0.0,-2.1e-05,0.0,0.0,0.0,0.0,0.0,0.0
798900,0.00025,0.005737,0.002197,0.0,0.0,0.0,0.0,0.0,0.087266,3.0,0.666786,0.15,0.663112,0.15,0.0,0.0,0.000346,-0.0,-0.0,0.083911,0.0,0.0,0.0,0.0,0.0,0.0
798920,0.000622,0.005981,0.003905,0.0,0.0,0.0,0.0,0.0,0.087266,3.0,0.411792,0.16486,0.409432,0.198132,0.0,0.0,0.002579,-0.0,0.0,0.141755,0.0,0.0,0.0,0.0,0.0,0.0
798940,0.00125,0.006098,0.009519,0.0,0.0,0.0,0.0,0.0,0.087266,3.0,0.348302,0.293824,0.345092,0.310492,0.0,0.0,0.005621,-0.0,0.0,0.167095,0.0,0.0,0.0,0.0,0.0,0.0
798960,0.00103,0.006462,0.016478,0.0,0.0,0.0,0.0,0.0,0.087266,3.0,0.322039,0.325254,0.314685,0.339503,0.0,0.0,0.009112,-0.0,0.0,0.186408,0.0,0.0,0.0,0.0,0.0,0.0
798980,0.001174,0.006457,0.023316,0.0,0.0,0.0,0.0,0.0,0.087266,3.0,0.312441,0.333929,0.305095,0.348243,0.0,0.0,0.01297,-0.0,0.0,0.203114,0.0,0.0,0.0,0.0,0.0,0.0
799000,0.00132,0.006695,0.029661,0.0,0.0,0.0,0.0,0.0,0.087266,3.0,0.305559,0.34055,0.298543,0.353099,0.0,0.0,0.017143,-0.0,0.0,0.217486,0.0,0.0,0.0,0.0,0.0,0.0
799020,0.001458,0.006567,0.035157,0.0,0.0,0.0,0.0,0.0,0.087266,3.0,0.308715,0.338467,0.301126,0.350381,0.0,0.0,0.021587,-0.0,-0.0,0.229567,0.0,0.0,0.0,0.0,0.0,0.0
799040,0.00135,0.006444,0.040043,0.0,0.0,0.0,0.0,0.0,0.087266,3.0,0.314089,0.334891,0.305409,0.345627,0.0,0.0,0.026256,-0.0,-0.0,0.2394,0.0,0.0,0.0,0.0,0.0,0.0
799060,0.001112,0.006081,0.044442,0.0,0.0,0.0,0.0,0.0,0.087266,3.0,0.310767,0.340205,0.299924,0.347943,0.0,0.0,0.031104,-0.0,-0.0,0.247038,0.0,0.0,0.0,0.0,0.0,0.0
799080,0.001238,0.005709,0.048831,0.0,0.0,0.0,0.0,0.0,0.087266,3.0,0.304481,0.344058,0.296026,0.352607,0.0,0.0,0.03609,-0.0,-0.0,0.252548,0.0,0.0,0.0,0.0,0.0,0.0
799100,0.000867,0.005106,0.052742,0.0,0.0,0.0,0.0,0.0,0.087266,3.0,0.305631,0.344379,0.295811,0.351518,0.0,0.0,0.04117,-0.0,-0.0,0.256006,0.0,0.0,0.0,0.0,0.0,0.0
799120,0.000486,0.004261,0.056286,0.0,0.0,0.0,0.0,0.0,0.087266,3.0,0.306864,0.345229,0.297164,0.348579,0.0,0.0,0.046304,-0.0,-0.0,0.2575,0.0,0.0,0.0,0.0,0.0,0.0
799140,0.000109,0.003661,0.059465,0.0,0.0,0.0,0.0,0.0,0.087266,3.0,0.308148,0.345133,0.29429,0.349882,0.0,0.0,0.051454,-0.0,-0.0,0.257125,0.0,0.0,0.0,0.0,0.0,0.0
799160,-0.000401,0.002821,0.062267,0.0,0.0,0.0,0.0,0.0,0.087266,3.0,0.305749,0.347914,0.291039,0.351686,0.0,0.0,0.056583,-0.0,-0.0,0.254987,0.0,0.0,0.0,0.0,0.0,0.0
799180,-0.000799,0.001736,0.064836,0.0,0.0,0.0,0.0,0.0,0.087266,3.0,0.306308,0.348789,0.290691,0.350625,0.0,0.0,0.061657,-0.0,-0.0,0.251195,0.0,0.0,0.0,0.0,0.0,0.0
799200,-0.001452,0.000415,0.067039,0.0,0.0,0.0,0.0,0.0,0.087266,3.0,0.311814,0.347519,0.29252,0.345776,0.0,0.0,0.066643,-0.0,-0.0,0.245864,0.0,0.0,0.0,0.0,0.0,0.0
799220,-0.002108,-0.000904,0.069107,0.0,0.0,0.0,0.0,0.0,0.087266,3.0,0.309436,0.350201,0.289941,0.347152,0.0,0.0,0.071512,-0.0,-0.0,0.239117,0.0,0.0,0.0,0.0,0.0,0.0
799240,-0.002758,-0.001979,0.070944,0.0,0.0,0.0,0.0,0.0,0.087266,3.0,0.308122,0.351984,0.287499,0.348357,0.0,0.0,0.076236,-0.0,-0.0,0.231075,0.0,0.0,0.0,0.0,0.0,0.0
799260,-0.003653,-0.003043,0.072644,0.0,0.0,0.0,0.0,0.0,0.087266,3.0,0.311341,0.349722,0.290166,0.34582,0.0,0.0,0.08079,-0.0,-0.0,0.221866,0.0,0.0,0.0,0.0,0.0,0.0
799280,-0.004423,-0.003989,0.074114,0.0,0.0,0.0,0.0,0.0,0.087266,3.0,0.311257,0.351131,0.288288,0.345928,0.0,0.0,0.085152,-0.0,-0.0,0.211616,0.0,0.0,0.0,0.0,0.0,0.0
799300,-0.00482,-0.004704,0.07545,0.0,0.0,0.0,0.0,0.0,0.087266,3.0,0.310174,0.350768,0.289373,0.346388,0.0,0.0,0.089302,-0.0,-0.0,0.200453,0.0,0.0,0.0,0.0,0.0,0.0
799320,-0.005085,-0.00518,0.076678,0.0,0.0,0.0,0.0,0.0,0.087266,3.0,0.307503,0.349468,0.290385,0.349185,0.0,0.0,0.093223,-0.0,-0.0,0.188503,0.0,0.0,0.0,0.0,0.0,0.0
799340,-0.005346,-0.005534,0.077771,0.0,0.0,0.0,0.0,0.0,0.087266,3.0,0.307899,0.350567,0.287446,0.350014,0.0,0.0,0.096899,-0.0,-0.0,0.175893,0.0,0.0,0.0,0.0,0.0,0.0
799360,-0.005485,-0.005893,0.0785,0.0,0.0,0.0,0.0,0.0,0.087266,3.0,0.309424,0.348734,0.291333,0.347551,0.0,0.0,0.100319,-0.0,-0.0,0.162744,0.0,0.0,0.0,0.0,0.0,0.0
799380,-0.00551,-0.006501,0.079106,0.0,0.0,0.0,0.0,0.0,0.087266,3.0,0.309973,0.349184,0.293054,0.345263,0.0,0.0,0.103473,-0.0,-0.0,0.149179,0.0,0.0,0.0,0.0,0.0,0.0
799400,-0.005649,-0.006861,0.079727,0.0,0.0,0.0,0.0,0.0,0.087266,3.0,0.311635,0.347606,0.293843,0.344786,0.0,0.0,0.106353,-0.0,-0.0,0.135313,0.0,0.0,0.0,0.0,0.0,0.0
799420,-0.005655,-0.006982,0.080092,0.0,0.0,0.0,0.0,0.0,0.087266,3.0,0.312623,0.345853,0.294523,0.345143,0.0,0.0,0.108954,-0.0,-0.0,0.121259,0.0,0.0,0.0,0.0,0.0,0.0
799440,-0.0059,-0.006971,0.080334,0.0,0.0,0.0,0.0,0.0,0.087266,3.0,0.313096,0.344495,0.29469,0.345951,0.0,0.0,0.111273,-0.0,-0.0,0.107124,0.0,0.0,0.0,0.0,0.0,0.0
799460,-0.005886,-0.006604,0.080578,0.0,0.0,0.0,0.0,0.0,0.087266,3.0,0.316203,0.341515,0.298196,0.343312,0.0,0.0,0.11331,-0.0,-0.0,0.093012,0.0,0.0,0.0,0.0,0.0,0.0
799480,-0.006009,-0.006599,0.080699,0.0,0.0,0.0,0.0,0.0,0.087266,3.0,0.312713,0.344923,0.296243,0.344604,0.0,0.0,0.115065,-0.0,-0.0,0.079017,0.0,0.0,0.0,0.0,0.0,0.0
799500,-0.006014,-0.006721,0.080821,0.0,0.0,0.0,0.0,0.0,0.087266,3.0,0.311819,0.344749,0.297338,0.344668,0.0,0.0,0.116541,-0.0,-0.0,0.065232,0.0,0.0,0.0,0.0,0.0,0.0
799520,-0.005897,-0.006847,0.080942,0.0,0.0,0.0,0.0,0.0,0.087266,3.0,0.313863,0.343612,0.299566,0.342168,0.0,0.0,0.117744,-0.0,-0.0,0.051741,0.0,0.0,0.0,0.0,0.0,0.0
799540,-0.005898,-0.006847,0.081064,0.0,0.0,0.0,0.0,0.0,0.087266,3.0,0.313654,0.343334,0.299764,0.342468,0.0,0.0,0.11868,-0.0,-0.0,0.03862,0.0,0.0,0.0,0.0,0.0,0.0
799560,-0.005893,-0.006724,0.081186,0.0,0.0,0.0,0.0,0.0,0.087266,3.0,0.312907,0.343858,0.298712,0.343476,0.0,0.0,0.119356,-0.0,-0.0,0.025942,0.0,0.0,0.0,0.0,0.0,0.0
799580,-0.00566,-0.006978,0.081308,0.0,0.0,0.0,0.0,0.0,0.087266,3.0,0.314282,0.342592,0.301847,0.340903,0.0,0.0,0.119783,-0.0,-0.0,0.013769,0.0,0.0,0.0,0.0,0.0,0.0
799600,-0.00566,-0.006978,0.081429,0.0,0.0,0.0,0.0,0.0,0.087266,3.0,0.316214,0.341581,0.302091,0.339973,0.0,0.0,0.119971,-0.0,-0.0,0.002159,0.0,0.0,0.0,0.0,0.0,0.0
799620,-0.005782,-0.006973,0.081429,0.0,0.0,0.0,0.0,0.0,0.087266,3.0,0.316429,0.341013,0.301709,0.340672,0.0,0.0,0.11993,-0.0,-0.0,-0.008838,0.0,0.0,0.0,0.0,0.0,0.0
799640,-0.005773,-0.006728,0.081672,0.0,0.0,0.0,0.0,0.0,0.087266,3.0,0.311927,0.344917,0.294159,0.346973,0.0,0.0,0.119675,-0.0,-0.0,-0.01918,0.0,0.0,0.0,0.0,0.0,0.0
799660,-0.00589,-0.006601,0.081794,0.0,0.0,0.0,0.0,0.0,0.087266,3.0,0.315954,0.342798,0.297034,0.343213,0.0,0.0,0.119218,-0.0,-0.0,-0.028829,0.0,0.0,0.0,0.0,0.0,0.0
799680,-0.005895,-0.006723,0.081794,0.0,0.0,0.0,0.0,0.0,0.087266,3.0,0.315462,0.343478,0.296911,0.343073,0.0,0.0,0.118573,-0.0,-0.0,-0.037756,0.0,0.0,0.0,0.0,0.0,0.0
799700,-0.005784,-0.006971,0.081915,0.0,0.0,0.0,0.0,0.0,0.087266,3.0,0.314426,0.345116,0.296917,0.342345,0.0,0.0,0.117755,-0.0,-0.0,-0.04594,0.0,0.0,0.0,0.0,0.0,0.0
799720,-0.005789,-0.007093,0.082036,0.0,0.0,0.0,0.0,0.0,0.087266,3.0,0.314854,0.345749,0.294527,0.343276,0.0,0.0,0.11678,-0.0,-0.0,-0.053363,0.0,0.0,0.0,0.0,0.0,0.0
799740,-0.00579,-0.007093,0.082173,0.0,0.0,0.0,0.0,0.0,0.087266,3.0,0.310793,0.346953,0.294441,0.345696,0.0,0.0,0.115661,-0.0,-0.0,-0.060015,0.0,0.0,0.0,0.0,0.0,0.0
799760,-0.005663,-0.006976,0.082174,0.0,0.0,0.0,0.0,0.0,0.087266,3.0,0.314609,0.343374,0.297217,0.343685,0.0,0.0,0.114416,-0.0,-0.0,-0.065892,0.0,0.0,0.0,0.0,0.0,0.0
799780,-0.00579,-0.007092,0.082294,0.0,0.0,0.0,0.0,0.0,0.087266,3.0,0.311352,0.34801,0.292582,0.345633,0.0,0.0,0.113059,-0.0,-0.0,-0.070995,0.0,0.0,0.0,0.0,0.0,0.0
799800,-0.005786,-0.00697,0.082416,0.0,0.0,0.0,0.0,0.0,0.087266,3.0,0.312423,0.344263,0.296502,0.345307,0.0,0.0,0.111605,-0.0,-0.0,-0.07533,0.0,0.0,0.0,0.0,0.0,0.0
799820,-0.005903,-0.006843,0.082538,0.0,0.0,0.0,0.0,0.0,0.087266,3.0,0.311034,0.346864,0.294058,0.345885,0.0,0.0,0.11007,-0.0,-0.0,-0.07891,0.0,0.0,0.0,0.0,0.0,0.0
799840,-0.005903,-0.006843,0.082538,0.0,0.0,0.0,0.0,0.0,0.087266,3.0,0.313355,0.343867,0.297671,0.343929,0.0,0.0,0.10847,-0.0,-0.0,-0.08175,0.0,0.0,0.0,0.0,0.0,0.0
799860,-0.00603,-0.006959,0.082658,0.0,0.0,0.0,0.0,0.0,0.087266,3.0,0.312473,0.34497,0.295536,0.345341,0.0,0.0,0.106818,-0.0,-0.0,-0.083871,0.0,0.0,0.0,0.0,0.0,0.0
799880,-0.006035,-0.007081,0.082658,0.0,0.0,0.0,0.0,0.0,0.087266,3.0,0.312753,0.345963,0.296704,0.343146,0.0,0.0,0.105128,-0.0,-0.0,-0.085297,0.0,0.0,0.0,0.0,0.0,0.0
799900,-0.005914,-0.007086,0.08278,0.0,0.0,0.0,0.0,0.0,0.087266,3.0,0.313418,0.343415,0.297655,0.344338,0.0,0.0,0.103416,-0.0,-0.0,-0.086056,0.0,0.0,0.0,0.0,0.0,0.0
799920,-0.005792,-0.007091,0.082781,0.0,0.0,0.0,0.0,0.0,0.087266,3.0,0.312867,0.343817,0.299163,0.343179,0.0,0.0,0.101693,-0.0,-0.0,-0.086178,0.0,0.0,0.0,0.0,0.0,0.0
799940,-0.005791,-0.007091,0.082659,0.0,0.0,0.0,0.0,0.0,0.087266,3.0,0.31428,0.343774,0.299337,0.341824,0.0,0.0,0.099972,-0.0,-0.0,-0.085698,0.0,0.0,0.0,0.0,0.0,0.0
799960,-0.005791,-0.007091,0.082659,0.0,0.0,0.0,0.0,0.0,0.087266,3.0,0.313299,0.344555,0.298198,0.342855,0.0,0.0,0.098265,-0.0,-0.0,-0.084651,0.0,0.0,0.0,0.0,0.0,0.0
799980,-0.005909,-0.006964,0.08278,0.0,0.0,0.0,0.0,0.0,0.087266,3.0,0.313555,0.343969,0.297828,0.343522,0.0,0.0,0.096583,-0.0,-0.0,-0.083075,0.0,0.0,0.0,0.0,0.0,0.0
800000,-0.005904,-0.006842,0.082781,0.0,0.0,0.0,0.0,0.0,0.087266,3.0,0.31406,0.344277,0.298119,0.342525,0.0,0.0,0.094936,-0.0,-0.0,-0.08101,0.0,0.0,0.0,0.0,0.0,0.0
800020,-0.005909,-0.006964,0.08278,0.0,0.0,0.0,0.0,0.0,0.087266,3.0,0.315785,0.343265,0.297932,0.342157,0.0,0.0,0.093334,-0.0,-0.0,-0.078497,0.0,0.0,0.0,0.0,0.0,0.0
800040,-0.006036,-0.007081,0.08278,0.0,0.0,0.0,0.0,0.0,0.087266,3.0,0.314851,0.346389,0.295624,0.341735,0.0,0.0,0.091786,-0.0,-0.0,-0.075578,0.0,0.0,0.0,0.0,0.0,0.0
800060,-0.005919,-0.007208,0.08278,0.0,0.0,0.0,0.0,0.0,0.087266,3.0,0.315095,0.344568,0.295971,0.343076,0.0,0.0,0.090298,-0.0,-0.0,-0.072294,0.0,0.0,0.0,0.0,0.0,0.0
800080,-0.005914,-0.007086,0.082902,0.0,0.0,0.0,0.0,0.0,0.087266,3.0,0.310823,0.347315,0.293942,0.345707,0.0,0.0,0.088879,-0.0,-0.0,-0.068688,0.0,0.0,0.0,0.0,0.0,0.0
800100,-0.005802,-0.007335,0.082902,0.0,0.0,0.0,0.0,0.0,0.087266,3.0,0.313586,0.344809,0.296935,0.343384,0.0,0.0,0.087534,-0.0,-0.0,-0.064803,0.0,0.0,0.0,0.0,0.0,0.0
800120,-0.005676,-0.007217,0.083024,0.0,0.0,0.0,0.0,0.0,0.087266,3.0,0.31301,0.345208,0.296018,0.344241,0.0,0.0,0.086268,-0.0,-0.0,-0.060681,0.0,0.0,0.0,0.0,0.0,0.0
800140,-0.005681,-0.007339,0.083145,0.0,0.0,0.0,0.0,0.0,0.087266,3.0,0.31043,0.345784,0.293603,0.347845,0.0,0.0,0.085087,-0.0,-0.0,-0.056363,0.0,0.0,0.0,0.0,0.0,0.0
800160,-0.005793,-0.00709,0.083145,0.0,0.0,0.0,0.0,0.0,0.087266,3.0,0.314091,0.344558,0.295768,0.344143,0.0,0.0,0.083993,-0.0,-0.0,-0.051889,0.0,0.0,0.0,0.0,0.0,0.0
800180,-0.005921,-0.007206,0.083266,0.0,0.0,0.0,0.0,0.0,0.087266,3.0,0.315591,0.344035,0.296149,0.343025,0.0,0.0,0.082989,-0.0,-0.0,-0.0473,0.0,0.0,0.0,0.0,0.0,0.0
800200,-0.006048,-0.007323,0.083387,0.0,0.0,0.0,0.0,0.0,0.087266,3.0,0.312774,0.346926,0.293082,0.345088,0.0,0.0,0.082078,-0.0,-0.0,-0.042633,0.0,0.0,0.0,0.0,0.0,0.0
800220,-0.006054,-0.007444,0.083508,0.0,0.0,0.0,0.0,0.0,0.087266,3.0,0.309994,0.348294,0.292989,0.346197,0.0,0.0,0.081261,-0.0,-0.0,-0.037925,0.0,0.0,0.0,0.0,0.0,0.0
800240,-0.006054,-0.007444,0.083629,0.0,0.0,0.0,0.0,0.0,0.087266,3.0,0.313253,0.345859,0.2957,0.34363,0.0,0.0,0.080538,-0.0,-0.0,-0.033211,0.0,0.0,0.0,0.0,0.0,0.0
800260,-0.005927,-0.007327,0.083752,0.0,0.0,0.0,0.0,0.0,0.087266,3.0,0.311627,0.344948,0.296649,0.345198,0.0,0.0,0.079909,-0.0,-0.0,-0.028523,0.0,0.0,0.0,0.0,0.0,0.0
800280,-0.005678,-0.007215,0.083753,0.0,0.0,0.0,0.0,0.0,0.087266,3.0,0.310249,0.345704,0.297732,0.344755,0.0,0.0,0.079373,-0.0,-0.0,-0.023893,0.0,0.0,0.0,0.0,0.0,0.0
800300,-0.00543,-0.007103,0.083876,0.0,0.0,0.0,0.0,0.0,0.087266,3.0,0.308954,0.346467,0.297961,0.344919,0.0,0.0,0.078929,-0.0,-0.0,-0.01935,0.0,0.0,0.0,0.0,0.0,0.0
800320,-0.005191,-0.007235,0.083998,0.0,0.0,0.0,0.0,0.0,0.087266,3.0,0.307114,0.348634,0.294805,0.346866,0.0,0.0,0.078576,-0.0,-0.0,-0.014921,0.0,0.0,0.0,0.0,0.0,0.0
800340,-0.005314,-0.007229,0.084119,0.0,0.0,0.0,0.0,0.0,0.087266,3.0,0.311748,0.345587,0.295957,0.345015,0.0,0.0,0.07831,-0.0,-0.0,-0.010629,0.0,0.0,0.0,0.0,0.0,0.0
800360,-0.005558,-0.007219,0.084118,0.0,0.0,0.0,0.0,0.0,0.087266,3.0,0.311574,0.345862,0.295388,0.345351,0.0,0.0,0.078129,-0.0,-0.0,-0.006498,0.0,0.0,0.0,0.0,0.0,0.0
800380,-0.00568,-0.007214,0.084239,0.0,0.0,0.0,0.0,0.0,0.087266,3.0,0.311594,0.346759,0.29422,0.345373,0.0,0.0,0.078029,-0.0,-0.0,-0.002547,0.0,0.0,0.0,0.0,0.0,0.0
800400,-0.005929,-0.007325,0.08436,0.0,0.0,0.0,0.0,0.0,0.087266,3.0,0.31224,0.347195,0.293141,0.345236,0.0,0.0,0.078006,-0.0,-0.0,0.001206,0.0,0.0,0.0,0.0,0.0,0.0
800420,-0.00593,-0.007325,0.084481,0.0,0.0,0.0,0.0,0.0,0.087266,3.0,0.311349,0.34745,0.293737,0.345278,0.0,0.0,0.078057,-0.0,-0.0,0.004746,0.0,0.0,0.0,0.0,0.0,0.0
800440,-0.00593,-0.007325,0.084481,0.0,0.0,0.0,0.0,0.0,0.087266,3.0,0.31537,0.345415,0.295773,0.342138,0.0,0.0,0.078177,-0.0,-0.0,0.008059,0.0,0.0,0.0,0.0,0.0,0.0
800460,-0.005803,-0.007207,0.084604,0.0,0.0,0.0,0.0,0.0,0.087266,3.0,0.312757,0.346273,0.295459,0.343846,0.0,0.0,0.078362,-0.0,-0.0,0.011136,0.0,0.0,0.0,0.0,0.0,0.0
800480,-0.005682,-0.007212,0.084726,0.0,0.0,0.0,0.0,0.0,0.087266,3.0,0.31096,0.348064,0.29211,0.346293,0.0,0.0,0.078606,-0.0,-0.0,0.013967,0.0,0.0,0.0,0.0,0.0,0.0
800500,-0.005565,-0.007339,0.084726,0.0,0.0,0.0,0.0,0.0,0.087266,3.0,0.311737,0.347541,0.294175,0.344496,0.0,0.0,0.078905,-0.0,-0.0,0.016547,0.0,0.0,0.0,0.0,0.0,0.0
800520,-0.005448,-0.007466,0.084726,0.0,0.0,0.0,0.0,0.0,0.087266,3.0,0.311335,0.347136,0.294796,0.344755,0.0,0.0,0.079254,-0.0,-0.0,0.018871,0.0,0.0,0.0,0.0,0.0,0.0
800540,-0.005697,-0.007578,0.084725,0.0,0.0,0.0,0.0,0.0,0.087266,3.0,0.311105,0.349174,0.291552,0.345488,0.0,0.0,0.079647,-0.0,-0.0,0.020936,0.0,0.0,0.0,0.0,0.0,0.0
800560,-0.005825,-0.007694,0.084845,0.0,0.0,0.0,0.0,0.0,0.087266,3.0,0.311365,0.348095,0.291882,0.346092,0.0,0.0,0.08008,-0.0,-0.0,0.022743,0.0,0.0,0.0,0.0,0.0,0.0
800580,-0.005942,-0.007567,0.084845,0.0,0.0,0.0,0.0,0.0,0.087266,3.0,0.31264,0.347406,0.292965,0.344814,0.0,0.0,0.080547,-0.0,-0.0,0.024293,0.0,0.0,0.0,0.0,0.0,0.0
800600,-0.00582,-0.007572,0.084846,0.0,0.0,0.0,0.0,0.0,0.087266,3.0,0.312292,0.346553,0.293496,0.345552,0.0,0.0,0.081043,-0.0,-0.0,0.02559,0.0,0.0,0.0,0.0,0.0,0.0
800620,-0.005815,-0.00745,0.084967,0.0,0.0,0.0,0.0,0.0,0.087266,3.0,0.311533,0.347617,0.292383,0.346031,0.0,0.0,0.081563,-0.0,-0.0,0.026637,0.0,0.0,0.0,0.0,0.0,0.0
800640,-0.005693,-0.007456,0.084984,0.0,0.0,0.0,0.0,0.0,0.087266,3.0,0.310949,0.347542,0.293654,0.345599,0.0,0.0,0.082102,-0.0,-0.0,0.027441,0.0,0.0,0.0,0.0,0.0,0.0
800660,-0.005455,-0.007588,0.085106,0.0,0.0,0.0,0.0,0.0,0.087266,3.0,0.30708,0.35094,0.291704,0.347027,0.0,0.0,0.082656,-0.0,-0.0,0.028011,0.0,0.0,0.0,0.0,0.0,0.0
800680,-0.005216,-0.00772,0.085107,0.0,0.0,0.0,0.0,0.0,0.087266,3.0,0.309828,0.347669,0.294996,0.345363,0.0,0.0,0.083219,-0.0,-0.0,0.028353,0.0,0.0,0.0,0.0,0.0,0.0
800700,-0.005338,-0.007715,0.085106,0.0,0.0,0.0,0.0,0.0,0.087266,3.0,0.309588,0.349428,0.292132,0.346081,0.0,0.0,0.083787,-0.0,-0.0,0.02848,0.0,0.0,0.0,0.0,0.0,0.0
800720,-0.005339,-0.007715,0.085228,0.0,0.0,0.0,0.0,0.0,0.087266,3.0,0.3097,0.347135,0.294208,0.346643,0.0,0.0,0.084356,-0.0,-0.0,0.0284,0.0,0.0,0.0,0.0,0.0,0.0
800740,-0.005578,-0.007582,0.085348,0.0,0.0,0.0,0.0,0.0,0.087266,3.0,0.311857,0.347651,0.292891,0.34531,0.0,0.0,0.084923,-0.0,-0.0,0.028127,0.0,0.0,0.0,0.0,0.0,0.0
800760,-0.005822,-0.007571,0.085347,0.0,0.0,0.0,0.0,0.0,0.087266,3.0,0.314576,0.343781,0.295545,0.344671,0.0,0.0,0.085482,-0.0,-0.0,0.027672,0.0,0.0,0.0,0.0,0.0,0.0
800780,-0.005817,-0.007449,0.085348,0.0,0.0,0.0,0.0,0.0,0.087266,3.0,0.310422,0.347428,0.29368,0.34615,0.0,0.0,0.086031,-0.0,-0.0,0.027049,0.0,0.0,0.0,0.0,0.0,0.0
800800,-0.0057,-0.007576,0.085469,0.0,0.0,0.0,0.0,0.0,0.087266,3.0,0.309722,0.348102,0.291298,0.347959,0.0,0.0,0.086566,-0.0,-0.0,0.026271,0.0,0.0,0.0,0.0,0.0,0.0
800820,-0.005578,-0.007581,0.08547,0.0,0.0,0.0,0.0,0.0,0.087266,3.0,0.307592,0.350261,0.291829,0.347181,0.0,0.0,0.087085,-0.0,-0.0,0.025351,0.0,0.0,0.0,0.0,0.0,0.0
800840,-0.005578,-0.007581,0.08547,0.0,0.0,0.0,0.0,0.0,0.087266,3.0,0.312162,0.346564,0.291626,0.347138,0.0,0.0,0.087585,-0.0,-0.0,0.024305,0.0,0.0,0.0,0.0,0.0,0.0
800860,-0.005456,-0.007587,0.08547,0.0,0.0,0.0,0.0,0.0,0.087266,3.0,0.311354,0.349762,0.292856,0.343631,0.0,0.0,0.088062,-0.0,-0.0,0.023145,0.0,0.0,0.0,0.0,0.0,0.0
800880,-0.005573,-0.00746,0.08547,0.0,0.0,0.0,0.0,0.0,0.087266,3.0,0.311591,0.347737,0.292606,0.345682,0.0,0.0,0.088516,-0.0,-0.0,0.021886,0.0,0.0,0.0,0.0,0.0,0.0
800900,-0.005563,-0.007216,0.085471,0.0,0.0,0.0,0.0,0.0,0.087266,3.0,0.308081,0.350092,0.289591,0.348687,0.0,0.0,0.088943,-0.0,-0.0,0.020543,0.0,0.0,0.0,0.0,0.0,0.0
800920,-0.005558,-0.007093,0.085593,0.0,0.0,0.0,0.0,0.0,0.087266,3.0,0.310252,0.348317,0.290894,0.347606,0.0,0.0,0.089344,-0.0,-0.0,0.019128,0.0,0.0,0.0,0.0,0.0,0.0
800940,-0.00568,-0.007088,0.085592,0.0,0.0,0.0,0.0,0.0,0.087266,3.0,0.311015,0.347845,0.292716,0.345984,0.0,0.0,0.089715,-0.0,-0.0,0.017657,0.0,0.0,0.0,0.0,0.0,0.0
800960,-0.005807,-0.007204,0.085713,0.0,0.0,0.0,0.0,0.0,0.087266,3.0,0.310149,0.349198,0.290252,0.347311,0.0,0.0,0.090057,-0.0,-0.0,0.016141,0.0,0.0,0.0,0.0,0.0,0.0
800980,-0.005929,-0.007199,0.085712,0.0,0.0,0.0,0.0,0.0,0.087266,3.0,0.30833,0.350115,0.290422,0.347807,0.0,0.0,0.090369,-0.0,-0.0,0.014595,0.0,0.0,0.0,0.0,0.0,0.0
801000,-0.00594,-0.007443,0.085712,0.0,0.0,0.0,0.0,0.0,0.087266,3.0,0.310616,0.347725,0.292668,0.346489,0.0,0.0,0.090649,-0.0,-0.0,0.01303,0.0,0.0,0.0,0.0,0.0,0.0
801020,-0.005934,-0.007322,0.08559,0.0,0.0,0.0,0.0,0.0,0.087266,3.0,0.310652,0.347807,0.292938,0.346161,0.0,0.0,0.090897,-0.0,-0.0,0.011458,0.0,0.0,0.0,0.0,0.0,0.0
801040,-0.005691,-0.007332,0.085713,0.0,0.0,0.0,0.0,0.0,0.087266,3.0,0.308258,0.349627,0.289932,0.34874,0.0,0.0,0.091115,-0.0,-0.0,0.009891,0.0,0.0,0.0,0.0,0.0,0.0
801060,-0.005558,-0.007093,0.085714,0.0,0.0,0.0,0.0,0.0,0.087266,3.0,0.309761,0.346232,0.295516,0.346445,0.0,0.0,0.091301,-0.0,-0.0,0.008338,0.0,0.0,0.0,0.0,0.0,0.0
801080,-0.005441,-0.00722,0.085593,0.0,0.0,0.0,0.0,0.0,0.087266,3.0,0.312347,0.345204,0.295962,0.344871,0.0,0.0,0.091456,-0.0,-0.0,0.006811,0.0,0.0,0.0,0.0,0.0,0.0
801100,-0.005557,-0.007094,0.085471,0.0,0.0,0.0,0.0,0.0,0.087266,3.0,0.311939,0.347339,0.295046,0.343821,0.0,0.0,0.091581,-0.0,-0.0,0.005319,0.0,0.0,0.0,0.0,0.0,0.0
801120,-0.005446,-0.007343,0.085471,0.0,0.0,0.0,0.0,0.0,0.087266,3.0,0.305706,0.350344,0.292449,0.3482,0.0,0.0,0.091677,-0.0,-0.0,0.003869,0.0,0.0,0.0,0.0,0.0,0.0
801140,-0.005446,-0.007343,0.085471,0.0,0.0,0.0,0.0,0.0,0.087266,3.0,0.309742,0.347449,0.295179,0.345512,0.0,0.0,0.091743,-0.0,-0.0,0.002469,0.0,0.0,0.0,0.0,0.0,0.0
801160,-0.005578,-0.007581,0.08547,0.0,0.0,0.0,0.0,0.0,0.087266,3.0,0.311393,0.347453,0.293079,0.345764,0.0,0.0,0.091783,-0.0,-0.0,0.001128,0.0,0.0,0.0,0.0,0.0,0.0
801180,-0.0057,-0.007576,0.085469,0.0,0.0,0.0,0.0,0.0,0.087266,3.0,0.31001,0.348848,0.294555,0.344368,0.0,0.0,0.091796,-0.0,-0.0,-0.000151,0.0,0.0,0.0,0.0,0.0,0.0
801200,-0.0057,-0.007576,0.085469,0.0,0.0,0.0,0.0,0.0,0.087266,3.0,0.311679,0.347246,0.292782,0.34596,0.0,0.0,0.091783,-0.0,-0.0,-0.001359,0.0,0.0,0.0,0.0,0.0,0.0
801220,-0.005568,-0.007338,0.085471,0.0,0.0,0.0,0.0,0.0,0.087266,3.0,0.311311,0.346388,0.296708,0.34398,0.0,0.0,0.091748,-0.0,-0.0,-0.002495,0.0,0.0,0.0,0.0,0.0,0.0
801240,-0.005567,-0.007338,0.085349,0.0,0.0,0.0,0.0,0.0,0.087266,3.0,0.311894,0.34517,0.295508,0.345667,0.0,0.0,0.09169,-0.0,-0.0,-0.003552,0.0,0.0,0.0,0.0,0.0,0.0
801260,-0.00544,-0.007221,0.08535,0.0,0.0,0.0,0.0,0.0,0.087266,3.0,0.311888,0.347536,0.296322,0.342625,0.0,0.0,0.091611,-0.0,-0.0,-0.004529,0.0,0.0,0.0,0.0,0.0,0.0
801280,-0.005451,-0.007465,0.085349,0.0,0.0,0.0,0.0,0.0,0.087266,3.0,0.312271,0.347752,0.292828,0.344897,0.0,0.0,0.091514,-0.0,-0.0,-0.005423,0.0,0.0,0.0,0.0,0.0,0.0
801300,-0.005689,-0.007333,0.085348,0.0,0.0,0.0,0.0,0.0,0.087266,3.0,0.311933,0.348061,0.293017,0.344729,0.0,0.0,0.091399,-0.0,-0.0,-0.006232,0.0,0.0,0.0,0.0,0.0,0.0
801320,-0.005689,-0.007333,0.085227,0.0,0.0,0.0,0.0,0.0,0.087266,3.0,0.316153,0.34511,0.295177,0.342232,0.0,0.0,0.091269,-0.0,-0.0,-0.006954,0.0,0.0,0.0,0.0,0.0,0.0
801340,-0.005928,-0.007201,0.085226,0.0,0.0,0.0,0.0,0.0,0.087266,3.0,0.315778,0.345964,0.29443,0.342312,0.0,0.0,0.091125,-0.0,-0.0,-0.007591,0.0,0.0,0.0,0.0,0.0,0.0
