time_ms,roll,pitch,yaw,x,y,z,reference_roll,reference_pitch,reference_yaw,reference_throttle,throttle_1,throttle_2,throttle_3,throttle_4,roll_predicted,pitch_predicted,yaw_predicted,roll_rate_predicted,pitch_rate_predicted,yaw_rate_predicted,value1,value2,value3,value4,value5,value6
828760,-0.0065,-0.009746,0.006195,0.0,0.0,0.0,0.0,0.0,0.0,3.0,0.286115,0.375329,0.264528,0.35783,-0.0,-0.0,0.000371,0.0,0.0,-5.8e-05,0.0,0.0,0.0,0.0,0.0,0.0
828780,-0.006499,-0.009624,0.006073,0.0,0.0,0.0,0.0,0.0,0.0,3.0,0.287752,0.372847,0.265019,0.358925,-0.0,-0.0,0.00037,0.0,0.0,-5.7e-05,0.0,0.0,0.0,0.0,0.0,0.0
828800,-0.006256,-0.009747,0.006074,0.0,0.0,0.0,0.0,0.0,0.0,3.0,0.284926,0.374411,0.267249,0.357877,-0.0,-0.0,0.000369,0.0,0.0,-5.6e-05,0.0,0.0,0.0,0.0,0.0,0.0
828820,-0.006378,-0.009869,0.006073,0.0,0.0,0.0,0.0,0.0,0.0,3.0,0.286587,0.374465,0.265338,0.357866,-0.0,-0.0,0.000368,0.0,0.0,-5.6e-05,0.0,0.0,0.0,0.0,0.0,0.0
828840,-0.006133,-0.009747,0.006075,0.0,0.0,0.0,0.0,0.0,0.0,3.0,0.286199,0.372746,0.265635,0.359769,-0.0,-0.0,0.000367,0.0,0.0,-5.6e-05,0.0,0.0,0.0,0.0,0.0,0.0
828860,-0.006013,-0.010114,0.006074,0.0,0.0,0.0,0.0,0.0,0.0,3.0,0.285541,0.37514,0.266335,0.357259,-0.0,-0.0,0.000366,0.0,0.0,-5.5e-05,0.0,0.0,0.0,0.0,0.0,0.0
828880,-0.006135,-0.010114,0.006074,0.0,0.0,0.0,0.0,0.0,0.0,3.0,0.286585,0.3749,0.265127,0.357545,-0.0,-0.0,0.000365,0.0,0.0,-5.5e-05,0.0,0.0,0.0,0.0,0.0,0.0
828900,-0.006256,-0.009991,0.006073,0.0,0.0,0.0,0.0,0.0,0.0,3.0,0.286982,0.374365,0.264604,0.358164,-0.0,-0.0,0.000364,0.0,0.0,-5.5e-05,0.0,0.0,0.0,0.0,0.0,0.0
828920,-0.006256,-0.009991,0.006073,0.0,0.0,0.0,0.0,0.0,0.0,3.0,0.286391,0.374276,0.265172,0.358322,-0.0,-0.0,0.000363,0.0,0.0,-5.5e-05,0.0,0.0,0.0,0.0,0.0,0.0
828940,-0.006256,-0.009991,0.005951,0.0,0.0,0.0,0.0,0.0,0.0,3.0,0.28651,0.374183,0.26633,0.357566,-0.0,-0.0,0.000361,0.0,0.0,-5.4e-05,0.0,0.0,0.0,0.0,0.0,0.0
828960,-0.006255,-0.010114,0.005829,0.0,0.0,0.0,0.0,0.0,0.0,3.0,0.288029,0.375316,0.265136,0.356021,-0.0,-0.0,0.00036,0.0,0.0,-5.4e-05,0.0,0.0,0.0,0.0,0.0,0.0
828980,-0.00601,-0.009871,0.005709,0.0,0.0,0.0,0.0,0.0,0.0,3.0,0.286498,0.373304,0.267117,0.357982,-0.0,-0.0,0.000359,0.0,0.0,-5.4e-05,0.0,0.0,0.0,0.0,0.0,0.0
829000,-0.005886,-0.00975,0.005465,0.0,0.0,0.0,0.0,0.0,0.0,3.0,0.289554,0.370577,0.271788,0.355415,-0.0,-0.0,0.000358,0.0,0.0,-5.4e-05,0.0,0.0,0.0,0.0,0.0,0.0
829020,-0.005763,-0.009629,0.005344,0.0,0.0,0.0,0.0,0.0,0.0,3.0,0.288673,0.372325,0.269107,0.356063,-0.0,-0.0,0.000357,0.0,0.0,-5.4e-05,0.0,0.0,0.0,0.0,0.0,0.0
829040,-0.005763,-0.009629,0.005222,0.0,0.0,0.0,0.0,0.0,0.0,3.0,0.289313,0.373287,0.265817,0.35677,-0.0,-0.0,0.000356,0.0,0.0,-5.4e-05,0.0,0.0,0.0,0.0,0.0,0.0
829060,-0.00564,-0.009752,0.0051,0.0,0.0,0.0,0.0,0.0,0.0,3.0,0.288296,0.374015,0.267138,0.355877,-0.0,-0.0,0.000355,0.0,0.0,-5.5e-05,0.0,0.0,0.0,0.0,0.0,0.0
829080,-0.00564,-0.009874,0.004978,0.0,0.0,0.0,0.0,0.0,0.0,3.0,0.288277,0.375111,0.267551,0.354438,-0.0,-0.0,0.000354,0.0,0.0,-5.5e-05,0.0,0.0,0.0,0.0,0.0,0.0
829100,-0.005639,-0.009508,0.004857,0.0,0.0,0.0,0.0,0.0,0.0,3.0,0.288404,0.372314,0.267721,0.357211,-0.0,-0.0,0.000353,0.0,0.0,-5.5e-05,0.0,0.0,0.0,0.0,0.0,0.0
829120,-0.00576,-0.009386,0.004735,0.0,0.0,0.0,0.0,0.0,0.0,3.0,0.29025,0.371877,0.266071,0.357388,-0.0,-0.0,0.000352,0.0,0.0,-5.5e-05,0.0,0.0,0.0,0.0,0.0,0.0
829140,-0.005638,-0.009508,0.004735,0.0,0.0,0.0,0.0,0.0,0.0,3.0,0.287696,0.373969,0.26794,0.355835,-0.0,-0.0,0.000351,0.0,0.0,-5.5e-05,0.0,0.0,0.0,0.0,0.0,0.0
829160,-0.005759,-0.009386,0.004612,0.0,0.0,0.0,0.0,0.0,0.0,3.0,0.290387,0.373624,0.266233,0.355323,-0.0,-0.0,0.000349,0.0,0.0,-5.6e-05,0.0,0.0,0.0,0.0,0.0,0.0
829180,-0.005636,-0.009265,0.004491,0.0,0.0,0.0,0.0,0.0,0.0,3.0,0.292064,0.371524,0.270224,0.353573,-0.0,-0.0,0.000348,0.0,-0.0,-5.6e-05,0.0,0.0,0.0,0.0,0.0,0.0
829200,-0.005391,-0.009022,0.004371,0.0,0.0,0.0,0.0,0.0,0.0,3.0,0.291295,0.369696,0.272617,0.354449,-0.0,-0.0,0.000347,0.0,0.0,-5.6e-05,0.0,0.0,0.0,0.0,0.0,0.0
829220,-0.005268,-0.008778,0.00425,0.0,0.0,0.0,0.0,0.0,0.0,3.0,0.28914,0.369847,0.271821,0.356473,-0.0,-0.0,0.000346,0.0,0.0,-5.6e-05,0.0,0.0,0.0,0.0,0.0,0.0
829240,-0.005267,-0.008779,0.004128,0.0,0.0,0.0,0.0,0.0,0.0,3.0,0.290265,0.371239,0.269008,0.35608,-0.0,-0.0,0.000345,-0.0,0.0,-5.6e-05,0.0,0.0,0.0,0.0,0.0,0.0
829260,-0.005266,-0.008657,0.003884,0.0,0.0,0.0,0.0,0.0,0.0,3.0,0.294089,0.368772,0.271755,0.35387,-0.0,-0.0,0.000344,-0.0,0.0,-5.7e-05,0.0,0.0,0.0,0.0,0.0,0.0
829280,-0.005144,-0.008658,0.003763,0.0,0.0,0.0,0.0,0.0,0.0,3.0,0.290608,0.371398,0.270104,0.354905,-0.0,-0.0,0.000343,-0.0,0.0,-5.7e-05,0.0,0.0,0.0,0.0,0.0,0.0
829300,-0.005021,-0.008536,0.003641,0.0,0.0,0.0,0.0,0.0,0.0,3.0,0.289777,0.371819,0.271028,0.354454,-0.0,-0.0,0.000342,-0.0,0.0,-5.7e-05,0.0,0.0,0.0,0.0,0.0,0.0
829320,-0.004897,-0.00817,0.003521,0.0,0.0,0.0,0.0,0.0,0.0,3.0,0.288678,0.370368,0.271644,0.356395,-0.0,-0.0,0.00034,-0.0,0.0,-5.7e-05,0.0,0.0,0.0,0.0,0.0,0.0
829340,-0.004897,-0.008171,0.003399,0.0,0.0,0.0,0.0,0.0,0.0,3.0,0.290531,0.370262,0.26998,0.356247,-0.0,-0.0,0.000339,-0.0,-0.0,-5.7e-05,0.0,0.0,0.0,0.0,0.0,0.0
829360,-0.004774,-0.008049,0.003155,0.0,0.0,0.0,0.0,0.0,0.0,3.0,0.292418,0.368785,0.272297,0.35477,-0.0,-0.0,0.000338,-0.0,0.0,-5.8e-05,0.0,0.0,0.0,0.0,0.0,0.0
829380,-0.004773,-0.007928,0.003033,0.0,0.0,0.0,0.0,0.0,0.0,3.0,0.294336,0.368274,0.273475,0.353004,-0.0,-0.0,0.000337,-0.0,0.0,-5.8e-05,0.0,0.0,0.0,0.0,0.0,0.0
829400,-0.004773,-0.007928,0.002911,0.0,0.0,0.0,0.0,0.0,0.0,3.0,0.292121,0.371306,0.270287,0.353719,-0.0,-0.0,0.000336,-0.0,0.0,-5.8e-05,0.0,0.0,0.0,0.0,0.0,0.0
829420,-0.004405,-0.007563,0.002669,0.0,0.0,0.0,0.0,0.0,0.0,3.0,0.291158,0.368416,0.275255,0.354056,-0.0,-0.0,0.000335,-0.0,0.0,-5.8e-05,0.0,0.0,0.0,0.0,0.0,0.0
829440,-0.004404,-0.007319,0.002426,0.0,0.0,0.0,0.0,0.0,0.0,3.0,0.294045,0.366,0.277495,0.35277,-0.0,-0.0,0.000333,-0.0,-0.0,-5.8e-05,0.0,0.0,0.0,0.0,0.0,0.0
829460,-0.004525,-0.007197,0.002303,0.0,0.0,0.0,0.0,0.0,0.0,3.0,0.295355,0.366381,0.275027,0.353106,-0.0,-0.0,0.000332,-0.0,0.0,-5.8e-05,0.0,0.0,0.0,0.0,0.0,0.0
829480,-0.004402,-0.006954,0.002182,0.0,0.0,0.0,0.0,0.0,0.0,3.0,0.292857,0.367558,0.272772,0.355391,-0.0,-0.0,0.000331,-0.0,0.0,-5.8e-05,0.0,0.0,0.0,0.0,0.0,0.0
829500,-0.00428,-0.006832,0.002061,0.0,0.0,0.0,0.0,0.0,0.0,3.0,0.291676,0.368099,0.274119,0.354792,-0.0,-0.0,0.00033,-0.0,0.0,-5.8e-05,0.0,0.0,0.0,0.0,0.0,0.0
829520,-0.004279,-0.006832,0.001817,0.0,0.0,0.0,0.0,0.0,0.0,3.0,0.295773,0.366108,0.2766,0.351943,-0.0,-0.0,0.000329,-0.0,0.0,-5.8e-05,0.0,0.0,0.0,0.0,0.0,0.0
829540,-0.004034,-0.006589,0.001696,0.0,0.0,0.0,0.0,0.0,0.0,3.0,0.292218,0.367168,0.276852,0.353421,-0.0,-0.0,0.000328,-0.0,0.0,-5.8e-05,0.0,0.0,0.0,0.0,0.0,0.0
829560,-0.004034,-0.006345,0.001574,0.0,0.0,0.0,0.0,0.0,0.0,3.0,0.2924,0.367588,0.274193,0.35472,-0.0,-0.0,0.000326,-0.0,-0.0,-5.8e-05,0.0,0.0,0.0,0.0,0.0,0.0
829580,-0.004033,-0.006223,0.00133,0.0,0.0,0.0,0.0,0.0,0.0,3.0,0.294948,0.36581,0.275569,0.353639,-0.0,-0.0,0.000325,-0.0,0.0,-5.8e-05,0.0,0.0,0.0,0.0,0.0,0.0
829600,-0.004154,-0.006101,0.001208,0.0,0.0,0.0,0.0,0.0,0.0,3.0,0.297506,0.364743,0.276,0.352434,-0.0,-0.0,0.000324,-0.0,0.0,-5.8e-05,0.0,0.0,0.0,0.0,0.0,0.0
829620,-0.004154,-0.005857,0.001087,0.0,0.0,0.0,0.0,0.0,0.0,3.0,0.296077,0.36558,0.276406,0.352398,-0.0,-0.0,0.000323,-0.0,0.0,-5.8e-05,0.0,0.0,0.0,0.0,0.0,0.0
829640,-0.004275,-0.005736,0.000964,0.0,0.0,0.0,0.0,0.0,0.0,3.0,0.294678,0.367669,0.273888,0.353084,-0.0,-0.0,0.000322,-0.0,0.0,-5.8e-05,0.0,0.0,0.0,0.0,0.0,0.0
829660,-0.004275,-0.005492,0.000843,0.0,0.0,0.0,0.0,0.0,0.0,3.0,0.29488,0.366978,0.274667,0.353105,-0.0,-0.0,0.000321,-0.0,0.0,-5.7e-05,0.0,0.0,0.0,0.0,0.0,0.0
829680,-0.004152,-0.005126,0.000722,0.0,0.0,0.0,0.0,0.0,0.0,3.0,0.294665,0.364836,0.27706,0.353816,-0.0,-0.0,0.00032,0.0,0.0,-5.7e-05,0.0,0.0,0.0,0.0,0.0,0.0
829700,-0.004152,-0.005004,0.0006,0.0,0.0,0.0,0.0,0.0,0.0,3.0,0.295388,0.365589,0.277682,0.352015,-0.0,-0.0,0.000318,-0.0,0.0,-5.7e-05,0.0,0.0,0.0,0.0,0.0,0.0
829720,-0.003908,-0.00476,0.000479,0.0,0.0,0.0,0.0,0.0,0.0,3.0,0.29357,0.365064,0.277494,0.354119,-0.0,-0.0,0.000317,-0.0,-0.0,-5.7e-05,0.0,0.0,0.0,0.0,0.0,0.0
829740,-0.003785,-0.004516,0.000358,0.0,0.0,0.0,0.0,0.0,0.0,3.0,0.295227,0.364418,0.277694,0.353359,-0.0,-0.0,0.000316,0.0,0.0,-5.7e-05,0.0,0.0,0.0,0.0,0.0,0.0
829760,-0.003785,-0.004394,0.000236,0.0,0.0,0.0,0.0,0.0,0.0,3.0,0.29664,0.364722,0.276679,0.352658,-0.0,-0.0,0.000315,-0.0,0.0,-5.6e-05,0.0,0.0,0.0,0.0,0.0,0.0
829780,-0.003663,-0.004028,0.000115,0.0,0.0,0.0,0.0,0.0,0.0,3.0,0.295513,0.364945,0.275712,0.353998,-0.0,-0.0,0.000314,0.0,0.0,-5.6e-05,0.0,0.0,0.0,0.0,0.0,0.0
829800,-0.003418,-0.003906,-7e-06,0.0,0.0,0.0,0.0,0.0,0.0,3.0,0.294771,0.364496,0.277637,0.353674,-0.0,-0.0,0.000313,0.0,0.0,-5.6e-05,0.0,0.0,0.0,0.0,0.0,0.0
829820,-0.003418,-0.003907,-0.000129,0.0,0.0,0.0,0.0,0.0,0.0,3.0,0.295437,0.364372,0.279108,0.352222,-0.0,-0.0,0.000312,0.0,0.0,-5.6e-05,0.0,0.0,0.0,0.0,0.0,0.0
829840,-0.003418,-0.003907,-0.000251,0.0,0.0,0.0,0.0,0.0,0.0,3.0,0.297664,0.363768,0.28066,0.349951,-0.0,-0.0,0.000311,-0.0,0.0,-5.5e-05,0.0,0.0,0.0,0.0,0.0,0.0
829860,-0.003418,-0.003785,-0.000251,0.0,0.0,0.0,0.0,0.0,0.0,3.0,0.294491,0.365767,0.277438,0.352708,-0.0,-0.0,0.000309,-0.0,0.0,-5.5e-05,0.0,0.0,0.0,0.0,0.0,0.0
829880,-0.003418,-0.003663,-0.00025,0.0,0.0,0.0,0.0,0.0,0.0,3.0,0.292455,0.367004,0.273978,0.355439,-0.0,-0.0,0.000308,-0.0,0.0,-5.5e-05,0.0,0.0,0.0,0.0,0.0,0.0
829900,-0.003296,-0.003663,-0.00025,0.0,0.0,0.0,0.0,0.0,0.0,3.0,0.292074,0.366084,0.275785,0.355422,-0.0,-0.0,0.000307,-0.0,0.0,-5.4e-05,0.0,0.0,0.0,0.0,0.0,0.0
829920,-0.003296,-0.003541,-0.00025,0.0,0.0,0.0,0.0,0.0,0.0,3.0,0.294513,0.364578,0.27672,0.354444,-0.0,-0.0,0.000306,0.0,0.0,-5.4e-05,0.0,0.0,0.0,0.0,0.0,0.0
829940,-0.003296,-0.003541,-0.00025,0.0,0.0,0.0,0.0,0.0,0.0,3.0,0.293762,0.366319,0.27516,0.354319,-0.0,-0.0,0.000305,0.0,0.0,-5.4e-05,0.0,0.0,0.0,0.0,0.0,0.0
829960,-0.003174,-0.003419,-0.00025,0.0,0.0,0.0,0.0,0.0,0.0,3.0,0.29145,0.366963,0.274883,0.355617,-0.0,-0.0,0.000304,0.0,0.0,-5.3e-05,0.0,0.0,0.0,0.0,0.0,0.0
829980,-0.003173,-0.003541,-0.000372,0.0,0.0,0.0,0.0,0.0,0.0,3.0,0.294727,0.365476,0.278565,0.352016,-0.0,-0.0,0.000303,0.0,0.0,-5.3e-05,0.0,0.0,0.0,0.0,0.0,0.0
830000,-0.003173,-0.003419,-0.000372,0.0,0.0,0.0,0.0,0.0,0.0,3.0,0.293558,0.365003,0.278508,0.353465,-0.0,-0.0,0.000302,-0.0,0.0,-5.3e-05,0.0,0.0,0.0,0.0,0.0,0.0
830020,-0.003173,-0.003297,-0.000372,0.0,0.0,0.0,0.0,0.0,0.0,3.0,0.292855,0.36582,0.27659,0.354528,-0.0,-0.0,0.000301,-0.0,0.0,-5.2e-05,0.0,0.0,0.0,0.0,0.0,0.0
830040,-0.003173,-0.003175,-0.000493,0.0,0.0,0.0,0.0,0.0,0.0,3.0,0.294046,0.363971,0.279013,0.353796,-0.0,-0.0,0.0003,0.0,0.0,-5.2e-05,0.0,0.0,0.0,0.0,0.0,0.0
830060,-0.003173,-0.003053,-0.000615,0.0,0.0,0.0,0.0,0.0,0.0,3.0,0.295499,0.362355,0.280638,0.353158,-0.0,-0.0,0.000299,-0.0,0.0,-5.2e-05,0.0,0.0,0.0,0.0,0.0,0.0
830080,-0.003173,-0.002809,-0.000615,0.0,0.0,0.0,0.0,0.0,0.0,3.0,0.295889,0.362571,0.279546,0.353422,-0.0,-0.0,0.000298,-0.0,0.0,-5.2e-05,0.0,0.0,0.0,0.0,0.0,0.0
830100,-0.003173,-0.002565,-0.000615,0.0,0.0,0.0,0.0,0.0,0.0,3.0,0.294614,0.364004,0.277445,0.354444,-0.0,-0.0,0.000297,0.0,0.0,-5.1e-05,0.0,0.0,0.0,0.0,0.0,0.0
830120,-0.003051,-0.002321,-0.000736,0.0,0.0,0.0,0.0,0.0,0.0,3.0,0.294453,0.362015,0.280386,0.354509,-0.0,-0.0,0.000296,0.0,0.0,-5.1e-05,0.0,0.0,0.0,0.0,0.0,0.0
830140,-0.003051,-0.002321,-0.000858,0.0,0.0,0.0,0.0,0.0,0.0,3.0,0.295579,0.362526,0.281468,0.352311,-0.0,-0.0,0.000295,0.0,0.0,-5.1e-05,0.0,0.0,0.0,0.0,0.0,0.0
830160,-0.002929,-0.002321,-0.00098,0.0,0.0,0.0,0.0,0.0,0.0,3.0,0.297077,0.362061,0.28379,0.349885,-0.0,-0.0,0.000294,0.0,0.0,-5e-05,0.0,0.0,0.0,0.0,0.0,0.0
830180,-0.002807,-0.002077,-0.00098,0.0,0.0,0.0,0.0,0.0,0.0,3.0,0.293787,0.363817,0.280742,0.352904,-0.0,-0.0,0.000293,0.0,0.0,-5e-05,0.0,0.0,0.0,0.0,0.0,0.0
830200,-0.002807,-0.001955,-0.000979,0.0,0.0,0.0,0.0,0.0,0.0,3.0,0.292457,0.365876,0.276593,0.354773,-0.0,-0.0,0.000292,-0.0,0.0,-5e-05,0.0,0.0,0.0,0.0,0.0,0.0
830220,-0.002685,-0.001832,-0.000979,0.0,0.0,0.0,0.0,0.0,0.0,3.0,0.292266,0.36432,0.278181,0.355404,-0.0,-0.0,0.000291,0.0,0.0,-5e-05,0.0,0.0,0.0,0.0,0.0,0.0
830240,-0.002685,-0.001832,-0.000979,0.0,0.0,0.0,0.0,0.0,0.0,3.0,0.294722,0.363968,0.279102,0.353208,-0.0,-0.0,0.00029,0.0,0.0,-4.9e-05,0.0,0.0,0.0,0.0,0.0,0.0
830260,-0.002685,-0.001832,-0.000857,0.0,0.0,0.0,0.0,0.0,0.0,3.0,0.293513,0.36476,0.276759,0.355001,-0.0,-0.0,0.000289,0.0,0.0,-4.9e-05,0.0,0.0,0.0,0.0,0.0,0.0
830280,-0.002685,-0.001954,-0.000857,0.0,0.0,0.0,0.0,0.0,0.0,3.0,0.29478,0.364492,0.27867,0.352929,-0.0,-0.0,0.000288,0.0,0.0,-4.9e-05,0.0,0.0,0.0,0.0,0.0,0.0
830300,-0.002807,-0.001832,-0.000857,0.0,0.0,0.0,0.0,0.0,0.0,3.0,0.295489,0.363269,0.278103,0.354053,-0.0,-0.0,0.000287,-0.0,0.0,-4.9e-05,0.0,0.0,0.0,0.0,0.0,0.0
830320,-0.002807,-0.001954,-0.000857,0.0,0.0,0.0,0.0,0.0,0.0,3.0,0.296452,0.3635,0.279675,0.351919,-0.0,-0.0,0.000286,0.0,0.0,-4.8e-05,0.0,0.0,0.0,0.0,0.0,0.0
830340,-0.002685,-0.001832,-0.000857,0.0,0.0,0.0,0.0,0.0,0.0,3.0,0.295963,0.361192,0.282902,0.352334,-0.0,-0.0,0.000285,0.0,0.0,-4.8e-05,0.0,0.0,0.0,0.0,0.0,0.0
830360,-0.002563,-0.002076,-0.000857,0.0,0.0,0.0,0.0,0.0,0.0,3.0,0.29406,0.364738,0.280031,0.352248,-0.0,-0.0,0.000284,0.0,0.0,-4.8e-05,0.0,0.0,0.0,0.0,0.0,0.0
830380,-0.002319,-0.001954,-0.000857,0.0,0.0,0.0,0.0,0.0,0.0,3.0,0.293082,0.362929,0.281602,0.353743,-0.0,-0.0,0.000283,0.0,0.0,-4.8e-05,0.0,0.0,0.0,0.0,0.0,0.0
830400,-0.002319,-0.001832,-0.000979,0.0,0.0,0.0,0.0,0.0,0.0,3.0,0.298587,0.359492,0.284637,0.350711,-0.0,-0.0,0.000282,0.0,0.0,-4.7e-05,0.0,0.0,0.0,0.0,0.0,0.0
830420,-0.002441,-0.001832,-0.000857,0.0,0.0,0.0,0.0,0.0,0.0,3.0,0.294623,0.363582,0.278846,0.353871,-0.0,-0.0,0.000281,0.0,0.0,-4.7e-05,0.0,0.0,0.0,0.0,0.0,0.0
830440,-0.002319,-0.001588,-0.000856,0.0,0.0,0.0,0.0,0.0,0.0,3.0,0.291765,0.364264,0.276104,0.357312,-0.0,-0.0,0.00028,0.0,0.0,-4.7e-05,0.0,0.0,0.0,0.0,0.0,0.0
830460,-0.002319,-0.001588,-0.000979,0.0,0.0,0.0,0.0,0.0,0.0,3.0,0.294979,0.361677,0.280487,0.354374,-0.0,-0.0,0.000279,0.0,0.0,-4.7e-05,0.0,0.0,0.0,0.0,0.0,0.0
830480,-0.002319,-0.001588,-0.000979,0.0,0.0,0.0,0.0,0.0,0.0,3.0,0.295574,0.361748,0.281175,0.353335,-0.0,-0.0,0.000278,0.0,0.0,-4.7e-05,0.0,0.0,0.0,0.0,0.0,0.0
830500,-0.002441,-0.001588,-0.000979,0.0,0.0,0.0,0.0,0.0,0.0,3.0,0.297432,0.361901,0.281834,0.351224,-0.0,-0.0,0.000277,0.0,0.0,-4.7e-05,0.0,0.0,0.0,0.0,0.0,0.0
830520,-0.002441,-0.001466,-0.000979,0.0,0.0,0.0,0.0,0.0,0.0,3.0,0.294618,0.363347,0.279914,0.353346,-0.0,-0.0,0.000276,0.0,0.0,-4.6e-05,0.0,0.0,0.0,0.0,0.0,0.0
830540,-0.002441,-0.001344,-0.000856,0.0,0.0,0.0,0.0,0.0,0.0,3.0,0.291726,0.365101,0.276246,0.356381,-0.0,-0.0,0.000275,0.0,0.0,-4.6e-05,0.0,0.0,0.0,0.0,0.0,0.0
830560,-0.002319,-0.001222,-0.000856,0.0,0.0,0.0,0.0,0.0,0.0,3.0,0.293748,0.36306,0.279743,0.354443,-0.0,-0.0,0.000274,0.0,0.0,-4.6e-05,0.0,0.0,0.0,0.0,0.0,0.0
830580,-0.002441,-0.0011,-0.000856,0.0,0.0,0.0,0.0,0.0,0.0,3.0,0.297999,0.360544,0.280649,0.353045,-0.0,-0.0,0.000273,0.0,0.0,-4.6e-05,0.0,0.0,0.0,0.0,0.0,0.0
830600,-0.002197,-0.001221,-0.000612,0.0,0.0,0.0,0.0,0.0,0.0,3.0,0.290238,0.366468,0.274718,0.357165,-0.0,-0.0,0.000273,0.0,0.0,-4.6e-05,0.0,0.0,0.0,0.0,0.0,0.0
830620,-0.002197,-0.001221,-0.000612,0.0,0.0,0.0,0.0,0.0,0.0,3.0,0.291714,0.365401,0.274906,0.357019,-0.0,-0.0,0.000272,0.0,0.0,-4.6e-05,0.0,0.0,0.0,0.0,0.0,0.0
830640,-0.002197,-0.001466,-0.000612,0.0,0.0,0.0,0.0,0.0,0.0,3.0,0.295423,0.364002,0.278846,0.352809,-0.0,-0.0,0.000271,0.0,0.0,-4.6e-05,0.0,0.0,0.0,0.0,0.0,0.0
830660,-0.002319,-0.001588,-0.00049,0.0,0.0,0.0,0.0,0.0,0.0,3.0,0.294507,0.366023,0.276468,0.353121,-0.0,-0.0,0.00027,0.0,0.0,-4.6e-05,0.0,0.0,0.0,0.0,0.0,0.0
830680,-0.002441,-0.001465,-0.000368,0.0,0.0,0.0,0.0,0.0,0.0,3.0,0.294377,0.365158,0.274238,0.355697,-0.0,-0.0,0.000269,0.0,0.0,-4.5e-05,0.0,0.0,0.0,0.0,0.0,0.0
830700,-0.002441,-0.001465,-0.000368,0.0,0.0,0.0,0.0,0.0,0.0,3.0,0.294295,0.364116,0.277708,0.354389,-0.0,-0.0,0.000268,0.0,0.0,-4.5e-05,0.0,0.0,0.0,0.0,0.0,0.0
830720,-0.002441,-0.001587,-0.000368,0.0,0.0,0.0,0.0,0.0,0.0,3.0,0.293877,0.364834,0.278379,0.353487,-0.0,-0.0,0.000267,0.0,0.0,-4.5e-05,0.0,0.0,0.0,0.0,0.0,0.0
830740,-0.002441,-0.001587,-0.000246,0.0,0.0,0.0,0.0,0.0,0.0,3.0,0.292863,0.365823,0.277343,0.353982,-0.0,-0.0,0.000266,0.0,0.0,-4.5e-05,0.0,0.0,0.0,0.0,0.0,0.0
830760,-0.002564,-0.001587,-0.000124,0.0,0.0,0.0,0.0,0.0,0.0,3.0,0.294002,0.365674,0.273815,0.355746,-0.0,-0.0,0.000265,0.0,0.0,-4.5e-05,0.0,0.0,0.0,0.0,0.0,0.0
830780,-0.002441,-0.001709,-0.000124,0.0,0.0,0.0,0.0,0.0,0.0,3.0,0.293669,0.364608,0.276694,0.355085,-0.0,-0.0,0.000264,0.0,0.0,-4.5e-05,0.0,0.0,0.0,0.0,0.0,0.0
830800,-0.002319,-0.002075,-0.000124,0.0,0.0,0.0,0.0,0.0,0.0,3.0,0.293854,0.365436,0.277531,0.353484,-0.0,-0.0,0.000264,0.0,0.0,-4.5e-05,0.0,0.0,0.0,0.0,0.0,0.0
830820,-0.002197,-0.002197,-2e-06,0.0,0.0,0.0,0.0,0.0,0.0,3.0,0.293216,0.36649,0.277006,0.353252,-0.0,-0.0,0.000263,0.0,0.0,-4.5e-05,0.0,0.0,0.0,0.0,0.0,0.0
830840,-0.002198,-0.002319,0.00012,0.0,0.0,0.0,0.0,0.0,0.0,3.0,0.292081,0.368039,0.275149,0.35382,-0.0,-0.0,0.000262,0.0,0.0,-4.5e-05,0.0,0.0,0.0,0.0,0.0,0.0
830860,-0.002198,-0.002319,0.00012,0.0,0.0,0.0,0.0,0.0,0.0,3.0,0.292972,0.367433,0.275766,0.353334,-0.0,-0.0,0.000261,0.0,0.0,-4.4e-05,0.0,0.0,0.0,0.0,0.0,0.0
830880,-0.00232,-0.002319,0.000119,0.0,0.0,0.0,0.0,0.0,0.0,3.0,0.294036,0.365559,0.276442,0.353991,-0.0,-0.0,0.00026,0.0,0.0,-4.4e-05,0.0,0.0,0.0,0.0,0.0,0.0
830900,-0.002442,-0.002441,0.000241,0.0,0.0,0.0,0.0,0.0,0.0,3.0,0.293322,0.367372,0.275176,0.353544,-0.0,-0.0,0.000259,0.0,0.0,-4.4e-05,0.0,0.0,0.0,0.0,0.0,0.0
830920,-0.002564,-0.002319,0.000241,0.0,0.0,0.0,0.0,0.0,0.0,3.0,0.294312,0.365468,0.27485,0.354996,-0.0,-0.0,0.000258,0.0,0.0,-4.4e-05,0.0,0.0,0.0,0.0,0.0,0.0
830940,-0.002564,-0.002441,0.000241,0.0,0.0,0.0,0.0,0.0,0.0,3.0,0.294639,0.366668,0.275431,0.353079,-0.0,-0.0,0.000257,0.0,0.0,-4.4e-05,0.0,0.0,0.0,0.0,0.0,0.0
830960,-0.002564,-0.002319,0.000241,0.0,0.0,0.0,0.0,0.0,0.0,3.0,0.297035,0.364075,0.278073,0.352019,-0.0,-0.0,0.000256,0.0,0.0,-4.4e-05,0.0,0.0,0.0,0.0,0.0,0.0
830980,-0.002442,-0.002441,0.000363,0.0,0.0,0.0,0.0,0.0,0.0,3.0,0.293312,0.367237,0.275966,0.353133,-0.0,-0.0,0.000256,0.0,0.0,-4.4e-05,0.0,0.0,0.0,0.0,0.0,0.0
831000,-0.002442,-0.002319,0.000363,0.0,0.0,0.0,0.0,0.0,0.0,3.0,0.295369,0.364852,0.277706,0.352786,-0.0,-0.0,0.000255,0.0,0.0,-4.4e-05,0.0,0.0,0.0,0.0,0.0,0.0
831020,-0.002442,-0.002441,0.000485,0.0,0.0,0.0,0.0,0.0,0.0,3.0,0.29211,0.368105,0.274096,0.354468,-0.0,-0.0,0.000254,0.0,0.0,-4.4e-05,0.0,0.0,0.0,0.0,0.0,0.0
831040,-0.002564,-0.002319,0.000485,0.0,0.0,0.0,0.0,0.0,0.0,3.0,0.293731,0.366032,0.275406,0.354469,-0.0,-0.0,0.000253,0.0,0.0,-4.3e-05,0.0,0.0,0.0,0.0,0.0,0.0
831060,-0.002808,-0.002319,0.000485,0.0,0.0,0.0,0.0,0.0,0.0,3.0,0.29509,0.366218,0.274105,0.354134,-0.0,-0.0,0.000252,0.0,0.0,-4.3e-05,0.0,0.0,0.0,0.0,0.0,0.0
831080,-0.00293,-0.002197,0.000485,0.0,0.0,0.0,0.0,0.0,0.0,3.0,0.29509,0.365145,0.274099,0.355255,-0.0,-0.0,0.000251,0.0,0.0,-4.3e-05,0.0,0.0,0.0,0.0,0.0,0.0
831100,-0.002931,-0.002319,0.000607,0.0,0.0,0.0,0.0,0.0,0.0,3.0,0.292596,0.367297,0.272887,0.355784,-0.0,-0.0,0.00025,0.0,0.0,-4.3e-05,0.0,0.0,0.0,0.0,0.0,0.0
831120,-0.002808,-0.002319,0.000607,0.0,0.0,0.0,0.0,0.0,0.0,3.0,0.292723,0.366865,0.27605,0.35392,-0.0,-0.0,0.000249,0.0,0.0,-4.3e-05,0.0,0.0,0.0,0.0,0.0,0.0
831140,-0.002687,-0.002318,0.000729,0.0,0.0,0.0,0.0,0.0,0.0,3.0,0.292642,0.367797,0.275045,0.353715,-0.0,-0.0,0.000249,0.0,0.0,-4.3e-05,0.0,0.0,0.0,0.0,0.0,0.0
831160,-0.002442,-0.002074,0.000852,0.0,0.0,0.0,0.0,0.0,0.0,3.0,0.29082,0.367852,0.273897,0.355858,-0.0,-0.0,0.000248,0.0,0.0,-4.3e-05,0.0,0.0,0.0,0.0,0.0,0.0
831180,-0.00232,-0.002074,0.000852,0.0,0.0,0.0,0.0,0.0,0.0,3.0,0.290297,0.368843,0.271623,0.356789,-0.0,-0.0,0.000247,0.0,0.0,-4.3e-05,0.0,0.0,0.0,0.0,0.0,0.0
831200,-0.00232,-0.001708,0.000853,0.0,0.0,0.0,0.0,0.0,0.0,3.0,0.293229,0.364718,0.274417,0.356908,-0.0,-0.0,0.000246,0.0,0.0,-4.2e-05,0.0,0.0,0.0,0.0,0.0,0.0
831220,-0.002442,-0.00183,0.000975,0.0,0.0,0.0,0.0,0.0,0.0,3.0,0.292963,0.367927,0.271118,0.356065,-0.0,-0.0,0.000245,0.0,0.0,-4.2e-05,0.0,0.0,0.0,0.0,0.0,0.0
831240,-0.002442,-0.00183,0.000975,0.0,0.0,0.0,0.0,0.0,0.0,3.0,0.292504,0.367517,0.272307,0.356026,-0.0,-0.0,0.000244,-0.0,0.0,-4.2e-05,0.0,0.0,0.0,0.0,0.0,0.0
831260,-0.002442,-0.001708,0.000975,0.0,0.0,0.0,0.0,0.0,0.0,3.0,0.293395,0.366145,0.274013,0.355586,-0.0,-0.0,0.000243,0.0,0.0,-4.2e-05,0.0,0.0,0.0,0.0,0.0,0.0
831280,-0.00232,-0.00183,0.000975,0.0,0.0,0.0,0.0,0.0,0.0,3.0,0.294146,0.366491,0.276869,0.352625,-0.0,-0.0,0.000243,0.0,-0.0,-4.2e-05,0.0,0.0,0.0,0.0,0.0,0.0
831300,-0.002076,-0.001708,0.001097,0.0,0.0,0.0,0.0,0.0,0.0,3.0,0.290306,0.367454,0.275565,0.355495,-0.0,-0.0,0.000242,0.0,-0.0,-4.2e-05,0.0,0.0,0.0,0.0,0.0,0.0
831320,-0.001954,-0.001586,0.001097,0.0,0.0,0.0,0.0,0.0,0.0,3.0,0.291966,0.366664,0.275199,0.355313,-0.0,-0.0,0.000241,0.0,0.0,-4.2e-05,0.0,0.0,0.0,0.0,0.0,0.0
831340,-0.00171,-0.001586,0.00122,0.0,0.0,0.0,0.0,0.0,0.0,3.0,0.289546,0.368672,0.273953,0.355925,-0.0,-0.0,0.00024,-0.0,0.0,-4.1e-05,0.0,0.0,0.0,0.0,0.0,0.0
831360,-0.001588,-0.001464,0.00122,0.0,0.0,0.0,0.0,0.0,0.0,3.0,0.291254,0.366736,0.275397,0.355642,-0.0,-0.0,0.000239,0.0,0.0,-4.1e-05,0.0,0.0,0.0,0.0,0.0,0.0
831380,-0.001466,-0.001464,0.001342,0.0,0.0,0.0,0.0,0.0,0.0,3.0,0.290043,0.367741,0.272946,0.357219,-0.0,-0.0,0.000239,0.0,0.0,-4.1e-05,0.0,0.0,0.0,0.0,0.0,0.0
831400,-0.001466,-0.001464,0.001342,0.0,0.0,0.0,0.0,0.0,0.0,3.0,0.291625,0.366603,0.273657,0.356713,-0.0,-0.0,0.000238,-0.0,0.0,-4.1e-05,0.0,0.0,0.0,0.0,0.0,0.0
831420,-0.001466,-0.001464,0.001342,0.0,0.0,0.0,0.0,0.0,0.0,3.0,0.291557,0.366866,0.274753,0.355727,-0.0,-0.0,0.000237,0.0,0.0,-4.1e-05,0.0,0.0,0.0,0.0,0.0,0.0
831440,-0.001466,-0.001586,0.001464,0.0,0.0,0.0,0.0,0.0,0.0,3.0,0.290954,0.36872,0.274161,0.354662,-0.0,-0.0,0.000236,0.0,0.0,-4.1e-05,0.0,0.0,0.0,0.0,0.0,0.0
831460,-0.001466,-0.00122,0.001586,0.0,0.0,0.0,0.0,0.0,0.0,3.0,0.290072,0.367952,0.271951,0.357662,-0.0,-0.0,0.000235,-0.0,0.0,-4e-05,0.0,0.0,0.0,0.0,0.0,0.0
831480,-0.001344,-0.00122,0.001586,0.0,0.0,0.0,0.0,0.0,0.0,3.0,0.291296,0.367145,0.273982,0.356174,-0.0,-0.0,0.000234,0.0,0.0,-4e-05,0.0,0.0,0.0,0.0,0.0,0.0
831500,-0.001344,-0.000976,0.001587,0.0,0.0,0.0,0.0,0.0,0.0,3.0,0.291367,0.366067,0.274091,0.357162,-0.0,-0.0,0.000234,0.0,0.0,-4e-05,0.0,0.0,0.0,0.0,0.0,0.0
831520,-0.001222,-0.000976,0.001709,0.0,0.0,0.0,0.0,0.0,0.0,3.0,0.290435,0.367371,0.272906,0.357336,-0.0,-0.0,0.000233,-0.0,0.0,-4e-05,0.0,0.0,0.0,0.0,0.0,0.0
831540,-0.0011,-0.001098,0.001709,0.0,0.0,0.0,0.0,0.0,0.0,3.0,0.289486,0.369344,0.272929,0.355978,-0.0,-0.0,0.000232,0.0,-0.0,-4e-05,0.0,0.0,0.0,0.0,0.0,0.0
831560,-0.001222,-0.001098,0.001587,0.0,0.0,0.0,0.0,0.0,0.0,3.0,0.29245,0.367426,0.273584,0.355276,-0.0,-0.0,0.000231,0.0,0.0,-4e-05,0.0,0.0,0.0,0.0,0.0,0.0
831580,-0.0011,-0.001098,0.001587,0.0,0.0,0.0,0.0,0.0,0.0,3.0,0.293283,0.366155,0.277261,0.35337,-0.0,-0.0,0.00023,0.0,-0.0,-4e-05,0.0,0.0,0.0,0.0,0.0,0.0
831600,-0.0011,-0.000976,0.001709,0.0,0.0,0.0,0.0,0.0,0.0,3.0,0.290042,0.367506,0.273595,0.357016,-0.0,-0.0,0.00023,0.0,-0.0,-3.9e-05,0.0,0.0,0.0,0.0,0.0,0.0
831620,-0.000978,-0.000976,0.001831,0.0,0.0,0.0,0.0,0.0,0.0,3.0,0.288616,0.368634,0.272493,0.357672,-0.0,-0.0,0.000229,-0.0,0.0,-3.9e-05,0.0,0.0,0.0,0.0,0.0,0.0
831640,-0.000855,-0.000732,0.001831,0.0,0.0,0.0,0.0,0.0,0.0,3.0,0.290241,0.366074,0.274116,0.357987,-0.0,-0.0,0.000228,0.0,0.0,-3.9e-05,0.0,0.0,0.0,0.0,0.0,0.0
831660,-0.000733,-0.00061,0.001953,0.0,0.0,0.0,0.0,0.0,0.0,3.0,0.289236,0.366629,0.274086,0.358188,-0.0,-0.0,0.000227,-0.0,-0.0,-3.9e-05,0.0,0.0,0.0,0.0,0.0,0.0
831680,-0.000611,-0.000732,0.002075,0.0,0.0,0.0,0.0,0.0,0.0,3.0,0.289083,0.367879,0.272876,0.357843,-0.0,-0.0,0.000227,0.0,0.0,-3.9e-05,0.0,0.0,0.0,0.0,0.0,0.0
831700,-0.000611,-0.000854,0.002075,0.0,0.0,0.0,0.0,0.0,0.0,3.0,0.289756,0.36762,0.27384,0.356942,-0.0,-0.0,0.000226,0.0,0.0,-3.9e-05,0.0,0.0,0.0,0.0,0.0,0.0
831720,-0.000489,-0.000976,0.002075,0.0,0.0,0.0,0.0,0.0,0.0,3.0,0.288283,0.369005,0.275507,0.355438,-0.0,-0.0,0.000225,-0.0,0.0,-3.9e-05,0.0,0.0,0.0,0.0,0.0,0.0
831740,-0.000611,-0.000854,0.002197,0.0,0.0,0.0,0.0,0.0,0.0,3.0,0.28829,0.369741,0.271511,0.357433,-0.0,-0.0,0.000224,0.0,0.0,-3.8e-05,0.0,0.0,0.0,0.0,0.0,0.0
831760,-0.000611,-0.000488,0.002198,0.0,0.0,0.0,0.0,0.0,0.0,3.0,0.288839,0.368214,0.271555,0.358583,-0.0,-0.0,0.000223,-0.0,0.0,-3.8e-05,0.0,0.0,0.0,0.0,0.0,0.0
831780,-0.000611,-0.000366,0.002198,0.0,0.0,0.0,0.0,0.0,0.0,3.0,0.290089,0.3672,0.272885,0.357787,-0.0,-0.0,0.000223,-0.0,0.0,-3.8e-05,0.0,0.0,0.0,0.0,0.0,0.0
831800,-0.000611,-0.000121,0.00232,0.0,0.0,0.0,0.0,0.0,0.0,3.0,0.289286,0.367264,0.27169,0.359139,-0.0,-0.0,0.000222,-0.0,0.0,-3.8e-05,0.0,0.0,0.0,0.0,0.0,0.0
831820,-0.00061,1e-06,0.00232,0.0,0.0,0.0,0.0,0.0,0.0,3.0,0.292671,0.366172,0.273196,0.356681,-0.0,-0.0,0.000221,-0.0,0.0,-3.8e-05,0.0,0.0,0.0,0.0,0.0,0.0
831840,-0.00061,0.000123,0.002442,0.0,0.0,0.0,0.0,0.0,0.0,3.0,0.288856,0.368884,0.270105,0.358859,-0.0,-0.0,0.00022,0.0,0.0,-3.8e-05,0.0,0.0,0.0,0.0,0.0,0.0
831860,-0.00061,0.000245,0.002442,0.0,0.0,0.0,0.0,0.0,0.0,3.0,0.289106,0.367931,0.272963,0.357712,-0.0,-0.0,0.00022,0.0,-0.0,-3.8e-05,0.0,0.0,0.0,0.0,0.0,0.0
831880,-0.000488,0.000367,0.002442,0.0,0.0,0.0,0.0,0.0,0.0,3.0,0.289818,0.36717,0.275895,0.355929,-0.0,-0.0,0.000219,0.0,0.0,-3.7e-05,0.0,0.0,0.0,0.0,0.0,0.0
831900,-0.00061,0.000611,0.002564,0.0,0.0,0.0,0.0,0.0,0.0,3.0,0.288705,0.368326,0.271558,0.358565,-0.0,-0.0,0.000218,0.0,0.0,-3.7e-05,0.0,0.0,0.0,0.0,0.0,0.0
831920,-0.000609,0.000733,0.002686,0.0,0.0,0.0,0.0,0.0,0.0,3.0,0.286097,0.370155,0.268194,0.360851,-0.0,-0.0,0.000217,-0.0,-0.0,-3.7e-05,0.0,0.0,0.0,0.0,0.0,0.0
831940,-0.000609,0.000977,0.002686,0.0,0.0,0.0,0.0,0.0,0.0,3.0,0.289374,0.366576,0.271443,0.359948,-0.0,-0.0,0.000217,0.0,0.0,-3.7e-05,0.0,0.0,0.0,0.0,0.0,0.0
831960,-0.000609,0.0011,0.002931,0.0,0.0,0.0,0.0,0.0,0.0,3.0,0.286968,0.368286,0.269097,0.36154,-0.0,-0.0,0.000216,0.0,0.0,-3.7e-05,0.0,0.0,0.0,0.0,0.0,0.0
831980,-0.000609,0.000978,0.003053,0.0,0.0,0.0,0.0,0.0,0.0,3.0,0.286758,0.369933,0.269512,0.359719,-0.0,-0.0,0.000215,0.0,-0.0,-3.7e-05,0.0,0.0,0.0,0.0,0.0,0.0
832000,-0.000609,0.000978,0.003175,0.0,0.0,0.0,0.0,0.0,0.0,3.0,0.286109,0.370584,0.269793,0.359329,-0.0,-0.0,0.000214,0.0,0.0,-3.7e-05,0.0,0.0,0.0,0.0,0.0,0.0
832020,-0.000609,0.000978,0.003297,0.0,0.0,0.0,0.0,0.0,0.0,3.0,0.286965,0.369786,0.2711,0.358648,-0.0,-0.0,0.000214,0.0,0.0,-3.7e-05,0.0,0.0,0.0,0.0,0.0,0.0
832040,-0.000609,0.000856,0.003419,0.0,0.0,0.0,0.0,0.0,0.0,3.0,0.286982,0.370221,0.269874,0.359011,-0.0,-0.0,0.000213,-0.0,0.0,-3.6e-05,0.0,0.0,0.0,0.0,0.0,0.0
832060,-0.000731,0.000612,0.003663,0.0,0.0,0.0,0.0,0.0,0.0,3.0,0.283898,0.373159,0.264959,0.361447,-0.0,-0.0,0.000212,0.0,0.0,-3.6e-05,0.0,0.0,0.0,0.0,0.0,0.0
832080,-0.000732,0.00049,0.003663,0.0,0.0,0.0,0.0,0.0,0.0,3.0,0.286708,0.369237,0.270528,0.359795,-0.0,-0.0,0.000212,0.0,0.0,-3.6e-05,0.0,0.0,0.0,0.0,0.0,0.0
832100,-0.000732,0.000368,0.003785,0.0,0.0,0.0,0.0,0.0,0.0,3.0,0.288341,0.369132,0.271505,0.358033,-0.0,-0.0,0.000211,-0.0,-0.0,-3.6e-05,0.0,0.0,0.0,0.0,0.0,0.0
832120,-0.000609,0.00049,0.004029,0.0,0.0,0.0,0.0,0.0,0.0,3.0,0.283763,0.37078,0.268537,0.361666,-0.0,-0.0,0.00021,-0.0,0.0,-3.6e-05,0.0,0.0,0.0,0.0,0.0,0.0
832140,-0.000488,0.000245,0.004151,0.0,0.0,0.0,0.0,0.0,0.0,3.0,0.283886,0.371269,0.270204,0.359957,-0.0,-0.0,0.000209,0.0,0.0,-3.6e-05,0.0,0.0,0.0,0.0,0.0,0.0
832160,-0.000732,0.000368,0.004273,0.0,0.0,0.0,0.0,0.0,0.0,3.0,0.287514,0.368485,0.270439,0.360038,-0.0,-0.0,0.000209,-0.0,0.0,-3.6e-05,0.0,0.0,0.0,0.0,0.0,0.0
832180,-0.000854,0.000368,0.004518,0.0,0.0,0.0,0.0,0.0,0.0,3.0,0.285926,0.370567,0.266075,0.361944,-0.0,-0.0,0.000208,0.0,0.0,-3.6e-05,0.0,0.0,0.0,0.0,0.0,0.0
832200,-0.000731,0.000612,0.00464,0.0,0.0,0.0,0.0,0.0,0.0,3.0,0.283361,0.36908,0.267146,0.364606,-0.0,-0.0,0.000207,-0.0,-0.0,-3.5e-05,0.0,0.0,0.0,0.0,0.0,0.0
832220,-0.000731,0.00049,0.004762,0.0,0.0,0.0,0.0,0.0,0.0,3.0,0.283672,0.369958,0.268983,0.362281,-0.0,-0.0,0.000207,-0.0,0.0,-3.5e-05,0.0,0.0,0.0,0.0,0.0,0.0
832240,-0.000731,0.00049,0.004884,0.0,0.0,0.0,0.0,0.0,0.0,3.0,0.283624,0.369747,0.268705,0.362716,-0.0,-0.0,0.000206,0.0,0.0,-3.5e-05,0.0,0.0,0.0,0.0,0.0,0.0
832260,-0.000731,0.000612,0.005006,0.0,0.0,0.0,0.0,0.0,0.0,3.0,0.283407,0.369937,0.268454,0.362842,-0.0,-0.0,0.000205,0.0,-0.0,-3.5e-05,0.0,0.0,0.0,0.0,0.0,0.0
832280,-0.000731,0.000734,0.00525,0.0,0.0,0.0,0.0,0.0,0.0,3.0,0.279413,0.371811,0.264455,0.366318,-0.0,-0.0,0.000204,-0.0,0.0,-3.5e-05,0.0,0.0,0.0,0.0,0.0,0.0
832300,-0.000975,0.000491,0.005372,0.0,0.0,0.0,0.0,0.0,0.0,3.0,0.282738,0.372345,0.264506,0.363412,-0.0,-0.0,0.000204,0.0,0.0,-3.5e-05,0.0,0.0,0.0,0.0,0.0,0.0
832320,-0.000854,0.000247,0.005494,0.0,0.0,0.0,0.0,0.0,0.0,3.0,0.282609,0.372955,0.266258,0.361734,-0.0,-0.0,0.000203,-0.0,0.0,-3.5e-05,0.0,0.0,0.0,0.0,0.0,0.0
832340,-0.000854,0.000124,0.005616,0.0,0.0,0.0,0.0,0.0,0.0,3.0,0.282954,0.37198,0.266423,0.362393,-0.0,-0.0,0.000202,-0.0,-0.0,-3.5e-05,0.0,0.0,0.0,0.0,0.0,0.0
832360,-0.000855,-0.000242,0.005738,0.0,0.0,0.0,0.0,0.0,0.0,3.0,0.281122,0.372828,0.267962,0.361803,-0.0,-0.0,0.000202,0.0,0.0,-3.4e-05,0.0,0.0,0.0,0.0,0.0,0.0
832380,-0.000977,-0.000241,0.00586,0.0,0.0,0.0,0.0,0.0,0.0,3.0,0.2813,0.371801,0.267261,0.363203,-0.0,-0.0,0.000201,0.0,0.0,-3.4e-05,0.0,0.0,0.0,0.0,0.0,0.0
832400,-0.001221,-0.000118,0.005982,0.0,0.0,0.0,0.0,0.0,0.0,3.0,0.28331,0.371529,0.264551,0.363817,-0.0,-0.0,0.0002,0.0,-0.0,-3.4e-05,0.0,0.0,0.0,0.0,0.0,0.0
832420,-0.001099,3e-06,0.006105,0.0,0.0,0.0,0.0,0.0,0.0,3.0,0.278192,0.373249,0.263081,0.36656,-0.0,-0.0,0.0002,-0.0,-0.0,-3.4e-05,0.0,0.0,0.0,0.0,0.0,0.0
832440,-0.001099,3e-06,0.006227,0.0,0.0,0.0,0.0,0.0,0.0,3.0,0.277956,0.374321,0.262403,0.366049,-0.0,-0.0,0.000199,-0.0,0.0,-3.4e-05,0.0,0.0,0.0,0.0,0.0,0.0
832460,-0.001098,0.000248,0.006227,0.0,0.0,0.0,0.0,0.0,0.0,3.0,0.28138,0.37197,0.265121,0.364361,-0.0,-0.0,0.000198,0.0,0.0,-3.4e-05,0.0,0.0,0.0,0.0,0.0,0.0
832480,-0.000976,0.000247,0.006349,0.0,0.0,0.0,0.0,0.0,0.0,3.0,0.277676,0.374425,0.262488,0.36608,-0.0,-0.0,0.000198,-0.0,0.0,-3.4e-05,0.0,0.0,0.0,0.0,0.0,0.0
832500,-0.000976,0.000125,0.006471,0.0,0.0,0.0,0.0,0.0,0.0,3.0,0.27753,0.375685,0.261731,0.365355,-0.0,-0.0,0.000197,-0.0,0.0,-3.4e-05,0.0,0.0,0.0,0.0,0.0,0.0
832520,-0.000977,-0.000241,0.006471,0.0,0.0,0.0,0.0,0.0,0.0,3.0,0.281276,0.375014,0.264121,0.36192,-0.0,-0.0,0.000196,0.0,-0.0,-3.4e-05,0.0,0.0,0.0,0.0,0.0,0.0
832540,-0.000977,-0.000241,0.006593,0.0,0.0,0.0,0.0,0.0,0.0,3.0,0.278256,0.375626,0.260709,0.365559,-0.0,-0.0,0.000196,0.0,0.0,-3.3e-05,0.0,0.0,0.0,0.0,0.0,0.0
832560,-0.001222,-0.000362,0.006593,0.0,0.0,0.0,0.0,0.0,0.0,3.0,0.281244,0.374285,0.261683,0.36426,-0.0,-0.0,0.000195,-0.0,0.0,-3.3e-05,0.0,0.0,0.0,0.0,0.0,0.0
832580,-0.001222,-0.00024,0.006593,0.0,0.0,0.0,0.0,0.0,0.0,3.0,0.281762,0.372495,0.264115,0.364198,-0.0,-0.0,0.000194,0.0,0.0,-3.3e-05,0.0,0.0,0.0,0.0,0.0,0.0
832600,-0.001465,0.000127,0.006593,0.0,0.0,0.0,0.0,0.0,0.0,3.0,0.282639,0.371139,0.263249,0.365522,-0.0,-0.0,0.000194,-0.0,-0.0,-3.3e-05,0.0,0.0,0.0,0.0,0.0,0.0
832620,-0.001465,5e-06,0.006593,0.0,0.0,0.0,0.0,0.0,0.0,3.0,0.282222,0.373073,0.263653,0.363573,-0.0,-0.0,0.000193,0.0,0.0,-3.3e-05,0.0,0.0,0.0,0.0,0.0,0.0
832640,-0.001587,0.000127,0.006593,0.0,0.0,0.0,0.0,0.0,0.0,3.0,0.281785,0.372658,0.264052,0.364055,-0.0,-0.0,0.000192,-0.0,0.0,-3.3e-05,0.0,0.0,0.0,0.0,0.0,0.0
832660,-0.001587,-0.000117,0.006715,0.0,0.0,0.0,0.0,0.0,0.0,3.0,0.279518,0.375365,0.262264,0.363977,-0.0,-0.0,0.000192,-0.0,0.0,-3.3e-05,0.0,0.0,0.0,0.0,0.0,0.0
832680,-0.001466,-0.000239,0.006715,0.0,0.0,0.0,0.0,0.0,0.0,3.0,0.280986,0.373023,0.264084,0.364219,-0.0,-0.0,0.000191,-0.0,0.0,-3.3e-05,0.0,0.0,0.0,0.0,0.0,0.0
832700,-0.001467,-0.000605,0.006715,0.0,0.0,0.0,0.0,0.0,0.0,3.0,0.28106,0.374158,0.264148,0.36295,-0.0,-0.0,0.00019,-0.0,0.0,-3.3e-05,0.0,0.0,0.0,0.0,0.0,0.0
832720,-0.001589,-0.000727,0.006714,0.0,0.0,0.0,0.0,0.0,0.0,3.0,0.283788,0.375092,0.261056,0.362012,-0.0,-0.0,0.00019,0.0,0.0,-3.2e-05,0.0,0.0,0.0,0.0,0.0,0.0
832740,-0.001467,-0.000727,0.006837,0.0,0.0,0.0,0.0,0.0,0.0,3.0,0.281011,0.375488,0.261724,0.363147,-0.0,-0.0,0.000189,-0.0,-0.0,-3.2e-05,0.0,0.0,0.0,0.0,0.0,0.0
832760,-0.001467,-0.000483,0.006837,0.0,0.0,0.0,0.0,0.0,0.0,3.0,0.281213,0.373645,0.263174,0.363999,-0.0,-0.0,0.000188,0.0,0.0,-3.2e-05,0.0,0.0,0.0,0.0,0.0,0.0
832780,-0.001711,-0.000604,0.006959,0.0,0.0,0.0,0.0,0.0,0.0,3.0,0.281185,0.37523,0.260894,0.363817,-0.0,-0.0,0.000188,-0.0,0.0,-3.2e-05,0.0,0.0,0.0,0.0,0.0,0.0
832800,-0.001955,-0.000604,0.006959,0.0,0.0,0.0,0.0,0.0,0.0,3.0,0.283337,0.374864,0.260187,0.363121,-0.0,-0.0,0.000187,-0.0,-0.0,-3.2e-05,0.0,0.0,0.0,0.0,0.0,0.0
832820,-0.001956,-0.000726,0.006958,0.0,0.0,0.0,0.0,0.0,0.0,3.0,0.281795,0.374919,0.261941,0.363049,-0.0,-0.0,0.000186,0.0,0.0,-3.2e-05,0.0,0.0,0.0,0.0,0.0,0.0
832840,-0.001957,-0.00097,0.006958,0.0,0.0,0.0,0.0,0.0,0.0,3.0,0.28108,0.37635,0.262666,0.361592,-0.0,-0.0,0.000186,-0.0,-0.0,-3.2e-05,0.0,0.0,0.0,0.0,0.0,0.0
832860,-0.001834,-0.000726,0.006958,0.0,0.0,0.0,0.0,0.0,0.0,3.0,0.280907,0.373946,0.26275,0.364171,-0.0,-0.0,0.000185,-0.0,0.0,-3.2e-05,0.0,0.0,0.0,0.0,0.0,0.0
832880,-0.001712,-0.000849,0.006958,0.0,0.0,0.0,0.0,0.0,0.0,3.0,0.279439,0.373677,0.264264,0.364508,-0.0,-0.0,0.000184,0.0,-0.0,-3.2e-05,0.0,0.0,0.0,0.0,0.0,0.0
832900,-0.001711,-0.000604,0.006959,0.0,0.0,0.0,0.0,0.0,0.0,3.0,0.282367,0.371506,0.264705,0.36441,-0.0,-0.0,0.000184,-0.0,0.0,-3.2e-05,0.0,0.0,0.0,0.0,0.0,0.0
832920,-0.001711,-0.000604,0.006959,0.0,0.0,0.0,0.0,0.0,0.0,3.0,0.284414,0.373259,0.264473,0.361286,-0.0,-0.0,0.000183,0.0,0.0,-3.1e-05,0.0,0.0,0.0,0.0,0.0,0.0
832940,-0.001709,-0.000116,0.006959,0.0,0.0,0.0,0.0,0.0,0.0,3.0,0.283282,0.370467,0.26667,0.363557,-0.0,-0.0,0.000183,0.0,-0.0,-3.1e-05,0.0,0.0,0.0,0.0,0.0,0.0
832960,-0.001709,6e-06,0.007081,0.0,0.0,0.0,0.0,0.0,0.0,3.0,0.278505,0.372449,0.26397,0.366602,-0.0,-0.0,0.000182,-0.0,0.0,-3.1e-05,0.0,0.0,0.0,0.0,0.0,0.0
832980,-0.001831,6e-06,0.007081,0.0,0.0,0.0,0.0,0.0,0.0,3.0,0.280202,0.373009,0.262511,0.36578,-0.0,-0.0,0.000181,-0.0,0.0,-3.1e-05,0.0,0.0,0.0,0.0,0.0,0.0
833000,-0.001709,-0.000116,0.007081,0.0,0.0,0.0,0.0,0.0,0.0,3.0,0.2796,0.373626,0.263119,0.365179,-0.0,-0.0,0.000181,0.0,0.0,-3.1e-05,0.0,0.0,0.0,0.0,0.0,0.0
833020,-0.00171,-0.00036,0.007081,0.0,0.0,0.0,0.0,0.0,0.0,3.0,0.277203,0.375644,0.261882,0.365526,-0.0,-0.0,0.00018,0.0,-0.0,-3.1e-05,0.0,0.0,0.0,0.0,0.0,0.0
833040,-0.001832,-0.000238,0.006959,0.0,0.0,0.0,0.0,0.0,0.0,3.0,0.281191,0.372686,0.265164,0.363729,-0.0,-0.0,0.000179,-0.0,0.0,-3.1e-05,0.0,0.0,0.0,0.0,0.0,0.0
833060,-0.001709,6e-06,0.006959,0.0,0.0,0.0,0.0,0.0,0.0,3.0,0.278081,0.372588,0.265166,0.365988,-0.0,-0.0,0.000179,0.0,-0.0,-3.1e-05,0.0,0.0,0.0,0.0,0.0,0.0
833080,-0.001952,0.000251,0.006959,0.0,0.0,0.0,0.0,0.0,0.0,3.0,0.280563,0.371898,0.262167,0.366881,-0.0,-0.0,0.000178,0.0,0.0,-3.1e-05,0.0,0.0,0.0,0.0,0.0,0.0
833100,-0.001952,0.000251,0.006837,0.0,0.0,0.0,0.0,0.0,0.0,3.0,0.281903,0.373502,0.262945,0.363807,-0.0,-0.0,0.000178,-0.0,-0.0,-3e-05,0.0,0.0,0.0,0.0,0.0,0.0
833120,-0.001829,0.000617,0.006838,0.0,0.0,0.0,0.0,0.0,0.0,3.0,0.280114,0.373664,0.263066,0.364816,-0.0,-0.0,0.000177,0.0,0.0,-3e-05,0.0,0.0,0.0,0.0,0.0,0.0
833140,-0.001584,0.000982,0.006716,0.0,0.0,0.0,0.0,0.0,0.0,3.0,0.279522,0.370908,0.265817,0.366292,-0.0,-0.0,0.000176,0.0,0.0,-3e-05,0.0,0.0,0.0,0.0,0.0,0.0
833160,-0.001462,0.000981,0.006594,0.0,0.0,0.0,0.0,0.0,0.0,3.0,0.27975,0.372471,0.266058,0.364381,-0.0,-0.0,0.000176,-0.0,-0.0,-3e-05,0.0,0.0,0.0,0.0,0.0,0.0
833180,-0.001584,0.001104,0.00635,0.0,0.0,0.0,0.0,0.0,0.0,3.0,0.285535,0.370227,0.267013,0.361964,-0.0,-0.0,0.000175,0.0,0.0,-3e-05,0.0,0.0,0.0,0.0,0.0,0.0
833200,-0.001461,0.001225,0.00635,0.0,0.0,0.0,0.0,0.0,0.0,3.0,0.281229,0.372296,0.263732,0.365021,-0.0,-0.0,0.000175,0.0,0.0,-3e-05,0.0,0.0,0.0,0.0,0.0,0.0
833220,-0.00146,0.001469,0.006228,0.0,0.0,0.0,0.0,0.0,0.0,3.0,0.282573,0.37071,0.263985,0.365539,-0.0,-0.0,0.000174,0.0,0.0,-3e-05,0.0,0.0,0.0,0.0,0.0,0.0
833240,-0.001339,0.001347,0.006228,0.0,0.0,0.0,0.0,0.0,0.0,3.0,0.280517,0.373417,0.264403,0.363937,-0.0,-0.0,0.000173,-0.0,0.0,-3e-05,0.0,0.0,0.0,0.0,0.0,0.0
833260,-0.001459,0.001836,0.006106,0.0,0.0,0.0,0.0,0.0,0.0,3.0,0.281947,0.371349,0.264016,0.365308,-0.0,-0.0,0.000173,-0.0,0.0,-3e-05,0.0,0.0,0.0,0.0,0.0,0.0
833280,-0.001581,0.001958,0.006106,0.0,0.0,0.0,0.0,0.0,0.0,3.0,0.282383,0.372113,0.262569,0.365137,-0.0,-0.0,0.000172,0.0,0.0,-3e-05,0.0,0.0,0.0,0.0,0.0,0.0
833300,-0.001581,0.00208,0.005984,0.0,0.0,0.0,0.0,0.0,0.0,3.0,0.283445,0.371602,0.262645,0.364864,-0.0,-0.0,0.000172,0.0,-0.0,-2.9e-05,0.0,0.0,0.0,0.0,0.0,0.0
833320,-0.001459,0.00208,0.005984,0.0,0.0,0.0,0.0,0.0,0.0,3.0,0.281946,0.372706,0.263364,0.364331,-0.0,-0.0,0.000171,-0.0,0.0,-2.9e-05,0.0,0.0,0.0,0.0,0.0,0.0
833340,-0.001337,0.002079,0.005862,0.0,0.0,0.0,0.0,0.0,0.0,3.0,0.282686,0.373075,0.263809,0.363142,-0.0,-0.0,0.00017,-0.0,-0.0,-2.9e-05,0.0,0.0,0.0,0.0,0.0,0.0
833360,-0.001092,0.002445,0.00574,0.0,0.0,0.0,0.0,0.0,0.0,3.0,0.281554,0.370594,0.265479,0.365416,-0.0,-0.0,0.00017,0.0,0.0,-2.9e-05,0.0,0.0,0.0,0.0,0.0,0.0
833380,-0.001092,0.002445,0.005618,0.0,0.0,0.0,0.0,0.0,0.0,3.0,0.282834,0.371984,0.26539,0.363145,-0.0,-0.0,0.000169,-0.0,0.0,-2.9e-05,0.0,0.0,0.0,0.0,0.0,0.0
833400,-0.001213,0.002689,0.005496,0.0,0.0,0.0,0.0,0.0,0.0,3.0,0.286817,0.368772,0.266951,0.362569,-0.0,-0.0,0.000169,0.0,0.0,-2.9e-05,0.0,0.0,0.0,0.0,0.0,0.0
833420,-0.001213,0.002933,0.005374,0.0,0.0,0.0,0.0,0.0,0.0,3.0,0.286933,0.368979,0.267548,0.36188,-0.0,-0.0,0.000168,0.0,-0.0,-2.9e-05,0.0,0.0,0.0,0.0,0.0,0.0
833440,-0.00109,0.003055,0.005374,0.0,0.0,0.0,0.0,0.0,0.0,3.0,0.282152,0.369983,0.265395,0.365672,-0.0,-0.0,0.000168,-0.0,0.0,-2.9e-05,0.0,0.0,0.0,0.0,0.0,0.0
833460,-0.000969,0.00281,0.005251,0.0,0.0,0.0,0.0,0.0,0.0,3.0,0.282634,0.371105,0.26849,0.362167,-0.0,-0.0,0.000167,0.0,0.0,-2.9e-05,0.0,0.0,0.0,0.0,0.0,0.0
833480,-0.00109,0.003177,0.005252,0.0,0.0,0.0,0.0,0.0,0.0,3.0,0.282178,0.370167,0.265426,0.365447,-0.0,-0.0,0.000166,0.0,-0.0,-2.8e-05,0.0,0.0,0.0,0.0,0.0,0.0
833500,-0.001091,0.003177,0.00513,0.0,0.0,0.0,0.0,0.0,0.0,3.0,0.283026,0.370124,0.266514,0.36419,-0.0,-0.0,0.000166,0.0,0.0,-2.8e-05,0.0,0.0,0.0,0.0,0.0,0.0
833520,-0.000968,0.003421,0.00513,0.0,0.0,0.0,0.0,0.0,0.0,3.0,0.28137,0.368781,0.266509,0.366719,-0.0,-0.0,0.000165,0.0,0.0,-2.8e-05,0.0,0.0,0.0,0.0,0.0,0.0
833540,-0.000968,0.003421,0.005007,0.0,0.0,0.0,0.0,0.0,0.0,3.0,0.282609,0.370149,0.267285,0.363958,-0.0,-0.0,0.000165,-0.0,0.0,-2.8e-05,0.0,0.0,0.0,0.0,0.0,0.0
833560,-0.000968,0.003543,0.005007,0.0,0.0,0.0,0.0,0.0,0.0,3.0,0.281799,0.370485,0.266371,0.36478,-0.0,-0.0,0.000164,-0.0,-0.0,-2.8e-05,0.0,0.0,0.0,0.0,0.0,0.0
833580,-0.000846,0.003542,0.004885,0.0,0.0,0.0,0.0,0.0,0.0,3.0,0.281693,0.370806,0.267689,0.363669,-0.0,-0.0,0.000164,-0.0,0.0,-2.8e-05,0.0,0.0,0.0,0.0,0.0,0.0
833600,-0.000723,0.003786,0.004763,0.0,0.0,0.0,0.0,0.0,0.0,3.0,0.283855,0.367104,0.272141,0.362958,-0.0,-0.0,0.000163,0.0,0.0,-2.8e-05,0.0,0.0,0.0,0.0,0.0,0.0
833620,-0.000723,0.003786,0.004763,0.0,0.0,0.0,0.0,0.0,0.0,3.0,0.28176,0.370186,0.267476,0.364395,-0.0,-0.0,0.000162,-0.0,-0.0,-2.8e-05,0.0,0.0,0.0,0.0,0.0,0.0
833640,-0.000845,0.003908,0.004641,0.0,0.0,0.0,0.0,0.0,0.0,3.0,0.284447,0.367996,0.268157,0.364274,-0.0,-0.0,0.000162,0.0,0.0,-2.8e-05,0.0,0.0,0.0,0.0,0.0,0.0
833660,-0.000723,0.004152,0.004641,0.0,0.0,0.0,0.0,0.0,0.0,3.0,0.282375,0.368651,0.266895,0.365899,-0.0,-0.0,0.000161,-0.0,-0.0,-2.8e-05,0.0,0.0,0.0,0.0,0.0,0.0
833680,-0.000723,0.004274,0.004519,0.0,0.0,0.0,0.0,0.0,0.0,3.0,0.284267,0.367753,0.268671,0.364313,-0.0,-0.0,0.000161,0.0,0.0,-2.8e-05,0.0,0.0,0.0,0.0,0.0,0.0
833700,-0.000845,0.004275,0.004519,0.0,0.0,0.0,0.0,0.0,0.0,3.0,0.283326,0.369415,0.266182,0.364915,-0.0,-0.0,0.00016,-0.0,-0.0,-2.7e-05,0.0,0.0,0.0,0.0,0.0,0.0
833720,-0.000723,0.004152,0.004519,0.0,0.0,0.0,0.0,0.0,0.0,3.0,0.281403,0.370806,0.268025,0.363653,-0.0,-0.0,0.00016,-0.0,-0.0,-2.7e-05,0.0,0.0,0.0,0.0,0.0,0.0
833740,-0.0006,0.004396,0.004519,0.0,0.0,0.0,0.0,0.0,0.0,3.0,0.280181,0.369848,0.267436,0.365868,-0.0,-0.0,0.000159,-0.0,0.0,-2.7e-05,0.0,0.0,0.0,0.0,0.0,0.0
833760,-0.000601,0.004396,0.004397,0.0,0.0,0.0,0.0,0.0,0.0,3.0,0.284205,0.368081,0.266993,0.365119,-0.0,-0.0,0.000159,-0.0,-0.0,-2.7e-05,0.0,0.0,0.0,0.0,0.0,0.0
833780,-0.000479,0.004274,0.004396,0.0,0.0,0.0,0.0,0.0,0.087266,3.0,0.549326,0.15,0.543315,0.15,-0.0,-0.0,0.0008,0.0,-0.0,0.107224,0.0,0.0,0.0,0.0,0.0,0.0
833800,-0.000106,0.004883,0.006593,0.0,0.0,0.0,0.0,0.0,0.087266,3.0,0.381734,0.257974,0.375514,0.255327,-0.0,-0.0,0.003322,-0.0,-0.0,0.149245,0.0,0.0,0.0,0.0,0.0,0.0
833820,0.000154,0.005126,0.01233,0.0,0.0,0.0,0.0,0.0,0.087266,3.0,0.329286,0.330918,0.316973,0.324738,-0.0,-0.0,0.006491,-0.0,0.0,0.172218,0.0,0.0,0.0,0.0,0.0,0.0
833840,0.000295,0.005369,0.018921,0.0,0.0,0.0,0.0,0.0,0.087266,3.0,0.310129,0.346861,0.29766,0.343752,-0.0,-0.0,0.010079,-0.0,0.0,0.190803,0.0,0.0,0.0,0.0,0.0,0.0
833860,0.000309,0.005246,0.024906,0.0,0.0,0.0,0.0,0.0,0.087266,3.0,0.310656,0.347398,0.300677,0.340229,-0.0,-0.0,0.014019,0.0,0.0,0.206918,0.0,0.0,0.0,0.0,0.0,0.0
833880,0.000448,0.005365,0.030396,0.0,0.0,0.0,0.0,0.0,0.087266,3.0,0.311795,0.34656,0.299462,0.341102,-0.0,-0.0,0.018265,-0.0,0.0,0.220714,0.0,0.0,0.0,0.0,0.0,0.0
833900,0.000461,0.005364,0.03516,0.0,0.0,0.0,0.0,0.0,0.087266,3.0,0.312238,0.346849,0.298398,0.341303,-0.0,-0.0,0.022769,0.0,0.0,0.232229,0.0,0.0,0.0,0.0,0.0,0.0
833920,0.000223,0.005124,0.039315,0.0,0.0,0.0,0.0,0.0,0.087266,3.0,0.311905,0.348175,0.297369,0.341093,-0.0,-0.0,0.027486,0.0,0.0,0.241507,0.0,0.0,0.0,0.0,0.0,0.0
833940,-1.4e-05,0.005006,0.043218,0.0,0.0,0.0,0.0,0.0,0.087266,3.0,0.311532,0.347344,0.297282,0.342344,-0.0,-0.0,0.032373,0.0,0.0,0.248607,0.0,0.0,0.0,0.0,0.0,0.0
833960,0.000231,0.004635,0.046883,0.0,0.0,0.0,0.0,0.0,0.087266,3.0,0.308922,0.350829,0.296893,0.341369,-0.0,-0.0,0.037386,0.0,0.0,0.253596,0.0,0.0,0.0,0.0,0.0,0.0
833980,0.000364,0.004753,0.050305,0.0,0.0,0.0,0.0,0.0,0.087266,3.0,0.304381,0.352073,0.291689,0.348156,-0.0,-0.0,0.042483,0.0,-0.0,0.256554,0.0,0.0,0.0,0.0,0.0,0.0
834000,0.000364,0.004509,0.05323,0.0,0.0,0.0,0.0,0.0,0.087266,3.0,0.307569,0.350267,0.294151,0.345349,-0.0,-0.0,0.047625,0.0,0.0,0.257572,0.0,0.0,0.0,0.0,0.0,0.0
834020,0.000377,0.004752,0.055799,0.0,0.0,0.0,0.0,0.0,0.087266,3.0,0.312036,0.34547,0.299174,0.342238,-0.0,-0.0,0.052773,0.0,0.0,0.256746,0.0,0.0,0.0,0.0,0.0,0.0
834040,0.000637,0.005111,0.058246,0.0,0.0,0.0,0.0,0.0,0.087266,3.0,0.309355,0.346895,0.297751,0.344313,-0.0,-0.0,0.057891,-0.0,0.0,0.254184,0.0,0.0,0.0,0.0,0.0,0.0
834060,0.001027,0.005709,0.060315,0.0,0.0,0.0,0.0,0.0,0.087266,3.0,0.306597,0.346878,0.29844,0.346129,-0.0,-0.0,0.062946,0.0,-0.0,0.249996,0.0,0.0,0.0,0.0,0.0,0.0
834080,0.001169,0.006192,0.06202,0.0,0.0,0.0,0.0,0.0,0.087266,3.0,0.307123,0.344868,0.299424,0.346884,-0.0,-0.0,0.067905,0.0,0.0,0.2443,0.0,0.0,0.0,0.0,0.0,0.0
834100,0.001559,0.00679,0.063491,0.0,0.0,0.0,0.0,0.0,0.087266,3.0,0.310731,0.340868,0.304134,0.343825,-0.0,-0.0,0.07274,0.0,0.0,0.237217,0.0,0.0,0.0,0.0,0.0,0.0
834120,0.001958,0.007631,0.06495,0.0,0.0,0.0,0.0,0.0,0.087266,3.0,0.309669,0.341513,0.301921,0.345964,-0.0,-0.0,0.077424,0.0,0.0,0.228872,0.0,0.0,0.0,0.0,0.0,0.0
834140,0.002357,0.008472,0.066178,0.0,0.0,0.0,0.0,0.0,0.087266,3.0,0.307679,0.342613,0.30179,0.346693,-0.0,-0.0,0.081932,0.0,0.0,0.219391,0.0,0.0,0.0,0.0,0.0,0.0
834160,0.002756,0.009313,0.067149,0.0,0.0,0.0,0.0,0.0,0.087266,3.0,0.308384,0.340845,0.303341,0.346538,-0.0,-0.0,0.086243,-0.0,0.0,0.2089,0.0,0.0,0.0,0.0,0.0,0.0
834180,0.00315,0.010031,0.067998,0.0,0.0,0.0,0.0,0.0,0.087266,3.0,0.310557,0.339424,0.305155,0.344534,-0.0,-0.0,0.090337,0.0,-0.0,0.197529,0.0,0.0,0.0,0.0,0.0,0.0
834200,0.003546,0.010749,0.06886,0.0,0.0,0.0,0.0,0.0,0.087266,3.0,0.312731,0.338719,0.304803,0.343622,-0.0,-0.0,0.094197,0.0,-0.0,0.185402,0.0,0.0,0.0,0.0,0.0,0.0
834220,0.003694,0.011353,0.06971,0.0,0.0,0.0,0.0,0.0,0.087266,3.0,0.310963,0.340922,0.300533,0.346576,-0.0,-0.0,0.09781,-0.0,-0.0,0.172646,0.0,0.0,0.0,0.0,0.0,0.0
834240,0.003707,0.011596,0.07044,0.0,0.0,0.0,0.0,0.0,0.087266,3.0,0.308846,0.343544,0.298907,0.34715,-0.0,-0.0,0.101165,-0.0,0.0,0.159382,0.0,0.0,0.0,0.0,0.0,0.0
834260,0.003714,0.011717,0.071049,0.0,0.0,0.0,0.0,0.0,0.087266,3.0,0.311599,0.342727,0.300389,0.344363,-0.0,-0.0,0.10425,0.0,0.0,0.145731,0.0,0.0,0.0,0.0,0.0,0.0
834280,0.003831,0.011467,0.071535,0.0,0.0,0.0,0.0,0.0,0.087266,3.0,0.313018,0.343315,0.303344,0.34003,-0.0,-0.0,0.107061,0.0,-0.0,0.131807,0.0,0.0,0.0,0.0,0.0,0.0
834300,0.003576,0.011109,0.072024,0.0,0.0,0.0,0.0,0.0,0.087266,3.0,0.311247,0.347079,0.297207,0.342926,-0.0,-0.0,0.109592,-0.0,-0.0,0.117723,0.0,0.0,0.0,0.0,0.0,0.0
834320,0.003325,0.010873,0.072269,0.0,0.0,0.0,0.0,0.0,0.087266,3.0,0.312542,0.344568,0.299535,0.342403,-0.0,-0.0,0.11184,-0.0,-0.0,0.103585,0.0,0.0,0.0,0.0,0.0,0.0
834340,0.003317,0.01063,0.072404,0.0,0.0,0.0,0.0,0.0,0.087266,3.0,0.312493,0.343028,0.302054,0.341882,-0.0,-0.0,0.113806,0.0,-0.0,0.089493,0.0,0.0,0.0,0.0,0.0,0.0
834360,0.003069,0.010516,0.072527,0.0,0.0,0.0,0.0,0.0,0.087266,3.0,0.315192,0.342032,0.302856,0.339791,-0.0,-0.0,0.115491,0.0,0.0,0.075543,0.0,0.0,0.0,0.0,0.0,0.0
834380,0.003065,0.010394,0.072649,0.0,0.0,0.0,0.0,0.0,0.087266,3.0,0.313987,0.341888,0.304188,0.339879,-0.0,-0.0,0.116898,-0.0,0.0,0.061823,0.0,0.0,0.0,0.0,0.0,0.0
834400,0.003075,0.010638,0.072771,0.0,0.0,0.0,0.0,0.0,0.087266,3.0,0.313876,0.340344,0.304113,0.34159,-0.0,-0.0,0.118034,0.0,-0.0,0.048418,0.0,0.0,0.0,0.0,0.0,0.0
834420,0.003324,0.010751,0.072891,0.0,0.0,0.0,0.0,0.0,0.087266,3.0,0.311415,0.34159,0.30344,0.343098,-0.0,-0.0,0.118904,-0.0,0.0,0.035401,0.0,0.0,0.0,0.0,0.0,0.0
834440,0.003338,0.011117,0.073012,0.0,0.0,0.0,0.0,0.0,0.087266,3.0,0.311759,0.340649,0.30266,0.344385,-0.0,-0.0,0.119517,-0.0,0.0,0.022843,0.0,0.0,0.0,0.0,0.0,0.0
834460,0.003211,0.010999,0.073013,0.0,0.0,0.0,0.0,0.0,0.087266,3.0,0.315142,0.339454,0.305321,0.340305,-0.0,-0.0,0.119883,-0.0,-0.0,0.010806,0.0,0.0,0.0,0.0,0.0,0.0
834480,0.003334,0.010994,0.073134,0.0,0.0,0.0,0.0,0.0,0.087266,3.0,0.3121,0.341433,0.304126,0.34207,-0.0,-0.0,0.120012,0.0,-0.0,-0.000655,0.0,0.0,0.0,0.0,0.0,0.0
834500,0.003334,0.010994,0.073134,0.0,0.0,0.0,0.0,0.0,0.087266,3.0,0.3138,0.339526,0.306797,0.340162,-0.0,-0.0,0.119916,-0.0,0.0,-0.011492,0.0,0.0,0.0,0.0,0.0,0.0
834520,0.003208,0.010877,0.073135,0.0,0.0,0.0,0.0,0.0,0.087266,3.0,0.315047,0.339831,0.305869,0.33954,-0.0,-0.0,0.119609,-0.0,0.0,-0.021663,0.0,0.0,0.0,0.0,0.0,0.0
834540,0.002955,0.010642,0.073258,0.0,0.0,0.0,0.0,0.0,0.087266,3.0,0.316022,0.340458,0.303831,0.339788,-0.0,-0.0,0.119104,0.0,-0.0,-0.031134,0.0,0.0,0.0,0.0,0.0,0.0
834560,0.002946,0.010398,0.073258,0.0,0.0,0.0,0.0,0.0,0.087266,3.0,0.315506,0.340098,0.305258,0.339388,-0.0,-0.0,0.118414,0.0,0.0,-0.039878,0.0,0.0,0.0,0.0,0.0,0.0
834580,0.002937,0.010154,0.073259,0.0,0.0,0.0,0.0,0.0,0.087266,3.0,0.316281,0.339978,0.304606,0.339368,-0.0,-0.0,0.117556,-0.0,0.0,-0.047873,0.0,0.0,0.0,0.0,0.0,0.0
834600,0.002937,0.010154,0.073259,0.0,0.0,0.0,0.0,0.0,0.087266,3.0,0.318526,0.337576,0.306911,0.337708,-0.0,-0.0,0.116543,0.0,-0.0,-0.055104,0.0,0.0,0.0,0.0,0.0,0.0
834620,0.003064,0.010271,0.07338,0.0,0.0,0.0,0.0,0.0,0.087266,3.0,0.314099,0.339882,0.30563,0.340549,-0.0,-0.0,0.115391,-0.0,0.0,-0.061562,0.0,0.0,0.0,0.0,0.0,0.0
834640,0.003073,0.010515,0.073379,0.0,0.0,0.0,0.0,0.0,0.087266,3.0,0.315335,0.338242,0.305619,0.341079,-0.0,-0.0,0.114116,-0.0,-0.0,-0.067245,0.0,0.0,0.0,0.0,0.0,0.0
834660,0.003205,0.010754,0.0735,0.0,0.0,0.0,0.0,0.0,0.087266,3.0,0.313415,0.339904,0.304449,0.34215,-0.0,-0.0,0.112733,0.0,-0.0,-0.072155,0.0,0.0,0.0,0.0,0.0,0.0
834680,0.00321,0.010876,0.073621,0.0,0.0,0.0,0.0,0.0,0.087266,3.0,0.311357,0.341804,0.30314,0.34319,-0.0,-0.0,0.111258,-0.0,0.0,-0.076301,0.0,0.0,0.0,0.0,0.0,0.0
834700,0.003206,0.010754,0.073622,0.0,0.0,0.0,0.0,0.0,0.087266,3.0,0.314505,0.339982,0.305862,0.339884,-0.0,-0.0,0.109705,0.0,0.0,-0.079694,0.0,0.0,0.0,0.0,0.0,0.0
834720,0.003202,0.010632,0.073865,0.0,0.0,0.0,0.0,0.0,0.087266,3.0,0.310602,0.343094,0.302866,0.342795,-0.0,-0.0,0.10809,-0.0,0.0,-0.082352,0.0,0.0,0.0,0.0,0.0,0.0
834740,0.00308,0.010636,0.073866,0.0,0.0,0.0,0.0,0.0,0.087266,3.0,0.315283,0.339555,0.304524,0.340763,-0.0,-0.0,0.106427,-0.0,-0.0,-0.084297,0.0,0.0,0.0,0.0,0.0,0.0
834760,0.003199,0.010509,0.073987,0.0,0.0,0.0,0.0,0.0,0.087266,3.0,0.313662,0.340292,0.305668,0.340498,-0.0,-0.0,0.104731,0.0,-0.0,-0.085553,0.0,0.0,0.0,0.0,0.0,0.0
834780,0.003068,0.01027,0.07411,0.0,0.0,0.0,0.0,0.0,0.087266,3.0,0.314053,0.341318,0.304983,0.33971,-0.0,-0.0,0.103014,-0.0,0.0,-0.08615,0.0,0.0,0.0,0.0,0.0,0.0
834800,0.002942,0.010152,0.074232,0.0,0.0,0.0,0.0,0.0,0.087266,3.0,0.314639,0.34101,0.303346,0.340898,-0.0,-0.0,0.101291,0.0,0.0,-0.086118,0.0,0.0,0.0,0.0,0.0,0.0
834820,0.002943,0.010152,0.074354,0.0,0.0,0.0,0.0,0.0,0.087266,3.0,0.313194,0.3415,0.303072,0.34193,-0.0,-0.0,0.099572,-0.0,-0.0,-0.085492,0.0,0.0,0.0,0.0,0.0,0.0
834840,0.00283,0.0104,0.074354,0.0,0.0,0.0,0.0,0.0,0.087266,3.0,0.315015,0.338878,0.304239,0.341918,-0.0,-0.0,0.09787,-0.0,0.0,-0.08431,0.0,0.0,0.0,0.0,0.0,0.0
834860,0.00284,0.010644,0.074476,0.0,0.0,0.0,0.0,0.0,0.087266,3.0,0.314766,0.339142,0.303682,0.342355,-0.0,-0.0,0.096196,0.0,0.0,-0.082608,0.0,0.0,0.0,0.0,0.0,0.0
834880,0.003084,0.010635,0.074596,0.0,0.0,0.0,0.0,0.0,0.087266,3.0,0.312325,0.341339,0.305246,0.341007,-0.0,-0.0,0.09456,-0.0,0.0,-0.080427,0.0,0.0,0.0,0.0,0.0,0.0
834900,0.002967,0.010761,0.074596,0.0,0.0,0.0,0.0,0.0,0.087266,3.0,0.314642,0.339855,0.304382,0.341162,-0.0,-0.0,0.09297,0.0,-0.0,-0.077809,0.0,0.0,0.0,0.0,0.0,0.0
834920,0.003085,0.010635,0.074717,0.0,0.0,0.0,0.0,0.0,0.087266,3.0,0.312546,0.342145,0.303393,0.341587,-0.0,-0.0,0.091436,-0.0,0.0,-0.074794,0.0,0.0,0.0,0.0,0.0,0.0
834940,0.00309,0.010757,0.074717,0.0,0.0,0.0,0.0,0.0,0.087266,3.0,0.31441,0.339924,0.304424,0.341265,-0.0,-0.0,0.089965,-0.0,0.0,-0.071426,0.0,0.0,0.0,0.0,0.0,0.0
834960,0.003094,0.010879,0.074717,0.0,0.0,0.0,0.0,0.0,0.087266,3.0,0.314319,0.339557,0.304832,0.341362,-0.0,-0.0,0.088563,0.0,0.0,-0.067746,0.0,0.0,0.0,0.0,0.0,0.0
834980,0.002968,0.010761,0.074718,0.0,0.0,0.0,0.0,0.0,0.087266,3.0,0.314843,0.340555,0.304397,0.34027,-0.0,-0.0,0.087238,0.0,-0.0,-0.063798,0.0,0.0,0.0,0.0,0.0,0.0
835000,0.002846,0.010766,0.07484,0.0,0.0,0.0,0.0,0.0,0.087266,3.0,0.313731,0.341996,0.302257,0.341647,-0.0,-0.0,0.085993,-0.0,0.0,-0.059623,0.0,0.0,0.0,0.0,0.0,0.0
835020,0.002968,0.010761,0.07484,0.0,0.0,0.0,0.0,0.0,0.087266,3.0,0.313223,0.340582,0.304296,0.341778,-0.0,-0.0,0.084833,0.0,-0.0,-0.055262,0.0,0.0,0.0,0.0,0.0,0.0
835040,0.002842,0.010644,0.074841,0.0,0.0,0.0,0.0,0.0,0.087266,3.0,0.314326,0.340692,0.303314,0.341522,-0.0,-0.0,0.083761,-0.0,0.0,-0.050756,0.0,0.0,0.0,0.0,0.0,0.0
835060,0.002711,0.010404,0.074841,0.0,0.0,0.0,0.0,0.0,0.087266,3.0,0.31391,0.341502,0.302344,0.341907,-0.0,-0.0,0.08278,-0.0,0.0,-0.046144,0.0,0.0,0.0,0.0,0.0,0.0
835080,0.00271,0.010404,0.07472,0.0,0.0,0.0,0.0,0.0,0.087266,3.0,0.316232,0.338149,0.306406,0.339679,-0.0,-0.0,0.081893,-0.0,0.0,-0.041463,0.0,0.0,0.0,0.0,0.0,0.0
835100,0.002827,0.010278,0.074719,0.0,0.0,0.0,0.0,0.0,0.087266,3.0,0.316464,0.337553,0.30893,0.337848,-0.0,-0.0,0.081099,-0.0,0.0,-0.036751,0.0,0.0,0.0,0.0,0.0,0.0
835120,0.002945,0.010151,0.07484,0.0,0.0,0.0,0.0,0.0,0.087266,3.0,0.312888,0.340181,0.306583,0.340509,-0.0,-0.0,0.080399,0.0,-0.0,-0.03204,0.0,0.0,0.0,0.0,0.0,0.0
835140,0.00295,0.010273,0.07484,0.0,0.0,0.0,0.0,0.0,0.087266,3.0,0.313942,0.338942,0.305985,0.341317,-0.0,-0.0,0.079793,-0.0,0.0,-0.027364,0.0,0.0,0.0,0.0,0.0,0.0
835160,0.002954,0.010395,0.07484,0.0,0.0,0.0,0.0,0.0,0.087266,3.0,0.314686,0.338735,0.305339,0.341413,-0.0,-0.0,0.079281,0.0,0.0,-0.022753,0.0,0.0,0.0,0.0,0.0,0.0
835180,0.003081,0.010512,0.074839,0.0,0.0,0.0,0.0,0.0,0.087266,3.0,0.314101,0.33885,0.306092,0.341175,-0.0,-0.0,0.07886,0.0,-0.0,-0.018236,0.0,0.0,0.0,0.0,0.0,0.0
835200,0.002842,0.010644,0.074841,0.0,0.0,0.0,0.0,0.0,0.087266,3.0,0.317556,0.337384,0.305554,0.339972,-0.0,-0.0,0.078528,-0.0,0.0,-0.013838,0.0,0.0,0.0,0.0,0.0,0.0
835220,0.002973,0.010883,0.074961,0.0,0.0,0.0,0.0,0.0,0.087266,3.0,0.314031,0.339162,0.304707,0.342117,-0.0,-0.0,0.078284,0.0,0.0,-0.009585,0.0,0.0,0.0,0.0,0.0,0.0
835240,0.002973,0.010883,0.074961,0.0,0.0,0.0,0.0,0.0,0.087266,3.0,0.315267,0.339578,0.304753,0.340558,-0.0,-0.0,0.078123,-0.0,0.0,-0.005497,0.0,0.0,0.0,0.0,0.0,0.0
835260,0.003213,0.010751,0.075082,0.0,0.0,0.0,0.0,0.0,0.087266,3.0,0.31196,0.343159,0.301953,0.342308,-0.0,-0.0,0.078042,0.0,0.0,-0.001594,0.0,0.0,0.0,0.0,0.0,0.0
835280,0.003335,0.010747,0.075081,0.0,0.0,0.0,0.0,0.0,0.087266,3.0,0.31302,0.340028,0.305977,0.341068,-0.0,-0.0,0.078039,-0.0,0.0,0.002107,0.0,0.0,0.0,0.0,0.0,0.0
835300,0.003341,0.010869,0.075202,0.0,0.0,0.0,0.0,0.0,0.087266,3.0,0.311899,0.341657,0.301839,0.343954,-0.0,-0.0,0.078107,-0.0,-0.0,0.005591,0.0,0.0,0.0,0.0,0.0,0.0
835320,0.003467,0.010986,0.075202,0.0,0.0,0.0,0.0,0.0,0.087266,3.0,0.31064,0.34065,0.303778,0.34442,-0.0,-0.0,0.078244,0.0,0.0,0.008847,0.0,0.0,0.0,0.0,0.0,0.0
835340,0.003463,0.010864,0.075202,0.0,0.0,0.0,0.0,0.0,0.087266,3.0,0.313607,0.339327,0.306142,0.3411,-0.0,-0.0,0.078444,0.0,0.0,0.011863,0.0,0.0,0.0,0.0,0.0,0.0
835360,0.003078,0.01039,0.075204,0.0,0.0,0.0,0.0,0.0,0.087266,3.0,0.315691,0.34017,0.30435,0.339931,-0.0,-0.0,0.078702,0.0,-0.0,0.014632,0.0,0.0,0.0,0.0,0.0,0.0
835380,0.002957,0.010394,0.075327,0.0,0.0,0.0,0.0,0.0,0.087266,3.0,0.313957,0.339503,0.305232,0.341396,-0.0,-0.0,0.079014,-0.0,-0.0,0.017148,0.0,0.0,0.0,0.0,0.0,0.0
835400,0.002713,0.010403,0.075328,0.0,0.0,0.0,0.0,0.0,0.087266,3.0,0.314507,0.338825,0.305485,0.341359,-0.0,-0.0,0.079374,-0.0,-0.0,0.019407,0.0,0.0,0.0,0.0,0.0,0.0
835420,0.002578,0.010042,0.075451,0.0,0.0,0.0,0.0,0.0,0.087266,3.0,0.314685,0.341202,0.304308,0.33984,-0.0,-0.0,0.079778,0.0,0.0,0.021408,0.0,0.0,0.0,0.0,0.0,0.0
835440,0.002578,0.010042,0.075451,0.0,0.0,0.0,0.0,0.0,0.087266,3.0,0.314814,0.339682,0.305019,0.340633,-0.0,-0.0,0.08022,0.0,-0.0,0.02315,0.0,0.0,0.0,0.0,0.0,0.0
835460,0.002818,0.00991,0.075571,0.0,0.0,0.0,0.0,0.0,0.087266,3.0,0.313331,0.340086,0.305636,0.341028,-0.0,-0.0,0.080694,-0.0,0.0,0.024637,0.0,0.0,0.0,0.0,0.0,0.0
835480,0.002818,0.00991,0.075571,0.0,0.0,0.0,0.0,0.0,0.087266,3.0,0.315272,0.338921,0.305928,0.340194,-0.0,-0.0,0.081197,0.0,-0.0,0.02587,0.0,0.0,0.0,0.0,0.0,0.0
835500,0.002945,0.010028,0.075692,0.0,0.0,0.0,0.0,0.0,0.087266,3.0,0.314614,0.339746,0.304224,0.341431,-0.0,-0.0,0.081722,0.0,0.0,0.026856,0.0,0.0,0.0,0.0,0.0,0.0
835520,0.003082,0.010389,0.075827,0.0,0.0,0.0,0.0,0.0,0.087266,3.0,0.312762,0.339471,0.304842,0.342822,-0.0,-0.0,0.082265,-0.0,0.0,0.027601,0.0,0.0,0.0,0.0,0.0,0.0
835540,0.002964,0.010516,0.075827,0.0,0.0,0.0,0.0,0.0,0.087266,3.0,0.3141,0.338943,0.305169,0.341877,-0.0,-0.0,0.082821,-0.0,-0.0,0.028113,0.0,0.0,0.0,0.0,0.0,0.0
835560,0.002843,0.01052,0.075949,0.0,0.0,0.0,0.0,0.0,0.087266,3.0,0.314897,0.339776,0.30338,0.341867,-0.0,-0.0,0.083386,0.0,-0.0,0.028401,0.0,0.0,0.0,0.0,0.0,0.0
835580,0.002838,0.010398,0.075949,0.0,0.0,0.0,0.0,0.0,0.087266,3.0,0.314126,0.339973,0.305054,0.34093,-0.0,-0.0,0.083955,-0.0,0.0,0.028474,0.0,0.0,0.0,0.0,0.0,0.0
835600,0.002595,0.010408,0.076072,0.0,0.0,0.0,0.0,0.0,0.087266,3.0,0.314816,0.339777,0.302555,0.342636,-0.0,-0.0,0.084524,-0.0,0.0,0.028346,0.0,0.0,0.0,0.0,0.0,0.0
835620,0.002713,0.010281,0.076194,0.0,0.0,0.0,0.0,0.0,0.087266,3.0,0.312218,0.34163,0.303454,0.342341,-0.0,-0.0,0.085088,0.0,0.0,0.028026,0.0,0.0,0.0,0.0,0.0,0.0
835640,0.00283,0.010154,0.076193,0.0,0.0,0.0,0.0,0.0,0.087266,3.0,0.313385,0.340201,0.305298,0.341154,-0.0,-0.0,0.085645,-0.0,0.0,0.027528,0.0,0.0,0.0,0.0,0.0,0.0
835660,0.002822,0.00991,0.076315,0.0,0.0,0.0,0.0,0.0,0.087266,3.0,0.311554,0.343117,0.300991,0.343513,-0.0,-0.0,0.086191,-0.0,0.0,0.026864,0.0,0.0,0.0,0.0,0.0,0.0
835680,0.002939,0.009783,0.076315,0.0,0.0,0.0,0.0,0.0,0.087266,3.0,0.314376,0.341033,0.303894,0.340642,-0.0,-0.0,0.086723,-0.0,-0.0,0.026049,0.0,0.0,0.0,0.0,0.0,0.0
835700,0.002944,0.009905,0.076314,0.0,0.0,0.0,0.0,0.0,0.087266,3.0,0.313775,0.339072,0.305026,0.342161,-0.0,-0.0,0.087237,-0.0,0.0,0.025097,0.0,0.0,0.0,0.0,0.0,0.0
835720,0.002822,0.00991,0.076315,0.0,0.0,0.0,0.0,0.0,0.087266,3.0,0.312919,0.340996,0.302987,0.342748,-0.0,-0.0,0.087731,0.0,-0.0,0.02402,0.0,0.0,0.0,0.0,0.0,0.0
835740,0.002708,0.010159,0.076194,0.0,0.0,0.0,0.0,0.0,0.087266,3.0,0.315174,0.338252,0.30548,0.341332,-0.0,-0.0,0.088202,-0.0,-0.0,0.022835,0.0,0.0,0.0,0.0,0.0,0.0
835760,0.002596,0.010407,0.076194,0.0,0.0,0.0,0.0,0.0,0.087266,3.0,0.314263,0.337661,0.305318,0.342866,-0.0,-0.0,0.08865,0.0,0.0,0.021553,0.0,0.0,0.0,0.0,0.0,0.0
835780,0.002591,0.010285,0.076194,0.0,0.0,0.0,0.0,0.0,0.087266,3.0,0.313939,0.339374,0.305688,0.341148,-0.0,-0.0,0.089071,-0.0,0.0,0.020191,0.0,0.0,0.0,0.0,0.0,0.0
835800,0.00246,0.010046,0.076317,0.0,0.0,0.0,0.0,0.0,0.087266,3.0,0.314413,0.340974,0.302595,0.341773,-0.0,-0.0,0.089464,-0.0,0.0,0.018761,0.0,0.0,0.0,0.0,0.0,0.0
835820,0.002694,0.009793,0.076194,0.0,0.0,0.0,0.0,0.0,0.087266,3.0,0.317293,0.337844,0.308255,0.337393,-0.0,-0.0,0.089828,0.0,-0.0,0.017277,0.0,0.0,0.0,0.0,0.0,0.0
835840,0.002694,0.009793,0.076194,0.0,0.0,0.0,0.0,0.0,0.087266,3.0,0.31595,0.338827,0.304993,0.340482,-0.0,-0.0,0.090162,-0.0,-0.0,0.015753,0.0,0.0,0.0,0.0,0.0,0.0
835860,0.002938,0.009783,0.076193,0.0,0.0,0.0,0.0,0.0,0.087266,3.0,0.314056,0.339421,0.30607,0.340667,-0.0,-0.0,0.090466,-0.0,0.0,0.014201,0.0,0.0,0.0,0.0,0.0,0.0
835880,0.002816,0.009788,0.076194,0.0,0.0,0.0,0.0,0.0,0.087266,3.0,0.315678,0.339247,0.30437,0.340844,-0.0,-0.0,0.090738,0.0,0.0,0.012633,0.0,0.0,0.0,0.0,0.0,0.0
835900,0.002816,0.009788,0.076194,0.0,0.0,0.0,0.0,0.0,0.087266,3.0,0.315315,0.339073,0.304872,0.340915,-0.0,-0.0,0.090979,0.0,-0.0,0.011061,0.0,0.0,0.0,0.0,0.0,0.0
835920,0.00245,0.009802,0.076195,0.0,0.0,0.0,0.0,0.0,0.087266,3.0,0.313852,0.34115,0.301145,0.343317,-0.0,-0.0,0.091188,-0.0,-0.0,0.009497,0.0,0.0,0.0,0.0,0.0,0.0
835940,0.002455,0.009924,0.076195,0.0,0.0,0.0,0.0,0.0,0.087266,3.0,0.312387,0.340852,0.302508,0.343763,-0.0,-0.0,0.091366,0.0,0.0,0.00795,0.0,0.0,0.0,0.0,0.0,0.0
835960,0.00245,0.009802,0.076074,0.0,0.0,0.0,0.0,0.0,0.087266,3.0,0.316548,0.337884,0.30695,0.339181,-0.0,-0.0,0.091514,-0.0,0.0,0.006431,0.0,0.0,0.0,0.0,0.0,0.0
835980,0.002563,0.009554,0.076073,0.0,0.0,0.0,0.0,0.0,0.087266,3.0,0.314828,0.338934,0.308651,0.338204,-0.0,-0.0,0.091631,0.0,0.0,0.004948,0.0,0.0,0.0,0.0,0.0,0.0
836000,0.002558,0.009432,0.076074,0.0,0.0,0.0,0.0,0.0,0.087266,3.0,0.31493,0.339713,0.30636,0.339337,-0.0,-0.0,0.09172,-0.0,0.0,0.00351,0.0,0.0,0.0,0.0,0.0,0.0
836020,0.002802,0.009422,0.076072,0.0,0.0,0.0,0.0,0.0,0.087266,3.0,0.313213,0.339507,0.308151,0.339525,-0.0,-0.0,0.091779,0.0,0.0,0.002124,0.0,0.0,0.0,0.0,0.0,0.0
836040,0.002685,0.009549,0.076073,0.0,0.0,0.0,0.0,0.0,0.087266,3.0,0.315316,0.338173,0.306029,0.34081,-0.0,-0.0,0.091812,-0.0,0.0,0.000798,0.0,0.0,0.0,0.0,0.0,0.0
836060,0.002563,0.009554,0.076073,0.0,0.0,0.0,0.0,0.0,0.087266,3.0,0.317056,0.338232,0.304259,0.340701,-0.0,-0.0,0.091818,-0.0,0.0,-0.000463,0.0,0.0,0.0,0.0,0.0,0.0
836080,0.002436,0.009436,0.076074,0.0,0.0,0.0,0.0,0.0,0.087266,3.0,0.316788,0.338706,0.304661,0.340129,-0.0,-0.0,0.0918,0.0,-0.0,-0.001654,0.0,0.0,0.0,0.0,0.0,0.0
836100,0.002309,0.009319,0.076075,0.0,0.0,0.0,0.0,0.0,0.087266,3.0,0.31775,0.338824,0.303726,0.33994,-0.0,-0.0,0.091758,0.0,-0.0,-0.00277,0.0,0.0,0.0,0.0,0.0,0.0
836120,0.002305,0.009197,0.076075,0.0,0.0,0.0,0.0,0.0,0.087266,3.0,0.316507,0.339434,0.305187,0.339204,-0.0,-0.0,0.091695,-0.0,-0.0,-0.003808,0.0,0.0,0.0,0.0,0.0,0.0
836140,0.002065,0.009328,0.076076,0.0,0.0,0.0,0.0,0.0,0.087266,3.0,0.315943,0.338644,0.305148,0.340537,-0.0,-0.0,0.091611,0.0,0.0,-0.004764,0.0,0.0,0.0,0.0,0.0,0.0
836160,0.002192,0.009446,0.076075,0.0,0.0,0.0,0.0,0.0,0.087266,3.0,0.314835,0.337374,0.307168,0.341045,-0.0,-0.0,0.091509,0.0,-0.0,-0.005637,0.0,0.0,0.0,0.0,0.0,0.0
