time_ms,roll,pitch,yaw,x,y,z,reference_roll,reference_pitch,reference_yaw,reference_throttle,throttle_1,throttle_2,throttle_3,throttle_4,roll_predicted,pitch_predicted,yaw_predicted,roll_rate_predicted,pitch_rate_predicted,yaw_rate_predicted,value1,value2,value3,value4,value5,value6
60065,0.001464,0.004029,-0.000247,0.0,0.0,0.0,-0.0,-0.0,-0.0,3.0,0.334319,0.319407,0.332596,0.315275,-0.0,-0.0,-0.0,0.0,0.0,-0.0,0.001586,0.004029,-0.000126,0.0275,-0.00969,0.015635
60085,0.001587,0.004029,-0.000125,0.0,0.0,0.0,0.0,0.0,0.0,3.0,0.34124,0.316706,0.325594,0.317817,-0.0,-0.0,-0.0,0.0,0.0,0.0,0.001465,0.004029,-0.000125,-0.010544,0.00353,0.015492
60105,0.001465,0.004151,-0.000125,0.0,0.0,0.0,0.0,0.0,0.0,3.0,0.348083,0.308332,0.337492,0.305433,-0.0,-0.0,-0.0,0.0,0.0,0.0,0.001465,0.00403,-0.000247,0.002267,-0.006577,-0.001698
60125,0.001342,0.003785,-0.000247,0.0,0.0,0.0,0.0,0.0,0.0,3.0,0.353758,0.313411,0.330911,0.300771,-0.0,-0.0,-0.0,0.0,0.0,0.0,0.001221,0.003785,-0.000247,-0.03178,-0.02949,-0.001202
60145,0.001342,0.003663,-0.000369,0.0,0.0,0.0,0.0,0.0,0.0,3.0,0.351554,0.307497,0.331986,0.308327,-0.0,-0.0,-0.0,0.0,0.0,0.0,0.001222,0.003785,-0.000246,-0.022326,0.003263,2.3e-05
60165,0.001342,0.003662,-0.000247,0.0,0.0,0.0,0.0,0.0,0.0,3.0,0.339078,0.316103,0.32862,0.31764,-0.0,-0.0,-0.0,0.0,0.0,0.0,0.001343,0.003785,-0.000247,0.004047,0.004978,0.015242
60185,0.001342,0.003907,-0.000247,0.0,0.0,0.0,0.0,0.0,0.0,3.0,0.351514,0.298904,0.334325,0.314094,-0.0,-0.0,-0.0,0.0,0.0,0.0,0.00122,0.004028,-0.000369,-0.015861,0.036821,-0.001694
60205,0.001342,0.004029,-0.000369,0.0,0.0,0.0,0.0,0.0,0.0,3.0,0.350331,0.297766,0.339099,0.311263,-0.0,-0.0,-0.0,0.0,0.0,0.0,0.001342,0.00415,-0.000369,0.000416,0.031677,-0.004988
60225,0.001342,0.004029,-0.000369,0.0,0.0,0.0,0.0,0.0,0.0,3.0,0.355552,0.296193,0.343139,0.301774,-0.0,-0.0,-0.0,0.0,0.0,0.0,0.001342,0.00415,-0.000369,-0.003707,0.012024,-0.01406
60245,0.001464,0.004029,-0.000369,0.0,0.0,0.0,0.0,0.0,0.0,3.0,0.347562,0.304053,0.336964,0.310885,-0.0,-0.0,-0.0,0.0,0.0,0.0,0.001464,0.00415,-0.000369,0.001862,0.015422,-0.000214
60265,0.001708,0.004151,-0.00037,0.0,0.0,0.0,0.0,0.0,0.0,3.0,0.349518,0.302849,0.334695,0.312282,-0.0,-0.0,-0.0,0.0,0.0,0.0,0.001465,0.004273,-0.000369,-0.010287,0.021064,3e-06
60285,0.001709,0.004151,-0.000248,0.0,0.0,0.0,0.0,0.0,0.0,3.0,0.349541,0.30785,0.334666,0.307386,-0.0,-0.0,-0.0,0.0,0.0,0.0,0.001587,0.004029,-0.000369,-0.01106,-0.002278,2.4e-05
60305,0.001708,0.004273,-0.00037,0.0,0.0,0.0,0.0,0.0,0.0,3.0,0.353037,0.307715,0.332253,0.306026,-0.0,-0.0,-0.0,0.0,0.0,0.0,0.001465,0.004152,-0.000369,-0.027634,-0.006006,-0.001198
60325,0.001708,0.004151,-0.00037,0.0,0.0,0.0,0.0,0.0,0.0,3.0,0.354464,0.307479,0.329331,0.307771,-0.0,-0.0,-0.0,0.0,0.0,0.0,0.001344,0.004151,-0.000369,-0.039435,-0.001356,6.6e-05
60345,0.001586,0.004273,-0.000492,0.0,0.0,0.0,0.0,0.0,0.0,3.0,0.356214,0.295865,0.341016,0.303777,-0.0,-0.0,-0.0,0.0,0.0,0.0,0.001464,0.004273,-0.000491,-0.012763,0.015894,-0.012211
60365,0.001464,0.004273,-0.000369,0.0,0.0,0.0,0.0,0.0,0.0,3.0,0.351058,0.302413,0.333724,0.311965,-0.0,-0.0,-0.0,0.0,0.0,0.0,0.001342,0.004395,-0.000491,-0.017353,0.019808,-0.00015
60385,0.001098,0.004151,-0.000369,0.0,0.0,0.0,0.0,0.0,0.0,3.0,0.338731,0.311035,0.330292,0.321213,-0.0,-0.0,-0.0,0.0,0.0,0.0,0.001341,0.004394,-0.00037,0.008831,0.022147,0.014612
60405,0.000854,0.003907,-0.000368,0.0,0.0,0.0,0.0,0.0,0.0,3.0,0.34524,0.305144,0.339105,0.310111,-0.0,-0.0,-0.0,0.0,0.0,0.0,0.001096,0.00415,-0.000369,0.01575,0.009317,0.00017
60425,0.000854,0.00354,-0.000368,0.0,0.0,0.0,0.0,0.0,0.0,3.0,0.346855,0.305147,0.337654,0.30987,-0.0,-0.0,-0.0,0.0,0.0,0.0,0.000975,0.003783,-0.000368,0.007458,0.010162,-1.5e-05
60445,0.000976,0.00354,-0.000246,0.0,0.0,0.0,0.0,0.0,0.0,3.0,0.335371,0.314715,0.332013,0.31945,-0.0,-0.0,-0.0,0.0,0.0,0.0,0.001097,0.003662,-0.000247,0.023929,0.011061,0.01586
60465,0.00122,0.00354,-0.000246,0.0,0.0,0.0,0.0,0.0,0.0,3.0,0.340211,0.310775,0.328856,0.321355,-0.0,-0.0,-0.0,0.0,0.0,0.0,0.001098,0.003661,-0.000247,0.001622,0.025709,0.014199
60485,0.001098,0.003662,-0.000246,0.0,0.0,0.0,0.0,0.0,0.0,3.0,0.352694,0.304893,0.337265,0.303588,-0.0,-0.0,-0.0,0.0,0.0,0.0,0.001099,0.00354,-0.000368,-0.011556,-0.003971,-0.005375
60505,0.001098,0.003785,-0.000368,0.0,0.0,0.0,0.0,0.0,0.0,3.0,0.353345,0.306663,0.336168,0.302261,-0.0,-0.0,-0.0,0.0,0.0,0.0,0.000976,0.003541,-0.000368,-0.016077,-0.011624,-0.004982
60525,0.000976,0.003785,-0.000368,0.0,0.0,0.0,0.0,0.0,0.0,3.0,0.349529,0.30387,0.334981,0.31097,-0.0,-0.0,-0.0,0.0,0.0,0.0,0.000977,0.003784,-0.000368,-0.008117,0.015134,-6.1e-05
60545,0.000854,0.004029,-0.000246,0.0,0.0,0.0,0.0,0.0,0.0,3.0,0.339716,0.310009,0.327575,0.323923,-0.0,-0.0,-0.0,0.0,0.0,0.0,0.000976,0.004028,-0.000247,-9.1e-05,0.032018,0.015892
60565,0.000732,0.003907,-0.000246,0.0,0.0,0.0,0.0,0.0,0.0,3.0,0.34864,0.304869,0.335232,0.310762,-0.0,-0.0,-0.0,0.0,0.0,0.0,0.000854,0.004028,-0.000246,-0.00434,0.010759,0.000228
60585,0.000488,0.003784,-0.000245,0.0,0.0,0.0,0.0,0.0,0.0,3.0,0.344289,0.303595,0.340036,0.311661,-0.0,0.0,-0.0,0.0,0.0,0.0,0.000853,0.003905,-0.000246,0.021816,0.016436,-4.4e-05
60605,0.000366,0.00354,-0.000245,0.0,0.0,0.0,0.0,0.0,0.0,3.0,0.34703,0.30916,0.337192,0.30619,-0.0,0.0,-0.0,0.0,0.0,0.0,0.000609,0.003662,-0.000245,0.006889,-0.009696,-9e-06
60625,0.000488,0.00354,-0.000123,0.0,0.0,0.0,0.0,0.0,0.0,3.0,0.341843,0.311473,0.336207,0.310989,-0.0,0.0,-0.0,0.0,0.0,0.0,0.000732,0.003418,-0.000123,0.018538,-0.002704,0.005567
60645,0.000732,0.00354,-1e-06,0.0,0.0,0.0,0.0,0.0,0.0,3.0,0.349565,0.308637,0.334027,0.307284,-0.0,0.0,-0.0,0.0,0.0,0.0,0.000611,0.003418,-0.000123,-0.009443,-0.00498,9.4e-05
60665,0.00061,0.003662,-1e-06,0.0,0.0,0.0,0.0,0.0,0.0,3.0,0.352217,0.313834,0.330091,0.303158,-0.0,0.0,-0.0,0.0,0.0,0.0,0.000489,0.003297,-1e-06,-0.02761,-0.027543,0.000712
60685,0.000366,0.00354,-1e-06,0.0,0.0,0.0,0.0,0.0,0.0,3.0,0.353698,0.310318,0.329171,0.306011,-0.0,0.0,0.0,0.0,0.0,0.0,0.000245,0.003419,-0.0,-0.033463,-0.012564,6.9e-05
60705,0.000366,0.003784,-1e-06,0.0,0.0,0.0,0.0,0.0,0.0,3.0,0.356973,0.303369,0.336767,0.300379,0.0,0.0,0.0,0.0,0.0,0.0,0.000245,0.003541,0.0,-0.022367,-0.009829,-0.010268
60725,0.000122,0.00354,0.000122,0.0,0.0,0.0,0.0,0.0,0.0,3.0,0.347873,0.312205,0.33318,0.306621,0.0,0.0,0.0,0.0,0.0,0.0,0.000244,0.003541,0.000122,-0.005259,-0.016652,0.00178
60745,-0.000122,0.003296,0.000122,0.0,0.0,0.0,0.0,0.0,0.0,3.0,0.349746,0.306219,0.333059,0.310546,0.0,0.0,0.0,0.0,0.0,0.0,-0.0,0.003417,0.000122,-0.010006,0.008159,4.1e-05
60765,-0.000122,0.00293,0.000122,0.0,0.0,0.0,0.0,0.0,0.0,3.0,0.346114,0.313823,0.336937,0.302762,0.0,0.0,0.0,0.0,0.0,0.0,-0.0,0.00293,0.000122,0.01143,-0.027639,-1.7e-05
60785,0.0,0.00293,0.000122,0.0,0.0,0.0,0.0,0.0,0.0,3.0,0.353757,0.301061,0.343673,0.298551,0.0,0.0,0.0,0.0,0.0,0.0,-1e-06,0.002807,0.000123,0.00803,-0.005983,-0.014003
60805,0.0,0.002808,0.000244,0.0,0.0,0.0,0.0,0.0,0.0,3.0,0.354923,0.307798,0.336322,0.29894,0.0,0.0,0.0,0.0,0.0,0.0,-0.000121,0.002686,0.000245,-0.015804,-0.020928,-0.00857
60825,1e-06,0.00293,0.000366,0.0,0.0,0.0,0.0,0.0,0.0,3.0,0.348014,0.31727,0.328098,0.306837,0.0,0.0,0.0,0.0,0.0,0.0,-0.000243,0.002687,0.000367,-0.017386,-0.025849,0.005496
60845,-0.000122,0.003052,0.000366,0.0,0.0,0.0,0.0,0.0,0.0,3.0,0.352777,0.311111,0.32881,0.306718,0.0,0.0,0.0,0.0,0.0,0.0,-0.000365,0.002808,0.000367,-0.028982,-0.011275,0.000115
60865,-0.000244,0.003052,0.000245,0.0,0.0,0.0,0.0,0.0,0.0,3.0,0.355572,0.301764,0.343308,0.295972,0.0,0.0,0.0,0.0,0.0,0.0,-0.000244,0.00293,0.000245,0.002641,-0.014759,-0.015913
60885,-0.000488,0.002808,0.000245,0.0,0.0,0.0,0.0,0.0,0.0,3.0,0.356588,0.306342,0.340445,0.293383,0.0,0.0,0.0,0.0,0.0,0.0,-0.000488,0.002809,0.000245,-0.007503,-0.031368,-0.014212
60905,-0.00061,0.002564,0.000367,0.0,0.0,0.0,0.0,0.0,0.0,3.0,0.347155,0.310566,0.333077,0.309247,0.0,0.0,0.0,0.0,0.0,0.0,-0.000488,0.002808,0.000367,-0.000101,-0.004123,0.001714
60925,-0.00061,0.002564,0.000367,0.0,0.0,0.0,0.0,0.0,0.0,3.0,0.345392,0.30944,0.336739,0.308347,0.0,0.0,0.0,0.0,0.0,0.0,-0.000488,0.002686,0.000367,0.015249,-0.003136,2e-06
60945,-0.00061,0.002564,0.000489,0.0,0.0,0.0,0.0,0.0,0.0,3.0,0.350956,0.311869,0.330817,0.305919,0.0,0.0,0.0,-0.0,0.0,0.0,-0.000732,0.002564,0.000367,-0.016349,-0.014685,1.7e-05
60965,-0.000854,0.002442,0.000489,0.0,0.0,0.0,0.0,0.0,0.0,3.0,0.36027,0.30092,0.33707,0.298291,0.0,0.0,0.0,-0.0,0.0,0.0,-0.000975,0.002441,0.000368,-0.025959,-0.005806,-0.015224
60985,-0.000854,0.002442,0.000489,0.0,0.0,0.0,0.0,0.0,0.0,3.0,0.35453,0.306652,0.337152,0.299647,0.0,0.0,0.0,0.0,0.0,0.0,-0.000975,0.00232,0.00049,-0.008271,-0.015988,-0.009867
61005,-0.000976,0.00232,0.00049,0.0,0.0,0.0,0.0,0.0,0.0,3.0,0.346557,0.31536,0.328691,0.309881,0.0,0.0,0.0,0.0,0.0,0.0,-0.000975,0.002442,0.000612,-0.008004,-0.013555,0.00546
61025,-0.00122,0.00232,0.00049,0.0,0.0,0.0,0.0,0.0,0.0,3.0,0.343642,0.309618,0.332243,0.315124,0.0,0.0,0.0,0.0,0.0,0.0,-0.000977,0.002563,0.000612,0.010203,0.013292,0.005012
61045,-0.00122,0.002198,0.000612,0.0,0.0,0.0,0.0,0.0,0.0,3.0,0.343586,0.310159,0.332281,0.314616,0.0,0.0,0.0,0.0,0.0,0.0,-0.001099,0.002441,0.000612,0.011069,0.011102,0.005005
61065,-0.001342,0.002076,0.000612,0.0,0.0,0.0,0.0,0.0,0.0,3.0,0.350066,0.305844,0.334711,0.308708,0.0,0.0,0.0,0.0,0.0,0.0,-0.00122,0.002319,0.000612,-0.0005,0.007388,-0.003608
61085,-0.001464,0.00171,0.000734,0.0,0.0,0.0,0.0,0.0,0.0,3.0,0.351047,0.316532,0.327236,0.304925,0.0,0.0,0.0,0.0,0.0,0.0,-0.001586,0.001832,0.000734,-0.022174,-0.026379,0.001869
61105,-0.001709,0.001466,0.000734,0.0,0.0,0.0,0.0,0.0,0.0,3.0,0.352381,0.313324,0.327759,0.306081,0.0,0.0,0.0,-0.0,-0.0,0.0,-0.001707,0.00171,0.000734,-0.024109,-0.015004,3.5e-05
61125,-0.001831,0.001344,0.000856,0.0,0.0,0.0,0.0,0.0,0.0,3.0,0.339963,0.322971,0.323113,0.315439,0.0,0.0,0.0,-0.0,0.0,0.0,-0.001708,0.001466,0.000855,-0.000337,-0.015499,0.015895
61145,-0.002075,0.001344,0.000978,0.0,0.0,0.0,0.0,0.0,0.0,3.0,0.337958,0.317675,0.324504,0.321536,0.0,0.0,0.0,0.0,-0.0,0.0,-0.001831,0.001587,0.000978,0.009667,0.013277,0.016137
61165,-0.002197,0.001466,0.000978,0.0,0.0,0.0,0.0,0.0,0.0,3.0,0.339586,0.314489,0.328956,0.318329,0.0,0.0,0.0,0.0,0.0,0.0,-0.001954,0.001587,0.000978,0.017693,0.013021,0.010537
61185,-0.002197,0.00171,0.000979,0.0,0.0,0.0,0.0,0.0,0.0,3.0,0.348584,0.30687,0.330725,0.313802,0.0,0.0,0.0,0.0,-0.0,0.0,-0.002075,0.001832,0.000979,-0.002812,0.019269,0.000173
61205,-0.002074,0.001832,0.001223,0.0,0.0,0.0,0.0,0.0,0.0,3.0,0.336508,0.323135,0.323157,0.318996,0.0,0.0,0.0,0.0,0.0,0.0,-0.002075,0.001833,0.001223,0.011542,-0.008765,0.017806
61225,-0.001952,0.001588,0.001222,0.0,0.0,0.0,0.0,0.0,0.0,3.0,0.347951,0.319932,0.326351,0.306015,0.0,0.0,0.0,0.0,-0.0,0.0,-0.002196,0.001589,0.001223,-0.012076,-0.031927,0.003908
61245,-0.002197,0.001466,0.001223,0.0,0.0,0.0,0.0,0.0,0.0,3.0,0.347888,0.313564,0.330613,0.308062,0.0,0.0,0.0,0.0,-0.0,0.0,-0.002074,0.001589,0.001223,-0.000783,-0.010758,4.3e-05
61265,-0.002319,0.001222,0.001344,0.0,0.0,0.0,0.0,0.0,0.0,3.0,0.345663,0.313033,0.330468,0.311353,0.0,0.0,0.0,0.0,-0.0,-0.0,-0.002197,0.001466,0.001345,0.005962,-0.000811,0.001912
61285,-0.002441,0.0011,0.001344,0.0,0.0,0.0,0.0,0.0,0.0,3.0,0.346698,0.312262,0.331364,0.309956,0.0,0.0,0.0,-0.0,-0.0,-0.0,-0.00232,0.001222,0.001344,0.006058,-0.001326,2.1e-05
61305,-0.002563,0.001101,0.001467,0.0,0.0,0.0,0.0,0.0,0.0,3.0,0.345925,0.317765,0.325578,0.311486,0.0,0.0,0.0,-0.0,-0.0,-0.0,-0.002563,0.001101,0.001467,-0.006169,-0.01097,0.005588
61325,-0.002441,0.001223,0.001589,0.0,0.0,0.0,0.0,0.0,0.0,3.0,0.349876,0.316996,0.327345,0.305729,0.0,0.0,0.0,0.0,-0.0,-0.0,-0.002684,0.00098,0.001466,-0.012325,-0.02268,5.4e-05
61345,-0.002563,0.001345,0.001589,0.0,0.0,0.0,0.0,0.0,0.0,3.0,0.348745,0.318655,0.323321,0.309682,0.0,0.0,0.0,-0.0,-0.0,-0.0,-0.002683,0.001102,0.001589,-0.019643,-0.017842,0.004328
61365,-0.002685,0.000979,0.001589,0.0,0.0,0.0,0.0,0.0,0.0,3.0,0.346055,0.313243,0.330892,0.310226,0.0,0.0,0.0,-0.0,-0.0,-0.0,-0.002686,0.001101,0.001589,0.008764,-0.002785,5.1e-05
61385,-0.002563,0.000857,0.00171,0.0,0.0,0.0,0.0,0.0,0.0,3.0,0.344171,0.314283,0.330363,0.311918,0.0,0.0,0.0,-0.0,-0.0,-0.0,-0.002563,0.000979,0.001711,0.012351,-0.000701,0.00191
61405,-0.002441,0.000735,0.00171,0.0,0.0,0.0,0.0,0.0,0.0,3.0,0.343333,0.315833,0.333231,0.308151,0.0,0.0,0.0,-0.0,-0.0,-0.0,-0.002319,0.000735,0.00171,0.021668,-0.012908,2e-06
61425,-0.002197,0.000612,0.00171,0.0,0.0,0.0,0.0,0.0,0.0,3.0,0.3449,0.31728,0.327484,0.31113,0.0,0.0,0.0,0.0,-0.0,-0.0,-0.002319,0.000613,0.00171,0.001557,-0.008722,0.003672
61445,-0.002075,0.000612,0.00171,0.0,0.0,0.0,0.0,0.0,0.0,3.0,0.354634,0.313969,0.323275,0.30755,0.0,0.0,0.0,-0.0,-0.0,-0.0,-0.002439,0.000491,0.001588,-0.03777,-0.00864,-0.001865
61465,-0.002319,0.000734,0.001588,0.0,0.0,0.0,0.0,0.0,0.0,3.0,0.357897,0.305505,0.330297,0.304464,0.0,0.0,0.0,-0.0,-0.0,-0.0,-0.00244,0.000613,0.001589,-0.028617,0.004222,-0.011582
61485,-0.002441,0.000734,0.001588,0.0,0.0,0.0,0.0,0.0,0.0,3.0,0.348845,0.309565,0.325046,0.31688,0.0,0.0,0.0,-0.0,0.0,-0.0,-0.00244,0.000857,0.00171,-0.015634,0.023998,0.001786
61505,-0.002319,0.000978,0.001588,0.0,0.0,0.0,0.0,0.0,0.0,3.0,0.347184,0.307904,0.329831,0.31536,0.0,0.0,0.0,0.0,0.0,-0.0,-0.002319,0.0011,0.001588,0.001713,0.023097,-0.000605
61525,-0.002441,0.000979,0.001588,0.0,0.0,0.0,0.0,0.0,0.0,3.0,0.352143,0.311771,0.326215,0.309629,0.0,0.0,0.0,0.0,0.0,-0.0,-0.002563,0.000978,0.001466,-0.021482,-0.000319,-0.001915
61545,-0.002319,0.000856,0.001588,0.0,0.0,0.0,0.0,0.0,0.0,3.0,0.35467,0.31138,0.322576,0.310878,0.0,0.0,0.0,0.0,-0.0,-0.0,-0.002683,0.000979,0.001466,-0.038082,0.003703,-0.001264
61565,-0.002319,0.000734,0.001466,0.0,0.0,0.0,0.0,0.0,0.0,3.0,0.349891,0.310808,0.327824,0.311526,0.0,0.0,0.0,0.0,-0.0,-0.0,-0.00244,0.000733,0.001466,-0.010794,0.007794,-0.001266
61585,-0.002319,0.00049,0.001466,0.0,0.0,0.0,0.0,0.0,0.0,3.0,0.347226,0.313603,0.329264,0.310272,0.0,0.0,0.0,0.0,-0.0,-0.0,-0.002319,0.000612,0.001466,0.0005,-0.001803,-2e-05
61605,-0.002197,0.000246,0.001343,0.0,0.0,0.0,0.0,0.0,0.0,3.0,0.342224,0.309412,0.334418,0.314566,0.0,0.0,0.0,0.0,-0.0,-0.0,-0.002076,0.000488,0.001466,0.028152,0.019916,1.6e-05
61625,-0.002075,0.000368,0.001465,0.0,0.0,0.0,0.0,0.0,0.0,3.0,0.336711,0.314354,0.327438,0.323115,0.0,0.0,0.0,0.0,-0.0,-0.0,-0.001954,0.000611,0.001465,0.024215,0.029016,0.011595
61645,-0.002075,0.00049,0.001466,0.0,0.0,0.0,0.0,0.0,0.0,3.0,0.350987,0.309201,0.327271,0.312426,0.0,0.0,0.0,0.0,-0.0,-0.0,-0.002197,0.000489,0.001343,-0.016208,0.015015,-0.001732
61665,-0.002197,0.00049,0.001221,0.0,0.0,0.0,0.0,0.0,0.0,3.0,0.354015,0.30345,0.329926,0.311613,0.0,0.0,0.0,0.0,-0.0,-0.0,-0.002319,0.000611,0.001221,-0.017381,0.026429,-0.006849
61685,-0.002441,0.000612,0.001222,0.0,0.0,0.0,0.0,0.0,0.0,3.0,0.357668,0.302062,0.333688,0.304364,0.0,0.0,0.0,0.0,-0.0,-0.0,-0.002441,0.000611,0.001222,-0.017408,0.011938,-0.014067
61705,-0.002563,0.00049,0.001222,0.0,0.0,0.0,0.0,0.0,0.0,3.0,0.347826,0.30747,0.32921,0.315707,0.0,0.0,0.0,0.0,-0.0,-0.0,-0.002441,0.000733,0.001222,-0.000229,0.026384,-0.000167
61725,-0.002686,0.000246,0.001221,0.0,0.0,0.0,0.0,0.0,0.0,3.0,0.338529,0.315273,0.32746,0.320259,0.0,0.0,0.0,0.0,-0.0,-0.0,-0.002443,0.000488,0.001221,0.021887,0.019681,0.010328
61745,-0.002686,0.000124,0.001221,0.0,0.0,0.0,0.0,0.0,0.0,3.0,0.340428,0.31835,0.325248,0.317425,0.0,0.0,0.0,0.0,-0.0,-0.0,-0.002564,0.000245,0.001221,0.01123,0.005605,0.010464
61765,-0.002686,0.000124,0.001221,0.0,0.0,0.0,0.0,0.0,0.0,3.0,0.345679,0.311179,0.330965,0.312652,0.0,0.0,0.0,0.0,-0.0,-0.0,-0.002564,0.000245,0.001221,0.011736,0.011645,0.000164
61785,-0.002441,0.000246,0.001221,0.0,0.0,0.0,0.0,0.0,0.0,3.0,0.346463,0.311598,0.330235,0.312123,0.0,0.0,0.0,0.0,-0.0,-0.0,-0.002441,0.000123,0.001221,0.007031,0.009815,1.4e-05
61805,-0.002441,0.00049,0.001099,0.0,0.0,0.0,0.0,0.0,0.0,3.0,0.347215,0.310029,0.329363,0.313751,0.0,0.0,0.0,0.0,-0.0,-0.0,-0.002319,0.000367,0.001221,0.002022,0.016701,1.9e-05
61825,-0.002441,0.000612,0.0011,0.0,0.0,0.0,0.0,0.0,0.0,3.0,0.343253,0.309198,0.334613,0.313405,0.0,0.0,0.0,0.0,0.0,-0.0,-0.002198,0.000611,0.001099,0.027512,0.01678,-0.000643
61845,-0.002563,0.000734,0.000978,0.0,0.0,0.0,0.0,0.0,0.0,3.0,0.348865,0.306787,0.334416,0.309523,0.0,0.0,0.0,0.0,-0.0,-0.0,-0.00232,0.000733,0.000977,0.011307,0.012449,-0.005596
61865,-0.002441,0.000856,0.000978,0.0,0.0,0.0,0.0,0.0,0.0,3.0,0.347632,0.307823,0.333682,0.310755,0.0,0.0,0.0,0.0,-0.0,-0.0,-0.00232,0.000855,0.000978,0.012995,0.012391,-0.003749
61885,-0.002441,0.000856,0.000978,0.0,0.0,0.0,0.0,0.0,0.0,3.0,0.357477,0.304625,0.334123,0.301538,0.0,0.0,0.0,0.0,-0.0,-0.0,-0.002441,0.000734,0.000978,-0.014467,-0.001749,-0.01404
61905,-0.002319,0.000612,0.0011,0.0,0.0,0.0,0.0,0.0,0.0,3.0,0.338338,0.320608,0.325698,0.316969,0.0,0.0,0.0,0.0,-0.0,-0.0,-0.002197,0.000611,0.001099,0.01762,-0.003196,0.012018
61925,-0.002319,0.000489,0.000977,0.0,0.0,0.0,0.0,0.0,0.0,3.0,0.351372,0.311356,0.331359,0.305338,0.0,0.0,0.0,0.0,-0.0,-0.0,-0.002319,0.000367,0.000977,-0.004095,-0.007561,-0.005435
61945,-0.002441,0.000245,0.000855,0.0,0.0,0.0,0.0,0.0,0.0,3.0,0.356762,0.308165,0.337264,0.295082,0.0,0.0,0.0,0.0,-0.0,-0.0,-0.00232,0.000123,0.000855,-0.00375,-0.022885,-0.016008
61965,-0.002441,0.000245,0.000855,0.0,0.0,0.0,0.0,0.0,0.0,3.0,0.34877,0.311834,0.332822,0.306336,0.0,0.0,0.0,0.0,-0.0,-0.0,-0.00232,0.000123,0.000855,0.007833,-0.005269,-0.003914
61985,-0.002441,0.000367,0.000977,0.0,0.0,0.0,0.0,0.0,0.0,3.0,0.35767,0.307841,0.33411,0.297995,0.0,0.0,0.0,0.0,-0.0,-0.0,-0.002441,0.000124,0.000855,-0.01454,-0.015333,-0.014062
62005,-0.002441,0.00049,0.000977,0.0,0.0,0.0,0.0,0.0,0.0,3.0,0.355888,0.310844,0.333571,0.297737,0.0,0.0,0.0,0.0,-0.0,-0.0,-0.002441,0.000124,0.000855,-0.010526,-0.023363,-0.011796
62025,-0.002319,0.000367,0.000855,0.0,0.0,0.0,0.0,0.0,0.0,3.0,0.358789,0.302845,0.336713,0.298663,0.0,0.0,0.0,0.0,-0.0,-0.0,-0.002441,0.000245,0.000733,-0.010462,-0.002215,-0.017338
62045,-0.002319,0.000245,0.000733,0.0,0.0,0.0,0.0,0.0,0.0,3.0,0.350865,0.316554,0.33224,0.299484,0.0,0.0,0.0,0.0,-0.0,-0.0,-0.002319,2e-06,0.000732,0.000493,-0.033109,-0.005225
62065,-0.002319,0.000123,0.000733,0.0,0.0,0.0,0.0,0.0,0.0,3.0,0.348046,0.314725,0.333641,0.303275,0.0,0.0,0.0,0.0,-0.0,-0.0,-0.002198,-0.000121,0.000732,0.012224,-0.018902,-0.003774
62085,-0.002197,0.000123,0.000733,0.0,0.0,0.0,0.0,0.0,0.0,3.0,0.348001,0.315997,0.329625,0.306503,0.0,0.0,0.0,0.0,-0.0,-0.0,-0.002197,1e-06,0.000733,0.001429,-0.014861,-6.8e-05
62105,-0.002075,1e-06,0.000733,0.0,0.0,0.0,0.0,0.0,0.0,3.0,0.349977,0.318649,0.327405,0.303789,0.0,0.0,0.0,0.0,-0.0,-0.0,-0.002197,-0.00012,0.000732,-0.010299,-0.027681,-3.1e-05
62125,-0.002197,1e-06,0.00061,0.0,0.0,0.0,0.0,0.0,0.0,3.0,0.355159,0.316767,0.324167,0.303013,0.0,0.0,0.0,0.0,-0.0,-0.0,-0.002441,-0.000242,0.00061,-0.033227,-0.024177,-0.001947
62145,-0.002442,-0.000121,0.000488,0.0,0.0,0.0,0.0,0.0,0.0,3.0,0.361643,0.306816,0.332693,0.295576,0.0,0.0,0.0,0.0,-0.0,-0.0,-0.002563,-0.000243,0.000488,-0.029207,-0.016867,-0.015957
62165,-0.002564,-0.000121,0.000488,0.0,0.0,0.0,0.0,0.0,0.0,3.0,0.359008,0.307591,0.333734,0.296975,0.0,0.0,0.0,-0.0,-0.0,-0.0,-0.002685,-0.000243,0.000489,-0.017582,-0.015502,-0.014238
62185,-0.002564,-0.000121,0.000488,0.0,0.0,0.0,0.0,0.0,0.0,3.0,0.346755,0.313857,0.331785,0.3078,0.0,0.0,0.0,-0.0,-0.0,-0.0,-0.002442,-0.000244,0.000488,0.012631,-0.005164,-0.000206
62205,-0.00232,-0.000122,0.000488,0.0,0.0,0.0,0.0,0.0,0.0,3.0,0.344493,0.314896,0.329922,0.311405,0.0,0.0,0.0,0.0,-0.0,-0.0,-0.00232,-0.000121,0.000488,0.013664,0.000586,0.003681
62225,-0.002197,-0.000122,0.000366,0.0,0.0,0.0,0.0,0.0,0.0,3.0,0.352015,0.318022,0.32834,0.300921,0.0,0.0,0.0,-0.0,-0.0,-0.0,-0.002441,-0.000365,0.000366,-0.012037,-0.031804,-0.001905
62245,-0.002075,-0.000122,0.000366,0.0,0.0,0.0,0.0,0.0,0.0,3.0,0.358928,0.309157,0.336406,0.292219,0.0,0.0,0.0,0.0,-0.0,-0.0,-0.002319,-0.000487,0.000244,-0.011086,-0.0292,-0.015969
62265,-0.002197,-0.000244,0.000244,0.0,0.0,0.0,0.0,0.0,0.0,3.0,0.360702,0.306708,0.333937,0.295457,0.0,0.0,0.0,-0.0,-0.0,-0.0,-0.002318,-0.000366,0.000244,-0.023296,-0.016282,-0.015499
62285,-0.002442,-0.000366,0.000244,0.0,0.0,0.0,0.0,0.0,0.0,3.0,0.349551,0.318808,0.329582,0.301701,0.0,0.0,0.0,0.0,-0.0,-0.0,-0.00232,-0.000487,0.000244,-0.001596,-0.031386,-0.000255
62305,-0.002564,-0.000366,0.000122,0.0,0.0,0.0,0.0,0.0,0.0,3.0,0.351584,0.314545,0.329628,0.303704,0.0,0.0,0.0,-0.0,-0.0,-0.0,-0.002564,-0.000488,0.000121,-0.006275,-0.015695,-0.00194
62325,-0.002442,-0.000122,0.000122,0.0,0.0,0.0,0.0,0.0,0.0,3.0,0.349277,0.3076,0.334002,0.30869,0.0,0.0,0.0,-0.0,-0.0,-0.0,-0.002442,-0.000245,0.000122,0.01214,0.012653,-0.003691
62345,-0.002319,0.0,0.000122,0.0,0.0,0.0,0.0,0.0,0.0,3.0,0.357385,0.309234,0.332448,0.298835,0.0,0.0,0.0,-0.0,-0.0,-0.0,-0.002563,-0.000244,0.000122,-0.015734,-0.015083,-0.010381
62365,-0.002197,-0.000122,-0.0,0.0,0.0,0.0,0.0,0.0,0.0,3.0,0.350853,0.317598,0.328471,0.302658,0.0,0.0,0.0,0.0,-0.0,-0.0,-0.002441,-0.000243,0.000122,-0.007455,-0.027032,-0.000181
62385,-0.002075,-0.000122,-0.0,0.0,0.0,0.0,0.0,0.0,0.0,3.0,0.356334,0.30802,0.334646,0.298885,0.0,0.0,0.0,-0.0,-0.0,-0.0,-0.002319,-0.000244,0.0,-0.00734,-0.011964,-0.010981
62405,-0.002075,-0.000244,0.000122,0.0,0.0,0.0,0.0,0.0,0.0,3.0,0.349128,0.316314,0.330752,0.303562,0.0,0.0,0.0,-0.0,-0.0,-0.0,-0.002197,-0.000366,-0.0,0.00297,-0.021019,-0.000179
62425,-0.002197,-0.000488,0.000122,0.0,0.0,0.0,0.0,0.0,0.0,3.0,0.347071,0.31642,0.331645,0.304918,0.0,0.0,0.0,-0.0,-0.0,-0.0,-0.002076,-0.000488,0.000122,0.011003,-0.017461,0.000637
62445,-0.002075,-0.000488,0.000122,0.0,0.0,0.0,0.0,0.0,0.0,3.0,0.351204,0.312894,0.327869,0.307817,0.0,0.0,0.0,-0.0,-0.0,-0.0,-0.002197,-0.000366,0.000122,-0.010807,-0.00201,5e-06
62465,-0.002197,-0.000122,0.000122,0.0,0.0,0.0,0.0,0.0,0.0,3.0,0.349641,0.315021,0.329588,0.305604,0.0,0.0,0.0,-0.0,-0.0,-0.0,-0.002197,-0.000366,0.000122,-0.001416,-0.012757,-1.4e-05
62485,-0.002075,-0.000122,0.000244,0.0,0.0,0.0,0.0,0.0,0.0,3.0,0.35372,0.31459,0.325092,0.306059,0.0,0.0,0.0,-0.0,-0.0,-0.0,-0.00244,-0.000243,0.000122,-0.024469,-0.011093,-1.5e-05
62505,-0.002197,-0.000122,0.000122,0.0,0.0,0.0,0.0,0.0,0.0,3.0,0.351034,0.314712,0.329447,0.304401,0.0,0.0,0.0,-0.0,-0.0,-0.0,-0.002319,-0.000244,0.000122,-0.005159,-0.01541,-0.001279
62525,-0.002197,-0.000244,-0.0,0.0,0.0,0.0,0.0,0.0,0.0,3.0,0.35898,0.306284,0.337039,0.294458,0.0,0.0,0.0,-0.0,-0.0,-0.0,-0.002319,-0.000366,-0.0,-0.007962,-0.017402,-0.015946
62545,-0.002197,-0.00061,0.000121,0.0,0.0,0.0,0.0,0.0,0.0,3.0,0.336525,0.324553,0.323626,0.317044,0.0,0.0,0.0,-0.0,-0.0,-0.0,-0.002076,-0.000366,0.000243,0.020124,-0.008851,0.017593
62565,-0.001953,-0.000488,0.000244,0.0,0.0,0.0,0.0,0.0,0.0,3.0,0.343423,0.314007,0.330072,0.313361,0.0,0.0,0.0,-0.0,-0.0,-0.0,-0.001954,-0.000367,0.000244,0.017449,0.00903,0.005203
62585,-0.001831,-0.00061,0.000244,0.0,0.0,0.0,0.0,0.0,0.0,3.0,0.348405,0.316979,0.330388,0.304139,0.0,0.0,0.0,-0.0,-0.0,-0.0,-0.001953,-0.00061,0.000244,0.003924,-0.020114,5.2e-05
62605,-0.001831,-0.000854,0.000121,0.0,0.0,0.0,0.0,0.0,0.0,3.0,0.351718,0.313287,0.333385,0.300601,0.0,0.0,0.0,-0.0,-0.0,-0.0,-0.001953,-0.000854,0.000121,0.002476,-0.018109,-0.005614
62625,-0.001831,-0.000732,0.000121,0.0,0.0,0.0,0.0,0.0,0.0,3.0,0.360352,0.307482,0.333096,0.296093,0.0,0.0,0.0,-0.0,-0.0,-0.0,-0.002074,-0.000854,0.000122,-0.023755,-0.014256,-0.014092
62645,-0.001953,-0.00061,0.000244,0.0,0.0,0.0,0.0,0.0,0.0,3.0,0.346738,0.31355,0.330319,0.309746,0.0,0.0,0.0,-0.0,-0.0,-0.0,-0.001831,-0.00061,0.000244,0.008336,0.00237,0.001722
62665,-0.001953,-0.000488,0.000244,0.0,0.0,0.0,0.0,0.0,0.0,3.0,0.346409,0.312052,0.332497,0.30926,0.0,0.0,0.0,-0.0,-0.0,-0.0,-0.001832,-0.000366,0.000244,0.015365,0.003862,3e-05
62685,-0.001953,-0.000488,0.000122,0.0,0.0,0.0,0.0,0.0,0.0,3.0,0.352237,0.307662,0.332758,0.306482,0.0,0.0,0.0,-0.0,-0.0,-0.0,-0.001953,-0.000367,0.000121,-0.000437,0.007935,-0.00559
62705,-0.002075,-0.00061,0.000121,0.0,0.0,0.0,0.0,0.0,0.0,3.0,0.347652,0.31674,0.331709,0.303812,0.0,0.0,0.0,-0.0,-0.0,-0.0,-0.001954,-0.00061,0.000121,0.010301,-0.020129,-9.4e-05
62725,-0.001953,-0.001099,0.000121,0.0,0.0,0.0,0.0,0.0,0.0,3.0,0.353042,0.317321,0.325766,0.303277,0.0,0.0,0.0,-0.0,-0.0,-0.0,-0.002074,-0.000854,0.000121,-0.021126,-0.021784,-3.1e-05
62745,-0.001953,-0.001099,0.000121,0.0,0.0,0.0,0.0,0.0,0.0,3.0,0.350456,0.31586,0.328592,0.304848,0.0,0.0,0.0,-0.0,-0.0,-0.0,-0.001952,-0.000976,0.000121,-0.006274,-0.013689,-1.6e-05
62765,-0.001953,-0.001221,0.000121,0.0,0.0,0.0,0.0,0.0,0.0,3.0,0.346602,0.313454,0.332696,0.307382,0.0,0.0,0.0,-0.0,-0.0,-0.0,-0.001832,-0.001099,0.000121,0.015814,-0.00085,8e-06
62785,-0.002075,-0.001343,0.000121,0.0,0.0,0.0,0.0,0.0,0.0,3.0,0.344464,0.311736,0.334912,0.309159,0.0,0.0,0.0,-0.0,-0.0,-0.0,-0.00171,-0.001099,0.000121,0.027698,0.007874,2.3e-05
62805,-0.001953,-0.001099,0.000121,0.0,0.0,0.0,0.0,0.0,0.0,3.0,0.346867,0.308038,0.336339,0.308477,0.0,0.0,0.0,-0.0,-0.0,-0.0,-0.00171,-0.000977,0.000121,0.024793,0.014855,-0.003655
62825,-0.001953,-0.000977,-1e-06,0.0,0.0,0.0,0.0,0.0,0.0,3.0,0.347443,0.312895,0.33184,0.307916,0.0,0.0,0.0,-0.0,-0.0,-0.0,-0.001832,-0.000976,0.000121,0.011266,0.00147,-4.3e-05
62845,-0.001831,-0.001099,-1e-06,0.0,0.0,0.0,0.0,0.0,0.0,3.0,0.351803,0.314649,0.328231,0.304885,0.0,0.0,0.0,-0.0,-0.0,-0.0,-0.001953,-0.000976,-1e-06,-0.010803,-0.010289,-0.000671
62865,-0.001709,-0.000855,-1e-06,0.0,0.0,0.0,0.0,0.0,0.0,3.0,0.350601,0.311556,0.328812,0.30887,0.0,0.0,0.0,-0.0,-0.0,-0.0,-0.00183,-0.000854,-1e-06,-0.006126,0.006711,-5e-06
62885,-0.001709,-0.000977,-0.000123,0.0,0.0,0.0,0.0,0.0,0.0,3.0,0.347638,0.316861,0.33201,0.303361,0.0,0.0,0.0,-0.0,0.0,-0.0,-0.00171,-0.000976,-1e-06,0.010873,-0.019496,-1.2e-05
62905,-0.001709,-0.001343,-0.000123,0.0,0.0,0.0,0.0,0.0,0.0,3.0,0.34444,0.312511,0.333982,0.309437,0.0,0.0,0.0,-0.0,-0.0,-0.0,-0.001466,-0.000977,-1e-06,0.024603,0.006354,0.001279
62925,-0.001709,-0.001099,-0.000123,0.0,0.0,0.0,0.0,0.0,0.0,3.0,0.335029,0.318637,0.328466,0.31965,0.0,0.0,0.0,-0.0,-0.0,-0.0,-0.001345,-0.000855,-1e-06,0.035704,0.016112,0.015299
62945,-0.001587,-0.001099,-0.000123,0.0,0.0,0.0,0.0,0.0,0.0,3.0,0.350398,0.314434,0.329946,0.304905,0.0,0.0,0.0,-0.0,0.0,-0.0,-0.001587,-0.000976,-0.000123,-0.003223,-0.009477,-0.000449
62965,-0.001587,-0.000855,-0.000123,0.0,0.0,0.0,0.0,0.0,0.0,3.0,0.344382,0.318582,0.324578,0.313469,0.0,0.0,0.0,-0.0,0.0,-0.0,-0.001587,-0.000977,-0.000124,-4.9e-05,0.001133,0.010305
62985,-0.001343,-0.00061,-0.000123,0.0,0.0,0.0,0.0,0.0,0.0,3.0,0.349584,0.313497,0.330192,0.306583,0.0,0.0,0.0,-0.0,0.0,-0.0,-0.001587,-0.000732,-0.000123,-0.0,-0.00404,0.000144
63005,-0.001465,-0.000488,-0.000245,0.0,0.0,0.0,0.0,0.0,0.0,3.0,0.351425,0.313943,0.328359,0.305934,0.0,0.0,0.0,-0.0,0.0,-0.0,-0.001464,-0.000488,-0.000122,-0.010913,-0.0078,-6e-06
63025,-0.001465,-0.000733,-0.000245,0.0,0.0,0.0,0.0,0.0,0.0,3.0,0.336619,0.321234,0.327321,0.316514,0.0,0.0,0.0,0.0,0.0,-0.0,-0.001222,-0.000488,-0.000123,0.027971,-0.0001,0.015259
63045,-0.001343,-0.000611,-0.000245,0.0,0.0,0.0,0.0,0.0,0.0,3.0,0.337554,0.314196,0.332662,0.316917,0.0,0.0,0.0,-0.0,-0.0,-0.0,-0.0011,-0.000367,-0.000245,0.039435,0.018438,0.00989
63065,-0.001221,-0.000489,-0.000367,0.0,0.0,0.0,0.0,0.0,0.0,3.0,0.346707,0.308523,0.340065,0.303908,0.0,0.0,0.0,-0.0,-0.0,-0.0,-0.001101,-0.000488,-0.000367,0.034007,0.000867,-0.005448
63085,-0.001099,-0.000611,-0.000367,0.0,0.0,0.0,0.0,0.0,0.0,3.0,0.357498,0.30347,0.337821,0.298368,0.0,0.0,0.0,-0.0,-0.0,-0.0,-0.001221,-0.000489,-0.000366,-0.003849,3e-06,-0.014067
63105,-0.000977,-0.000366,-0.000366,0.0,0.0,0.0,0.0,0.0,0.0,3.0,0.352181,0.309585,0.33974,0.296456,0.0,0.0,0.0,-0.0,-0.0,-0.0,-0.000977,-0.000487,-0.000366,0.016513,-0.019359,-0.010515
63125,-0.000732,-0.0,-0.000366,0.0,0.0,0.0,0.0,0.0,0.0,3.0,0.351465,0.30918,0.329391,0.309602,0.0,0.0,0.0,-0.0,-0.0,-0.0,-0.000976,-0.000122,-0.000366,-0.010078,0.011571,-0.000145
63145,-0.000977,0.000122,-0.000366,0.0,0.0,0.0,0.0,0.0,0.0,3.0,0.347983,0.307994,0.33299,0.310939,0.0,0.0,0.0,-0.0,-0.0,-0.0,-0.000855,0.000122,-0.000366,0.009556,0.016722,5e-06
63165,-0.001099,0.000122,-0.000488,0.0,0.0,0.0,0.0,0.0,0.0,3.0,0.34892,0.307743,0.338421,0.303955,0.0,0.0,0.0,-0.0,-0.0,-0.0,-0.000856,0.000122,-0.000489,0.022014,0.000238,-0.0056
63185,-0.001099,0.000122,-0.00061,0.0,0.0,0.0,0.0,0.0,0.0,3.0,0.345871,0.307747,0.335742,0.310593,0.0,0.0,0.0,-0.0,-0.0,-0.0,-0.000856,0.000244,-0.000488,0.023448,0.015915,-7.1e-05
63205,-0.000977,0.000122,-0.000488,0.0,0.0,0.0,0.0,0.0,0.0,3.0,0.336064,0.319573,0.329329,0.316695,0.0,0.0,0.0,0.0,-0.0,-0.0,-0.000857,0.000244,-0.000489,0.033782,0.001502,0.015248
63225,-0.000855,-0.0,-0.00061,0.0,0.0,0.0,0.0,0.0,0.0,3.0,0.351056,0.313272,0.332484,0.302465,0.0,0.0,0.0,-0.0,-0.0,0.0,-0.000977,0.0,-0.000611,-0.000169,-0.016542,-0.001709
63245,-0.000855,-0.000122,-0.000611,0.0,0.0,0.0,0.0,0.0,0.0,3.0,0.347617,0.313536,0.33436,0.304218,0.0,0.0,0.0,-0.0,-0.0,0.0,-0.000855,-0.000122,-0.000611,0.014647,-0.012453,-2.8e-05
63265,-0.000732,-0.000122,-0.000611,0.0,0.0,0.0,0.0,0.0,0.0,3.0,0.351818,0.309848,0.329855,0.308002,0.0,0.0,0.0,-0.0,-0.0,0.0,-0.000854,-0.0,-0.00061,-0.010103,0.005418,2e-06
63285,-0.000977,-0.000122,-0.000611,0.0,0.0,0.0,0.0,0.0,0.0,3.0,0.350375,0.313208,0.331457,0.304521,0.0,0.0,0.0,-0.0,-0.0,0.0,-0.000855,-0.000122,-0.000611,-0.001402,-0.01089,-5e-06
63305,-0.000977,-0.000122,-0.000611,0.0,0.0,0.0,0.0,0.0,0.0,3.0,0.341093,0.316357,0.330089,0.313598,0.0,0.0,0.0,-0.0,-0.0,-0.0,-0.000856,-0.000122,-0.000611,0.021857,0.003539,0.010312
63325,-0.000977,-0.000122,-0.000733,0.0,0.0,0.0,0.0,0.0,0.0,3.0,0.348742,0.307001,0.339477,0.303698,0.0,0.0,0.0,-0.0,-0.0,-0.0,-0.000856,-0.0,-0.000733,0.025871,0.001971,-0.00545
63345,-0.000855,-0.0,-0.000733,0.0,0.0,0.0,0.0,0.0,0.0,3.0,0.348525,0.309483,0.337952,0.303196,0.0,0.0,0.0,-0.0,-0.0,-0.0,-0.000856,1e-06,-0.000733,0.022247,-0.005333,-0.00376
63365,-0.000732,-0.0,-0.000733,0.0,0.0,0.0,0.0,0.0,0.0,3.0,0.350393,0.312676,0.33204,0.304396,0.0,0.0,0.0,-0.0,-0.0,-0.0,-0.000855,0.0,-0.000733,0.000321,-0.010388,-5.6e-05
63385,-0.00061,-0.000122,-0.000733,0.0,0.0,0.0,0.0,0.0,0.0,3.0,0.345555,0.318081,0.33318,0.303232,0.0,0.0,0.0,-0.0,-0.0,-0.0,-0.000611,-0.000121,-0.000732,0.016575,-0.026356,0.003673
63405,-0.000488,-0.000244,-0.000733,0.0,0.0,0.0,0.0,0.0,0.0,3.0,0.343052,0.320238,0.324489,0.31337,0.0,0.0,0.0,-0.0,-0.0,-0.0,-0.00061,-0.000121,-0.000733,0.000235,-0.006996,0.01404
63425,-0.00061,-0.000244,-0.000855,0.0,0.0,0.0,0.0,0.0,0.0,3.0,0.354695,0.301184,0.344562,0.29615,0.0,0.0,0.0,0.0,-0.0,-0.0,-0.00049,-0.000244,-0.000854,0.021277,-0.000753,-0.015707
63445,-0.000732,-0.000367,-0.000855,0.0,0.0,0.0,0.0,0.0,0.0,3.0,0.356557,0.305349,0.341096,0.293675,0.0,0.0,0.0,-0.0,-0.0,-0.0,-0.000611,-0.000366,-0.000854,0.006284,-0.015919,-0.014217
63465,-0.000854,-0.000245,-0.000855,0.0,0.0,0.0,0.0,0.0,0.0,3.0,0.346903,0.308817,0.336484,0.307489,0.0,0.0,0.0,-0.0,-0.0,-0.0,-0.000612,-0.000122,-0.000855,0.021967,0.007299,-0.000197
63485,-0.000732,-0.000367,-0.000855,0.0,0.0,0.0,0.0,0.0,0.0,3.0,0.344419,0.320763,0.323667,0.312138,0.0,0.0,0.0,-0.0,-0.0,-0.0,-0.000855,-0.000244,-0.000855,-0.004675,-0.01086,0.013984
63505,-0.00061,-0.000366,-0.000855,0.0,0.0,0.0,0.0,0.0,0.0,3.0,0.34623,0.314356,0.332902,0.306661,0.0,0.0,0.0,-0.0,-0.0,-0.0,-0.000733,-0.000366,-0.000855,0.014584,-0.007429,0.00388
63525,-0.000488,-0.000489,-0.000855,0.0,0.0,0.0,0.0,0.0,0.0,3.0,0.349824,0.313175,0.333269,0.303174,0.0,0.0,0.0,0.0,-0.0,-0.0,-0.00061,-0.000488,-0.000855,0.004548,-0.01233,5e-05
63545,-0.000488,-0.000489,-0.000977,0.0,0.0,0.0,0.0,0.0,0.0,3.0,0.349806,0.312757,0.333385,0.303499,0.0,0.0,0.0,-0.0,-0.0,-0.0,-0.000488,-0.000488,-0.000855,0.004404,-0.010482,-1e-06
63565,-0.000488,-0.000611,-0.000977,0.0,0.0,0.0,0.0,0.0,0.0,3.0,0.338705,0.322009,0.328513,0.312152,0.0,0.0,0.0,-0.0,-0.0,-0.0,-0.000367,-0.00061,-0.000855,0.022594,-0.01236,0.015256
63585,-0.000488,-0.000611,-0.000977,0.0,0.0,0.0,0.0,0.0,0.0,3.0,0.344311,0.306936,0.340056,0.308342,0.0,0.0,0.0,-0.0,0.0,-0.0,-0.000246,-0.000489,-0.000977,0.038098,0.015749,-0.000427
63605,-0.000366,-0.000611,-0.000977,0.0,0.0,0.0,0.0,0.0,0.0,3.0,0.347852,0.310452,0.339897,0.30073,0.0,0.0,0.0,-0.0,0.0,-0.0,-0.000245,-0.00061,-0.000977,0.027367,-0.010729,-0.003682
63625,-0.000488,-0.000733,-0.000977,0.0,0.0,0.0,0.0,0.0,0.0,3.0,0.350703,0.314364,0.330587,0.303894,0.0,0.0,0.0,-0.0,-0.0,0.0,-0.000488,-0.000732,-0.000855,-0.005861,-0.01238,0.001861
63645,-0.000366,-0.000733,-0.000855,0.0,0.0,0.0,0.0,0.0,0.0,3.0,0.348172,0.31578,0.329968,0.306146,0.0,0.0,0.0,-0.0,-0.0,0.0,-0.000488,-0.000732,-0.000855,-7.8e-05,-0.010483,0.004966
63665,-0.000488,-0.000733,-0.000977,0.0,0.0,0.0,0.0,0.0,0.0,3.0,0.359255,0.305861,0.33691,0.2947,0.0,0.0,0.0,-0.0,-0.0,0.0,-0.000609,-0.000854,-0.000976,-0.013476,-0.012384,-0.012166
63685,-0.000488,-0.000855,-0.000977,0.0,0.0,0.0,0.0,0.0,0.0,3.0,0.348553,0.315646,0.335625,0.299386,0.0,0.0,0.0,-0.0,-0.0,0.0,-0.000488,-0.000854,-0.000977,0.014467,-0.025728,-0.000174
63705,-0.00061,-0.000977,-0.000977,0.0,0.0,0.0,0.0,0.0,0.0,3.0,0.349163,0.310681,0.33484,0.304769,0.0,0.0,0.0,-0.0,-0.0,0.0,-0.000489,-0.000855,-0.000977,0.010513,-0.00036,2e-06
63725,-0.00061,-0.001221,-0.000977,0.0,0.0,0.0,0.0,0.0,0.0,3.0,0.335174,0.320306,0.331782,0.314302,0.0,0.0,0.0,-0.0,-0.0,0.0,-0.000367,-0.000977,-0.000855,0.041608,-0.000637,0.015928
63745,-0.000366,-0.001099,-0.000855,0.0,0.0,0.0,0.0,0.0,0.0,3.0,0.335688,0.319197,0.331772,0.314886,0.0,0.0,0.0,-0.0,-0.0,0.0,-0.000245,-0.001099,-0.000855,0.039622,0.004299,0.015499
63765,-0.000244,-0.001221,-0.000977,0.0,0.0,0.0,0.0,0.0,0.0,3.0,0.351798,0.313055,0.334004,0.300031,0.0,0.0,0.0,-0.0,-0.0,0.0,-0.000366,-0.001221,-0.000977,-8.5e-05,-0.015848,-0.001701
63785,-0.000244,-0.001221,-0.000977,0.0,0.0,0.0,0.0,0.0,0.0,3.0,0.358017,0.309419,0.336593,0.292912,0.0,0.0,0.0,-0.0,0.0,0.0,-0.000365,-0.001342,-0.000976,-0.011554,-0.022763,-0.010343
63805,-0.000122,-0.001221,-0.000855,0.0,0.0,0.0,0.0,0.0,0.0,3.0,0.350022,0.315534,0.327818,0.306564,0.0,0.0,0.0,-0.0,-0.0,0.0,-0.000365,-0.00122,-0.000855,-0.011735,-0.0063,0.005443
63825,-0.000244,-0.001221,-0.000855,0.0,0.0,0.0,0.0,0.0,0.0,3.0,0.351112,0.314618,0.328539,0.305413,0.0,0.0,0.0,-0.0,-0.0,0.0,-0.000365,-0.00122,-0.000855,-0.012996,-0.006724,0.003748
63845,-0.00061,-0.001343,-0.000977,0.0,0.0,0.0,0.0,0.0,0.0,3.0,0.352618,0.312308,0.333485,0.300403,0.0,0.0,0.0,0.0,-0.0,0.0,-0.000488,-0.001343,-0.000977,-0.003354,-0.012325,-0.00187
63865,-0.00061,-0.001465,-0.000977,0.0,0.0,0.0,0.0,0.0,0.0,3.0,0.349312,0.309262,0.338977,0.301272,0.0,0.0,0.0,0.0,-0.0,0.0,-0.000489,-0.001465,-0.000977,0.021835,-0.002081,-0.003692
63885,-0.00061,-0.001465,-0.000977,0.0,0.0,0.0,0.0,0.0,0.0,3.0,0.352627,0.304304,0.342541,0.298035,0.0,0.0,0.0,-0.0,0.0,-0.0,-0.000489,-0.001343,-0.000976,0.022195,0.001894,-0.010345
63905,-0.000488,-0.001465,-0.000855,0.0,0.0,0.0,0.0,0.0,0.0,3.0,0.344426,0.319809,0.334,0.301786,0.0,0.0,0.0,-0.0,-0.0,-0.0,-0.000489,-0.001586,-0.000855,0.022201,-0.026833,0.005459
63925,-0.000366,-0.001465,-0.000855,0.0,0.0,0.0,0.0,0.0,0.0,3.0,0.348447,0.315916,0.33164,0.303804,0.0,0.0,0.0,-0.0,-0.0,-0.0,-0.000487,-0.001587,-0.000855,0.004,-0.011946,0.003757
63945,-0.000243,-0.001587,-0.000855,0.0,0.0,0.0,0.0,0.0,0.0,3.0,0.359299,0.306582,0.341386,0.288356,0.0,0.0,0.0,-0.0,-0.0,-0.0,-0.000488,-0.001708,-0.000977,-0.001182,-0.023968,-0.015863
63965,-0.000243,-0.001709,-0.000855,0.0,0.0,0.0,0.0,0.0,0.0,3.0,0.350869,0.312839,0.33274,0.302855,0.0,0.0,0.0,-0.0,0.0,-0.0,-0.000366,-0.001586,-0.000855,-0.00062,-0.006312,0.00043
63985,-0.000488,-0.001709,-0.000733,0.0,0.0,0.0,0.0,0.0,0.0,3.0,0.340004,0.322995,0.326968,0.311317,0.0,0.0,0.0,-0.0,0.0,-0.0,-0.000244,-0.001709,-0.000733,0.014628,-0.011048,0.015924
64005,-0.000488,-0.001953,-0.000733,0.0,0.0,0.0,0.0,0.0,0.0,3.0,0.344862,0.312317,0.338895,0.303562,0.0,0.0,0.0,-0.0,0.0,-0.0,-0.000245,-0.001831,-0.000733,0.033654,-0.002061,0.000255
64025,-0.000365,-0.002075,-0.000733,0.0,0.0,0.0,0.0,0.0,0.0,3.0,0.346203,0.309835,0.34165,0.301298,0.0,0.0,0.0,-0.0,0.0,-0.0,-0.000245,-0.001953,-0.000733,0.037612,-0.000671,-0.003643
64045,-0.000244,-0.001953,-0.000611,0.0,0.0,0.0,0.0,0.0,0.0,3.0,0.350382,0.317485,0.331035,0.30046,0.0,0.0,0.0,0.0,0.0,-0.0,-0.000366,-0.002074,-0.000611,-0.003799,-0.021282,0.001858
64065,-0.000244,-0.001953,-0.000489,0.0,0.0,0.0,0.0,0.0,0.0,3.0,0.349634,0.320031,0.327341,0.302792,0.0,0.0,0.0,0.0,0.0,-0.0,-0.000365,-0.002074,-0.000488,-0.011621,-0.022183,0.005609
64085,-0.000122,-0.001953,-0.000488,0.0,0.0,0.0,0.0,0.0,0.0,3.0,0.347806,0.318266,0.331367,0.302387,0.0,0.0,-0.0,-0.0,-0.0,0.0,-0.000243,-0.002074,-0.000488,0.004172,-0.01851,0.003761
64105,-0.000122,-0.002197,-0.000366,0.0,0.0,0.0,0.0,0.0,0.0,3.0,0.349989,0.312034,0.333079,0.304377,0.0,0.0,0.0,-0.0,-0.0,0.0,-0.000244,-0.002075,-0.000489,0.002478,0.002156,5.5e-05
64125,-0.000122,-0.00232,-0.000489,0.0,0.0,0.0,0.0,0.0,0.0,3.0,0.34512,0.315828,0.337126,0.301614,0.0,0.0,0.0,-0.0,-0.0,0.0,-1e-06,-0.002319,-0.000366,0.026905,-0.012845,0.000686
64145,-0.000122,-0.00232,-0.000489,0.0,0.0,0.0,0.0,0.0,0.0,3.0,0.346761,0.310395,0.334796,0.307967,0.0,0.0,0.0,0.0,-0.0,0.0,-0.0,-0.002198,-0.000366,0.015627,0.015727,0.001288
64165,0.0,-0.002075,-0.000366,0.0,0.0,0.0,0.0,0.0,0.0,3.0,0.337269,0.320155,0.329499,0.314607,0.0,0.0,0.0,0.0,-0.0,0.0,0.000121,-0.002075,-0.000367,0.027678,0.007086,0.015299
64185,0.000122,-0.002197,-0.000366,0.0,0.0,0.0,0.0,0.0,0.0,3.0,0.350569,0.316031,0.334429,0.297874,0.0,0.0,0.0,0.0,-0.0,0.0,1e-06,-0.002196,-0.000488,0.003426,-0.022435,-0.001697
64205,0.000122,-0.002075,-0.000366,0.0,0.0,0.0,0.0,0.0,0.0,3.0,0.35174,0.314555,0.330265,0.302788,0.0,0.0,0.0,-0.0,-0.0,0.0,1e-06,-0.002197,-0.000366,-0.011522,-0.006949,0.00062
64225,0.000122,-0.002197,-0.000366,0.0,0.0,0.0,0.0,0.0,0.0,3.0,0.352097,0.315135,0.330576,0.301383,0.0,0.0,0.0,-0.0,-0.0,0.0,1e-06,-0.002197,-0.000366,-0.011731,-0.011673,-4e-06
64245,1e-06,-0.002197,-0.000488,0.0,0.0,0.0,0.0,0.0,0.0,3.0,0.347449,0.317532,0.331577,0.303364,0.0,0.0,0.0,-0.0,-0.0,0.0,0.000123,-0.002319,-0.000366,0.004168,-0.01239,0.003688
64265,1e-06,-0.002319,-0.000488,0.0,0.0,0.0,0.0,0.0,0.0,3.0,0.347931,0.309359,0.336105,0.306155,0.0,0.0,0.0,-0.0,-0.0,-0.0,0.000122,-0.002198,-0.000488,0.015305,0.014473,-0.000588
64285,0.000123,-0.002319,-0.000488,0.0,0.0,0.0,0.0,0.0,0.0,3.0,0.345411,0.309532,0.338095,0.306693,0.0,0.0,0.0,-0.0,-0.0,-0.0,0.000244,-0.002198,-0.000488,0.027687,0.015462,2.2e-05
64305,0.000245,-0.002319,-0.000488,0.0,0.0,0.0,0.0,0.0,0.0,3.0,0.349879,0.314877,0.333459,0.301093,0.0,0.0,0.0,-0.0,-0.0,-0.0,0.000245,-0.002319,-0.000488,0.001655,-0.010745,3e-06
64325,0.000245,-0.002197,-0.000488,0.0,0.0,0.0,0.0,0.0,0.0,3.0,0.35191,0.314093,0.331314,0.301881,0.0,0.0,0.0,-0.0,-0.0,-0.0,0.000245,-0.002319,-0.000488,-0.010284,-0.006783,-1e-05
64345,0.000367,-0.002197,-0.000488,0.0,0.0,0.0,0.0,0.0,0.0,3.0,0.352256,0.316474,0.326935,0.303849,0.0,0.0,0.0,-0.0,-0.0,-0.0,0.000124,-0.002319,-0.000488,-0.022682,-0.007992,0.003658
64365,0.000245,-0.002197,-0.000488,0.0,0.0,0.0,0.0,0.0,0.0,3.0,0.35535,0.313757,0.330071,0.299365,0.0,0.0,0.0,-0.0,0.0,-0.0,0.000124,-0.002319,-0.00061,-0.023456,-0.011692,-0.001891
64385,0.000123,-0.002442,-0.00061,0.0,0.0,0.0,0.0,0.0,0.0,3.0,0.360639,0.307643,0.338707,0.288746,0.0,0.0,0.0,0.0,-0.0,-0.0,0.000123,-0.00244,-0.00061,-0.015561,-0.020281,-0.015295
64405,0.000123,-0.002564,-0.00061,0.0,0.0,0.0,0.0,0.0,0.0,3.0,0.346557,0.312835,0.331291,0.30962,0.0,0.0,0.0,0.0,-0.0,-0.0,0.000245,-0.00232,-0.000488,0.005368,0.015617,0.005388
64425,0.000367,-0.002441,-0.00061,0.0,0.0,0.0,0.0,0.0,0.0,3.0,0.344839,0.313506,0.339853,0.301221,0.0,0.0,0.0,0.0,-0.0,-0.0,0.000488,-0.002441,-0.00061,0.033149,-0.005791,-0.00054
64445,0.000611,-0.002319,-0.00061,0.0,0.0,0.0,0.0,0.0,0.0,3.0,0.349955,0.308134,0.333989,0.307366,0.0,0.0,0.0,0.0,-0.0,-0.0,0.000489,-0.002197,-0.00061,0.001721,0.021419,-1.1e-05
64465,0.000611,-0.002197,-0.000732,0.0,0.0,0.0,0.0,0.0,0.0,3.0,0.360847,0.301547,0.33966,0.293784,0.0,0.0,0.0,0.0,-0.0,-0.0,0.00049,-0.002197,-0.000732,-0.015211,0.005241,-0.015926
64485,0.000611,-0.002075,-0.000732,0.0,0.0,0.0,0.0,0.0,0.0,3.0,0.36037,0.30727,0.334513,0.294616,0.0,0.0,0.0,0.0,0.0,-0.0,0.000368,-0.002196,-0.000731,-0.027677,-0.006562,-0.010562
64505,0.000489,-0.002075,-0.000732,0.0,0.0,0.0,0.0,0.0,0.0,3.0,0.354593,0.31251,0.329656,0.302104,0.0,0.0,-0.0,0.0,-0.0,-0.0,0.000368,-0.002074,-0.000732,-0.023529,-0.002394,-0.000173
64525,0.000367,-0.002075,-0.00061,0.0,0.0,0.0,0.0,0.0,0.0,3.0,0.351965,0.311398,0.332382,0.303422,0.0,0.0,-0.0,-0.0,-0.0,-0.0,0.000368,-0.002075,-0.000732,-0.008223,0.00364,-1.1e-05
64545,0.000245,-0.002197,-0.000732,0.0,0.0,0.0,0.0,0.0,0.0,3.0,0.349493,0.31114,0.336382,0.302125,0.0,0.0,-0.0,-0.0,-0.0,-0.0,0.000366,-0.002197,-0.000732,0.01019,0.00182,-0.00125
64565,0.000367,-0.002319,-0.000854,0.0,0.0,0.0,0.0,0.0,0.0,3.0,0.350373,0.308916,0.334167,0.305878,0.0,0.0,-0.0,-0.0,-0.0,-0.0,0.000367,-0.002076,-0.000732,0.001401,0.015932,-1.9e-05
64585,0.000367,-0.002075,-0.000732,0.0,0.0,0.0,0.0,0.0,0.0,3.0,0.345917,0.31171,0.333566,0.308997,0.0,0.0,-0.0,-0.0,-0.0,-0.0,0.000488,-0.002076,-0.000732,0.012232,0.016739,0.004952
64605,0.000489,-0.001953,-0.000732,0.0,0.0,0.0,0.0,0.0,0.0,3.0,0.353568,0.309274,0.33321,0.302707,0.0,0.0,-0.0,-0.0,-0.0,-0.0,0.000368,-0.002075,-0.000854,-0.010791,0.007595,-0.001861
64625,0.000489,-0.001831,-0.000732,0.0,0.0,0.0,0.0,0.0,0.0,3.0,0.355178,0.312202,0.330891,0.300295,0.0,0.0,-0.0,-0.0,0.0,-0.0,0.000368,-0.001952,-0.000854,-0.022028,-0.005876,-0.001305
64645,0.000367,-0.001831,-0.000854,0.0,0.0,0.0,0.0,0.0,0.0,3.0,0.362953,0.306462,0.33349,0.293269,0.0,0.0,-0.0,-0.0,0.0,-0.0,0.000247,-0.001952,-0.000854,-0.038084,-0.007987,-0.011623
64665,0.000489,-0.001953,-0.000854,0.0,0.0,0.0,0.0,0.0,0.0,3.0,0.349888,0.313293,0.335436,0.300477,0.0,0.0,-0.0,-0.0,0.0,-0.0,0.000489,-0.001952,-0.000854,0.005716,-0.008,-0.000157
64685,0.000489,-0.002075,-0.000854,0.0,0.0,0.0,0.0,0.0,0.0,3.0,0.345852,0.315994,0.324352,0.31466,0.0,0.0,-0.0,-0.0,0.0,-0.0,0.000368,-0.001831,-0.000855,-0.012168,0.019464,0.013974
64705,0.000367,-0.002075,-0.000854,0.0,0.0,0.0,0.0,0.0,0.0,3.0,0.343593,0.316201,0.330638,0.310329,0.0,0.0,-0.0,-0.0,0.0,-0.0,0.000489,-0.002076,-0.000855,0.010776,0.009274,0.010517
64725,0.000489,-0.002075,-0.000976,0.0,0.0,0.0,0.0,0.0,0.0,3.0,0.351137,0.308625,0.333914,0.305539,0.0,0.0,-0.0,-0.0,0.0,-0.0,0.000489,-0.001953,-0.000854,-0.002274,0.016038,0.000144
64745,0.000611,-0.001831,-0.000854,0.0,0.0,0.0,0.0,0.0,0.0,3.0,0.347925,0.313159,0.332197,0.306679,0.0,0.0,-0.0,0.0,0.0,-0.0,0.000611,-0.001831,-0.000854,0.001877,0.007084,0.004945
64765,0.000733,-0.001709,-0.000854,0.0,0.0,0.0,0.0,0.0,0.0,3.0,0.353615,0.309063,0.333906,0.302069,0.0,0.0,-0.0,0.0,0.0,-0.0,0.000612,-0.001709,-0.000976,-0.010284,0.00569,-0.001859
64785,0.000733,-0.001587,-0.000854,0.0,0.0,0.0,0.0,0.0,0.0,3.0,0.355719,0.311852,0.331058,0.299793,0.0,0.0,-0.0,0.0,0.0,-0.0,0.00049,-0.001708,-0.000976,-0.023936,-0.00656,-0.001304
64805,0.000733,-0.001587,-0.000976,0.0,0.0,0.0,0.0,0.0,0.0,3.0,0.362489,0.303723,0.338667,0.290521,0.0,0.0,-0.0,0.0,0.0,-0.0,0.00049,-0.001708,-0.000976,-0.023462,-0.00799,-0.015287
64825,0.000733,-0.001709,-0.000976,0.0,0.0,0.0,0.0,0.0,0.0,3.0,0.351123,0.316974,0.328463,0.303003,0.0,0.0,-0.0,0.0,0.0,-0.0,0.000613,-0.001708,-0.000854,-0.017874,-0.011694,0.005373
64845,0.000611,-0.001587,-0.000976,0.0,0.0,0.0,0.0,0.0,0.0,3.0,0.354224,0.314448,0.328045,0.302332,0.0,0.0,-0.0,0.0,0.0,-0.0,0.00049,-0.001708,-0.000976,-0.027732,-0.006807,0.00308
64865,0.000489,-0.001831,-0.000976,0.0,0.0,0.0,0.0,0.0,0.0,3.0,0.353746,0.308736,0.331959,0.304455,0.0,0.0,-0.0,0.0,0.0,-0.0,0.00049,-0.001709,-0.000976,-0.015649,0.012622,2.5e-05
64885,0.000489,-0.001953,-0.000976,0.0,0.0,0.0,0.0,0.0,0.0,3.0,0.358739,0.303539,0.341543,0.292171,0.0,0.0,-0.0,-0.0,-0.0,0.0,0.000489,-0.001953,-0.000976,-0.003887,-0.00239,-0.013994
64905,0.000611,-0.001709,-0.000854,0.0,0.0,0.0,0.0,0.0,0.0,3.0,0.347834,0.310364,0.332174,0.309651,0.0,0.0,-0.0,-0.0,0.0,0.0,0.000611,-0.001709,-0.000854,0.001848,0.02147,0.005396
64925,0.000733,-0.001465,-0.000854,0.0,0.0,0.0,0.0,0.0,0.0,3.0,0.344355,0.318395,0.326436,0.311729,0.0,0.0,-0.0,-0.0,0.0,0.0,0.000611,-0.001586,-0.000855,-0.00367,0.005892,0.014061
64945,0.000855,-0.00122,-0.000976,0.0,0.0,0.0,0.0,0.0,0.0,3.0,0.358363,0.305726,0.328982,0.305128,0.0,0.0,-0.0,0.0,0.0,0.0,0.000491,-0.001343,-0.000976,-0.037842,0.020306,-0.00175
64965,0.000855,-0.00122,-0.000976,0.0,0.0,0.0,0.0,0.0,0.0,3.0,0.35499,0.31518,0.33089,0.297349,0.0,0.0,-0.0,0.0,0.0,0.0,0.000612,-0.001341,-0.000976,-0.023009,-0.021604,-3e-05
64985,0.000977,-0.00122,-0.000976,0.0,0.0,0.0,0.0,0.0,0.0,3.0,0.352834,0.308817,0.329268,0.308465,0.0,0.0,-0.0,0.0,0.0,0.0,0.000734,-0.001099,-0.000976,-0.021562,0.019923,0.003661
65005,0.000977,-0.00122,-0.000976,0.0,0.0,0.0,0.0,0.0,0.0,3.0,0.349947,0.312298,0.332375,0.304948,0.0,0.0,-0.0,0.0,0.0,0.0,0.000978,-0.00122,-0.000976,-0.005628,0.003301,0.003728
65025,0.000977,-0.001464,-0.001098,0.0,0.0,0.0,0.0,0.0,0.0,3.0,0.352041,0.306537,0.336616,0.303475,0.0,0.0,-0.0,-0.0,0.0,0.0,0.000977,-0.001221,-0.001098,-9e-05,0.014036,-0.001872
65045,0.000977,-0.001342,-0.001098,0.0,0.0,0.0,0.0,0.0,0.0,3.0,0.351742,0.307585,0.335025,0.304599,0.0,0.0,-0.0,-0.0,-0.0,0.0,0.000977,-0.001343,-0.001098,-0.003691,0.014792,-3.5e-05
65065,0.000977,-0.00122,-0.001098,0.0,0.0,0.0,0.0,0.0,0.0,3.0,0.353487,0.307199,0.333185,0.304951,0.0,0.0,-0.0,-0.0,-0.0,0.0,0.000978,-0.001221,-0.001098,-0.014049,0.016107,-1.8e-05
65085,0.000977,-0.000976,-0.001098,0.0,0.0,0.0,0.087266,0.0,0.0,3.0,0.395506,0.310124,0.272853,0.306412,0.000113,0.0,-0.0,0.045247,-0.0,0.0,0.000977,-0.000976,-0.001098,-0.000207,0.01142,0.003676
65105,0.000977,-0.000732,-0.001098,0.0,0.0,0.0,0.087266,0.0,0.0,3.0,0.405101,0.306077,0.265127,0.3032,0.001634,0.0,-0.0,0.122181,-0.0,0.0,0.000612,-0.000854,-0.001221,-0.044046,0.013092,-0.00189
65125,0.001343,-0.000732,-0.00122,0.0,0.0,0.0,0.087266,0.0,0.0,3.0,0.407505,0.300754,0.283347,0.28871,0.004509,0.0,-0.0,0.17519,-0.0,0.0,0.000979,-0.000853,-0.001342,-0.011897,-0.007707,-0.017194
65145,0.002686,-0.000853,-0.00122,0.0,0.0,0.0,0.087266,0.0,0.0,3.0,0.389637,0.312438,0.287304,0.299371,0.008296,0.0,0.0,0.20959,-0.0,0.0,0.002198,-0.000853,-0.00122,0.057916,-0.011646,0.000449
65165,0.005006,-0.001218,-0.000974,0.0,0.0,0.0,0.087266,0.0,0.0,3.0,0.373346,0.319181,0.30315,0.299128,0.012661,0.0,0.0,0.230262,-0.0,0.0,0.004394,-0.001095,-0.001096,0.14292,-0.028226,0.00573
65185,0.009034,-0.001462,-0.000726,0.0,0.0,0.0,0.087266,0.0,0.0,3.0,0.35641,0.327151,0.305805,0.309447,0.017359,0.0,0.0,0.240903,-0.0,0.0,0.007813,-0.001461,-0.000849,0.190713,-0.022539,0.02053
65205,0.014161,-0.001706,-0.000354,0.0,0.0,0.0,0.087266,0.0,0.0,3.0,0.344594,0.322493,0.331354,0.301684,0.022212,0.0,0.0,0.244286,-0.0,0.0,0.012817,-0.001828,-0.000476,0.273299,-0.027384,0.008846
65225,0.02063,-0.002198,0.000145,0.0,0.0,0.0,0.087266,0.0,0.0,3.0,0.329035,0.325898,0.339422,0.30663,0.027091,-0.0,0.0,0.242486,-0.0,0.0,0.018921,-0.002075,2e-05,0.315445,-0.02324,0.014394
65245,0.028077,-0.00257,0.000524,0.0,0.0,0.0,0.087266,0.0,0.0,3.0,0.30305,0.332032,0.350026,0.314399,0.031905,-0.0,0.0,0.237052,-0.0,0.0,0.026368,-0.002571,0.000522,0.382644,-0.018127,0.024942
65265,0.036622,-0.002947,0.00103,0.0,0.0,0.0,0.087266,0.0,0.0,3.0,0.299122,0.321506,0.368327,0.307192,0.03659,-0.0,0.0,0.229136,-0.0,0.0,0.034426,-0.002942,0.000783,0.414576,-0.006242,0.008536
65285,0.04517,-0.003448,0.00142,0.0,0.0,0.0,0.087266,0.0,0.0,3.0,0.291682,0.325442,0.373012,0.303959,0.041103,-0.0,0.0,0.219594,-0.0,0.0,0.042972,-0.003441,0.001172,0.410916,-0.02206,0.008121
65305,0.053226,-0.003828,0.001809,0.0,0.0,0.0,0.087266,0.0,0.0,3.0,0.283741,0.329601,0.374939,0.304153,0.045417,-0.0,0.0,0.209056,-0.0,0.0,0.051274,-0.003823,0.001684,0.399731,-0.030833,0.010386
65325,0.061041,-0.004452,0.002086,0.0,0.0,0.0,0.087266,0.0,0.0,3.0,0.267966,0.336699,0.36978,0.316276,0.049515,-0.0,0.0,0.197982,-0.0,0.0,0.059212,-0.004211,0.002197,0.38266,-0.018272,0.02546
65345,0.067637,-0.004715,0.002475,0.0,0.0,0.0,0.087266,0.0,0.0,3.0,0.270066,0.338978,0.3682,0.314044,0.053391,-0.0,0.0,0.186707,-0.0,0.0,0.066173,-0.004713,0.002472,0.343346,-0.027833,0.02474
65365,0.073013,-0.004969,0.002619,0.0,0.0,0.0,0.087266,0.0,0.0,3.0,0.289162,0.330716,0.361941,0.314505,0.05704,-0.0,0.0,0.175471,-0.0,0.0,0.071789,-0.004846,0.002611,0.258183,-0.003138,0.016886
65385,0.076676,-0.005348,0.002885,0.0,0.0,0.0,0.087266,0.0,0.0,3.0,0.306058,0.325451,0.361806,0.304374,0.060467,-0.0,0.0,0.164443,-0.0,0.0,0.076062,-0.005221,0.002757,0.199279,-0.01217,0.003052
65405,0.078748,-0.005604,0.003144,0.0,0.0,0.0,0.087266,0.0,0.0,3.0,0.313067,0.339614,0.337336,0.310652,0.063675,-0.0,0.0,0.15374,-0.0,0.0,0.078382,-0.005603,0.003143,0.099726,-0.033447,0.020012
65425,0.079362,-0.005737,0.003395,0.0,0.0,0.0,0.087266,0.0,0.0,3.0,0.328068,0.331275,0.324369,0.318251,0.066671,-0.0,0.0,0.143439,-0.0,0.0,0.079363,-0.005616,0.00339,0.020881,0.009052,0.017809
65445,0.078869,-0.005629,0.003754,0.0,0.0,0.0,0.087266,0.0,0.0,3.0,0.335827,0.330039,0.31578,0.319987,0.069466,-0.0,0.0,0.133589,-0.0,0.0,0.079113,-0.005502,0.003628,-0.021441,0.016624,0.017295
65465,0.07777,-0.005397,0.004108,0.0,0.0,0.0,0.087266,0.0,0.0,3.0,0.346232,0.330711,0.301737,0.321311,0.072066,-0.0,0.0,0.124216,-0.0,0.0,0.077893,-0.005515,0.003991,-0.080212,0.018559,0.017773
65485,0.076306,-0.005043,0.004456,0.0,0.0,0.0,0.087266,0.0,0.0,3.0,0.342892,0.333897,0.303437,0.320078,0.074483,-0.0,0.0,0.115333,-0.0,0.0,0.076549,-0.005282,0.004344,-0.059956,0.005906,0.018341
65505,0.07496,-0.004683,0.004683,0.0,0.0,0.0,0.087266,0.0,0.0,3.0,0.345744,0.332131,0.29895,0.322902,0.076726,-0.0,0.0,0.10694,-0.0,0.0,0.075203,-0.004928,0.004692,-0.072427,0.016737,0.01791
65525,0.074349,-0.004573,0.005043,0.0,0.0,0.0,0.087266,0.0,0.0,3.0,0.342279,0.331026,0.311558,0.316053,0.078805,-0.0,0.0,0.099029,-0.0,0.0,0.074471,-0.004695,0.005049,-0.027658,0.001252,0.009575
65545,0.074714,-0.004714,0.005537,0.0,0.0,0.0,0.087266,0.0,0.0,3.0,0.324611,0.343086,0.305578,0.327403,0.080729,-0.0,0.0,0.091589,-0.0,0.0,0.074592,-0.004714,0.005537,0.006395,-0.00234,0.029189
65565,0.075688,-0.004974,0.005914,0.0,0.0,0.0,0.087266,0.0,0.0,3.0,0.32728,0.339439,0.32469,0.309824,0.082508,-0.0,0.0,0.084603,-0.0,0.0,0.075322,-0.004968,0.005791,0.045508,-0.0359,0.009333
65585,0.077278,-0.00511,0.006166,0.0,0.0,0.0,0.087266,0.0,0.0,3.0,0.317743,0.335608,0.335101,0.312841,0.08415,-0.0,0.0,0.078052,-0.0,0.0,0.076912,-0.005104,0.006044,0.092526,-0.016901,0.007215
65605,0.079477,-0.005249,0.006421,0.0,0.0,0.0,0.087266,0.0,0.0,3.0,0.300758,0.342436,0.33228,0.324713,0.085664,-0.0,0.0,0.071916,-0.0,0.0,0.078984,-0.005125,0.006414,0.118273,-0.005121,0.022612
65625,0.081793,-0.005392,0.006796,0.0,0.0,0.0,0.087266,0.0,0.0,3.0,0.299471,0.345513,0.329892,0.324992,0.087059,-0.0,0.0,0.066175,-0.0,0.0,0.081184,-0.005268,0.00679,0.105299,-0.012285,0.024369
65645,0.084236,-0.005537,0.007173,0.0,0.0,0.0,0.087266,0.0,0.0,3.0,0.290729,0.343428,0.341857,0.322373,0.088342,-0.0,0.0,0.060807,-0.0,0.0,0.083748,-0.005408,0.007045,0.147913,-0.012337,0.018912
65665,0.086802,-0.005318,0.007535,0.0,0.0,0.0,0.087266,0.0,0.0,3.0,0.287955,0.340099,0.339476,0.330777,0.08952,-0.0,0.0,0.055792,-0.0,0.0,0.086314,-0.005311,0.007412,0.136056,0.019244,0.021829
65685,0.089002,-0.005215,0.007779,0.0,0.0,0.0,0.087266,0.0,0.0,3.0,0.294904,0.340604,0.337919,0.32598,0.0906,-0.0,0.0,0.05111,-0.0,0.0,0.088515,-0.005207,0.007656,0.105831,0.004758,0.016856
65705,0.090716,-0.004988,0.008016,0.0,0.0,0.0,0.087266,0.0,0.0,3.0,0.301191,0.334868,0.333078,0.331414,0.091589,-0.0,0.0,0.04674,-0.0,0.0,0.090224,-0.004981,0.007892,0.06967,0.034532,0.0153
65725,0.091812,-0.005004,0.008262,0.0,0.0,0.0,0.087266,0.0,0.0,3.0,0.303607,0.339781,0.328728,0.328576,0.092493,-0.0,0.0,0.042665,-0.0,0.0,0.09157,-0.004998,0.008139,0.045712,0.013537,0.0162
65745,0.092544,-0.00489,0.008379,0.0,0.0,0.0,0.087266,0.0,0.0,3.0,0.304797,0.339971,0.326543,0.329482,0.093317,-0.0,0.0,0.038867,0.0,0.0,0.092423,-0.00489,0.008379,0.032864,0.015193,0.016086
65765,0.092545,-0.004658,0.008612,0.0,0.0,0.0,0.087266,0.0,0.0,3.0,0.322341,0.331804,0.325546,0.322344,0.094067,-0.0,0.0,0.035327,0.0,0.0,0.092424,-0.004652,0.00849,-0.014704,0.017987,0.001295
65785,0.092057,-0.004661,0.008733,0.0,0.0,0.0,0.087266,0.0,0.0,3.0,0.311079,0.346631,0.317255,0.325687,0.094749,-0.0,0.0,0.032031,-0.0,0.0,0.0923,-0.004662,0.008733,-0.007161,-0.014458,0.017197
65805,0.091569,-0.004549,0.008971,0.0,0.0,0.0,0.087266,0.0,0.0,3.0,0.311805,0.342079,0.315105,0.331894,0.095366,-0.0,0.0,0.028963,-0.0,0.0,0.091812,-0.00455,0.008971,-0.012563,0.014918,0.017299
65825,0.091324,-0.004559,0.009215,0.0,0.0,0.0,0.087266,0.0,0.0,3.0,0.322007,0.341247,0.320452,0.317732,0.095924,-0.0,0.0,0.026108,0.0,0.0,0.091324,-0.004675,0.009098,-0.023057,-0.019347,0.003023
65845,0.091079,-0.004813,0.009469,0.0,0.0,0.0,0.087266,0.0,0.0,3.0,0.315662,0.343086,0.320983,0.321506,0.096426,-0.0,0.0,0.023453,-0.0,0.0,0.091079,-0.004807,0.009348,-0.004232,-0.01401,0.006898
65865,0.0912,-0.004941,0.009597,0.0,0.0,0.0,0.087266,0.0,0.0,3.0,0.30529,0.344475,0.31898,0.331644,0.096876,-0.0,0.0,0.020985,0.0,0.0,0.0912,-0.004819,0.009591,0.015838,0.009274,0.016191
65885,0.09193,-0.005071,0.009726,0.0,0.0,0.0,0.087266,0.0,0.0,3.0,0.306038,0.338224,0.333208,0.323428,0.097278,-0.0,0.0,0.018691,0.0,0.0,0.091686,-0.004949,0.00972,0.049829,0.005786,0.001937
65905,0.092907,-0.004838,0.009838,0.0,0.0,0.0,0.087266,0.0,0.0,3.0,0.306219,0.338311,0.33245,0.323955,0.097636,-0.0,0.0,0.016561,0.0,0.0,0.092541,-0.004836,0.009837,0.043235,0.006653,0.001679
65925,0.093644,-0.004725,0.009956,0.0,0.0,0.0,0.087266,0.0,0.0,3.0,0.310338,0.339699,0.327505,0.323702,0.097952,-0.0,0.0,0.014584,-0.0,0.0,0.093279,-0.004723,0.009956,0.01593,0.001831,0.00195
65945,0.094619,-0.004741,0.010202,0.0,0.0,0.0,0.087266,0.0,0.0,3.0,0.293807,0.350293,0.322999,0.331591,0.09823,-0.0,0.0,0.01275,0.0,0.0,0.094376,-0.004862,0.010207,0.038595,-0.006588,0.018139
65965,0.095473,-0.004629,0.010319,0.0,0.0,0.0,0.087266,0.0,0.0,3.0,0.294305,0.347385,0.324185,0.333129,0.098472,-0.0,0.0,0.01105,-0.0,0.0,0.09523,-0.004628,0.010318,0.03641,0.005226,0.015885
65985,0.09609,-0.004273,0.010426,0.0,0.0,0.0,0.087266,0.0,0.0,3.0,0.293349,0.34741,0.324114,0.333973,0.098681,-0.0,0.0,0.009474,0.0,0.0,0.095968,-0.004394,0.010431,0.034743,0.006634,0.015874
66005,0.096457,-0.004152,0.01042,0.0,0.0,0.0,0.087266,0.0,0.0,3.0,0.304645,0.339297,0.331266,0.325578,0.098859,-0.0,0.0,0.008015,0.0,0.0,0.096457,-0.004152,0.01042,0.024561,0.006217,-5.7e-05
66025,0.096701,-0.004038,0.010536,0.0,0.0,0.0,0.087266,0.0,0.0,3.0,0.301615,0.34283,0.320609,0.335047,0.099009,-0.0,0.0,0.006664,0.0,0.0,0.09658,-0.003915,0.01053,0.002344,0.020964,0.011173
66045,0.096946,-0.003917,0.01053,0.0,0.0,0.0,0.087266,0.0,0.0,3.0,0.306612,0.343348,0.327224,0.323552,0.099133,-0.0,0.0,0.005415,0.0,0.0,0.096823,-0.004038,0.010536,0.006219,-0.010689,0.000694
66065,0.096579,-0.004043,0.010658,0.0,0.0,0.0,0.087266,0.0,0.0,3.0,0.30325,0.353294,0.30866,0.333583,0.099232,-0.0,0.0,0.004262,0.0,0.0,0.096579,-0.004048,0.01078,-0.033051,-0.012401,0.018346
66085,0.09609,-0.004168,0.010786,0.0,0.0,0.0,0.087266,0.0,0.0,3.0,0.30674,0.344825,0.320123,0.328874,0.099309,-0.0,0.0,0.003196,0.0,0.0,0.096334,-0.004048,0.01078,-0.011658,-0.000358,0.005186
66105,0.095969,-0.004046,0.01078,0.0,0.0,0.0,0.087266,0.0,0.0,3.0,0.307438,0.339314,0.32551,0.328796,0.099366,-0.0,0.0,0.002214,0.0,0.0,0.09609,-0.004047,0.01078,0.001558,0.01522,-0.00066
66125,0.095847,-0.004045,0.010779,0.0,0.0,0.0,0.087266,0.0,0.0,3.0,0.312612,0.341361,0.32195,0.325339,0.099403,-0.0,0.0,0.001308,0.0,0.0,0.095847,-0.004039,0.010657,-0.020187,0.000409,-0.001938
66145,0.095848,-0.003923,0.010774,0.0,0.0,0.0,0.087266,0.0,0.0,3.0,0.305752,0.343268,0.324537,0.327122,0.099423,-0.0,0.0,0.000475,0.0,0.0,0.095847,-0.004045,0.010779,0.003393,-4.5e-05,0.000631
66165,0.09597,-0.003802,0.010768,0.0,0.0,0.0,0.087266,0.0,0.0,3.0,0.302751,0.336333,0.329177,0.332445,0.099427,-0.0,0.0,-0.000291,0.0,0.0,0.096093,-0.003681,0.010762,0.021704,0.032318,-0.001537
66185,0.096335,-0.003926,0.010774,0.0,0.0,0.0,0.087266,0.0,0.0,3.0,0.292062,0.344182,0.326084,0.336516,0.099416,-0.0,0.0,-0.000995,0.0,0.0,0.096336,-0.003683,0.010762,0.037112,0.021623,0.009244
66205,0.096701,-0.003927,0.010774,0.0,0.0,0.0,0.087266,0.0,0.0,3.0,0.31098,0.335285,0.336421,0.318482,0.099391,-0.0,0.0,-0.00164,0.0,0.0,0.096579,-0.003921,0.010653,0.018351,-0.000324,-0.01568
66225,0.096823,-0.003922,0.010652,0.0,0.0,0.0,0.087266,0.0,0.0,3.0,0.313801,0.33551,0.333086,0.319061,0.099353,-0.0,0.0,-0.002231,0.0,0.0,0.096701,-0.003922,0.010653,0.000946,0.000729,-0.015453
66245,0.097067,-0.004045,0.010658,0.0,0.0,0.0,0.087266,0.0,0.0,3.0,0.301651,0.344443,0.326802,0.327318,0.099305,-0.0,0.0,-0.002772,0.0,0.0,0.097067,-0.004045,0.010658,0.011839,-0.001963,-0.000116
66265,0.096947,-0.003673,0.010519,0.0,0.0,0.0,0.087266,0.0,0.0,3.0,0.309024,0.338148,0.323273,0.330747,0.099245,-0.0,0.0,-0.003265,0.0,0.0,0.096947,-0.003673,0.010519,-0.015595,0.023537,-0.003061
66285,0.096826,-0.003545,0.010391,0.0,0.0,0.0,0.087266,0.0,0.0,3.0,0.3056,0.342908,0.325111,0.327076,0.099177,-0.0,0.0,-0.003714,0.0,0.0,0.096825,-0.003666,0.010397,-0.002129,0.000431,-0.001957
66305,0.096461,-0.003421,0.010385,0.0,0.0,0.0,0.087266,0.0,0.0,3.0,0.303959,0.34534,0.323627,0.327429,0.099099,-0.0,0.0,-0.004122,0.0,0.0,0.096704,-0.003543,0.010391,-0.001974,-0.005949,0.000261
66325,0.096216,-0.003658,0.010274,0.0,0.0,0.0,0.087266,0.0,0.0,3.0,0.306414,0.342791,0.327406,0.324153,0.099014,-0.0,0.0,-0.004492,0.0,0.0,0.096337,-0.003659,0.010274,0.003345,-0.006685,-0.005255
66345,0.096095,-0.003523,0.010025,0.0,0.0,0.0,0.087266,0.0,0.0,3.0,0.308401,0.3434,0.325424,0.323648,0.098922,-0.0,0.0,-0.004827,0.0,0.0,0.096093,-0.003774,0.010158,-0.00623,-0.009061,-0.005221
66365,0.095972,-0.003767,0.010036,0.0,0.0,0.0,0.087266,0.0,0.0,3.0,0.312267,0.343457,0.330472,0.314627,0.098823,-0.0,0.0,-0.005128,0.0,0.0,0.095971,-0.003888,0.010042,-0.002135,-0.031792,-0.013146
66385,0.095972,-0.003761,0.009914,0.0,0.0,0.0,0.087266,0.0,0.0,3.0,0.300383,0.344227,0.326671,0.328804,0.098718,-0.0,0.0,-0.005399,0.0,0.0,0.096094,-0.003645,0.01003,0.015872,0.002045,-0.000299
66405,0.096216,-0.003756,0.009792,0.0,0.0,0.0,0.087266,0.0,0.0,3.0,0.29847,0.342163,0.32927,0.330078,0.098608,-0.0,0.0,-0.005642,0.0,0.0,0.096337,-0.003641,0.009909,0.025962,0.011494,-0.001198
66425,0.096583,-0.003636,0.009787,0.0,0.0,0.0,0.087266,0.0,0.0,3.0,0.30083,0.341686,0.327262,0.330505,0.098494,-0.0,0.0,-0.005858,0.0,0.0,0.096461,-0.003514,0.009781,0.013906,0.013601,-0.001313
66445,0.096949,-0.003632,0.009665,0.0,0.0,0.0,0.087266,0.0,0.0,3.0,0.312859,0.336547,0.332219,0.319784,0.098375,-0.0,0.0,-0.00605,0.0,0.0,0.096706,-0.003631,0.009665,-0.003825,0.000325,-0.015877
66465,0.097071,-0.003632,0.009665,0.0,0.0,0.0,0.087266,0.0,0.0,3.0,0.298558,0.343858,0.327801,0.329676,0.098253,-0.0,0.0,-0.006218,-0.0,0.0,0.097071,-0.00351,0.009659,0.017165,0.005517,-0.000485
66485,0.096948,-0.003748,0.009549,0.0,0.0,0.0,0.087266,0.0,0.0,3.0,0.300869,0.343027,0.327572,0.328753,0.098127,-0.0,0.0,-0.006366,0.0,0.0,0.09707,-0.003627,0.009543,0.01057,0.006086,-0.002203
66505,0.096827,-0.003619,0.009421,0.0,0.0,0.0,0.087266,0.0,0.0,3.0,0.312497,0.337794,0.331758,0.319279,0.097999,-0.0,0.0,-0.006494,0.0,-0.0,0.096826,-0.003741,0.009428,-0.006081,-0.003444,-0.015712
66525,0.096462,-0.003612,0.009299,0.0,0.0,0.0,0.087266,0.0,0.0,3.0,0.320047,0.342525,0.323504,0.315187,0.097868,-0.0,0.0,-0.006604,0.0,-0.0,0.09634,-0.003854,0.009311,-0.046078,-0.026519,-0.014818
66545,0.096217,-0.003727,0.009183,0.0,0.0,0.0,0.087266,0.0,0.0,3.0,0.305231,0.349667,0.315952,0.329017,0.097735,-0.0,0.0,-0.006697,0.0,-0.0,0.096218,-0.003732,0.009305,-0.028152,-0.011333,0.003975
66565,0.095853,-0.003481,0.009171,0.0,0.0,0.0,0.087266,0.0,0.0,3.0,0.306732,0.340896,0.320982,0.332184,0.097601,-0.0,0.0,-0.006774,0.0,-0.0,0.095975,-0.003482,0.009171,-0.018097,0.021426,-0.001644
