time_ms,roll,pitch,yaw,x,y,z,reference_x,reference_y,reference_z,reference_yaw,throttle_1,throttle_2,throttle_3,throttle_4,roll_predicted,pitch_predicted,yaw_predicted,roll_rate_predicted,pitch_rate_predicted,yaw_rate_predicted,value1,value2,value3,value4,value5,value6
144715,0.007438,-0.013053,-0.035851,0.038457,-0.013347,0.678398,0.0,0.0,0.7,-0.0,0.586396,0.519094,0.57653,0.522863,0.0,-0.0,0.7,0.0,0.0,0.0,11.359685,-0.001681,-0.026344,0.0,0.0,0.0
144735,0.005937,-0.01125,-0.03525,0.038395,-0.012674,0.678046,0.0,0.0,0.7,-0.0,0.601265,0.519339,0.558034,0.526643,0.0,-0.0,0.7,0.0,0.0,0.0,11.370494,0.000725,-0.02678,0.0,0.0,0.0
144755,0.004362,-0.012133,-0.034769,0.038304,-0.01233,0.677679,-2.8e-05,0.0,0.699973,-0.0,0.60101,0.525322,0.559507,0.520544,0.0,-0.0,0.7,0.0,0.0,0.0,11.383732,0.004037,-0.027657,0.0,0.0,0.0
144775,0.005951,-0.012474,-0.034027,0.038368,-0.011756,0.677321,-0.001543,0.0,0.698457,-0.0,0.588345,0.525188,0.575221,0.51819,0.0,-0.0,0.7,0.0,0.0,0.0,11.384858,0.004044,-0.026935,0.0,0.0,0.0
144795,0.008257,-0.011949,-0.033281,0.038413,-0.0111,0.676941,-0.003165,0.0,0.696835,-0.0,0.584423,0.520835,0.577245,0.524763,0.0,-0.0,0.7,-0.0,0.0,-2e-06,11.384578,0.001561,-0.025965,0.0,0.0,0.0
144815,0.010589,-0.013013,-0.032529,0.038413,-0.0111,0.676941,-0.00541,0.0,0.69459,-0.0,0.577671,0.52289,0.582184,0.524141,-0.0,-0.0,0.699999,-2e-06,0.0,-9.9e-05,11.377239,0.000554,-0.026775,0.0,0.0,0.0
144835,0.012665,-0.01335,-0.03178,0.038434,-0.009951,0.676478,-0.00541,0.0,0.69459,-0.0,0.583641,0.519587,0.577893,0.52503,-0.0,-0.0,0.699996,-2.8e-05,0.0,-0.000331,11.371638,0.000694,-0.02781,0.0,0.0,0.0
144855,0.011926,-0.013245,-0.030932,0.038333,-0.009411,0.676088,-0.007705,0.0,0.692295,-0.0,0.588257,0.519383,0.567004,0.529163,-1e-06,-0.0,0.699987,-0.000113,0.0,-0.000739,11.338869,-0.002477,-0.028883,0.0,0.0,0.0
144875,0.010599,-0.014735,-0.03008,0.038151,-0.009116,0.675719,-0.009757,0.0,0.690243,-0.0,0.594526,0.526372,0.561044,0.522323,-5e-06,-0.0,0.699968,-0.000294,0.0,-0.001194,11.3484,0.000848,-0.029076,0.0,0.0,0.0
144895,0.011718,-0.016431,-0.029329,0.038136,-0.008559,0.67521,-0.011717,0.0,0.688283,-0.0,0.588667,0.53063,0.569833,0.514983,-1.3e-05,0.0,0.699941,-0.000576,0.0,-0.001788,11.347333,0.001444,-0.029636,0.0,0.0,0.0
144915,0.011604,-0.017413,-0.028715,0.038136,-0.008559,0.67521,-0.011717,0.0,0.688283,-0.0,0.587471,0.531543,0.566898,0.518426,-2.7e-05,0.0,0.699899,-0.000974,0.0,-0.002548,11.344042,-4.8e-05,-0.029687,0.0,0.0,0.0
144935,0.008687,-0.018925,-0.027759,0.038102,-0.00777,0.674756,-0.013714,0.0,0.686286,-0.0,0.593362,0.533313,0.560514,0.517105,-5e-05,0.0,0.699842,-0.001513,0.0,-0.003457,11.34773,-9.7e-05,-0.030834,0.0,0.0,0.0
144955,0.006757,-0.021152,-0.027039,0.037807,-0.007357,0.674274,-0.015776,0.0,0.684224,-0.0,0.594492,0.534743,0.562562,0.51015,-8.5e-05,0.0,0.699766,-0.002212,0.0,-0.004382,11.327213,-0.002801,-0.031447,0.0,0.0,0.0
144975,0.005315,-0.02337,-0.026439,0.037557,-0.006751,0.673806,-0.017844,0.0,0.682156,-0.0,0.594368,0.529642,0.559363,0.518935,-0.000136,0.0,0.699671,-0.003054,0.0,-0.0054,11.324767,-0.000971,-0.032703,0.0,0.0,0.0
144995,0.00338,-0.025595,-0.025604,0.037181,-0.006219,0.673442,-0.017844,0.0,0.682156,-0.0,0.595873,0.532262,0.561808,0.512098,-0.000204,0.0,0.699554,-0.004033,0.0,-0.006546,11.328829,-0.000635,-0.032461,0.0,0.0,0.0
145015,0.002667,-0.027802,-0.025001,0.036815,-0.005803,0.673088,-0.019856,0.0,0.680144,-0.0,0.596793,0.533406,0.564014,0.507413,-0.000293,0.0,0.699414,-0.00516,0.0,-0.007817,11.33007,0.000367,-0.032511,0.0,0.0,0.0
145035,0.000344,-0.028197,-0.024423,0.036485,-0.005317,0.672723,-0.021596,0.0,0.678404,-0.0,0.598804,0.526174,0.553788,0.523875,-0.000405,0.0,0.699248,-0.006442,0.0,-0.009076,11.331547,0.000879,-0.031344,0.0,0.0,0.0
145055,-0.003081,-0.028604,-0.023617,0.035832,-0.004934,0.672332,-0.023132,0.0,0.676868,-0.0,0.605775,0.526437,0.549586,0.518868,-0.000545,0.0,0.699057,-0.007854,0.0,-0.010397,11.320524,0.000556,-0.031413,0.0,0.0,0.0
145075,-0.003928,-0.030199,-0.0229,0.035251,-0.004613,0.671928,-0.024675,0.0,0.675325,-0.0,0.596916,0.533118,0.558425,0.512227,-0.000713,0.0,0.698839,-0.009379,0.0,-0.0118,11.312272,0.000566,-0.031925,0.0,0.0,0.0
145095,-0.003685,-0.030928,-0.022287,0.034617,-0.003881,0.671502,-0.026512,0.0,0.673488,-0.0,0.59426,0.535587,0.558742,0.512016,-0.000913,0.0,0.698592,-0.011017,0.0,-0.013258,11.307377,0.000146,-0.030818,0.0,0.0,0.0
145115,-0.002346,-0.031768,-0.021417,0.034617,-0.003881,0.671502,-0.026512,0.0,0.673488,-0.0,0.586926,0.5355,0.566922,0.51128,-0.001146,0.0,0.698315,-0.012758,0.0,-0.014765,11.303398,-0.000543,-0.0303,0.0,0.0,0.0
145135,-0.000775,-0.031139,-0.020777,0.03359,-0.002761,0.670869,-0.028436,0.0,0.671564,-0.0,0.583997,0.527346,0.567641,0.521924,-0.001415,0.0,0.698009,-0.014592,0.0,-0.016332,11.299083,0.001211,-0.030125,0.0,0.0,0.0
145155,-0.001655,-0.029805,-0.020057,0.032334,-0.001883,0.670311,-0.030271,0.0,0.669729,-0.0,0.593253,0.52208,0.55607,0.527121,-0.001721,0.0,0.69767,-0.016508,0.0,-0.017845,11.275945,-0.000939,-0.032978,0.0,0.0,0.0
145175,-0.002029,-0.02993,-0.019452,0.031033,-0.001247,0.669767,-0.032228,0.0,0.667772,-0.0,0.596421,0.532235,0.553407,0.51675,-0.002066,0.0,0.697302,-0.018475,0.0,-0.019381,11.284388,0.002817,-0.031132,0.0,0.0,0.0
145195,-0.001069,-0.02931,-0.018705,0.029555,-0.000236,0.66914,-0.034357,0.0,0.665643,-0.0,0.58762,0.531027,0.562901,0.518697,-0.00245,0.0,0.696903,-0.020473,0.0,-0.02097,11.293043,0.005602,-0.027491,0.0,0.0,0.0
145215,0.001359,-0.029044,-0.017936,0.027932,0.000752,0.668491,-0.034357,0.0,0.665643,-0.0,0.584084,0.529732,0.568945,0.517612,-0.002875,0.0,0.696471,-0.022501,0.0,-0.022614,11.29535,0.006109,-0.024525,0.0,0.0,0.0
145235,0.00476,-0.027916,-0.017401,0.027932,0.000752,0.668491,-0.036137,0.0,0.663863,-0.0,0.579159,0.522387,0.572133,0.527299,-0.00334,0.0,0.696006,-0.024558,0.0,-0.024325,11.297963,0.008089,-0.021882,0.0,0.0,0.0
145255,0.005213,-0.02486,-0.016666,0.026163,0.002337,0.667825,-0.037977,0.0,0.662023,-0.0,0.59207,0.518657,0.564785,0.525389,-0.003847,0.0,0.695507,-0.026646,0.0,-0.025969,11.309546,0.009817,-0.01854,0.0,0.0,0.0
145275,0.006654,-0.022897,-0.016043,0.024185,0.003245,0.667131,-0.040034,0.0,0.659966,-0.0,0.582747,0.509356,0.569862,0.535726,-0.004396,0.0,0.694975,-0.028735,0.0,-0.027609,11.267313,0.005674,-0.025818,0.0,0.0,0.0
145295,0.007603,-0.019839,-0.015677,0.024185,0.003245,0.667131,-0.040034,0.0,0.659966,-0.0,0.594841,0.513598,0.559043,0.529631,-0.004986,0.0,0.694411,-0.030806,0.0,-0.02928,11.26697,0.010154,-0.023783,0.0,0.0,0.0
145315,0.009409,-0.017386,-0.015059,0.021487,0.004645,0.666193,-0.042109,0.0,0.657891,-0.0,0.585301,0.524082,0.566987,0.52235,-0.005617,0.0,0.693812,-0.032858,0.0,-0.030996,11.275194,0.011738,-0.019285,0.0,0.0,0.0
145335,0.012447,-0.016023,-0.014552,0.019429,0.005881,0.665366,-0.043791,0.0,0.656209,-0.0,0.569913,0.511276,0.58035,0.53478,-0.00629,0.0,0.69318,-0.034895,0.0,-0.032631,11.247111,0.007326,-0.025632,0.0,0.0,0.0
145355,0.012792,-0.013459,-0.014199,0.017702,0.007085,0.664746,-0.045325,0.0,0.654675,-0.0,0.593614,0.522009,0.560383,0.521258,-0.007003,0.0,0.692515,-0.036892,0.0,-0.034267,11.26603,0.010577,-0.018909,0.0,0.0,0.0
145375,0.01156,-0.012494,-0.0136,0.015764,0.007825,0.664126,-0.046866,0.0,0.653134,-0.0,0.593797,0.532051,0.556056,0.517227,-0.007755,0.0,0.691817,-0.03884,0.0,-0.035921,11.285144,0.01388,-0.014393,0.0,0.0,0.0
145395,0.012902,-0.01261,-0.013227,0.014017,0.008568,0.663505,-0.048488,0.0,0.651512,-0.0,0.587603,0.525539,0.567768,0.51816,-0.008546,0.0,0.691087,-0.040744,0.0,-0.037574,11.284295,0.016198,-0.013573,0.0,0.0,0.0
145415,0.013867,-0.011263,-0.012862,0.011587,0.009962,0.662661,-0.048488,0.0,0.651512,-0.0,0.59133,0.516986,0.567109,0.522532,-0.009375,0.0,0.690323,-0.042601,0.0,-0.039222,11.277383,0.015218,-0.012763,0.0,0.0,0.0
145435,0.013619,-0.011024,-0.012376,0.00963,0.010933,0.662048,-0.051084,0.0,0.648916,-0.0,0.587464,0.52161,0.565592,0.523359,-0.010241,0.0,0.689526,-0.044411,0.0,-0.040868,11.26926,0.01391,-0.013322,0.0,0.0,0.0
145455,0.014216,-0.009069,-0.012143,0.006973,0.012107,0.661208,-0.052838,0.0,0.647162,-0.0,0.593544,0.518498,0.565843,0.520424,-0.011143,0.0,0.688697,-0.046173,0.0,-0.042411,11.28384,0.01661,-0.009627,0.0,0.0,0.0
145475,0.012734,-0.006394,-0.011922,0.005083,0.012831,0.660595,-0.054611,0.0,0.645389,-0.0,0.603456,0.509017,0.554188,0.529492,-0.012079,0.0,0.687837,-0.047865,0.0,-0.043977,11.270249,0.017285,-0.009729,0.0,0.0,0.0
145495,0.011022,-0.006039,-0.011686,0.003065,0.013511,0.659983,-0.056587,0.0,0.643413,-0.0,0.599268,0.525641,0.555191,0.517201,-0.013048,0.0,0.686945,-0.049492,0.0,-0.045565,11.273041,0.018556,-0.00637,0.0,0.0,0.0
145515,0.012354,-0.004324,-0.011326,0.003065,0.013511,0.659983,-0.056587,0.0,0.643413,-0.0,0.590026,0.51839,0.567972,0.520309,-0.01405,0.0,0.686022,-0.051068,0.0,-0.047161,11.261571,0.017283,-0.007505,0.0,0.0,0.0
145535,0.011485,-0.001767,-0.011221,0.001096,0.014396,0.659373,-0.058598,0.0,0.641402,-0.0,0.59605,0.511667,0.558169,0.529307,-0.015083,0.0,0.685067,-0.052603,0.0,-0.048776,11.24699,0.01569,-0.008775,0.0,0.0,0.0
145555,0.011355,-0.000427,-0.010862,-0.001228,0.015278,0.658678,-0.060647,0.0,0.639353,-0.0,0.581882,0.500941,0.57095,0.538037,-0.016146,0.0,0.68408,-0.054105,0.0,-0.05029,11.204946,0.01088,-0.019971,0.0,0.0,0.0
145575,0.009633,0.002005,-0.010753,-0.003593,0.016208,0.657851,-0.062661,0.0,0.637339,-0.0,0.599965,0.508206,0.55504,0.526949,-0.017239,0.0,0.683063,-0.055555,0.0,-0.051783,11.195323,0.011667,-0.020388,0.0,0.0,0.0
145595,0.007437,0.00187,-0.010384,-0.006247,0.017059,0.656905,-0.062661,0.0,0.637339,-0.0,0.600134,0.521032,0.547062,0.523183,-0.018361,0.0,0.682016,-0.056949,0.0,-0.053299,11.201075,0.013613,-0.016194,0.0,0.0,0.0
145615,0.007692,-0.000328,-0.009887,-0.006247,0.017059,0.656905,-0.064708,0.0,0.635292,-0.0,0.590192,0.532523,0.560887,0.509377,-0.01951,0.0,0.680938,-0.058303,0.0,-0.054835,11.214991,0.015637,-0.012024,0.0,0.0,0.0
145635,0.007696,-0.001062,-0.009518,-0.008298,0.017963,0.65607,-0.066433,0.0,0.633567,-0.0,0.596366,0.532174,0.554919,0.511444,-0.020686,0.0,0.679831,-0.059631,0.0,-0.056266,11.242078,0.016784,-0.006686,0.0,0.0,0.0
145655,0.006238,-0.00278,-0.009026,-0.01015,0.018611,0.655358,-0.067978,0.0,0.632022,-0.0,0.588676,0.511131,0.555563,0.536201,-0.021889,0.0,0.678695,-0.060915,0.0,-0.057675,11.191888,0.012851,-0.018087,0.0,0.0,0.0
145675,0.005504,-0.00254,-0.008661,-0.011922,0.019387,0.654643,-0.069514,0.0,0.630486,-0.0,0.598586,0.517419,0.553543,0.521004,-0.023116,0.0,0.677531,-0.062153,0.0,-0.059082,11.193208,0.013942,-0.018605,0.0,0.0,0.0
145695,0.004535,-0.004376,-0.008292,-0.01374,0.019916,0.653896,-0.071364,0.0,0.628636,-0.0,0.600339,0.533143,0.547256,0.509935,-0.024368,0.0,0.676339,-0.063356,0.0,-0.060472,11.19671,0.014584,-0.017585,0.0,0.0,0.0
145715,0.005889,-0.007423,-0.007914,-0.015331,0.020509,0.653115,-0.073277,0.0,0.626723,-0.0,0.585447,0.535965,0.560648,0.510108,-0.025644,0.0,0.675119,-0.064528,0.0,-0.061838,11.198209,0.015746,-0.017013,0.0,0.0,0.0
145735,0.007843,-0.00815,-0.007293,-0.016939,0.021503,0.652324,-0.073277,0.0,0.626723,-0.0,0.586247,0.530078,0.564192,0.511344,-0.026944,0.0,0.673872,-0.065673,0.0,-0.0632,11.197731,0.015448,-0.016652,0.0,0.0,0.0
145755,0.008824,-0.010102,-0.006792,-0.019187,0.02246,0.651306,-0.075566,0.0,0.624434,-0.0,0.585374,0.533041,0.556611,0.517617,-0.028265,0.0,0.672598,-0.066796,0.0,-0.064569,11.197092,0.015367,-0.017777,0.0,0.0,0.0
145775,0.009191,-0.011324,-0.006296,-0.021054,0.023305,0.650472,-0.077402,0.0,0.622598,-0.0,0.584456,0.531954,0.561282,0.515376,-0.02961,0.0,0.671297,-0.067908,0.0,-0.065825,11.204953,0.017666,-0.018094,0.0,0.0,0.0
145795,0.008946,-0.011693,-0.005808,-0.023369,0.024098,0.64941,-0.079309,0.0,0.620691,-0.0,0.595818,0.529713,0.553492,0.513673,-0.030976,0.0,0.669971,-0.068988,0.0,-0.06707,11.213548,0.019772,-0.015669,0.0,0.0,0.0
145815,0.010655,-0.013278,-0.005179,-0.023369,0.024098,0.64941,-0.079309,0.0,0.620691,-0.0,0.583592,0.532154,0.558683,0.519557,-0.032364,0.0,0.66862,-0.070037,0.0,-0.068322,11.211004,0.02075,-0.01511,0.0,0.0,0.0
145835,0.012239,-0.013644,-0.004556,-0.025555,0.025186,0.648334,-0.081307,0.0,0.618693,-0.0,0.58329,0.530804,0.563322,0.516856,-0.033772,0.0,0.667244,-0.071069,-0.0,-0.069578,11.218428,0.021033,-0.01283,0.0,0.0,0.0
145855,0.014064,-0.013033,-0.003937,-0.028082,0.026166,0.647184,-0.083245,0.0,0.616755,-0.0,0.577995,0.50738,0.569387,0.534659,-0.035201,0.0,0.665844,-0.072091,-0.0,-0.070719,11.165605,0.01686,-0.022749,0.0,0.0,0.0
145875,0.01418,-0.011327,-0.00346,-0.03071,0.027102,0.645896,-0.085221,0.0,0.614779,-0.0,0.589676,0.514323,0.553909,0.531992,-0.036651,0.0,0.664421,-0.073084,-0.0,-0.071831,11.171102,0.018943,-0.021585,0.0,0.0,0.0
145895,0.013687,-0.010234,-0.00286,-0.033048,0.027752,0.644772,-0.085221,0.0,0.614779,-0.0,0.595217,0.526159,0.54941,0.520649,-0.03812,0.0,0.662976,-0.074044,-0.0,-0.072949,11.193461,0.021406,-0.016217,0.0,0.0,0.0
145915,0.01454,-0.010724,-0.002364,-0.033048,0.027752,0.644772,-0.087279,0.0,0.612721,-0.0,0.587253,0.536461,0.557372,0.513069,-0.039608,0.0,0.661509,-0.074983,-0.0,-0.074077,11.220096,0.023141,-0.010974,0.0,0.0,0.0
145935,0.015146,-0.009385,-0.001882,-0.035577,0.028769,0.643415,-0.089014,0.0,0.610986,-0.0,0.589668,0.52924,0.55701,0.519695,-0.041114,0.0,0.660019,-0.075913,-0.0,-0.075092,11.237544,0.022781,-0.008061,0.0,0.0,0.0
145955,0.0138,-0.007925,-0.001288,-0.03765,0.029313,0.642415,-0.090563,0.0,0.609437,-0.0,0.585383,0.507591,0.556268,0.540063,-0.042639,0.0,0.65851,-0.076813,-0.0,-0.076082,11.163907,0.018612,-0.020248,0.0,0.0,0.0
145975,0.013309,-0.005853,-0.000938,-0.039561,0.029872,0.641398,-0.092094,0.0,0.607906,-0.0,0.5895,0.515189,0.55321,0.532757,-0.044182,0.0,0.656981,-0.077681,-0.0,-0.077069,11.178865,0.020458,-0.01831,0.0,0.0,0.0
145995,0.012575,-0.005247,-0.000333,-0.041493,0.030322,0.640357,-0.094009,0.0,0.605991,-0.0,0.592432,0.524694,0.547909,0.526298,-0.045742,0.0,0.655432,-0.078525,-0.0,-0.078035,11.186109,0.020697,-0.016179,0.0,0.0,0.0
146015,0.012817,-0.006226,0.000162,-0.043335,0.030805,0.6393,-0.095635,0.0,0.604365,-0.0,0.582207,0.528617,0.559371,0.522089,-0.047319,0.0,0.653864,-0.079351,-0.0,-0.078977,11.189212,0.020696,-0.015547,0.0,0.0,0.0
146035,0.012084,-0.004155,0.000758,-0.045348,0.031549,0.638119,-0.095635,0.0,0.604365,-0.0,0.587643,0.511678,0.554796,0.537329,-0.048912,0.0,0.652278,-0.080158,-0.0,-0.079919,11.188297,0.020156,-0.015528,0.0,0.0,0.0
146055,0.010251,-0.004402,0.001365,-0.047337,0.031814,0.637026,-0.097837,0.0,0.602163,-0.0,0.597998,0.523404,0.538593,0.53092,-0.050521,0.0,0.650672,-0.080954,-0.0,-0.08085,11.18756,0.019947,-0.016054,0.0,0.0,0.0
146075,0.009151,-0.005624,0.001857,-0.049476,0.03234,0.635734,-0.100158,0.0,0.599842,-0.0,0.593747,0.5324,0.548551,0.517648,-0.052146,0.0,0.649049,-0.08174,-0.0,-0.081663,11.20187,0.021415,-0.014971,0.0,0.0,0.0
146095,0.009514,-0.006726,0.002474,-0.049476,0.03234,0.635734,-0.100158,0.0,0.599842,-0.0,0.587354,0.531789,0.554157,0.519343,-0.053787,0.0,0.64741,-0.082496,-0.0,-0.082461,11.197781,0.020333,-0.014909,0.0,0.0,0.0
146115,0.010488,-0.006974,0.002967,-0.051644,0.032924,0.634242,-0.10195,0.0,0.59805,-0.0,0.584658,0.532521,0.553646,0.522726,-0.055442,0.0,0.645754,-0.083218,-0.0,-0.083296,11.203311,0.020517,-0.014207,0.0,0.0,0.0
146135,0.007799,-0.008192,0.00345,-0.054244,0.033666,0.632701,-0.103984,0.0,0.596016,-0.0,0.589892,0.517976,0.547564,0.531832,-0.057112,0.0,0.644083,-0.083927,-0.0,-0.084027,11.136092,0.01816,-0.02439,0.0,0.0,0.0
146155,0.00767,-0.010758,0.003948,-0.056836,0.034114,0.631175,-0.10596,0.0,0.59404,-0.0,0.591787,0.535982,0.550834,0.509641,-0.058795,0.0,0.642397,-0.084607,-0.0,-0.084719,11.156046,0.01919,-0.023149,0.0,0.0,0.0
146175,0.007175,-0.012589,0.004318,-0.056836,0.034114,0.631175,-0.107764,0.0,0.592236,-0.0,0.592863,0.538461,0.544875,0.515473,-0.060492,0.0,0.640697,-0.085252,-0.0,-0.085425,11.192619,0.021669,-0.017275,0.0,0.0,0.0
146195,0.007161,-0.016619,0.004943,-0.058939,0.034592,0.629672,-0.107764,0.0,0.592236,-0.0,0.586259,0.549172,0.553874,0.504469,-0.062202,0.0,0.638983,-0.085872,-0.0,-0.086147,11.220892,0.022268,-0.012103,0.0,0.0,0.0
146215,0.006789,-0.018084,0.005189,-0.061654,0.035394,0.628111,-0.109671,0.0,0.590329,-0.0,0.589917,0.51694,0.553193,0.527273,-0.063924,0.0,0.637255,-0.086481,-0.0,-0.086874,11.140199,0.019905,-0.022805,0.0,0.0,0.0
146235,0.004585,-0.019544,0.005539,-0.0644,0.035942,0.626639,-0.111395,0.0,0.588605,-0.0,0.599094,0.532896,0.53725,0.519121,-0.065658,0.0,0.635513,-0.087087,-0.0,-0.087492,11.160683,0.020255,-0.021879,0.0,0.0,0.0
146255,0.003479,-0.020275,0.006018,-0.066498,0.036389,0.625467,-0.112929,0.0,0.587071,-0.0,0.594992,0.535684,0.546634,0.51393,-0.067404,0.0,0.633758,-0.087667,-0.0,-0.088079,11.191969,0.023009,-0.016029,0.0,0.0,0.0
146275,0.002865,-0.021129,0.006137,-0.068595,0.036804,0.624301,-0.114482,0.0,0.585518,-0.0,0.600428,0.540047,0.547654,0.503443,-0.069162,0.0,0.631993,-0.088215,-0.0,-0.088663,11.212624,0.024245,-0.010349,0.0,0.0,0.0
146295,0.002621,-0.021128,0.006134,-0.070783,0.03759,0.623155,-0.116018,0.0,0.583982,-0.0,0.59633,0.535053,0.546609,0.514212,-0.07093,0.0,0.630215,-0.088739,-0.0,-0.08923,11.205229,0.024328,-0.009842,0.0,0.0,0.0
146315,0.00201,-0.020027,0.006492,-0.074431,0.038658,0.621508,-0.117973,0.0,0.582027,-0.0,0.595247,0.533109,0.545128,0.517859,-0.072709,0.0,0.628426,-0.089243,-0.0,-0.089778,11.191231,0.024066,-0.01069,0.0,0.0,0.0
146335,0.000801,-0.016849,0.006356,-0.076801,0.039455,0.620381,-0.117973,0.0,0.582027,-0.0,0.601689,0.518895,0.545463,0.52308,-0.074497,0.0,0.626627,-0.089729,-0.0,-0.090308,11.177374,0.025948,-0.011069,0.0,0.0,0.0
146355,-0.000533,-0.014037,0.006345,-0.080196,0.040319,0.618914,-0.120256,0.0,0.579744,-0.0,0.605801,0.525685,0.540962,0.517748,-0.076295,0.0,0.624816,-0.090197,-0.0,-0.090846,11.196089,0.029458,-0.003375,0.0,0.0,0.0
146375,-3.1e-05,-0.009766,0.006349,-0.082725,0.040987,0.617781,-0.122013,0.0,0.577987,-0.0,0.597967,0.510514,0.547132,0.535082,-0.078103,0.0,0.622996,-0.090654,-0.0,-0.091277,11.192543,0.030992,-0.002126,0.0,0.0,0.0
146395,0.000465,-0.007326,0.006351,-0.085538,0.041885,0.616665,-0.123684,0.0,0.576316,-0.0,0.592935,0.519869,0.550271,0.528709,-0.079919,0.0,0.621167,-0.091082,-0.0,-0.091705,11.194166,0.032147,0.001984,0.0,0.0,0.0
146415,0.003898,-0.00282,0.006354,-0.088257,0.042951,0.615576,-0.125487,0.0,0.574513,-0.0,0.588391,0.508294,0.559248,0.534173,-0.081744,0.0,0.61933,-0.09148,-0.0,-0.092142,11.178329,0.03196,0.001292,0.0,0.0,0.0
146435,0.006472,0.00059,0.006347,-0.091072,0.043991,0.614514,-0.127112,0.0,0.572888,-0.0,0.589377,0.512296,0.553039,0.534283,-0.083576,0.0,0.617484,-0.091861,-0.0,-0.092576,11.160664,0.032938,0.00131,0.0,0.0,0.0
146455,0.009782,0.004973,0.006446,-0.091072,0.043991,0.614514,-0.127112,0.0,0.572888,-0.0,0.58286,0.498608,0.565222,0.540068,-0.085416,0.0,0.615629,-0.092231,-0.0,-0.093014,11.144288,0.03499,0.001001,0.0,0.0,0.0
146475,0.012361,0.009725,0.006532,-0.094261,0.045399,0.613473,-0.129079,0.0,0.570921,-0.0,0.589017,0.495627,0.557585,0.542833,-0.087264,0.0,0.613766,-0.092596,-0.0,-0.093447,11.130733,0.036728,0.001396,0.0,0.0,0.0
146495,0.014083,0.01338,0.00662,-0.097052,0.046438,0.612379,-0.1308,0.0,0.5692,-0.0,0.582686,0.479072,0.555851,0.559901,-0.089118,0.0,0.611894,-0.092956,-0.0,-0.09377,11.06066,0.032362,-0.012826,0.0,0.0,0.0
146515,0.016045,0.014346,0.007211,-0.100431,0.047541,0.611062,-0.13248,0.0,0.56752,-0.0,0.586683,0.514251,0.549811,0.529593,-0.09098,0.0,0.610016,-0.09329,-0.0,-0.094069,11.053264,0.035723,-0.009634,0.0,0.0,0.0
146535,0.02093,0.014078,0.007666,-0.10278,0.048543,0.610016,-0.134018,0.0,0.565982,-0.0,0.577669,0.531174,0.556907,0.516558,-0.092848,0.0,0.608133,-0.093592,-0.0,-0.094372,11.067309,0.038049,-0.005223,0.0,0.0,0.0
146555,0.023243,0.011499,0.008289,-0.105161,0.049642,0.608911,-0.135561,0.0,0.564439,-0.0,0.576446,0.545576,0.551378,0.511231,-0.094722,0.0,0.606243,-0.093872,-0.0,-0.094672,11.094642,0.039998,0.001451,0.0,0.0,0.0
146575,0.027513,0.010127,0.009014,-0.107425,0.050752,0.607754,-0.137108,0.0,0.562892,-0.0,0.568819,0.533755,0.562583,0.520477,-0.096601,0.0,0.604347,-0.094137,-0.0,-0.09496,11.099278,0.040936,0.001214,0.0,0.0,0.0
146595,0.028488,0.008648,0.009764,-0.110423,0.051819,0.606219,-0.139322,0.0,0.560678,-0.0,0.584393,0.534187,0.541549,0.524939,-0.098486,0.0,0.602446,-0.09439,-0.0,-0.095236,11.098747,0.042097,-0.000299,0.0,0.0,0.0
146615,0.031641,0.004228,0.010429,-0.112804,0.052649,0.604933,-0.139322,0.0,0.560678,-0.0,0.568419,0.545375,0.556785,0.515175,-0.100376,0.0,0.600539,-0.09463,-0.0,-0.095499,11.100366,0.04324,-0.002224,0.0,0.0,0.0
146635,0.03505,0.002242,0.011309,-0.114984,0.053517,0.60362,-0.141039,0.0,0.558961,-0.0,0.572615,0.539703,0.560182,0.514638,-0.10227,0.0,0.598627,-0.094859,-0.0,-0.095791,11.121743,0.044018,0.00013,0.0,0.0,0.0
146655,0.038827,0.000625,0.011823,-0.117115,0.054216,0.60226,-0.142733,0.0,0.557267,-0.0,0.574061,0.535063,0.557742,0.521739,-0.104169,0.0,0.59671,-0.095087,-0.0,-0.095989,11.135465,0.043393,0.000462,0.0,0.0,0.0
146675,0.039802,0.000482,0.012557,-0.119377,0.054833,0.600852,-0.144581,0.0,0.555419,-0.0,0.577322,0.525717,0.555326,0.530147,-0.106072,0.0,0.594789,-0.095297,-0.0,-0.096151,11.135624,0.043034,-0.00156,0.0,0.0,0.0
146695,0.042728,-0.000523,0.013066,-0.121552,0.055218,0.599401,-0.146419,0.0,0.553581,-0.0,0.576454,0.532051,0.561997,0.517577,-0.10798,0.0,0.592864,-0.095478,-0.0,-0.096313,11.136355,0.042112,-0.003576,0.0,0.0,0.0
146715,0.045286,-0.001161,0.013567,-0.123862,0.055672,0.597694,-0.148242,0.0,0.551758,-0.0,0.570527,0.538579,0.559587,0.520386,-0.10989,0.0,0.590937,-0.095638,-0.0,-0.096485,11.13938,0.041054,-0.004308,0.0,0.0,0.0
146735,0.045655,-0.000687,0.014044,-0.126496,0.055816,0.59587,-0.148242,0.0,0.551758,-0.0,0.574359,0.523745,0.558266,0.53282,-0.111804,0.0,0.589006,-0.095786,-0.0,-0.096671,11.142362,0.039179,-0.004969,0.0,0.0,0.0
146755,0.046994,-0.001196,0.014543,-0.126496,0.055816,0.59587,-0.150236,0.0,0.549764,-0.0,0.57393,0.53176,0.56113,0.523758,-0.113721,0.0,0.587071,-0.09593,-0.0,-0.096872,11.160128,0.038188,-0.004654,0.0,0.0,0.0
146775,0.047482,-0.001574,0.01492,-0.129038,0.055929,0.593864,-0.152175,0.0,0.547825,-0.0,0.57589,0.538504,0.554933,0.524103,-0.115641,0.0,0.585132,-0.096077,-0.0,-0.096971,11.191832,0.036135,-0.001609,0.0,0.0,0.0
146795,0.046746,-0.001702,0.015408,-0.131632,0.0555,0.591863,-0.153717,0.0,0.546283,-0.0,0.580148,0.511633,0.550544,0.541601,-0.117563,0.0,0.583192,-0.096204,-0.0,-0.097056,11.089073,0.03377,-0.014057,0.0,0.0,0.0
146815,0.04626,-0.001341,0.015766,-0.133469,0.055188,0.590247,-0.155257,0.0,0.544743,-0.0,0.583361,0.526996,0.552759,0.522999,-0.119488,0.0,0.581251,-0.096307,-0.0,-0.097163,11.114661,0.032746,-0.012392,0.0,0.0,0.0
146835,0.044539,-0.0028,0.016165,-0.135385,0.054705,0.588601,-0.156809,0.0,0.543191,-0.0,0.580255,0.54287,0.552128,0.514977,-0.121415,0.0,0.579307,-0.096398,-0.0,-0.097269,11.16219,0.029454,-0.007524,0.0,0.0,0.0
146855,0.042572,-0.004501,0.016567,-0.137316,0.053901,0.58694,-0.15843,0.0,0.54157,-0.0,0.582023,0.53773,0.550237,0.521461,-0.123344,0.0,0.57736,-0.096484,-0.0,-0.097366,11.174272,0.02731,-0.007482,0.0,0.0,0.0
146875,0.039631,-0.00546,0.016945,-0.139752,0.053025,0.584759,-0.160339,0.0,0.539661,-0.0,0.586412,0.532466,0.55083,0.521396,-0.125274,0.0,0.575412,-0.096563,-0.0,-0.097455,11.176095,0.025167,-0.00811,0.0,0.0,0.0
146895,0.037048,-0.00764,0.017225,-0.139752,0.053025,0.584759,-0.160339,0.0,0.539661,-0.0,0.581518,0.540469,0.546113,0.523569,-0.127206,0.0,0.573463,-0.096637,-0.0,-0.097541,11.174402,0.021918,-0.00863,0.0,0.0,0.0
146915,0.033989,-0.008473,0.017474,-0.141523,0.051712,0.583031,-0.16259,0.0,0.53741,-0.0,0.591421,0.53608,0.547075,0.518253,-0.129139,0.0,0.571511,-0.096706,-0.0,-0.097642,11.203199,0.018977,-0.0063,0.0,0.0,0.0
146935,0.02983,-0.009171,0.017589,-0.144365,0.050245,0.580522,-0.164195,0.0,0.535805,-0.0,0.600682,0.517248,0.535018,0.529898,-0.131074,0.0,0.569558,-0.096777,-0.0,-0.097646,11.099731,0.021759,-0.016503,0.0,0.0,0.0
146955,0.027377,-0.010372,0.017718,-0.14668,0.048856,0.578335,-0.165971,0.0,0.534029,-0.0,0.58525,0.528192,0.546291,0.524697,-0.13301,0.0,0.567605,-0.096829,-0.0,-0.097652,11.094156,0.017867,-0.017951,0.0,0.0,0.0
146975,0.024077,-0.010834,0.017831,-0.14668,0.048856,0.578335,-0.165971,0.0,0.534029,-0.0,0.591725,0.542928,0.546221,0.508238,-0.134947,0.0,0.565652,-0.096861,-0.0,-0.097667,11.166286,0.012684,-0.010684,0.0,0.0,0.0
146995,0.020874,-0.013857,0.017844,-0.149216,0.04697,0.576048,-0.167863,0.0,0.532137,-0.0,0.586887,0.551457,0.549881,0.504867,-0.136884,0.0,0.563698,-0.096882,-0.0,-0.09769,11.212567,0.009074,-0.006524,0.0,0.0,0.0
147015,0.018913,-0.014695,0.017962,-0.151351,0.045609,0.574053,-0.169571,0.0,0.530429,-0.0,0.59048,0.520689,0.543198,0.530653,-0.138822,0.0,0.561745,-0.096896,-0.0,-0.097615,11.108425,0.014424,-0.016199,0.0,0.0,0.0
147035,0.016822,-0.016265,0.018083,-0.154043,0.044083,0.571868,-0.171675,0.0,0.528325,-0.0,0.590222,0.540575,0.543596,0.512601,-0.14076,0.0,0.559793,-0.096885,-0.0,-0.097521,11.13535,0.009908,-0.013199,0.0,0.0,0.0
147055,0.015714,-0.017232,0.018204,-0.156797,0.042415,0.569623,-0.173407,0.0,0.526593,-0.0,0.581414,0.538334,0.554148,0.516798,-0.142697,0.0,0.557844,-0.096844,-0.0,-0.097439,11.168384,0.007209,-0.010106,0.0,0.0,0.0
147075,0.012536,-0.017571,0.018302,-0.159582,0.040751,0.56746,-0.175087,0.0,0.524913,-0.0,0.590927,0.537792,0.548184,0.515736,-0.144633,0.0,0.555895,-0.096781,-0.0,-0.09739,11.201875,0.004718,-0.005019,0.0,0.0,0.0
147095,0.013263,-0.018188,0.018313,-0.161707,0.039374,0.565697,-0.176626,0.0,0.523374,-0.0,0.581876,0.547414,0.559578,0.506215,-0.146569,0.0,0.553948,-0.096712,-0.0,-0.097361,11.231885,0.0021,-0.000422,0.0,0.0,0.0
147115,0.011562,-0.017197,0.018414,-0.16397,0.038093,0.563908,-0.178173,0.0,0.521827,-0.0,0.584166,0.540779,0.552205,0.520039,-0.148502,0.0,0.552001,-0.096644,-0.0,-0.097343,11.245977,0.0001,0.002949,0.0,0.0,0.0
147135,0.010472,-0.016089,0.018521,-0.16397,0.038093,0.563908,-0.179795,0.0,0.520205,-0.0,0.584233,0.537719,0.555928,0.517505,-0.150435,0.0,0.550054,-0.096583,-0.0,-0.097326,11.227484,0.000261,0.001582,0.0,0.0,0.0
147155,0.008059,-0.013015,0.01849,-0.166589,0.036736,0.562111,-0.179795,0.0,0.520205,-0.0,0.590898,0.524239,0.545816,0.532507,-0.152366,0.0,0.548108,-0.096529,-0.0,-0.097305,11.207369,0.001262,0.000349,0.0,0.0,0.0
147175,0.007709,-0.011303,0.018481,-0.170171,0.034728,0.559437,-0.181719,0.0,0.518281,-0.0,0.589478,0.503171,0.540861,0.548017,-0.154296,0.0,0.546162,-0.096479,-0.0,-0.097285,11.078119,0.009069,-0.012867,0.0,0.0,0.0
147195,0.007744,-0.007517,0.01834,-0.17245,0.033478,0.557675,-0.183713,0.0,0.516286,-0.0,0.585843,0.506241,0.55171,0.538683,-0.156225,0.0,0.544217,-0.096434,-0.0,-0.097164,11.082983,0.008667,-0.009956,0.0,0.0,0.0
147215,0.006535,-0.006164,0.018454,-0.175521,0.032067,0.555499,-0.185511,0.0,0.514489,-0.0,0.580036,0.532142,0.556924,0.521361,-0.158154,0.0,0.542274,-0.096371,-0.0,-0.097029,11.163584,0.002819,0.000354,0.0,0.0,0.0
147235,0.006662,-0.005677,0.018574,-0.178556,0.030487,0.553432,-0.187218,0.0,0.512782,-0.0,0.582546,0.53371,0.553863,0.521724,-0.16008,0.0,0.540335,-0.096285,-0.0,-0.096923,11.180964,0.001445,0.002451,0.0,0.0,0.0
147255,0.007157,-0.004949,0.018573,-0.178556,0.030487,0.553432,-0.187218,0.0,0.512782,-0.0,0.584241,0.538698,0.55279,0.517906,-0.162005,0.0,0.538397,-0.096189,-0.0,-0.096838,11.205294,0.000494,0.006511,0.0,0.0,0.0
147275,0.008141,-0.004105,0.018816,-0.181538,0.028968,0.551256,-0.189058,0.0,0.510942,-0.0,0.570297,0.542817,0.559536,0.523115,-0.163929,0.0,0.536461,-0.096094,-0.0,-0.096765,11.217248,-0.001147,0.009773,0.0,0.0,0.0
147295,0.008644,-0.002523,0.018932,-0.184678,0.027618,0.549145,-0.190893,0.0,0.509107,-0.0,0.588265,0.512364,0.546926,0.536491,-0.16585,0.0,0.534526,-0.096003,-0.0,-0.096598,11.09864,0.006062,-0.003896,0.0,0.0,0.0
147315,0.008162,-0.001786,0.018928,-0.187782,0.026025,0.546911,-0.192939,0.0,0.507061,-0.0,0.582227,0.528723,0.54689,0.528638,-0.167769,0.0,0.532596,-0.095895,-0.0,-0.096414,11.113552,0.004808,-0.001902,0.0,0.0,0.0
147335,0.009141,-0.001553,0.019294,-0.190804,0.024531,0.54465,-0.19465,0.0,0.50535,-0.0,0.56543,0.537703,0.561105,0.526395,-0.169686,0.0,0.530669,-0.095763,-0.0,-0.09625,11.152333,0.002781,0.004247,0.0,0.0,0.0
147355,0.011934,-0.003047,0.019674,-0.193876,0.022965,0.542307,-0.19637,0.0,0.50363,-0.0,0.566069,0.549644,0.565349,0.511848,-0.1716,0.0,0.528745,-0.095617,-0.0,-0.096122,11.191426,-0.000293,0.009365,0.0,0.0,0.0
147375,0.012416,-0.003663,0.019801,-0.196331,0.021922,0.540365,-0.197909,0.0,0.502091,-0.0,0.575827,0.542854,0.558902,0.517996,-0.173511,0.0,0.526823,-0.095472,-0.0,-0.096015,11.222116,-0.002311,0.01255,0.0,0.0,0.0
147395,0.012406,-0.004522,0.020538,-0.198878,0.020616,0.538361,-0.199447,0.0,0.500553,-0.0,0.571658,0.549162,0.55536,0.522004,-0.17542,0.0,0.524904,-0.095335,-0.0,-0.095924,11.246647,-0.004035,0.014749,0.0,0.0,0.0
147415,0.013757,-0.003683,0.020779,-0.198878,0.020616,0.538361,-0.199447,0.0,0.500553,-0.0,0.575122,0.537908,0.559721,0.524469,-0.177325,0.0,0.522986,-0.095209,-0.0,-0.095835,11.238117,-0.00248,0.012926,0.0,0.0,0.0
147435,0.011446,-0.002806,0.021015,-0.201186,0.019454,0.536314,-0.201234,0.0,0.498766,-0.0,0.582793,0.537967,0.546638,0.528826,-0.179229,0.0,0.52107,-0.095095,-0.0,-0.095746,11.228073,-0.002202,0.011346,0.0,0.0,0.0
147455,0.010477,-0.002065,0.021376,-0.204889,0.017361,0.533153,-0.202956,0.0,0.497044,-0.0,0.585978,0.517293,0.537095,0.544362,-0.18113,0.0,0.519156,-0.094988,-0.0,-0.095557,11.100233,0.004729,-0.002881,0.0,0.0,0.0
147475,0.008899,-0.001195,0.021737,-0.208105,0.015586,0.530179,-0.205021,0.0,0.494979,-0.0,0.580678,0.526805,0.541645,0.536807,-0.183029,0.0,0.517247,-0.094866,-0.0,-0.095348,11.103914,0.004731,-0.00395,0.0,0.0,0.0
147495,0.009032,-0.000222,0.022099,-0.210366,0.014189,0.52802,-0.20683,0.0,0.49317,-0.0,0.567618,0.540433,0.560476,0.526864,-0.184925,0.0,0.515341,-0.094722,-0.0,-0.095151,11.209708,-0.002084,0.00623,0.0,0.0,0.0
147515,0.007449,0.00016,0.022708,-0.210366,0.014189,0.52802,-0.20683,0.0,0.49317,-0.0,0.577932,0.549422,0.549012,0.525681,-0.186818,0.0,0.513439,-0.094562,-0.0,-0.094988,11.294657,-0.006903,0.013331,0.0,0.0,0.0
147535,0.005726,-0.001042,0.022956,-0.213173,0.012377,0.525507,-0.208789,0.0,0.491211,-0.0,0.583197,0.549572,0.549834,0.519111,-0.188708,0.0,0.511541,-0.094401,-0.0,-0.094852,11.299553,-0.007954,0.012652,0.0,0.0,0.0
147555,0.004527,0.000802,0.02344,-0.215914,0.010773,0.522732,-0.210594,0.0,0.489406,-0.0,0.584405,0.517256,0.536535,0.551217,-0.190595,0.0,0.509645,-0.094246,-0.0,-0.094627,11.155417,-0.000327,-0.001177,0.0,0.0,0.0
147575,0.001488,0.001936,0.023806,-0.218741,0.009251,0.520057,-0.212557,0.0,0.487443,-0.0,0.586133,0.53591,0.537229,0.531745,-0.192479,0.0,0.507754,-0.094078,-0.0,-0.094395,11.169133,-0.002958,0.000563,0.0,0.0,0.0
147595,0.000381,0.001216,0.02393,-0.221485,0.007442,0.517254,-0.212557,0.0,0.487443,-0.0,0.577858,0.545126,0.550405,0.52358,-0.194359,0.0,0.505868,-0.093891,-0.0,-0.094189,11.234727,-0.006211,0.005335,0.0,0.0,0.0
147615,-0.001451,0.001116,0.024297,-0.221485,0.007442,0.517254,-0.21435,0.0,0.48565,-0.0,0.577361,0.544908,0.55115,0.528027,-0.196235,0.0,0.503986,-0.093695,-0.0,-0.094015,11.285875,-0.008371,0.009876,0.0,0.0,0.0
147635,-0.001695,0.00112,0.024785,-0.2241,0.00583,0.514476,-0.216236,0.0,0.483764,-0.0,0.579094,0.547939,0.554234,0.524113,-0.198108,0.0,0.502107,-0.093502,-0.0,-0.093756,11.337225,-0.011405,0.013542,0.0,0.0,0.0
147655,-0.004613,0.002133,0.025033,-0.227189,0.004093,0.511366,-0.217925,0.0,0.482075,-0.0,0.596851,0.517993,0.528038,0.547715,-0.199976,0.0,0.500234,-0.093293,-0.0,-0.093482,11.186331,-0.004015,0.000234,0.0,0.0,0.0
147675,-0.004856,0.002137,0.025277,-0.229214,0.00287,0.509167,-0.219467,0.0,0.480533,-0.0,0.578664,0.535752,0.549461,0.531268,-0.201841,0.0,0.498366,-0.093062,-0.0,-0.093236,11.211027,-0.005323,0.001348,0.0,0.0,0.0
147695,-0.00556,0.004345,0.025772,-0.23108,0.001882,0.506987,-0.221009,0.0,0.478991,-0.0,0.5795,0.542129,0.549905,0.530308,-0.2037,0.0,0.496503,-0.09282,-0.0,-0.093009,11.291487,-0.009109,0.008209,0.0,0.0,0.0
147715,-0.006303,0.0035,0.026015,-0.233142,0.000802,0.504819,-0.222975,0.0,0.477025,-0.0,0.579266,0.551009,0.54929,0.523046,-0.205555,0.0,0.494645,-0.092576,-0.0,-0.092791,11.304247,-0.009727,0.008714,0.0,0.0,0.0
147735,-0.007881,0.004132,0.026142,-0.235603,-0.000483,0.502028,-0.222975,0.0,0.477025,-0.0,0.583236,0.531076,0.544553,0.543209,-0.207404,0.0,0.492791,-0.092334,-0.0,-0.092577,11.297153,-0.008299,0.006813,0.0,0.0,0.0
147755,-0.007644,0.00352,0.026627,-0.237439,-0.001413,0.499787,-0.225438,0.0,0.474562,-0.0,0.579266,0.542105,0.550456,0.529457,-0.209249,0.0,0.49094,-0.092096,-0.0,-0.092395,11.284981,-0.00748,0.005883,0.0,0.0,0.0
147775,-0.008125,0.004137,0.02663,-0.237439,-0.001413,0.499787,-0.226973,0.0,0.473027,-0.0,0.581152,0.54325,0.548205,0.532039,-0.211089,0.0,0.489094,-0.091867,-0.0,-0.092129,11.325757,-0.008311,0.008579,0.0,0.0,0.0
147795,-0.008734,0.004146,0.026876,-0.239838,-0.002521,0.496917,-0.228537,0.0,0.471463,-0.0,0.585885,0.539402,0.541298,0.537294,-0.212925,0.0,0.487254,-0.09163,-0.0,-0.091892,11.320305,-0.00749,0.006929,0.0,0.0,0.0
147815,-0.0091,0.004152,0.02712,-0.242112,-0.00356,0.493975,-0.230284,0.0,0.469716,-0.0,0.589134,0.523949,0.534362,0.543029,-0.214756,0.0,0.485417,-0.091387,-0.0,-0.091676,11.169129,-0.001561,-0.004713,0.0,0.0,0.0
147835,-0.008277,0.001821,0.027109,-0.243988,-0.004255,0.491385,-0.232121,0.0,0.467879,-0.0,0.573941,0.550342,0.548822,0.521965,-0.216582,0.0,0.483585,-0.091149,-0.0,-0.091467,11.209919,-0.002341,-0.002236,0.0,0.0,0.0
147855,-0.007066,0.001073,0.02735,-0.243988,-0.004255,0.491385,-0.232121,0.0,0.467879,-0.0,0.572752,0.549985,0.553719,0.525248,-0.218403,0.0,0.481758,-0.090918,-0.0,-0.091274,11.28752,-0.004192,0.002067,0.0,0.0,0.0
147875,-0.006378,-0.002109,0.027828,-0.247609,-0.00537,0.48633,-0.234111,0.0,0.46589,-0.0,0.57661,0.561859,0.54848,0.517326,-0.22022,0.0,0.479933,-0.090699,-0.0,-0.09111,11.328797,-0.003976,0.003372,0.0,0.0,0.0
147895,-0.005455,-0.005906,0.028063,-0.247609,-0.00537,0.48633,-0.235957,0.0,0.464043,-0.0,0.575408,0.545838,0.54401,0.528695,-0.222032,0.0,0.478113,-0.090494,-0.0,-0.090859,11.193638,0.000359,-0.005869,0.0,0.0,0.0
147915,-0.00183,-0.00852,0.028438,-0.249158,-0.005638,0.483666,-0.238095,0.0,0.461905,-0.0,0.563558,0.565573,0.565421,0.513033,-0.22384,0.0,0.476298,-0.090285,-0.0,-0.090606,11.370376,-0.001807,0.004134,0.0,0.0,0.0
147935,0.000457,-0.010628,0.028814,-0.250953,-0.005797,0.48114,-0.239628,0.0,0.460372,-0.0,0.575568,0.543314,0.548122,0.531602,-0.225644,0.0,0.474487,-0.090066,-0.0,-0.090384,11.248592,0.00117,-0.003898,0.0,0.0,0.0
147955,0.001634,-0.013576,0.029073,-0.25242,-0.006167,0.479145,-0.241159,0.0,0.458841,-0.0,0.576384,0.553444,0.54709,0.522271,-0.227444,0.0,0.472681,-0.089849,-0.0,-0.090209,11.261473,0.002937,-0.005472,0.0,0.0,0.0
147975,0.004662,-0.015085,0.029341,-0.253682,-0.006129,0.477174,-0.242702,0.0,0.457298,-0.0,0.565241,0.554769,0.557439,0.52522,-0.22924,0.0,0.470878,-0.089647,-0.0,-0.090051,11.296329,0.004451,-0.003527,0.0,0.0,0.0
147995,0.007565,-0.016716,0.029735,-0.255089,-0.006281,0.475234,-0.242702,0.0,0.457298,-0.0,0.566196,0.559394,0.558969,0.517168,-0.231031,0.0,0.469078,-0.089463,-0.0,-0.089897,11.292549,0.004264,-0.00317,0.0,0.0,0.0
148015,0.008886,-0.018201,0.029752,-0.256556,-0.00617,0.473315,-0.244903,0.0,0.455097,-0.0,0.573696,0.553793,0.552841,0.520398,-0.232819,0.0,0.467281,-0.089297,-0.0,-0.089747,11.279806,0.005933,-0.004411,0.0,0.0,0.0
148035,0.012268,-0.020451,0.030167,-0.258178,-0.006407,0.471369,-0.247034,0.0,0.452966,-0.0,0.563611,0.555027,0.553021,0.529566,-0.234604,0.0,0.465488,-0.089144,-0.0,-0.089503,11.275079,0.006468,-0.004184,0.0,0.0,0.0
148055,0.014112,-0.019503,0.0303,-0.258178,-0.006407,0.471369,-0.247034,0.0,0.452966,-0.0,0.56626,0.543346,0.560183,0.530233,-0.236385,0.0,0.4637,-0.08898,-0.0,-0.089268,11.262659,0.007999,-0.004274,0.0,0.0,0.0
148075,0.015207,-0.019522,0.030676,-0.26185,-0.006459,0.467151,-0.250469,0.0,0.449531,-0.0,0.574265,0.546558,0.54976,0.528555,-0.238164,0.0,0.461916,-0.088805,-0.0,-0.089086,11.255316,0.007391,-0.003394,0.0,0.0,0.0
148095,0.017018,-0.020771,0.030826,-0.26185,-0.006459,0.467151,-0.250469,0.0,0.449531,-0.0,0.563288,0.541055,0.55573,0.529763,-0.239939,0.0,0.460136,-0.088634,-0.0,-0.088821,11.13783,0.007741,-0.010593,0.0,0.0,0.0
148115,0.017514,-0.02017,0.030947,-0.26339,-0.006293,0.465516,-0.252241,0.0,0.447759,-0.0,0.573071,0.562315,0.545808,0.519363,-0.24171,0.0,0.458361,-0.088451,-0.0,-0.088647,11.28008,0.007907,0.001013,0.0,0.0,0.0
148135,0.019241,-0.018855,0.031194,-0.265424,-0.006443,0.463661,-0.254156,0.0,0.445844,-0.0,0.562771,0.540968,0.553512,0.537273,-0.243478,0.0,0.45659,-0.088272,-0.0,-0.088419,11.191003,0.008252,-0.004885,0.0,0.0,0.0
148155,0.017892,-0.019202,0.031308,-0.267553,-0.006528,0.461982,-0.256104,0.0,0.443896,-0.0,0.57555,0.541229,0.546349,0.528593,-0.245242,0.0,0.454823,-0.08809,-0.0,-0.088179,11.167232,0.009438,-0.00562,0.0,0.0,0.0
148175,0.019361,-0.01886,0.031439,-0.269866,-0.006732,0.460105,-0.256104,0.0,0.443896,-0.0,0.564808,0.54932,0.557293,0.521562,-0.247002,0.0,0.453061,-0.087898,-0.0,-0.08797,11.180982,0.008734,-0.002147,0.0,0.0,0.0
148195,0.018404,-0.017504,0.031662,-0.269866,-0.006732,0.460105,-0.258026,0.0,0.441974,-0.0,0.574414,0.542486,0.537852,0.538844,-0.248759,0.0,0.451303,-0.087705,-0.0,-0.087799,11.186349,0.008141,0.001782,0.0,0.0,0.0
148215,0.019862,-0.017893,0.031677,-0.272318,-0.007005,0.458489,-0.259855,0.0,0.440145,-0.0,0.569056,0.560588,0.556526,0.508025,-0.250511,0.0,0.449549,-0.087521,-0.0,-0.087546,11.211324,0.007076,0.00654,0.0,0.0,0.0
148235,0.018557,-0.015433,0.031888,-0.27472,-0.007136,0.456892,-0.261556,0.0,0.438444,-0.0,0.572439,0.52968,0.542767,0.541686,-0.25226,0.0,0.4478,-0.087326,-0.0,-0.087289,11.102687,0.007309,-0.003354,0.0,0.0,0.0
148255,0.018565,-0.015065,0.03164,-0.27686,-0.007429,0.455735,-0.2631,0.0,0.4369,-0.0,0.565665,0.53988,0.550589,0.530487,-0.254005,0.0,0.446056,-0.087115,-0.0,-0.087062,11.09926,0.006255,-0.000139,0.0,0.0,0.0
148275,0.017635,-0.011998,0.0316,-0.27873,-0.007698,0.454622,-0.264641,0.0,0.435359,-0.0,0.572467,0.539848,0.545101,0.530572,-0.255746,0.0,0.444316,-0.086899,-0.0,-0.086857,11.119487,0.005962,0.004959,0.0,0.0,0.0
148295,0.01693,-0.010278,0.031704,-0.280935,-0.008011,0.45358,-0.266297,0.0,0.433703,-0.0,0.573323,0.545463,0.54298,0.525274,-0.257482,0.0,0.442581,-0.086685,-0.0,-0.086661,11.110797,0.005015,0.007678,0.0,0.0,0.0
148315,0.015249,-0.008541,0.031439,-0.283774,-0.00843,0.452183,-0.268401,0.0,0.431599,-0.0,0.575133,0.532433,0.54462,0.533456,-0.259214,0.0,0.440849,-0.086477,-0.0,-0.086471,11.094099,0.004284,0.00764,0.0,0.0,0.0
148335,0.015152,-0.006952,0.031427,-0.285825,-0.008826,0.451231,-0.268401,0.0,0.431599,-0.0,0.569971,0.536601,0.54915,0.528524,-0.260942,0.0,0.439121,-0.086274,-0.0,-0.086295,11.074526,0.003531,0.008835,0.0,0.0,0.0
148355,0.013282,-0.001673,0.031386,-0.288352,-0.009155,0.450031,-0.270093,0.0,0.429907,-0.0,0.574937,0.536295,0.539261,0.53399,-0.262666,0.0,0.437396,-0.08608,-0.0,-0.086163,11.079241,0.002367,0.013348,0.0,0.0,0.0
148375,0.012321,-0.000681,0.031258,-0.288352,-0.009155,0.450031,-0.271876,0.0,0.428124,-0.0,0.574978,0.537321,0.541335,0.529941,-0.264387,0.0,0.435674,-0.085901,-0.0,-0.085951,11.069285,0.001523,0.014011,0.0,0.0,0.0
148395,0.010793,0.003128,0.031115,-0.291116,-0.009791,0.44899,-0.273786,0.0,0.426214,-0.0,0.570948,0.533026,0.546041,0.533489,-0.266103,0.0,0.433957,-0.08572,-0.0,-0.08572,11.065208,0.001306,0.015563,0.0,0.0,0.0
148415,0.008775,0.006822,0.031226,-0.29366,-0.010294,0.447992,-0.275431,0.0,0.424569,-0.0,0.575728,0.500918,0.532044,0.565552,-0.267816,0.0,0.432244,-0.085527,-0.0,-0.08551,10.987141,0.003045,0.003238,0.0,0.0,0.0
148435,0.007712,0.009159,0.030977,-0.295887,-0.010762,0.447002,-0.277346,0.0,0.422654,-0.0,0.577644,0.528454,0.535904,0.533645,-0.269525,0.0,0.430535,-0.08533,-0.0,-0.085332,10.978819,0.001194,0.006395,0.0,0.0,0.0
148455,0.007609,0.010381,0.031095,-0.295887,-0.010762,0.447002,-0.277346,0.0,0.422654,-0.0,0.568366,0.538454,0.546469,0.523509,-0.271231,0.0,0.42883,-0.085138,-0.0,-0.085174,10.98612,-0.000276,0.011176,0.0,0.0,0.0
148475,0.006789,0.012591,0.031214,-0.298096,-0.011175,0.446074,-0.279106,0.0,0.420894,-0.0,0.564083,0.53733,0.541625,0.534734,-0.272932,0.0,0.427127,-0.084958,-0.0,-0.085047,10.991095,-0.001113,0.013146,0.0,0.0,0.0
148495,0.007027,0.012099,0.031337,-0.300462,-0.011698,0.44508,-0.281139,0.0,0.418861,-0.0,0.573736,0.522335,0.538102,0.538261,-0.27463,0.0,0.425428,-0.084794,-0.0,-0.084838,10.938737,0.000941,0.002584,0.0,0.0,0.0
148515,0.006788,0.012469,0.031337,-0.302428,-0.012046,0.444121,-0.282779,0.0,0.417221,-0.0,0.563413,0.532769,0.54558,0.53137,-0.276324,0.0,0.423733,-0.084625,-0.0,-0.084613,10.937237,0.000753,0.003561,0.0,0.0,0.0
148535,0.007385,0.011605,0.031336,-0.303906,-0.012306,0.443392,-0.284325,0.0,0.415675,-0.0,0.5649,0.538377,0.541336,0.529635,-0.278016,0.0,0.422042,-0.084444,-0.0,-0.084427,10.950803,-0.000567,0.007869,0.0,0.0,0.0
148555,0.008332,0.009636,0.03146,-0.305301,-0.012679,0.442662,-0.28586,0.0,0.41414,-0.0,0.554917,0.550306,0.549498,0.520346,-0.279703,0.0,0.420355,-0.084262,-0.0,-0.084262,10.961471,-0.000872,0.009704,0.0,0.0,0.0
148575,0.010012,0.007778,0.03146,-0.306543,-0.012778,0.441921,-0.28756,0.0,0.41244,-0.0,0.559041,0.543128,0.546632,0.525695,-0.281387,0.0,0.418671,-0.084086,-0.0,-0.084105,10.952288,-0.000432,0.007822,0.0,0.0,0.0
148595,0.010498,0.007648,0.031459,-0.306543,-0.012778,0.441921,-0.28756,0.0,0.41244,-0.0,0.566961,0.534634,0.542033,0.529516,-0.283067,0.0,0.41699,-0.083919,-0.0,-0.083954,10.9395,-0.000632,0.005222,0.0,0.0,0.0
148615,0.01119,0.005074,0.031348,-0.30848,-0.013204,0.440715,-0.289588,0.0,0.410412,-0.0,0.558099,0.548853,0.546301,0.518901,-0.284745,0.0,0.415312,-0.083759,-0.0,-0.083817,10.928038,0.000522,0.002341,0.0,0.0,0.0
148635,0.011672,0.0047,0.031349,-0.309393,-0.013505,0.439936,-0.291829,0.0,0.408171,-0.0,0.562355,0.525352,0.544592,0.535929,-0.286419,0.0,0.413637,-0.083609,-0.0,-0.083592,10.879668,0.002147,-0.005834,0.0,0.0,0.0
148655,0.013093,0.001871,0.031241,-0.311013,-0.013947,0.438694,-0.293818,0.0,0.406182,-0.0,0.562885,0.550009,0.544162,0.512329,-0.28809,0.0,0.411967,-0.083446,-0.0,-0.083369,10.901933,0.001029,-0.003135,0.0,0.0,0.0
148675,0.01319,0.000282,0.031251,-0.311013,-0.013947,0.438694,-0.293818,0.0,0.406182,-0.0,0.557734,0.542038,0.54362,0.527341,-0.289757,0.0,0.410301,-0.083267,-0.0,-0.083203,10.905964,0.000239,-0.004282,0.0,0.0,0.0
148695,0.014243,-0.002664,0.031271,-0.31177,-0.014198,0.437717,-0.29551,0.0,0.40449,-0.0,0.560474,0.550668,0.549894,0.510868,-0.291421,0.0,0.408637,-0.083091,-0.0,-0.083086,10.932744,-0.00108,-0.002099,0.0,0.0,0.0
148715,0.014705,-0.00438,0.031162,-0.312681,-0.014489,0.43673,-0.297258,0.0,0.402742,-0.0,0.563976,0.539228,0.542465,0.522921,-0.293082,0.0,0.406977,-0.082931,-0.0,-0.082888,10.885535,0.000232,-0.007892,0.0,0.0,0.0
148735,0.013811,-0.006929,0.031057,-0.313658,-0.01482,0.435723,-0.299058,0.0,0.400942,-0.0,0.563871,0.542513,0.536271,0.526126,-0.294739,0.0,0.405321,-0.082767,-0.0,-0.082673,10.886622,0.000349,-0.010502,0.0,0.0,0.0
148755,0.01365,-0.009369,0.031195,-0.3144,-0.015241,0.434717,-0.298054,0.0,0.4,-0.0,0.560155,0.545277,0.545593,0.518693,-0.296393,0.0,0.403669,-0.08259,-0.0,-0.082479,10.899508,-0.000114,-0.010716,0.0,0.0,0.0
148775,0.013384,-0.010829,0.031082,-0.315135,-0.01564,0.43363,-0.294645,0.0,0.4,-0.0,0.567212,0.543253,0.54388,0.515779,-0.298044,0.0,0.402021,-0.082407,-0.0,-0.08231,10.910002,-0.000851,-0.010072,0.0,0.0,0.0
148795,0.012141,-0.012274,0.030963,-0.315875,-0.015889,0.432561,-0.291556,0.0,0.4,-0.0,0.565446,0.547126,0.536456,0.522279,-0.299691,0.0,0.400376,-0.082224,-0.0,-0.082116,10.919736,-0.001986,-0.009573,0.0,0.0,0.0
148815,0.010896,-0.013842,0.030965,-0.316461,-0.016261,0.431622,-0.288474,0.0,0.4,-0.0,0.5661,0.55243,0.53885,0.5147,-0.301333,0.0,0.398736,-0.082006,-0.0,-0.08182,10.934809,-0.00283,-0.008261,0.0,0.0,0.0
148835,0.009184,-0.014059,0.030833,-0.316975,-0.016593,0.430674,-0.285372,0.0,0.4,-0.0,0.570529,0.544403,0.537598,0.52058,-0.302971,0.0,0.397102,-0.081661,-0.0,-0.0814,10.945172,-0.002603,-0.006923,0.0,0.0,0.0
148855,0.008806,-0.014908,0.030712,-0.316975,-0.016593,0.430674,-0.285372,0.0,0.4,-0.0,0.5635,0.539891,0.542705,0.527617,-0.304601,-0.0,0.395478,-0.081097,-0.0,-0.080857,10.944219,-0.002931,-0.006253,0.0,0.0,0.0
148875,0.006537,-0.011577,0.030685,-0.317477,-0.016995,0.429719,-0.28173,0.0,0.4,-0.0,0.579398,0.526562,0.529732,0.536591,-0.306217,-0.0,0.393866,-0.080241,-0.0,-0.080192,10.942085,-0.003145,-0.005797,0.0,0.0,0.0
148895,0.005557,-0.011927,0.030436,-0.318562,-0.017441,0.428405,-0.278068,0.0,0.4,-0.0,0.565945,0.539491,0.533396,0.52942,-0.307813,-0.0,0.392267,-0.07904,-0.0,-0.07941,10.880941,-0.001511,-0.009173,0.0,0.0,0.0
148915,0.003775,-0.008726,0.030298,-0.31896,-0.017661,0.427424,-0.27469,0.0,0.4,-0.0,0.567662,0.526377,0.536943,0.537462,-0.309383,-0.0,0.390686,-0.077494,-0.0,-0.078516,10.885029,-0.002179,-0.007701,0.0,0.0,0.0
148935,0.003065,-0.007249,0.030165,-0.319769,-0.017963,0.426135,-0.271224,0.0,0.4,-0.0,0.567272,0.539033,0.539727,0.525953,-0.310919,-0.0,0.389123,-0.075587,-0.0,-0.077519,10.926709,-0.00349,-0.002112,0.0,0.0,0.0
148955,0.002126,-0.004793,0.030036,-0.320309,-0.018143,0.424928,-0.2674,0.0,0.4,-0.0,0.565163,0.529529,0.537077,0.541932,-0.312414,-0.0,0.38758,-0.073278,-0.0,-0.076425,10.944612,-0.003393,-0.000483,0.0,0.0,0.0
148975,0.001186,-0.002337,0.030155,-0.320309,-0.018143,0.424928,-0.264314,0.0,0.4,-0.0,0.56863,0.533434,0.537895,0.535952,-0.31386,-0.0,0.38606,-0.07054,-0.0,-0.075241,10.972515,-0.003516,0.002654,0.0,0.0,0.0
148995,0.000623,0.000845,0.030031,-0.321142,-0.018379,0.42372,-0.264314,0.0,0.4,-0.0,0.57081,0.531668,0.537379,0.537414,-0.315247,-0.0,0.384565,-0.067362,-0.0,-0.073976,10.990576,-0.003047,0.0045,0.0,0.0,0.0
149015,0.001044,0.004501,0.030029,-0.321665,-0.01839,0.422552,-0.260694,0.0,0.4,-0.0,0.56217,0.523629,0.536426,0.549719,-0.316568,-0.0,0.383095,-0.063735,-0.0,-0.072636,10.925239,-0.001645,0.002832,0.0,0.0,0.0
149035,-0.000241,0.008306,0.03016,-0.32209,-0.018289,0.421431,-0.257076,0.0,0.4,-0.0,0.569422,0.525837,0.530055,0.5473,-0.317813,-0.0,0.381653,-0.059674,-0.0,-0.071229,10.937775,-0.001772,0.004658,0.0,0.0,0.0
149055,0.000287,0.010862,0.03028,-0.322384,-0.018296,0.420199,-0.25359,0.0,0.4,-0.0,0.563455,0.533393,0.540276,0.538316,-0.318974,-0.0,0.380239,-0.055246,-0.0,-0.069761,10.963178,-0.001036,0.007111,0.0,0.0,0.0
149075,0.001065,0.013902,0.030275,-0.322448,-0.01808,0.419043,-0.250498,0.0,0.4,-0.0,0.562755,0.527469,0.54015,0.546566,-0.320044,-0.0,0.378856,-0.050495,-0.0,-0.06824,10.982557,0.000266,0.008708,0.0,0.0,0.0
149095,0.000751,0.017203,0.030521,-0.322506,-0.01783,0.41805,-0.247406,0.0,0.4,-0.0,0.568493,0.527107,0.530288,0.552254,-0.321016,-0.0,0.377502,-0.045431,-0.0,-0.06667,11.003402,0.000695,0.009492,0.0,0.0,0.0
149115,0.00272,0.01815,0.030625,-0.32249,-0.017667,0.417083,-0.244331,0.0,0.4,-0.0,0.558414,0.538835,0.544705,0.538094,-0.321885,-0.0,0.376181,-0.040073,-0.0,-0.065058,11.014825,0.001993,0.009035,0.0,0.0,0.0
149135,0.002283,0.021452,0.030748,-0.322113,-0.017233,0.416125,-0.240971,0.0,0.4,-0.0,0.563653,0.525329,0.535454,0.554697,-0.322644,-0.0,0.374892,-0.034451,-0.0,-0.06341,11.012405,0.003289,0.008962,0.0,0.0,0.0
149155,0.004118,0.021423,0.031094,-0.321746,-0.016979,0.415004,-0.240971,0.0,0.4,-0.0,0.558329,0.539319,0.543264,0.538459,-0.32329,-0.0,0.373637,-0.028602,-0.0,-0.061729,11.006559,0.003721,0.009121,0.0,0.0,0.0
149175,0.005603,0.022499,0.031325,-0.321125,-0.016468,0.414087,-0.236898,0.0,0.4,-0.0,0.559249,0.53364,0.53739,0.548631,-0.323817,-0.0,0.372415,-0.022564,-0.0,-0.060022,11.002957,0.005314,0.007947,0.0,0.0,0.0
149195,0.006236,0.023587,0.031803,-0.320344,-0.015967,0.413187,-0.233806,0.0,0.4,-0.0,0.559555,0.533403,0.537286,0.54942,-0.324222,-0.0,0.371227,-0.016374,-0.0,-0.058293,11.012297,0.005738,0.0059,0.0,0.0,0.0
149215,0.008532,0.021839,0.032148,-0.319537,-0.01561,0.412318,-0.230492,0.0,0.4,-0.0,0.557453,0.547265,0.540646,0.534255,-0.324503,-0.0,0.370074,-0.010112,-0.0,-0.056545,11.010056,0.007186,0.005053,0.0,0.0,0.0
149235,0.00915,0.022072,0.032506,-0.318299,-0.015008,0.411469,-0.226712,0.0,0.4,-0.0,0.558348,0.535507,0.535843,0.549519,-0.324658,-0.0,0.368957,-0.00382,-0.0,-0.054783,11.006241,0.008421,0.003607,0.0,0.0,0.0
149255,0.010942,0.019354,0.032988,-0.317282,-0.01461,0.410677,-0.223305,0.0,0.4,-0.0,0.551743,0.551051,0.54346,0.532746,-0.324687,-0.0,0.367874,0.002483,-0.0,-0.053011,11.001844,0.00849,0.002948,0.0,0.0,0.0
149275,0.012259,0.01762,0.03335,-0.315835,-0.014044,0.40989,-0.219642,0.0,0.4,-0.0,0.557486,0.543057,0.538556,0.539649,-0.32459,-0.0,0.366827,0.008776,-0.0,-0.051231,10.998765,0.009642,0.000945,0.0,0.0,0.0
149295,0.014046,0.01478,0.033719,-0.315835,-0.014044,0.40989,-0.219642,0.0,0.4,-0.0,0.556188,0.551036,0.538036,0.532957,-0.324367,-0.0,0.365816,0.015047,-0.0,-0.049447,10.994032,0.009629,0.000717,0.0,0.0,0.0
149315,0.014967,0.011343,0.034102,-0.313861,-0.013311,0.409012,-0.216076,0.0,0.4,-0.0,0.554461,0.558843,0.53781,0.526507,-0.32402,-0.0,0.364841,0.021282,-0.0,-0.047663,10.991067,0.010314,-0.000797,0.0,0.0,0.0
149335,0.015528,0.008402,0.034243,-0.311949,-0.012726,0.40811,-0.212553,0.0,0.4,-0.0,0.551149,0.561731,0.543022,0.517008,-0.323547,-0.0,0.363901,0.027465,-0.0,-0.04588,10.940182,0.007897,0.00461,0.0,0.0,0.0
149355,0.017406,0.003972,0.034515,-0.309984,-0.012238,0.407284,-0.209261,0.0,0.4,-0.0,0.552807,0.55781,0.538695,0.52486,-0.322952,-0.0,0.362996,0.033535,-0.0,-0.044102,10.949636,0.009511,0.001175,0.0,0.0,0.0
149375,0.017143,0.002877,0.034647,-0.308053,-0.011667,0.406628,-0.206173,0.0,0.4,-0.0,0.565238,0.542544,0.529682,0.538616,-0.322237,-0.0,0.362128,0.039456,-0.0,-0.042331,10.972782,0.010821,-0.00291,0.0,0.0,0.0
149395,0.017564,-0.001036,0.034559,-0.306347,-0.011317,0.405997,-0.20312,0.0,0.4,-0.0,0.558897,0.556759,0.538783,0.522763,-0.321404,-0.0,0.361294,0.045232,-0.0,-0.040568,10.988507,0.011193,-0.005938,0.0,0.0,0.0
149415,0.016823,-0.001513,0.034685,-0.304211,-0.010896,0.405364,-0.200039,0.0,0.4,-0.0,0.560407,0.543163,0.537078,0.537061,-0.320457,-0.0,0.360496,0.050863,-0.0,-0.038817,10.98809,0.011745,-0.007376,0.0,0.0,0.0
149435,0.017646,-0.003357,0.034579,-0.301883,-0.010525,0.404583,-0.19603,0.0,0.4,-0.0,0.559146,0.549924,0.541641,0.526377,-0.319399,-0.0,0.359733,0.056346,-0.0,-0.03708,10.983451,0.011014,-0.00647,0.0,0.0,0.0
149455,0.017616,-0.005066,0.034594,-0.299789,-0.010169,0.40398,-0.192607,0.0,0.4,-0.0,0.55848,0.550632,0.53445,0.533398,-0.318232,-0.0,0.359004,0.061676,-0.0,-0.035357,10.980318,0.010634,-0.007328,0.0,0.0,0.0
149475,0.018101,-0.005317,0.034475,-0.299789,-0.010169,0.40398,-0.192607,0.0,0.4,-0.0,0.559594,0.540991,0.540451,0.536791,-0.316959,-0.0,0.35831,0.06685,-0.0,-0.03365,10.988851,0.010217,-0.008702,0.0,0.0,0.0
149495,0.017721,-0.006163,0.034238,-0.296798,-0.009747,0.403159,-0.188689,0.0,0.4,-0.0,0.567847,0.545811,0.536792,0.526561,-0.315584,-0.0,0.35765,0.071883,-0.0,-0.031962,10.987069,0.009868,-0.008464,0.0,0.0,0.0
149515,0.017591,-0.006646,0.033876,-0.294081,-0.009407,0.402456,-0.185014,0.0,0.4,-0.0,0.554864,0.560564,0.542248,0.515616,-0.314109,-0.0,0.357023,0.076784,-0.0,-0.030293,10.94614,0.007718,0.002462,0.0,0.0,0.0
149535,0.018078,-0.006775,0.033757,-0.291598,-0.009255,0.401892,-0.181114,0.0,0.4,-0.0,0.556774,0.538504,0.540596,0.539697,-0.312538,-0.0,0.356429,0.08151,-0.0,-0.028645,10.96063,0.008108,-0.001703,0.0,0.0,0.0
149555,0.016894,-0.004554,0.033363,-0.289014,-0.008935,0.401337,-0.177359,0.0,0.4,-0.0,0.571082,0.522382,0.536749,0.545611,-0.310873,-0.0,0.355869,0.086054,-0.0,-0.027018,10.977151,0.008552,-0.006745,0.0,0.0,0.0
149575,0.015935,-0.003558,0.032865,-0.286657,-0.008899,0.40083,-0.177359,0.0,0.4,-0.0,0.566902,0.53429,0.535893,0.539662,-0.309119,-0.0,0.35534,0.090441,-0.0,-0.025415,10.980984,0.007871,-0.008777,0.0,0.0,0.0
149595,0.015612,-0.000985,0.032357,-0.286657,-0.008899,0.40083,-0.173679,0.0,0.4,-0.0,0.564138,0.525246,0.542178,0.545157,-0.307278,-0.0,0.354844,0.094699,-0.0,-0.023835,10.9814,0.00807,-0.009803,0.0,0.0,0.0
149615,0.014665,0.000865,0.031856,-0.283708,-0.008823,0.400277,-0.169884,0.0,0.4,-0.0,0.568372,0.527856,0.537141,0.542925,-0.305353,-0.0,0.354379,0.098847,-0.0,-0.022281,10.978169,0.006882,-0.010352,0.0,0.0,0.0
149635,0.013686,0.000762,0.031369,-0.280935,-0.008631,0.399832,-0.166777,0.0,0.4,-0.0,0.56371,0.553163,0.541585,0.514478,-0.303346,-0.0,0.353945,0.102851,-0.0,-0.020751,10.943836,0.00553,0.004133,0.0,0.0,0.0
149655,0.014327,0.002708,0.030989,-0.278553,-0.008615,0.39952,-0.16369,0.0,0.4,-0.0,0.556434,0.528554,0.545377,0.543966,-0.30126,-0.0,0.353541,0.106703,-0.0,-0.019248,10.948055,0.004953,0.001816,0.0,0.0,0.0
149675,0.012392,0.003962,0.030497,-0.276321,-0.008496,0.399255,-0.160611,0.0,0.4,-0.0,0.577479,0.5278,0.5286,0.539532,-0.299098,-0.0,0.353167,0.110429,-0.0,-0.017772,10.953307,0.005359,-0.002688,0.0,0.0,0.0
149695,0.012776,0.005304,0.029755,-0.274002,-0.008451,0.399001,-0.157268,0.0,0.4,-0.0,0.560971,0.528148,0.546302,0.538883,-0.296862,-0.0,0.352823,0.114046,-0.0,-0.016323,10.950018,0.004917,-0.00392,0.0,0.0,0.0
149715,0.011226,0.007893,0.029258,-0.270592,-0.008366,0.39864,-0.157268,0.0,0.4,-0.0,0.564609,0.519926,0.540934,0.547748,-0.294554,-0.0,0.352507,0.117565,-0.0,-0.014902,10.942978,0.004968,-0.002953,0.0,0.0,0.0
149735,0.01295,0.009093,0.028633,-0.268063,-0.008338,0.39838,-0.152415,0.0,0.4,-0.0,0.561518,0.526649,0.548804,0.536117,-0.292177,-0.0,0.35222,0.120993,-0.0,-0.013509,10.937061,0.004714,-0.001861,0.0,0.0,0.0
149755,0.011879,0.011309,0.028015,-0.268063,-0.008338,0.39838,-0.149359,0.0,0.4,-0.0,0.57099,0.512764,0.535371,0.552982,-0.289732,-0.0,0.35196,0.124338,-0.0,-0.012145,10.940559,0.004678,-0.008239,0.0,0.0,0.0
149775,0.012376,0.012161,0.027397,-0.265304,-0.008359,0.3981,-0.146209,0.0,0.4,-0.0,0.562767,0.527777,0.546733,0.535995,-0.287221,-0.0,0.351727,0.127565,-0.0,-0.010809,10.939202,0.004392,-0.007404,0.0,0.0,0.0
149795,0.012127,0.012045,0.026911,-0.262016,-0.00821,0.397792,-0.143131,0.0,0.4,-0.0,0.564262,0.553568,0.543449,0.509362,-0.284646,-0.0,0.351521,0.130684,-0.0,-0.009503,10.920977,0.003972,0.007925,0.0,0.0,0.0
149815,0.0131,0.012036,0.026294,-0.258518,-0.008344,0.397496,-0.139722,0.0,0.4,-0.0,0.556842,0.53231,0.545601,0.537489,-0.282009,-0.0,0.35134,0.133722,-0.0,-0.008226,10.922418,0.003524,0.007568,0.0,0.0,0.0
149835,0.011626,0.011692,0.025691,-0.255115,-0.008271,0.397213,-0.136002,0.0,0.4,-0.0,0.56801,0.524213,0.537549,0.542367,-0.279313,-0.0,0.351185,0.136688,-0.0,-0.006978,10.929879,0.004117,0.001039,0.0,0.0,0.0
149855,0.012002,0.012789,0.025072,-0.251558,-0.008312,0.396905,-0.132174,0.0,0.4,-0.0,0.567973,0.519249,0.544292,0.540973,-0.276557,-0.0,0.351055,0.139591,-0.0,-0.00576,10.936434,0.003228,-0.005792,0.0,0.0,0.0
149875,0.011262,0.012436,0.024469,-0.251558,-0.008312,0.396905,-0.132174,0.0,0.4,-0.0,0.571401,0.530431,0.532701,0.538384,-0.273744,-0.0,0.350948,0.14244,-0.0,-0.004571,10.940261,0.003375,-0.009845,0.0,0.0,0.0
149895,0.009912,0.012212,0.023869,-0.24372,-0.008526,0.396269,-0.1286,0.0,0.4,-0.0,0.564942,0.527776,0.544779,0.536136,-0.270874,-0.0,0.350866,0.145252,-0.0,-0.003412,10.944525,0.003084,-0.012658,0.0,0.0,0.0
149915,0.008658,0.009543,0.0234,-0.24372,-0.008526,0.396269,-0.125515,0.0,0.4,-0.0,0.570425,0.561196,0.53784,0.500427,-0.267948,-0.0,0.350806,0.148042,-0.0,-0.002282,10.927981,0.00299,0.003715,0.0,0.0,0.0
149935,0.009004,0.007953,0.023161,-0.236712,-0.008715,0.395816,-0.122434,0.0,0.4,-0.0,0.561556,0.506073,0.539784,0.565305,-0.264966,-0.0,0.350769,0.15077,0.0,-0.001182,10.952561,0.00178,-0.021427,0.0,0.0,0.0
149955,0.004817,0.004828,0.022942,-0.236712,-0.008715,0.395816,-0.119323,0.0,0.4,-0.0,0.576567,0.564312,0.523482,0.506007,-0.261931,-0.0,0.350753,0.15342,0.0,-0.000111,10.939062,0.001817,-0.006345,0.0,0.0,0.0
149975,0.006861,0.002118,0.02319,-0.23293,-0.008942,0.395611,-0.11563,0.0,0.4,-0.0,0.553745,0.529932,0.543179,0.547769,-0.258843,-0.0,0.350759,0.156001,0.0,0.000931,10.950423,0.001075,-0.024526,0.0,0.0,0.0
149995,0.002927,-0.000278,0.023076,-0.22774,-0.008977,0.395285,-0.111928,0.0,0.4,-0.0,0.577413,0.571125,0.517341,0.503213,-0.255704,-0.0,0.350785,0.158519,0.0,0.001944,10.935406,0.001381,-0.006648,0.0,0.0,0.0
150015,0.002399,-0.003691,0.023324,-0.223873,-0.00873,0.395007,-0.108573,0.0,0.4,-0.0,0.556295,0.554876,0.535843,0.52571,-0.252515,-0.0,0.350831,0.160979,0.0,0.002927,10.932414,0.000577,-0.005903,0.0,0.0,0.0
150035,0.000531,-0.006843,0.023322,-0.223873,-0.00873,0.395007,-0.108573,0.0,0.4,-0.0,0.568816,0.539605,0.527956,0.536784,-0.249277,-0.0,0.350897,0.163394,0.0,0.003883,10.941212,0.000772,-0.016899,0.0,0.0,0.0
150055,-0.001053,-0.006703,0.022828,-0.218505,-0.009013,0.394624,-0.105098,0.0,0.4,-0.0,0.578609,0.533617,0.522369,0.538144,-0.245992,-0.0,0.350982,0.165779,0.0,0.004809,10.94744,0.002665,-0.020173,0.0,0.0,0.0
150075,-0.002165,-0.007789,0.022945,-0.213635,-0.008834,0.394144,-0.101301,0.0,0.4,-0.0,0.56182,0.572674,0.525474,0.510803,-0.242658,-0.0,0.351085,0.168138,0.0,0.005708,10.934055,0.003038,-0.000801,0.0,0.0,0.0
150095,-0.001671,-0.007306,0.02307,-0.208749,-0.008388,0.39372,-0.097782,0.0,0.4,-0.0,0.559745,0.52967,0.540726,0.543844,-0.239278,-0.0,0.351206,0.170426,0.0,0.006578,10.9448,0.001384,-0.009592,0.0,0.0,0.0
150115,-0.00459,-0.006418,0.022695,-0.204411,-0.008207,0.393261,-0.094381,0.0,0.4,-0.0,0.5776,0.519387,0.524004,0.552745,-0.235853,-0.0,0.351343,0.172625,0.0,0.007421,10.964643,0.002255,-0.01969,0.0,0.0,0.0
150135,-0.002381,-0.005467,0.022581,-0.199456,-0.007697,0.392744,-0.090607,0.0,0.4,-0.0,0.559665,0.521112,0.538132,0.557262,-0.232385,-0.0,0.351498,0.174754,0.0,0.008237,10.977692,0.004919,-0.02726,0.0,0.0,0.0
150155,-0.003577,-0.003256,0.022704,-0.199456,-0.007697,0.392744,-0.090607,0.0,0.4,-0.0,0.572814,0.522859,0.5242,0.556273,-0.228874,-0.0,0.351669,0.17683,0.0,0.009026,10.988375,0.005778,-0.029015,0.0,0.0,0.0
150175,-0.000894,-0.003531,0.02222,-0.189045,-0.006633,0.391546,-0.08692,0.0,0.4,-0.0,0.5634,0.52911,0.543159,0.542761,-0.225322,-0.0,0.351855,0.178863,0.0,0.009787,10.999776,0.007782,-0.032102,0.0,0.0,0.0
150195,-0.001031,-0.004872,0.022219,-0.189045,-0.006633,0.391546,-0.083704,0.0,0.4,-0.0,0.563948,0.573648,0.529039,0.507344,-0.22173,-0.0,0.352056,0.180864,0.0,0.010523,10.975832,0.006703,-0.009034,0.0,0.0,0.0
150215,0.001388,-0.006731,0.022836,-0.180246,-0.005141,0.390604,-0.080638,0.0,0.4,-0.0,0.553407,0.503292,0.538521,0.582645,-0.218098,-0.0,0.352272,0.182789,0.0,0.011232,11.027861,0.011084,-0.042016,0.0,0.0,0.0
150235,0.001845,-0.0093,0.023207,-0.180246,-0.005141,0.390604,-0.077552,0.0,0.4,-0.0,0.560887,0.569589,0.535722,0.511213,-0.214428,-0.0,0.352502,0.184625,0.0,0.011916,11.006954,0.009671,-0.021937,0.0,0.0,0.0
150255,0.005001,-0.01068,0.023713,-0.175582,-0.004178,0.39014,-0.074477,0.0,0.4,-0.0,0.557949,0.521298,0.527108,0.573731,-0.210722,-0.0,0.352745,0.186383,0.0,0.012575,11.036299,0.015549,-0.043616,0.0,0.0,0.0
150275,0.004357,-0.013238,0.024204,-0.168858,-0.003096,0.389141,-0.070373,0.0,0.4,-0.0,0.563367,0.579209,0.526293,0.507487,-0.206982,-0.0,0.353002,0.188069,0.0,0.013208,11.009706,0.013313,-0.020526,0.0,0.0,0.0
150295,0.010421,-0.016242,0.024624,-0.164178,-0.00198,0.388373,-0.066579,0.0,0.4,-0.0,0.540387,0.561262,0.552951,0.524396,-0.203208,-0.0,0.35327,0.189688,0.0,0.013817,11.008833,0.015192,-0.019287,0.0,0.0,0.0
150315,0.009551,-0.017333,0.024994,-0.159277,-0.001006,0.387423,-0.063517,0.0,0.4,-0.0,0.562468,0.53497,0.517267,0.566681,-0.199403,-0.0,0.353551,0.191243,0.0,0.014402,11.048881,0.018213,-0.034315,0.0,0.0,0.0
