time_ms,roll,pitch,yaw,x,y,z,reference_roll,reference_pitch,reference_yaw,reference_throttle,throttle_1,throttle_2,throttle_3,throttle_4,roll_predicted,pitch_predicted,yaw_predicted,roll_rate_predicted,pitch_rate_predicted,yaw_rate_predicted,value1,value2,value3,value4,value5,value6
163385,0.000488,0.001587,-0.000977,0.0,0.0,0.0,0.0,0.0,0.0,3.0,0.337058,0.316996,0.330306,0.317177,-0.0,-0.0,-0.0,-0.0,0.0,0.0,0.000487,0.001587,-0.000978,0.01836,0.015657,0.010266
163405,0.000488,0.001465,-0.001099,0.0,0.0,0.0,0.0,0.0,0.0,3.0,0.352053,0.310348,0.343002,0.291796,-0.0,-0.0,-0.0,-0.0,0.0,0.0,0.000487,0.001344,-0.001099,0.010569,-0.027901,-0.015762
163425,0.000487,0.001343,-0.001221,0.0,0.0,0.0,0.0,0.0,0.0,3.0,0.34596,0.315048,0.332954,0.306203,-0.0,-0.0,-0.0,-0.0,0.0,0.0,0.000488,0.001466,-0.001099,0.000154,-0.006366,-0.000221
163445,0.000487,0.001465,-0.001221,0.0,0.0,0.0,0.0,0.0,0.0,3.0,0.344021,0.31434,0.335921,0.305871,-0.0,-0.0,-0.0,0.0,0.0,0.0,0.000487,0.001466,-0.001221,0.013995,-0.005451,-0.000668
163465,0.000487,0.001587,-0.001221,0.0,0.0,0.0,0.0,0.0,0.0,3.0,0.354341,0.314095,0.326661,0.304096,-0.0,-0.0,-0.0,0.0,0.0,-0.0,0.000123,0.001344,-0.001343,-0.040152,-0.00865,-0.001896
163485,0.000365,0.001709,-0.001343,0.0,0.0,0.0,0.0,0.0,0.0,3.0,0.353646,0.315372,0.326792,0.303467,-0.0,-0.0,-0.0,0.0,0.0,-0.0,1e-06,0.001467,-0.001343,-0.037184,-0.014008,-0.001256
163505,0.000243,0.001709,-0.001465,0.0,0.0,0.0,0.0,0.0,0.0,3.0,0.360511,0.308575,0.329123,0.29934,-0.0,-0.0,-0.0,-0.0,0.0,-0.0,-0.000121,0.001588,-0.001342,-0.051145,-0.007469,-0.010285
163525,0.000121,0.001709,-0.001465,0.0,0.0,0.0,0.0,0.0,0.0,3.0,0.356447,0.311246,0.334981,0.294924,-0.0,-0.0,-0.0,0.0,0.0,-0.0,0.0,0.001466,-0.001464,-0.0232,-0.023917,-0.011093
163545,0.000243,0.001709,-0.001465,0.0,0.0,0.0,0.0,0.0,0.0,3.0,0.35028,0.306262,0.332396,0.310606,-0.0,-0.0,-0.0,0.0,0.0,0.0,-1e-06,0.001831,-0.001587,-0.01192,0.024231,-0.002064
163565,0.000121,0.001709,-0.001465,0.0,0.0,0.0,0.0,0.0,0.0,3.0,0.349804,0.308824,0.336102,0.304458,-0.0,-0.0,-0.0,-0.0,0.0,-0.0,0.000121,0.001709,-0.001588,-0.000781,0.003364,-0.004971
163585,0.000243,0.001709,-0.001587,0.0,0.0,0.0,0.0,0.0,0.0,3.0,0.357206,0.302413,0.339269,0.2981,-0.0,-0.0,-0.0,-0.0,0.0,-0.0,0.000121,0.001709,-0.001587,-0.014017,0.003718,-0.015309
163605,0.000365,0.001709,-0.001588,0.0,0.0,0.0,0.0,0.0,0.0,3.0,0.349323,0.312211,0.331633,0.306617,-0.0,-0.0,-0.0,-0.0,0.0,-0.0,0.000121,0.001709,-0.001587,-0.011767,4.2e-05,-0.000206
163625,0.000243,0.001709,-0.001587,0.0,0.0,0.0,0.0,0.0,0.0,3.0,0.350619,0.312749,0.332582,0.303433,-0.0,-0.0,-0.0,0.0,0.0,0.0,0.000121,0.001588,-0.001709,-0.012992,-0.008553,-0.001908
163645,0.000365,0.001709,-0.00171,0.0,0.0,0.0,0.0,0.0,0.0,3.0,0.352893,0.310407,0.329496,0.306538,-0.0,-0.0,-0.0,-0.0,0.0,0.0,-0.0,0.001709,-0.001709,-0.027664,0.00419,-0.001264
163665,0.000243,0.001587,-0.001709,0.0,0.0,0.0,0.0,0.0,0.0,3.0,0.35028,0.315194,0.331044,0.303019,-0.0,-0.0,-0.0,-0.0,0.0,0.0,0.000121,0.001588,-0.001709,-0.016234,-0.015862,-3e-06
163685,0.000365,0.001587,-0.00171,0.0,0.0,0.0,0.0,0.0,0.0,3.0,0.348024,0.305346,0.333538,0.312878,-0.0,-0.0,-0.0,-0.0,0.0,0.0,0.000242,0.001831,-0.00171,-0.003282,0.031586,-2e-06
163705,0.000243,0.001587,-0.001832,0.0,0.0,0.0,0.0,0.0,0.0,3.0,0.337594,0.314481,0.329342,0.320092,-0.0,-0.0,-0.0,0.0,0.0,0.0,0.000364,0.00183,-0.00171,0.014589,0.027276,0.013975
163725,0.000243,0.001587,-0.001832,0.0,0.0,0.0,0.0,0.0,0.0,3.0,0.34095,0.311038,0.330887,0.318178,-0.0,-0.0,-0.0,0.0,0.0,-0.0,0.000242,0.001831,-0.001832,0.009839,0.030896,0.009841
163745,0.000121,0.001465,-0.001954,0.0,0.0,0.0,0.0,0.0,0.0,3.0,0.352778,0.30692,0.335413,0.303567,-0.0,-0.0,-0.0,0.0,0.0,0.0,-2e-06,0.001586,-0.001954,-0.011064,0.005742,-0.005448
163765,-2e-06,0.001465,-0.002076,0.0,0.0,0.0,0.0,0.0,0.0,3.0,0.351882,0.309391,0.330651,0.307511,0.0,-0.0,-0.0,0.0,0.0,0.0,-0.000123,0.001464,-0.001953,-0.021009,0.009718,-5.9e-05
163785,0.000121,0.001343,-0.002076,0.0,0.0,0.0,0.0,0.0,0.0,3.0,0.347546,0.309218,0.333962,0.30916,-0.0,-0.0,-0.0,-0.0,0.0,-0.0,-1e-06,0.001464,-0.001953,0.000349,0.01413,0.00126
163805,0.000121,0.001465,-0.002076,0.0,0.0,0.0,0.0,0.0,0.0,3.0,0.350774,0.304136,0.333078,0.311348,-0.0,-0.0,-0.0,0.0,0.0,-0.0,-1e-06,0.001586,-0.002076,-0.011597,0.031345,-0.00063
163825,0.000121,0.001465,-0.002076,0.0,0.0,0.0,0.0,0.0,0.0,3.0,0.343069,0.31378,0.329487,0.314611,-0.0,-0.0,-0.0,-0.0,0.0,-0.0,0.00012,0.001587,-0.002076,0.000482,0.015693,0.0103
163845,-2e-06,0.001587,-0.002198,0.0,0.0,0.0,0.0,0.0,0.0,3.0,0.35033,0.299255,0.339307,0.309619,-0.0,-0.0,-0.0,0.0,0.0,-0.0,0.000119,0.001708,-0.002198,0.006587,0.038013,-0.005457
163865,-0.000124,0.001465,-0.002198,0.0,0.0,0.0,0.0,0.0,0.0,3.0,0.349294,0.300053,0.338706,0.310757,0.0,-0.0,-0.0,0.0,0.0,0.0,0.000119,0.00183,-0.002198,0.007939,0.038332,-0.003765
163885,-0.000124,0.001587,-0.002198,0.0,0.0,0.0,0.0,0.0,0.0,3.0,0.336955,0.31197,0.330112,0.322402,0.0,-0.0,-0.0,0.0,0.0,0.0,0.000119,0.00183,-0.002076,0.019544,0.038953,0.01584
163905,-2e-06,0.001465,-0.002198,0.0,0.0,0.0,0.0,0.0,0.0,3.0,0.339692,0.308359,0.334313,0.318497,0.0,-0.0,-0.0,0.0,0.0,0.0,0.000119,0.00183,-0.002198,0.023384,0.037707,0.009858
163925,-0.000124,0.001465,-0.002198,0.0,0.0,0.0,0.0,0.0,0.0,3.0,0.342529,0.312201,0.330849,0.31533,0.0,-0.0,-0.0,-0.0,0.0,-0.0,-3e-06,0.001586,-0.002198,0.006288,0.021109,0.010447
163945,-1e-06,0.001343,-0.002198,0.0,0.0,0.0,0.0,0.0,0.0,3.0,0.355737,0.300321,0.342937,0.297684,0.0,-0.0,-0.0,0.0,0.0,0.0,-1e-06,0.001342,-0.002197,0.001336,0.00804,-0.013843
163965,0.000243,0.001465,-0.002198,0.0,0.0,0.0,0.0,0.0,0.0,3.0,0.345068,0.311659,0.333462,0.310148,0.0,-0.0,-0.0,-0.0,0.0,0.0,0.000121,0.001342,-0.002075,0.005609,0.010431,0.005398
163985,0.000365,0.001587,-0.002076,0.0,0.0,0.0,0.0,0.0,0.0,3.0,0.349114,0.306284,0.336148,0.307789,0.0,-0.0,-0.0,-0.0,0.0,0.0,0.000242,0.001587,-0.002198,0.000713,0.016711,-0.000584
164005,0.000243,0.001587,-0.002076,0.0,0.0,0.0,0.0,0.0,0.0,3.0,0.340088,0.31453,0.33286,0.313577,0.0,-0.0,-0.0,0.0,0.0,0.0,0.000486,0.001587,-0.002077,0.016568,0.010559,0.010942
164025,0.000121,0.001465,-0.002076,0.0,0.0,0.0,0.0,0.0,0.0,3.0,0.337985,0.314311,0.333172,0.315785,0.0,-0.0,-0.0,0.0,0.0,-0.0,0.000485,0.001709,-0.001954,0.023365,0.016078,0.01236
164045,0.000121,0.001465,-0.002076,0.0,0.0,0.0,0.0,0.0,0.0,3.0,0.338128,0.312415,0.333812,0.316813,0.0,-0.0,-0.0,0.0,0.0,-0.0,0.000485,0.001708,-0.001955,0.024717,0.023387,0.011722
164065,0.000243,0.001587,-0.002076,0.0,0.0,0.0,0.0,0.0,0.0,3.0,0.338178,0.309506,0.333871,0.319514,0.0,-0.0,-0.0,0.0,0.0,-0.0,0.000485,0.001708,-0.001955,0.024721,0.037484,0.011712
164085,0.000365,0.001587,-0.001954,0.0,0.0,0.0,0.0,0.0,0.0,3.0,0.348666,0.305312,0.340512,0.30429,0.0,-0.0,-0.0,0.0,0.0,0.0,0.000486,0.001587,-0.002076,0.013167,0.0102,-0.004183
164105,0.000487,0.001343,-0.001832,0.0,0.0,0.0,0.0,0.0,0.0,3.0,0.348704,0.312128,0.335093,0.303541,0.0,-0.0,-0.0,-0.0,0.0,-0.0,0.000487,0.001343,-0.001954,-0.002227,-0.00737,0.000602
164125,0.000487,0.001221,-0.001832,0.0,0.0,0.0,0.0,0.0,0.0,3.0,0.352656,0.314657,0.330445,0.301349,0.0,-0.0,-0.0,0.0,0.0,0.0,0.000366,0.001099,-0.001832,-0.026228,-0.017947,0.000683
164145,0.000731,0.001343,-0.00171,0.0,0.0,0.0,0.0,0.0,0.0,3.0,0.348921,0.316487,0.328765,0.305843,0.0,-0.0,-0.0,-0.0,0.0,-0.0,0.000489,0.0011,-0.001709,-0.02032,-0.011839,0.005623
164165,0.000853,0.001344,-0.00171,0.0,0.0,0.0,0.0,0.0,0.0,3.0,0.347322,0.313427,0.336549,0.302173,0.0,-0.0,-0.0,-0.0,0.0,-0.0,0.000732,0.0011,-0.00171,0.004712,-0.012994,7.9e-05
164185,0.000853,0.001466,-0.00171,0.0,0.0,0.0,0.0,0.0,0.0,3.0,0.34799,0.307435,0.336024,0.308112,0.0,-0.0,-0.0,0.0,0.0,0.0,0.000853,0.001343,-0.00171,0.000707,0.015117,-6e-06
164205,0.000975,0.001466,-0.00171,0.0,0.0,0.0,0.0,0.0,0.0,3.0,0.352624,0.304328,0.345942,0.29383,0.0,-0.0,-0.0,-0.0,0.0,-0.0,0.001097,0.001344,-0.00171,0.01415,-0.011337,-0.013996
164225,0.001098,0.001466,-0.001588,0.0,0.0,0.0,0.0,0.0,0.0,3.0,0.347282,0.315196,0.334664,0.30253,0.0,-0.0,-0.0,-0.0,0.0,0.0,0.001098,0.001222,-0.001588,-0.002206,-0.017331,0.001729
164245,0.00122,0.001344,-0.001466,0.0,0.0,0.0,0.0,0.0,0.0,3.0,0.348001,0.316801,0.335791,0.298623,0.0,-0.0,-0.0,0.0,0.0,-0.0,0.00122,0.001223,-0.001588,-0.001772,-0.030747,4.4e-05
164265,0.001342,0.001222,-0.001466,0.0,0.0,0.0,0.0,0.0,0.0,3.0,0.353307,0.316049,0.331568,0.297752,0.0,-0.0,-0.0,0.0,0.0,-0.0,0.000977,0.000978,-0.001588,-0.028132,-0.029846,-0.001229
164285,0.00122,0.001344,-0.001466,0.0,0.0,0.0,0.0,0.0,0.0,3.0,0.360584,0.306049,0.334818,0.295261,0.0,-0.0,-0.0,-0.0,0.0,-0.0,0.000855,0.0011,-0.001587,-0.040701,-0.01136,-0.011558
164305,0.00122,0.001222,-0.001466,0.0,0.0,0.0,0.0,0.0,0.0,3.0,0.353581,0.314972,0.329094,0.301396,0.0,-0.0,-0.0,-0.0,0.0,0.0,0.000856,0.000978,-0.001466,-0.03527,-0.018615,0.000518
164325,0.001098,0.001344,-0.001466,0.0,0.0,0.0,0.0,0.0,0.0,3.0,0.356221,0.306406,0.337945,0.296818,0.0,-0.0,-0.0,0.0,0.0,0.0,0.000977,0.001222,-0.001465,-0.019303,-0.009267,-0.010285
164345,0.001098,0.001466,-0.001466,0.0,0.0,0.0,0.0,0.0,0.0,3.0,0.338234,0.319821,0.328502,0.314946,0.0,-0.0,-0.0,0.0,0.0,0.0,0.00122,0.001344,-0.001344,0.005986,0.000517,0.015756
164365,0.00122,0.001466,-0.001344,0.0,0.0,0.0,0.0,0.0,0.0,3.0,0.335653,0.320179,0.33155,0.314157,0.0,-0.0,-0.0,-0.0,0.0,0.0,0.001342,0.001466,-0.001344,0.020944,-0.003014,0.015461
164385,0.001464,0.001588,-0.001344,0.0,0.0,0.0,0.0,0.0,0.0,3.0,0.341357,0.308068,0.342129,0.308249,0.0,-0.0,-0.0,-0.0,0.0,0.0,0.001585,0.001587,-0.001344,0.033358,0.012205,0.000184
164405,0.001586,0.001466,-0.001222,0.0,0.0,0.0,0.0,0.0,0.0,3.0,0.345133,0.312938,0.336121,0.305787,0.0,-0.0,-0.0,0.0,0.0,0.0,0.001586,0.001466,-0.001222,0.005417,-0.005423,0.001919
164425,0.001586,0.001344,-0.001222,0.0,0.0,0.0,0.0,0.0,0.0,3.0,0.350945,0.315225,0.332046,0.301035,0.0,-0.0,-0.0,0.0,0.0,0.0,0.001465,0.001222,-0.001222,-0.022445,-0.021592,5.7e-05
164445,0.001708,0.001222,-0.001222,0.0,0.0,0.0,0.0,0.0,0.0,3.0,0.346257,0.318609,0.333145,0.301861,0.0,-0.0,-0.0,0.0,0.0,0.0,0.001587,0.001101,-0.001222,-0.006272,-0.027783,0.003709
164465,0.00183,0.001222,-0.001222,0.0,0.0,0.0,0.0,0.0,0.0,3.0,0.348006,0.312849,0.335287,0.303409,0.0,-0.0,-0.0,-0.0,0.0,0.0,0.001709,0.001223,-0.001222,-0.006058,-0.01005,6.3e-05
164485,0.001952,0.001344,-0.001222,0.0,0.0,0.0,0.0,0.0,0.0,3.0,0.345769,0.311522,0.337743,0.304639,0.0,-0.0,-0.0,0.0,0.0,0.0,0.001953,0.001222,-0.001222,0.006166,-0.003822,0.0
164505,0.001952,0.001344,-0.001222,0.0,0.0,0.0,0.0,0.0,0.0,3.0,0.340888,0.313015,0.336467,0.310232,0.0,-0.0,-0.0,0.0,0.0,0.0,0.002074,0.001588,-0.0011,0.015992,0.004438,0.005581
164525,0.00183,0.001466,-0.001222,0.0,0.0,0.0,0.0,0.0,0.0,3.0,0.334667,0.316479,0.332395,0.318059,0.0,-0.0,0.0,0.0,0.0,0.0,0.002073,0.00171,-0.001101,0.022107,0.014804,0.015297
164545,0.00183,0.001588,-0.001222,0.0,0.0,0.0,0.0,0.0,0.0,3.0,0.342976,0.303844,0.341276,0.31152,0.0,-0.0,0.0,0.0,0.0,0.0,0.002073,0.001831,-0.001223,0.023435,0.02896,-0.000488
164565,0.00183,0.001588,-0.001344,0.0,0.0,0.0,0.0,0.0,0.0,3.0,0.34287,0.306332,0.344798,0.305119,0.0,-0.0,0.0,0.0,0.0,0.0,0.002072,0.00171,-0.001223,0.033772,0.007665,-0.003723
164585,0.00183,0.001466,-0.001222,0.0,0.0,0.0,0.0,0.0,0.0,3.0,0.344945,0.311259,0.337604,0.306043,0.0,-0.0,0.0,-0.0,0.0,0.0,0.001951,0.00171,-0.001223,0.007716,-0.002307,0.001206
164605,0.00183,0.001588,-0.001222,0.0,0.0,0.0,0.0,0.0,0.0,3.0,0.34425,0.312101,0.339634,0.303653,0.0,-0.0,0.0,-0.0,0.0,0.0,0.001952,0.001589,-0.001222,0.015369,-0.009725,1.3e-05
164625,0.001952,0.00171,-0.001223,0.0,0.0,0.0,0.0,0.0,0.0,3.0,0.344559,0.313624,0.33548,0.306482,0.0,-0.0,0.0,0.0,0.0,0.0,0.00183,0.001589,-0.001222,0.00325,-0.006767,0.003686
164645,0.001952,0.001832,-0.001223,0.0,0.0,0.0,0.0,0.0,0.0,3.0,0.3569,0.301325,0.34361,0.294336,0.0,-0.0,0.0,-0.0,0.0,0.0,0.001709,0.001711,-0.001344,-0.009769,-0.006063,-0.015843
164665,0.002074,0.001955,-0.001345,0.0,0.0,0.0,0.0,0.0,0.0,3.0,0.356235,0.304062,0.343962,0.291903,0.0,-0.0,0.0,-0.0,0.0,0.0,0.001831,0.001712,-0.001344,-0.007374,-0.018275,-0.015452
164685,0.002074,0.001955,-0.001345,0.0,0.0,0.0,0.0,0.0,0.0,3.0,0.348504,0.313687,0.336098,0.300985,0.0,-0.0,0.0,0.0,0.0,-0.0,0.001953,0.001834,-0.001345,-0.007325,-0.02149,-0.000189
164705,0.001952,0.001832,-0.001345,0.0,0.0,0.0,0.0,0.0,0.0,3.0,0.345503,0.317249,0.335135,0.301943,0.0,-0.0,0.0,-0.0,0.0,-0.0,0.001952,0.001711,-0.001345,-0.001345,-0.027786,0.003708
164725,0.00183,0.001588,-0.001344,0.0,0.0,0.0,0.0,0.0,0.0,3.0,0.337448,0.31732,0.332394,0.314193,0.0,-0.0,0.0,0.0,0.0,-0.0,0.001952,0.00171,-0.001345,0.013982,0.002025,0.014029
164745,0.001586,0.001466,-0.001466,0.0,0.0,0.0,0.0,0.0,0.0,3.0,0.346182,0.306185,0.344569,0.301602,0.0,-0.0,0.0,-0.0,0.0,-0.0,0.001829,0.001588,-0.001467,0.023837,-0.000605,-0.005418
164765,0.001464,0.001588,-0.001466,0.0,0.0,0.0,0.0,0.0,0.0,3.0,0.353229,0.299647,0.346376,0.297344,0.0,-0.0,0.0,0.0,0.0,-0.0,0.001585,0.001588,-0.001466,0.009322,0.004951,-0.014077
164785,0.001464,0.00171,-0.001466,0.0,0.0,0.0,0.0,0.0,0.0,3.0,0.348019,0.304445,0.337376,0.309509,0.0,-0.0,0.0,0.0,0.0,0.0,0.001464,0.001832,-0.001466,-0.000537,0.021571,-0.000214
164805,0.001464,0.001954,-0.001344,0.0,0.0,0.0,0.0,0.0,0.0,3.0,0.348268,0.306612,0.336968,0.307539,0.0,-0.0,0.0,-0.0,0.0,-0.0,0.001341,0.001955,-0.001466,-0.001931,0.01084,-8e-06
164825,0.001585,0.002076,-0.001467,0.0,0.0,0.0,0.0,0.0,0.0,3.0,0.352699,0.309351,0.333646,0.303199,0.0,-0.0,0.0,-0.0,0.0,-0.0,0.001221,0.001955,-0.001466,-0.023816,-0.006495,-0.001232
164845,0.001707,0.002199,-0.001467,0.0,0.0,0.0,0.0,0.0,0.0,3.0,0.356959,0.306251,0.338798,0.295002,0.0,-0.0,0.0,-0.0,0.0,0.0,0.001343,0.001956,-0.001466,-0.02282,-0.018299,-0.01029
164865,0.001708,0.002076,-0.001345,0.0,0.0,0.0,0.0,0.0,0.0,3.0,0.350966,0.31354,0.327921,0.307383,0.0,-0.0,0.0,0.0,0.0,0.0,0.001343,0.002077,-0.001344,-0.035022,-0.007522,0.005494
164885,0.001464,0.001954,-0.001467,0.0,0.0,0.0,0.0,0.0,0.0,3.0,0.358234,0.306432,0.339484,0.292309,0.0,-0.0,0.0,0.0,0.0,0.0,0.001343,0.001833,-0.001466,-0.024892,-0.024566,-0.012109
164905,0.001464,0.00171,-0.001466,0.0,0.0,0.0,0.0,0.0,0.0,3.0,0.355888,0.304523,0.335739,0.30177,0.0,-0.0,0.0,0.0,0.0,-0.0,0.00122,0.001832,-0.001589,-0.027835,0.002054,-0.005747
164925,0.001219,0.00171,-0.001588,0.0,0.0,0.0,0.0,0.0,0.0,3.0,0.351893,0.304423,0.335384,0.307174,0.0,-0.0,0.0,-0.0,0.0,-0.0,0.00122,0.001832,-0.001588,-0.016918,0.015267,-0.001335
164945,0.001219,0.001832,-0.001466,0.0,0.0,0.0,0.0,0.0,0.0,3.0,0.348319,0.303114,0.335389,0.312657,0.0,-0.0,0.0,0.0,0.0,-0.0,0.001097,0.001953,-0.001466,-0.005857,0.031367,0.001886
164965,0.001219,0.002076,-0.001466,0.0,0.0,0.0,0.0,0.0,0.0,3.0,0.348539,0.297728,0.33724,0.315436,0.0,-0.0,0.0,0.0,0.0,-0.0,0.001097,0.002319,-0.001466,-0.001377,0.04942,0.0
164985,0.001219,0.002198,-0.001589,0.0,0.0,0.0,0.0,0.0,0.0,3.0,0.352074,0.303037,0.336025,0.307598,0.0,-0.0,0.0,0.0,0.0,-0.0,0.001097,0.00232,-0.001589,-0.015285,0.017196,-0.001909
165005,0.001219,0.002198,-0.001466,0.0,0.0,0.0,0.0,0.0,0.0,3.0,0.353319,0.30526,0.332714,0.30762,0.0,-0.0,-0.0,-0.0,0.0,-0.0,0.000976,0.00232,-0.001588,-0.0277,0.011789,-1e-06
165025,0.001341,0.002076,-0.001467,0.0,0.0,0.0,0.0,0.0,0.0,3.0,0.353877,0.307591,0.333515,0.303701,0.0,-0.0,-0.0,0.0,0.0,-0.0,0.000976,0.002076,-0.001588,-0.027211,-0.002424,-0.001232
165045,0.001341,0.001954,-0.001589,0.0,0.0,0.0,0.0,0.0,0.0,3.0,0.350091,0.310611,0.331225,0.307784,0.0,-0.0,-0.0,-0.0,0.0,-0.0,0.001098,0.002076,-0.001466,-0.022864,-5.2e-05,0.004344
165065,0.001219,0.001832,-0.001588,0.0,0.0,0.0,0.0,0.0,0.0,3.0,0.351776,0.305496,0.335228,0.306426,0.0,-0.0,-0.0,-0.0,0.0,-0.0,0.001098,0.001953,-0.001588,-0.016846,0.00964,-0.000586
165085,0.001097,0.00171,-0.001588,0.0,0.0,0.0,0.0,0.0,0.0,3.0,0.34955,0.302451,0.337055,0.310009,0.0,-0.0,-0.0,-0.0,0.0,-0.0,0.001097,0.001953,-0.001588,-0.0052,0.025694,-1.8e-05
165105,0.000975,0.00171,-0.001588,0.0,0.0,0.0,0.0,0.0,0.0,3.0,0.349453,0.299788,0.341117,0.308083,0.0,-0.0,-0.0,-0.0,0.0,-0.0,0.001096,0.001953,-0.001588,0.006531,0.027192,-0.003703
165125,0.000975,0.00171,-0.001588,0.0,0.0,0.0,0.0,0.0,0.0,3.0,0.346472,0.294728,0.344315,0.312668,0.0,-0.0,-0.0,-0.0,0.0,-0.0,0.001218,0.002074,-0.001589,0.023846,0.049759,-0.003782
165145,0.001097,0.001954,-0.001588,0.0,0.0,0.0,0.0,0.0,0.0,3.0,0.342459,0.301444,0.344604,0.310622,-0.0,-0.0,-0.0,-0.0,0.0,-0.0,0.001339,0.002075,-0.001589,0.035679,0.028815,-0.000103
165165,0.001219,0.001954,-0.001588,0.0,0.0,0.0,0.0,0.0,0.0,3.0,0.341417,0.304411,0.334821,0.319805,-0.0,-0.0,-0.0,-0.0,0.0,-0.0,0.001218,0.002319,-0.001589,0.011397,0.043791,0.010271
165185,0.001097,0.001954,-0.001588,0.0,0.0,0.0,0.0,0.0,0.0,3.0,0.3479,0.303056,0.338996,0.309172,-0.0,-0.0,-0.0,-0.0,0.0,0.0,0.001096,0.002075,-0.001588,0.004857,0.021189,0.000132
165205,0.001219,0.001832,-0.001588,0.0,0.0,0.0,0.0,0.0,0.0,3.0,0.351709,0.303104,0.33912,0.304432,-0.0,-0.0,-0.0,0.0,0.0,0.0,0.000975,0.001953,-0.001588,-0.005536,0.009953,-0.00368
165225,0.000975,0.001588,-0.001588,0.0,0.0,0.0,0.0,0.0,0.0,3.0,0.351149,0.306677,0.335926,0.305208,-0.0,-0.0,-0.0,0.0,0.0,0.0,0.000976,0.001709,-0.001588,-0.012909,0.004188,-4.2e-05
165245,0.001097,0.001588,-0.001588,0.0,0.0,0.0,0.0,0.0,0.0,3.0,0.346203,0.304334,0.341127,0.307479,-0.0,-0.0,-0.0,0.0,0.0,0.0,0.001097,0.00171,-0.001588,0.015711,0.015327,-2.2e-05
165265,0.00122,0.00171,-0.001466,0.0,0.0,0.0,0.0,0.0,0.0,3.0,0.340735,0.30499,0.335902,0.318853,-0.0,-0.0,-0.0,0.0,0.0,0.0,0.001219,0.001831,-0.001589,0.016102,0.041688,0.010272
165285,0.001219,0.001832,-0.001588,0.0,0.0,0.0,0.0,0.0,0.0,3.0,0.347328,0.298847,0.345128,0.30685,-0.0,-0.0,-0.0,-0.0,0.0,0.0,0.00134,0.001831,-0.001589,0.022735,0.02617,-0.004831
165305,0.001219,0.00171,-0.001588,0.0,0.0,0.0,0.0,0.0,0.0,3.0,0.343417,0.300258,0.341871,0.313768,-0.0,-0.0,-0.0,-0.0,0.0,0.0,0.001462,0.002075,-0.001467,0.024091,0.038826,0.001801
165325,0.001097,0.001832,-0.001466,0.0,0.0,0.0,0.0,0.0,0.0,3.0,0.333409,0.313056,0.335326,0.319642,-0.0,-0.0,-0.0,0.0,0.0,0.0,0.001462,0.001953,-0.001345,0.033789,0.023045,0.017148
165345,0.001097,0.00171,-0.001466,0.0,0.0,0.0,0.0,0.0,0.0,3.0,0.340205,0.305243,0.336773,0.318256,-0.0,-0.0,-0.0,0.0,0.0,0.0,0.00134,0.002075,-0.001467,0.019263,0.03812,0.009854
165365,0.001097,0.001832,-0.001588,0.0,0.0,0.0,0.0,0.0,0.0,3.0,0.347649,0.299263,0.345761,0.30532,-0.0,-0.0,0.0,-0.0,0.0,-0.0,0.00134,0.001831,-0.001589,0.023393,0.02113,-0.005489
165385,0.00122,0.00171,-0.001466,0.0,0.0,0.0,0.0,0.0,0.0,3.0,0.346121,0.306643,0.339378,0.307295,-0.0,-0.0,0.0,-0.0,0.0,-0.0,0.001341,0.001709,-0.001466,0.009476,0.0087,0.001828
165405,0.001098,0.001832,-0.001222,0.0,0.0,0.0,0.0,0.0,0.0,3.0,0.3399,0.318197,0.327811,0.315487,-0.0,-0.0,-0.0,-0.0,0.0,-0.0,0.00122,0.00171,-0.001222,-0.004186,0.000112,0.017853
165425,0.001098,0.00171,-0.001222,0.0,0.0,0.0,0.0,0.0,0.0,3.0,0.349128,0.311414,0.337236,0.301292,-0.0,-0.0,-0.0,0.0,0.0,-0.0,0.001098,0.001588,-0.001222,-0.004384,-0.017168,0.000264
165445,0.001098,0.001954,-0.001222,0.0,0.0,0.0,0.0,0.0,0.0,3.0,0.3533,0.299689,0.339513,0.305401,-0.0,-0.0,-0.0,0.0,0.0,0.0,0.001098,0.001832,-0.001344,-0.010387,0.019998,-0.005597
165465,0.001097,0.001832,-0.001344,0.0,0.0,0.0,0.0,0.0,0.0,3.0,0.35151,0.307772,0.340832,0.297898,-0.0,-0.0,-0.0,0.0,0.0,0.0,0.00122,0.00171,-0.001344,-0.001907,-0.016885,-0.005008
165485,0.000976,0.001832,-0.001222,0.0,0.0,0.0,0.0,0.0,0.0,3.0,0.347963,0.306325,0.33696,0.308191,-0.0,-0.0,-0.0,0.0,0.0,-0.0,0.00122,0.001831,-0.001222,-0.002452,0.010724,0.001843
165505,0.000854,0.00171,-0.001222,0.0,0.0,0.0,0.0,0.0,0.0,3.0,0.336637,0.318143,0.333184,0.313394,-0.0,-0.0,-0.0,0.0,0.0,-0.0,0.001218,0.001709,-0.0011,0.01944,-0.005442,0.01592
165525,0.000854,0.001465,-0.001222,0.0,0.0,0.0,0.0,0.0,0.0,3.0,0.347337,0.308925,0.34013,0.302664,-0.0,-0.0,-0.0,-0.0,0.0,-0.0,0.001097,0.001465,-0.001222,0.008776,-0.007583,-0.000433
165545,0.000731,0.001587,-0.001222,0.0,0.0,0.0,0.0,0.0,0.0,3.0,0.344652,0.308852,0.342488,0.303181,-0.0,-0.0,-0.0,-0.0,0.0,-0.0,0.001097,0.001343,-0.001222,0.023268,-0.005687,-1.9e-05
165565,0.000976,0.001466,-0.001222,0.0,0.0,0.0,0.0,0.0,0.0,3.0,0.348989,0.313579,0.338062,0.298196,-0.0,-0.0,-0.0,-0.0,0.0,-0.0,0.000976,0.001222,-0.001222,-0.001467,-0.028815,1.5e-05
165585,0.000976,0.00171,-0.0011,0.0,0.0,0.0,0.0,0.0,0.0,3.0,0.35837,0.304464,0.339058,0.294729,-0.0,-0.0,-0.0,-0.0,0.0,-0.0,0.000855,0.001344,-0.001221,-0.026233,-0.015013,-0.010284
165605,0.001098,0.00171,-0.0011,0.0,0.0,0.0,0.0,0.0,0.0,3.0,0.359025,0.305546,0.339887,0.29171,-0.0,-0.0,-0.0,-0.0,0.0,-0.0,0.000855,0.001345,-0.001221,-0.025925,-0.02462,-0.011687
165625,0.001098,0.001832,-0.0011,0.0,0.0,0.0,0.0,0.0,0.0,3.0,0.365164,0.303281,0.337123,0.289255,-0.0,-0.0,-0.0,0.0,0.0,-0.0,0.000612,0.001344,-0.001221,-0.051633,-0.024772,-0.015371
165645,0.001098,0.00171,-0.0011,0.0,0.0,0.0,0.0,0.0,0.0,3.0,0.360741,0.304217,0.342079,0.288092,-0.0,-0.0,-0.0,0.0,0.0,-0.0,0.000733,0.001344,-0.001221,-0.02447,-0.0297,-0.015439
165665,0.001098,0.001832,-0.0011,0.0,0.0,0.0,0.0,0.0,0.0,3.0,0.359569,0.307058,0.337097,0.29279,-0.0,-0.0,-0.0,-0.0,0.0,-0.0,0.000734,0.001466,-0.001099,-0.035049,-0.026598,-0.009833
165685,0.000976,0.001832,-0.0011,0.0,0.0,0.0,0.0,0.0,0.0,3.0,0.350969,0.309869,0.336054,0.302021,-0.0,-0.0,-0.0,0.0,0.0,0.0,0.000854,0.001588,-0.0011,-0.012667,-0.012558,-0.000125
165705,0.000853,0.001832,-0.001222,0.0,0.0,0.0,0.0,0.0,0.0,3.0,0.352951,0.306016,0.336305,0.303245,-0.0,-0.0,-0.0,0.0,0.0,-0.0,0.000732,0.001709,-0.001222,-0.017348,-0.000793,-0.001903
165725,0.000731,0.001832,-0.001222,0.0,0.0,0.0,0.0,0.0,0.0,3.0,0.349972,0.311286,0.337506,0.300074,-0.0,-0.0,-0.0,0.0,0.0,0.0,0.000731,0.001588,-0.001222,-0.005174,-0.020862,-1.4e-05
165745,0.000731,0.001954,-0.001222,0.0,0.0,0.0,0.0,0.0,0.0,3.0,0.350735,0.310817,0.334267,0.30338,-0.0,-0.0,-0.0,-0.0,0.0,-0.0,0.00061,0.001832,-0.001099,-0.015968,-0.012981,0.001935
165765,0.000731,0.002076,-0.0011,0.0,0.0,0.0,0.0,0.0,0.0,3.0,0.353004,0.315852,0.328514,0.301827,-0.0,-0.0,-0.0,-0.0,0.0,0.0,0.000489,0.001832,-0.001099,-0.037987,-0.029447,0.005016
165785,0.000731,0.002198,-0.001222,0.0,0.0,0.0,0.0,0.0,0.0,3.0,0.359048,0.307824,0.329752,0.301272,-0.0,-0.0,-0.0,0.0,0.0,0.0,0.000245,0.001954,-0.001221,-0.051803,-0.01136,-0.001793
165805,0.000731,0.00232,-0.001222,0.0,0.0,0.0,0.0,0.0,0.0,3.0,0.366263,0.305607,0.337338,0.284931,-0.0,-0.0,-0.0,-0.0,0.0,-0.0,0.000123,0.001833,-0.001343,-0.052597,-0.042919,-0.015873
165825,0.000731,0.00232,-0.001222,0.0,0.0,0.0,0.0,0.0,0.0,3.0,0.364756,0.305541,0.332175,0.293397,-0.0,-0.0,-0.0,-0.0,0.0,-0.0,0.000124,0.001954,-0.00122,-0.062269,-0.024384,-0.009809
165845,0.000731,0.00232,-0.0011,0.0,0.0,0.0,0.0,0.0,0.0,3.0,0.358761,0.306204,0.339498,0.291837,-0.0,-0.0,-0.0,0.0,0.0,0.0,0.000489,0.002077,-0.001221,-0.024995,-0.030203,-0.010415
165865,0.000853,0.002564,-0.001222,0.0,0.0,0.0,0.0,0.0,0.0,3.0,0.358158,0.300041,0.341543,0.296554,-0.0,-0.0,-0.0,0.0,0.0,0.0,0.00061,0.002321,-0.001221,-0.017912,-0.005748,-0.011696
165885,0.000853,0.002564,-0.001344,0.0,0.0,0.0,0.0,0.0,0.0,3.0,0.358709,0.296588,0.345937,0.293928,-0.0,-0.0,-0.0,0.0,0.0,0.0,0.000732,0.002442,-0.001344,-0.007507,-0.004371,-0.016064
165905,0.000731,0.002686,-0.001344,0.0,0.0,0.0,0.0,0.0,0.0,3.0,0.348792,0.305195,0.339889,0.30498,0.0,-0.0,-0.0,0.0,0.0,0.0,0.000853,0.002564,-0.001344,0.004227,0.000598,-0.000232
165925,0.000609,0.002564,-0.001344,0.0,0.0,0.0,0.0,0.0,0.0,3.0,0.357493,0.300874,0.341361,0.296784,0.0,-0.0,-0.0,0.0,0.0,0.0,0.000609,0.002564,-0.001343,-0.016511,-0.008623,-0.010288
165945,0.000487,0.002564,-0.001344,0.0,0.0,0.0,0.0,0.0,0.0,3.0,0.354904,0.303145,0.344316,0.294159,0.0,-0.0,-0.0,0.0,0.0,0.0,0.000609,0.002442,-0.001343,-0.000232,-0.019703,-0.010451
165965,0.000853,0.002564,-0.001344,0.0,0.0,0.0,0.0,0.0,0.0,3.0,0.348471,0.308474,0.340326,0.301524,0.0,-0.0,-0.0,0.0,0.0,0.0,0.000731,0.002442,-0.001344,0.006865,-0.015522,-0.000153
165985,0.00073,0.002686,-0.001466,0.0,0.0,0.0,0.0,0.0,0.0,3.0,0.356012,0.302241,0.33858,0.300604,0.0,-0.0,-0.0,0.0,0.0,-0.0,0.00061,0.002564,-0.001466,-0.020023,-0.003258,-0.005574
166005,0.000853,0.002686,-0.001466,0.0,0.0,0.0,0.0,0.0,0.0,3.0,0.36177,0.296207,0.347539,0.288188,0.0,-0.0,-0.0,-0.0,0.0,-0.0,0.000609,0.002442,-0.001588,-0.011867,-0.017214,-0.019646
166025,0.000853,0.002686,-0.001466,0.0,0.0,0.0,0.0,0.0,0.0,3.0,0.358133,0.299171,0.341003,0.298117,0.0,-0.0,-0.0,0.0,0.0,-0.0,0.00061,0.002686,-0.001465,-0.019636,-0.002623,-0.009903
166045,0.000853,0.002564,-0.001344,0.0,0.0,0.0,0.0,0.0,0.0,3.0,0.34464,0.320771,0.327458,0.30782,0.0,-0.0,-0.0,0.0,0.0,-0.0,0.000732,0.002443,-0.001344,-0.017779,-0.031867,0.015801
166065,0.000853,0.002442,-0.001466,0.0,0.0,0.0,0.0,0.0,0.0,3.0,0.352523,0.304164,0.338448,0.303159,0.0,-0.0,-0.0,-0.0,0.0,0.0,0.000609,0.002442,-0.001466,-0.010061,-0.001716,-0.001681
166085,0.000731,0.002198,-0.001466,0.0,0.0,0.0,0.0,0.0,0.0,3.0,0.353013,0.305824,0.34012,0.298891,0.0,-0.0,-0.0,-0.0,0.0,0.0,0.000732,0.002197,-0.001466,-0.00737,-0.014905,-0.003692
166105,0.000609,0.001954,-0.001466,0.0,0.0,0.0,0.0,0.0,0.0,3.0,0.350978,0.307108,0.336031,0.304861,0.0,-0.0,-0.0,-0.0,0.0,0.0,0.000609,0.002198,-0.001344,-0.012327,-0.003895,0.00188
166125,0.000487,0.001954,-0.001343,0.0,0.0,0.0,0.0,0.0,0.0,3.0,0.346325,0.306754,0.337694,0.30886,0.0,-0.0,-0.0,-0.0,0.0,0.0,0.000731,0.002075,-0.001344,0.005423,0.007181,0.00496
166145,0.000609,0.001709,-0.001344,0.0,0.0,0.0,0.0,0.0,0.0,3.0,0.344475,0.313086,0.333893,0.308911,0.0,-0.0,-0.0,-0.0,0.0,0.0,0.000609,0.001953,-0.001344,0.000695,-0.007917,0.010379
166165,0.000487,0.001709,-0.001343,0.0,0.0,0.0,0.0,0.0,0.0,3.0,0.34893,0.299498,0.344064,0.305562,-0.0,-0.0,-0.0,-0.0,0.0,0.0,0.000731,0.00183,-0.001344,0.0159,0.017444,-0.003554
166185,0.000732,0.001465,-0.001221,0.0,0.0,0.0,0.0,0.0,0.0,3.0,0.348245,0.307592,0.338766,0.304522,-0.0,-0.0,-0.0,0.0,0.0,0.0,0.000732,0.001709,-0.001221,0.00275,-0.004085,0.001867
166205,0.000731,0.001587,-0.001222,0.0,0.0,0.0,0.0,0.0,0.0,3.0,0.343078,0.316007,0.328668,0.313239,-0.0,-0.0,-0.0,0.0,0.0,0.0,0.000732,0.001587,-0.0011,-0.010256,-0.003144,0.015943
166225,0.000854,0.001588,-0.001222,0.0,0.0,0.0,0.0,0.0,0.0,3.0,0.348901,0.308251,0.340619,0.300883,-0.0,-0.0,-0.0,0.0,0.0,0.0,0.000854,0.001588,-0.001222,0.005459,-0.01403,-0.000429
166245,0.000732,0.001343,-0.001221,0.0,0.0,0.0,0.0,0.0,0.0,3.0,0.353497,0.307656,0.335371,0.301977,-0.0,-0.0,-0.0,0.0,0.0,0.0,0.000733,0.001465,-0.001221,-0.022452,-0.009492,1.4e-05
166265,0.000854,0.001221,-0.001221,0.0,0.0,0.0,0.0,0.0,0.0,3.0,0.348759,0.305925,0.340435,0.30365,0.0,-0.0,0.0,0.0,0.0,0.0,0.000854,0.001343,-0.001221,0.005278,-0.000782,-3e-06
166285,0.000854,0.001099,-0.001099,0.0,0.0,0.0,0.0,0.0,0.0,3.0,0.347452,0.30549,0.339431,0.306812,0.0,-0.0,0.0,0.0,0.0,0.0,0.000976,0.001343,-0.001099,0.005667,0.007879,0.001908
166305,0.000732,0.001343,-0.001099,0.0,0.0,0.0,0.0,0.0,0.0,3.0,0.344596,0.301944,0.344378,0.307935,0.0,-0.0,0.0,0.0,0.0,0.0,0.001097,0.001465,-0.0011,0.027543,0.018557,-2e-06
166325,0.000854,0.001221,-0.001099,0.0,0.0,0.0,0.0,0.0,0.0,3.0,0.336832,0.306918,0.341463,0.315206,0.0,-0.0,0.0,-0.0,0.0,0.0,0.001218,0.001586,-0.0011,0.040688,0.024071,0.010268
166345,0.000854,0.001221,-0.001221,0.0,0.0,0.0,0.0,0.0,0.0,3.0,0.335456,0.308075,0.342706,0.314197,0.0,-0.0,0.0,-0.0,0.0,0.0,0.00134,0.001464,-0.0011,0.047504,0.019165,0.010415
166365,0.000854,0.001099,-0.001099,0.0,0.0,0.0,0.0,0.0,0.0,3.0,0.333529,0.315015,0.337017,0.315759,-0.0,-0.0,0.0,0.0,0.0,0.0,0.00134,0.001465,-0.000978,0.036653,0.00575,0.01729
166385,0.000976,0.001343,-0.000977,0.0,0.0,0.0,0.0,0.0,0.0,3.0,0.33332,0.313579,0.336774,0.31767,0.0,-0.0,0.0,-0.0,0.0,0.0,0.00134,0.001465,-0.000856,0.036494,0.014182,0.017379
166405,0.00122,0.001466,-0.000978,0.0,0.0,0.0,0.0,0.0,0.0,3.0,0.344966,0.305249,0.344308,0.304316,-0.0,-0.0,0.0,-0.0,0.0,0.0,0.001341,0.001466,-0.000978,0.024916,0.001473,-0.00043
166425,0.001342,0.001588,-0.0011,0.0,0.0,0.0,0.0,0.0,0.0,3.0,0.350035,0.305009,0.344962,0.297607,-0.0,-0.0,0.0,-0.0,0.0,0.0,0.001341,0.001466,-0.0011,0.011926,-0.01396,-0.005604
166445,0.001464,0.001588,-0.0011,0.0,0.0,0.0,0.0,0.0,0.0,3.0,0.349816,0.310837,0.337025,0.301299,-0.0,-0.0,0.0,0.0,0.0,0.0,0.001343,0.001589,-0.000978,-0.010128,-0.020165,0.001862
166465,0.001464,0.001832,-0.000978,0.0,0.0,0.0,0.0,0.0,0.0,3.0,0.34789,0.308982,0.335776,0.306959,-0.0,-0.0,0.0,0.0,0.0,0.0,0.001343,0.001833,-0.000978,-0.008027,-0.00309,0.004978
166485,0.001342,0.00171,-0.000978,0.0,0.0,0.0,0.0,0.0,0.0,3.0,0.351412,0.309332,0.337322,0.300557,-0.0,-0.0,0.0,0.0,0.0,0.0,0.00122,0.001711,-0.000978,-0.013592,-0.018906,9.3e-05
166505,0.00122,0.001832,-0.0011,0.0,0.0,0.0,0.0,0.0,0.0,3.0,0.359631,0.297515,0.345786,0.291954,-0.0,-0.0,0.0,-0.0,0.0,0.0,0.001098,0.00171,-0.001099,-0.013686,-0.010578,-0.015889
166525,0.001098,0.001832,-0.0011,0.0,0.0,0.0,0.0,0.0,0.0,3.0,0.349527,0.308002,0.343962,0.296339,-0.0,-0.0,0.0,-0.0,0.0,0.0,0.001219,0.001711,-0.0011,0.010781,-0.025702,-0.003901
166545,0.001098,0.001832,-0.0011,0.0,0.0,0.0,0.0,0.0,0.0,3.0,0.352027,0.297924,0.348113,0.298445,-0.0,-0.0,0.0,-0.0,0.0,0.0,0.001219,0.001954,-0.001099,0.015393,0.002221,-0.010379
166565,0.000976,0.00171,-0.0011,0.0,0.0,0.0,0.0,0.0,0.0,3.0,0.345719,0.306525,0.34406,0.302421,-0.0,-0.0,0.0,0.0,0.0,0.0,0.001218,0.001955,-0.0011,0.0221,-0.009005,-0.000165
166585,0.000976,0.001588,-0.0011,0.0,0.0,0.0,0.0,0.0,0.0,3.0,0.338259,0.30883,0.340698,0.312625,-0.0,-0.0,0.0,0.0,0.0,0.0,0.001218,0.001831,-0.001101,0.033765,0.010798,0.010272
166605,0.001098,0.001466,-0.001222,0.0,0.0,0.0,0.0,0.0,0.0,3.0,0.3407,0.302658,0.348848,0.306491,-0.0,-0.0,0.0,0.0,0.0,0.0,0.00134,0.001709,-0.0011,0.049828,0.011095,0.0001
166625,0.001098,0.001221,-0.001222,0.0,0.0,0.0,0.0,0.0,0.0,3.0,0.353944,0.296758,0.35109,0.293444,-0.0,-0.0,0.0,0.0,0.0,0.0,0.001218,0.001465,-0.001221,0.01824,-0.004815,-0.014655
166645,0.001098,0.001343,-0.0011,0.0,0.0,0.0,0.0,0.0,0.0,3.0,0.335231,0.313892,0.338168,0.313768,-0.0,-0.0,0.0,-0.0,0.0,0.0,0.00134,0.001466,-0.0011,0.034374,0.002466,0.015675
166665,0.00122,0.001343,-0.000978,0.0,0.0,0.0,0.0,0.0,0.0,3.0,0.342712,0.308928,0.343141,0.30463,-0.0,-0.0,0.0,-0.0,0.0,0.0,0.001341,0.001344,-0.0011,0.027316,-0.007236,0.003889
166685,0.00122,0.001343,-0.000978,0.0,0.0,0.0,0.0,0.0,0.0,3.0,0.347791,0.306462,0.343364,0.300811,-0.0,-0.0,0.0,0.0,0.0,0.0,0.00122,0.001344,-0.0011,0.013726,-0.010406,-0.001211
166705,0.00122,0.001221,-0.000977,0.0,0.0,0.0,0.0,0.0,0.0,3.0,0.347208,0.312933,0.341671,0.296765,-0.0,-0.0,0.0,0.0,0.0,0.0,0.00122,0.001101,-0.000977,0.01052,-0.034901,0.000652
166725,0.001098,0.000977,-0.000977,0.0,0.0,0.0,0.0,0.0,0.0,3.0,0.351462,0.311254,0.337957,0.297722,-0.0,-0.0,0.0,-0.0,0.0,0.0,0.001099,0.000978,-0.000977,-0.012061,-0.027978,3.1e-05
166745,0.00122,0.000977,-0.000855,0.0,0.0,0.0,0.0,0.0,0.0,3.0,0.338501,0.324322,0.330064,0.308253,-0.0,-0.0,0.0,-0.0,0.0,0.0,0.001099,0.000735,-0.000855,0.003535,-0.035161,0.019608
166765,0.00122,0.000855,-0.000855,0.0,0.0,0.0,0.0,0.0,0.0,3.0,0.344359,0.319068,0.329801,0.30738,-0.0,-0.0,0.0,-0.0,0.0,0.0,0.000977,0.000734,-0.000856,-0.01342,-0.023652,0.014284
166785,0.001342,0.000977,-0.000855,0.0,0.0,0.0,0.0,0.0,0.0,3.0,0.352544,0.302067,0.350846,0.290069,-0.0,-0.0,0.0,0.0,0.0,0.0,0.001342,0.000734,-0.000855,0.020711,-0.022197,-0.013784
166805,0.001465,0.000855,-0.000733,0.0,0.0,0.0,0.0,0.0,0.0,3.0,0.345158,0.311397,0.342053,0.300449,-0.0,-0.0,0.0,0.0,0.0,0.0,0.001464,0.000856,-0.000733,0.016205,-0.021534,0.001729
166825,0.001343,0.000855,-0.000733,0.0,0.0,0.0,0.0,0.0,0.0,3.0,0.344488,0.309601,0.340703,0.304703,-0.0,-0.0,0.0,0.0,0.0,0.0,0.001464,0.000856,-0.000733,0.014222,-0.006931,0.003704
166845,0.001343,0.000855,-0.000611,0.0,0.0,0.0,0.0,0.0,0.0,3.0,0.347223,0.303945,0.341785,0.305896,-0.0,-0.0,0.0,-0.0,0.0,-0.0,0.001342,0.000978,-0.000733,0.009851,0.009182,4e-05
166865,0.001221,0.000611,-0.000611,0.0,0.0,0.0,0.0,0.0,0.0,3.0,0.34903,0.306903,0.345135,0.296676,-0.0,-0.0,0.0,-0.0,0.0,0.0,0.001342,0.000611,-0.000733,0.014136,-0.018343,-0.004935
166885,0.001343,0.000611,-0.000611,0.0,0.0,0.0,0.0,0.0,0.0,3.0,0.350363,0.30472,0.337621,0.306179,-0.0,-0.0,0.0,0.0,0.0,0.0,0.001221,0.000733,-0.000611,-0.010766,0.009018,0.000586
166905,0.001465,0.000855,-0.000489,0.0,0.0,0.0,0.0,0.0,0.0,3.0,0.344961,0.310857,0.337534,0.306514,-0.0,-0.0,0.0,0.0,0.0,0.0,0.001343,0.000734,-0.000489,0.004186,-0.005245,0.005609
166925,0.001465,0.000733,-0.000367,0.0,0.0,0.0,0.0,0.0,0.0,3.0,0.345517,0.313578,0.327821,0.313814,-0.0,-0.0,0.0,-0.0,0.0,0.0,0.001222,0.000733,-0.000489,-0.023733,0.006009,0.014074
166945,0.001343,0.000489,-0.000367,0.0,0.0,0.0,0.0,0.0,0.0,3.0,0.358345,0.302476,0.345231,0.289186,-0.0,-0.0,0.0,0.0,0.0,0.0,0.001221,0.00049,-0.000488,-0.013166,-0.024359,-0.015034
166965,0.001343,0.000366,-0.000367,0.0,0.0,0.0,0.0,0.0,0.0,3.0,0.352128,0.314629,0.328672,0.304019,-0.0,-0.0,0.0,0.0,0.0,0.0,0.000978,0.000368,-0.000244,-0.039883,-0.019206,0.006062
166985,0.001343,0.000366,-0.000244,0.0,0.0,0.0,0.0,0.0,0.0,3.0,0.346909,0.309483,0.335402,0.308032,-0.0,-0.0,0.0,-0.0,0.0,0.0,0.001222,0.000367,-0.000244,-0.007142,0.003403,0.005025
167005,0.001587,0.000488,-0.000122,0.0,0.0,0.0,0.0,0.0,0.0,3.0,0.338952,0.312812,0.331471,0.31802,-0.0,-0.0,0.0,-0.0,0.0,0.0,0.001343,0.000488,-0.000123,0.004234,0.019624,0.015963
167025,0.001587,0.000244,-0.0,0.0,0.0,0.0,0.0,0.0,0.0,3.0,0.350625,0.311179,0.336218,0.300887,-0.0,-0.0,0.0,-0.0,0.0,0.0,0.001343,0.000245,-0.000122,-0.016452,-0.017548,0.00024
167045,0.001587,0.000122,-0.0,0.0,0.0,0.0,0.0,0.0,0.0,3.0,0.348094,0.306041,0.338033,0.307101,-0.0,-0.0,0.0,-0.0,0.0,0.0,0.001465,0.000243,-0.0,-0.004519,0.010061,0.000652
167065,0.001709,-0.000122,0.000244,0.0,0.0,0.0,0.0,0.0,0.0,3.0,0.338431,0.317544,0.328727,0.316796,-0.0,-0.0,0.0,0.0,0.0,0.0,0.001587,0.000121,0.000244,-0.003087,0.006102,0.017829
167085,0.001709,-0.000122,0.000244,0.0,0.0,0.0,0.0,0.0,0.0,3.0,0.342831,0.305532,0.34302,0.308042,-0.0,-0.0,0.0,0.0,0.0,-0.0,0.00183,-1e-06,0.000244,0.023147,0.014683,0.000238
167105,0.001709,-0.000122,0.000366,0.0,0.0,0.0,0.0,0.0,0.0,3.0,0.336796,0.313616,0.332085,0.318922,-0.0,-0.0,0.0,-0.0,0.0,-0.0,0.001708,-2e-06,0.000366,0.009985,0.02207,0.015894
167125,0.001587,-0.000245,0.000489,0.0,0.0,0.0,0.0,0.0,0.0,3.0,0.338316,0.315558,0.33383,0.31346,-0.0,-0.0,0.0,-0.0,0.0,-0.0,0.001708,-0.000246,0.000488,0.01045,0.004358,0.012448
167145,0.001587,-0.000367,0.000611,0.0,0.0,0.0,0.0,0.0,0.0,3.0,0.346138,0.308477,0.336453,0.308764,-0.0,-0.0,0.0,-0.0,0.0,-0.0,0.001587,-0.000245,0.000611,-0.004185,0.010374,0.002084
167165,0.001587,-0.000489,0.000855,0.0,0.0,0.0,0.0,0.0,0.0,3.0,0.336309,0.321603,0.328696,0.315025,-0.0,-0.0,0.0,0.0,0.0,0.0,0.001709,-0.000489,0.000855,0.001852,-0.00612,0.017858
167185,0.001709,-0.000367,0.000977,0.0,0.0,0.0,0.0,0.0,0.0,3.0,0.337736,0.319001,0.328634,0.316186,-0.0,-0.0,0.0,-0.0,0.0,-0.0,0.001709,-0.000489,0.000977,-0.002398,0.003585,0.016155
167205,0.001831,-0.000489,0.000977,0.0,0.0,0.0,0.0,0.0,0.0,3.0,0.346943,0.311928,0.336253,0.304533,-0.0,-0.0,0.0,0.0,0.0,-0.0,0.001832,-0.000612,0.000977,-0.008429,-0.006805,0.000231
167225,0.001953,-0.000734,0.0011,0.0,0.0,0.0,0.0,0.0,0.0,3.0,0.350104,0.309061,0.347745,0.289717,-0.0,-0.0,0.0,0.0,0.0,0.0,0.002074,-0.000855,0.000978,0.014007,-0.033159,-0.01395
167245,0.002075,-0.000734,0.001222,0.0,0.0,0.0,0.0,0.0,0.0,3.0,0.3422,0.314581,0.334017,0.30987,-0.0,-0.0,0.0,0.0,0.0,-0.0,0.002075,-0.000734,0.001222,-0.002225,0.000183,0.006055
167265,0.002197,-0.000856,0.001466,0.0,0.0,0.0,0.0,0.0,0.0,3.0,0.340363,0.316267,0.339705,0.30378,-0.0,-0.0,0.0,-0.0,0.0,-0.0,0.002318,-0.000978,0.001344,0.017779,-0.017833,0.002027
167285,0.002319,-0.000978,0.001466,0.0,0.0,0.0,0.0,0.0,0.0,3.0,0.344081,0.313255,0.336875,0.305839,-0.0,-0.0,0.0,-0.0,0.0,-0.0,0.002197,-0.000978,0.001466,-0.000409,-0.005193,0.000688
167305,0.002197,-0.000978,0.001588,0.0,0.0,0.0,0.0,0.0,0.0,3.0,0.335979,0.322018,0.328251,0.31543,-0.0,-0.0,0.0,-0.0,0.0,-0.0,0.002197,-0.000979,0.001588,-0.001277,-0.003769,0.015921
167325,0.002196,-0.001101,0.00171,0.0,0.0,0.0,0.0,0.0,0.0,3.0,0.342754,0.314853,0.335723,0.307043,-0.0,-0.0,0.0,-0.0,0.0,-0.0,0.002196,-0.001101,0.001711,-2.3e-05,-0.005651,0.002147
167345,0.002318,-0.001101,0.001833,0.0,0.0,0.0,0.0,0.0,0.0,3.0,0.341955,0.313422,0.336266,0.308825,-0.0,-0.0,0.0,0.0,0.0,-0.0,0.002197,-0.000979,0.001833,0.003682,0.001833,0.001945
167365,0.002318,-0.001223,0.001955,0.0,0.0,0.0,0.0,0.0,0.0,3.0,0.327344,0.323274,0.328887,0.322595,-0.0,-0.0,0.0,0.0,0.0,-0.0,0.002563,-0.00098,0.002077,0.02221,0.011546,0.02153
167385,0.002684,-0.001224,0.002077,0.0,0.0,0.0,0.0,0.0,0.0,3.0,0.333409,0.322135,0.329249,0.317033,-0.0,-0.0,0.0,0.0,0.0,-0.0,0.002563,-0.001101,0.002077,0.006506,0.000744,0.015556
167405,0.002562,-0.001223,0.002077,0.0,0.0,0.0,0.0,0.0,0.0,3.0,0.340571,0.317256,0.338378,0.304031,-0.0,-0.0,0.0,0.0,0.0,-0.0,0.002684,-0.001223,0.002077,0.011034,-0.018328,0.00025
167425,0.002684,-0.001346,0.002199,0.0,0.0,0.0,0.0,0.0,0.0,3.0,0.339946,0.314965,0.336726,0.309026,-0.0,-0.0,0.0,0.0,0.0,-0.0,0.002684,-0.001224,0.002199,0.008043,-0.000268,0.001924
167445,0.002806,-0.001346,0.002322,0.0,0.0,0.0,0.0,0.0,0.0,3.0,0.330635,0.322991,0.330475,0.317816,-0.0,-0.0,0.0,0.0,0.0,-0.0,0.002806,-0.001224,0.002321,0.016014,0.001217,0.015942
167465,0.002928,-0.001346,0.002444,0.0,0.0,0.0,0.0,0.0,0.0,3.0,0.336914,0.315457,0.337043,0.31158,-0.0,-0.0,0.0,0.0,0.0,-0.0,0.002928,-0.001224,0.002322,0.016135,0.004935,0.003909
167485,0.002928,-0.001224,0.002444,0.0,0.0,0.0,0.0,0.0,0.0,3.0,0.343246,0.318509,0.329494,0.30959,0.0,-0.0,0.0,0.0,0.0,-0.0,0.002807,-0.001345,0.002444,-0.022317,-0.007193,0.004388
167505,0.002928,-0.001225,0.002566,0.0,0.0,0.0,0.0,0.0,0.0,3.0,0.343605,0.312976,0.333721,0.310217,0.0,-0.0,0.0,0.0,0.0,-0.0,0.002807,-0.001224,0.002444,-0.011877,0.007928,4.2e-05
167525,0.002928,-0.001225,0.002566,0.0,0.0,0.0,0.0,0.0,0.0,3.0,0.34075,0.315189,0.335472,0.309286,0.0,-0.0,0.0,-0.0,0.0,-0.0,0.002928,-0.001225,0.002566,0.000486,0.000107,0.000656
167545,0.002806,-0.001469,0.002566,0.0,0.0,0.0,0.0,0.0,0.0,3.0,0.33927,0.315406,0.337527,0.308439,0.0,-0.0,0.0,-0.0,0.0,-0.0,0.002927,-0.001347,0.002566,0.010313,-0.001928,1.9e-05
167565,0.00305,-0.001591,0.002688,0.0,0.0,0.0,0.0,0.0,0.0,3.0,0.326721,0.319022,0.332436,0.323783,0.0,-0.0,0.0,-0.0,0.0,-0.0,0.003171,-0.001226,0.002688,0.029564,0.027386,0.015886
167585,0.003172,-0.001713,0.002689,0.0,0.0,0.0,0.0,0.0,0.0,3.0,0.335358,0.312711,0.340542,0.31216,0.0,-0.0,-0.0,0.0,0.0,-0.0,0.003293,-0.001593,0.002689,0.027913,0.01532,0.000223
167605,0.003172,-0.001591,0.002811,0.0,0.0,0.0,0.0,0.0,0.0,3.0,0.340603,0.311195,0.339321,0.309183,0.0,-0.0,-0.0,-0.0,0.0,-0.0,0.003171,-0.001592,0.002688,0.010066,0.011784,-0.003689
167625,0.003172,-0.001591,0.002811,0.0,0.0,0.0,0.0,0.0,0.0,3.0,0.339808,0.314288,0.335042,0.311748,0.0,-0.0,-0.0,0.0,0.0,-0.0,0.003172,-0.001592,0.002811,0.000158,0.010475,0.000588
167645,0.003172,-0.001592,0.002933,0.0,0.0,0.0,0.0,0.0,0.0,3.0,0.339806,0.320701,0.329052,0.311701,0.0,-0.0,-0.0,0.0,0.0,-0.0,0.00305,-0.001714,0.002933,-0.015917,-0.005434,0.005602
167665,0.003416,-0.00147,0.002933,0.0,0.0,0.0,0.0,0.0,0.0,3.0,0.339197,0.318371,0.335504,0.307722,0.0,-0.0,-0.0,0.0,0.0,-0.0,0.003294,-0.001591,0.002933,0.002333,-0.009731,9.5e-05
167685,0.003538,-0.001348,0.003055,0.0,0.0,0.0,0.0,0.0,0.0,3.0,0.34115,0.318797,0.333449,0.307338,0.0,-0.0,-0.0,0.0,0.0,-0.0,0.003417,-0.001591,0.002933,-0.009638,-0.011694,1.4e-05
167705,0.003416,-0.00147,0.003055,0.0,0.0,0.0,0.0,0.0,0.0,3.0,0.336793,0.317251,0.336625,0.310346,0.0,-0.0,-0.0,0.0,0.0,-0.0,0.003537,-0.00147,0.003055,0.010824,-0.00079,0.000665
167725,0.003416,-0.001592,0.003055,0.0,0.0,0.0,0.0,0.0,0.0,3.0,0.336869,0.318267,0.337076,0.3087,0.0,-0.0,-0.0,0.0,0.0,-0.0,0.003537,-0.001471,0.003055,0.011712,-0.007392,3e-05
167745,0.003416,-0.001592,0.003177,0.0,0.0,0.0,0.0,0.0,0.0,3.0,0.332452,0.32131,0.334945,0.312792,0.0,-0.0,-0.0,0.0,0.0,-0.0,0.003659,-0.001593,0.003178,0.017322,-0.004475,0.00562
167765,0.003538,-0.001593,0.003177,0.0,0.0,0.0,0.0,0.0,0.0,3.0,0.33727,0.316901,0.335915,0.310963,0.0,-0.0,-0.0,0.0,0.0,-0.0,0.00366,-0.001471,0.003177,0.00645,0.001845,7.8e-05
167785,0.003538,-0.001471,0.003177,0.0,0.0,0.0,0.0,0.0,0.0,3.0,0.339212,0.313798,0.333912,0.314142,0.0,-0.0,-0.0,0.0,0.0,-0.0,0.003538,-0.001349,0.003177,-0.004221,0.017199,-3.2e-05
167805,0.003416,-0.00147,0.003177,0.0,0.0,0.0,0.0,0.0,0.0,3.0,0.33879,0.317489,0.334152,0.310606,0.0,-0.0,-0.0,0.0,0.0,-0.0,0.003416,-0.00147,0.003177,-0.001975,-0.00041,-1e-06
167825,0.003171,-0.001592,0.003177,0.0,0.0,0.0,0.0,0.0,0.0,3.0,0.348867,0.312603,0.338519,0.298847,0.0,-0.0,-0.0,-0.0,0.0,0.0,0.003172,-0.001592,0.003177,-0.017864,-0.01586,-0.013979
167845,0.00305,-0.00147,0.003177,0.0,0.0,0.0,0.0,0.0,0.0,3.0,0.334729,0.322576,0.331694,0.312533,0.0,-0.0,-0.0,-0.0,0.0,0.0,0.003172,-0.001469,0.003299,0.003413,-0.008631,0.005417
167865,0.002928,-0.001348,0.003298,0.0,0.0,0.0,0.0,0.0,0.0,3.0,0.328201,0.323013,0.32728,0.323624,0.0,-0.0,-0.0,-0.0,0.0,0.0,0.003049,-0.001226,0.003298,0.009719,0.017659,0.015306
167885,0.002928,-0.001348,0.003298,0.0,0.0,0.0,0.0,0.0,0.0,3.0,0.338197,0.315361,0.333505,0.314143,0.0,-0.0,-0.0,0.0,0.0,0.0,0.002928,-0.001348,0.003298,-0.000494,0.013584,0.000196
167905,0.002928,-0.00147,0.003177,0.0,0.0,0.0,0.0,0.0,0.0,3.0,0.344815,0.305535,0.344072,0.304486,0.0,-0.0,-0.0,-0.0,0.0,-0.0,0.002927,-0.001348,0.003177,0.010335,0.014189,-0.015918
167925,0.00305,-0.00147,0.003177,0.0,0.0,0.0,0.0,0.0,0.0,3.0,0.337994,0.31073,0.338213,0.313819,0.0,-0.0,-0.0,-0.0,0.0,-0.0,0.003049,-0.001227,0.003176,0.012412,0.02398,-0.003934
167945,0.00305,-0.001348,0.003176,0.0,0.0,0.0,0.0,0.0,0.0,3.0,0.34448,0.309665,0.338317,0.307396,0.0,-0.0,-0.0,-0.0,0.0,-0.0,0.002927,-0.001348,0.003177,-0.005396,0.011279,-0.010383
167965,0.002928,-0.001104,0.003298,0.0,0.0,0.0,0.0,0.0,0.0,3.0,0.335151,0.316978,0.330307,0.319248,0.0,-0.0,-0.0,-0.0,0.0,-0.0,0.002928,-0.001104,0.003298,-0.001303,0.021658,0.005417
167985,0.002806,-0.001103,0.003176,0.0,0.0,0.0,0.0,0.0,0.0,3.0,0.343696,0.313126,0.333652,0.310037,0.0,-0.0,-0.0,0.0,0.0,0.0,0.002806,-0.001226,0.003176,-0.015907,0.008729,-0.005546
168005,0.00244,-0.001102,0.003054,0.0,0.0,0.0,0.0,0.0,0.0,3.0,0.349689,0.311607,0.338781,0.298578,0.0,-0.0,-0.0,0.0,0.0,0.0,0.002562,-0.001224,0.003054,-0.01806,-0.015076,-0.015974
168025,0.00244,-0.001224,0.003054,0.0,0.0,0.0,0.0,0.0,0.0,3.0,0.346486,0.316088,0.340056,0.296191,0.0,-0.0,-0.0,-0.0,0.0,-0.0,0.002439,-0.001346,0.003054,-0.00463,-0.031346,-0.014181
168045,0.00244,-0.001102,0.003054,0.0,0.0,0.0,0.0,0.0,0.0,3.0,0.338322,0.317968,0.333378,0.311491,0.0,-0.0,-0.0,-0.0,0.0,-0.0,0.00244,-0.001224,0.003054,-6.2e-05,0.000213,-0.000201
168065,0.002318,-0.00098,0.003053,0.0,0.0,0.0,0.0,0.0,0.0,3.0,0.333986,0.314752,0.337377,0.315135,-0.0,-0.0,-0.0,-0.0,0.0,-0.0,0.002561,-0.000981,0.003054,0.022557,0.01653,-1.2e-05
168085,0.002196,-0.001102,0.003054,0.0,0.0,0.0,0.0,0.0,0.0,3.0,0.33894,0.319957,0.332219,0.310007,-0.0,-0.0,-0.0,-0.0,0.0,-0.0,0.002318,-0.001103,0.003054,-0.004685,-0.009039,8e-06
168105,0.002318,-0.001102,0.002931,0.0,0.0,0.0,0.0,0.0,0.0,3.0,0.341276,0.316496,0.332168,0.310999,-0.0,-0.0,-0.0,-0.0,0.0,0.0,0.002197,-0.00098,0.002931,-0.011024,0.00181,-0.001923
168125,0.002562,-0.001224,0.00281,0.0,0.0,0.0,0.0,0.0,0.0,3.0,0.345053,0.309457,0.343411,0.300979,-0.0,-0.0,-0.0,-0.0,0.0,0.0,0.002562,-0.001103,0.00281,0.008014,-0.004304,-0.015925
168145,0.002562,-0.001102,0.00281,0.0,0.0,0.0,0.0,0.0,0.0,3.0,0.339977,0.317165,0.331808,0.312174,-0.0,-0.0,-0.0,-0.0,0.0,0.0,0.002563,-0.00098,0.002809,-0.010194,0.003132,-0.000233
168165,0.002318,-0.001102,0.002809,0.0,0.0,0.0,0.0,0.0,0.0,3.0,0.337992,0.317737,0.333459,0.312009,-0.0,-0.0,-0.0,0.0,0.0,-0.0,0.002562,-0.00098,0.002809,-0.000144,0.001304,-5e-06
168185,0.002318,-0.001224,0.002687,0.0,0.0,0.0,0.0,0.0,0.0,3.0,0.336593,0.316991,0.337179,0.310217,-0.0,-0.0,-0.0,0.0,0.0,-0.0,0.00244,-0.001102,0.002687,0.014594,-0.000655,-0.001907
168205,0.002318,-0.001102,0.002565,0.0,0.0,0.0,0.0,0.0,0.0,3.0,0.339612,0.314806,0.338364,0.307717,-0.0,-0.0,-0.0,0.0,0.0,-0.0,0.002317,-0.001224,0.002565,0.009862,-0.00067,-0.005618
168225,0.002196,-0.000979,0.002443,0.0,0.0,0.0,0.0,0.0,0.0,3.0,0.345023,0.306896,0.344049,0.302888,-0.0,-0.0,-0.0,0.0,0.0,-0.0,0.002318,-0.000979,0.002443,0.010466,0.006249,-0.015987
168245,0.002318,-0.000979,0.002443,0.0,0.0,0.0,0.0,0.0,0.0,3.0,0.337655,0.314257,0.334774,0.314468,-0.0,-0.0,-0.0,0.0,0.0,-0.0,0.002319,-0.000858,0.002443,0.005111,0.015986,-0.000241
168265,0.002319,-0.000735,0.002443,0.0,0.0,0.0,0.0,0.0,0.0,3.0,0.333436,0.318246,0.334685,0.315152,-0.0,-0.0,-0.0,0.0,0.0,-0.0,0.00244,-0.000735,0.002443,0.015983,0.00706,0.003677
168285,0.002441,-0.000858,0.002443,0.0,0.0,0.0,0.0,0.0,0.0,3.0,0.341361,0.313479,0.332931,0.313127,-0.0,-0.0,-0.0,-0.0,0.0,-0.0,0.002319,-0.000736,0.002321,-0.010722,0.014102,-0.001887
168305,0.002318,-0.000857,0.002321,0.0,0.0,0.0,0.0,0.0,0.0,3.0,0.348828,0.303859,0.341798,0.304047,-0.0,-0.0,-0.0,0.0,0.0,0.0,0.002196,-0.000735,0.002199,-0.006987,0.015477,-0.017214
168325,0.002196,-0.000979,0.002199,0.0,0.0,0.0,0.0,0.0,0.0,3.0,0.345782,0.306241,0.343012,0.303877,-0.0,-0.0,-0.0,0.0,0.0,0.0,0.002196,-0.000858,0.002199,0.005288,0.009882,-0.015502
168345,0.002074,-0.001101,0.002077,0.0,0.0,0.0,0.0,0.0,0.0,3.0,0.336831,0.315505,0.335834,0.312963,0.0,-0.0,-0.0,0.0,0.0,0.0,0.002196,-0.00098,0.002199,0.010398,0.009783,-0.000224
168365,0.001952,-0.000979,0.002077,0.0,0.0,0.0,0.0,0.0,0.0,3.0,0.338063,0.310682,0.335393,0.316874,0.0,-0.0,-0.0,-0.0,0.0,-0.0,0.002074,-0.000858,0.002076,0.006153,0.031292,-0.000687
168385,0.001708,-0.000978,0.001954,0.0,0.0,0.0,0.0,0.0,0.0,3.0,0.343135,0.312699,0.335798,0.308729,-0.0,-0.0,-0.0,-0.0,0.0,-0.0,0.00183,-0.000979,0.001954,-0.006154,0.006424,-0.005616
168405,0.001586,-0.000856,0.001954,0.0,0.0,0.0,0.0,0.0,0.087266,3.0,0.457808,0.15,0.453081,0.15,-0.0,-0.0,-0.0,0.0,0.0,0.012118,0.001708,-0.000978,0.001954,-0.004423,-0.00358,-0.003758
168425,0.002075,-0.00037,0.003419,0.0,0.0,0.0,0.0,0.0,0.087266,3.0,0.424952,0.15,0.426292,0.15,-0.0,-0.0,0.000603,0.0,0.0,0.059342,0.001952,-0.000613,0.002808,0.019011,0.011706,0.076688
168445,0.002198,0.000113,0.007814,0.0,0.0,0.0,0.0,0.0,0.087266,3.0,0.367696,0.282416,0.354995,0.284065,-0.0,-0.0,0.002117,0.0,0.0,0.102057,0.001954,-0.000127,0.006225,-0.025277,0.016197,0.217776
168465,0.001466,0.000112,0.013551,0.0,0.0,0.0,0.0,0.0,0.087266,3.0,0.33805,0.327272,0.325953,0.31005,-0.0,-0.0,0.004437,0.0,0.0,0.137337,0.001829,-0.000376,0.011966,-0.018987,-0.030575,0.260817
168485,0.001094,-0.000499,0.0188,0.0,0.0,0.0,0.0,0.0,0.087266,3.0,0.331025,0.334492,0.320481,0.315674,-0.0,-0.0,0.007399,0.0,0.0,0.164482,0.001338,-0.0005,0.017703,-0.011848,-0.035458,0.257679
168505,0.000112,-0.000856,0.023076,0.0,0.0,0.0,0.0,0.0,0.087266,3.0,0.352555,0.311472,0.326923,0.308677,-0.0,-0.0,0.01085,0.0,0.0,0.184747,0.000361,-0.000492,0.022099,-0.051967,0.007339,0.220708
168525,-0.000747,-0.001089,0.026248,0.0,0.0,0.0,0.0,0.0,0.087266,3.0,0.383394,0.271339,0.356863,0.26865,-0.0,-0.0,0.014662,0.0,0.0,0.199238,-0.000622,-0.00097,0.025272,-0.059123,0.010954,0.152449
168545,-0.001606,-0.001319,0.029298,0.0,0.0,0.0,0.0,0.0,0.087266,3.0,0.38434,0.269059,0.363468,0.259252,-0.0,-0.0,0.018726,0.0,0.0,0.208908,-0.001483,-0.0012,0.028445,-0.038123,-0.001814,0.137489
168565,-0.002343,-0.001426,0.032963,0.0,0.0,0.0,0.0,0.0,0.087266,3.0,0.363168,0.298309,0.336593,0.297718,-0.0,-0.0,0.022953,0.0,0.0,0.214575,-0.002217,-0.001186,0.03211,-0.045973,0.016111,0.1781
168585,-0.002836,-0.001535,0.036622,0.0,0.0,0.0,0.0,0.0,0.087266,3.0,0.345763,0.315977,0.330446,0.308256,-0.0,-0.0,0.027267,0.0,0.0,0.216942,-0.00259,-0.001419,0.035769,-0.008961,-0.0007,0.192364
168605,-0.003215,-0.002012,0.039922,0.0,0.0,0.0,0.0,0.0,0.087266,3.0,0.356955,0.303284,0.33846,0.298493,-0.0,-0.0,0.031607,0.0,0.0,0.216608,-0.00333,-0.001645,0.039068,-0.016445,0.008296,0.16579
168625,-0.003467,-0.002245,0.04297,0.0,0.0,0.0,0.0,0.0,0.087266,3.0,0.365398,0.299276,0.34935,0.277354,-0.0,-0.0,0.035923,0.0,0.0,0.214088,-0.003589,-0.002244,0.042239,-0.0097,-0.0266,0.138824
168645,-0.003357,-0.002609,0.046147,0.0,0.0,0.0,0.0,0.0,0.087266,3.0,0.350231,0.309306,0.341401,0.297199,-0.0,-0.0,0.040175,0.0,0.0,0.209816,-0.003351,-0.002366,0.045417,0.012438,-0.006,0.154094
168665,-0.003239,-0.002607,0.049204,0.0,0.0,0.0,0.0,0.0,0.087266,3.0,0.342698,0.318612,0.334866,0.304131,-0.0,-0.0,0.044331,0.0,0.0,0.204165,-0.003238,-0.002607,0.048341,0.015603,-0.011811,0.160368
168685,-0.003127,-0.00285,0.051886,0.0,0.0,0.0,0.0,0.0,0.087266,3.0,0.354771,0.303883,0.347473,0.289567,-0.0,-0.0,0.048365,0.0,0.0,0.197449,-0.003126,-0.002851,0.051155,0.015758,-0.007876,0.129391
168705,-0.003022,-0.003337,0.054576,0.0,0.0,0.0,0.0,0.0,0.087266,3.0,0.359468,0.304523,0.34752,0.282441,-0.0,-0.0,0.052259,0.0,0.0,0.189931,-0.003018,-0.003216,0.053968,0.001315,-0.023415,0.117405
168725,-0.002911,-0.00358,0.057256,0.0,0.0,0.0,0.0,0.0,0.087266,3.0,0.337023,0.329117,0.329981,0.304799,-0.0,-0.0,0.055998,0.0,0.0,0.181836,-0.002789,-0.003584,0.056769,0.016672,-0.033063,0.148815
168745,-0.002676,-0.003706,0.059826,0.0,0.0,0.0,0.0,0.0,0.087266,3.0,0.346663,0.311071,0.342358,0.298594,-0.0,-0.0,0.059571,0.0,0.0,0.173349,-0.002549,-0.003589,0.059095,0.022771,-0.000976,0.122081
168765,-0.002561,-0.003829,0.062018,0.0,0.0,0.0,0.0,0.0,0.087266,3.0,0.357303,0.304055,0.347015,0.286592,-0.0,-0.0,0.062973,0.0,0.0,0.164626,-0.00256,-0.00383,0.061409,0.004773,-0.009959,0.100998
168785,-0.002578,-0.004192,0.064343,0.0,0.0,0.0,0.0,0.0,0.087266,3.0,0.340026,0.32152,0.333931,0.305201,-0.0,-0.0,0.066199,0.0,0.0,0.155794,-0.002325,-0.003957,0.063979,0.017348,-0.009826,0.123608
168805,-0.002583,-0.004189,0.066668,0.0,0.0,0.0,0.0,0.0,0.087266,3.0,0.33269,0.327486,0.321386,0.320392,-0.0,-0.0,0.069249,0.0,0.0,0.146958,-0.002451,-0.00395,0.066181,0.004669,0.012689,0.136019
168825,-0.002705,-0.00406,0.068738,0.0,0.0,0.0,0.0,0.0,0.087266,3.0,0.350909,0.309721,0.33833,0.299589,-0.0,-0.0,0.072122,0.0,0.0,0.138205,-0.002581,-0.004066,0.068129,-0.000537,0.00756,0.097938
168845,-0.002957,-0.004171,0.070575,0.0,0.0,0.0,0.0,0.0,0.087266,3.0,0.355653,0.311443,0.341386,0.287889,-0.0,-0.0,0.074822,0.0,0.0,0.129601,-0.002712,-0.00418,0.070211,-0.005327,-0.022888,0.084629
168865,-0.003087,-0.004285,0.072522,0.0,0.0,0.0,0.0,0.0,0.087266,3.0,0.337268,0.325553,0.322492,0.316364,0.0,-0.0,0.07735,0.0,0.0,0.121203,-0.002834,-0.004051,0.072279,-0.003066,0.008496,0.114287
168885,-0.003209,-0.004156,0.074482,0.0,0.0,0.0,0.0,0.0,0.087266,3.0,0.342842,0.318763,0.333167,0.305726,0.0,-0.0,0.079713,0.0,0.0,0.113052,-0.002964,-0.004166,0.073874,0.010689,0.000461,0.095003
168905,-0.003329,-0.004027,0.076063,0.0,0.0,0.0,0.0,0.0,0.087266,3.0,0.356573,0.303439,0.341722,0.294891,0.0,-0.0,0.081914,0.0,0.0,0.10518,-0.003206,-0.004033,0.075455,-0.004511,0.012522,0.069033
168925,-0.003342,-0.004268,0.077537,0.0,0.0,0.0,0.0,0.0,0.087266,3.0,0.349962,0.317424,0.33549,0.295857,0.0,-0.0,0.083961,0.0,0.0,0.097611,-0.003337,-0.004147,0.077294,-0.001622,-0.019243,0.076329
168945,-0.003223,-0.00427,0.079118,0.0,0.0,0.0,0.0,0.0,0.087266,3.0,0.337379,0.327945,0.324784,0.311324,0.0,-0.0,0.085858,0.0,0.0,0.09036,-0.003218,-0.004148,0.078875,0.005029,-0.009371,0.09378
168965,-0.0031,-0.004151,0.080714,0.0,0.0,0.0,0.0,0.0,0.087266,3.0,0.338661,0.324517,0.326463,0.31176,0.0,-0.0,0.087613,0.0,0.0,0.083439,-0.003099,-0.004152,0.080227,0.00553,0.001031,0.087217
168985,-0.003107,-0.004271,0.081808,0.0,0.0,0.0,0.0,0.0,0.087266,3.0,0.355617,0.31081,0.341947,0.287932,0.0,-0.0,0.089232,0.0,0.0,0.076853,-0.003106,-0.004271,0.081565,-0.000825,-0.019473,0.052355
169005,-0.002993,-0.004396,0.083038,0.0,0.0,0.0,0.0,0.0,0.087266,3.0,0.347763,0.313993,0.339231,0.297877,0.0,-0.0,0.090721,0.0,0.0,0.070602,-0.002866,-0.00428,0.082918,0.013837,-0.004458,0.058789
169025,-0.002752,-0.004405,0.084376,0.0,0.0,0.0,0.0,0.0,0.087266,3.0,0.336264,0.320085,0.333587,0.311368,0.0,-0.0,0.092088,0.0,0.0,0.064685,-0.00262,-0.004167,0.084134,0.02998,0.012282,0.071511
169045,-0.002505,-0.004292,0.085608,0.0,0.0,0.0,0.0,0.0,0.087266,3.0,0.338366,0.320014,0.335112,0.307382,0.0,-0.0,0.09334,0.0,0.0,0.059097,-0.002505,-0.004291,0.085227,0.02792,0.003379,0.064835
169065,-0.002269,-0.004423,0.086459,0.0,0.0,0.0,0.0,0.0,0.087266,3.0,0.359242,0.307395,0.343103,0.285349,0.0,-0.0,0.094482,0.0,0.0,0.053831,-0.002511,-0.004412,0.086216,-0.010659,-0.015359,0.033697
169085,-0.002149,-0.004427,0.087553,0.0,0.0,0.0,0.0,0.0,0.087266,3.0,0.352536,0.315509,0.340059,0.289118,0.0,-0.0,0.095521,0.0,0.0,0.048878,-0.002276,-0.004543,0.08731,-7.2e-05,-0.026412,0.040015
169105,-0.002146,-0.004304,0.088541,0.0,0.0,0.0,0.0,0.0,0.087266,3.0,0.345837,0.322056,0.32859,0.303784,0.0,-0.0,0.096463,0.0,0.0,0.044228,-0.002272,-0.00442,0.088298,-0.012115,-0.009479,0.054199
169125,-0.002025,-0.004309,0.08927,0.0,0.0,0.0,0.0,0.0,0.087266,3.0,0.353794,0.312982,0.342577,0.287126,0.0,-0.0,0.097314,0.0,0.0,0.03987,-0.002157,-0.004546,0.089027,0.003036,-0.024062,0.030925
169145,-0.002149,-0.004302,0.09012,0.0,0.0,0.0,0.0,0.0,0.087266,3.0,0.352355,0.31033,0.339554,0.295666,0.0,-0.0,0.098081,0.0,0.0,0.035794,-0.002149,-0.004302,0.089878,-0.001228,0.001061,0.032511
169165,-0.0024,-0.004412,0.090848,0.0,0.0,0.0,0.0,0.0,0.087266,3.0,0.344324,0.325355,0.330128,0.300236,0.0,-0.0,0.098768,0.0,0.0,0.031986,-0.002278,-0.004417,0.090727,-0.003215,-0.026028,0.046416
169185,-0.002402,-0.004411,0.091593,0.0,0.0,0.0,0.0,0.0,0.087266,3.0,0.342235,0.319146,0.333724,0.305403,0.0,-0.0,0.09938,0.0,0.0,0.028434,-0.002402,-0.004411,0.091472,0.013351,0.002751,0.042631
169205,-0.002281,-0.004416,0.092322,0.0,0.0,0.0,0.0,0.0,0.087266,3.0,0.346486,0.311107,0.344161,0.296582,0.0,-0.0,0.099924,0.0,0.0,0.025127,-0.002282,-0.004416,0.09208,0.030166,0.002374,0.02653
169225,-0.002166,-0.004543,0.092808,0.0,0.0,0.0,0.0,0.0,0.087266,3.0,0.349643,0.314582,0.340339,0.293539,0.0,-0.0,0.100403,0.0,0.0,0.022051,-0.002289,-0.004537,0.092687,0.010103,-0.012625,0.024981
169245,-0.002167,-0.004543,0.093294,0.0,0.0,0.0,0.0,0.0,0.087266,3.0,0.350594,0.317339,0.338231,0.29184,0.0,-0.0,0.100822,0.0,0.0,0.019195,-0.002294,-0.004658,0.093172,0.00146,-0.022769,0.024276
169265,-0.002174,-0.004664,0.093797,0.0,0.0,0.0,0.0,0.0,0.087266,3.0,0.358919,0.313038,0.337511,0.286573,0.0,-0.0,0.101186,0.0,0.0,0.016547,-0.002422,-0.004774,0.093675,-0.0249,-0.022973,0.014728
169285,-0.002059,-0.004791,0.094282,0.0,0.0,0.0,0.0,0.0,0.087266,3.0,0.35059,0.319341,0.334522,0.294083,0.0,-0.0,0.101498,-0.0,0.0,0.014094,-0.002302,-0.004779,0.09416,-0.008662,-0.021809,0.024106
169305,-0.001927,-0.004553,0.094647,0.0,0.0,0.0,0.0,0.0,0.087266,3.0,0.350595,0.318247,0.334852,0.294904,0.0,-0.0,0.101763,-0.0,0.0,0.011826,-0.002181,-0.004784,0.094525,-0.0082,-0.016859,0.02234
169325,-0.002055,-0.004669,0.09489,0.0,0.0,0.0,0.0,0.0,0.087266,3.0,0.358312,0.310869,0.342251,0.283823,0.0,-0.0,0.101983,-0.0,0.0,0.009732,-0.002181,-0.004784,0.094768,-0.010367,-0.022914,0.006486
169345,-0.002067,-0.004912,0.095132,0.0,0.0,0.0,0.0,0.0,0.087266,3.0,0.355402,0.311313,0.342005,0.287586,0.0,-0.0,0.102163,-0.0,0.0,0.0078,-0.002183,-0.004784,0.095132,-0.002152,-0.015489,0.008194
169365,-0.002068,-0.004912,0.095496,0.0,0.0,0.0,0.0,0.0,0.087266,3.0,0.354064,0.310206,0.342873,0.289489,0.0,-0.0,0.102306,-0.0,0.0,0.006022,-0.002067,-0.004911,0.095375,0.003937,-0.007689,0.007588
169385,-0.001941,-0.004795,0.095739,0.0,0.0,0.0,0.0,0.0,0.087266,3.0,0.349615,0.313477,0.336901,0.298904,0.0,-0.0,0.102414,-0.0,0.0,0.004387,-0.002062,-0.00479,0.095617,0.000282,0.005498,0.016575
169405,-0.001819,-0.004801,0.095861,0.0,0.0,0.0,0.0,0.0,0.087266,3.0,0.356317,0.305765,0.345491,0.288028,0.0,-0.0,0.10249,-0.0,0.0,0.002886,-0.00194,-0.004796,0.095739,0.004334,-0.000132,0.000896
169425,-0.001813,-0.004679,0.095983,0.0,0.0,0.0,0.0,0.0,0.087266,3.0,0.355717,0.30831,0.339404,0.293691,0.0,-0.0,0.102537,-0.0,0.0,0.001511,-0.001935,-0.004673,0.095983,-0.011242,0.006151,0.006205
169445,-0.001698,-0.004807,0.096243,0.0,0.0,0.0,0.0,0.0,0.087266,3.0,0.343647,0.323009,0.3321,0.301401,0.0,-0.0,0.102558,-0.0,0.0,0.000253,-0.00182,-0.004801,0.096243,0.003518,-0.012348,0.023757
169465,-0.001698,-0.004807,0.096365,0.0,0.0,0.0,0.0,0.0,0.087266,3.0,0.358194,0.306334,0.341267,0.290257,0.0,-0.0,0.102554,-0.0,0.0,-0.000896,-0.001941,-0.004795,0.096243,-0.013244,0.004151,0.000302
169485,-0.00171,-0.005051,0.096364,0.0,0.0,0.0,0.0,0.0,0.087266,3.0,0.357428,0.312918,0.340937,0.284396,0.0,-0.0,0.102528,-0.0,0.0,-0.001944,-0.001831,-0.005044,0.096364,-0.012268,-0.023837,0.000608
169505,-0.001472,-0.005184,0.096486,0.0,0.0,0.0,0.0,0.0,0.087266,3.0,0.353823,0.319367,0.338755,0.284606,0.0,-0.0,0.102482,-0.0,0.0,-0.002896,-0.001721,-0.005293,0.096486,-0.008007,-0.038439,0.005532
169525,-0.001345,-0.005068,0.096608,0.0,0.0,0.0,0.0,0.0,0.087266,3.0,0.351687,0.314374,0.34242,0.288541,0.0,-0.0,0.102417,-0.0,0.0,-0.003761,-0.001472,-0.005183,0.096487,0.007752,-0.01722,0.003751
169545,-0.001333,-0.004824,0.096608,0.0,0.0,0.0,0.0,0.0,0.087266,3.0,0.356599,0.30934,0.342027,0.288149,0.0,-0.0,0.102336,-0.0,0.0,-0.004544,-0.001466,-0.005062,0.096486,-0.008057,-0.005833,-0.001225
169565,-0.001322,-0.00458,0.09673,0.0,0.0,0.0,0.0,0.0,0.087266,3.0,0.362078,0.300871,0.347852,0.282378,0.0,-0.0,0.10224,-0.0,0.0,-0.00525,-0.001448,-0.004695,0.096609,-0.007951,0.000565,-0.013292
169585,-0.001455,-0.004818,0.096729,0.0,0.0,0.0,0.0,0.0,0.087266,3.0,0.343058,0.324851,0.335559,0.296023,0.0,-0.0,0.10213,-0.0,0.0,-0.005886,-0.001334,-0.004823,0.096851,0.013145,-0.028136,0.016299
169605,-0.001699,-0.004807,0.096729,0.0,0.0,0.0,0.0,0.0,0.087266,3.0,0.355363,0.313124,0.336548,0.292403,0.0,-0.0,0.102008,-0.0,0.0,-0.006457,-0.001699,-0.004806,0.096729,-0.018597,-0.006121,0.003187
169625,-0.001711,-0.00505,0.096728,0.0,0.0,0.0,0.0,0.0,0.087266,3.0,0.351558,0.316306,0.343391,0.285265,0.0,-0.0,0.101875,-0.0,0.0,-0.006967,-0.001712,-0.005049,0.096728,0.012353,-0.028863,6e-05
169645,-0.001723,-0.005294,0.096728,0.0,0.0,0.0,0.0,0.0,0.087266,3.0,0.356443,0.31159,0.348479,0.277294,0.0,-0.0,0.101732,-0.0,0.0,-0.007421,-0.001723,-0.005293,0.096729,0.012636,-0.03287,-0.010232
169665,-0.001479,-0.005306,0.09685,0.0,0.0,0.0,0.0,0.0,0.087266,3.0,0.347075,0.319575,0.341084,0.290287,0.0,-0.0,0.10158,-0.0,0.0,-0.007824,-0.001607,-0.005421,0.09685,0.018638,-0.023911,0.005458
169685,-0.001357,-0.005312,0.096729,0.0,0.0,0.0,0.0,0.0,0.087266,3.0,0.353535,0.313096,0.34196,0.288128,0.0,-0.0,0.101421,-0.0,0.0,-0.008178,-0.001607,-0.005421,0.096728,0.002125,-0.012014,-0.001831
169705,-0.001357,-0.005312,0.096608,0.0,0.0,0.0,0.0,0.0,0.087266,3.0,0.360358,0.30739,0.349193,0.275639,0.0,-0.0,0.101255,-0.0,0.0,-0.008489,-0.00149,-0.005549,0.096608,0.001995,-0.024099,-0.015846
169725,-0.001235,-0.005318,0.09673,0.0,0.0,0.0,0.0,0.0,0.087266,3.0,0.3514,0.31764,0.33962,0.288734,0.0,-0.0,0.101083,-0.0,0.0,-0.008758,-0.001485,-0.005427,0.096729,0.001414,-0.021655,0.001676
169745,-0.001351,-0.00519,0.096729,0.0,0.0,0.0,0.0,0.0,0.087266,3.0,0.345808,0.324475,0.331968,0.297298,0.0,-0.0,0.100906,-0.0,0.0,-0.008991,-0.001479,-0.005305,0.096729,-0.0035,-0.020113,0.013914
169765,-0.001473,-0.005184,0.096608,0.0,0.0,0.0,0.0,0.0,0.087266,3.0,0.360866,0.306473,0.349455,0.275607,0.0,-0.0,0.100725,-0.0,0.0,-0.009188,-0.001478,-0.005305,0.096487,0.00136,-0.022272,-0.01753
169785,-0.0016,-0.0053,0.096486,0.0,0.0,0.0,0.0,0.0,0.087266,3.0,0.360487,0.309245,0.347291,0.275907,0.0,-0.0,0.10054,-0.0,0.0,-0.009354,-0.001606,-0.005421,0.096486,-0.003181,-0.027682,-0.015433
169805,-0.0016,-0.0053,0.096486,0.0,0.0,0.0,0.0,0.0,0.087266,3.0,0.350594,0.314994,0.34144,0.290501,0.0,-0.0,0.100352,-0.0,0.0,-0.009491,-0.001601,-0.0053,0.096486,0.009787,-0.010531,-0.000196
169825,-0.001716,-0.005173,0.096486,0.0,0.0,0.0,0.0,0.0,0.087266,3.0,0.350488,0.312928,0.346995,0.285876,0.0,-0.0,0.100161,-0.0,0.0,-0.009601,-0.001479,-0.005306,0.096365,0.025665,-0.015392,-0.005505
169845,-0.001594,-0.005179,0.096365,0.0,0.0,0.0,0.0,0.0,0.087266,3.0,0.35261,0.312425,0.343841,0.28771,0.0,-0.0,0.099968,-0.0,0.0,-0.009687,-0.001595,-0.005178,0.096364,0.010813,-0.01039,-0.004967
