time_ms,roll,pitch,yaw,x,y,z,reference_roll,reference_pitch,reference_yaw,reference_throttle,throttle_1,throttle_2,throttle_3,throttle_4,roll_predicted,pitch_predicted,yaw_predicted,roll_rate_predicted,pitch_rate_predicted,yaw_rate_predicted,value1,value2,value3,value4,value5,value6
98753,0.001344,-0.000975,-0.002441,0.0,0.0,0.0,0.0,0.0,0.0,3.0,0.325408,0.338275,0.309014,0.328536,-0.0,0.0,0.0,0.0,0.0,-0.0,0.0011,-0.000975,-0.002319,-0.017245,-0.007532,-4e-06
98800,0.002076,-0.000608,-0.002441,0.0,0.0,0.0,0.00488,0.08713,0.00488,3.0,0.333117,0.376231,0.324228,0.251732,4e-05,0.002845,2.5e-05,0.003631,0.147181,0.002316,0.001832,-0.000852,-0.002563,0.012199,0.004014,-0.005598
98802,0.002076,-0.000608,-0.002441,0.0,0.0,0.0,0.00488,0.08713,0.00488,3.0,0.333117,0.376231,0.324228,0.251732,4e-05,0.002845,2.5e-05,0.003631,0.147181,0.002316,0.001832,-0.000852,-0.002563,0.012199,0.004014,-0.005598
98813,0.002076,-0.000364,-0.002319,0.0,0.0,0.0,0.005459,0.087096,0.005459,3.0,0.320577,0.388247,0.310238,0.267269,8.1e-05,0.004378,5.1e-05,0.005572,0.170642,0.003609,0.002077,-0.000729,-0.002319,0.012675,-0.004249,0.020861
98833,0.001952,0.000857,-0.002076,0.0,0.0,0.0,0.006476,0.087026,0.006476,3.0,0.324004,0.379645,0.308868,0.278293,0.000225,0.008071,0.000146,0.009869,0.204823,0.006622,0.002075,0.000369,-0.002076,0.003807,0.045778,0.021751
98853,0.002073,0.003176,-0.001713,0.0,0.0,0.0,0.008479,0.086854,0.008479,3.0,0.325241,0.36278,0.31194,0.297249,0.000453,0.012342,0.000302,0.01406,0.225696,0.009805,0.002073,0.002687,-0.001712,0.015205,0.134333,0.023575
98873,0.002192,0.007326,-0.001473,0.0,0.0,0.0,0.010671,0.086612,0.010671,3.0,0.333649,0.343527,0.312947,0.310417,0.000772,0.016952,0.000528,0.01855,0.236685,0.013381,0.002193,0.006349,-0.001472,0.002026,0.209654,0.021604
98893,0.002435,0.012575,-0.000992,0.0,0.0,0.0,0.01216,0.086415,0.01216,3.0,0.333944,0.329574,0.31534,0.322888,0.001187,0.021722,0.000831,0.023803,0.240333,0.017634,0.002313,0.01111,-0.001112,0.012208,0.261928,0.023367
98913,0.002802,0.018922,-0.000637,0.0,0.0,0.0,0.013888,0.086154,0.013888,3.0,0.350403,0.298496,0.322862,0.327559,0.001708,0.026523,0.001221,0.02861,0.23875,0.021823,0.002435,0.017213,-0.000875,-0.009583,0.328017,0.00626
98933,0.003048,0.026125,-0.000284,0.0,0.0,0.0,0.015139,0.085943,0.015139,3.0,0.343162,0.290493,0.320384,0.344133,0.002329,0.031262,0.001699,0.033152,0.233408,0.026018,0.002926,0.024294,-0.000402,0.007556,0.363138,0.018621
98953,0.003788,0.033938,0.00018,0.0,0.0,0.0,0.016791,0.085636,0.016791,3.0,0.3287,0.28572,0.317242,0.363947,0.00304,0.035873,0.002261,0.037174,0.225477,0.030017,0.003665,0.031984,0.000185,0.042619,0.400033,0.038941
98973,0.004902,0.04236,0.000874,0.0,0.0,0.0,0.019259,0.085115,0.019259,3.0,0.337933,0.256326,0.328214,0.365948,0.003836,0.04031,0.002906,0.04128,0.215692,0.034147,0.004653,0.040285,0.00064,0.050651,0.430045,0.027706
99009,0.007142,0.056031,0.002124,0.0,0.0,0.0,0.022486,0.08432,0.022486,3.0,0.328625,0.25889,0.325614,0.3747,0.005446,0.047564,0.004244,0.048205,0.195986,0.04139,0.006649,0.054201,0.002021,0.072098,0.391443,0.045551
99020,0.008272,0.061154,0.002928,0.0,0.0,0.0,0.023832,0.083949,0.023832,3.0,0.319582,0.266912,0.322583,0.379699,0.006216,0.050455,0.004899,0.051262,0.186942,0.044602,0.007896,0.059691,0.0027,0.087608,0.367202,0.059112
99033,0.009391,0.06457,0.003368,0.0,0.0,0.0,0.024532,0.083747,0.024532,3.0,0.338123,0.248632,0.33697,0.362621,0.006757,0.052306,0.005362,0.053149,0.180856,0.046668,0.008645,0.062864,0.003033,0.076241,0.333756,0.031087
99053,0.011508,0.069814,0.00425,0.0,0.0,0.0,0.025207,0.083547,0.025207,3.0,0.329124,0.279247,0.330118,0.357056,0.007899,0.055825,0.006352,0.056345,0.168741,0.050472,0.010643,0.068351,0.004043,0.076221,0.232503,0.045719
99073,0.013513,0.073708,0.00538,0.0,0.0,0.0,0.027092,0.082954,0.027092,3.0,0.32605,0.281549,0.33215,0.356305,0.009101,0.059103,0.007413,0.058455,0.156961,0.053589,0.012766,0.072859,0.005046,0.087591,0.203915,0.050353
99093,0.015639,0.075891,0.00651,0.0,0.0,0.0,0.029035,0.082295,0.029035,3.0,0.320255,0.294504,0.342056,0.342133,0.010355,0.062144,0.008539,0.060792,0.14527,0.05677,0.015135,0.07553,0.006165,0.127344,0.120095,0.049753
99113,0.017641,0.077092,0.007649,0.0,0.0,0.0,0.03,0.081948,0.03,3.0,0.322904,0.304792,0.339123,0.333897,0.011662,0.064951,0.009731,0.062895,0.133905,0.059749,0.017138,0.076975,0.007302,0.106914,0.06556,0.050708
99133,0.019519,0.077076,0.008802,0.0,0.0,0.0,0.03209,0.081152,0.03209,3.0,0.3198,0.320868,0.334476,0.326731,0.013014,0.067532,0.010979,0.064515,0.123014,0.062365,0.019017,0.077204,0.008453,0.101268,0.002442,0.061776
99153,0.021147,0.076078,0.009974,0.0,0.0,0.0,0.034137,0.080313,0.034137,3.0,0.337801,0.320021,0.336055,0.306954,0.014407,0.069895,0.012282,0.066521,0.112321,0.065136,0.020398,0.076332,0.009511,0.058113,-0.044564,0.048085
99173,0.022401,0.074711,0.011041,0.0,0.0,0.0,0.035346,0.079788,0.035346,3.0,0.343053,0.326033,0.329791,0.301388,0.01585,0.072043,0.013641,0.068668,0.101923,0.067946,0.021658,0.074965,0.010699,0.024943,-0.069214,0.050057
99193,0.023413,0.073104,0.012246,0.0,0.0,0.0,0.037175,0.078952,0.037175,3.0,0.337023,0.331555,0.334925,0.296343,0.017335,0.073985,0.015053,0.070069,0.092197,0.07026,0.023157,0.073355,0.011885,0.056275,-0.091306,0.054179
99219,0.02456,0.071735,0.013811,0.0,0.0,0.0,0.03963,0.077749,0.03963,3.0,0.344107,0.328507,0.330362,0.296658,0.01924,0.07614,0.016881,0.071722,0.080599,0.07299,0.024181,0.071743,0.013458,0.027588,-0.078641,0.055406
99233,0.024955,0.070865,0.014787,0.0,0.0,0.0,0.040744,0.077171,0.040744,3.0,0.334197,0.330185,0.324215,0.31303,0.020409,0.077293,0.018011,0.073009,0.073762,0.074757,0.024826,0.071113,0.014544,0.040901,-0.042693,0.071748
99257,0.02599,0.07059,0.016467,0.0,0.0,0.0,0.04276,0.076072,0.04276,3.0,0.347242,0.310769,0.329671,0.312657,0.022401,0.078989,0.019948,0.074402,0.063162,0.077185,0.025734,0.070596,0.016109,0.021219,0.006162,0.056436
99273,0.02664,0.070813,0.017542,0.0,0.0,0.0,0.043328,0.075751,0.043328,3.0,0.326646,0.328413,0.316728,0.330147,0.023615,0.079878,0.021137,0.075236,0.057045,0.078588,0.026386,0.070697,0.017308,0.045141,0.004294,0.087053
99293,0.027186,0.07152,0.018982,0.0,0.0,0.0,0.044587,0.075016,0.044587,3.0,0.341068,0.311082,0.3199,0.329078,0.025253,0.080924,0.02275,0.075779,0.049478,0.080044,0.026929,0.071405,0.018626,0.01603,0.040803,0.071901
99313,0.028103,0.072837,0.020281,0.0,0.0,0.0,0.045677,0.074357,0.045677,3.0,0.344032,0.303917,0.323152,0.329328,0.026903,0.081818,0.024389,0.075908,0.042462,0.081147,0.027598,0.07236,0.019939,0.017595,0.052715,0.066665
99333,0.029026,0.074273,0.0217,0.0,0.0,0.0,0.047888,0.072953,0.047888,3.0,0.33896,0.299853,0.328152,0.333302,0.028554,0.082573,0.026044,0.075851,0.035861,0.082016,0.028641,0.073913,0.021348,0.049098,0.061642,0.070696
99353,0.02996,0.076189,0.023229,0.0,0.0,0.0,0.049111,0.072135,0.049111,3.0,0.334072,0.289751,0.328643,0.345977,0.030213,0.083192,0.027717,0.076324,0.029222,0.083102,0.029821,0.075952,0.022871,0.063847,0.108613,0.075105
99373,0.031383,0.077736,0.024746,0.0,0.0,0.0,0.050441,0.071212,0.050441,3.0,0.333099,0.292638,0.334461,0.339037,0.031881,0.083678,0.029407,0.076359,0.023132,0.083849,0.03112,0.077379,0.024395,0.082069,0.072756,0.071226
99393,0.033053,0.079398,0.02625,0.0,0.0,0.0,0.051877,0.070173,0.051877,3.0,0.334708,0.28901,0.336437,0.338449,0.033551,0.084042,0.031108,0.076421,0.017232,0.084566,0.032663,0.079047,0.025782,0.081933,0.068116,0.069218
99413,0.034847,0.080688,0.027875,0.0,0.0,0.0,0.053747,0.068751,0.053747,3.0,0.330676,0.298052,0.323174,0.347599,0.035223,0.084287,0.032818,0.076514,0.011588,0.085187,0.034215,0.080341,0.027416,0.057138,0.062421,0.086974
99433,0.036516,0.081857,0.029382,0.0,0.0,0.0,0.053901,0.068631,0.053901,3.0,0.332137,0.288889,0.33252,0.344841,0.036901,0.084415,0.034539,0.076583,0.006181,0.085732,0.036005,0.08163,0.028918,0.07177,0.06881,0.074139
99466,0.040066,0.082718,0.032159,0.0,0.0,0.0,0.057676,0.06549,0.057676,3.0,0.340392,0.291557,0.34157,0.325235,0.039817,0.084395,0.037553,0.07599,-0.002275,0.086066,0.03931,0.082377,0.031709,0.072658,-0.005497,0.06223
99477,0.040833,0.082687,0.032983,0.0,0.0,0.0,0.058337,0.064901,0.058337,3.0,0.323574,0.308233,0.327339,0.341821,0.040651,0.084331,0.038415,0.07623,-0.004923,0.086375,0.040329,0.082583,0.03264,0.077472,-0.002816,0.090735
99493,0.042227,0.082639,0.034154,0.0,0.0,0.0,0.059149,0.064163,0.059149,3.0,0.329845,0.291582,0.343941,0.333508,0.041905,0.084184,0.039713,0.076521,-0.008774,0.086793,0.041718,0.082659,0.033686,0.104822,0.009331,0.070389
99513,0.044126,0.082318,0.035915,0.0,0.0,0.0,0.059902,0.06346,0.059902,3.0,0.32744,0.304872,0.335508,0.333114,0.043581,0.0839,0.041447,0.076388,-0.013337,0.087025,0.043497,0.082341,0.035452,0.082776,-0.02472,0.078571
99533,0.045775,0.081762,0.037575,0.0,0.0,0.0,0.061079,0.062328,0.061079,3.0,0.33053,0.313163,0.332798,0.325186,0.045249,0.083526,0.043178,0.075836,-0.017385,0.086953,0.045139,0.081539,0.037111,0.064215,-0.067565,0.077876
99553,0.047282,0.080594,0.039127,0.0,0.0,0.0,0.062309,0.061099,0.062309,3.0,0.33153,0.31582,0.329959,0.324536,0.046904,0.083071,0.044902,0.075159,-0.021178,0.086732,0.046661,0.080739,0.038783,0.051738,-0.07745,0.079269
99573,0.048789,0.079546,0.040676,0.0,0.0,0.0,0.064135,0.059179,0.064135,3.0,0.330087,0.310769,0.335311,0.325295,0.048544,0.082538,0.046617,0.074618,-0.024975,0.086522,0.048415,0.079808,0.040319,0.069453,-0.065951,0.077615
99593,0.050173,0.078251,0.04236,0.0,0.0,0.0,0.064392,0.0589,0.064392,3.0,0.309015,0.326082,0.324153,0.341785,0.050175,0.081924,0.048325,0.07428,-0.028867,0.086389,0.050046,0.078751,0.041986,0.088338,-0.05736,0.102919
99613,0.051308,0.077085,0.04393,0.0,0.0,0.0,0.066356,0.056678,0.066356,3.0,0.32094,0.31582,0.332093,0.332864,0.051791,0.081238,0.05002,0.073242,-0.031917,0.085785,0.051301,0.07746,0.043554,0.080962,-0.058094,0.087731
99633,0.052696,0.076034,0.045617,0.0,0.0,0.0,0.067291,0.055563,0.067291,3.0,0.320397,0.318167,0.324299,0.33876,0.053389,0.080483,0.051703,0.07286,-0.035589,0.085517,0.052447,0.076417,0.045251,0.059997,-0.047844,0.093929
99653,0.053955,0.075105,0.047178,0.0,0.0,0.0,0.068238,0.054397,0.068238,3.0,0.329653,0.308973,0.338243,0.324342,0.054975,0.079655,0.053373,0.072258,-0.038934,0.085087,0.053696,0.075248,0.046696,0.071774,-0.063516,0.072265
99673,0.054972,0.074303,0.048745,0.0,0.0,0.0,0.069372,0.052943,0.069372,3.0,0.334427,0.306406,0.331732,0.328566,0.056545,0.078761,0.055028,0.071434,-0.041946,0.084488,0.054711,0.074323,0.048266,0.04046,-0.047716,0.073543
99696,0.055999,0.073249,0.050695,0.0,0.0,0.0,0.071079,0.050628,0.071079,3.0,0.328901,0.304425,0.338088,0.329431,0.05848,0.077557,0.057072,0.070407,-0.045617,0.083678,0.055983,0.073385,0.050203,0.073944,-0.045001,0.072896
99713,0.057006,0.072697,0.05189,0.0,0.0,0.0,0.071519,0.050005,0.071519,3.0,0.331098,0.304956,0.333044,0.331911,0.059628,0.076788,0.058286,0.070054,-0.048134,0.083327,0.056623,0.072722,0.051416,0.05331,-0.039905,0.074163
99741,0.058292,0.071865,0.054191,0.0,0.0,0.0,0.07329,0.047371,0.07329,3.0,0.322163,0.309981,0.324236,0.344497,0.061893,0.075148,0.060683,0.06856,-0.05202,0.08211,0.058163,0.072123,0.053822,0.052986,-0.024027,0.089071
99753,0.058799,0.071584,0.054911,0.0,0.0,0.0,0.073372,0.047243,0.073372,3.0,0.319312,0.309617,0.325259,0.346449,0.062637,0.074574,0.061471,0.068203,-0.053502,0.081769,0.058674,0.071838,0.054664,0.062096,-0.018104,0.089248
99773,0.059823,0.071261,0.056465,0.0,0.0,0.0,0.074142,0.046026,0.074142,3.0,0.326146,0.300709,0.331378,0.342002,0.064109,0.073385,0.063032,0.067194,-0.056003,0.080888,0.059694,0.071519,0.056097,0.059293,-0.013027,0.07641
99793,0.061087,0.070689,0.058028,0.0,0.0,0.0,0.07511,0.044429,0.07511,3.0,0.316035,0.313689,0.327711,0.343556,0.065555,0.072148,0.064569,0.066027,-0.058229,0.079875,0.060833,0.070831,0.057668,0.074719,-0.043827,0.0876
99813,0.062465,0.069985,0.059579,0.0,0.0,0.0,0.076001,0.042886,0.076001,3.0,0.320617,0.311172,0.32085,0.347946,0.066974,0.070865,0.066081,0.064883,-0.060456,0.078832,0.061973,0.070257,0.059225,0.04309,-0.028767,0.088449
99833,0.063602,0.069417,0.061025,0.0,0.0,0.0,0.077119,0.040842,0.077119,3.0,0.332538,0.306572,0.323911,0.337959,0.068367,0.069538,0.067567,0.063661,-0.062525,0.077706,0.063104,0.069447,0.060679,0.018449,-0.050304,0.074697
99853,0.065084,0.068343,0.062462,0.0,0.0,0.0,0.077578,0.039964,0.077578,3.0,0.322787,0.305788,0.334134,0.338135,0.069733,0.068166,0.069026,0.062595,-0.064847,0.076642,0.064715,0.068612,0.062103,0.06753,-0.04846,0.071943
99873,0.06633,0.067276,0.064042,0.0,0.0,0.0,0.078664,0.037782,0.078664,3.0,0.310907,0.307841,0.33265,0.34846,0.071071,0.066753,0.070456,0.061302,-0.066744,0.075418,0.066328,0.067653,0.063664,0.091103,-0.028473,0.082805
99893,0.067801,0.065954,0.065488,0.0,0.0,0.0,0.078664,0.037782,0.078664,3.0,0.312575,0.310689,0.339351,0.338011,0.072381,0.065299,0.071859,0.059955,-0.068506,0.074129,0.067678,0.066337,0.065115,0.100133,-0.060724,0.071258
99913,0.069519,0.064625,0.066938,0.0,0.0,0.0,0.080251,0.034282,0.080251,3.0,0.31278,0.313106,0.338611,0.336398,0.073655,0.06382,0.073228,0.05822,-0.069455,0.072562,0.069272,0.064891,0.066574,0.09581,-0.076859,0.072402
99933,0.071093,0.062933,0.068273,0.0,0.0,0.0,0.080762,0.033059,0.080762,3.0,0.315527,0.320349,0.334961,0.330814,0.074896,0.062309,0.074565,0.057212,-0.071946,0.071389,0.070602,0.06321,0.067917,0.075245,-0.109608,0.071886
99962,0.073023,0.060227,0.070374,0.0,0.0,0.0,0.081833,0.030313,0.081833,3.0,0.323081,0.311592,0.3349,0.331901,0.076709,0.05996,0.076513,0.055321,-0.074861,0.069403,0.072664,0.060742,0.070005,0.050226,-0.084225,0.062847
99973,0.073989,0.059308,0.0711,0.0,0.0,0.0,0.082142,0.029463,0.082142,3.0,0.310163,0.317559,0.336572,0.336725,0.077299,0.059157,0.077147,0.054751,-0.076008,0.068774,0.073508,0.059828,0.070735,0.085679,-0.085534,0.071405
99993,0.07543,0.057494,0.072449,0.0,0.0,0.0,0.082432,0.028642,0.082432,3.0,0.312802,0.321773,0.330392,0.336523,0.078457,0.05752,0.078392,0.053463,-0.077962,0.067428,0.074946,0.057893,0.072088,0.057006,-0.092975,0.072254
100013,0.076617,0.055451,0.07371,0.0,0.0,0.0,0.083025,0.026876,0.083025,3.0,0.323462,0.307111,0.339579,0.330821,0.079584,0.055851,0.079603,0.051945,-0.079328,0.065932,0.076263,0.056089,0.073335,0.051332,-0.070795,0.052833
100033,0.077692,0.053896,0.074944,0.0,0.0,0.0,0.083507,0.025338,0.083507,3.0,0.310649,0.317867,0.333291,0.339249,0.080676,0.054156,0.08078,0.050396,-0.080626,0.064389,0.077577,0.054276,0.074691,0.06286,-0.072946,0.067528
100053,0.079,0.052087,0.076181,0.0,0.0,0.0,0.084176,0.023018,0.084176,3.0,0.311944,0.32115,0.340885,0.327257,0.081733,0.052437,0.081922,0.048849,-0.081959,0.062819,0.078876,0.052224,0.075937,0.077612,-0.114161,0.057882
100073,0.080189,0.050284,0.077438,0.0,0.0,0.0,0.084438,0.022039,0.084438,3.0,0.308248,0.321397,0.330825,0.340505,0.082756,0.050689,0.083029,0.047349,-0.083488,0.06126,0.079963,0.050913,0.077178,0.055011,-0.077302,0.067713
100093,0.081263,0.048847,0.078671,0.0,0.0,0.0,0.08485,0.020395,0.08485,3.0,0.303799,0.325719,0.328204,0.342814,0.083744,0.048918,0.084099,0.045657,-0.084359,0.059569,0.08115,0.049227,0.078417,0.05508,-0.081454,0.071514
100113,0.082099,0.047549,0.079802,0.0,0.0,0.0,0.085374,0.018076,0.085374,3.0,0.309082,0.328768,0.320968,0.342137,0.084694,0.04713,0.085133,0.044055,-0.085625,0.057904,0.081734,0.047698,0.079565,0.022076,-0.093799,0.071963
100133,0.082923,0.046126,0.080923,0.0,0.0,0.0,0.085467,0.017629,0.085467,3.0,0.315391,0.309299,0.337182,0.338868,0.08561,0.045315,0.086129,0.042445,-0.086898,0.05622,0.082691,0.046639,0.080546,0.046359,-0.051002,0.049333
100153,0.083629,0.044829,0.082044,0.0,0.0,0.0,0.086003,0.014797,0.086003,3.0,0.311885,0.306219,0.339229,0.342656,0.086488,0.043485,0.087087,0.040742,-0.087831,0.054466,0.08364,0.04533,0.08166,0.058729,-0.037797,0.048802
100173,0.084345,0.043782,0.08305,0.0,0.0,0.0,0.086264,0.013188,0.086264,3.0,0.316018,0.310279,0.337101,0.337508,0.08733,0.041632,0.088007,0.039107,-0.089158,0.052736,0.084221,0.043925,0.082683,0.040579,-0.062768,0.045092
100205,0.085634,0.041458,0.084817,0.0,0.0,0.0,0.086746,0.009516,0.086746,3.0,0.310084,0.318378,0.328266,0.344093,0.088715,0.038339,0.089524,0.036143,-0.09116,0.049632,0.085391,0.041721,0.084556,0.027735,-0.069138,0.054155
100214,0.085865,0.041076,0.084947,0.0,0.0,0.0,0.086779,0.009209,0.086779,3.0,0.307493,0.315908,0.331249,0.345719,0.088904,0.037863,0.089731,0.035733,-0.091593,0.049194,0.085634,0.041458,0.084817,0.041357,-0.058407,0.052912
100233,0.086446,0.039909,0.085947,0.0,0.0,0.0,0.08691,0.007881,0.08691,3.0,0.310816,0.320941,0.328204,0.341176,0.089636,0.03594,0.090534,0.03405,-0.093153,0.047422,0.086203,0.040054,0.085706,0.022755,-0.084464,0.050682
100253,0.086886,0.038387,0.086846,0.0,0.0,0.0,0.087055,0.006068,0.087055,3.0,0.312878,0.321203,0.324675,0.342433,0.09033,0.033995,0.091298,0.03225,-0.093768,0.045579,0.086649,0.038654,0.086599,0.006572,-0.082908,0.049831
100273,0.087556,0.036616,0.087627,0.0,0.0,0.0,0.087099,0.005402,0.087099,3.0,0.307915,0.31831,0.327987,0.34628,0.090986,0.032039,0.092022,0.030443,-0.094519,0.043717,0.087337,0.037241,0.087486,0.024993,-0.061894,0.048405
100293,0.088232,0.03484,0.088547,0.0,0.0,0.0,0.087198,0.00346,0.087198,3.0,0.303212,0.32608,0.326686,0.344396,0.091602,0.030079,0.092707,0.028581,-0.094609,0.041802,0.08813,0.035338,0.088407,0.029779,-0.087086,0.050861
100313,0.088899,0.033068,0.08933,0.0,0.0,0.0,0.08726,0.001034,0.08726,3.0,0.307678,0.322729,0.336958,0.333701,0.092179,0.028118,0.093351,0.026731,-0.095101,0.039869,0.088914,0.033439,0.089193,0.043695,-0.109317,0.035412
100333,0.089554,0.031051,0.090125,0.0,0.0,0.0,0.087262,-0.000886,0.087262,3.0,0.304908,0.318692,0.338174,0.338705,0.092716,0.026145,0.093955,0.024878,-0.096266,0.037922,0.089579,0.031665,0.089977,0.050878,-0.085039,0.034016
100353,0.090706,0.029134,0.09092,0.0,0.0,0.0,0.087254,-0.001492,0.087254,3.0,0.293308,0.329247,0.331804,0.344752,0.093214,0.024152,0.094516,0.023009,-0.096945,0.035967,0.09036,0.029644,0.090786,0.057137,-0.090233,0.046543
100373,0.091474,0.026989,0.09172,0.0,0.0,0.0,0.087164,-0.004229,0.087164,3.0,0.303216,0.333385,0.332672,0.331537,0.093672,0.022157,0.095037,0.021138,-0.096953,0.034004,0.091244,0.027379,0.091467,0.03158,-0.138797,0.03529
100393,0.092349,0.0246,0.092409,0.0,0.0,0.0,0.087063,-0.005962,0.087063,3.0,0.306137,0.331397,0.332654,0.330948,0.094091,0.020157,0.095517,0.019209,-0.098014,0.031991,0.091999,0.024995,0.092158,0.020454,-0.131631,0.030237
100413,0.093117,0.022467,0.092987,0.0,0.0,0.0,0.086902,-0.007969,0.086902,3.0,0.299514,0.323169,0.33822,0.339111,0.094469,0.018141,0.095954,0.017276,-0.098786,0.029976,0.092895,0.023091,0.092826,0.047225,-0.086892,0.027591
100440,0.09395,0.019218,0.09384,0.0,0.0,0.0,0.086577,-0.010947,0.086577,3.0,0.296357,0.330926,0.329771,0.342623,0.09496,0.015093,0.09653,0.014316,-0.100076,0.026916,0.093979,0.019826,0.093812,0.02492,-0.094783,0.033485
100453,0.094283,0.018458,0.094109,0.0,0.0,0.0,0.086466,-0.01179,0.086466,3.0,0.301204,0.321041,0.337035,0.340837,0.095104,0.01407,0.0967,0.0133,-0.100619,0.025878,0.094183,0.018956,0.093968,0.032033,-0.073215,0.021904
100473,0.094809,0.016584,0.094546,0.0,0.0,0.0,0.086257,-0.013238,0.086257,3.0,0.304916,0.322331,0.341506,0.331881,0.095358,0.012012,0.097008,0.011259,-0.101557,0.023796,0.094703,0.016961,0.094411,0.032207,-0.099238,0.012195
100493,0.095334,0.01471,0.094985,0.0,0.0,0.0,0.086004,-0.014791,0.086004,3.0,0.304937,0.321879,0.342778,0.33097,0.095572,0.009943,0.097273,0.009265,-0.101972,0.021742,0.095228,0.015088,0.094849,0.032183,-0.09878,0.008424
100513,0.09551,0.013098,0.095436,0.0,0.0,0.0,0.085773,-0.016075,0.085773,3.0,0.306157,0.323462,0.338527,0.33276,0.095744,0.007871,0.097495,0.007287,-0.102151,0.019692,0.09552,0.013348,0.095303,0.014557,-0.095992,0.008927
100533,0.095685,0.011607,0.095865,0.0,0.0,0.0,0.085565,-0.017151,0.085565,3.0,0.305696,0.325734,0.332685,0.336849,0.095877,0.005804,0.097677,0.005385,-0.101841,0.01768,0.095574,0.011863,0.095734,-0.002022,-0.089095,0.012335
100553,0.095725,0.009884,0.096186,0.0,0.0,0.0,0.084956,-0.019947,0.084956,3.0,0.307492,0.319938,0.330578,0.342736,0.095972,0.003749,0.09782,0.003488,-0.101445,0.015662,0.095511,0.010511,0.09604,-0.014483,-0.062096,0.009469
100573,0.095771,0.008289,0.096381,0.0,0.0,0.0,0.084576,-0.0215,0.084576,3.0,0.295022,0.330012,0.32716,0.347012,0.096026,0.001697,0.097921,0.001353,-0.10202,0.013489,0.095795,0.008777,0.096357,0.003189,-0.075357,0.019954
100593,0.095573,0.006706,0.096579,0.0,0.0,0.0,0.084116,-0.023235,0.084116,3.0,0.292063,0.331027,0.327521,0.348079,0.096038,-0.000359,0.097978,-0.000721,-0.102276,0.01135,0.09584,0.007181,0.096552,0.008749,-0.07512,0.01935
100613,0.095491,0.004995,0.096781,0.0,0.0,0.0,0.083705,-0.024677,0.083705,3.0,0.296022,0.324615,0.33324,0.345507,0.096008,-0.002417,0.097991,-0.002787,-0.102431,0.009214,0.095763,0.005592,0.096749,0.013577,-0.064548,0.008559
100633,0.095663,0.003516,0.096968,0.0,0.0,0.0,0.083056,-0.026779,0.083056,3.0,0.286518,0.334924,0.325863,0.350222,0.095937,-0.004472,0.097963,-0.004861,-0.102537,0.007071,0.095681,0.003881,0.096951,0.012919,-0.0795,0.019352
100653,0.095586,0.001933,0.097044,0.0,0.0,0.0,0.082672,-0.027943,0.082672,3.0,0.3013,0.331914,0.326621,0.340541,0.095824,-0.006527,0.097891,-0.006985,-0.102735,0.004895,0.095477,0.002184,0.097034,-0.020384,-0.096778,0.005061
100701,0.095221,-0.003043,0.09704,0.0,0.0,0.0,0.080825,-0.032906,0.080825,3.0,0.290308,0.331572,0.33191,0.344842,0.095366,-0.011638,0.097528,-0.01217,-0.102557,-0.000474,0.095494,-0.002446,0.097008,0.012217,-0.08237,0.001789
100711,0.095296,-0.004018,0.096964,0.0,0.0,0.0,0.080493,-0.03371,0.080493,3.0,0.283102,0.330924,0.335003,0.348067,0.095243,-0.012659,0.097422,-0.01332,-0.102766,-0.001619,0.095573,-0.003305,0.097048,0.035,-0.071236,0.002694
100717,0.095405,-0.004273,0.097095,0.0,0.0,0.0,0.080387,-0.033962,0.080387,3.0,0.303973,0.333055,0.33095,0.332919,0.095177,-0.01317,0.097365,-0.013904,-0.102882,-0.002198,0.095298,-0.004016,0.096964,-0.023899,-0.117628,-0.010022
100733,0.09519,-0.006082,0.096923,0.0,0.0,0.0,0.080271,-0.034236,0.080271,3.0,0.302695,0.319404,0.339623,0.338506,0.094962,-0.014703,0.097178,-0.01554,-0.102936,-0.003862,0.09523,-0.005231,0.096883,0.00257,-0.062965,-0.017939
100753,0.094858,-0.007885,0.09677,0.0,0.0,0.0,0.079435,-0.036132,0.079435,3.0,0.289945,0.337884,0.328756,0.342025,0.094642,-0.016738,0.096891,-0.017473,-0.102396,-0.005928,0.095002,-0.00741,0.096867,-0.000104,-0.100627,-0.001105
100773,0.094875,-0.010072,0.09663,0.0,0.0,0.0,0.078957,-0.037165,0.078957,3.0,0.291174,0.34841,0.323658,0.335162,0.094284,-0.01876,0.096565,-0.019397,-0.101809,-0.007986,0.094771,-0.009705,0.096735,-0.017908,-0.144267,0.00067
100793,0.094758,-0.012496,0.096504,0.0,0.0,0.0,0.077871,-0.039389,0.077871,3.0,0.302861,0.344027,0.322875,0.330543,0.09389,-0.020764,0.096201,-0.021308,-0.101159,-0.010032,0.094412,-0.012112,0.096488,-0.05037,-0.142269,-0.011307
100813,0.094412,-0.014654,0.096124,0.0,0.0,0.0,0.076971,-0.04112,0.076971,3.0,0.30119,0.336415,0.328793,0.334103,0.093457,-0.022755,0.095795,-0.023488,-0.101006,-0.01224,0.094313,-0.014167,0.096222,-0.033849,-0.109099,-0.0181
100833,0.094067,-0.016812,0.095743,0.0,0.0,0.0,0.076528,-0.04194,0.076528,3.0,0.282069,0.341378,0.328314,0.345117,0.092981,-0.024741,0.095347,-0.025576,-0.100654,-0.014393,0.094342,-0.016105,0.09595,0.006372,-0.087453,-0.004339
100853,0.093837,-0.019104,0.095489,0.0,0.0,0.0,0.075198,-0.04428,0.075198,3.0,0.288894,0.33464,0.334449,0.340565,0.092469,-0.02671,0.09486,-0.027456,-0.099901,-0.016414,0.094119,-0.01827,0.09557,0.00366,-0.080984,-0.018925
100873,0.093743,-0.021152,0.095102,0.0,0.0,0.0,0.074664,-0.045175,0.074664,3.0,0.2901,0.334501,0.333759,0.34041,0.091917,-0.028667,0.094332,-0.029744,-0.099805,-0.018683,0.093898,-0.020434,0.095189,-0.002698,-0.075595,-0.020608
100893,0.093667,-0.022835,0.094697,0.0,0.0,0.0,0.073351,-0.047276,0.073351,3.0,0.293975,0.337415,0.331833,0.336242,0.091325,-0.030613,0.093762,-0.031687,-0.099117,-0.02074,0.093563,-0.022464,0.09468,-0.020766,-0.094395,-0.025258
100915,0.092808,-0.025562,0.093962,0.0,0.0,0.0,0.071914,-0.049435,0.071914,3.0,0.278156,0.340962,0.326684,0.349932,0.09053,-0.033028,0.092993,-0.034469,-0.098757,-0.023524,0.09321,-0.024739,0.094164,-0.003248,-0.063086,-0.012253
100933,0.092758,-0.026757,0.093534,0.0,0.0,0.0,0.071498,-0.050034,0.071498,3.0,0.293006,0.341934,0.328998,0.335231,0.09002,-0.03447,0.092499,-0.036252,-0.09867,-0.025265,0.092774,-0.026397,0.093638,-0.030904,-0.103842,-0.026401
100958,0.092041,-0.029249,0.092802,0.0,0.0,0.0,0.070108,-0.051965,0.070108,3.0,0.288633,0.344577,0.325242,0.339691,0.08912,-0.036859,0.091623,-0.03868,-0.09772,-0.027836,0.092185,-0.028773,0.092901,-0.0337,-0.095374,-0.02238
100973,0.09149,-0.030784,0.092267,0.0,0.0,0.0,0.069834,-0.052332,0.069834,3.0,0.2907,0.338848,0.332967,0.336383,0.088552,-0.03828,0.091069,-0.040297,-0.097336,-0.029472,0.091759,-0.030191,0.092361,-0.017805,-0.084932,-0.031499
100993,0.090666,-0.032904,0.091498,0.0,0.0,0.0,0.068898,-0.053559,0.068898,3.0,0.288192,0.34329,0.329622,0.337171,0.087764,-0.040158,0.090296,-0.042126,-0.096372,-0.031446,0.091055,-0.032322,0.091715,-0.022302,-0.090913,-0.028448
101013,0.090097,-0.034921,0.090862,0.0,0.0,0.0,0.067701,-0.055064,0.067701,3.0,0.296638,0.341435,0.334028,0.327629,0.086943,-0.042011,0.089488,-0.043763,-0.095152,-0.033289,0.090366,-0.034327,0.090957,-0.03167,-0.108736,-0.041446
101033,0.089293,-0.036801,0.090095,0.0,0.0,0.0,0.065963,-0.057134,0.065963,3.0,0.294768,0.346379,0.326356,0.331693,0.08609,-0.043841,0.088646,-0.04569,-0.094263,-0.035294,0.089427,-0.036451,0.090323,-0.050939,-0.110314,-0.037461
101053,0.088479,-0.038801,0.089316,0.0,0.0,0.0,0.065461,-0.057708,0.065461,3.0,0.299251,0.347556,0.325001,0.327886,0.085198,-0.045654,0.087763,-0.047898,-0.093676,-0.037466,0.088497,-0.038323,0.089538,-0.063764,-0.118508,-0.040004
101073,0.087546,-0.041033,0.088319,0.0,0.0,0.0,0.063754,-0.05959,0.063754,3.0,0.298491,0.345231,0.326281,0.329782,0.08427,-0.047447,0.086844,-0.04961,-0.092519,-0.039334,0.087688,-0.040445,0.088657,-0.061735,-0.104462,-0.044217
101093,0.0865,-0.043022,0.087428,0.0,0.0,0.0,0.06276,-0.060635,0.06276,3.0,0.294268,0.346108,0.32735,0.331431,0.083307,-0.049219,0.085888,-0.051903,-0.091952,-0.041549,0.086885,-0.042443,0.08777,-0.049794,-0.098003,-0.043313
101113,0.085468,-0.044644,0.086503,0.0,0.0,0.0,0.062086,-0.061325,0.062086,3.0,0.291269,0.348684,0.317627,0.340419,0.082305,-0.050974,0.084892,-0.053706,-0.090864,-0.043465,0.085725,-0.044182,0.086849,-0.066761,-0.076019,-0.03273
101133,0.084442,-0.046269,0.085592,0.0,0.0,0.0,0.060677,-0.06272,0.060677,3.0,0.291451,0.340566,0.330492,0.336455,0.081273,-0.052702,0.083864,-0.055234,-0.089488,-0.045198,0.084823,-0.045808,0.085819,-0.03475,-0.062092,-0.046654
101155,0.083031,-0.048473,0.08432,0.0,0.0,0.0,0.058167,-0.065054,0.058167,3.0,0.304632,0.3378,0.33224,0.326167,0.079942,-0.054824,0.082534,-0.057731,-0.088291,-0.047698,0.08329,-0.048006,0.084546,-0.063825,-0.080908,-0.063677
101173,0.082386,-0.049755,0.083516,0.0,0.0,0.0,0.05712,-0.065976,0.05712,3.0,0.288148,0.352533,0.324566,0.332376,0.079112,-0.056085,0.081705,-0.059615,-0.087897,-0.049436,0.082636,-0.049413,0.083869,-0.047015,-0.103569,-0.045473
101194,0.081377,-0.051253,0.082351,0.0,0.0,0.0,0.055978,-0.066947,0.055978,3.0,0.290412,0.348419,0.3244,0.335069,0.077967,-0.057753,0.080563,-0.061858,-0.087109,-0.051603,0.081504,-0.050906,0.082702,-0.052843,-0.081789,-0.048435
101213,0.080111,-0.052983,0.081175,0.0,0.0,0.0,0.054856,-0.067869,0.054856,3.0,0.295798,0.347403,0.323398,0.332603,0.076782,-0.059403,0.079382,-0.064082,-0.086265,-0.053766,0.080365,-0.052519,0.081523,-0.068253,-0.082584,-0.053128
101233,0.078862,-0.054475,0.08,0.0,0.0,0.0,0.054089,-0.068483,0.054089,3.0,0.289332,0.349357,0.327769,0.331693,0.07556,-0.06103,0.078163,-0.065711,-0.084919,-0.055563,0.079353,-0.054141,0.080359,-0.040842,-0.08626,-0.052012
101253,0.077615,-0.055842,0.078804,0.0,0.0,0.0,0.052682,-0.06957,0.052682,3.0,0.288484,0.347683,0.325521,0.336339,0.074314,-0.062627,0.076915,-0.066958,-0.083257,-0.057101,0.07811,-0.055386,0.079159,-0.045309,-0.067424,-0.051172
101273,0.076506,-0.056976,0.077614,0.0,0.0,0.0,0.050688,-0.071037,0.050688,3.0,0.298065,0.338854,0.330081,0.333054,0.073046,-0.06419,0.07564,-0.068477,-0.08178,-0.058771,0.076878,-0.056632,0.077851,-0.057571,-0.051361,-0.066082
101293,0.075267,-0.058224,0.076409,0.0,0.0,0.0,0.050118,-0.07144,0.050118,3.0,0.301976,0.343541,0.328165,0.326625,0.071747,-0.065726,0.074333,-0.070235,-0.08046,-0.060567,0.075513,-0.057997,0.076649,-0.069147,-0.077842,-0.066729
101313,0.074033,-0.059596,0.0751,0.0,0.0,0.0,0.047762,-0.073036,0.047762,3.0,0.296864,0.344555,0.331507,0.326687,0.070422,-0.067231,0.072997,-0.071553,-0.078826,-0.06208,0.0744,-0.059373,0.075342,-0.051982,-0.080409,-0.070172
101333,0.072552,-0.060957,0.073769,0.0,0.0,0.0,0.04649,-0.073852,0.04649,3.0,0.298328,0.337679,0.330967,0.33315,0.069068,-0.068707,0.071632,-0.073687,-0.077702,-0.064076,0.073054,-0.060499,0.074019,-0.056419,-0.041944,-0.071929
101353,0.071191,-0.062571,0.07246,0.0,0.0,0.0,0.04506,-0.074733,0.04506,3.0,0.291464,0.344618,0.333576,0.329157,0.067678,-0.070159,0.070231,-0.07544,-0.076322,-0.065844,0.071809,-0.062114,0.072701,-0.03367,-0.068702,-0.070561
101373,0.06984,-0.064062,0.071023,0.0,0.0,0.0,0.0438,-0.075478,0.0438,3.0,0.297831,0.343523,0.328176,0.33029,0.066259,-0.071581,0.068799,-0.076905,-0.074756,-0.067429,0.070211,-0.063599,0.07138,-0.061616,-0.058977,-0.071639
101393,0.068231,-0.065791,0.069694,0.0,0.0,0.0,0.041467,-0.076785,0.041467,3.0,0.302368,0.349984,0.321314,0.326088,0.064815,-0.072972,0.067341,-0.078398,-0.073187,-0.069012,0.068484,-0.065319,0.069927,-0.091778,-0.08591,-0.072793
101413,0.066519,-0.067274,0.06824,0.0,0.0,0.0,0.040064,-0.077526,0.040064,3.0,0.302151,0.351549,0.318507,0.327291,0.06334,-0.074334,0.065851,-0.080557,-0.071952,-0.070996,0.066881,-0.067053,0.068608,-0.097753,-0.082762,-0.072041
101437,0.064314,-0.069217,0.066408,0.0,0.0,0.0,0.037931,-0.078592,0.037931,3.0,0.304336,0.352482,0.316439,0.326275,0.061447,-0.075999,0.063941,-0.08269,-0.070082,-0.073139,0.06468,-0.068874,0.066772,-0.106338,-0.083811,-0.073691
101453,0.062723,-0.070477,0.065308,0.0,0.0,0.0,0.037164,-0.078957,0.037164,3.0,0.298444,0.347271,0.321011,0.332765,0.060289,-0.076975,0.062772,-0.084141,-0.069019,-0.074526,0.063462,-0.069902,0.065676,-0.079245,-0.048571,-0.073739
101473,0.060909,-0.071473,0.063813,0.0,0.0,0.0,0.036712,-0.079168,0.036712,3.0,0.303011,0.346238,0.321067,0.329811,0.058718,-0.078251,0.061186,-0.085353,-0.067251,-0.075928,0.061516,-0.071136,0.064186,-0.084064,-0.049227,-0.07551
101493,0.059214,-0.072842,0.06222,0.0,0.0,0.0,0.034291,-0.080247,0.034291,3.0,0.306855,0.348897,0.318038,0.326383,0.057135,-0.079489,0.059582,-0.086006,-0.065215,-0.07695,0.059578,-0.072497,0.062586,-0.102011,-0.064003,-0.079827
101513,0.057276,-0.073961,0.060719,0.0,0.0,0.0,0.032488,-0.080994,0.032488,3.0,0.299626,0.350175,0.316146,0.333237,0.055535,-0.08069,0.057957,-0.087383,-0.063479,-0.078369,0.057765,-0.073624,0.061101,-0.08846,-0.047087,-0.074577
101533,0.055466,-0.075091,0.059231,0.0,0.0,0.0,0.031345,-0.081443,0.031345,3.0,0.298328,0.351576,0.316842,0.332204,0.053911,-0.081858,0.056307,-0.088733,-0.061721,-0.079757,0.055951,-0.074749,0.059602,-0.08045,-0.050838,-0.074323
101553,0.053788,-0.076102,0.057618,0.0,0.0,0.0,0.029608,-0.08209,0.029608,3.0,0.307366,0.341571,0.325264,0.32673,0.052267,-0.082991,0.054635,-0.089752,-0.059828,-0.080925,0.05415,-0.075756,0.057987,-0.079149,-0.034739,-0.090741
101573,0.052234,-0.076992,0.055993,0.0,0.0,0.0,0.027524,-0.082812,0.027524,3.0,0.311268,0.349392,0.31893,0.32082,0.050604,-0.084088,0.052943,-0.091153,-0.058055,-0.082305,0.052345,-0.076881,0.056361,-0.105695,-0.070397,-0.091123
101593,0.050318,-0.07788,0.054364,0.0,0.0,0.0,0.026118,-0.083266,0.026118,3.0,0.311542,0.347365,0.318425,0.323308,0.048915,-0.085152,0.051225,-0.092631,-0.056293,-0.083725,0.050673,-0.077775,0.05474,-0.106097,-0.05584,-0.091551
101613,0.048638,-0.079016,0.052737,0.0,0.0,0.0,0.02404,-0.08389,0.02404,3.0,0.294388,0.352855,0.313737,0.337032,0.047203,-0.086181,0.049483,-0.093811,-0.054422,-0.08496,0.049119,-0.078552,0.053231,-0.077718,-0.033709,-0.076629
101638,0.046624,-0.079896,0.05061,0.0,0.0,0.0,0.021653,-0.084537,0.021653,3.0,0.298344,0.353109,0.313151,0.333959,0.045032,-0.087418,0.047275,-0.095534,-0.052131,-0.086638,0.047098,-0.079674,0.05111,-0.088522,-0.040292,-0.081322
101653,0.045552,-0.080579,0.049487,0.0,0.0,0.0,0.020353,-0.08486,0.020353,3.0,0.29544,0.361307,0.309398,0.330853,0.04371,-0.088134,0.045931,-0.096849,-0.050811,-0.087816,0.045784,-0.080469,0.04986,-0.090531,-0.071043,-0.077036
101673,0.043766,-0.081714,0.047605,0.0,0.0,0.0,0.018769,-0.085224,0.018769,3.0,0.301754,0.356589,0.310856,0.329289,0.041921,-0.08906,0.044114,-0.098444,-0.048986,-0.089298,0.044118,-0.081488,0.048102,-0.101338,-0.058008,-0.084451
101693,0.042106,-0.082619,0.045851,0.0,0.0,0.0,0.01736,-0.085522,0.01736,3.0,0.291575,0.356398,0.316111,0.333369,0.040108,-0.08995,0.042274,-0.09942,-0.047002,-0.090402,0.042582,-0.082273,0.04635,-0.063019,-0.044045,-0.081137
101713,0.040446,-0.083649,0.044096,0.0,0.0,0.0,0.016153,-0.085758,0.016153,3.0,0.297157,0.356761,0.312425,0.331665,0.03828,-0.090803,0.040415,-0.100285,-0.044975,-0.091411,0.040799,-0.0833,0.044592,-0.082675,-0.046134,-0.081933
101733,0.038663,-0.084559,0.042454,0.0,0.0,0.0,0.014676,-0.086023,0.014676,3.0,0.303103,0.356963,0.307582,0.330673,0.036443,-0.091617,0.038543,-0.100638,-0.042841,-0.092068,0.038897,-0.084327,0.042826,-0.106633,-0.04585,-0.08302
101753,0.036765,-0.085582,0.040555,0.0,0.0,0.0,0.012192,-0.086411,0.012192,3.0,0.305451,0.354338,0.314822,0.324735,0.034601,-0.092391,0.03666,-0.101191,-0.040731,-0.092795,0.037115,-0.085354,0.041055,-0.095653,-0.050685,-0.094558
101773,0.034871,-0.086372,0.038779,0.0,0.0,0.0,0.010968,-0.086574,0.010968,3.0,0.306569,0.353268,0.313141,0.326504,0.032745,-0.093127,0.034763,-0.102106,-0.038668,-0.093713,0.03522,-0.086143,0.039279,-0.099467,-0.039915,-0.093621
101793,0.032974,-0.087409,0.037005,0.0,0.0,0.0,0.009,-0.086801,0.009,3.0,0.298005,0.358064,0.306936,0.334477,0.030878,-0.093823,0.032853,-0.102433,-0.036524,-0.094252,0.033449,-0.086938,0.037506,-0.094109,-0.029893,-0.083348
101813,0.03096,-0.088204,0.035219,0.0,0.0,0.0,0.007179,-0.086971,0.007179,3.0,0.297471,0.359247,0.305722,0.33471,0.029004,-0.094481,0.030933,-0.10338,-0.034437,-0.095139,0.031555,-0.087855,0.035728,-0.094619,-0.029282,-0.083346
101833,0.02919,-0.089127,0.033442,0.0,0.0,0.0,0.005632,-0.087085,0.005632,3.0,0.301103,0.362802,0.302066,0.330837,0.027113,-0.0951,0.028997,-0.104359,-0.03234,-0.096035,0.029539,-0.088895,0.033944,-0.109494,-0.046351,-0.083818
101853,0.027183,-0.089678,0.031642,0.0,0.0,0.0,0.003646,-0.08719,0.003646,3.0,0.301517,0.358821,0.303529,0.33363,0.025208,-0.095679,0.027047,-0.104971,-0.030204,-0.096702,0.027657,-0.089568,0.032028,-0.106309,-0.023924,-0.086839
101904,0.022603,-0.091514,0.026928,0.0,0.0,0.0,-0.001327,-0.087256,-0.001327,3.0,0.305146,0.361806,0.305192,0.325539,0.020394,-0.096956,0.022119,-0.107001,-0.024824,-0.098607,0.022949,-0.091402,0.027433,-0.108629,-0.046476,-0.094728
101920,0.020729,-0.092083,0.02501,0.0,0.0,0.0,-0.003017,-0.087214,-0.003017,3.0,0.307661,0.362403,0.304225,0.323411,0.01844,-0.097397,0.020121,-0.108028,-0.02264,-0.099499,0.021073,-0.092091,0.025517,-0.11607,-0.050508,-0.097036
101923,0.020729,-0.092083,0.02501,0.0,0.0,0.0,-0.003017,-0.087214,-0.003017,3.0,0.307661,0.362403,0.304225,0.323411,0.01844,-0.097397,0.020121,-0.108028,-0.02264,-0.099499,0.021073,-0.092091,0.025517,-0.11607,-0.050508,-0.097036
101933,0.019673,-0.092305,0.023984,0.0,0.0,0.0,-0.003136,-0.08721,-0.003136,3.0,0.306608,0.354498,0.312566,0.325638,0.017456,-0.097603,0.019117,-0.10844,-0.021541,-0.099884,0.020262,-0.092195,0.0245,-0.090452,-0.020231,-0.101331
101953,0.017677,-0.093,0.022059,0.0,0.0,0.0,-0.004311,-0.08716,-0.004311,3.0,0.302963,0.358447,0.311035,0.325952,0.015484,-0.097984,0.017101,-0.108417,-0.019362,-0.100122,0.018388,-0.092768,0.02258,-0.082035,-0.028249,-0.095972
101973,0.015806,-0.093455,0.020136,0.0,0.0,0.0,-0.006275,-0.087041,-0.006275,3.0,0.302502,0.365542,0.298707,0.329429,0.013517,-0.098325,0.015084,-0.108124,-0.017189,-0.100142,0.016273,-0.09334,0.020647,-0.109277,-0.037389,-0.0868
101993,0.013929,-0.094036,0.018335,0.0,0.0,0.0,-0.0088,-0.086822,-0.0088,3.0,0.298274,0.370158,0.298388,0.328083,0.011553,-0.098627,0.013067,-0.108309,-0.01498,-0.100401,0.014401,-0.094041,0.018725,-0.101069,-0.051229,-0.086252
102013,0.011817,-0.094495,0.016398,0.0,0.0,0.0,-0.009285,-0.086771,-0.009285,3.0,0.301335,0.365835,0.300973,0.328132,0.009582,-0.098888,0.011042,-0.108701,-0.01275,-0.100764,0.012409,-0.094501,0.016794,-0.095974,-0.035071,-0.087498
102033,0.009831,-0.095081,0.014344,0.0,0.0,0.0,-0.012396,-0.086382,-0.012396,3.0,0.307481,0.35951,0.306555,0.324772,0.007613,-0.099109,0.009017,-0.108184,-0.010611,-0.100548,0.010297,-0.094964,0.014856,-0.099403,-0.020931,-0.101916
102053,0.007477,-0.095425,0.012392,0.0,0.0,0.0,-0.013897,-0.086153,-0.013897,3.0,0.311699,0.359414,0.302231,0.324887,0.005645,-0.09929,0.006991,-0.108909,-0.008313,-0.101055,0.008065,-0.095308,0.01291,-0.116596,-0.017645,-0.101746
102073,0.005496,-0.095646,0.010331,0.0,0.0,0.0,-0.015262,-0.085922,-0.015262,3.0,0.322045,0.353908,0.307824,0.315827,0.003664,-0.099429,0.004956,-0.109525,-0.006012,-0.101501,0.00584,-0.095655,0.010842,-0.125248,-0.021891,-0.114306
102093,0.003145,-0.095754,0.008377,0.0,0.0,0.0,-0.017302,-0.085534,-0.017302,3.0,0.317793,0.358831,0.296769,0.3246,0.001677,-0.099527,0.002916,-0.109573,-0.003792,-0.101599,0.00361,-0.095756,0.008891,-0.138719,-0.011689,-0.103076
102134,-0.001437,-0.096225,0.004473,0.0,0.0,0.0,-0.021208,-0.08465,-0.021208,3.0,0.314348,0.359569,0.293177,0.330159,-0.002305,-0.0996,-0.001174,-0.110035,0.000759,-0.10197,-0.000972,-0.096105,0.004987,-0.131946,0.006206,-0.098887
102148,-0.003318,-0.096595,0.002909,0.0,0.0,0.0,-0.022355,-0.084355,-0.022355,3.0,0.308338,0.362379,0.303777,0.323217,-0.003805,-0.099584,-0.002712,-0.110385,0.002525,-0.102209,-0.002488,-0.096352,0.003441,-0.089796,-0.018218,-0.102274
102160,-0.005082,-0.096474,0.001473,0.0,0.0,0.0,-0.023613,-0.084011,-0.023613,3.0,0.312508,0.357334,0.300769,0.327794,-0.005309,-0.099544,-0.004254,-0.110652,0.004285,-0.102399,-0.004368,-0.096474,0.001876,-0.104018,0.011275,-0.103253
102173,-0.006132,-0.096719,0.000439,0.0,0.0,0.0,-0.023736,-0.083976,-0.023736,3.0,0.311277,0.363703,0.29711,0.324919,-0.006313,-0.099504,-0.005284,-0.110712,0.005434,-0.102452,-0.005547,-0.096596,0.000959,-0.105604,-0.014624,-0.097774
102193,-0.008604,-0.096847,-0.001524,0.0,0.0,0.0,-0.025354,-0.083502,-0.025354,3.0,0.315781,0.358001,0.299672,0.324911,-0.008319,-0.099394,-0.007341,-0.110284,0.007594,-0.102205,-0.007891,-0.096725,-0.001121,-0.106754,0.005428,-0.103332
102213,-0.010948,-0.096736,-0.003602,0.0,0.0,0.0,-0.026935,-0.083006,-0.026935,3.0,0.325745,0.351285,0.308406,0.314472,-0.010315,-0.099245,-0.009394,-0.10964,0.009696,-0.101783,-0.010357,-0.096734,-0.003205,-0.106681,0.000728,-0.118758
102233,-0.013298,-0.096873,-0.005559,0.0,0.0,0.0,-0.028947,-0.082326,-0.028947,3.0,0.331569,0.357979,0.300467,0.307913,-0.012301,-0.099058,-0.011438,-0.109281,0.011893,-0.101489,-0.012949,-0.097112,-0.005175,-0.137792,-0.030868,-0.11877
102253,-0.015769,-0.097135,-0.007523,0.0,0.0,0.0,-0.029619,-0.082086,-0.029619,3.0,0.320522,0.358307,0.294258,0.324737,-0.014282,-0.09883,-0.013478,-0.108662,0.014002,-0.101006,-0.015061,-0.097008,-0.006996,-0.116338,0.012002,-0.1014
102273,-0.017875,-0.097163,-0.009469,0.0,0.0,0.0,-0.031986,-0.081193,-0.031986,3.0,0.315718,0.363545,0.296335,0.321532,-0.016246,-0.098567,-0.015505,-0.107689,0.015987,-0.100266,-0.017167,-0.097278,-0.008944,-0.098215,-0.007423,-0.101186
102293,-0.019866,-0.097065,-0.011284,0.0,0.0,0.0,-0.033997,-0.080372,-0.033997,3.0,0.306302,0.372875,0.283793,0.330063,-0.018198,-0.098264,-0.017523,-0.107426,0.018233,-0.09992,-0.019401,-0.097179,-0.010772,-0.100577,-0.010859,-0.085271
102313,-0.021728,-0.09697,-0.013214,0.0,0.0,0.0,-0.033997,-0.080372,-0.033997,3.0,0.319223,0.358004,0.298554,0.322559,-0.020148,-0.097921,-0.019535,-0.106874,0.020364,-0.099388,-0.02138,-0.096965,-0.012829,-0.091248,0.014963,-0.102212
102333,-0.023713,-0.09688,-0.01515,0.0,0.0,0.0,-0.03751,-0.078793,-0.03751,3.0,0.310301,0.362531,0.299444,0.325123,-0.022078,-0.097542,-0.021532,-0.105514,0.022157,-0.098331,-0.023245,-0.096751,-0.014758,-0.069913,0.012868,-0.100751
102353,-0.025456,-0.096547,-0.017071,0.0,0.0,0.0,-0.038604,-0.078263,-0.038604,3.0,0.311508,0.363157,0.287538,0.333449,-0.023997,-0.097125,-0.023517,-0.105781,0.024664,-0.098237,-0.025108,-0.096541,-0.016686,-0.097004,0.035234,-0.091348
102407,-0.030218,-0.095808,-0.022443,0.0,0.0,0.0,-0.043011,-0.075931,-0.043011,3.0,0.304793,0.37067,0.281913,0.335459,-0.029257,-0.095763,-0.028945,-0.104385,0.030619,-0.096687,-0.029875,-0.095798,-0.021936,-0.087187,0.023905,-0.080872
102410,-0.031049,-0.095702,-0.022971,0.0,0.0,0.0,-0.043254,-0.075793,-0.043254,3.0,0.310272,0.367321,0.293413,0.32487,-0.029732,-0.095624,-0.029435,-0.104302,0.031188,-0.09657,-0.030218,-0.095808,-0.022443,-0.075027,0.006969,-0.094235
102414,-0.031267,-0.095469,-0.023591,0.0,0.0,0.0,-0.043254,-0.075793,-0.043254,3.0,0.310272,0.367321,0.293413,0.32487,-0.029732,-0.095624,-0.029435,-0.104302,0.031188,-0.09657,-0.030218,-0.095808,-0.022443,-0.075027,0.006969,-0.094235
102433,-0.032553,-0.095258,-0.024874,0.0,0.0,0.0,-0.044459,-0.075092,-0.044459,3.0,0.304427,0.371655,0.284978,0.332206,-0.031629,-0.095042,-0.03139,-0.103932,0.033456,-0.096075,-0.032089,-0.095244,-0.024362,-0.075989,0.013819,-0.081674
102453,-0.034306,-0.094581,-0.026788,0.0,0.0,0.0,-0.046063,-0.074119,-0.046063,3.0,0.316193,0.364344,0.293737,0.32243,-0.033516,-0.094421,-0.033335,-0.103129,0.035493,-0.095308,-0.03383,-0.094807,-0.026397,-0.083745,0.012778,-0.097795
102473,-0.036177,-0.094146,-0.028705,0.0,0.0,0.0,-0.047673,-0.073094,-0.047673,3.0,0.319034,0.36416,0.290687,0.322524,-0.035391,-0.093761,-0.035267,-0.102378,0.03757,-0.094553,-0.035827,-0.094257,-0.028323,-0.095164,0.01553,-0.097802
102493,-0.038414,-0.093357,-0.030753,0.0,0.0,0.0,-0.048702,-0.072412,-0.048702,3.0,0.323958,0.357786,0.291859,0.32401,-0.037253,-0.093063,-0.037187,-0.10155,0.039607,-0.093731,-0.037824,-0.093584,-0.03024,-0.100485,0.039065,-0.101146
102513,-0.040413,-0.092687,-0.032667,0.0,0.0,0.0,-0.050816,-0.070945,-0.050816,3.0,0.33705,0.351833,0.295491,0.313901,-0.039099,-0.092328,-0.039091,-0.100547,0.041541,-0.092782,-0.040059,-0.09292,-0.032288,-0.125431,0.033657,-0.117003
102533,-0.042539,-0.091907,-0.034588,0.0,0.0,0.0,-0.051712,-0.070294,-0.051712,3.0,0.33679,0.355919,0.294725,0.310054,-0.040932,-0.091555,-0.040982,-0.099955,0.043763,-0.092065,-0.042061,-0.092257,-0.034206,-0.121023,0.012194,-0.113805
102553,-0.044782,-0.09137,-0.036511,0.0,0.0,0.0,-0.052906,-0.069401,-0.052906,3.0,0.327121,0.362141,0.284776,0.321825,-0.042751,-0.090743,-0.042858,-0.098761,0.045571,-0.090967,-0.044193,-0.091472,-0.035997,-0.111995,0.023846,-0.096222
102573,-0.047164,-0.090717,-0.038196,0.0,0.0,0.0,-0.054725,-0.067975,-0.054725,3.0,0.313075,0.369825,0.274323,0.334865,-0.044549,-0.089898,-0.044715,-0.097625,0.047425,-0.089877,-0.046332,-0.090688,-0.037663,-0.094787,0.037304,-0.077564
102593,-0.049295,-0.089821,-0.0401,0.0,0.0,0.0,-0.056183,-0.066775,-0.056183,3.0,0.323934,0.367147,0.268791,0.331867,-0.04633,-0.089016,-0.046554,-0.096875,0.049586,-0.089003,-0.048824,-0.090045,-0.039597,-0.128599,0.039681,-0.082456
102634,-0.053688,-0.088165,-0.043794,0.0,0.0,0.0,-0.059221,-0.064096,-0.059221,3.0,0.332006,0.35813,0.286161,0.320266,-0.049852,-0.087133,-0.050188,-0.095075,0.053719,-0.087049,-0.053088,-0.08851,-0.043412,-0.104332,0.040187,-0.100679
102652,-0.055458,-0.087513,-0.045559,0.0,0.0,0.0,-0.060441,-0.062947,-0.060441,3.0,0.328206,0.360542,0.287839,0.319971,-0.051593,-0.086131,-0.051982,-0.094293,0.055922,-0.086135,-0.054981,-0.087738,-0.045179,-0.086425,0.033983,-0.097794
102654,-0.056045,-0.087538,-0.046072,0.0,0.0,0.0,-0.060441,-0.062947,-0.060441,3.0,0.328206,0.360542,0.287839,0.319971,-0.051593,-0.086131,-0.051982,-0.094293,0.055922,-0.086135,-0.054981,-0.087738,-0.045179,-0.086425,0.033983,-0.097794
102673,-0.057229,-0.086751,-0.047449,0.0,0.0,0.0,-0.060626,-0.062769,-0.060626,3.0,0.333768,0.354609,0.289347,0.319728,-0.053319,-0.085088,-0.05376,-0.093126,0.057797,-0.08498,-0.05687,-0.0871,-0.047079,-0.090913,0.050345,-0.099641
102693,-0.058882,-0.085981,-0.049202,0.0,0.0,0.0,-0.062135,-0.061275,-0.062135,3.0,0.328858,0.364204,0.28541,0.317035,-0.055018,-0.084017,-0.055514,-0.091292,0.059052,-0.083388,-0.058528,-0.086324,-0.048709,-0.084136,0.017111,-0.092396
102713,-0.060545,-0.085215,-0.050839,0.0,0.0,0.0,-0.063525,-0.059834,-0.063525,3.0,0.317687,0.36634,0.275691,0.333521,-0.056687,-0.08292,-0.057239,-0.089697,0.06053,-0.0819,-0.060072,-0.085307,-0.050326,-0.073561,0.055577,-0.075272
102733,-0.061956,-0.084445,-0.052578,0.0,0.0,0.0,-0.064784,-0.058467,-0.064784,3.0,0.320881,0.366693,0.276095,0.329773,-0.058329,-0.081792,-0.05894,-0.08826,0.062159,-0.08048,-0.061611,-0.084422,-0.052076,-0.078522,0.04612,-0.077408
102753,-0.063256,-0.083548,-0.054185,0.0,0.0,0.0,-0.065942,-0.057158,-0.065942,3.0,0.319424,0.364224,0.278081,0.332432,-0.059948,-0.080632,-0.060616,-0.087046,0.064031,-0.079179,-0.063024,-0.083654,-0.053813,-0.068172,0.06313,-0.076314
102773,-0.064686,-0.08254,-0.0558,0.0,0.0,0.0,-0.066849,-0.056095,-0.066849,3.0,0.307664,0.367177,0.276958,0.340674,-0.061546,-0.079437,-0.062269,-0.08559,0.065639,-0.077719,-0.064211,-0.08264,-0.055421,-0.038511,0.077106,-0.063835
102793,-0.065869,-0.081405,-0.057512,0.0,0.0,0.0,-0.068167,-0.054486,-0.068167,3.0,0.327478,0.356028,0.291008,0.323199,-0.063117,-0.078213,-0.063896,-0.08407,0.067179,-0.076204,-0.065512,-0.081628,-0.05714,-0.057436,0.065689,-0.090713
102813,-0.067059,-0.080268,-0.059099,0.0,0.0,0.0,-0.069104,-0.053292,-0.069104,3.0,0.325071,0.36481,0.281776,0.323278,-0.064663,-0.076955,-0.065497,-0.082744,0.068956,-0.074794,-0.066819,-0.080615,-0.058737,-0.069072,0.04001,-0.080053
102833,-0.068246,-0.079264,-0.060822,0.0,0.0,0.0,-0.070417,-0.051545,-0.070417,3.0,0.324203,0.367014,0.278534,0.324202,-0.066185,-0.075666,-0.067072,-0.081144,0.070401,-0.073206,-0.067887,-0.079603,-0.060334,-0.073532,0.038227,-0.076495
102865,-0.070045,-0.076966,-0.063479,0.0,0.0,0.0,-0.072218,-0.04899,-0.072218,3.0,0.321154,0.363116,0.28706,0.324752,-0.068419,-0.073674,-0.069385,-0.079031,0.072949,-0.070976,-0.069563,-0.077659,-0.062758,-0.044955,0.052857,-0.078361
102882,-0.07089,-0.075813,-0.064682,0.0,0.0,0.0,-0.073234,-0.047458,-0.073234,3.0,0.337997,0.353948,0.29322,0.31245,-0.06988,-0.072301,-0.070897,-0.077757,0.074863,-0.069564,-0.070883,-0.076418,-0.064472,-0.074398,0.049767,-0.096703
102895,-0.072228,-0.07468,-0.06591,0.0,0.0,0.0,-0.07366,-0.046794,-0.07366,3.0,0.327193,0.361622,0.27255,0.332123,-0.070602,-0.0716,-0.071643,-0.077102,0.075807,-0.068847,-0.0715,-0.075482,-0.065065,-0.088845,0.076805,-0.071152
102913,-0.073077,-0.073529,-0.06711,0.0,0.0,0.0,-0.074011,-0.046236,-0.074011,3.0,0.326717,0.354817,0.286712,0.328951,-0.072029,-0.070172,-0.073118,-0.075592,0.077417,-0.067285,-0.072713,-0.073872,-0.066747,-0.053177,0.085426,-0.077638
102933,-0.074417,-0.07192,-0.068669,0.0,0.0,0.0,-0.074951,-0.044696,-0.074951,3.0,0.318181,0.36324,0.270996,0.340018,-0.073425,-0.068718,-0.074562,-0.073658,0.078383,-0.065449,-0.074062,-0.072136,-0.068181,-0.061673,0.089113,-0.057503
102953,-0.075652,-0.070188,-0.070108,0.0,0.0,0.0,-0.07576,-0.043311,-0.07576,3.0,0.331628,0.35579,0.278838,0.329336,-0.074787,-0.067245,-0.075973,-0.071668,0.079243,-0.063555,-0.075526,-0.070658,-0.069758,-0.077214,0.081608,-0.072988
102973,-0.07712,-0.068587,-0.071665,0.0,0.0,0.0,-0.076834,-0.041376,-0.076834,3.0,0.344574,0.348919,0.285045,0.318191,-0.076113,-0.065753,-0.077349,-0.069851,0.080388,-0.061747,-0.07687,-0.069052,-0.071312,-0.097709,0.073146,-0.088549
102993,-0.07835,-0.066976,-0.07309,0.0,0.0,0.0,-0.077807,-0.039515,-0.077807,3.0,0.338301,0.351383,0.286374,0.321128,-0.077409,-0.064234,-0.078693,-0.06812,0.081677,-0.059979,-0.078101,-0.067441,-0.072737,-0.074575,0.073867,-0.082372
103013,-0.079714,-0.065253,-0.074525,0.0,0.0,0.0,-0.078281,-0.038569,-0.078281,3.0,0.331644,0.349834,0.282921,0.332559,-0.078676,-0.062687,-0.080007,-0.066448,0.083078,-0.058238,-0.07923,-0.065467,-0.074157,-0.06022,0.10449,-0.070861
103033,-0.08072,-0.063271,-0.075923,0.0,0.0,0.0,-0.079371,-0.036272,-0.079371,3.0,0.33871,0.347128,0.288725,0.323425,-0.079911,-0.061115,-0.081288,-0.064609,0.084167,-0.056386,-0.080469,-0.063736,-0.075572,-0.065004,0.089145,-0.080975
103053,-0.081723,-0.061531,-0.077208,0.0,0.0,0.0,-0.07983,-0.035251,-0.07983,3.0,0.338244,0.349188,0.293853,0.317127,-0.081115,-0.059516,-0.082537,-0.062912,0.085549,-0.054612,-0.081463,-0.06212,-0.076984,-0.048943,0.064357,-0.081668
103073,-0.082724,-0.059922,-0.078632,0.0,0.0,0.0,-0.080814,-0.032933,-0.080814,3.0,0.327379,0.352237,0.287211,0.330717,-0.082287,-0.057893,-0.083753,-0.060883,0.086209,-0.052626,-0.082478,-0.060264,-0.078277,-0.032822,0.091894,-0.065683
103093,-0.083614,-0.058174,-0.079788,0.0,0.0,0.0,-0.081396,-0.031468,-0.081396,3.0,0.33166,0.352261,0.288352,0.325433,-0.083424,-0.056249,-0.084934,-0.059215,0.087708,-0.050853,-0.08348,-0.058647,-0.079563,-0.039279,0.076653,-0.06836
103141,-0.085634,-0.054371,-0.08307,0.0,0.0,0.0,-0.082969,-0.027048,-0.082969,3.0,0.333009,0.347821,0.293997,0.3241,-0.086128,-0.052025,-0.087742,-0.054618,0.090499,-0.046128,-0.085386,-0.054712,-0.082717,-0.026241,0.085669,-0.068895
103144,-0.085634,-0.054371,-0.08307,0.0,0.0,0.0,-0.082969,-0.027048,-0.082969,3.0,0.333009,0.347821,0.293997,0.3241,-0.086128,-0.052025,-0.087742,-0.054618,0.090499,-0.046128,-0.085386,-0.054712,-0.082717,-0.026241,0.085669,-0.068895
103153,-0.085892,-0.053675,-0.08365,0.0,0.0,0.0,-0.083187,-0.026369,-0.083187,3.0,0.33534,0.349227,0.294388,0.319738,-0.086645,-0.051161,-0.088278,-0.053729,0.091164,-0.045197,-0.085761,-0.054025,-0.083421,-0.031061,0.070887,-0.070108
103173,-0.086535,-0.052166,-0.084806,0.0,0.0,0.0,-0.083452,-0.025519,-0.083452,3.0,0.327354,0.347911,0.297674,0.326548,-0.087653,-0.049413,-0.089325,-0.051843,0.092192,-0.043263,-0.086161,-0.052507,-0.084572,-0.000407,0.089923,-0.062567
103193,-0.086945,-0.050647,-0.085851,0.0,0.0,0.0,-0.083842,-0.024206,-0.083842,3.0,0.330407,0.355933,0.280434,0.329137,-0.088624,-0.047649,-0.090335,-0.049714,0.09246,-0.041172,-0.086929,-0.051123,-0.085629,-0.045576,0.072752,-0.050091
103213,-0.087469,-0.049135,-0.087002,0.0,0.0,0.0,-0.084505,-0.02178,-0.084505,3.0,0.331451,0.35182,0.284734,0.329139,-0.089556,-0.045879,-0.091304,-0.047595,0.092739,-0.039081,-0.087453,-0.049612,-0.086781,-0.038721,0.087577,-0.052602
103233,-0.088234,-0.047755,-0.088162,0.0,0.0,0.0,-0.084768,-0.020731,-0.084768,3.0,0.334051,0.347909,0.299251,0.318198,-0.090451,-0.044095,-0.092236,-0.045617,0.093475,-0.037072,-0.087853,-0.048217,-0.087935,-0.01141,0.068826,-0.063323
103253,-0.089,-0.046501,-0.089342,0.0,0.0,0.0,-0.085347,-0.018202,-0.085347,3.0,0.325593,0.351498,0.295794,0.326022,-0.091309,-0.042297,-0.093129,-0.043591,0.094024,-0.035028,-0.088513,-0.046709,-0.088982,0.004631,0.081817,-0.051247
103273,-0.089405,-0.045103,-0.090372,0.0,0.0,0.0,-0.085589,-0.017029,-0.085589,3.0,0.342212,0.345335,0.298811,0.312562,-0.092131,-0.04048,-0.093985,-0.041649,0.09491,-0.033031,-0.089395,-0.045458,-0.090146,-0.030996,0.064657,-0.066022
103293,-0.09007,-0.043466,-0.091272,0.0,0.0,0.0,-0.085953,-0.015084,-0.085953,3.0,0.340909,0.349548,0.295855,0.311927,-0.092916,-0.038647,-0.094804,-0.039599,0.095281,-0.030963,-0.090042,-0.044186,-0.091063,-0.032398,0.053053,-0.060497
103313,-0.090968,-0.042209,-0.092208,0.0,0.0,0.0,-0.086253,-0.01326,-0.086253,3.0,0.345801,0.349875,0.288178,0.312971,-0.093664,-0.0368,-0.095583,-0.037621,0.096017,-0.028937,-0.09095,-0.042685,-0.091987,-0.060896,0.055475,-0.057104
103333,-0.091751,-0.040701,-0.093112,0.0,0.0,0.0,-0.086458,-0.011853,-0.086458,3.0,0.338477,0.344219,0.297552,0.319114,-0.094374,-0.034935,-0.096326,-0.035662,0.096905,-0.026919,-0.091375,-0.04104,-0.092882,-0.0168,0.086175,-0.054923
103388,-0.093505,-0.036379,-0.095356,0.0,0.0,0.0,-0.087048,-0.006177,-0.087048,3.0,0.346059,0.348865,0.283062,0.318285,-0.096136,-0.02973,-0.098168,-0.030116,0.098473,-0.021253,-0.093605,-0.036866,-0.095259,-0.062854,0.074425,-0.044617
103396,-0.093786,-0.035438,-0.095797,0.0,0.0,0.0,-0.087101,-0.005374,-0.087101,3.0,0.339085,0.34825,0.285339,0.324652,-0.096425,-0.028769,-0.098472,-0.029126,0.099023,-0.020231,-0.093766,-0.035914,-0.095577,-0.037098,0.091768,-0.038586
103398,-0.093786,-0.035438,-0.095797,0.0,0.0,0.0,-0.087101,-0.005374,-0.087101,3.0,0.339085,0.34825,0.285339,0.324652,-0.096425,-0.028769,-0.098472,-0.029126,0.099023,-0.020231,-0.093766,-0.035914,-0.095577,-0.037098,0.091768,-0.038586
103413,-0.094335,-0.034146,-0.096238,0.0,0.0,0.0,-0.087135,-0.004779,-0.087135,3.0,0.339439,0.350309,0.291921,0.316269,-0.096842,-0.027316,-0.09891,-0.027615,0.09957,-0.018677,-0.094187,-0.034743,-0.096145,-0.021219,0.062484,-0.042
103433,-0.094908,-0.032137,-0.09699,0.0,0.0,0.0,-0.0872,-0.003401,-0.0872,3.0,0.345428,0.34568,0.285247,0.320696,-0.097365,-0.025369,-0.099459,-0.025551,0.09953,-0.016569,-0.094873,-0.032862,-0.096904,-0.050308,0.084885,-0.040107
103453,-0.095473,-0.030368,-0.097632,0.0,0.0,0.0,-0.087247,-0.001824,-0.087247,3.0,0.344304,0.345836,0.28732,0.319993,-0.097848,-0.023422,-0.099967,-0.02348,0.09921,-0.014464,-0.095444,-0.03097,-0.09754,-0.039643,0.080829,-0.038293
103473,-0.096051,-0.028355,-0.09826,0.0,0.0,0.0,-0.087261,0.000964,-0.087261,3.0,0.336472,0.348249,0.28232,0.329857,-0.098291,-0.021476,-0.100433,-0.021423,0.099291,-0.012379,-0.095787,-0.028818,-0.098041,-0.026606,0.101023,-0.025111
103493,-0.096394,-0.026327,-0.098784,0.0,0.0,0.0,-0.087243,0.002017,-0.087243,3.0,0.335627,0.346751,0.281916,0.332638,-0.098695,-0.019518,-0.10086,-0.019371,0.09984,-0.010299,-0.096237,-0.026923,-0.098674,-0.022638,0.109351,-0.021493
103513,-0.096617,-0.02417,-0.099284,0.0,0.0,0.0,-0.087193,0.00358,-0.087193,3.0,0.332956,0.340366,0.291058,0.334556,-0.09906,-0.017551,-0.101246,-0.017335,0.09963,-0.008223,-0.096473,-0.024646,-0.099186,0.006925,0.129203,-0.023598
103533,-0.097089,-0.021908,-0.099897,0.0,0.0,0.0,-0.087062,0.005964,-0.087062,3.0,0.333809,0.339036,0.293244,0.333247,-0.099386,-0.015585,-0.101592,-0.01529,0.099711,-0.006148,-0.096819,-0.022495,-0.099685,0.012047,0.129063,-0.023564
103553,-0.097188,-0.019862,-0.100281,0.0,0.0,0.0,-0.086949,0.007434,-0.086949,3.0,0.342869,0.335841,0.298224,0.322805,-0.099672,-0.013608,-0.101897,-0.013229,0.100074,-0.004064,-0.09716,-0.020465,-0.100189,0.000542,0.107207,-0.033541
103573,-0.09741,-0.017821,-0.100664,0.0,0.0,0.0,-0.086746,0.009518,-0.086746,3.0,0.342852,0.341351,0.282097,0.330719,-0.099918,-0.011624,-0.102162,-0.011186,0.100158,-0.001985,-0.097507,-0.018308,-0.100566,-0.033498,0.111543,-0.018771
103603,-0.097791,-0.015056,-0.10101,0.0,0.0,0.0,-0.086358,0.012561,-0.086358,3.0,0.330496,0.350674,0.284719,0.331354,-0.100211,-0.008632,-0.102482,-0.008077,0.100621,0.001163,-0.097645,-0.015536,-0.101035,0.009503,0.085463,-0.005578
103620,-0.098003,-0.013253,-0.101284,0.0,0.0,0.0,-0.086157,0.013872,-0.086157,3.0,0.351778,0.334789,0.296598,0.315419,-0.100323,-0.007125,-0.102608,-0.006491,0.10101,0.002762,-0.097952,-0.014227,-0.101331,-0.021515,0.088638,-0.032941
103635,-0.098191,-0.012054,-0.101484,0.0,0.0,0.0,-0.085949,0.015106,-0.085949,3.0,0.339748,0.346207,0.288239,0.323743,-0.100412,-0.005611,-0.102711,-0.004912,0.101292,0.004365,-0.09802,-0.012893,-0.101386,-0.00453,0.07675,-0.013505
103653,-0.098245,-0.01097,-0.101672,0.0,0.0,0.0,-0.085784,0.016015,-0.085784,3.0,0.336334,0.353016,0.28217,0.324895,-0.100494,-0.003583,-0.102812,-0.002846,0.101373,0.006486,-0.098221,-0.011451,-0.101575,-0.006256,0.058679,-0.00381
103673,-0.098434,-0.009649,-0.101848,0.0,0.0,0.0,-0.085561,0.017168,-0.085561,3.0,0.337112,0.350388,0.282487,0.326734,-0.100537,-0.001557,-0.10287,-0.000913,0.100735,0.008522,-0.098422,-0.009886,-0.101739,-0.005496,0.06944,-0.002844
103693,-0.09863,-0.0082,-0.101896,0.0,0.0,0.0,-0.085105,0.019301,-0.085105,3.0,0.335521,0.347496,0.287567,0.327346,-0.100541,0.000457,-0.102888,0.000957,0.099815,0.010494,-0.098497,-0.008438,-0.101909,0.012747,0.081429,-0.002446
103713,-0.098947,-0.006763,-0.102064,0.0,0.0,0.0,-0.08455,0.021605,-0.08455,3.0,0.342108,0.349244,0.27633,0.327671,-0.100508,0.002462,-0.102864,0.002964,0.099533,0.012522,-0.098935,-0.007001,-0.101955,-0.026015,0.079835,0.002209
103733,-0.099034,-0.005064,-0.102101,0.0,0.0,0.0,-0.084377,0.022269,-0.084377,3.0,0.350593,0.341433,0.287733,0.317444,-0.100433,0.004469,-0.102799,0.004987,0.099338,0.014557,-0.099131,-0.005557,-0.102123,-0.023583,0.072605,-0.012587
103753,-0.099352,-0.003621,-0.102147,0.0,0.0,0.0,-0.083693,0.024717,-0.083693,3.0,0.345852,0.350424,0.276247,0.322392,-0.100319,0.006468,-0.102694,0.006812,0.098433,0.016468,-0.099333,-0.00398,-0.102044,-0.030944,0.062026,0.003202
103773,-0.099446,-0.001801,-0.102177,0.0,0.0,0.0,-0.083196,0.026342,-0.083196,3.0,0.343443,0.347957,0.277501,0.326722,-0.100167,0.00846,-0.102548,0.008867,0.098328,0.0185,-0.099421,-0.002282,-0.10208,-0.018492,0.07983,0.007145
103793,-0.099302,0.00016,-0.102084,0.0,0.0,0.0,-0.082657,0.027986,-0.082657,3.0,0.33549,0.351356,0.277927,0.330997,-0.099973,0.010453,-0.102361,0.010922,0.098214,0.020538,-0.099264,-0.000571,-0.102121,0.006843,0.080619,0.017067
103813,-0.099159,0.00212,-0.101991,0.0,0.0,0.0,-0.082036,0.029757,-0.082036,3.0,0.344051,0.343243,0.282085,0.327464,-0.099737,0.012445,-0.102133,0.012854,0.097736,0.022509,-0.099254,0.001628,-0.102013,-0.005596,0.092001,0.008393
103846,-0.098883,0.006285,-0.101795,0.0,0.0,0.0,-0.080713,0.033178,-0.080713,3.0,0.343978,0.330189,0.291286,0.333376,-0.09923,0.015921,-0.101636,0.016295,0.097056,0.025984,-0.098858,0.005798,-0.101818,0.019021,0.138419,0.006342
103856,-0.098574,0.007406,-0.101626,0.0,0.0,0.0,-0.080377,0.033986,-0.080377,3.0,0.338057,0.340734,0.280387,0.337614,-0.099061,0.016913,-0.101471,0.017352,0.097032,0.027022,-0.098793,0.006906,-0.101646,0.012958,0.119792,0.02128
103873,-0.098314,0.009495,-0.101531,0.0,0.0,0.0,-0.079923,0.035038,-0.079923,3.0,0.3584,0.323122,0.297803,0.318872,-0.098788,0.018402,-0.101204,0.018927,0.09696,0.028579,-0.098519,0.008747,-0.101683,-0.005979,0.114245,-0.009512
103893,-0.09795,0.011962,-0.1013,0.0,0.0,0.0,-0.079582,0.035808,-0.079582,3.0,0.345575,0.328548,0.287119,0.33672,-0.098388,0.020386,-0.100811,0.020829,0.0964,0.030546,-0.098046,0.011468,-0.101321,0.007388,0.139225,0.012454
103913,-0.097475,0.014684,-0.100939,0.0,0.0,0.0,-0.078903,0.037278,-0.078903,3.0,0.334533,0.333062,0.283469,0.346222,-0.097949,0.022358,-0.100377,0.022571,0.095482,0.0324,-0.097451,0.014197,-0.100963,0.031104,0.147745,0.027685
103933,-0.096872,0.017291,-0.100589,0.0,0.0,0.0,-0.078201,0.038731,-0.078201,3.0,0.338294,0.326914,0.289089,0.344032,-0.097475,0.024314,-0.099905,0.024273,0.094496,0.034204,-0.09697,0.01679,-0.100731,0.03425,0.152444,0.022421
103953,-0.096383,0.01989,-0.100219,0.0,0.0,0.0,-0.077023,0.041023,-0.077023,3.0,0.343879,0.326053,0.284405,0.342956,-0.096965,0.026254,-0.099394,0.025967,0.093508,0.035977,-0.096596,0.019262,-0.100365,0.010989,0.149358,0.024164
103973,-0.095997,0.021997,-0.09989,0.0,0.0,0.0,-0.076787,0.041464,-0.076787,3.0,0.340144,0.327796,0.293988,0.337405,-0.096416,0.028182,-0.098844,0.027773,0.092751,0.0378,-0.095974,0.021504,-0.100034,0.042373,0.121614,0.021218
103993,-0.095609,0.02411,-0.09944,0.0,0.0,0.0,-0.075226,0.044232,-0.075226,3.0,0.341807,0.324481,0.294781,0.338226,-0.095834,0.03009,-0.098257,0.029176,0.091293,0.039363,-0.095593,0.023738,-0.099579,0.043944,0.132933,0.02351
