time_ms,roll,pitch,yaw,x,y,z,reference_x,reference_y,reference_z,reference_yaw,throttle_1,throttle_2,throttle_3,throttle_4,roll_predicted,pitch_predicted,yaw_predicted,roll_rate_predicted,pitch_rate_predicted,yaw_rate_predicted,value1,value2,value3,value4,value5,value6
191235,-0.024202,-0.017736,0.016999,0.060084,-0.065632,0.663106,0.0,0.0,0.7,-0.0,0.572014,0.550254,0.564867,0.533082,-0.0,0.0,0.7,0.0,0.0,0.0,11.509935,-0.057087,-0.036983,0.0,0.0,0.0
191255,-0.025415,-0.018847,0.015143,0.060429,-0.066542,0.663126,0.0,-2.7e-05,0.699973,-0.0,0.586877,0.548476,0.549097,0.534181,-0.0,0.0,0.7,0.0,0.0,0.0,11.498827,-0.050351,-0.036245,0.0,0.0,0.0
191275,-0.02651,-0.02106,0.013272,0.060661,-0.067139,0.663186,0.0,-0.001544,0.698456,-0.0,0.58006,0.549196,0.555728,0.533612,-0.0,0.0,0.7,0.0,0.0,0.0,11.49309,-0.051615,-0.03826,0.0,0.0,0.0
191295,-0.027475,-0.021929,0.011662,0.060889,-0.067622,0.663315,0.0,-0.00309,0.69691,-0.0,0.578525,0.539607,0.559436,0.54065,-0.0,0.0,0.7,0.0,-0.0,-1e-06,11.487096,-0.052358,-0.039507,0.0,0.0,0.0
191315,-0.027951,-0.023539,0.009803,0.061154,-0.067768,0.663495,0.0,-0.00309,0.69691,-0.0,0.578873,0.548638,0.562599,0.526505,-0.0,-0.0,0.699999,0.0,-2e-06,-9.9e-05,11.473512,-0.050611,-0.039719,0.0,0.0,0.0
191335,-0.029395,-0.023315,0.00796,0.061261,-0.067895,0.663891,0.0,-0.004944,0.695056,-0.0,0.581651,0.539494,0.554432,0.540044,-0.0,-0.0,0.699996,0.0,-2.8e-05,-0.000326,11.457351,-0.048296,-0.039727,0.0,0.0,0.0
191355,-0.029014,-0.025172,0.006228,0.061327,-0.067826,0.664308,0.0,-0.006562,0.693438,-0.0,0.579745,0.544965,0.556321,0.533898,-0.0,-1e-06,0.699987,0.0,-0.000112,-0.000587,11.448683,-0.045335,-0.040003,0.0,0.0,0.0
191375,-0.028382,-0.025811,0.004396,0.061433,-0.0673,0.664821,0.0,-0.008418,0.691582,-0.0,0.578923,0.53895,0.559667,0.534854,-0.0,-5e-06,0.699973,0.0,-0.000259,-0.000963,11.418894,-0.042162,-0.039521,0.0,0.0,0.0
191395,-0.028849,-0.026078,0.002676,0.061297,-0.066806,0.665318,0.0,-0.010439,0.689561,-0.0,0.582897,0.535251,0.552387,0.539536,-0.0,-1.1e-05,0.69995,0.0,-0.000486,-0.001474,11.392482,-0.038964,-0.038882,0.0,0.0,0.0
191415,-0.027482,-0.025981,0.000986,0.061297,-0.066806,0.665318,0.0,-0.010439,0.689561,-0.0,0.579831,0.539168,0.55416,0.534791,-0.0,-2.3e-05,0.699916,0.0,-0.000818,-0.002128,11.364684,-0.033951,-0.038719,0.0,0.0,0.0
191435,-0.025262,-0.027103,-0.000709,0.061233,-0.066026,0.665867,0.0,-0.012294,0.687706,-0.0,0.58171,0.543243,0.556756,0.52379,-0.0,-4.3e-05,0.699868,0.0,-0.001278,-0.002934,11.341857,-0.029925,-0.037487,0.0,0.0,0.0
191455,-0.020479,-0.027365,-0.002356,0.061126,-0.065052,0.666474,0.0,-0.014011,0.685989,-0.0,0.56283,0.540153,0.576453,0.528331,-0.0,-7.3e-05,0.699803,0.0,-0.001885,-0.003763,11.364759,-0.030697,-0.037199,0.0,0.0,0.0
191475,-0.018263,-0.025913,-0.003901,0.060739,-0.063537,0.667232,0.0,-0.016038,0.683962,-0.0,0.567471,0.53444,0.563555,0.54132,-0.0,-0.000116,0.699721,0.0,-0.002626,-0.004681,11.344687,-0.027115,-0.036948,0.0,0.0,0.0
191495,-0.01409,-0.026527,-0.005438,0.060025,-0.062067,0.668118,0.0,-0.018094,0.681906,-0.0,0.567603,0.541963,0.567623,0.526845,-0.0,-0.000175,0.69962,0.0,-0.003497,-0.005709,11.316764,-0.022524,-0.036621,0.0,0.0,0.0
191515,-0.009431,-0.025913,-0.007083,0.060025,-0.062067,0.668118,0.0,-0.018094,0.681906,-0.0,0.569034,0.530458,0.56603,0.535498,-0.0,-0.000252,0.699497,0.0,-0.004504,-0.006857,11.280089,-0.015683,-0.034917,0.0,0.0,0.0
191535,-0.004893,-0.026389,-0.008492,0.058615,-0.058408,0.670038,0.0,-0.02151,0.67849,-0.0,0.563542,0.535786,0.568254,0.530318,-0.0,-0.00035,0.699351,0.0,-0.005658,-0.008128,11.240896,-0.010246,-0.031652,0.0,0.0,0.0
191555,0.000125,-0.024903,-0.010013,0.058615,-0.058408,0.670038,0.0,-0.02151,0.67849,-0.0,0.557058,0.526513,0.582519,0.533785,-0.0,-0.000473,0.699179,0.0,-0.006963,-0.009387,11.275501,-0.015335,-0.032927,0.0,0.0,0.0
191575,0.004659,-0.024266,-0.011668,0.056961,-0.055062,0.671679,0.0,-0.024568,0.675432,-0.0,0.584814,0.536829,0.550584,0.518813,-0.0,-0.000623,0.698981,0.0,-0.008394,-0.010796,11.174093,0.000447,-0.027194,0.0,0.0,0.0
191595,0.010409,-0.023369,-0.013189,0.056961,-0.055062,0.671679,0.0,-0.024568,0.675432,-0.0,0.544586,0.526851,0.587813,0.534798,-0.0,-0.000802,0.698754,0.0,-0.009954,-0.012207,11.208837,-0.004816,-0.029234,0.0,0.0,0.0
191615,0.014069,-0.020649,-0.014629,0.056141,-0.052624,0.672518,0.0,-0.026278,0.673722,-0.0,0.5758,0.531586,0.559712,0.52158,-0.0,-0.001014,0.698499,0.0,-0.011627,-0.013732,11.139561,0.006719,-0.023422,0.0,0.0,0.0
191635,0.018722,-0.020356,-0.016172,0.054881,-0.050723,0.673486,0.0,-0.028398,0.671602,-0.0,0.550509,0.526696,0.585247,0.529631,-0.0,-0.00126,0.698213,0.0,-0.013408,-0.015239,11.184673,-0.000604,-0.026525,0.0,0.0,0.0
191655,0.023723,-0.018221,-0.017608,0.053931,-0.04904,0.674281,0.0,-0.030034,0.669966,-0.0,0.558239,0.518896,0.57467,0.540106,-0.0,-0.001542,0.697897,0.0,-0.015275,-0.016763,11.176607,0.004391,-0.026302,0.0,0.0,0.0
191675,0.026638,-0.015246,-0.019083,0.052392,-0.046641,0.675365,0.0,-0.031889,0.668111,-0.0,0.569505,0.516657,0.568481,0.534434,-0.0,-0.001862,0.697549,0.0,-0.017204,-0.018361,11.146612,0.008253,-0.022938,0.0,0.0,0.0
191695,0.029931,-0.013728,-0.020546,0.052392,-0.046641,0.675365,0.0,-0.031889,0.668111,-0.0,0.567636,0.524388,0.571629,0.524042,-0.0,-0.00222,0.69717,0.0,-0.019192,-0.020006,11.130286,0.009759,-0.021487,0.0,0.0,0.0
191715,0.033339,-0.011834,-0.022137,0.050859,-0.044602,0.676199,0.0,-0.033562,0.666438,-0.0,0.568132,0.524552,0.565879,0.526861,-0.0,-0.00262,0.696757,0.0,-0.021235,-0.021699,11.098261,0.014764,-0.017622,0.0,0.0,0.0
191735,0.034172,-0.009363,-0.023393,0.049508,-0.04293,0.676967,0.0,-0.035409,0.664591,-0.0,0.56123,0.510918,0.57763,0.538782,-0.0,-0.00306,0.696311,0.0,-0.023325,-0.023324,11.14643,0.005598,-0.022698,0.0,0.0,0.0
191755,0.036238,-0.007845,-0.024998,0.048022,-0.041404,0.677763,0.0,-0.037396,0.662604,-0.0,0.564745,0.523512,0.574482,0.525303,-0.0,-0.003542,0.695832,0.0,-0.025426,-0.02494,11.134755,0.008064,-0.019932,0.0,0.0,0.0
191775,0.037207,-0.006831,-0.026353,0.046792,-0.04024,0.67833,0.0,-0.039374,0.660626,-0.0,0.573934,0.517384,0.568029,0.526574,-0.0,-0.004066,0.695321,0.0,-0.027518,-0.02659,11.114016,0.010807,-0.017086,0.0,0.0,0.0
191795,0.035603,-0.00524,-0.027853,0.045578,-0.039354,0.67885,0.0,-0.039374,0.660626,-0.0,0.585539,0.517893,0.558353,0.521429,-0.0,-0.004632,0.694777,0.0,-0.029598,-0.028284,11.089951,0.012493,-0.014226,0.0,0.0,0.0
191815,0.036085,-0.004596,-0.029326,0.04448,-0.038613,0.679326,0.0,-0.041481,0.658519,-0.0,0.573035,0.520356,0.566584,0.523568,-0.0,-0.00524,0.694198,0.0,-0.031668,-0.030023,11.083541,0.011887,-0.013498,0.0,0.0,0.0
191835,0.035328,-0.00275,-0.030825,0.043307,-0.037719,0.679775,0.0,-0.043169,0.656831,-0.0,0.577406,0.516295,0.564941,0.525176,-0.0,-0.005889,0.693585,0.0,-0.033732,-0.03168,11.091355,0.008973,-0.013472,0.0,0.0,0.0
191855,0.032267,-0.002042,-0.032309,0.0419,-0.037196,0.680129,0.0,-0.044717,0.655283,-0.0,0.583016,0.520065,0.559771,0.520457,-0.0,-0.006579,0.692939,0.0,-0.035761,-0.033342,11.088155,0.006853,-0.014146,0.0,0.0,0.0
191875,0.032139,-0.001654,-0.033779,0.04084,-0.036841,0.680416,0.0,-0.04625,0.65375,-0.0,0.573413,0.516525,0.569592,0.523817,-0.0,-0.007309,0.69226,0.0,-0.037744,-0.035023,11.085796,0.006381,-0.014279,0.0,0.0,0.0
191895,0.030027,0.000528,-0.035158,0.039775,-0.036418,0.680634,0.0,-0.048107,0.651893,-0.0,0.58312,0.509031,0.559713,0.530991,-0.0,-0.008078,0.691547,0.0,-0.039686,-0.036705,11.086277,0.004727,-0.012873,0.0,0.0,0.0
191915,0.025639,0.000103,-0.036622,0.038013,-0.036157,0.680795,0.0,-0.048107,0.651893,-0.0,0.590539,0.522193,0.551437,0.518597,-0.0,-0.008886,0.6908,0.0,-0.041584,-0.038382,11.087466,0.002676,-0.013319,0.0,0.0,0.0
191935,0.023827,-0.000891,-0.037954,0.037002,-0.036249,0.680832,0.0,-0.050331,0.649669,-0.0,0.586383,0.52146,0.56309,0.511484,-0.0,-0.009732,0.69002,0.0,-0.043437,-0.040071,11.088309,0.001935,-0.013942,0.0,0.0,0.0
191955,0.020625,0.000528,-0.039315,0.036097,-0.036237,0.680817,0.0,-0.05207,0.64793,-0.0,0.590282,0.519289,0.555415,0.518448,-0.0,-0.010614,0.689206,0.0,-0.045246,-0.041662,11.097989,0.000308,-0.010502,0.0,0.0,0.0
191975,0.015141,-5.9e-05,-0.040527,0.034917,-0.036424,0.680724,0.0,-0.053882,0.646118,-0.0,0.592874,0.523556,0.55145,0.5156,-0.0,-0.011532,0.688361,0.0,-0.046989,-0.043251,11.100268,-0.001767,-0.011115,0.0,0.0,0.0
191995,0.011762,-0.001952,-0.041739,0.034917,-0.036424,0.680724,0.0,-0.055786,0.644214,-0.0,0.594991,0.528202,0.55274,0.507242,-0.0,-0.012485,0.687484,0.0,-0.048665,-0.044854,11.104572,-0.00287,-0.012969,0.0,0.0,0.0
192015,0.008362,-0.002751,-0.04296,0.034013,-0.037131,0.680582,0.0,-0.055786,0.644214,-0.0,0.590481,0.521151,0.556996,0.515578,-0.0,-0.01347,0.686575,0.0,-0.050285,-0.046464,11.10883,-0.004173,-0.012963,0.0,0.0,0.0
192035,0.005206,-0.003549,-0.043947,0.033007,-0.037364,0.680387,0.0,-0.05771,0.64229,-0.0,0.589932,0.508551,0.554769,0.530385,-0.0,-0.014488,0.685633,0.0,-0.051859,-0.048089,11.102147,-0.003828,-0.01891,0.0,0.0,0.0
192055,0.000937,-0.003642,-0.045053,0.031813,-0.0376,0.680082,0.0,-0.059774,0.640226,-0.0,0.602276,0.517524,0.549163,0.513874,-0.0,-0.015537,0.68466,0.0,-0.053393,-0.04961,11.110368,-0.007655,-0.019503,0.0,0.0,0.0
192075,-0.003756,-0.006558,-0.046164,0.031813,-0.0376,0.680082,0.0,-0.059774,0.640226,-0.0,0.60038,0.532297,0.542289,0.508388,-0.0,-0.016616,0.683656,0.0,-0.05487,-0.051105,11.11075,-0.007711,-0.018066,0.0,0.0,0.0
192095,-0.004791,-0.009148,-0.047027,0.03083,-0.038504,0.679697,0.0,-0.061907,0.638093,-0.0,0.590864,0.536664,0.558567,0.497544,-0.0,-0.017724,0.682623,0.0,-0.056285,-0.052622,11.114598,-0.00678,-0.015484,0.0,0.0,0.0
192115,-0.00696,-0.01018,-0.048024,0.029751,-0.038673,0.679242,0.0,-0.063929,0.636071,-0.0,0.597175,0.521909,0.548325,0.51605,-0.0,-0.01886,0.68156,0.0,-0.057653,-0.054033,11.105863,-0.005251,-0.019862,0.0,0.0,0.0
192135,-0.009955,-0.012333,-0.049024,0.028429,-0.038859,0.678749,0.0,-0.065469,0.634531,-0.0,0.59028,0.532115,0.555033,0.506548,-0.0,-0.020023,0.680469,0.0,-0.058961,-0.055429,11.108016,-0.007848,-0.019149,0.0,0.0,0.0
192155,-0.012137,-0.012757,-0.049892,0.027551,-0.039026,0.678348,0.0,-0.067014,0.632986,-0.0,0.597588,0.532052,0.549854,0.504267,-0.0,-0.021212,0.679349,0.0,-0.060209,-0.056848,11.11616,-0.006618,-0.016876,0.0,0.0,0.0
192175,-0.013663,-0.015,-0.050778,0.026579,-0.039421,0.677918,0.0,-0.068568,0.631432,-0.0,0.594578,0.540101,0.549621,0.500323,-0.0,-0.022425,0.678202,0.0,-0.061416,-0.058257,11.124969,-0.0049,-0.013502,0.0,0.0,0.0
192195,-0.013394,-0.015731,-0.051513,0.025788,-0.039425,0.677459,0.0,-0.070478,0.629522,-0.0,0.584677,0.523682,0.562685,0.514681,-0.0,-0.023662,0.677026,0.0,-0.062592,-0.059647,11.122019,-0.003214,-0.013195,0.0,0.0,0.0
192215,-0.011569,-0.015321,-0.052108,0.024818,-0.039394,0.676971,0.0,-0.072104,0.627896,-0.0,0.581582,0.521971,0.565965,0.515876,-0.0,-0.024922,0.675823,0.0,-0.06374,-0.061018,11.116676,-0.003069,-0.013082,0.0,0.0,0.0
192235,-0.010271,-0.013338,-0.052941,0.023948,-0.039191,0.676446,0.0,-0.073776,0.626224,-0.0,0.58513,0.505742,0.561954,0.531472,-0.0,-0.026206,0.674592,0.0,-0.064863,-0.062392,11.109616,-0.000818,-0.013947,0.0,0.0,0.0
192255,-0.010943,-0.010917,-0.053541,0.02264,-0.03903,0.675808,0.0,-0.073776,0.626224,-0.0,0.59362,0.509203,0.553218,0.52744,-0.0,-0.027511,0.673334,0.0,-0.065969,-0.063757,11.105037,0.001566,-0.013725,0.0,0.0,0.0
192275,-0.010157,-0.008214,-0.054376,0.021671,-0.038963,0.675245,0.0,-0.07638,0.623621,-0.0,0.594579,0.50886,0.556603,0.522742,-0.0,-0.028839,0.672049,0.0,-0.067065,-0.065109,11.10154,0.004526,-0.013781,0.0,0.0,0.0
192295,-0.00936,-0.005998,-0.055215,0.020546,-0.038801,0.674611,0.0,-0.07638,0.623621,-0.0,0.594817,0.511537,0.554637,0.522927,-0.0,-0.030188,0.670737,0.0,-0.068152,-0.066343,11.112363,0.006054,-0.01139,0.0,0.0,0.0
192315,-0.006114,-0.004079,-0.055933,0.020546,-0.038801,0.674611,0.0,-0.078503,0.621497,-0.0,0.583465,0.510345,0.570577,0.518952,-0.0,-0.031559,0.669401,0.0,-0.069209,-0.067585,11.103224,0.007658,-0.010883,0.0,0.0,0.0
192335,-0.003264,-0.001191,-0.056532,0.019194,-0.038075,0.673789,0.0,-0.080357,0.619643,-0.0,0.580601,0.508377,0.567956,0.52751,-0.0,-0.032951,0.668041,0.0,-0.070241,-0.068726,11.109012,0.008328,-0.010004,0.0,0.0,0.0
192355,-0.000523,0.001206,-0.057018,0.018037,-0.037582,0.672995,0.0,-0.082605,0.617395,-0.0,0.581979,0.501228,0.56564,0.53121,-0.0,-0.034364,0.666658,0.0,-0.071237,-0.069844,11.062387,0.008959,-0.015362,0.0,0.0,0.0
192375,-0.000844,0.003884,-0.057504,0.018037,-0.037582,0.672995,0.0,-0.084176,0.615824,-0.0,0.593261,0.507098,0.554213,0.525792,-0.0,-0.035796,0.665252,0.0,-0.072196,-0.070968,11.070234,0.013393,-0.013128,0.0,0.0,0.0
192395,0.000737,0.004051,-0.057994,0.016543,-0.037031,0.672172,0.0,-0.084176,0.615824,-0.0,0.589612,0.517471,0.55718,0.517666,-0.0,-0.037247,0.663825,0.0,-0.073132,-0.072119,11.081477,0.016682,-0.010755,0.0,0.0,0.0
192415,0.003769,0.004751,-0.058377,0.015676,-0.036577,0.671379,0.0,-0.086626,0.613374,-0.0,0.57962,0.505463,0.564436,0.529227,-0.0,-0.038716,0.662374,0.0,-0.074062,-0.073264,11.039989,0.016107,-0.015294,0.0,0.0,0.0
192435,0.006109,0.004088,-0.058745,0.014761,-0.035908,0.670611,0.0,-0.088308,0.611692,-0.0,0.579375,0.520655,0.564713,0.515705,-0.0,-0.040205,0.6609,0.0,-0.074992,-0.074292,11.055599,0.017511,-0.011858,0.0,0.0,0.0
192455,0.008071,0.003779,-0.058869,0.014188,-0.03542,0.669998,0.0,-0.089839,0.610161,-0.0,0.580265,0.517922,0.56564,0.517131,-0.0,-0.041711,0.659407,0.0,-0.075898,-0.075319,11.063788,0.019772,-0.010911,0.0,0.0,0.0
192475,0.007978,0.002801,-0.05923,0.013568,-0.034933,0.669361,0.0,-0.091392,0.608608,-0.0,0.594843,0.512507,0.55363,0.519238,-0.0,-0.043236,0.657893,0.0,-0.076781,-0.076348,11.06925,0.022614,-0.010453,0.0,0.0,0.0
192495,0.00937,0.001132,-0.059223,0.013043,-0.034682,0.668694,0.0,-0.093337,0.606663,-0.0,0.590616,0.525679,0.555066,0.508513,-0.0,-0.044778,0.656358,0.0,-0.077652,-0.077356,11.060025,0.024139,-0.012025,0.0,0.0,0.0
192515,0.010641,-0.000538,-0.059457,0.012631,-0.034278,0.668005,0.0,-0.093337,0.606663,-0.0,0.587165,0.522359,0.55758,0.512278,-0.0,-0.046337,0.654804,0.0,-0.078514,-0.07834,11.049316,0.025267,-0.013271,0.0,0.0,0.0
192535,0.014267,-0.00336,-0.059676,0.012131,-0.033849,0.667155,0.0,-0.095068,0.604932,-0.0,0.579323,0.528,0.568667,0.502175,-0.0,-0.047914,0.653229,0.0,-0.079365,-0.079326,11.039185,0.0252,-0.014523,0.0,0.0,0.0
192555,0.015362,-0.003204,-0.059796,0.011916,-0.033265,0.666358,0.0,-0.096862,0.603138,-0.0,0.582882,0.516879,0.561862,0.51734,-0.0,-0.049508,0.651636,0.0,-0.080211,-0.080198,11.041104,0.025207,-0.01597,0.0,0.0,0.0
192575,0.016519,-0.005122,-0.059899,0.011335,-0.032944,0.665518,0.0,-0.098973,0.601027,-0.0,0.586375,0.522949,0.555823,0.514093,-0.0,-0.051118,0.650026,0.0,-0.08103,-0.081025,11.044367,0.026453,-0.016504,0.0,0.0,0.0
192595,0.018032,-0.006664,-0.060012,0.011335,-0.032944,0.665518,0.0,-0.098973,0.601027,-0.0,0.58537,0.525506,0.564034,0.50333,-0.0,-0.052745,0.648399,0.0,-0.081813,-0.081846,11.043318,0.028691,-0.018185,0.0,0.0,0.0
192615,0.019936,-0.009046,-0.060223,0.011084,-0.032495,0.664493,0.0,-0.100889,0.599111,-0.0,0.584508,0.523644,0.562396,0.507876,-0.0,-0.054387,0.646756,0.0,-0.082568,-0.082683,11.040179,0.029572,-0.017599,0.0,0.0,0.0
192635,0.023674,-0.011496,-0.060292,0.010598,-0.032121,0.663228,0.0,-0.10281,0.59719,-0.0,0.570317,0.52314,0.573279,0.508179,-0.0,-0.056044,0.645097,0.0,-0.083306,-0.083412,10.992551,0.027588,-0.019803,0.0,0.0,0.0
192655,0.02393,-0.011853,-0.060408,0.010095,-0.031627,0.661939,0.0,-0.104849,0.595151,-0.0,0.584104,0.505977,0.565504,0.519126,-0.0,-0.057715,0.643423,0.0,-0.084012,-0.084111,11.00144,0.029159,-0.020616,0.0,0.0,0.0
192675,0.026313,-0.013854,-0.060618,0.009246,-0.031637,0.660512,0.0,-0.106785,0.593215,-0.0,0.589488,0.520443,0.558796,0.5089,-0.0,-0.0594,0.641736,0.0,-0.084679,-0.084819,11.035534,0.030877,-0.019553,0.0,0.0,0.0
192695,0.029911,-0.015696,-0.060679,0.009246,-0.031637,0.660512,0.0,-0.106785,0.593215,-0.0,0.579111,0.535613,0.568771,0.496524,-0.0,-0.061099,0.640034,0.0,-0.08532,-0.085545,11.065399,0.033232,-0.018248,0.0,0.0,0.0
192715,0.031429,-0.01736,-0.060649,0.00878,-0.031151,0.658999,0.0,-0.10857,0.59143,-0.0,0.581377,0.53439,0.568434,0.498022,-0.0,-0.06281,0.638317,0.0,-0.085948,-0.086287,11.092181,0.03264,-0.015328,0.0,0.0,0.0
192735,0.034992,-0.018105,-0.060595,0.007977,-0.031293,0.657403,0.0,-0.110327,0.589673,-0.0,0.572624,0.520342,0.574009,0.510686,-0.0,-0.064534,0.636587,0.0,-0.086572,-0.086922,11.027,0.031143,-0.017481,0.0,0.0,0.0
192755,0.036794,-0.017071,-0.060713,0.007286,-0.03126,0.656156,0.0,-0.111869,0.588131,-0.0,0.578826,0.51185,0.569018,0.519401,-0.0,-0.06627,0.634844,0.0,-0.087172,-0.08752,11.045307,0.03364,-0.01759,0.0,0.0,0.0
192775,0.038377,-0.016903,-0.060587,0.006408,-0.031513,0.654868,0.0,-0.113405,0.586595,-0.0,0.581858,0.523746,0.568969,0.507308,-0.0,-0.068017,0.633089,0.0,-0.087739,-0.088116,11.083019,0.03307,-0.015304,0.0,0.0,0.0
192795,0.041901,-0.016304,-0.060678,0.005609,-0.031919,0.653571,0.0,-0.115338,0.584662,-0.0,0.572848,0.525824,0.574523,0.510069,-0.0,-0.069776,0.631322,0.0,-0.08828,-0.088696,11.09217,0.033174,-0.013681,0.0,0.0,0.0
192815,0.042457,-0.014452,-0.060831,0.004367,-0.032533,0.651661,0.0,-0.115338,0.584662,-0.0,0.581349,0.514421,0.574818,0.511584,-0.0,-0.071546,0.629544,0.0,-0.088801,-0.089256,11.092482,0.032171,-0.011587,0.0,0.0,0.0
192835,0.0427,-0.014447,-0.060707,0.003244,-0.033225,0.650338,0.0,-0.117822,0.582178,-0.0,0.587914,0.522171,0.566509,0.504959,-0.0,-0.073326,0.627755,0.0,-0.089302,-0.089822,11.087245,0.030846,-0.010347,0.0,0.0,0.0
192855,0.045376,-0.013997,-0.06082,0.003244,-0.033225,0.650338,0.0,-0.119453,0.580547,-0.0,0.57177,0.522672,0.581289,0.510218,-0.0,-0.075115,0.625954,0.0,-0.089791,-0.090282,11.130982,0.028145,-0.007138,0.0,0.0,0.0
192875,0.045765,-0.010685,-0.061011,0.001815,-0.034621,0.648116,0.0,-0.121083,0.578917,-0.0,0.579652,0.513793,0.576987,0.514307,-0.0,-0.076915,0.624145,0.0,-0.090247,-0.09075,11.121673,0.026828,-0.004945,0.0,0.0,0.0
192895,0.044937,-0.007658,-0.061075,0.000372,-0.035949,0.64645,0.0,-0.122855,0.577145,-0.0,0.594584,0.490042,0.561,0.528708,-0.0,-0.078723,0.622327,0.0,-0.090675,-0.091225,11.021195,0.029769,-0.009665,0.0,0.0,0.0
192915,0.044649,-0.006196,-0.061352,-0.001017,-0.037589,0.644737,0.0,-0.124715,0.575285,-0.0,0.583243,0.512315,0.572081,0.512499,-0.0,-0.080539,0.620499,0.0,-0.091087,-0.091691,11.068847,0.025552,-0.006691,0.0,0.0,0.0
192935,0.044563,-0.003388,-0.061536,-0.001017,-0.037589,0.644737,0.0,-0.124715,0.575285,-0.0,0.578515,0.509879,0.575858,0.518782,0.0,-0.082364,0.618662,0.0,-0.091487,-0.092158,11.099343,0.021566,-0.002601,0.0,0.0,0.0
192955,0.04193,-0.001149,-0.061598,-0.002519,-0.039253,0.643051,0.0,-0.126605,0.573395,-0.0,0.584611,0.511686,0.572561,0.515298,0.0,-0.084197,0.616815,0.0,-0.09188,-0.092634,11.117044,0.017334,0.00041,0.0,0.0,0.0
192975,0.039612,-0.001221,-0.061606,-0.004044,-0.041545,0.641187,0.0,-0.128492,0.571508,-0.0,0.595818,0.50695,0.554346,0.518799,0.0,-0.086037,0.614959,0.0,-0.09227,-0.093003,11.024497,0.022659,-0.005174,0.0,0.0,0.0
192995,0.0369,-0.00045,-0.06162,-0.00521,-0.0439,0.639282,0.0,-0.130199,0.569801,-0.0,0.591427,0.509786,0.561799,0.513497,0.0,-0.087886,0.613096,0.0,-0.092638,-0.093345,11.029903,0.020546,-0.002778,0.0,0.0,0.0
193015,0.034758,0.001682,-0.061665,-0.006457,-0.046299,0.637421,0.0,-0.131846,0.568154,-0.0,0.585216,0.50502,0.574969,0.514026,0.0,-0.089741,0.611227,0.0,-0.092976,-0.093699,11.067796,0.013898,0.001041,0.0,0.0,0.0
193035,0.031436,0.002435,-0.061673,-0.007733,-0.04846,0.635826,0.0,-0.133391,0.566609,-0.0,0.59617,0.513379,0.56214,0.510428,0.0,-0.091603,0.60935,0.0,-0.093296,-0.094053,11.10285,0.00787,0.002273,0.0,0.0,0.0
193055,0.027443,0.001214,-0.061784,-0.008853,-0.050784,0.634229,0.0,-0.13494,0.56506,-0.0,0.594992,0.523017,0.566293,0.499041,0.0,-0.093471,0.607467,0.0,-0.093604,-0.094403,11.123337,0.003589,0.003151,0.0,0.0,0.0
193075,0.023393,0.00182,-0.061665,-0.009767,-0.053296,0.632602,0.0,-0.13494,0.56506,-0.0,0.597831,0.525298,0.558833,0.501096,0.0,-0.095345,0.605576,0.0,-0.093905,-0.094741,11.116628,0.002282,0.00402,0.0,0.0,0.0
193095,0.016911,0.00211,-0.061795,-0.01118,-0.056632,0.630437,0.0,-0.137099,0.562901,-0.0,0.603471,0.517857,0.551418,0.509051,0.0,-0.097226,0.603679,0.0,-0.0942,-0.095065,11.104006,0.001201,0.00395,0.0,0.0,0.0
193115,0.010807,0.002044,-0.061796,-0.012161,-0.059348,0.628852,0.0,-0.139194,0.560806,-0.0,0.604398,0.50869,0.558809,0.508829,0.0,-0.099112,0.601776,0.0,-0.094486,-0.095279,11.102343,-0.001192,0.002716,0.0,0.0,0.0
193135,0.006018,0.002873,-0.061787,-0.012161,-0.059348,0.628852,0.0,-0.140761,0.559239,-0.0,0.602356,0.51239,0.558437,0.510256,0.0,-0.101004,0.599868,0.0,-0.094741,-0.095482,11.127003,-0.006813,0.004474,0.0,0.0,0.0
193155,-0.001973,0.00458,-0.061532,-0.013197,-0.06299,0.626829,0.0,-0.14232,0.55768,-0.0,0.608393,0.500503,0.542159,0.530863,0.0,-0.1029,0.597957,0.0,-0.094965,-0.095718,11.114829,-0.008348,0.004206,0.0,0.0,0.0
193175,-0.010033,0.004577,-0.061387,-0.014393,-0.066637,0.624894,0.0,-0.143844,0.556156,-0.0,0.637844,0.50295,0.510839,0.513618,0.0,-0.104801,0.596041,0.0,-0.095173,-0.095954,10.997675,0.00623,-0.001676,0.0,0.0,0.0
193195,-0.016489,0.004013,-0.061258,-0.015073,-0.069537,0.623197,0.0,-0.145685,0.554315,-0.0,0.614704,0.517279,0.534062,0.506691,0.0,-0.106706,0.59412,0.0,-0.095373,-0.096181,11.01788,0.000444,-0.001348,0.0,0.0,0.0
193215,-0.021106,0.003266,-0.060762,-0.015073,-0.069537,0.623197,0.0,-0.145685,0.554315,-0.0,0.600027,0.52254,0.551872,0.503698,0.0,-0.108615,0.592195,0.0,-0.095567,-0.096395,11.057456,-0.008428,0.001322,0.0,0.0,0.0
193235,-0.023165,0.002719,-0.060395,-0.015571,-0.072874,0.621645,0.0,-0.147524,0.552476,-0.0,0.599648,0.523736,0.551074,0.505152,0.0,-0.110528,0.590265,0.0,-0.095753,-0.096617,11.072236,-0.011255,0.00107,0.0,0.0,0.0
193255,-0.026666,0.001399,-0.059913,-0.016215,-0.075554,0.619951,0.0,-0.149551,0.550449,-0.0,0.616727,0.513714,0.523179,0.515423,0.0,-0.112444,0.588332,0.0,-0.095935,-0.096736,10.976997,0.003201,-0.003394,0.0,0.0,0.0
193275,-0.028866,0.001467,-0.059053,-0.016624,-0.078101,0.618462,0.0,-0.151479,0.548521,-0.0,0.600543,0.519609,0.542538,0.508607,0.0,-0.114364,0.586396,0.0,-0.096093,-0.096829,10.972496,-6e-06,-0.004716,0.0,0.0,0.0
193295,-0.031627,-0.00019,-0.058349,-0.017054,-0.080466,0.61692,0.0,-0.152998,0.547002,-0.0,0.602579,0.528461,0.537486,0.504769,0.0,-0.116287,0.584459,0.0,-0.096219,-0.096945,10.999116,-0.002849,-0.004027,0.0,0.0,0.0
193315,-0.033929,-0.000852,-0.05738,-0.017215,-0.082386,0.615803,0.0,-0.15454,0.54546,-0.0,0.599904,0.527616,0.541204,0.505957,0.0,-0.118212,0.582519,0.0,-0.096328,-0.097085,11.010409,-0.004057,-0.004278,0.0,0.0,0.0
193335,-0.03522,-0.002701,-0.056313,-0.01739,-0.084112,0.614707,0.0,-0.156087,0.543913,-0.0,0.598024,0.53444,0.539728,0.503388,0.0,-0.120139,0.580576,0.0,-0.096431,-0.097222,11.018913,-0.003682,-0.004465,0.0,0.0,0.0
193355,-0.036532,-0.003814,-0.055103,-0.017408,-0.085636,0.61365,0.0,-0.157792,0.542208,-0.0,0.594918,0.523106,0.533714,0.523057,0.0,-0.122069,0.578631,0.0,-0.096533,-0.097351,10.995117,-0.000571,-0.00598,0.0,0.0,0.0
193375,-0.036479,-0.005866,-0.053923,-0.017475,-0.087253,0.612381,0.0,-0.157792,0.542208,-0.0,0.594866,0.527863,0.539411,0.509914,0.0,-0.124,0.576683,0.0,-0.096633,-0.09747,10.968274,0.003337,-0.007218,0.0,0.0,0.0
193395,-0.035442,-0.008259,-0.052747,-0.017475,-0.087253,0.612381,0.0,-0.159616,0.540384,-0.0,0.59349,0.532827,0.53535,0.5084,0.0,-0.125934,0.574733,0.0,-0.09673,-0.097591,10.943006,0.007505,-0.008832,0.0,0.0,0.0
193415,-0.031944,-0.011444,-0.051566,-0.017043,-0.088059,0.6114,0.0,-0.161333,0.538667,-0.0,0.578905,0.536215,0.552211,0.503968,0.0,-0.127869,0.572781,0.0,-0.096824,-0.097608,10.945112,0.009334,-0.009752,0.0,0.0,0.0
193435,-0.028487,-0.01329,-0.050241,-0.016812,-0.089204,0.609939,0.0,-0.163225,0.536775,-0.0,0.588089,0.527849,0.539172,0.508608,0.0,-0.129806,0.570829,0.0,-0.096895,-0.097599,10.861337,0.01981,-0.010568,0.0,0.0,0.0
193455,-0.024937,-0.013918,-0.049004,-0.016634,-0.089564,0.608886,0.0,-0.165176,0.534824,-0.0,0.582896,0.515491,0.540249,0.524478,0.0,-0.131744,0.568877,0.0,-0.096935,-0.097597,10.844209,0.024788,-0.013463,0.0,0.0,0.0
193475,-0.020992,-0.015884,-0.047664,-0.016678,-0.090119,0.607794,0.0,-0.165176,0.534824,-0.0,0.576307,0.528408,0.549015,0.512412,0.0,-0.133683,0.566925,0.0,-0.096952,-0.097611,10.87506,0.025471,-0.014882,0.0,0.0,0.0
193495,-0.017169,-0.017978,-0.046186,-0.016603,-0.090225,0.606737,0.0,-0.166814,0.533186,-0.0,0.581805,0.533111,0.543934,0.506957,0.0,-0.135622,0.564972,0.0,-0.096959,-0.097651,10.879029,0.029496,-0.015259,0.0,0.0,0.0
193515,-0.012013,-0.019805,-0.044693,-0.016603,-0.090225,0.606737,0.0,-0.168714,0.531286,-0.0,0.577303,0.536028,0.545665,0.507823,0.0,-0.137561,0.563019,0.0,-0.096964,-0.097597,10.885439,0.03146,-0.014063,0.0,0.0,0.0
193535,-0.005359,-0.023193,-0.043292,-0.016329,-0.089991,0.605603,0.0,-0.170707,0.529293,-0.0,0.566771,0.543505,0.553803,0.502305,0.0,-0.139501,0.561068,0.0,-0.096948,-0.09751,10.878527,0.035772,-0.013495,0.0,0.0,0.0
193555,0.001132,-0.024885,-0.041876,-0.016255,-0.089828,0.604335,0.0,-0.172548,0.527452,-0.0,0.571209,0.530894,0.55509,0.502299,0.0,-0.141439,0.559118,0.0,-0.096902,-0.097441,10.801553,0.040166,-0.012816,0.0,0.0,0.0
193575,0.008219,-0.025962,-0.040563,-0.016436,-0.089565,0.60296,0.0,-0.174187,0.525813,-0.0,0.568425,0.535987,0.551811,0.503688,0.0,-0.143377,0.55717,0.0,-0.096837,-0.097403,10.800995,0.044917,-0.013798,0.0,0.0,0.0
193595,0.012614,-0.026857,-0.039156,-0.016623,-0.089096,0.601926,0.0,-0.175721,0.524279,-0.0,0.570513,0.538843,0.54561,0.507195,0.0,-0.145313,0.555222,0.0,-0.096766,-0.097389,10.824525,0.048271,-0.01378,0.0,0.0,0.0
193615,0.017232,-0.026533,-0.03788,-0.016826,-0.088856,0.600845,0.0,-0.177237,0.522763,-0.0,0.571721,0.533421,0.55353,0.505418,0.0,-0.147248,0.553274,0.0,-0.096701,-0.097386,10.85246,0.051161,-0.012121,0.0,0.0,0.0
193635,0.023106,-0.028142,-0.036679,-0.016826,-0.088856,0.600845,0.0,-0.177237,0.522763,-0.0,0.569573,0.539197,0.553565,0.501457,0.0,-0.149181,0.551326,0.0,-0.096643,-0.097381,10.85045,0.054553,-0.010505,0.0,0.0,0.0
193655,0.028189,-0.026474,-0.035525,-0.017088,-0.087752,0.599742,0.0,-0.178862,0.521138,-0.0,0.565455,0.520936,0.555143,0.522757,0.0,-0.151114,0.549379,0.0,-0.096594,-0.09737,10.843227,0.056174,-0.009254,0.0,0.0,0.0
193675,0.032035,-0.023984,-0.034165,-0.017582,-0.087637,0.598216,0.0,-0.180836,0.519164,-0.0,0.565214,0.513254,0.555162,0.524489,0.0,-0.153046,0.547432,0.0,-0.09655,-0.097257,10.77373,0.055287,-0.009526,0.0,0.0,0.0
193695,0.035039,-0.021875,-0.033062,-0.018341,-0.087527,0.596569,0.0,-0.183078,0.516922,-0.0,0.577164,0.512451,0.543824,0.523726,0.0,-0.154976,0.545488,0.0,-0.096488,-0.097109,10.770216,0.061148,-0.0086,0.0,0.0,0.0
193715,0.039281,-0.02048,-0.032065,-0.018954,-0.08748,0.595216,0.0,-0.184623,0.515377,-0.0,0.57189,0.527595,0.546837,0.514719,0.0,-0.156905,0.543547,0.0,-0.096397,-0.096984,10.808841,0.06183,-0.006348,0.0,0.0,0.0
193735,0.040205,-0.018047,-0.030877,-0.019539,-0.087326,0.593854,0.0,-0.186151,0.513849,-0.0,0.573657,0.530371,0.546365,0.514037,0.0,-0.158832,0.541608,0.0,-0.09629,-0.096906,10.850122,0.061603,-0.002925,0.0,0.0,0.0
193755,0.042736,-0.016447,-0.029669,-0.019539,-0.087326,0.593854,0.0,-0.186151,0.513849,-0.0,0.572021,0.532941,0.55045,0.509876,0.0,-0.160757,0.53967,0.0,-0.096184,-0.096842,10.862282,0.061006,-0.000944,0.0,0.0,0.0
193775,0.044173,-0.015107,-0.028586,-0.021227,-0.087874,0.590821,0.0,-0.187909,0.512091,-0.0,0.577788,0.525837,0.542174,0.519522,0.0,-0.16268,0.537734,0.0,-0.096087,-0.096775,10.862166,0.061515,6.9e-05,0.0,0.0,0.0
193795,0.046086,-0.012785,-0.027523,-0.021227,-0.087874,0.590821,0.0,-0.189909,0.510091,-0.0,0.568645,0.506302,0.552239,0.531021,0.0,-0.164601,0.535799,0.0,-0.095996,-0.096609,10.779535,0.060973,-0.002549,0.0,0.0,0.0
193815,0.045673,-0.009883,-0.026612,-0.022382,-0.08834,0.58912,0.0,-0.191684,0.508316,-0.0,0.582904,0.523525,0.544542,0.515365,0.0,-0.166521,0.533869,0.0,-0.095887,-0.09642,10.883188,0.058406,0.004099,0.0,0.0,0.0
193835,0.046389,-0.009042,-0.025651,-0.023328,-0.089164,0.587489,0.0,-0.193451,0.506549,-0.0,0.581329,0.523091,0.536626,0.519163,0.0,-0.168437,0.531942,0.0,-0.095753,-0.096261,10.806592,0.059401,0.001831,0.0,0.0,0.0
193855,0.044548,-0.008602,-0.024575,-0.024161,-0.089984,0.58597,0.0,-0.195096,0.504904,-0.0,0.586564,0.532114,0.53683,0.50441,0.0,-0.170351,0.530017,0.0,-0.095607,-0.096123,10.817085,0.058637,0.00459,0.0,0.0,0.0
193875,0.043422,-0.006562,-0.02365,-0.024933,-0.090925,0.584631,0.0,-0.196632,0.503368,-0.0,0.579948,0.527192,0.540561,0.515243,0.0,-0.172262,0.528096,0.0,-0.095459,-0.096004,10.838153,0.056079,0.006706,0.0,0.0,0.0
193895,0.04219,-0.006112,-0.022563,-0.025833,-0.092072,0.583271,0.0,-0.19817,0.50183,-0.0,0.581205,0.527996,0.536986,0.517454,0.0,-0.17417,0.526177,0.0,-0.095316,-0.095897,10.846245,0.054132,0.007572,0.0,0.0,0.0
193915,0.041809,-0.005036,-0.021733,-0.026615,-0.093217,0.581873,0.0,-0.199751,0.500249,-0.0,0.578067,0.521012,0.54526,0.518627,0.0,-0.176076,0.524259,-0.0,-0.095181,-0.095792,10.837387,0.052474,0.00771,0.0,0.0,0.0
193935,0.039482,-0.004468,-0.0209,-0.026615,-0.093217,0.581873,0.0,-0.199751,0.500249,-0.0,0.586941,0.522848,0.537162,0.514002,0.0,-0.177978,0.522344,-0.0,-0.095056,-0.095686,10.825097,0.05049,0.008479,0.0,0.0,0.0
193955,0.03764,-0.003769,-0.020183,-0.027745,-0.094974,0.580109,0.0,-0.202079,0.497921,-0.0,0.593468,0.527819,0.529886,0.508032,0.0,-0.179879,0.520432,-0.0,-0.094937,-0.095581,10.816766,0.04927,0.00867,0.0,0.0,0.0
193975,0.036798,-0.005133,-0.019429,-0.028614,-0.096561,0.578657,0.0,-0.203725,0.496275,-0.0,0.588775,0.530008,0.527113,0.50629,0.0,-0.181776,0.518521,-0.0,-0.094824,-0.095377,10.728937,0.054391,0.004521,0.0,0.0,0.0
193995,0.034826,-0.003332,-0.018857,-0.029591,-0.098521,0.576625,0.0,-0.205501,0.494499,-0.0,0.583305,0.518768,0.538753,0.513737,0.0,-0.183672,0.516615,-0.0,-0.094695,-0.095188,10.747164,0.051082,0.006879,0.0,0.0,0.0
194015,0.034334,-0.002981,-0.018255,-0.029591,-0.098521,0.576625,0.0,-0.205501,0.494499,-0.0,0.581075,0.529686,0.541346,0.504114,0.0,-0.185565,0.514713,-0.0,-0.094548,-0.095017,10.767683,0.047497,0.008765,0.0,0.0,0.0
194035,0.033,-0.004222,-0.017746,-0.030841,-0.100968,0.574578,0.0,-0.207387,0.492613,-0.0,0.581315,0.534321,0.543816,0.500645,0.0,-0.187455,0.512814,-0.0,-0.094396,-0.094863,10.816524,0.043168,0.010724,0.0,0.0,0.0
194055,0.033372,-0.005083,-0.017121,-0.031855,-0.103093,0.572644,0.0,-0.209183,0.490817,-0.0,0.58854,0.524734,0.536726,0.502514,0.0,-0.189341,0.510918,-0.0,-0.094245,-0.094617,10.735759,0.050077,0.006917,0.0,0.0,0.0
194075,0.032639,-0.005096,-0.016757,-0.033023,-0.105561,0.570561,0.0,-0.211316,0.488684,-0.0,0.585086,0.53178,0.537278,0.501471,0.0,-0.191225,0.509028,-0.0,-0.094073,-0.09436,10.767155,0.045168,0.009856,0.0,0.0,0.0
194095,0.032264,-0.004128,-0.016408,-0.034218,-0.10843,0.568234,0.0,-0.211316,0.488684,-0.0,0.576581,0.523635,0.550554,0.509445,0.0,-0.193105,0.507142,-0.0,-0.093876,-0.094126,10.809424,0.040675,0.012358,0.0,0.0,0.0
194115,0.032262,-0.004012,-0.016044,-0.034218,-0.10843,0.568234,0.0,-0.213314,0.486686,-0.0,0.580249,0.526555,0.556022,0.499445,0.0,-0.194981,0.505261,-0.0,-0.093665,-0.093935,10.847519,0.036015,0.015034,0.0,0.0,0.0
194135,0.031881,-0.002188,-0.01583,-0.03523,-0.111195,0.566019,0.0,-0.215225,0.484775,-0.0,0.574947,0.522784,0.556622,0.513593,0.0,-0.196853,0.503384,-0.0,-0.093453,-0.093665,10.899035,0.029657,0.017293,0.0,0.0,0.0
194155,0.030281,-0.000496,-0.015614,-0.036501,-0.114238,0.563722,0.0,-0.216872,0.483128,-0.0,0.598131,0.508061,0.527844,0.521035,0.0,-0.19872,0.501513,-0.0,-0.093226,-0.093393,10.777866,0.041435,0.012423,0.0,0.0,0.0
194175,0.027571,0.002653,-0.015416,-0.037359,-0.11662,0.561914,0.0,-0.218411,0.481589,-0.0,0.588809,0.504576,0.543949,0.520048,0.0,-0.200583,0.499647,-0.0,-0.092981,-0.093158,10.794109,0.038781,0.013006,0.0,0.0,0.0
194195,0.026585,0.003741,-0.015183,-0.038224,-0.119094,0.560076,0.0,-0.219961,0.480039,-0.0,0.585049,0.523603,0.547834,0.505491,0.0,-0.202441,0.497786,-0.0,-0.09273,-0.092941,10.842073,0.032049,0.016263,0.0,0.0,0.0
194215,0.024126,0.006161,-0.014965,-0.038896,-0.121579,0.558187,0.0,-0.221498,0.478502,-0.0,0.590335,0.51359,0.540555,0.518128,0.0,-0.204293,0.495928,-0.0,-0.092481,-0.092731,10.851616,0.02999,0.017098,0.0,0.0,0.0
194235,0.021426,0.008212,-0.014614,-0.039877,-0.125116,0.555581,0.0,-0.2233,0.4767,-0.0,0.594949,0.51393,0.537066,0.515878,0.0,-0.206141,0.494075,-0.0,-0.092239,-0.092528,10.849872,0.029157,0.017341,0.0,0.0,0.0
194255,0.019458,0.010393,-0.014384,-0.039877,-0.125116,0.555581,0.0,-0.2233,0.4767,-0.0,0.596366,0.516268,0.534589,0.51435,0.0,-0.207984,0.492226,-0.0,-0.092002,-0.092329,10.848726,0.028807,0.01649,0.0,0.0,0.0
194275,0.018479,0.011115,-0.01402,-0.040611,-0.128136,0.553611,0.0,-0.225351,0.474649,-0.0,0.578694,0.524137,0.549702,0.514828,0.0,-0.209822,0.490381,-0.0,-0.091773,-0.09215,10.89189,0.023027,0.017486,0.0,0.0,0.0
194295,0.0159,0.013657,-0.013538,-0.041217,-0.13201,0.550587,0.0,-0.227398,0.472602,-0.0,0.604697,0.505935,0.519937,0.522968,0.0,-0.211656,0.48854,-0.0,-0.091555,-0.091885,10.774456,0.036277,0.013403,0.0,0.0,0.0
194315,0.013462,0.013639,-0.013156,-0.041774,-0.135572,0.547995,0.0,-0.229215,0.470785,-0.0,0.59202,0.521478,0.526773,0.515149,0.0,-0.213486,0.486704,-0.0,-0.091327,-0.091621,10.768099,0.034482,0.013483,0.0,0.0,0.0
194335,0.011883,0.01277,-0.01265,-0.042141,-0.138941,0.545434,0.0,-0.23099,0.46901,-0.0,0.579019,0.527121,0.547214,0.510988,0.0,-0.21531,0.484873,-0.0,-0.091088,-0.091401,10.857476,0.024928,0.01394,0.0,0.0,0.0
194355,0.013236,0.011555,-0.012162,-0.042279,-0.1425,0.542669,0.0,-0.23099,0.46901,-0.0,0.571896,0.531552,0.561965,0.503448,0.0,-0.21713,0.483047,-0.0,-0.090851,-0.091214,10.915315,0.017998,0.014214,0.0,0.0,0.0
194375,0.012635,0.010449,-0.011663,-0.042279,-0.1425,0.542669,0.0,-0.233088,0.466912,-0.0,0.579633,0.525092,0.54609,0.521474,0.0,-0.218946,0.481224,-0.0,-0.090629,-0.091052,10.946385,0.014718,0.013459,0.0,0.0,0.0
194395,0.01093,0.010436,-0.010922,-0.042506,-0.148913,0.537473,0.0,-0.235081,0.464919,-0.0,0.58483,0.524264,0.545484,0.520301,0.0,-0.220757,0.479404,-0.0,-0.090425,-0.090803,10.983676,0.011357,0.011545,0.0,0.0,0.0
194415,0.007774,0.007487,-0.010528,-0.042573,-0.151934,0.535079,0.0,-0.236904,0.463096,-0.0,0.614736,0.534664,0.504212,0.501555,0.0,-0.222564,0.47759,-0.0,-0.090218,-0.090561,10.824262,0.02928,0.009269,0.0,0.0,0.0
194435,0.006566,0.005282,-0.010028,-0.042573,-0.151934,0.535079,0.0,-0.238448,0.461552,-0.0,0.570272,0.544756,0.554203,0.507508,0.0,-0.224366,0.475781,-0.0,-0.090004,-0.090361,10.999472,0.011574,0.008904,0.0,0.0,0.0
194455,0.004621,0.003806,-0.009532,-0.042085,-0.157818,0.530184,0.0,-0.23999,0.46001,-0.0,0.586885,0.539439,0.545033,0.506065,0.0,-0.226165,0.473975,-0.0,-0.089797,-0.090192,11.02296,0.009207,0.008298,0.0,0.0,0.0
194475,0.003043,0.001845,-0.009159,-0.042085,-0.157818,0.530184,0.0,-0.241538,0.458462,-0.0,0.606332,0.5316,0.515144,0.506879,0.0,-0.227959,0.472172,-0.0,-0.089606,-0.090034,10.852483,0.027486,0.00752,0.0,0.0,0.0
194495,0.002448,-0.001454,-0.008667,-0.041654,-0.161118,0.527648,0.0,-0.241538,0.458462,-0.0,0.577285,0.540253,0.552386,0.506222,0.0,-0.22975,0.470373,-0.0,-0.089433,-0.08988,10.998801,0.01299,0.00432,0.0,0.0,0.0
194515,0.002827,-0.004749,-0.008173,-0.041249,-0.163787,0.525055,0.0,-0.24346,0.45654,-0.0,0.59581,0.540034,0.527553,0.498857,0.0,-0.231538,0.468576,-0.0,-0.089275,-0.08973,10.863788,0.027269,0.004208,0.0,0.0,0.0
194535,0.005396,-0.006327,-0.007797,-0.040925,-0.166735,0.522258,0.0,-0.245332,0.454668,-0.0,0.577316,0.529502,0.552633,0.505862,0.0,-0.233322,0.466783,-0.0,-0.089129,-0.089487,10.872194,0.025305,0.002522,0.0,0.0,0.0
194555,0.006499,-0.007667,-0.007422,-0.040657,-0.169813,0.519266,0.0,-0.24706,0.45294,-0.0,0.5839,0.530804,0.542174,0.511237,0.0,-0.235103,0.464995,-0.0,-0.088972,-0.089235,10.905639,0.024377,0.001137,0.0,0.0,0.0
194575,0.008942,-0.008636,-0.007042,-0.040387,-0.173709,0.515523,0.0,-0.248978,0.451022,-0.0,0.573249,0.530144,0.557983,0.511041,0.0,-0.236882,0.463212,-0.0,-0.088797,-0.089013,10.950418,0.022233,0.00068,0.0,0.0,0.0
194595,0.01261,-0.010822,-0.006646,-0.040051,-0.177128,0.512246,0.0,-0.250733,0.449267,-0.0,0.57432,0.540035,0.563347,0.497428,0.0,-0.238656,0.461434,-0.0,-0.088616,-0.088812,10.997878,0.019658,0.000898,0.0,0.0,0.0
194615,0.015911,-0.012275,-0.006738,-0.040051,-0.177128,0.512246,0.0,-0.250733,0.449267,-0.0,0.568451,0.54355,0.569031,0.501453,0.0,-0.240427,0.459659,-0.0,-0.088437,-0.088642,11.080095,0.013295,0.001221,0.0,0.0,0.0
194635,0.018599,-0.013245,-0.00647,-0.039522,-0.180133,0.508773,0.0,-0.252566,0.447434,-0.0,0.569391,0.543368,0.569795,0.503186,0.0,-0.242195,0.457887,-0.0,-0.088268,-0.0885,11.118274,0.010363,0.001123,0.0,0.0,0.0
194655,0.01933,-0.012386,-0.006595,-0.039222,-0.183635,0.50525,0.0,-0.254481,0.445519,-0.0,0.598601,0.527297,0.539926,0.502376,0.0,-0.243959,0.456118,-0.0,-0.088113,-0.08827,10.934945,0.027003,0.002819,0.0,0.0,0.0
194675,0.020064,-0.012871,-0.006707,-0.039006,-0.187562,0.501524,0.0,-0.256367,0.443633,-0.0,0.584423,0.52331,0.552185,0.513026,0.0,-0.24572,0.454355,-0.0,-0.087951,-0.088029,10.966628,0.027651,0.001565,0.0,0.0,0.0
194695,0.022136,-0.011274,-0.006955,-0.038572,-0.191197,0.497935,0.0,-0.258301,0.441699,-0.0,0.576899,0.51614,0.570518,0.515571,0.0,-0.247478,0.452596,-0.0,-0.087772,-0.08782,11.044294,0.02154,0.00126,0.0,0.0,0.0
194715,0.022006,-0.008463,-0.007353,-0.0383,-0.195062,0.494046,0.0,-0.258301,0.441699,-0.0,0.579627,0.512527,0.570897,0.522597,0.0,-0.249232,0.450841,-0.0,-0.087587,-0.087643,11.123261,0.013272,0.001739,0.0,0.0,0.0
194735,0.024197,-0.006621,-0.00761,-0.038087,-0.198282,0.490997,0.0,-0.259964,0.440036,-0.0,0.57896,0.51898,0.573887,0.517918,0.0,-0.250982,0.449089,-0.0,-0.087409,-0.087504,11.172013,0.008456,0.001082,0.0,0.0,0.0
194755,0.023821,-0.003807,-0.008255,-0.037731,-0.201483,0.487951,0.0,-0.261506,0.438494,-0.0,0.586341,0.514705,0.571843,0.521095,0.0,-0.252729,0.447341,-0.0,-0.087244,-0.087281,11.229647,0.003634,0.001254,0.0,0.0,0.0
194775,0.022226,-0.001733,-0.00877,-0.03746,-0.204746,0.484894,0.0,-0.263048,0.436952,-0.0,0.59194,0.517835,0.566173,0.516284,0.0,-0.254473,0.445597,-0.0,-0.087072,-0.087037,11.212501,0.004295,0.001905,0.0,0.0,0.0
194795,0.021971,0.000712,-0.009285,-0.037056,-0.208163,0.481852,0.0,-0.264665,0.435335,-0.0,0.591324,0.512617,0.565266,0.520939,0.0,-0.256213,0.443858,-0.0,-0.086883,-0.086799,11.187093,0.005771,0.001703,0.0,0.0,0.0
194815,0.020007,0.002905,-0.009795,-0.036555,-0.211494,0.478812,0.0,-0.266657,0.433343,-0.0,0.593818,0.508242,0.55811,0.52851,0.0,-0.257949,0.442124,-0.0,-0.08668,-0.086564,11.169429,0.006527,0.001849,0.0,0.0,0.0
194835,0.016578,0.004845,-0.010171,-0.036116,-0.21511,0.475626,0.0,-0.268438,0.431562,-0.0,0.603562,0.50791,0.555888,0.518867,0.0,-0.259681,0.440394,-0.0,-0.086467,-0.086339,11.158688,0.005929,0.001313,0.0,0.0,0.0
194855,0.014864,0.005329,-0.010782,-0.036116,-0.21511,0.475626,0.0,-0.268438,0.431562,-0.0,0.60046,0.518977,0.554742,0.512264,0.0,-0.261409,0.438669,-0.0,-0.086249,-0.086149,11.152275,0.005668,0.00025,0.0,0.0,0.0
194875,0.012779,0.006907,-0.011153,-0.035564,-0.219061,0.472598,0.0,-0.270611,0.429389,-0.0,0.594999,0.509599,0.558162,0.52503,0.0,-0.263132,0.436947,-0.0,-0.086036,-0.085991,11.160676,0.003772,-0.000281,0.0,0.0,0.0
194895,0.012412,0.006907,-0.011518,-0.034627,-0.223309,0.468987,0.0,-0.272452,0.427548,-0.0,0.612388,0.518881,0.536255,0.501757,0.0,-0.264851,0.435229,-0.0,-0.085835,-0.085749,10.975879,0.021007,0.001869,0.0,0.0,0.0
194915,0.014003,0.005943,-0.012004,-0.033396,-0.227854,0.465094,0.0,-0.274647,0.425353,-0.0,0.582341,0.522696,0.561256,0.507545,0.0,-0.266566,0.433516,-0.0,-0.085625,-0.085518,10.98336,0.016894,0.000998,0.0,0.0,0.0
194935,0.015466,0.006076,-0.012254,-0.033396,-0.227854,0.465094,0.0,-0.274647,0.425353,-0.0,0.573765,0.517325,0.577959,0.512178,0.0,-0.268277,0.431807,-0.0,-0.085405,-0.085325,11.074552,0.007016,-0.002433,0.0,0.0,0.0
194955,0.019008,0.005856,-0.012507,-0.032109,-0.23233,0.46103,0.0,-0.276502,0.423498,-0.0,0.565541,0.521734,0.589209,0.512951,0.0,-0.269984,0.430101,-0.0,-0.085188,-0.085185,11.175441,-0.002889,-0.007102,0.0,0.0,0.0
194975,0.019376,0.005495,-0.012871,-0.030753,-0.237337,0.45688,0.0,-0.278488,0.421512,-0.0,0.597849,0.519371,0.543496,0.514641,0.0,-0.271686,0.428399,-0.0,-0.084988,-0.084969,11.012212,0.013905,-0.004,0.0,0.0,0.0
194995,0.021348,0.002578,-0.012845,-0.029409,-0.242479,0.452834,0.0,-0.280296,0.419704,-0.0,0.573803,0.522194,0.577743,0.508441,0.0,-0.273384,0.426702,-0.0,-0.084786,-0.084745,11.086019,0.008214,-0.007084,0.0,0.0,0.0
195015,0.025149,-7.8e-05,-0.01318,-0.027746,-0.247226,0.44891,0.0,-0.281974,0.418026,-0.0,0.563778,0.526134,0.595483,0.505265,0.0,-0.275078,0.425008,-0.0,-0.084577,-0.084561,11.201768,-0.004199,-0.011155,0.0,0.0,0.0
195035,0.025769,-0.001537,-0.013283,-0.026434,-0.250943,0.445777,0.0,-0.283521,0.416479,-0.0,0.564253,0.517355,0.5914,0.52626,0.0,-0.276768,0.423318,-0.0,-0.084372,-0.084409,11.289364,-0.015575,-0.014295,0.0,0.0,0.0
195055,0.024809,-0.004107,-0.013253,-0.025073,-0.255107,0.442644,0.0,-0.285052,0.414948,-0.0,0.58153,0.530468,0.579029,0.512207,0.0,-0.278454,0.421631,-0.0,-0.08418,-0.084277,11.338745,-0.021546,-0.018163,0.0,0.0,0.0
195075,0.023624,-0.009114,-0.013685,-0.023374,-0.25927,0.439504,0.0,-0.28674,0.41326,-0.0,0.590397,0.543689,0.571163,0.494627,0.0,-0.280136,0.419946,-0.0,-0.084005,-0.084154,11.318144,-0.019245,-0.019289,0.0,0.0,0.0
195095,0.019988,-0.012923,-0.013788,-0.021622,-0.263834,0.435986,0.0,-0.28674,0.41326,-0.0,0.592377,0.536443,0.565766,0.503797,0.0,-0.281815,0.418264,-0.0,-0.083849,-0.084036,11.289284,-0.018446,-0.019856,0.0,0.0,0.0
195115,0.015864,-0.016613,-0.013909,-0.021622,-0.263834,0.435986,0.0,-0.2888,0.4112,-0.0,0.598737,0.536663,0.559533,0.501021,0.0,-0.283491,0.416584,-0.0,-0.083709,-0.083932,11.268724,-0.018465,-0.022128,0.0,0.0,0.0
195135,0.009178,-0.020199,-0.014194,-0.019188,-0.269121,0.432483,0.0,-0.290489,0.409511,-0.0,0.602921,0.529593,0.551125,0.514788,0.0,-0.285165,0.414907,-0.0,-0.083584,-0.083737,11.291067,-0.021908,-0.024591,0.0,0.0,0.0
195155,0.001763,-0.024403,-0.014389,-0.017264,-0.274728,0.428483,0.0,-0.292289,0.407711,-0.0,0.636899,0.547496,0.51083,0.475139,0.0,-0.286835,0.413234,-0.0,-0.083452,-0.083544,11.084585,0.000459,-0.016934,0.0,0.0,0.0
195175,-0.001746,-0.028214,-0.014683,-0.015214,-0.279932,0.424959,0.0,-0.293913,0.406087,-0.0,0.597331,0.535474,0.55612,0.493562,0.0,-0.288503,0.411564,-0.0,-0.083309,-0.083373,11.113698,-0.007142,-0.022624,0.0,0.0,0.0
195195,-0.004783,-0.030068,-0.014853,-0.013196,-0.284677,0.421491,0.0,-0.295721,0.404279,-0.0,0.587331,0.52551,0.568465,0.512055,0.0,-0.290168,0.409898,-0.0,-0.083162,-0.083224,11.220713,-0.021382,-0.027127,0.0,0.0,0.0
195215,-0.003426,-0.031889,-0.014836,-0.011466,-0.289368,0.418157,0.0,-0.295721,0.404279,-0.0,0.571827,0.531791,0.585602,0.509714,0.0,-0.29183,0.408234,-0.0,-0.083021,-0.083091,11.287304,-0.031198,-0.030932,0.0,0.0,0.0
195235,-0.00367,-0.03189,-0.01484,-0.011466,-0.289368,0.418157,0.0,-0.297745,0.402255,-0.0,0.580955,0.522173,0.580691,0.517984,0.0,-0.29349,0.406573,-0.0,-0.082888,-0.082981,11.322089,-0.034894,-0.033503,0.0,0.0,0.0
195255,-0.00549,-0.033125,-0.014994,-0.009454,-0.294486,0.414362,0.0,-0.299542,0.400458,-0.0,0.590662,0.536237,0.565975,0.510725,0.0,-0.295147,0.404915,-0.0,-0.082767,-0.082786,11.343095,-0.03697,-0.03369,0.0,0.0,0.0
195275,-0.007787,-0.036073,-0.015047,-0.00774,-0.299592,0.41071,0.0,-0.296943,0.4,-0.0,0.615299,0.551713,0.532586,0.480555,0.0,-0.296801,0.403261,-0.0,-0.082636,-0.082591,11.133988,-0.011849,-0.023993,0.0,0.0,0.0
195295,-0.00888,-0.036813,-0.01507,-0.005934,-0.3045,0.406991,0.0,-0.293859,0.4,-0.0,0.589205,0.529004,0.566783,0.504242,0.0,-0.298453,0.40161,-0.0,-0.08249,-0.082426,11.178256,-0.016246,-0.026011,0.0,0.0,0.0
195315,-0.010214,-0.037922,-0.0151,-0.004623,-0.308215,0.404154,0.0,-0.290767,0.4,-0.0,0.581756,0.530599,0.570865,0.514759,0.0,-0.300101,0.399963,-0.0,-0.082338,-0.082203,11.267407,-0.028294,-0.028697,0.0,0.0,0.0
195335,-0.009613,-0.037062,-0.014963,-0.003352,-0.311789,0.401328,0.0,-0.287704,0.4,-0.0,0.569052,0.519318,0.587548,0.528682,0.0,-0.301747,0.398321,-0.0,-0.082118,-0.081866,11.349047,-0.038178,-0.031448,0.0,0.0,0.0
195355,-0.012565,-0.034641,-0.014756,-0.002246,-0.315399,0.39853,0.0,-0.287704,0.4,-0.0,0.593531,0.516129,0.564707,0.530042,0.0,-0.303386,0.396687,-0.0,-0.081736,-0.081404,11.353112,-0.039079,-0.030907,0.0,0.0,0.0
195375,-0.013783,-0.035259,-0.014659,-0.002246,-0.315399,0.39853,0.0,-0.2846,0.4,-0.0,0.594259,0.533668,0.564291,0.511031,0.0,-0.305017,0.395063,-0.0,-0.081102,-0.080818,11.34286,-0.037814,-0.029723,0.0,0.0,0.0
195395,-0.014153,-0.035382,-0.014422,-0.000792,-0.320315,0.394788,0.0,-0.279396,0.4,-0.0,0.591833,0.536756,0.566324,0.507607,0.0,-0.306632,0.393452,-0.0,-0.080153,-0.080112,11.334563,-0.036229,-0.02801,0.0,0.0,0.0
195415,-0.017346,-0.033204,-0.014214,0.000474,-0.324022,0.391568,0.0,-0.275876,0.4,-0.0,0.613819,0.53409,0.53341,0.503267,0.0,-0.308226,0.391856,-0.0,-0.078882,-0.07929,11.153681,-0.017401,-0.020766,0.0,0.0,0.0
195435,-0.019435,-0.032116,-0.013871,0.001457,-0.327546,0.388807,0.0,-0.272751,0.4,-0.0,0.579514,0.523081,0.5639,0.529135,0.0,-0.309792,0.390277,-0.0,-0.077268,-0.07836,11.227985,-0.028405,-0.022434,0.0,0.0,0.0
195455,-0.01884,-0.030034,-0.013717,0.002858,-0.331368,0.385519,0.0,-0.269587,0.4,-0.0,0.576507,0.519836,0.576371,0.529166,0.0,-0.311323,0.388717,-0.0,-0.075245,-0.077327,11.310505,-0.036699,-0.024782,0.0,0.0,0.0
195475,-0.01825,-0.02783,-0.013321,0.002858,-0.331368,0.385519,0.0,-0.269587,0.4,-0.0,0.572295,0.521064,0.579272,0.532318,0.0,-0.31281,0.387179,-0.0,-0.072765,-0.076199,11.344604,-0.041903,-0.025193,0.0,0.0,0.0
195495,-0.015213,-0.026343,-0.012902,0.004853,-0.337679,0.379758,0.0,-0.266251,0.4,-0.0,0.564508,0.52476,0.589464,0.530112,0.0,-0.314244,0.385664,-0.0,-0.069818,-0.074985,11.395693,-0.047501,-0.02747,0.0,0.0,0.0
195515,-0.015357,-0.023289,-0.012633,0.005723,-0.340085,0.377412,0.0,-0.26242,0.4,-0.0,0.602804,0.519749,0.547517,0.523325,0.0,-0.315616,0.384174,-0.0,-0.066411,-0.073692,11.229581,-0.030147,-0.021982,0.0,0.0,0.0
195535,-0.017209,-0.020734,-0.012266,0.005723,-0.340085,0.377412,0.0,-0.258446,0.4,-0.0,0.567726,0.512471,0.585998,0.545511,0.0,-0.316916,0.38271,-0.0,-0.062604,-0.072327,11.433499,-0.049326,-0.027345,0.0,0.0,0.0
195555,-0.016605,-0.019996,-0.012009,0.00747,-0.344889,0.373013,0.0,-0.254738,0.4,-0.0,0.583505,0.528227,0.580107,0.521006,0.0,-0.318137,0.381274,-0.0,-0.058435,-0.070896,11.45129,-0.050864,-0.027651,0.0,0.0,0.0
195575,-0.017587,-0.019268,-0.01189,0.00747,-0.344889,0.373013,0.0,-0.254738,0.4,-0.0,0.601019,0.533552,0.549884,0.512813,0.0,-0.319273,0.379867,-0.0,-0.053907,-0.069408,11.274384,-0.035676,-0.022063,0.0,0.0,0.0
195595,-0.02065,-0.018182,-0.011419,0.009294,-0.348859,0.369022,0.0,-0.248293,0.4,-0.0,0.576613,0.516724,0.576989,0.538082,0.0,-0.320315,0.37849,-0.0,-0.049024,-0.067867,11.388915,-0.048172,-0.026425,0.0,0.0,0.0
195615,-0.021136,-0.018915,-0.011187,0.010298,-0.350821,0.367214,0.0,-0.245223,0.4,-0.0,0.599232,0.533428,0.55457,0.508815,0.0,-0.321257,0.377145,-0.0,-0.043801,-0.06628,11.261636,-0.03648,-0.022381,0.0,0.0,0.0
195635,-0.021502,-0.019645,-0.010832,0.010298,-0.350821,0.367214,0.0,-0.245223,0.4,-0.0,0.568904,0.525578,0.578312,0.535061,0.0,-0.322092,0.375831,-0.0,-0.038315,-0.064653,11.372985,-0.047929,-0.027671,0.0,0.0,0.0
195655,-0.02383,-0.019407,-0.010243,0.011296,-0.352437,0.365518,0.0,-0.241417,0.4,-0.0,0.585779,0.525627,0.566253,0.529522,0.0,-0.322815,0.374551,-0.0,-0.032578,-0.062991,11.372348,-0.04959,-0.029248,0.0,0.0,0.0
195675,-0.024075,-0.019649,-0.010004,0.012567,-0.354383,0.363645,0.0,-0.236578,0.4,-0.0,0.59931,0.534378,0.550222,0.510043,0.0,-0.323423,0.373304,-0.0,-0.026604,-0.061299,11.23439,-0.037566,-0.024138,0.0,0.0,0.0
195695,-0.025292,-0.020872,-0.009787,0.013914,-0.355971,0.362027,0.0,-0.233421,0.4,-0.0,0.587045,0.531397,0.555403,0.520365,0.0,-0.323909,0.37209,-0.0,-0.020479,-0.059581,11.216011,-0.037052,-0.024543,0.0,0.0,0.0
195715,-0.026146,-0.021604,-0.009439,0.013914,-0.355971,0.362027,0.0,-0.233421,0.4,-0.0,0.58502,0.528672,0.571641,0.510055,0.0,-0.324272,0.370912,-0.0,-0.014257,-0.057843,11.244918,-0.042079,-0.027734,0.0,0.0,0.0
195735,-0.025047,-0.02245,-0.009194,0.015341,-0.357303,0.360355,0.0,-0.230075,0.4,-0.0,0.575644,0.530132,0.574864,0.517303,0.0,-0.32451,0.369768,-0.0,-0.007938,-0.056088,11.262752,-0.045125,-0.031199,0.0,0.0,0.0
195755,-0.026517,-0.0216,-0.009077,0.01665,-0.358357,0.358973,0.0,-0.226516,0.4,-0.0,0.590038,0.526043,0.550047,0.524252,0.0,-0.324621,0.36866,-0.0,-0.001544,-0.054319,11.172388,-0.03768,-0.026484,0.0,0.0,0.0
195775,-0.027605,-0.024044,-0.009,0.017836,-0.359314,0.357809,0.0,-0.222684,0.4,-0.0,0.588796,0.528439,0.566213,0.507359,0.0,-0.324604,0.367587,-0.0,0.004845,-0.052542,11.193375,-0.039362,-0.029185,0.0,0.0,0.0
195795,-0.026005,-0.026238,-0.009254,0.019214,-0.359653,0.356906,0.0,-0.218716,0.4,-0.0,0.579949,0.528772,0.577187,0.50698,0.0,-0.324459,0.366549,-0.0,0.011177,-0.050758,11.217129,-0.041657,-0.032328,0.0,0.0,0.0
195815,-0.026253,-0.025992,-0.00901,0.020346,-0.359722,0.356197,0.0,-0.218716,0.4,-0.0,0.578858,0.516181,0.569107,0.530527,0.0,-0.324188,0.365547,-0.0,0.017439,-0.048971,11.222886,-0.043767,-0.034142,0.0,0.0,0.0
195835,-0.025885,-0.026478,-0.009012,0.020346,-0.359722,0.356197,0.0,-0.214625,0.4,-0.0,0.583287,0.516792,0.571061,0.521645,0.0,-0.323793,0.364581,-0.0,0.02363,-0.047185,11.209615,-0.042684,-0.036352,0.0,0.0,0.0
195855,-0.026001,-0.02746,-0.009272,0.021664,-0.359635,0.35568,0.0,-0.211014,0.4,-0.0,0.593047,0.5225,0.564231,0.510012,0.0,-0.323274,0.363651,-0.0,0.029746,-0.045401,11.185745,-0.038746,-0.036846,0.0,0.0,0.0
195875,-0.026107,-0.030027,-0.009551,0.022871,-0.359176,0.355296,0.0,-0.207621,0.4,-0.0,0.591066,0.538825,0.562056,0.491674,0.0,-0.322634,0.362756,-0.0,0.035732,-0.043622,11.123349,-0.037356,-0.030763,0.0,0.0,0.0
195895,-0.024508,-0.032096,-0.009676,0.023859,-0.358583,0.355167,0.0,-0.204555,0.4,-0.0,0.582464,0.532015,0.573524,0.494449,0.0,-0.321876,0.361897,-0.0,0.041564,-0.041851,11.104691,-0.036629,-0.032287,0.0,0.0,0.0
195915,-0.024748,-0.031614,-0.01004,0.024709,-0.357595,0.355118,0.0,-0.201452,0.4,-0.0,0.587245,0.517197,0.565091,0.51308,0.0,-0.321002,0.361073,-0.0,0.04725,-0.04009,11.094079,-0.034872,-0.034678,0.0,0.0,0.0
195935,-0.024741,-0.031984,-0.010411,0.025227,-0.356744,0.355135,0.0,-0.198318,0.4,-0.0,0.588359,0.515382,0.563079,0.514046,0.0,-0.320015,0.360285,-0.0,0.052795,-0.038341,11.073944,-0.033156,-0.035534,0.0,0.0,0.0
195955,-0.023021,-0.032835,-0.01076,0.026084,-0.355365,0.355249,0.0,-0.198318,0.4,-0.0,0.581317,0.516481,0.573885,0.507091,0.0,-0.318918,0.359531,-0.0,0.058197,-0.036606,11.053589,-0.030406,-0.035198,0.0,0.0,0.0
195975,-0.021185,-0.032343,-0.011214,0.026084,-0.355365,0.355249,0.0,-0.193789,0.4,-0.0,0.586934,0.513342,0.571985,0.504159,0.0,-0.317715,0.358812,-0.0,0.06345,-0.034886,11.035196,-0.029515,-0.033016,0.0,0.0,0.0
195995,-0.019586,-0.033072,-0.011684,0.026525,-0.353669,0.355367,0.0,-0.189936,0.4,-0.0,0.583611,0.520386,0.567442,0.504495,0.0,-0.316407,0.358127,-0.0,0.068552,-0.033183,11.0174,-0.025576,-0.033041,0.0,0.0,0.0
196015,-0.01776,-0.031233,-0.012002,0.027258,-0.351102,0.355654,0.0,-0.186902,0.4,-0.0,0.573341,0.512581,0.584144,0.504592,0.0,-0.314999,0.357476,-0.0,0.073458,-0.031499,11.012264,-0.032034,-0.029005,0.0,0.0,0.0
196035,-0.017276,-0.029403,-0.012467,0.027626,-0.349021,0.35595,0.0,-0.183641,0.4,-0.0,0.590315,0.506926,0.565989,0.510692,0.0,-0.313494,0.356858,-0.0,0.078171,-0.029835,11.004759,-0.029693,-0.027716,0.0,0.0,0.0
196055,-0.015199,-0.028054,-0.013159,0.028008,-0.346776,0.356303,0.0,-0.179986,0.4,-0.0,0.586444,0.503002,0.569959,0.513163,0.0,-0.311896,0.356274,-0.0,0.082726,-0.028191,10.988494,-0.021504,-0.029147,0.0,0.0,0.0
196075,-0.013016,-0.024625,-0.013715,0.028008,-0.346776,0.356303,0.0,-0.179986,0.4,-0.0,0.586981,0.498604,0.571569,0.513708,0.0,-0.310209,0.355722,-0.0,0.087138,-0.02657,10.974334,-0.017604,-0.028896,0.0,0.0,0.0
196095,-0.013396,-0.021581,-0.014431,0.028066,-0.343877,0.356679,0.0,-0.176056,0.4,-0.0,0.59325,0.494544,0.560767,0.521108,0.0,-0.308433,0.355203,-0.0,0.091418,-0.024973,10.961248,-0.015499,-0.028508,0.0,0.0,0.0
196115,-0.012915,-0.01975,-0.015024,0.028304,-0.340942,0.357157,0.0,-0.172218,0.4,-0.0,0.576541,0.501232,0.583286,0.509875,0.0,-0.306574,0.354715,-0.0,0.095578,-0.023399,10.975323,-0.025558,-0.026196,0.0,0.0,0.0
196135,-0.012557,-0.017799,-0.015741,0.028553,-0.33772,0.357682,0.0,-0.168683,0.4,-0.0,0.591666,0.507739,0.568091,0.502487,0.0,-0.304632,0.354259,-0.0,0.099586,-0.021851,10.967786,-0.02174,-0.0245,0.0,0.0,0.0
196155,-0.010963,-0.017912,-0.016338,0.028717,-0.334299,0.35827,0.0,-0.165345,0.4,-0.0,0.588278,0.508191,0.566555,0.506341,0.0,-0.302611,0.353834,-0.0,0.103438,-0.020328,10.950976,-0.015676,-0.024497,0.0,0.0,0.0
196175,-0.008654,-0.016065,-0.01692,0.029072,-0.331279,0.35874,0.0,-0.162271,0.4,-0.0,0.586782,0.497871,0.573563,0.508735,0.0,-0.300514,0.353438,-0.0,0.107168,-0.018832,10.933932,-0.009598,-0.025009,0.0,0.0,0.0
196195,-0.00855,-0.013504,-0.017518,0.029259,-0.328143,0.359215,0.0,-0.159182,0.4,-0.0,0.595423,0.48696,0.559084,0.523619,0.0,-0.298343,0.353073,-0.0,0.110801,-0.017363,10.917676,-0.004478,-0.025092,0.0,0.0,0.0
196215,-0.008677,-0.01253,-0.018003,0.029334,-0.325122,0.359701,0.0,-0.155939,0.4,-0.0,0.594268,0.493224,0.562072,0.515549,0.0,-0.296101,0.352736,-0.0,0.114355,-0.015921,10.914098,-0.003462,-0.026166,0.0,0.0,0.0
196235,-0.006973,-0.011662,-0.018478,0.029722,-0.321055,0.360298,0.0,-0.152282,0.4,-0.0,0.589358,0.500971,0.566197,0.50927,0.0,-0.293787,0.352429,-0.0,0.117837,-0.014507,10.913995,-0.003325,-0.026306,0.0,0.0,0.0
196255,-0.004768,-0.012131,-0.018955,0.029881,-0.317687,0.36076,0.0,-0.152282,0.4,-0.0,0.585181,0.506516,0.571859,0.502203,0.0,-0.291405,0.352149,-0.0,0.121251,-0.013122,10.913769,-0.00437,-0.025642,0.0,0.0,0.0
196275,4e-06,-0.012941,-0.019415,0.029881,-0.317687,0.36076,0.0,-0.148721,0.4,-0.0,0.579396,0.50967,0.577605,0.498474,0.0,-0.288955,0.351897,-0.0,0.124606,-0.011766,10.906552,-5.4e-05,-0.02677,0.0,0.0,0.0
196295,0.002562,-0.012183,-0.019765,0.030385,-0.312663,0.361327,0.0,-0.144722,0.4,-0.0,0.582463,0.502002,0.574005,0.506936,0.0,-0.286438,0.351671,-0.0,0.127911,-0.010438,10.908156,0.001786,-0.026803,0.0,0.0,0.0
196315,0.00489,-0.012892,-0.019993,0.030715,-0.308189,0.36182,0.0,-0.141252,0.4,-0.0,0.554826,0.51414,0.602,0.495923,0.0,-0.283855,0.351472,-0.0,0.131128,-0.009139,10.941131,-0.017687,-0.025766,0.0,0.0,0.0
196335,0.006481,-0.012874,-0.020593,0.031102,-0.303966,0.362248,0.0,-0.137963,0.4,-0.0,0.585708,0.50545,0.570864,0.505798,0.0,-0.281209,0.351299,-0.0,0.134245,-0.00787,10.935588,-0.009102,-0.027607,0.0,0.0,0.0
196355,0.005389,-0.01325,-0.020965,0.031102,-0.303966,0.362248,0.0,-0.137963,0.4,-0.0,0.600349,0.498546,0.557739,0.509138,0.0,-0.278501,0.351151,-0.0,0.137288,-0.006631,10.92726,0.000421,-0.028705,0.0,0.0,0.0
196375,0.005043,-0.01484,-0.021452,0.031348,-0.299425,0.362654,0.0,-0.134275,0.4,-0.0,0.600141,0.508168,0.55787,0.499452,0.0,-0.275733,0.351028,-0.0,0.140279,-0.005421,10.925157,0.005829,-0.029704,0.0,0.0,0.0
196395,0.00444,-0.015211,-0.021944,0.031798,-0.294505,0.362983,0.0,-0.130442,0.4,-0.0,0.570315,0.503929,0.588877,0.505684,0.0,-0.272905,0.350928,-0.0,0.143225,-0.00424,10.95224,-0.013214,-0.028351,0.0,0.0,0.0
196415,0.002602,-0.014254,-0.022448,0.032092,-0.289679,0.363281,0.0,-0.126761,0.4,-0.0,0.600068,0.498643,0.565323,0.503076,0.0,-0.270019,0.350852,-0.0,0.146083,-0.003089,10.952202,-0.009304,-0.028269,0.0,0.0,0.0
196435,0.001155,-0.015491,-0.023068,0.032472,-0.285181,0.363488,0.0,-0.123462,0.4,-0.0,0.607934,0.508234,0.54948,0.501529,0.0,-0.267077,0.350799,-0.0,0.148842,-0.001967,10.951321,0.000899,-0.029694,0.0,0.0,0.0
196455,0.000542,-0.014888,-0.023561,0.032994,-0.28113,0.36362,0.0,-0.120434,0.4,-0.0,0.604411,0.49861,0.557542,0.506609,0.0,-0.26408,0.350768,-0.0,0.151527,-0.000875,10.952454,0.008931,-0.030285,0.0,0.0,0.0
196475,-0.001425,-0.013446,-0.024063,0.033285,-0.276958,0.363727,0.0,-0.117401,0.4,-0.0,0.60653,0.492954,0.549399,0.519008,0.0,-0.261029,0.350758,-0.0,0.15416,0.000188,10.959458,0.012318,-0.031067,0.0,0.0,0.0
196495,-0.002036,-0.01321,-0.024433,0.033494,-0.272897,0.36384,0.0,-0.114145,0.4,-0.0,0.599903,0.499228,0.562869,0.507223,0.0,-0.257926,0.35077,-0.0,0.156754,0.001221,10.971062,0.011185,-0.032531,0.0,0.0,0.0
196515,-0.00229,-0.012115,-0.025043,0.033494,-0.272897,0.36384,0.0,-0.114145,0.4,-0.0,0.598915,0.502213,0.562543,0.506845,0.0,-0.254772,0.350802,-0.0,0.159309,0.002226,10.981951,0.009905,-0.032557,0.0,0.0,0.0
196535,-0.001054,-0.013076,-0.025524,0.033763,-0.266867,0.363959,0.0,-0.110326,0.4,-0.0,0.591206,0.507335,0.571622,0.501349,0.0,-0.251567,0.350854,-0.0,0.161822,0.003202,10.989544,0.008197,-0.031888,0.0,0.0,0.0
196555,0.001021,-0.012805,-0.025999,0.034071,-0.262463,0.364031,0.0,-0.106159,0.4,-0.0,0.560948,0.506622,0.60493,0.498612,0.0,-0.248312,0.350925,-0.0,0.164293,0.004149,11.001751,-0.014072,-0.030189,0.0,0.0,0.0
196575,0.003605,-0.013991,-0.026713,0.034395,-0.256779,0.364152,0.0,-0.10285,0.4,-0.0,0.593804,0.50086,0.575147,0.501916,0.0,-0.245008,0.351015,-0.0,0.166677,0.005068,11.004235,-0.0034,-0.030289,0.0,0.0,0.0
196595,0.00654,-0.01395,-0.027429,0.034802,-0.251756,0.364246,0.0,-0.099243,0.4,-0.0,0.591537,0.490348,0.583863,0.504983,0.0,-0.241657,0.351123,-0.0,0.168963,0.005958,11.007559,0.002905,-0.031072,0.0,0.0,0.0
196615,0.006895,-0.012722,-0.028285,0.03515,-0.246519,0.364283,0.0,-0.095974,0.4,-0.0,0.610857,0.481114,0.563909,0.513145,0.0,-0.238261,0.351248,-0.0,0.171182,0.006821,11.007026,0.013568,-0.031949,0.0,0.0,0.0
196635,0.004685,-0.011653,-0.02879,0.03515,-0.246519,0.364283,0.0,-0.095974,0.4,-0.0,0.614308,0.486929,0.553705,0.514827,0.0,-0.234821,0.351391,-0.0,0.173351,0.007656,11.007743,0.018255,-0.033135,0.0,0.0,0.0
196655,0.005681,-0.012736,-0.029269,0.035676,-0.236145,0.3642,0.0,-0.092058,0.4,-0.0,0.603638,0.503424,0.564468,0.500465,0.0,-0.231338,0.35155,-0.0,0.175483,0.008464,11.013102,0.021493,-0.033812,0.0,0.0,0.0
196675,0.007137,-0.011981,-0.029628,0.035676,-0.236145,0.3642,0.0,-0.088393,0.4,-0.0,0.566209,0.500746,0.600696,0.50546,0.0,-0.227813,0.351726,-0.0,0.177579,0.009245,11.020549,-0.003892,-0.032355,0.0,0.0,0.0
196695,0.010322,-0.012541,-0.030093,0.036006,-0.230649,0.364104,0.0,-0.084956,0.4,-0.0,0.616954,0.50615,0.550174,0.498908,0.0,-0.224246,0.351916,-0.0,0.179593,0.01,11.032498,0.026602,-0.033795,0.0,0.0,0.0
196715,0.013263,-0.012858,-0.030925,0.036506,-0.225237,0.363983,0.0,-0.081732,0.4,-0.0,0.5672,0.495717,0.607907,0.501882,0.0,-0.22064,0.352122,-0.0,0.181516,0.010728,11.037425,0.004775,-0.032689,0.0,0.0,0.0
196735,0.015319,-0.01148,-0.031287,0.036818,-0.220616,0.363786,0.0,-0.07864,0.4,-0.0,0.588059,0.494731,0.58457,0.507563,0.0,-0.216995,0.352342,-0.0,0.183368,0.01143,11.045865,0.007194,-0.033199,0.0,0.0,0.0
196755,0.017154,-0.01157,-0.03164,0.037166,-0.216196,0.363464,0.0,-0.075573,0.4,-0.0,0.593799,0.495869,0.572053,0.514975,0.0,-0.213314,0.352575,-0.0,0.185166,0.012106,11.055093,0.01407,-0.034954,0.0,0.0,0.0
196775,0.017268,-0.01108,-0.031643,0.037477,-0.211758,0.363043,0.0,-0.072334,0.4,-0.0,0.595629,0.496213,0.572693,0.512832,0.0,-0.209598,0.352822,-0.0,0.186916,0.012758,11.067296,0.01567,-0.035553,0.0,0.0,0.0
196795,0.01741,-0.012421,-0.031509,0.037883,-0.205926,0.362362,0.0,-0.068416,0.4,-0.0,0.592621,0.506424,0.57053,0.510557,0.0,-0.205847,0.353082,-0.0,0.18862,0.013384,11.085407,0.01448,-0.035995,0.0,0.0,0.0
