time_ms,roll,pitch,yaw,x,y,z,reference_roll,reference_pitch,reference_yaw,reference_throttle,throttle_1,throttle_2,throttle_3,throttle_4,roll_predicted,pitch_predicted,yaw_predicted,roll_rate_predicted,pitch_rate_predicted,yaw_rate_predicted,value1,value2,value3,value4,value5,value6
89084,-0.000242,0.002442,0.001832,0.0,0.0,0.0,0.0,0.0,0.0,3.0,0.299551,0.334572,0.308144,0.355774,0.0,-0.0,-0.0,0.0,-0.0,0.0,0.0,0.0,0.0,0.0,0.0,0.0
89104,-0.00012,0.002442,0.001832,0.0,0.0,0.0,0.0,0.0,0.0,3.0,0.304133,0.33318,0.311433,0.350609,0.0,-0.0,-0.0,-0.0,-0.0,0.0,0.0,0.0,0.0,0.0,0.0,0.0
89124,-0.00012,0.00232,0.001832,0.0,0.0,0.0,0.0,0.0,0.0,3.0,0.303273,0.33293,0.308949,0.353638,0.0,-0.0,-0.0,-0.0,-0.0,0.0,0.0,0.0,0.0,0.0,0.0,0.0
89144,-0.000242,0.002442,0.001832,0.0,0.0,0.0,0.0,0.0,0.0,3.0,0.30253,0.332089,0.30941,0.354628,0.0,-0.0,-0.0,0.0,-0.0,0.0,0.0,0.0,0.0,0.0,0.0,0.0
89164,-0.000486,0.002442,0.00171,0.0,0.0,0.0,0.0,0.0,0.0,3.0,0.304809,0.334529,0.307079,0.352454,0.0,-0.0,-0.0,0.0,-0.0,0.0,0.0,0.0,0.0,0.0,0.0,0.0
89184,-0.00073,0.002564,0.00171,0.0,0.0,0.0,0.0,0.0,0.0,3.0,0.305321,0.332149,0.310622,0.351277,0.0,-0.0,-0.0,0.0,-0.0,0.0,0.0,0.0,0.0,0.0,0.0,0.0
89204,-0.000852,0.002442,0.00171,0.0,0.0,0.0,0.0,0.0,0.0,3.0,0.304951,0.333706,0.307415,0.352825,0.0,-0.0,-0.0,-0.0,-0.0,0.0,0.0,0.0,0.0,0.0,0.0,0.0
89224,-0.000852,0.002564,0.00171,0.0,0.0,0.0,0.0,0.0,0.0,3.0,0.311056,0.324628,0.316239,0.348516,0.0,-0.0,-0.0,-0.0,-0.0,0.0,0.0,0.0,0.0,0.0,0.0,0.0
89244,-0.000731,0.002442,0.001588,0.0,0.0,0.0,0.0,0.0,0.0,3.0,0.298815,0.335807,0.310262,0.353452,0.0,-0.0,-0.0,0.0,-0.0,0.0,0.0,0.0,0.0,0.0,0.0,0.0
89264,-0.000608,0.002442,0.001588,0.0,0.0,0.0,0.0,0.0,0.0,3.0,0.297862,0.335268,0.308128,0.356476,0.0,-0.0,-0.0,0.0,-0.0,0.0,0.0,0.0,0.0,0.0,0.0,0.0
89284,-0.000242,0.002564,0.001588,0.0,0.0,0.0,0.0,0.0,0.0,3.0,0.293971,0.338486,0.304034,0.359822,0.0,-0.0,-0.0,-0.0,-0.0,0.0,0.0,0.0,0.0,0.0,0.0,0.0
89304,-0.00012,0.002686,0.001587,0.0,0.0,0.0,0.0,0.0,0.0,3.0,0.300715,0.331991,0.312432,0.353643,0.0,-0.0,-0.0,-0.0,0.0,0.0,0.0,0.0,0.0,0.0,0.0,0.0
89324,-0.000364,0.002808,0.001466,0.0,0.0,0.0,0.0,0.0,0.0,3.0,0.298251,0.334023,0.306302,0.358799,0.0,-0.0,-0.0,0.0,-0.0,0.0,0.0,0.0,0.0,0.0,0.0,0.0
89344,-0.000486,0.003052,0.001466,0.0,0.0,0.0,0.0,0.0,0.0,3.0,0.30414,0.3301,0.311592,0.353314,0.0,-0.0,-0.0,0.0,-0.0,0.0,0.0,0.0,0.0,0.0,0.0,0.0
89364,-0.00073,0.003052,0.001344,0.0,0.0,0.0,0.0,0.0,0.0,3.0,0.2995,0.33363,0.305481,0.358844,0.0,-0.0,-0.0,0.0,-0.0,0.0,0.0,0.0,0.0,0.0,0.0,0.0
89384,-0.000853,0.002808,0.001344,0.0,0.0,0.0,0.0,0.0,0.0,3.0,0.304562,0.331883,0.309584,0.353022,0.0,-0.0,-0.0,-0.0,0.0,0.0,0.0,0.0,0.0,0.0,0.0,0.0
89404,-0.000731,0.002808,0.001344,0.0,0.0,0.0,0.0,0.0,0.0,3.0,0.298914,0.336637,0.306217,0.355947,0.0,-0.0,-0.0,-0.0,0.0,0.0,0.0,0.0,0.0,0.0,0.0,0.0
89424,-0.000609,0.002442,0.001222,0.0,0.0,0.0,0.0,0.0,0.0,3.0,0.308801,0.328005,0.318537,0.345301,0.0,-0.0,-0.0,-0.0,0.0,0.0,0.0,0.0,0.0,0.0,0.0,0.0
89444,-0.000731,0.002198,0.0011,0.0,0.0,0.0,0.0,0.0,0.0,3.0,0.303356,0.335686,0.310497,0.349691,0.0,-0.0,-0.0,-0.0,-0.0,0.0,0.0,0.0,0.0,0.0,0.0,0.0
89464,-0.000609,0.00232,0.0011,0.0,0.0,0.0,0.0,0.0,0.0,3.0,0.303027,0.329675,0.313974,0.352586,-0.0,-0.0,-0.0,-0.0,0.0,0.0,0.0,0.0,0.0,0.0,0.0,0.0
89484,-0.000609,0.002564,0.000978,0.0,0.0,0.0,0.0,0.0,0.0,3.0,0.307545,0.326304,0.313742,0.352126,-0.0,-0.0,-0.0,-0.0,0.0,0.0,0.0,0.0,0.0,0.0,0.0,0.0
89504,-0.000731,0.002686,0.000978,0.0,0.0,0.0,0.0,0.0,0.0,3.0,0.314304,0.323674,0.314902,0.347745,-0.0,-0.0,-0.0,-0.0,-0.0,0.0,0.0,0.0,0.0,0.0,0.0,0.0
89524,-0.000731,0.002686,0.000856,0.0,0.0,0.0,0.0,0.0,0.0,3.0,0.307739,0.328825,0.312723,0.350541,-0.0,-0.0,-0.0,-0.0,0.0,0.0,0.0,0.0,0.0,0.0,0.0,0.0
89544,-0.000731,0.002686,0.000856,0.0,0.0,0.0,0.0,0.0,0.0,3.0,0.313487,0.326364,0.315952,0.345065,-0.0,-0.0,-0.0,0.0,0.0,0.0,0.0,0.0,0.0,0.0,0.0,0.0
89564,-0.000731,0.002686,0.000734,0.0,0.0,0.0,0.0,0.0,0.0,3.0,0.306681,0.329691,0.310358,0.352639,-0.0,-0.0,-0.0,0.0,0.0,0.0,0.0,0.0,0.0,0.0,0.0,0.0
89584,-0.000732,0.002564,0.000733,0.0,0.0,0.0,0.0,0.0,0.0,3.0,0.308813,0.32841,0.313357,0.349474,-0.0,-0.0,-0.0,0.0,0.0,0.0,0.0,0.0,0.0,0.0,0.0,0.0
89604,-0.00061,0.00232,0.000611,0.0,0.0,0.0,0.0,0.0,0.0,3.0,0.308646,0.330577,0.311958,0.348815,0.0,-0.0,-0.0,0.0,0.0,0.0,0.0,0.0,0.0,0.0,0.0,0.0
89624,-0.000732,0.002075,0.000489,0.0,0.0,0.0,0.0,0.0,0.0,3.0,0.315534,0.327935,0.314478,0.343093,0.0,-0.0,-0.0,0.0,0.0,0.0,0.0,0.0,0.0,0.0,0.0,0.0
89644,-0.000732,0.001953,0.000245,0.0,0.0,0.0,0.0,0.0,0.0,3.0,0.313534,0.327858,0.31738,0.342347,0.0,-0.0,-0.0,0.0,0.0,0.0,0.0,0.0,0.0,0.0,0.0,0.0
89664,-0.000854,0.001953,0.000245,0.0,0.0,0.0,0.0,0.0,0.0,3.0,0.308961,0.331824,0.311327,0.347924,0.0,-0.0,-0.0,0.0,0.0,0.0,0.0,0.0,0.0,0.0,0.0,0.0
89684,-0.000976,0.002075,0.000245,0.0,0.0,0.0,0.0,0.0,0.0,3.0,0.312542,0.328043,0.311081,0.348584,0.0,-0.0,-0.0,0.0,0.0,0.0,0.0,0.0,0.0,0.0,0.0,0.0
89704,-0.000976,0.002197,0.000123,0.0,0.0,0.0,0.0,0.0,0.0,3.0,0.308976,0.327693,0.311134,0.351893,0.0,-0.0,-0.0,0.0,0.0,0.0,0.0,0.0,0.0,0.0,0.0,0.0
89724,-0.001221,0.002197,0.000123,0.0,0.0,0.0,0.0,0.0,0.0,3.0,0.30941,0.331125,0.306728,0.35208,0.0,-0.0,-0.0,0.0,0.0,0.0,0.0,0.0,0.0,0.0,0.0,0.0
89744,-0.001099,0.002075,1e-06,0.0,0.0,0.0,0.0,0.0,0.0,3.0,0.313454,0.326618,0.315746,0.345041,0.0,-0.0,-0.0,0.0,0.0,0.0,0.0,0.0,0.0,0.0,0.0,0.0
89764,-0.000733,0.001831,-0.000121,0.0,0.0,0.0,0.0,0.0,0.0,3.0,0.305332,0.33294,0.309871,0.351168,0.0,-0.0,-0.0,0.0,0.0,0.0,0.0,0.0,0.0,0.0,0.0,0.0
89784,-0.000855,0.001709,-0.000243,0.0,0.0,0.0,0.0,0.0,0.0,3.0,0.302953,0.33455,0.307945,0.353232,0.0,-0.0,-0.0,0.0,0.0,0.0,0.0,0.0,0.0,0.0,0.0,0.0
89804,-0.000733,0.001709,-0.000244,0.0,0.0,0.0,0.0,0.0,0.0,3.0,0.307015,0.330755,0.311479,0.350433,0.0,-0.0,-0.0,0.0,0.0,0.0,0.0,0.0,0.0,0.0,0.0,0.0
89824,-0.000855,0.001465,-0.000488,0.0,0.0,0.0,0.0,0.0,0.0,3.0,0.309889,0.32828,0.313129,0.348876,0.0,-0.0,-0.0,0.0,0.0,0.0,0.0,0.0,0.0,0.0,0.0,0.0
89844,-0.000977,0.001831,-0.00061,0.0,0.0,0.0,0.0,0.0,0.0,3.0,0.307739,0.327415,0.312194,0.352279,0.0,-0.0,-0.0,0.0,0.0,0.0,0.0,0.0,0.0,0.0,0.0,0.0
89864,-0.000977,0.001831,-0.00061,0.0,0.0,0.0,0.0,0.0,0.0,3.0,0.309668,0.331872,0.31045,0.348029,0.0,-0.0,-0.0,0.0,0.0,0.0,0.0,0.0,0.0,0.0,0.0,0.0
89884,-0.0011,0.001953,-0.000854,0.0,0.0,0.0,0.0,0.0,0.0,3.0,0.308097,0.32811,0.314206,0.34962,0.0,-0.0,-0.0,0.0,0.0,0.0,0.0,0.0,0.0,0.0,0.0,0.0
89904,-0.001344,0.001953,-0.000853,0.0,0.0,0.0,0.0,0.0,0.0,3.0,0.311548,0.326089,0.311258,0.35107,0.0,-0.0,-0.0,0.0,0.0,0.0,0.0,0.0,0.0,0.0,0.0,0.0
89924,-0.001344,0.001708,-0.000976,0.0,0.0,0.0,0.0,0.0,0.0,3.0,0.314068,0.327371,0.312815,0.34638,0.0,-0.0,-0.0,0.0,0.0,0.0,0.0,0.0,0.0,0.0,0.0,0.0
89944,-0.001222,0.001586,-0.000976,0.0,0.0,0.0,0.0,0.0,0.0,3.0,0.308775,0.332837,0.311019,0.347394,0.0,-0.0,-0.0,0.0,0.0,0.0,0.0,0.0,0.0,0.0,0.0,0.0
89964,-0.000977,0.001586,-0.001098,0.0,0.0,0.0,0.0,0.0,0.0,3.0,0.306368,0.331475,0.312972,0.349024,0.0,-0.0,-0.0,0.0,0.0,0.0,0.0,0.0,0.0,0.0,0.0,0.0
89984,-0.000855,0.001709,-0.001098,0.0,0.0,0.0,0.0,0.0,0.0,3.0,0.307078,0.326471,0.316278,0.350173,0.0,-0.0,-0.0,0.0,0.0,0.0,0.0,0.0,0.0,0.0,0.0,0.0
90004,-0.000733,0.001709,-0.001098,0.0,0.0,0.0,0.0,0.0,0.0,3.0,0.300088,0.333728,0.308566,0.355778,0.0,-0.0,-0.0,0.0,0.0,0.0,0.0,0.0,0.0,0.0,0.0,0.0
90024,-0.000733,0.001831,-0.001098,0.0,0.0,0.0,0.0,0.0,0.0,3.0,0.302057,0.331845,0.309513,0.355147,0.0,-0.0,-0.0,0.0,0.0,0.0,0.0,0.0,0.0,0.0,0.0,0.0
90044,-0.000978,0.001831,-0.001098,0.0,0.0,0.0,0.0,0.0,0.0,3.0,0.31194,0.32417,0.315113,0.349156,0.0,-0.0,-0.0,0.0,0.0,0.0,0.0,0.0,0.0,0.0,0.0,0.0
90064,-0.001222,0.001708,-0.001098,0.0,0.0,0.0,0.0,0.0,0.0,3.0,0.311996,0.328703,0.314208,0.34573,0.0,-0.0,-0.0,0.0,0.0,0.0,0.0,0.0,0.0,0.0,0.0,0.0
90084,-0.001222,0.001708,-0.001098,0.0,0.0,0.0,0.0,0.0,0.0,3.0,0.306462,0.329794,0.311953,0.351375,0.0,-0.0,-0.0,0.0,0.0,0.0,0.0,0.0,0.0,0.0,0.0,0.0
90104,-0.001344,0.001708,-0.001098,0.0,0.0,0.0,0.0,0.0,0.0,3.0,0.306726,0.327002,0.313098,0.352726,0.0,-0.0,-0.0,-0.0,0.0,0.0,0.0,0.0,0.0,0.0,0.0,0.0
90124,-0.0011,0.001586,-0.001098,0.0,0.0,0.0,0.0,0.0,0.0,3.0,0.316111,0.323228,0.318844,0.343047,0.0,-0.0,-0.0,-0.0,0.0,0.0,0.0,0.0,0.0,0.0,0.0,0.0
90144,-0.001222,0.001464,-0.00122,0.0,0.0,0.0,0.0,0.0,0.0,3.0,0.317254,0.324767,0.316847,0.342396,0.0,-0.0,-0.0,-0.0,0.0,0.0,0.0,0.0,0.0,0.0,0.0,0.0
90164,-0.000855,0.00122,-0.00122,0.0,0.0,0.0,0.0,0.0,0.0,3.0,0.30644,0.331107,0.314815,0.347706,0.0,-0.0,-0.0,-0.0,0.0,0.0,0.0,0.0,0.0,0.0,0.0,0.0
90184,-0.000977,0.00122,-0.00122,0.0,0.0,0.0,0.0,0.0,0.0,3.0,0.309902,0.33113,0.310633,0.348368,0.0,-0.0,-0.0,-0.0,0.0,0.0,0.0,0.0,0.0,0.0,0.0,0.0
90204,-0.000733,0.001464,-0.00122,0.0,0.0,0.0,0.0,0.0,0.0,3.0,0.307264,0.328931,0.313228,0.350409,0.0,-0.0,-0.0,-0.0,0.0,0.0,0.0,0.0,0.0,0.0,0.0,0.0
90224,-0.000855,0.001342,-0.001342,0.0,0.0,0.0,0.0,0.0,0.0,3.0,0.313659,0.325371,0.314606,0.347018,0.0,-0.0,-0.0,-0.0,0.0,0.0,0.0,0.0,0.0,0.0,0.0,0.0
90244,-0.000978,0.001464,-0.001342,0.0,0.0,0.0,0.0,0.0,0.0,3.0,0.312876,0.329007,0.308511,0.349594,0.0,-0.0,-0.0,-0.0,0.0,0.0,0.0,0.0,0.0,0.0,0.0,0.0
90264,-0.0011,0.001464,-0.00122,0.0,0.0,0.0,0.0,0.0,0.0,3.0,0.318152,0.325509,0.313835,0.343585,0.0,-0.0,-0.0,-0.0,0.0,0.0,0.0,0.0,0.0,0.0,0.0,0.0
90284,-0.001222,0.001464,-0.00122,0.0,0.0,0.0,0.0,0.0,0.0,3.0,0.307615,0.332449,0.311921,0.347968,0.0,-0.0,-0.0,-0.0,0.0,0.0,0.0,0.0,0.0,0.0,0.0,0.0
90304,-0.0011,0.001342,-0.00122,0.0,0.0,0.0,0.0,0.0,0.0,3.0,0.30972,0.330126,0.310944,0.349191,0.0,-0.0,-0.0,-0.0,0.0,0.0,0.0,0.0,0.0,0.0,0.0,0.0
90324,-0.001099,0.000976,-0.001342,0.0,0.0,0.0,0.0,0.0,0.0,3.0,0.307141,0.330219,0.313602,0.348999,0.0,-0.0,-0.0,-0.0,0.0,0.0,0.0,0.0,0.0,0.0,0.0,0.0
90344,-0.001099,0.000732,-0.001465,0.0,0.0,0.0,0.0,0.0,0.0,3.0,0.308928,0.329802,0.314082,0.347458,-0.0,-0.0,-0.0,-0.0,0.0,0.0,0.0,0.0,0.0,0.0,0.0,0.0
90364,-0.001099,0.000732,-0.001465,0.0,0.0,0.0,0.0,0.0,0.0,3.0,0.317136,0.323837,0.317331,0.34293,-0.0,-0.0,-0.0,0.0,0.0,0.0,0.0,0.0,0.0,0.0,0.0,0.0
90384,-0.001221,0.000487,-0.001465,0.0,0.0,0.0,0.0,0.0,0.0,3.0,0.308033,0.33544,0.306611,0.349306,-0.0,0.0,-0.0,-0.0,0.0,0.0,0.0,0.0,0.0,0.0,0.0,0.0
90404,-0.001221,0.000732,-0.001465,0.0,0.0,0.0,0.0,0.0,0.0,3.0,0.304066,0.333147,0.303664,0.35712,-0.0,0.0,-0.0,-0.0,0.0,0.0,0.0,0.0,0.0,0.0,0.0,0.0
90424,-0.001466,0.000853,-0.001587,0.0,0.0,0.0,0.0,0.0,0.0,3.0,0.31075,0.325706,0.311972,0.351486,-0.0,0.0,-0.0,-0.0,0.0,0.0,0.0,0.0,0.0,0.0,0.0,0.0
90444,-0.001588,0.000853,-0.001587,0.0,0.0,0.0,0.0,0.0,0.0,3.0,0.314545,0.326739,0.311311,0.347849,-0.0,0.0,-0.0,0.0,0.0,0.0,0.0,0.0,0.0,0.0,0.0,0.0
90464,-0.00171,0.000731,-0.001464,0.0,0.0,0.0,0.0,0.0,0.0,3.0,0.313962,0.328906,0.310285,0.347235,-0.0,0.0,-0.0,-0.0,0.0,0.0,0.0,0.0,0.0,0.0,0.0,0.0
90484,-0.001587,0.000609,-0.001465,0.0,0.0,0.0,0.0,0.0,0.0,3.0,0.309315,0.332872,0.310864,0.347033,-0.0,0.0,-0.0,-0.0,0.0,0.0,0.0,0.0,0.0,0.0,0.0,0.0
90504,-0.001832,0.000487,-0.001465,0.0,0.0,0.0,0.0,0.0,0.0,3.0,0.305422,0.335878,0.308595,0.349409,-0.0,0.0,-0.0,-0.0,0.0,0.0,0.0,0.0,0.0,0.0,0.0,0.0
90524,-0.001709,0.000365,-0.001465,0.0,0.0,0.0,0.0,0.0,0.0,3.0,0.309441,0.326711,0.313888,0.350041,-0.0,0.0,-0.0,-0.0,0.0,0.0,0.0,0.0,0.0,0.0,0.0,0.0
90544,-0.001587,0.000365,-0.001465,0.0,0.0,0.0,0.0,0.0,0.0,3.0,0.305462,0.331519,0.309181,0.352955,-0.0,0.0,-0.0,0.0,0.0,0.0,0.0,0.0,0.0,0.0,0.0,0.0
90564,-0.001588,0.000731,-0.001465,0.0,0.0,0.0,0.0,0.0,0.0,3.0,0.304005,0.331961,0.306357,0.35607,-0.0,0.0,-0.0,-0.0,0.0,0.0,0.0,0.0,0.0,0.0,0.0,0.0
90584,-0.001588,0.000853,-0.001464,0.0,0.0,0.0,0.0,0.0,0.0,3.0,0.303518,0.333959,0.306635,0.354403,-0.0,0.0,-0.0,0.0,0.0,0.0,0.0,0.0,0.0,0.0,0.0,0.0
90604,-0.00171,0.000853,-0.001464,0.0,0.0,0.0,0.0,0.0,0.0,3.0,0.307819,0.328486,0.313592,0.350038,-0.0,0.0,-0.0,-0.0,0.0,0.0,0.0,0.0,0.0,0.0,0.0,0.0
90624,-0.00171,0.000853,-0.001342,0.0,0.0,0.0,0.0,0.0,0.0,3.0,0.299948,0.334779,0.306788,0.356382,-0.0,0.0,-0.0,0.0,0.0,0.0,0.0,0.0,0.0,0.0,0.0,0.0
90644,-0.00171,0.000853,-0.001342,0.0,0.0,0.0,0.0,0.0,0.0,3.0,0.302098,0.332429,0.3076,0.356159,-0.0,0.0,-0.0,-0.0,0.0,0.0,0.0,0.0,0.0,0.0,0.0,0.0
90664,-0.001465,0.000731,-0.001342,0.0,0.0,0.0,0.0,0.0,0.0,3.0,0.304409,0.331667,0.309314,0.353571,-0.0,0.0,-0.0,-0.0,0.0,0.0,0.0,0.0,0.0,0.0,0.0,0.0
90684,-0.001465,0.000487,-0.001343,0.0,0.0,0.0,0.0,0.0,0.0,3.0,0.312398,0.327448,0.3168,0.344254,-0.0,0.0,-0.0,-0.0,0.0,0.0,0.0,0.0,0.0,0.0,0.0,0.0
90704,-0.001343,0.000365,-0.001343,0.0,0.0,0.0,0.0,0.0,0.0,3.0,0.307597,0.331108,0.31303,0.348283,-0.0,0.0,-0.0,0.0,0.0,0.0,0.0,0.0,0.0,0.0,0.0,0.0
90724,-0.001343,0.000487,-0.001343,0.0,0.0,0.0,0.0,0.0,0.0,3.0,0.314453,0.323149,0.318508,0.344896,-0.0,0.0,-0.0,-0.0,0.0,0.0,0.0,0.0,0.0,0.0,0.0,0.0
90744,-0.001465,0.000365,-0.001343,0.0,0.0,0.0,0.0,0.0,0.0,3.0,0.317138,0.320537,0.316622,0.346575,-0.0,0.0,-0.0,-0.0,0.0,0.0,0.0,0.0,0.0,0.0,0.0,0.0
90764,-0.001709,0.000365,-0.001221,0.0,0.0,0.0,0.0,0.0,0.0,3.0,0.318927,0.322378,0.314913,0.344818,-0.0,0.0,-0.0,-0.0,0.0,0.0,0.0,0.0,0.0,0.0,0.0,0.0
90784,-0.001954,0.000609,-0.00122,0.0,0.0,0.0,0.0,0.0,0.0,3.0,0.320096,0.321801,0.315583,0.343693,-0.0,0.0,-0.0,0.0,0.0,0.0,0.0,0.0,0.0,0.0,0.0,0.0
90804,-0.002076,0.000487,-0.00122,0.0,0.0,0.0,0.0,0.0,0.0,3.0,0.312038,0.331427,0.308898,0.347738,-0.0,0.0,-0.0,-0.0,-0.0,0.0,0.0,0.0,0.0,0.0,0.0,0.0
90824,-0.002076,0.000487,-0.001098,0.0,0.0,0.0,0.0,0.0,0.0,3.0,0.317931,0.325141,0.314934,0.343151,-0.0,0.0,-0.0,-0.0,-0.0,0.0,0.0,0.0,0.0,0.0,0.0,0.0
90844,-0.001831,0.000365,-0.001098,0.0,0.0,0.0,0.0,0.0,0.0,3.0,0.308211,0.329584,0.312261,0.349842,-0.0,0.0,-0.0,0.0,0.0,0.0,0.0,0.0,0.0,0.0,0.0,0.0
90864,-0.001465,0.000243,-0.001099,0.0,0.0,0.0,0.0,0.0,0.0,3.0,0.307493,0.329046,0.314077,0.349378,-0.0,0.0,-0.0,0.0,0.0,0.0,0.0,0.0,0.0,0.0,0.0,0.0
90884,-0.001343,0.000365,-0.001099,0.0,0.0,0.0,0.0,0.0,0.0,3.0,0.309589,0.331215,0.312138,0.34726,-0.0,0.0,-0.0,-0.0,-0.0,0.0,0.0,0.0,0.0,0.0,0.0,0.0
90904,-0.001465,0.000488,-0.000976,0.0,0.0,0.0,0.0,0.0,0.0,3.0,0.30986,0.330348,0.307816,0.351512,-0.0,0.0,-0.0,-0.0,-0.0,0.0,0.0,0.0,0.0,0.0,0.0,0.0
90924,-0.001587,0.000488,-0.000976,0.0,0.0,0.0,0.0,0.0,0.0,3.0,0.310702,0.33003,0.310508,0.348817,-0.0,0.0,-0.0,-0.0,0.0,0.0,0.0,0.0,0.0,0.0,0.0,0.0
90944,-0.001831,0.000487,-0.000976,0.0,0.0,0.0,0.0,0.0,0.0,3.0,0.308535,0.332649,0.305074,0.352771,-0.0,0.0,-0.0,0.0,0.0,0.0,0.0,0.0,0.0,0.0,0.0,0.0
90964,-0.001831,0.000365,-0.000854,0.0,0.0,0.0,0.0,0.0,0.0,3.0,0.30857,0.330423,0.306492,0.353622,-0.0,0.0,-0.0,-0.0,-0.0,0.0,0.0,0.0,0.0,0.0,0.0,0.0
90984,-0.001953,0.000365,-0.000854,0.0,0.0,0.0,0.0,0.0,0.0,3.0,0.313452,0.330355,0.307305,0.348865,-0.0,0.0,-0.0,-0.0,-0.0,0.0,0.0,0.0,0.0,0.0,0.0,0.0
91004,-0.001953,0.000365,-0.000854,0.0,0.0,0.0,0.0,0.0,0.0,3.0,0.310939,0.330323,0.310247,0.348564,-0.0,0.0,-0.0,-0.0,-0.0,0.0,0.0,0.0,0.0,0.0,0.0,0.0
91024,-0.001831,0.000121,-0.000732,0.0,0.0,0.0,0.0,0.0,0.0,3.0,0.308492,0.333057,0.308673,0.349428,-0.0,0.0,-0.0,0.0,0.0,0.0,0.0,0.0,0.0,0.0,0.0,0.0
91044,-0.001831,-1e-06,-0.00061,0.0,0.0,0.0,0.0,0.0,0.0,3.0,0.306245,0.334148,0.306588,0.352033,-0.0,0.0,-0.0,0.0,-0.0,0.0,0.0,0.0,0.0,0.0,0.0,0.0
91064,-0.001465,-0.0,-0.00061,0.0,0.0,0.0,0.0,0.0,0.0,3.0,0.299525,0.33619,0.305045,0.356832,-0.0,0.0,-0.0,-0.0,-0.0,0.0,0.0,0.0,0.0,0.0,0.0,0.0
91084,-0.001465,-0.0,-0.00061,0.0,0.0,0.0,0.0,0.0,0.0,3.0,0.308941,0.328335,0.31252,0.350155,-0.0,0.0,-0.0,-0.0,-0.0,0.0,0.0,0.0,0.0,0.0,0.0,0.0
91104,-0.001587,0.000244,-0.00061,0.0,0.0,0.0,0.0,0.0,0.0,3.0,0.312395,0.329535,0.308244,0.349745,-0.0,0.0,-0.0,0.0,-0.0,0.0,0.0,0.0,0.0,0.0,0.0,0.0
91124,-0.001709,0.000366,-0.000488,0.0,0.0,0.0,0.0,0.0,0.0,3.0,0.310706,0.330365,0.309926,0.348998,-0.0,0.0,-0.0,0.0,-0.0,0.0,0.0,0.0,0.0,0.0,0.0,0.0
91144,-0.001831,0.000488,-0.000488,0.0,0.0,0.0,0.0,0.0,0.0,3.0,0.308941,0.330522,0.309485,0.350723,-0.0,0.0,-0.0,-0.0,-0.0,0.0,0.0,0.0,0.0,0.0,0.0,0.0
91164,-0.001831,0.000366,-0.000366,0.0,0.0,0.0,0.0,0.0,0.0,3.0,0.304108,0.334447,0.308221,0.352156,-0.0,0.0,-0.0,-0.0,-0.0,0.0,0.0,0.0,0.0,0.0,0.0,0.0
91184,-0.001709,0.000122,-0.000244,0.0,0.0,0.0,0.0,0.0,0.0,3.0,0.300245,0.337613,0.303736,0.355999,-0.0,0.0,-0.0,0.0,0.0,0.0,0.0,0.0,0.0,0.0,0.0,0.0
91204,-0.001587,-0.000122,-0.000366,0.0,0.0,0.0,0.0,0.0,0.0,3.0,0.308999,0.329573,0.313699,0.347943,-0.0,0.0,-0.0,0.0,-0.0,0.0,0.0,0.0,0.0,0.0,0.0,0.0
91224,-0.001465,-0.0,-0.000366,0.0,0.0,0.0,0.0,0.0,0.0,3.0,0.308977,0.329513,0.311168,0.350196,-0.0,0.0,-0.0,-0.0,-0.0,0.0,0.0,0.0,0.0,0.0,0.0,0.0
91244,-0.001465,0.000122,-0.000244,0.0,0.0,0.0,0.0,0.0,0.0,3.0,0.302911,0.332784,0.30919,0.353864,-0.0,0.0,-0.0,-0.0,-0.0,0.0,0.0,0.0,0.0,0.0,0.0,0.0
91264,-0.001465,0.000122,-0.000244,0.0,0.0,0.0,0.0,0.0,0.0,3.0,0.30725,0.330837,0.31191,0.349791,-0.0,0.0,-0.0,-0.0,-0.0,0.0,0.0,0.0,0.0,0.0,0.0,0.0
91284,-0.001587,0.000244,-0.000122,0.0,0.0,0.0,0.0,0.0,0.0,3.0,0.308469,0.327641,0.311132,0.352366,-0.0,0.0,-0.0,0.0,-0.0,0.0,0.0,0.0,0.0,0.0,0.0,0.0
91304,-0.001709,0.000366,-0.000122,0.0,0.0,0.0,0.0,0.0,0.0,3.0,0.309141,0.328897,0.31236,0.349606,-0.0,0.0,-0.0,0.0,-0.0,0.0,0.0,0.0,0.0,0.0,0.0,0.0
91324,-0.001831,0.000244,-0.000122,0.0,0.0,0.0,0.0,0.0,0.0,3.0,0.305257,0.332362,0.304755,0.355994,-0.0,0.0,-0.0,0.0,-0.0,0.0,0.0,0.0,0.0,0.0,0.0,0.0
91344,-0.001953,0.000122,-0.000122,0.0,0.0,0.0,0.0,0.0,0.0,3.0,0.3083,0.329843,0.310428,0.351091,-0.0,0.0,-0.0,0.0,-0.0,0.0,0.0,0.0,0.0,0.0,0.0,0.0
91364,-0.001831,-0.000122,-0.0,0.0,0.0,0.0,0.0,0.0,0.0,3.0,0.303669,0.334628,0.311466,0.349605,-0.0,0.0,-0.0,0.0,-0.0,0.0,0.0,0.0,0.0,0.0,0.0,0.0
91384,-0.001587,-0.000366,-0.0,0.0,0.0,0.0,0.0,0.0,0.0,3.0,0.306407,0.331434,0.312282,0.349623,-0.0,0.0,-0.0,-0.0,-0.0,0.0,0.0,0.0,0.0,0.0,0.0,0.0
91404,-0.001587,-0.000244,-0.0,0.0,0.0,0.0,0.0,0.0,0.0,3.0,0.307386,0.329774,0.311531,0.350983,-0.0,0.0,-0.0,-0.0,-0.0,0.0,0.0,0.0,0.0,0.0,0.0,0.0
91424,-0.001343,-0.000122,-0.0,0.0,0.0,0.0,0.0,0.0,0.0,3.0,0.31286,0.32536,0.313823,0.348404,-0.0,0.0,-0.0,-0.0,-0.0,0.0,0.0,0.0,0.0,0.0,0.0,0.0
91444,-0.001465,0.000122,-0.000122,0.0,0.0,0.0,0.0,0.0,0.0,3.0,0.316767,0.322332,0.315825,0.345984,-0.0,0.0,-0.0,0.0,-0.0,0.0,0.0,0.0,0.0,0.0,0.0,0.0
91464,-0.001465,0.000366,0.0,0.0,0.0,0.0,0.0,0.0,0.0,3.0,0.307946,0.330457,0.308119,0.352762,-0.0,0.0,-0.0,0.0,-0.0,0.0,0.0,0.0,0.0,0.0,0.0,0.0
91484,-0.001709,0.000244,0.0,0.0,0.0,0.0,0.0,0.0,0.0,3.0,0.310222,0.331537,0.308564,0.349476,-0.0,0.0,-0.0,0.0,-0.0,0.0,0.0,0.0,0.0,0.0,0.0,0.0
91504,-0.001709,0.000244,0.000122,0.0,0.0,0.0,0.0,0.0,0.0,3.0,0.301975,0.337026,0.301456,0.356994,-0.0,0.0,-0.0,0.0,-0.0,0.0,0.0,0.0,0.0,0.0,0.0,0.0
91524,-0.001587,0.0,0.000122,0.0,0.0,0.0,0.0,0.0,0.0,3.0,0.309579,0.333266,0.308104,0.348792,-0.0,0.0,-0.0,0.0,-0.0,0.0,0.0,0.0,0.0,0.0,0.0,0.0
91544,-0.001587,-0.000366,0.000122,0.0,0.0,0.0,0.0,0.0,0.0,3.0,0.310416,0.334047,0.308144,0.347305,-0.0,0.0,-0.0,-0.0,-0.0,0.0,0.0,0.0,0.0,0.0,0.0,0.0
91564,-0.001587,-0.00061,0.000122,0.0,0.0,0.0,0.0,0.0,0.0,3.0,0.316182,0.327884,0.313457,0.343467,-0.0,0.0,-0.0,-0.0,-0.0,0.0,0.0,0.0,0.0,0.0,0.0,0.0
91584,-0.001587,-0.000488,0.000122,0.0,0.0,0.0,0.0,0.0,0.0,3.0,0.309041,0.335332,0.306163,0.348931,-0.0,0.0,-0.0,-0.0,-0.0,0.0,0.0,0.0,0.0,0.0,0.0,0.0
91604,-0.001587,-0.000366,0.000244,0.0,0.0,0.0,0.0,0.0,0.0,3.0,0.307723,0.331522,0.308435,0.351704,-0.0,0.0,-0.0,-0.0,-0.0,0.0,0.0,0.0,0.0,0.0,0.0,0.0
91624,-0.001709,-0.000244,0.000244,0.0,0.0,0.0,0.0,0.0,0.0,3.0,0.310175,0.330103,0.307897,0.351403,-0.0,0.0,-0.0,0.0,-0.0,0.0,0.0,0.0,0.0,0.0,0.0,0.0
91644,-0.001709,0.0,0.000244,0.0,0.0,0.0,0.0,0.0,0.0,3.0,0.31126,0.328847,0.306899,0.352468,-0.0,0.0,-0.0,0.0,-0.0,0.0,0.0,0.0,0.0,0.0,0.0,0.0
91664,-0.001831,-0.000122,0.000366,0.0,0.0,0.0,0.0,0.0,0.0,3.0,0.309095,0.333136,0.304974,0.351933,-0.0,0.0,-0.0,0.0,-0.0,0.0,0.0,0.0,0.0,0.0,0.0,0.0
91684,-0.001587,0.0,0.000366,0.0,0.0,0.0,0.0,0.0,0.0,3.0,0.313377,0.327671,0.311613,0.347747,-0.0,0.0,-0.0,0.0,-0.0,0.0,0.0,0.0,0.0,0.0,0.0,0.0
91704,-0.001587,-0.000244,0.000366,0.0,0.0,0.0,0.0,0.0,0.0,3.0,0.30488,0.336195,0.305507,0.352137,-0.0,0.0,-0.0,0.0,0.0,0.0,0.0,0.0,0.0,0.0,0.0,0.0
91724,-0.001587,-0.00061,0.000488,0.0,0.0,0.0,0.0,0.0,0.0,3.0,0.305019,0.336692,0.306347,0.350857,-0.0,0.0,-0.0,-0.0,-0.0,0.0,0.0,0.0,0.0,0.0,0.0,0.0
91744,-0.001587,-0.000854,0.000488,0.0,0.0,0.0,0.0,0.0,0.0,3.0,0.310316,0.332706,0.306723,0.349852,-0.0,0.0,-0.0,-0.0,-0.0,0.0,0.0,0.0,0.0,0.0,0.0,0.0
91764,-0.001709,-0.000976,0.000488,0.0,0.0,0.0,0.0,0.0,0.0,3.0,0.309998,0.332115,0.307381,0.350123,-0.0,0.0,-0.0,-0.0,-0.0,0.0,0.0,0.0,0.0,0.0,0.0,0.0
91784,-0.001831,-0.000976,0.000487,0.0,0.0,0.0,0.0,0.0,0.0,3.0,0.308473,0.332159,0.308914,0.350081,-0.0,0.0,-0.0,0.0,-0.0,0.0,0.0,0.0,0.0,0.0,0.0,0.0
91804,-0.001953,-0.000732,0.000488,0.0,0.0,0.0,0.0,0.0,0.0,3.0,0.310969,0.329747,0.306368,0.352331,-0.0,0.0,-0.0,0.0,-0.0,0.0,0.0,0.0,0.0,0.0,0.0,0.0
91824,-0.002075,-0.000488,0.000488,0.0,0.0,0.0,0.0,0.0,0.0,3.0,0.308545,0.332049,0.30881,0.350211,-0.0,0.0,-0.0,-0.0,-0.0,0.0,0.0,0.0,0.0,0.0,0.0,0.0
91844,-0.001953,-0.000366,0.00061,0.0,0.0,0.0,0.0,0.0,0.0,3.0,0.29948,0.338766,0.30227,0.356705,-0.0,0.0,-0.0,-0.0,-0.0,0.0,0.0,0.0,0.0,0.0,0.0,0.0
91864,-0.001709,-0.000488,0.00061,0.0,0.0,0.0,0.0,0.0,0.0,3.0,0.305351,0.332531,0.310634,0.350887,-0.0,0.0,-0.0,-0.0,-0.0,0.0,0.0,0.0,0.0,0.0,0.0,0.0
91884,-0.001587,-0.000488,0.00061,0.0,0.0,0.0,0.0,0.0,0.0,3.0,0.301571,0.335462,0.307351,0.353992,-0.0,0.0,-0.0,-0.0,-0.0,0.0,0.0,0.0,0.0,0.0,0.0,0.0
91904,-0.001221,-0.000976,0.000732,0.0,0.0,0.0,0.0,0.0,0.0,3.0,0.302011,0.334031,0.312069,0.35101,-0.0,0.0,-0.0,-0.0,-0.0,0.0,0.0,0.0,0.0,0.0,0.0,0.0
91924,-0.001221,-0.000976,0.000732,0.0,0.0,0.0,0.0,0.0,0.0,3.0,0.307918,0.331795,0.308458,0.351269,-0.0,0.0,-0.0,0.0,0.0,0.0,0.0,0.0,0.0,0.0,0.0,0.0
91944,-0.001465,-0.000854,0.000732,0.0,0.0,0.0,0.0,0.0,0.0,3.0,0.308571,0.33256,0.307923,0.350458,-0.0,0.0,-0.0,-0.0,-0.0,0.0,0.0,0.0,0.0,0.0,0.0,0.0
91964,-0.00171,-0.000976,0.000854,0.0,0.0,0.0,0.0,0.0,0.0,3.0,0.307595,0.332212,0.308875,0.350802,-0.0,0.0,-0.0,-0.0,-0.0,0.0,0.0,0.0,0.0,0.0,0.0,0.0
91984,-0.001954,-0.000854,0.000854,0.0,0.0,0.0,0.0,0.0,0.0,3.0,0.307585,0.333793,0.302821,0.354338,-0.0,0.0,-0.0,-0.0,-0.0,0.0,0.0,0.0,0.0,0.0,0.0,0.0
92004,-0.002198,-0.000732,0.000854,0.0,0.0,0.0,0.0,0.0,0.0,3.0,0.308162,0.333035,0.30755,0.350671,-0.0,0.0,-0.0,-0.0,-0.0,0.0,0.0,0.0,0.0,0.0,0.0,0.0
92024,-0.002198,-0.000731,0.000976,0.0,0.0,0.0,0.0,0.0,0.0,3.0,0.300004,0.337464,0.300359,0.359014,-0.0,0.0,-0.0,-0.0,-0.0,0.0,0.0,0.0,0.0,0.0,0.0,0.0
92044,-0.001954,-0.000731,0.001098,0.0,0.0,0.0,0.0,0.0,0.0,3.0,0.305552,0.332373,0.309117,0.352147,-0.0,0.0,-0.0,0.0,0.0,0.0,0.0,0.0,0.0,0.0,0.0,0.0
92064,-0.001832,-0.000854,0.001098,0.0,0.0,0.0,0.0,0.0,0.0,3.0,0.301004,0.335807,0.304658,0.356327,-0.0,0.0,-0.0,-0.0,-0.0,0.0,0.0,0.0,0.0,0.0,0.0,0.0
92084,-0.001465,-0.000854,0.00122,0.0,0.0,0.0,0.0,0.0,0.0,3.0,0.302874,0.333358,0.311636,0.351303,-0.0,0.0,-0.0,-0.0,-0.0,0.0,0.0,0.0,0.0,0.0,0.0,0.0
92104,-0.001221,-0.000854,0.00122,0.0,0.0,0.0,0.0,0.0,0.0,3.0,0.304452,0.336194,0.308417,0.350065,-0.0,0.0,-0.0,-0.0,-0.0,0.0,0.0,0.0,0.0,0.0,0.0,0.0
92124,-0.001344,-0.000976,0.001342,0.0,0.0,0.0,0.0,0.0,0.0,3.0,0.306596,0.333014,0.308036,0.351592,-0.0,0.0,-0.0,-0.0,-0.0,0.0,0.0,0.0,0.0,0.0,0.0,0.0
92144,-0.001588,-0.000731,0.001342,0.0,0.0,0.0,0.0,0.0,0.0,3.0,0.310749,0.32898,0.309549,0.35056,-0.0,0.0,-0.0,-0.0,-0.0,0.0,0.0,0.0,0.0,0.0,0.0,0.0
92164,-0.001832,-0.000731,0.001342,0.0,0.0,0.0,0.0,0.0,0.0,3.0,0.308091,0.330249,0.304647,0.355684,-0.0,0.0,-0.0,0.0,0.0,0.0,0.0,0.0,0.0,0.0,0.0,0.0
92184,-0.002076,-0.000487,0.001343,0.0,0.0,0.0,0.0,0.0,0.0,3.0,0.309947,0.330963,0.304166,0.353886,-0.0,0.0,-0.0,-0.0,-0.0,0.0,0.0,0.0,0.0,0.0,0.0,0.0
92204,-0.002198,-0.000609,0.001342,0.0,0.0,0.0,0.0,0.0,0.0,3.0,0.309049,0.332276,0.305137,0.352635,-0.0,0.0,-0.0,-0.0,-0.0,0.0,0.0,0.0,0.0,0.0,0.0,0.0
92224,-0.001954,-0.000609,0.001465,0.0,0.0,0.0,0.0,0.0,0.0,3.0,0.299337,0.339471,0.299133,0.35864,-0.0,0.0,-0.0,-0.0,-0.0,0.0,0.0,0.0,0.0,0.0,0.0,0.0
92244,-0.00171,-0.000853,0.001586,0.0,0.0,0.0,0.0,0.0,0.0,3.0,0.304659,0.335679,0.30815,0.350605,-0.0,0.0,-0.0,-0.0,-0.0,0.0,0.0,0.0,0.0,0.0,0.0,0.0
92264,-0.001344,-0.000853,0.001587,0.0,0.0,0.0,0.0,0.0,0.0,3.0,0.305242,0.33441,0.306147,0.352981,-0.0,0.0,-0.0,0.0,0.0,0.0,0.0,0.0,0.0,0.0,0.0,0.0
92284,-0.001221,-0.000854,0.001587,0.0,0.0,0.0,0.0,0.0,0.0,3.0,0.30674,0.333098,0.306421,0.352738,-0.0,0.0,-0.0,-0.0,-0.0,0.0,0.0,0.0,0.0,0.0,0.0,0.0
92304,-0.001221,-0.000731,0.001587,0.0,0.0,0.0,0.0,0.0,0.0,3.0,0.308351,0.332563,0.304858,0.353182,-0.0,0.0,-0.0,-0.0,-0.0,0.0,0.0,0.0,0.0,0.0,0.0,0.0
92324,-0.001587,-0.000609,0.001587,0.0,0.0,0.0,0.0,0.0,0.0,3.0,0.309451,0.332494,0.303687,0.353284,-0.0,0.0,-0.0,-0.0,-0.0,0.0,0.0,0.0,0.0,0.0,0.0,0.0
92344,-0.001831,-0.000365,0.001587,0.0,0.0,0.0,0.0,0.0,0.0,3.0,0.308571,0.333694,0.304537,0.352213,-0.0,0.0,-0.0,-0.0,-0.0,0.0,0.0,0.0,0.0,0.0,0.0,0.0
92364,-0.002076,-0.000487,0.001709,0.0,0.0,0.0,0.0,0.0,0.0,3.0,0.315034,0.330659,0.309192,0.345592,-0.0,0.0,-0.0,-0.0,-0.0,0.0,0.0,0.0,0.0,0.0,0.0,0.0
92384,-0.002076,-0.000609,0.001709,0.0,0.0,0.0,0.0,0.0,0.0,3.0,0.30707,0.33782,0.304419,0.349678,-0.0,0.0,-0.0,-0.0,-0.0,0.0,0.0,0.0,0.0,0.0,0.0,0.0
92404,-0.00171,-0.000731,0.001709,0.0,0.0,0.0,0.0,0.0,0.0,3.0,0.306552,0.336303,0.305978,0.350259,-0.0,0.0,-0.0,0.0,0.0,0.0,0.0,0.0,0.0,0.0,0.0,0.0
92424,-0.001344,-0.000853,0.001709,0.0,0.0,0.0,0.0,0.0,0.0,3.0,0.30584,0.334127,0.306678,0.352313,-0.0,0.0,-0.0,0.0,-0.0,0.0,0.0,0.0,0.0,0.0,0.0,0.0
92444,-0.0011,-0.000976,0.001831,0.0,0.0,0.0,0.0,0.0,0.0,3.0,0.303484,0.335925,0.304815,0.354097,-0.0,0.0,-0.0,0.0,-0.0,0.0,0.0,0.0,0.0,0.0,0.0,0.0
92464,-0.001099,-0.000731,0.001831,0.0,0.0,0.0,0.0,0.0,0.0,3.0,0.314486,0.329722,0.308493,0.34755,-0.0,0.0,-0.0,0.0,-0.0,0.0,0.0,0.0,0.0,0.0,0.0,0.0
92484,-0.001221,-0.000487,0.001709,0.0,0.0,0.0,0.0,0.0,0.0,3.0,0.307815,0.333486,0.304842,0.352786,-0.0,0.0,-0.0,-0.0,-0.0,0.0,0.0,0.0,0.0,0.0,0.0,0.0
92504,-0.001343,-0.000243,0.001709,0.0,0.0,0.0,0.0,0.0,0.0,3.0,0.309937,0.332204,0.30423,0.352701,-0.0,0.0,-0.0,-0.0,-0.0,0.0,0.0,0.0,0.0,0.0,0.0,0.0
92524,-0.001587,-0.000121,0.001709,0.0,0.0,0.0,0.0,0.0,0.0,3.0,0.308463,0.334558,0.299993,0.355174,-0.0,0.0,-0.0,0.0,0.0,0.0,0.0,0.0,0.0,0.0,0.0,0.0
92544,-0.001709,-0.000121,0.001709,0.0,0.0,0.0,0.0,0.0,0.0,3.0,0.30951,0.335792,0.302376,0.351229,-0.0,0.0,-0.0,-0.0,-0.0,0.0,0.0,0.0,0.0,0.0,0.0,0.0
92564,-0.001709,-0.000243,0.001709,0.0,0.0,0.0,0.0,0.0,0.0,3.0,0.314005,0.328903,0.309252,0.348084,-0.0,0.0,-0.0,-0.0,-0.0,0.0,0.0,0.0,0.0,0.0,0.0,0.0
92584,-0.001465,-0.000609,0.001709,0.0,0.0,0.0,0.0,0.0,0.0,3.0,0.303386,0.33766,0.305208,0.352227,-0.0,0.0,-0.0,-0.0,-0.0,0.0,0.0,0.0,0.0,0.0,0.0,0.0
92604,-0.001221,-0.000731,0.001709,0.0,0.0,0.0,0.0,0.0,0.0,3.0,0.307131,0.333985,0.306541,0.351488,-0.0,0.0,-0.0,-0.0,-0.0,0.0,0.0,0.0,0.0,0.0,0.0,0.0
92624,-0.000977,-0.000732,0.001709,0.0,0.0,0.0,0.0,0.0,0.0,3.0,0.304937,0.335108,0.307079,0.351808,-0.0,0.0,-0.0,-0.0,-0.0,0.0,0.0,0.0,0.0,0.0,0.0,0.0
92644,-0.000977,-0.00061,0.001709,0.0,0.0,0.0,0.0,0.0,0.0,3.0,0.304194,0.334181,0.307648,0.35281,-0.0,0.0,-0.0,-0.0,-0.0,0.0,0.0,0.0,0.0,0.0,0.0,0.0
92664,-0.001099,-0.000487,0.001587,0.0,0.0,0.0,0.0,0.0,0.0,3.0,0.307791,0.332568,0.303987,0.354352,-0.0,0.0,-0.0,-0.0,-0.0,0.0,0.0,0.0,0.0,0.0,0.0,0.0
92684,-0.001465,-0.000243,0.001587,0.0,0.0,0.0,0.0,0.0,0.0,3.0,0.309221,0.333416,0.300531,0.355169,-0.0,0.0,-0.0,-0.0,-0.0,0.0,0.0,0.0,0.0,0.0,0.0,0.0
92704,-0.001465,-0.000121,0.001587,0.0,0.0,0.0,0.0,0.0,0.0,3.0,0.309234,0.330624,0.304538,0.354486,-0.0,0.0,-0.0,0.0,0.0,0.0,0.0,0.0,0.0,0.0,0.0,0.0
92724,-0.001587,1e-06,0.001587,0.0,0.0,0.0,0.0,0.0,0.0,3.0,0.308072,0.334266,0.30015,0.355641,-0.0,0.0,-0.0,0.0,0.0,0.0,0.0,0.0,0.0,0.0,0.0,0.0
92744,-0.001587,0.000123,0.001587,0.0,0.0,0.0,0.0,0.0,0.0,3.0,0.298914,0.33885,0.301284,0.357856,-0.0,0.0,-0.0,0.0,0.0,0.0,0.0,0.0,0.0,0.0,0.0,0.0
92764,-0.001343,-0.000243,0.001587,0.0,0.0,0.0,0.0,0.0,0.0,3.0,0.304942,0.336965,0.306231,0.350759,-0.0,0.0,-0.0,-0.0,-0.0,0.0,0.0,0.0,0.0,0.0,0.0,0.0
92784,-0.001099,-0.000243,0.001465,0.0,0.0,0.0,0.0,0.0,0.0,3.0,0.304414,0.336388,0.307367,0.350794,-0.0,0.0,-0.0,-0.0,-0.0,0.0,0.0,0.0,0.0,0.0,0.0,0.0
92804,-0.000733,-0.000244,0.001465,0.0,0.0,0.0,0.0,0.0,0.0,3.0,0.297219,0.340454,0.301087,0.357837,-0.0,0.0,-0.0,-0.0,-0.0,0.0,0.0,0.0,0.0,0.0,0.0,0.0
92824,-0.000733,-0.000122,0.001465,0.0,0.0,0.0,0.0,0.0,0.0,3.0,0.305271,0.332441,0.307867,0.353359,-0.0,0.0,-0.0,-0.0,-0.0,0.0,0.0,0.0,0.0,0.0,0.0,0.0
92844,-0.000855,-0.000121,0.001465,0.0,0.0,0.0,0.0,0.0,0.0,3.0,0.305968,0.334048,0.306135,0.35273,-0.0,0.0,-0.0,-0.0,-0.0,0.0,0.0,0.0,0.0,0.0,0.0,0.0
92864,-0.001221,-0.000121,0.001465,0.0,0.0,0.0,0.0,0.0,0.0,3.0,0.308825,0.334168,0.30313,0.35271,-0.0,0.0,-0.0,-0.0,-0.0,0.0,0.0,0.0,0.0,0.0,0.0,0.0
92884,-0.001343,1e-06,0.001465,0.0,0.0,0.0,0.0,0.0,0.0,3.0,0.306883,0.335428,0.305056,0.351573,-0.0,0.0,-0.0,-0.0,-0.0,0.0,0.0,0.0,0.0,0.0,0.0,0.0
92904,-0.001465,-0.000121,0.001465,0.0,0.0,0.0,0.0,0.0,0.0,3.0,0.305512,0.336614,0.306386,0.35049,-0.0,0.0,-0.0,-0.0,-0.0,0.0,0.0,0.0,0.0,0.0,0.0,0.0
92924,-0.001343,-0.000121,0.001465,0.0,0.0,0.0,0.0,0.0,0.0,3.0,0.298196,0.33708,0.302109,0.3594,-0.0,0.0,-0.0,-0.0,-0.0,0.0,0.0,0.0,0.0,0.0,0.0,0.0
92944,-0.001099,-0.000243,0.001465,0.0,0.0,0.0,0.0,0.0,0.0,3.0,0.306072,0.332818,0.309128,0.351295,-0.0,0.0,-0.0,-0.0,-0.0,0.0,0.0,0.0,0.0,0.0,0.0,0.0
92964,-0.000855,-0.000244,0.001343,0.0,0.0,0.0,0.0,0.0,0.0,3.0,0.308187,0.329648,0.309726,0.351956,-0.0,0.0,-0.0,-0.0,-0.0,0.0,0.0,0.0,0.0,0.0,0.0,0.0
92984,-0.000733,-0.000122,0.001465,0.0,0.0,0.0,0.0,0.0,0.0,3.0,0.301397,0.334689,0.306822,0.355284,-0.0,0.0,-0.0,-0.0,0.0,0.0,0.0,0.0,0.0,0.0,0.0,0.0
93004,-0.00061,0.000245,0.001465,0.0,0.0,0.0,0.0,0.0,0.0,3.0,0.303712,0.332993,0.307692,0.354266,-0.0,0.0,-0.0,0.0,0.0,0.0,0.0,0.0,0.0,0.0,0.0,0.0
93024,-0.000732,0.000245,0.001465,0.0,0.0,0.0,0.0,0.0,0.0,3.0,0.304284,0.332572,0.307278,0.35453,-0.0,0.0,-0.0,0.0,0.0,0.0,0.0,0.0,0.0,0.0,0.0,0.0
93044,-0.000976,0.000367,0.001465,0.0,0.0,0.0,0.0,0.0,0.0,3.0,0.302702,0.338427,0.301198,0.355312,-0.0,0.0,-0.0,0.0,0.0,0.0,0.0,0.0,0.0,0.0,0.0,0.0
93064,-0.000976,0.000367,0.001343,0.0,0.0,0.0,0.0,0.0,0.0,3.0,0.308801,0.331935,0.306338,0.352167,-0.0,0.0,-0.0,0.0,0.0,0.0,0.0,0.0,0.0,0.0,0.0,0.0
93084,-0.001099,0.000245,0.001221,0.0,0.0,0.0,0.0,0.0,0.0,3.0,0.310322,0.329481,0.309542,0.350468,-0.0,0.0,-0.0,-0.0,-0.0,0.0,0.0,0.0,0.0,0.0,0.0,0.0
93104,-0.001099,0.000245,0.001343,0.0,0.0,0.0,0.0,0.0,0.0,3.0,0.298575,0.341026,0.298292,0.358441,-0.0,0.0,-0.0,-0.0,-0.0,0.0,0.0,0.0,0.0,0.0,0.0,0.0
93124,-0.000976,0.000245,0.001465,0.0,0.0,0.0,0.0,0.0,0.0,3.0,0.302804,0.332815,0.307962,0.354941,-0.0,0.0,-0.0,-0.0,-0.0,0.0,0.0,0.0,0.0,0.0,0.0,0.0
93144,-0.000732,0.000245,0.001343,0.0,0.0,0.0,0.0,0.0,0.0,3.0,0.30254,0.334289,0.310888,0.351341,-0.0,0.0,-0.0,-0.0,-0.0,0.0,0.0,0.0,0.0,0.0,0.0,0.0
93164,-0.00061,0.000122,0.001221,0.0,0.0,0.0,0.0,0.0,0.0,3.0,0.308104,0.330871,0.311485,0.349406,-0.0,0.0,-0.0,-0.0,-0.0,0.0,0.0,0.0,0.0,0.0,0.0,0.0
93184,-0.000488,0.000244,0.001221,0.0,0.0,0.0,0.0,0.0,0.0,3.0,0.310644,0.328767,0.312965,0.347923,-0.0,0.0,-0.0,-0.0,-0.0,0.0,0.0,0.0,0.0,0.0,0.0,0.0
93204,-0.000488,0.000489,0.001221,0.0,0.0,0.0,0.0,0.0,0.0,3.0,0.310722,0.327423,0.309395,0.352135,-0.0,0.0,-0.0,-0.0,-0.0,0.0,0.0,0.0,0.0,0.0,0.0,0.0
93224,-0.000732,0.000611,0.001221,0.0,0.0,0.0,0.0,0.0,0.0,3.0,0.309075,0.332176,0.303251,0.354244,-0.0,0.0,-0.0,-0.0,-0.0,0.0,0.0,0.0,0.0,0.0,0.0,0.0
93244,-0.000976,0.000855,0.001221,0.0,0.0,0.0,0.0,0.0,0.0,3.0,0.30503,0.33152,0.306809,0.355272,-0.0,0.0,-0.0,-0.0,-0.0,0.0,0.0,0.0,0.0,0.0,0.0,0.0
93264,-0.001098,0.000611,0.001221,0.0,0.0,0.0,0.0,0.0,0.0,3.0,0.307543,0.334458,0.304218,0.35262,-0.0,0.0,-0.0,-0.0,-0.0,0.0,0.0,0.0,0.0,0.0,0.0,0.0
93284,-0.000976,0.000733,0.001099,0.0,0.0,0.0,0.0,0.0,0.0,3.0,0.311068,0.327132,0.31588,0.346524,-0.0,0.0,-0.0,-0.0,-0.0,0.0,0.0,0.0,0.0,0.0,0.0,0.0
93304,-0.00061,0.000733,0.001099,0.0,0.0,0.0,0.0,0.0,0.0,3.0,0.305739,0.331779,0.307255,0.35409,-0.0,0.0,-0.0,0.0,-0.0,0.0,0.0,0.0,0.0,0.0,0.0,0.0
93324,-0.000366,0.000733,0.001099,0.0,0.0,0.0,0.0,0.0,0.0,3.0,0.304508,0.331387,0.307558,0.355202,-0.0,0.0,-0.0,0.0,0.0,0.0,0.0,0.0,0.0,0.0,0.0,0.0
93344,-0.000244,0.000855,0.001221,0.0,0.0,0.0,0.0,0.0,0.0,3.0,0.298006,0.340507,0.298205,0.359436,-0.0,0.0,-0.0,0.0,0.0,0.0,0.0,0.0,0.0,0.0,0.0,0.0
93364,-0.000122,0.000855,0.001221,0.0,0.0,0.0,0.0,0.0,0.0,3.0,0.314639,0.326585,0.31124,0.347969,-0.0,0.0,-0.0,0.0,0.0,0.0,0.0,0.0,0.0,0.0,0.0,0.0
93384,-0.000366,0.000977,0.001099,0.0,0.0,0.0,0.0,0.0,0.0,3.0,0.313578,0.327213,0.312218,0.347472,-0.0,0.0,-0.0,0.0,0.0,0.0,0.0,0.0,0.0,0.0,0.0,0.0
93404,-0.000488,0.000855,0.000977,0.0,0.0,0.0,0.0,0.0,0.0,3.0,0.308311,0.333465,0.308189,0.349607,-0.0,0.0,-0.0,0.0,0.0,0.0,0.0,0.0,0.0,0.0,0.0,0.0
93424,-0.000732,0.000977,0.000977,0.0,0.0,0.0,0.0,0.0,0.0,3.0,0.307096,0.332529,0.30309,0.355685,-0.0,0.0,-0.0,0.0,0.0,0.0,0.0,0.0,0.0,0.0,0.0,0.0
93444,-0.000732,0.000733,0.001099,0.0,0.0,0.0,0.0,0.0,0.0,3.0,0.306422,0.335229,0.30335,0.353537,-0.0,0.0,-0.0,0.0,0.0,0.0,0.0,0.0,0.0,0.0,0.0,0.0
93464,-0.000732,0.000611,0.001099,0.0,0.0,0.0,0.0,0.0,0.0,3.0,0.307961,0.335723,0.303638,0.351562,-0.0,0.0,-0.0,0.0,-0.0,0.0,0.0,0.0,0.0,0.0,0.0,0.0
93484,-0.000732,0.000733,0.001099,0.0,0.0,0.0,0.0,0.0,0.0,3.0,0.313593,0.329246,0.309288,0.348093,-0.0,0.0,-0.0,0.0,-0.0,0.0,0.0,0.0,0.0,0.0,0.0,0.0
93504,-0.000488,0.000855,0.001099,0.0,0.0,0.0,0.0,0.0,0.0,3.0,0.311667,0.330728,0.311905,0.346129,0.0,0.0,-0.0,0.0,-0.0,0.0,0.0,0.0,0.0,0.0,0.0,0.0
93524,-0.000366,0.000855,0.001099,0.0,0.0,0.0,0.0,0.0,0.0,3.0,0.305787,0.334374,0.306594,0.352196,0.0,0.0,-0.0,0.0,-0.0,0.0,0.0,0.0,0.0,0.0,0.0,0.0
93544,-0.000366,0.001221,0.001099,0.0,0.0,0.0,0.0,0.0,0.0,3.0,0.306499,0.332142,0.305129,0.354878,0.0,0.0,-0.0,0.0,-0.0,0.0,0.0,0.0,0.0,0.0,0.0,0.0
93564,-0.000365,0.001343,0.001099,0.0,0.0,0.0,0.0,0.0,0.0,3.0,0.307397,0.331471,0.304132,0.355563,0.0,0.0,-0.0,0.0,-0.0,0.0,0.0,0.0,0.0,0.0,0.0,0.0
93584,-0.000365,0.001587,0.001099,0.0,0.0,0.0,0.0,0.0,0.0,3.0,0.312581,0.326871,0.310127,0.350437,0.0,0.0,-0.0,0.0,-0.0,0.0,0.0,0.0,0.0,0.0,0.0,0.0
93604,-0.000487,0.001831,0.000977,0.0,0.0,0.0,0.0,0.0,0.0,3.0,0.308256,0.331795,0.303885,0.354758,0.0,0.0,-0.0,0.0,-0.0,0.0,0.0,0.0,0.0,0.0,0.0,0.0
93624,-0.000365,0.001953,0.000977,0.0,0.0,0.0,0.0,0.0,0.0,3.0,0.307789,0.332687,0.305933,0.35265,0.0,0.0,-0.0,0.0,0.0,0.0,0.0,0.0,0.0,0.0,0.0,0.0
93644,-0.000365,0.001831,0.000855,0.0,0.0,0.0,0.0,0.0,0.0,3.0,0.305634,0.335304,0.306258,0.35173,0.0,0.0,-0.0,0.0,0.0,0.0,0.0,0.0,0.0,0.0,0.0,0.0
93664,-0.000243,0.001709,0.000855,0.0,0.0,0.0,0.0,0.0,0.0,3.0,0.2989,0.338752,0.299396,0.359443,0.0,0.0,-0.0,0.0,0.0,0.0,0.0,0.0,0.0,0.0,0.0,0.0
93684,1e-06,0.001831,0.000977,0.0,0.0,0.0,0.0,0.0,0.0,3.0,0.304182,0.332679,0.304793,0.356544,0.0,0.0,-0.0,0.0,0.0,0.0,0.0,0.0,0.0,0.0,0.0,0.0
93704,0.000123,0.001831,0.000977,0.0,0.0,0.0,0.0,0.0,0.0,3.0,0.302916,0.338375,0.300557,0.355699,0.0,0.0,-0.0,0.0,0.0,0.0,0.0,0.0,0.0,0.0,0.0,0.0
93724,0.000123,0.001953,0.000977,0.0,0.0,0.0,0.0,0.0,0.0,3.0,0.304231,0.335306,0.300799,0.357296,0.0,0.0,-0.0,0.0,0.0,0.0,0.0,0.0,0.0,0.0,0.0,0.0
93744,1e-06,0.002075,0.000977,0.0,0.0,0.0,0.0,0.0,0.0,3.0,0.306881,0.332559,0.306215,0.353288,0.0,0.0,-0.0,0.0,0.0,0.0,0.0,0.0,0.0,0.0,0.0,0.0
93764,1e-06,0.001953,0.000855,0.0,0.0,0.0,0.0,0.0,0.0,3.0,0.309936,0.331394,0.305813,0.352148,0.0,0.0,-0.0,-0.0,-0.0,0.0,0.0,0.0,0.0,0.0,0.0,0.0
93784,-0.000243,0.002075,0.000855,0.0,0.0,0.0,0.0,0.0,0.0,3.0,0.30852,0.331564,0.30357,0.355006,0.0,0.0,-0.0,-0.0,-0.0,0.0,0.0,0.0,0.0,0.0,0.0,0.0
93804,1e-06,0.002075,0.000977,0.0,0.0,0.0,0.0,0.0,0.0,3.0,0.301064,0.336514,0.302822,0.357103,0.0,0.0,-0.0,-0.0,-0.0,0.0,0.0,0.0,0.0,0.0,0.0,0.0
93824,1e-06,0.002075,0.000855,0.0,0.0,0.0,0.0,0.0,0.0,3.0,0.306399,0.331749,0.304587,0.355759,0.0,0.0,-0.0,-0.0,-0.0,0.0,0.0,0.0,0.0,0.0,0.0,0.0
93844,0.000245,0.002319,0.000732,0.0,0.0,0.0,0.0,0.0,0.0,3.0,0.307327,0.332307,0.306326,0.353061,0.0,0.0,-0.0,-0.0,-0.0,0.0,0.0,0.0,0.0,0.0,0.0,0.0
93864,0.000367,0.002197,0.000732,0.0,0.0,0.0,0.0,0.0,0.0,3.0,0.307687,0.332596,0.306444,0.352397,0.0,0.0,-0.0,0.0,-0.0,0.0,0.0,0.0,0.0,0.0,0.0,0.0
93884,0.000367,0.002319,0.000732,0.0,0.0,0.0,0.0,0.0,0.0,3.0,0.304339,0.333655,0.307898,0.352973,0.0,0.0,-0.0,0.0,-0.0,0.0,0.0,0.0,0.0,0.0,0.0,0.0
93904,0.000611,0.002563,0.000732,0.0,0.0,0.0,0.0,0.0,0.0,3.0,0.308987,0.32739,0.310613,0.352598,0.0,0.0,-0.0,0.0,-0.0,0.0,0.0,0.0,0.0,0.0,0.0,0.0
93924,0.000611,0.002563,0.000732,0.0,0.0,0.0,0.0,0.0,0.0,3.0,0.306802,0.331404,0.305725,0.354817,0.0,0.0,-0.0,0.0,0.0,0.0,0.0,0.0,0.0,0.0,0.0,0.0
93944,0.000367,0.002808,0.00061,0.0,0.0,0.0,0.0,0.0,0.0,3.0,0.310138,0.329089,0.306012,0.353923,0.0,0.0,-0.0,0.0,0.0,0.0,0.0,0.0,0.0,0.0,0.0,0.0
93964,0.000245,0.002808,0.00061,0.0,0.0,0.0,0.0,0.0,0.0,3.0,0.30895,0.331209,0.303602,0.354948,0.0,0.0,-0.0,0.0,0.0,0.0,0.0,0.0,0.0,0.0,0.0,0.0
93984,0.000123,0.002686,0.000732,0.0,0.0,0.0,0.0,0.0,0.0,3.0,0.303153,0.336349,0.301209,0.356875,0.0,0.0,-0.0,0.0,0.0,0.0,0.0,0.0,0.0,0.0,0.0,0.0
94004,0.000123,0.002808,0.000732,0.0,0.0,0.0,0.0,0.0,0.0,3.0,0.305501,0.331633,0.305999,0.355448,0.0,0.0,-0.0,0.0,0.0,0.0,0.0,0.0,0.0,0.0,0.0,0.0
94024,0.000367,0.002686,0.000732,0.0,0.0,0.0,0.0,0.0,0.0,3.0,0.303731,0.332351,0.308186,0.354432,0.0,0.0,-0.0,0.0,0.0,0.0,0.0,0.0,0.0,0.0,0.0,0.0
94044,0.000489,0.002686,0.000732,0.0,0.0,0.0,0.0,0.0,0.0,3.0,0.305801,0.333496,0.306113,0.353398,0.0,0.0,-0.0,0.0,0.0,0.0,0.0,0.0,0.0,0.0,0.0,0.0
94064,0.000489,0.002686,0.000732,0.0,0.0,0.0,0.0,0.0,0.0,3.0,0.313742,0.325931,0.313374,0.347506,0.0,0.0,-0.0,0.0,0.0,0.0,0.0,0.0,0.0,0.0,0.0,0.0
94084,0.000367,0.002563,0.000732,0.0,0.0,0.0,0.0,0.0,0.0,3.0,0.305661,0.335496,0.30525,0.352361,0.0,0.0,-0.0,0.0,0.0,0.0,0.0,0.0,0.0,0.0,0.0,0.0
94104,0.000245,0.002564,0.000732,0.0,0.0,0.0,0.0,0.087266,0.0,3.0,0.305947,0.566867,0.305833,0.15,0.0,0.001365,-0.000133,1.9e-05,0.426264,-0.039237,0.0,0.0,0.0,0.0,0.0,0.0
94124,0.000245,0.002564,0.000732,0.0,0.0,0.0,0.0,0.087266,0.0,3.0,0.307728,0.3903,0.308218,0.281901,-2e-06,0.01185,-0.000978,0.000264,0.599491,-0.039871,0.0,0.0,0.0,0.0,0.0,0.0
94144,0.000126,0.003906,0.001831,0.0,0.0,0.0,0.0,0.087266,0.0,3.0,0.262396,0.397591,0.269905,0.345803,-7e-06,0.023623,-0.001708,0.000534,0.559278,-0.03097,0.0,0.0,0.0,0.0,0.0,0.0
94164,-0.000237,0.007203,0.002076,0.0,0.0,0.0,0.0,0.087266,0.0,3.0,0.307618,0.359376,0.299707,0.330947,-1e-05,0.034371,-0.002268,0.00074,0.501527,-0.023251,0.0,0.0,0.0,0.0,0.0,0.0
94184,-0.000358,0.01233,0.001345,0.0,0.0,0.0,0.0,0.087266,0.0,3.0,0.321305,0.333782,0.322197,0.324671,-9e-06,0.044002,-0.002684,0.000868,0.449745,-0.016895,0.0,0.0,0.0,0.0,0.0,0.0
94204,0.000126,0.019654,0.000365,0.0,0.0,0.0,0.0,0.087266,0.0,3.0,0.323853,0.305793,0.331558,0.339645,-6e-06,0.05265,-0.002981,0.00092,0.40494,-0.011708,0.0,0.0,0.0,0.0,0.0,0.0
94224,-5e-06,0.028566,-0.000366,0.0,0.0,0.0,0.0,0.087266,0.0,3.0,0.326591,0.287464,0.321124,0.361251,2e-06,0.060449,-0.003183,0.000903,0.366104,-0.007495,0.0,0.0,0.0,0.0,0.0,0.0
94244,-0.000503,0.039067,-0.000723,0.0,0.0,0.0,0.0,0.087266,0.0,3.0,0.321229,0.278018,0.316556,0.376103,1.1e-05,0.06751,-0.003306,0.000831,0.332228,-0.00409,0.0,0.0,0.0,0.0,0.0,0.0
94264,-0.000635,0.050056,-0.000962,0.0,0.0,0.0,0.0,0.087266,0.0,3.0,0.313645,0.274025,0.311185,0.388715,2.3e-05,0.073926,-0.003367,0.000715,0.30247,-0.001356,0.0,0.0,0.0,0.0,0.0,0.0
94284,-0.000282,0.061412,-0.001215,0.0,0.0,0.0,0.0,0.087266,0.0,3.0,0.325827,0.252374,0.32237,0.38341,3.6e-05,0.079773,-0.003376,0.000569,0.276138,0.000823,0.0,0.0,0.0,0.0,0.0,0.0
94304,-0.000305,0.071916,-0.001704,0.0,0.0,0.0,0.0,0.087266,0.0,3.0,0.32155,0.252585,0.320688,0.388008,4.8e-05,0.085116,-0.003346,0.000404,0.252669,0.002544,0.0,0.0,0.0,0.0,0.0,0.0
94324,-0.000334,0.082055,-0.002193,0.0,0.0,0.0,0.0,0.087266,0.0,3.0,0.319395,0.242774,0.322837,0.393212,6e-05,0.090007,-0.003284,0.000229,0.2316,0.003886,0.0,0.0,0.0,0.0,0.0,0.0
94344,0.000254,0.09159,-0.002466,0.0,0.0,0.0,0.0,0.087266,0.0,3.0,0.320978,0.246381,0.321889,0.390863,7.2e-05,0.094494,-0.003198,5.3e-05,0.212554,0.004918,0.0,0.0,0.0,0.0,0.0,0.0
94364,0.000836,0.099168,-0.002867,0.0,0.0,0.0,0.0,0.087266,0.0,3.0,0.323415,0.251593,0.32635,0.382591,8.1e-05,0.098612,-0.003092,-0.00012,0.195223,0.005694,0.0,0.0,0.0,0.0,0.0,0.0
94384,0.00154,0.105034,-0.003277,0.0,0.0,0.0,0.0,0.087266,0.0,3.0,0.320888,0.258202,0.332152,0.376007,9e-05,0.102396,-0.002973,-0.000284,0.179355,0.006261,0.0,0.0,0.0,0.0,0.0,0.0
94404,0.002373,0.109193,-0.003574,0.0,0.0,0.0,0.0,0.087266,0.0,3.0,0.319341,0.270713,0.331193,0.370312,9.6e-05,0.105871,-0.002843,-0.000435,0.164741,0.006657,0.0,0.0,0.0,0.0,0.0,0.0
94424,0.003688,0.112128,-0.004023,0.0,0.0,0.0,0.0,0.087266,0.0,3.0,0.314512,0.282615,0.334688,0.363124,0.000101,0.109063,-0.002707,-0.000573,0.151214,0.006915,0.0,0.0,0.0,0.0,0.0,0.0
94444,0.004396,0.113599,-0.004436,0.0,0.0,0.0,0.0,0.087266,0.0,3.0,0.316633,0.291886,0.334671,0.354515,0.000104,0.111992,-0.002566,-0.000694,0.138633,0.00706,0.0,0.0,0.0,0.0,0.0,0.0
94464,0.005107,0.113358,-0.004845,0.0,0.0,0.0,0.0,0.087266,0.0,3.0,0.318468,0.303915,0.333067,0.344742,0.000106,0.114675,-0.002423,-0.0008,0.126886,0.007115,0.0,0.0,0.0,0.0,0.0,0.0
94484,0.005447,0.112628,-0.005355,0.0,0.0,0.0,0.0,0.087266,0.0,3.0,0.315941,0.312808,0.329182,0.343033,0.000105,0.117129,-0.00228,-0.000889,0.115876,0.007098,0.0,0.0,0.0,0.0,0.0,0.0
94504,0.005666,0.111648,-0.005855,0.0,0.0,0.0,0.0,0.087266,0.0,3.0,0.326208,0.30807,0.334842,0.332131,0.000104,0.119368,-0.002137,-0.000963,0.105528,0.007023,0.0,0.0,0.0,0.0,0.0,0.0
94524,0.005642,0.110553,-0.006342,0.0,0.0,0.0,0.0,0.087266,0.0,3.0,0.33019,0.307793,0.329453,0.333845,0.000101,0.121404,-0.001996,-0.001021,0.095776,0.006904,0.0,0.0,0.0,0.0,0.0,0.0
94544,0.005002,0.109692,-0.006918,0.0,0.0,0.0,0.0,0.087266,0.0,3.0,0.339228,0.300274,0.334774,0.325983,9.7e-05,0.12325,-0.001858,-0.001066,0.086567,0.00675,0.0,0.0,0.0,0.0,0.0,0.0
94564,0.004489,0.109204,-0.00738,0.0,0.0,0.0,0.0,0.087266,0.0,3.0,0.336146,0.299615,0.334282,0.330273,9.2e-05,0.124915,-0.001723,-0.001097,0.077857,0.006569,0.0,0.0,0.0,0.0,0.0,0.0
94584,0.004341,0.109083,-0.007864,0.0,0.0,0.0,0.0,0.087266,0.0,3.0,0.331408,0.301628,0.334653,0.332919,8.7e-05,0.12641,-0.001592,-0.001117,0.069608,0.006369,0.0,0.0,0.0,0.0,0.0,0.0
94604,0.00407,0.109205,-0.008341,0.0,0.0,0.0,0.0,0.087266,0.0,3.0,0.325946,0.301076,0.331582,0.341686,8e-05,0.127743,-0.001465,-0.001125,0.061789,0.006155,0.0,0.0,0.0,0.0,0.0,0.0
94624,0.003918,0.110187,-0.008829,0.0,0.0,0.0,0.0,0.087266,0.0,3.0,0.325793,0.292824,0.333405,0.346829,7.3e-05,0.128922,-0.001343,-0.001125,0.054373,0.005932,0.0,0.0,0.0,0.0,0.0,0.0
94644,0.004379,0.111409,-0.009227,0.0,0.0,0.0,0.0,0.087266,0.0,3.0,0.321653,0.288494,0.33685,0.350681,6.6e-05,0.129956,-0.001225,-0.001116,0.047337,0.005702,0.0,0.0,0.0,0.0,0.0,0.0
94664,0.004962,0.11276,-0.009635,0.0,0.0,0.0,0.0,0.087266,0.0,3.0,0.323087,0.288746,0.336163,0.349857,5.9e-05,0.130853,-0.001112,-0.0011,0.040661,0.00547,0.0,0.0,0.0,0.0,0.0,0.0
94684,0.005545,0.11386,-0.01004,0.0,0.0,0.0,0.0,0.087266,0.0,3.0,0.332052,0.279105,0.341402,0.343793,5.1e-05,0.131618,-0.001003,-0.001078,0.034328,0.005238,0.0,0.0,0.0,0.0,0.0,0.0
94704,0.006249,0.115212,-0.010457,0.0,0.0,0.0,0.0,0.087266,0.0,3.0,0.330885,0.275865,0.343895,0.344827,4.3e-05,0.132259,-0.000899,-0.001051,0.028321,0.005006,0.0,0.0,0.0,0.0,0.0,0.0
94724,0.00683,0.116442,-0.010867,0.0,0.0,0.0,0.0,0.087266,0.0,3.0,0.327106,0.27733,0.342165,0.348981,3.6e-05,0.132782,-0.0008,-0.001019,0.022628,0.004778,0.0,0.0,0.0,0.0,0.0,0.0
94744,0.007297,0.117542,-0.011145,0.0,0.0,0.0,0.0,0.087266,0.0,3.0,0.331234,0.272877,0.343297,0.347255,2.8e-05,0.133194,-0.000705,-0.000984,0.017236,0.004554,0.0,0.0,0.0,0.0,0.0,0.0
94764,0.007521,0.118648,-0.011412,0.0,0.0,0.0,0.0,0.087266,0.0,3.0,0.328556,0.277296,0.342755,0.347089,2.1e-05,0.1335,-0.000615,-0.000946,0.012134,0.004335,0.0,0.0,0.0,0.0,0.0,0.0
94784,0.007625,0.119137,-0.011666,0.0,0.0,0.0,0.0,0.087266,0.0,3.0,0.329468,0.281343,0.34172,0.344244,1.3e-05,0.133706,-0.000529,-0.000906,0.007311,0.004122,0.0,0.0,0.0,0.0,0.0,0.0
94804,0.007852,0.119504,-0.011928,0.0,0.0,0.0,0.0,0.087266,0.0,3.0,0.32379,0.287117,0.338242,0.348488,6e-06,0.133817,-0.000447,-0.000865,0.002758,0.003914,0.0,0.0,0.0,0.0,0.0,0.0
94824,0.007715,0.119626,-0.012167,0.0,0.0,0.0,0.0,0.087266,0.0,3.0,0.32596,0.286101,0.337444,0.348056,-0.0,0.13384,-0.00037,-0.000822,-0.001536,0.003713,0.0,0.0,0.0,0.0,0.0,0.0
94844,0.007708,0.119505,-0.012289,0.0,0.0,0.0,0.0,0.087266,0.0,3.0,0.326325,0.287965,0.338139,0.345612,-6e-06,0.133779,-0.000296,-0.000779,-0.005579,0.003519,0.0,0.0,0.0,0.0,0.0,0.0
94864,0.007581,0.119261,-0.012403,0.0,0.0,0.0,0.0,0.087266,0.0,3.0,0.331055,0.284539,0.338059,0.343904,-1.2e-05,0.133638,-0.000227,-0.000736,-0.009378,0.003332,0.0,0.0,0.0,0.0,0.0,0.0
94884,0.007582,0.119017,-0.012402,0.0,0.0,0.0,0.0,0.087266,0.0,3.0,0.324132,0.295501,0.332051,0.347494,-1.8e-05,0.133423,-0.000161,-0.000693,-0.012943,0.003152,0.0,0.0,0.0,0.0,0.0,0.0
94904,0.007448,0.118652,-0.012639,0.0,0.0,0.0,0.0,0.087266,0.0,3.0,0.326606,0.291374,0.332476,0.348103,-2.3e-05,0.133139,-9.9e-05,-0.00065,-0.016281,0.002979,0.0,0.0,0.0,0.0,0.0,0.0
94924,0.007077,0.118407,-0.012739,0.0,0.0,0.0,0.0,0.087266,0.0,3.0,0.326536,0.293533,0.331408,0.347469,-2.8e-05,0.13279,-4e-05,-0.000608,-0.0194,0.002812,0.0,0.0,0.0,0.0,0.0,0.0
94944,0.006956,0.118284,-0.012731,0.0,0.0,0.0,0.0,0.087266,0.0,3.0,0.326335,0.294033,0.332188,0.34652,-3.3e-05,0.13238,1.6e-05,-0.000566,-0.022306,0.002652,0.0,0.0,0.0,0.0,0.0,0.0
94964,0.006835,0.118161,-0.012723,0.0,0.0,0.0,0.0,0.087266,0.0,3.0,0.323137,0.294135,0.331152,0.350319,-3.7e-05,0.131913,6.8e-05,-0.000526,-0.025009,0.002499,0.0,0.0,0.0,0.0,0.0,0.0
94984,0.006835,0.118154,-0.012721,0.0,0.0,0.0,0.0,0.087266,0.0,3.0,0.321522,0.29457,0.333775,0.34897,-4.1e-05,0.131394,0.000117,-0.000487,-0.027514,0.002352,0.0,0.0,0.0,0.0,0.0,0.0
95004,0.006706,0.118032,-0.012836,0.0,0.0,0.0,0.0,0.087266,0.0,3.0,0.316579,0.291739,0.333563,0.355696,-4.4e-05,0.130826,0.000164,-0.000449,-0.029829,0.002212,0.0,0.0,0.0,0.0,0.0,0.0
95024,0.006706,0.118032,-0.012836,0.0,0.0,0.0,0.0,0.087266,0.0,3.0,0.316118,0.29408,0.331867,0.355845,-4.7e-05,0.130213,0.000207,-0.000413,-0.03196,0.002078,0.0,0.0,0.0,0.0,0.0,0.0
95044,0.006955,0.118406,-0.012732,0.0,0.0,0.0,0.0,0.087266,0.0,3.0,0.317582,0.288841,0.334506,0.356163,-5e-05,0.129559,0.000248,-0.000378,-0.033915,0.00195,0.0,0.0,0.0,0.0,0.0,0.0
95064,0.00684,0.118527,-0.012602,0.0,0.0,0.0,0.0,0.087266,0.0,3.0,0.323669,0.283762,0.336837,0.352464,-5.2e-05,0.128867,0.000287,-0.000344,-0.0357,0.001827,0.0,0.0,0.0,0.0,0.0,0.0
95084,0.006962,0.118405,-0.012609,0.0,0.0,0.0,0.0,0.087266,0.0,3.0,0.322928,0.285719,0.33647,0.352008,-5.4e-05,0.12814,0.000323,-0.000312,-0.037321,0.00171,0.0,0.0,0.0,0.0,0.0,0.0
95104,0.007092,0.118284,-0.012493,0.0,0.0,0.0,0.0,0.087266,0.0,3.0,0.315961,0.29306,0.331522,0.357074,-5.6e-05,0.127383,0.000357,-0.000282,-0.038786,0.001599,0.0,0.0,0.0,0.0,0.0,0.0
95124,0.007093,0.118033,-0.01249,0.0,0.0,0.0,0.0,0.087266,0.0,3.0,0.324985,0.287981,0.334549,0.350256,-5.7e-05,0.126597,0.000388,-0.000253,-0.0401,0.001492,0.0,0.0,0.0,0.0,0.0,0.0
95144,0.006857,0.118031,-0.012352,0.0,0.0,0.0,0.0,0.087266,0.0,3.0,0.321236,0.290541,0.332784,0.353287,-5.8e-05,0.125786,0.000417,-0.000225,-0.041269,0.001391,0.0,0.0,0.0,0.0,0.0,0.0
95164,0.006859,0.117666,-0.012351,0.0,0.0,0.0,0.0,0.087266,0.0,3.0,0.322022,0.291192,0.335939,0.349131,-5.9e-05,0.124953,0.000445,-0.000199,-0.0423,0.001294,0.0,0.0,0.0,0.0,0.0,0.0
95184,0.006745,0.117543,-0.012221,0.0,0.0,0.0,0.0,0.087266,0.0,3.0,0.320297,0.290862,0.330077,0.356335,-6e-05,0.1241,0.00047,-0.000174,-0.043199,0.001202,0.0,0.0,0.0,0.0,0.0,0.0
95204,0.006503,0.117298,-0.012205,0.0,0.0,0.0,0.0,0.087266,0.0,3.0,0.324996,0.283572,0.336118,0.352093,-6e-05,0.12323,0.000494,-0.000151,-0.043972,0.001115,0.0,0.0,0.0,0.0,0.0,0.0
95224,0.006502,0.11742,-0.012206,0.0,0.0,0.0,0.0,0.087266,0.0,3.0,0.32619,0.284357,0.335434,0.351074,-6e-05,0.122345,0.000516,-0.000129,-0.044624,0.001031,0.0,0.0,0.0,0.0,0.0,0.0
95244,0.006503,0.117298,-0.012205,0.0,0.0,0.0,0.0,0.087266,0.0,3.0,0.326326,0.281955,0.335804,0.352386,-6e-05,0.121449,0.000536,-0.000109,-0.045161,0.000952,0.0,0.0,0.0,0.0,0.0,0.0
95264,0.006259,0.117296,-0.012191,0.0,0.0,0.0,0.0,0.087266,0.0,3.0,0.333991,0.273386,0.342015,0.345542,-6e-05,0.120542,0.000555,-9e-05,-0.045588,0.000876,0.0,0.0,0.0,0.0,0.0,0.0
95284,0.00639,0.117053,-0.012075,0.0,0.0,0.0,0.0,0.087266,0.0,3.0,0.325307,0.284845,0.337102,0.34993,-6e-05,0.119628,0.000572,-7.2e-05,-0.045912,0.000805,0.0,0.0,0.0,0.0,0.0,0.0
95304,0.006391,0.116809,-0.012074,0.0,0.0,0.0,0.0,0.087266,0.0,3.0,0.32596,0.286891,0.334854,0.349916,-5.9e-05,0.118708,0.000587,-5.5e-05,-0.046137,0.000737,0.0,0.0,0.0,0.0,0.0,0.0
95324,0.006278,0.116564,-0.011943,0.0,0.0,0.0,0.0,0.087266,0.0,3.0,0.326623,0.285406,0.336431,0.348945,-5.8e-05,0.117784,0.000602,-4e-05,-0.046268,0.000672,0.0,0.0,0.0,0.0,0.0,0.0
95344,0.006159,0.116069,-0.011932,0.0,0.0,0.0,0.0,0.087266,0.0,3.0,0.326048,0.285189,0.335301,0.350704,-5.8e-05,0.116858,0.000615,-2.5e-05,-0.04631,0.000611,0.0,0.0,0.0,0.0,0.0,0.0
95364,0.005916,0.115946,-0.011917,0.0,0.0,0.0,0.0,0.087266,0.0,3.0,0.327212,0.282153,0.335798,0.351443,-5.7e-05,0.115932,0.000627,-1.2e-05,-0.046269,0.000552,0.0,0.0,0.0,0.0,0.0,0.0
95384,0.005673,0.115823,-0.011903,0.0,0.0,0.0,0.0,0.087266,0.0,3.0,0.324386,0.286246,0.332207,0.35428,-5.6e-05,0.115007,0.000638,0.0,-0.046149,0.000497,0.0,0.0,0.0,0.0,0.0,0.0
95404,0.005429,0.115822,-0.011889,0.0,0.0,0.0,0.0,0.087266,0.0,3.0,0.328549,0.283494,0.334417,0.350525,-5.4e-05,0.114086,0.000647,1.1e-05,-0.045955,0.000444,0.0,0.0,0.0,0.0,0.0,0.0
95424,0.005429,0.115822,-0.011889,0.0,0.0,0.0,0.0,0.087266,0.0,3.0,0.327801,0.277933,0.336732,0.353106,-5.3e-05,0.113168,0.000656,2.2e-05,-0.045691,0.000395,0.0,0.0,0.0,0.0,0.0,0.0
95444,0.00543,0.1157,-0.011888,0.0,0.0,0.0,0.0,0.087266,0.0,3.0,0.327863,0.278473,0.337085,0.352329,-5.2e-05,0.112257,0.000664,3.1e-05,-0.045362,0.000348,0.0,0.0,0.0,0.0,0.0,0.0
95464,0.005552,0.1157,-0.011895,0.0,0.0,0.0,0.0,0.087266,0.0,3.0,0.327581,0.281722,0.337856,0.349473,-5e-05,0.111353,0.00067,4e-05,-0.044971,0.000303,0.0,0.0,0.0,0.0,0.0,0.0
95484,0.005675,0.115579,-0.011902,0.0,0.0,0.0,0.0,0.087266,0.0,3.0,0.323038,0.284398,0.336192,0.353159,-4.9e-05,0.110456,0.000676,4.7e-05,-0.044524,0.000261,0.0,0.0,0.0,0.0,0.0,0.0
95504,0.005805,0.115336,-0.011786,0.0,0.0,0.0,0.0,0.087266,0.0,3.0,0.323765,0.284362,0.337124,0.351661,-4.7e-05,0.10957,0.000681,5.4e-05,-0.044023,0.000221,0.0,0.0,0.0,0.0,0.0,0.0
95524,0.005806,0.115214,-0.011785,0.0,0.0,0.0,0.0,0.087266,0.0,3.0,0.327308,0.279077,0.338744,0.350822,-4.6e-05,0.108693,0.000685,6.1e-05,-0.043473,0.000183,0.0,0.0,0.0,0.0,0.0,0.0
95544,0.005563,0.114969,-0.01177,0.0,0.0,0.0,0.0,0.087266,0.0,3.0,0.327858,0.278639,0.338743,0.350641,-4.4e-05,0.107828,0.000689,6.6e-05,-0.042878,0.000147,0.0,0.0,0.0,0.0,0.0,0.0
95564,0.00532,0.114846,-0.011756,0.0,0.0,0.0,0.0,0.087266,0.0,3.0,0.327941,0.276846,0.339133,0.35149,-4.2e-05,0.106975,0.000691,7.1e-05,-0.042241,0.000114,0.0,0.0,0.0,0.0,0.0,0.0
95584,0.005085,0.1146,-0.011618,0.0,0.0,0.0,0.0,0.087266,0.0,3.0,0.328315,0.279896,0.334158,0.353627,-4.1e-05,0.106135,0.000693,7.6e-05,-0.041565,8.2e-05,0.0,0.0,0.0,0.0,0.0,0.0
95604,0.004715,0.114233,-0.011719,0.0,0.0,0.0,0.0,0.087266,0.0,3.0,0.33031,0.278186,0.335591,0.351707,-3.9e-05,0.105309,0.000695,8e-05,-0.040854,5.2e-05,0.0,0.0,0.0,0.0,0.0,0.0
95624,0.004473,0.113859,-0.011702,0.0,0.0,0.0,0.0,0.087266,0.0,3.0,0.329567,0.281116,0.335092,0.350721,-3.7e-05,0.104498,0.000696,8.3e-05,-0.040112,2.3e-05,0.0,0.0,0.0,0.0,0.0,0.0
95644,0.00436,0.113493,-0.011571,0.0,0.0,0.0,0.0,0.087266,0.0,3.0,0.326504,0.283547,0.336011,0.350851,-3.6e-05,0.103701,0.000696,8.6e-05,-0.03934,-3e-06,0.0,0.0,0.0,0.0,0.0,0.0
95664,0.00424,0.113248,-0.011564,0.0,0.0,0.0,0.0,0.087266,0.0,3.0,0.325435,0.285477,0.335217,0.351121,-3.4e-05,0.102921,0.000696,8.8e-05,-0.038543,-2.9e-05,0.0,0.0,0.0,0.0,0.0,0.0
95684,0.004129,0.112516,-0.011432,0.0,0.0,0.0,0.0,0.087266,0.0,3.0,0.326781,0.286827,0.335574,0.348533,-3.2e-05,0.102156,0.000695,9e-05,-0.037722,-5.2e-05,0.0,0.0,0.0,0.0,0.0,0.0
95704,0.004132,0.1119,-0.011429,0.0,0.0,0.0,0.0,0.087266,0.0,3.0,0.327128,0.284361,0.337825,0.34794,-3e-05,0.101408,0.000694,9.2e-05,-0.036881,-7.4e-05,0.0,0.0,0.0,0.0,0.0,0.0
95724,0.004014,0.11129,-0.011421,0.0,0.0,0.0,0.0,0.087266,0.0,3.0,0.329704,0.279309,0.338768,0.348425,-2.9e-05,0.100676,0.000692,9.3e-05,-0.036023,-9.5e-05,0.0,0.0,0.0,0.0,0.0,0.0
95744,0.003902,0.110801,-0.01129,0.0,0.0,0.0,0.0,0.087266,0.0,3.0,0.322241,0.287079,0.333171,0.354668,-2.7e-05,0.099962,0.00069,9.4e-05,-0.035149,-0.000115,0.0,0.0,0.0,0.0,0.0,0.0
95764,0.003538,0.110434,-0.011269,0.0,0.0,0.0,0.0,0.087266,0.0,3.0,0.330322,0.276929,0.33759,0.350715,-2.5e-05,0.099266,0.000688,9.4e-05,-0.034263,-0.000133,0.0,0.0,0.0,0.0,0.0,0.0
95784,0.003175,0.109944,-0.011248,0.0,0.0,0.0,0.0,0.087266,0.0,3.0,0.33125,0.27793,0.337604,0.349115,-2.4e-05,0.098588,0.000685,9.4e-05,-0.033366,-0.00015,0.0,0.0,0.0,0.0,0.0,0.0
95804,0.002939,0.109692,-0.011109,0.0,0.0,0.0,0.0,0.087266,0.0,3.0,0.328428,0.278412,0.33773,0.351249,-2.2e-05,0.097927,0.000682,9.4e-05,-0.03246,-0.000166,0.0,0.0,0.0,0.0,0.0,0.0
95824,0.002699,0.109082,-0.011094,0.0,0.0,0.0,0.0,0.087266,0.0,3.0,0.329021,0.274662,0.341399,0.349889,-2.1e-05,0.097285,0.000678,9.4e-05,-0.031548,-0.000182,0.0,0.0,0.0,0.0,0.0,0.0
95844,0.002586,0.108715,-0.010965,0.0,0.0,0.0,0.0,0.087266,0.0,3.0,0.322985,0.285022,0.337872,0.351155,-1.9e-05,0.096661,0.000675,9.4e-05,-0.030632,-0.000196,0.0,0.0,0.0,0.0,0.0,0.0
95864,0.002472,0.108349,-0.010835,0.0,0.0,0.0,0.0,0.087266,0.0,3.0,0.322142,0.289294,0.333982,0.35233,-1.8e-05,0.096055,0.000671,9.3e-05,-0.029713,-0.000209,0.0,0.0,0.0,0.0,0.0,0.0
95884,0.00236,0.10786,-0.010705,0.0,0.0,0.0,0.0,0.087266,0.0,3.0,0.322049,0.28715,0.333868,0.354141,-1.6e-05,0.095467,0.000666,9.2e-05,-0.028794,-0.000221,0.0,0.0,0.0,0.0,0.0,0.0
95904,0.002367,0.10761,-0.01058,0.0,0.0,0.0,0.0,0.087266,0.0,3.0,0.329473,0.276164,0.340315,0.349441,-1.5e-05,0.094898,0.000662,9.1e-05,-0.027875,-0.000232,0.0,0.0,0.0,0.0,0.0,0.0
95924,0.002248,0.107244,-0.010573,0.0,0.0,0.0,0.0,0.087266,0.0,3.0,0.329535,0.275022,0.339129,0.351342,-1.4e-05,0.094348,0.000657,9e-05,-0.026959,-0.000242,0.0,0.0,0.0,0.0,0.0,0.0
95944,0.002011,0.10712,-0.010437,0.0,0.0,0.0,0.0,0.087266,0.0,3.0,0.330304,0.275144,0.340456,0.349269,-1.2e-05,0.093816,0.000652,8.9e-05,-0.026046,-0.000252,0.0,0.0,0.0,0.0,0.0,0.0
95964,0.001896,0.106998,-0.010307,0.0,0.0,0.0,0.0,0.087266,0.0,3.0,0.332492,0.276836,0.33504,0.351182,-1.1e-05,0.093301,0.000647,8.7e-05,-0.025139,-0.000261,0.0,0.0,0.0,0.0,0.0,0.0
95984,0.001661,0.106509,-0.010171,0.0,0.0,0.0,0.0,0.087266,0.0,3.0,0.329371,0.285095,0.330597,0.352125,-1e-05,0.092805,0.000642,8.6e-05,-0.024238,-0.000269,0.0,0.0,0.0,0.0,0.0,0.0
96004,0.001305,0.106019,-0.010029,0.0,0.0,0.0,0.0,0.087266,0.0,3.0,0.329478,0.284425,0.332084,0.351155,-8e-06,0.092327,0.000636,8.4e-05,-0.023345,-0.000277,0.0,0.0,0.0,0.0,0.0,0.0
96024,0.000942,0.105402,-0.010007,0.0,0.0,0.0,0.0,0.087266,0.0,3.0,0.338334,0.272407,0.34037,0.343671,-7e-06,0.091867,0.000631,8.2e-05,-0.022461,-0.000284,0.0,0.0,0.0,0.0,0.0,0.0
96044,0.000708,0.104669,-0.009871,0.0,0.0,0.0,0.0,0.087266,0.0,3.0,0.330266,0.283563,0.337089,0.346338,-6e-06,0.091424,0.000625,8.1e-05,-0.021587,-0.00029,0.0,0.0,0.0,0.0,0.0,0.0
96064,0.000594,0.104303,-0.009742,0.0,0.0,0.0,0.0,0.087266,0.0,3.0,0.329188,0.288182,0.333444,0.347288,-5e-06,0.090999,0.000619,7.9e-05,-0.020724,-0.000296,0.0,0.0,0.0,0.0,0.0,0.0
96084,0.000117,0.103447,-0.009593,0.0,0.0,0.0,0.0,0.087266,0.0,3.0,0.338915,0.28316,0.335631,0.339702,-4e-06,0.090591,0.000613,7.7e-05,-0.019873,-0.000301,0.0,0.0,0.0,0.0,0.0,0.0
96104,-0.000246,0.10283,-0.009572,0.0,0.0,0.0,0.0,0.087266,0.0,3.0,0.333643,0.286934,0.333992,0.34352,-3e-06,0.0902,0.000607,7.5e-05,-0.019034,-0.000305,0.0,0.0,0.0,0.0,0.0,0.0
96124,-0.000725,0.102462,-0.009425,0.0,0.0,0.0,0.0,0.087266,0.0,3.0,0.332582,0.281691,0.333148,0.349322,-2e-06,0.089826,0.000601,7.3e-05,-0.018209,-0.000309,0.0,0.0,0.0,0.0,0.0,0.0
96144,-0.001082,0.10185,-0.009283,0.0,0.0,0.0,0.0,0.087266,0.0,3.0,0.32814,0.285409,0.331191,0.352466,-1e-06,0.089467,0.000595,7.1e-05,-0.017397,-0.000313,0.0,0.0,0.0,0.0,0.0,0.0
96164,-0.001689,0.101238,-0.009253,0.0,0.0,0.0,0.0,0.087266,0.0,3.0,0.326888,0.288465,0.328179,0.354045,-0.0,0.089126,0.000588,6.9e-05,-0.016601,-0.000316,0.0,0.0,0.0,0.0,0.0,0.0
96184,-0.002167,0.10062,-0.009104,0.0,0.0,0.0,0.0,0.087266,0.0,3.0,0.334524,0.283496,0.331773,0.34743,0.0,0.088799,0.000582,6.7e-05,-0.01582,-0.000319,0.0,0.0,0.0,0.0,0.0,0.0
96204,-0.002286,0.10001,-0.009098,0.0,0.0,0.0,0.0,0.087266,0.0,3.0,0.334116,0.279698,0.335876,0.346768,1e-06,0.088489,0.000576,6.6e-05,-0.015054,-0.000322,0.0,0.0,0.0,0.0,0.0,0.0
96224,-0.002528,0.099521,-0.009087,0.0,0.0,0.0,0.0,0.087266,0.0,3.0,0.332279,0.28234,0.334618,0.347734,2e-06,0.088193,0.000569,6.4e-05,-0.014305,-0.000324,0.0,0.0,0.0,0.0,0.0,0.0
96244,-0.002763,0.098788,-0.008953,0.0,0.0,0.0,0.0,0.087266,0.0,3.0,0.333448,0.282373,0.335119,0.346125,3e-06,0.087913,0.000563,6.2e-05,-0.013573,-0.000325,0.0,0.0,0.0,0.0,0.0,0.0
96264,-0.002634,0.098545,-0.008837,0.0,0.0,0.0,0.0,0.087266,0.0,3.0,0.330371,0.285297,0.333485,0.348361,3e-06,0.087647,0.000556,6e-05,-0.012858,-0.000327,0.0,0.0,0.0,0.0,0.0,0.0
96284,-0.002749,0.098423,-0.008708,0.0,0.0,0.0,0.0,0.087266,0.0,3.0,0.338378,0.276396,0.338001,0.343038,4e-06,0.087395,0.000549,5.8e-05,-0.01216,-0.000328,0.0,0.0,0.0,0.0,0.0,0.0
96304,-0.002991,0.097928,-0.008695,0.0,0.0,0.0,0.0,0.087266,0.0,3.0,0.332004,0.285286,0.334115,0.346238,4e-06,0.087157,0.000543,5.6e-05,-0.011479,-0.000328,0.0,0.0,0.0,0.0,0.0,0.0
96324,-0.003227,0.097562,-0.008561,0.0,0.0,0.0,0.0,0.087266,0.0,3.0,0.326543,0.288531,0.330742,0.35197,5e-06,0.086932,0.000536,5.4e-05,-0.010817,-0.000329,0.0,0.0,0.0,0.0,0.0,0.0
96344,-0.003349,0.097683,-0.008555,0.0,0.0,0.0,0.0,0.087266,0.0,3.0,0.333854,0.275095,0.336417,0.349859,5e-06,0.086721,0.00053,5.2e-05,-0.010172,-0.000329,0.0,0.0,0.0,0.0,0.0,0.0
96364,-0.003587,0.097682,-0.00842,0.0,0.0,0.0,0.0,0.087266,0.0,3.0,0.327782,0.280137,0.333777,0.354286,6e-06,0.086522,0.000523,5e-05,-0.009546,-0.000329,0.0,0.0,0.0,0.0,0.0,0.0
96384,-0.003575,0.097561,-0.008176,0.0,0.0,0.0,0.0,0.087266,0.0,3.0,0.325164,0.284317,0.332611,0.35465,6e-06,0.086336,0.000516,4.9e-05,-0.008938,-0.000329,0.0,0.0,0.0,0.0,0.0,0.0
96404,-0.003447,0.09744,-0.008059,0.0,0.0,0.0,0.0,0.087266,0.0,3.0,0.333005,0.278011,0.335409,0.349504,7e-06,0.086161,0.00051,4.7e-05,-0.008348,-0.000328,0.0,0.0,0.0,0.0,0.0,0.0
96424,-0.003568,0.097317,-0.008053,0.0,0.0,0.0,0.0,0.087266,0.0,3.0,0.332749,0.280722,0.332383,0.350599,7e-06,0.085999,0.000503,4.5e-05,-0.007776,-0.000327,0.0,0.0,0.0,0.0,0.0,0.0
96444,-0.003568,0.097195,-0.008054,0.0,0.0,0.0,0.0,0.087266,0.0,3.0,0.334221,0.277898,0.336668,0.347239,7e-06,0.085847,0.000497,4.4e-05,-0.007222,-0.000326,0.0,0.0,0.0,0.0,0.0,0.0
96464,-0.003683,0.096951,-0.007926,0.0,0.0,0.0,0.0,0.087266,0.0,3.0,0.333479,0.27587,0.338469,0.347691,8e-06,0.085707,0.00049,4.2e-05,-0.006687,-0.000325,0.0,0.0,0.0,0.0,0.0,0.0
96484,-0.003919,0.096463,-0.007792,0.0,0.0,0.0,0.0,0.087266,0.0,3.0,0.325823,0.285567,0.330323,0.355226,8e-06,0.085577,0.000484,4e-05,-0.00617,-0.000324,0.0,0.0,0.0,0.0,0.0,0.0
96504,-0.004033,0.096097,-0.007664,0.0,0.0,0.0,0.0,0.087266,0.0,3.0,0.326819,0.289068,0.329762,0.352211,8e-06,0.085457,0.000477,3.9e-05,-0.005671,-0.000323,0.0,0.0,0.0,0.0,0.0,0.0
96524,-0.004154,0.095846,-0.007657,0.0,0.0,0.0,0.0,0.087266,0.0,3.0,0.334749,0.283771,0.335144,0.343792,8e-06,0.085348,0.000471,3.7e-05,-0.005189,-0.000321,0.0,0.0,0.0,0.0,0.0,0.0
96544,-0.004512,0.095357,-0.007518,0.0,0.0,0.0,0.0,0.087266,0.0,3.0,0.34131,0.282979,0.335189,0.337871,9e-06,0.085247,0.000464,3.6e-05,-0.004726,-0.000319,0.0,0.0,0.0,0.0,0.0,0.0
96564,-0.004754,0.094869,-0.007508,0.0,0.0,0.0,0.0,0.087266,0.0,3.0,0.338146,0.284998,0.329982,0.344483,9e-06,0.085156,0.000458,3.4e-05,-0.00428,-0.000317,0.0,0.0,0.0,0.0,0.0,0.0
