time_ms,roll,pitch,yaw,x,y,z,reference_x,reference_y,reference_z,reference_yaw,throttle_1,throttle_2,throttle_3,throttle_4,roll_predicted,pitch_predicted,yaw_predicted,roll_rate_predicted,pitch_rate_predicted,yaw_rate_predicted,value1,value2,value3,value4,value5,value6
137672,0.035623,-0.018854,-0.01016,0.015677,0.01146,0.647852,0.0,0.0,0.7,-0.0,0.55332,0.538031,0.583005,0.5378,-0.001323,0.0,0.700126,-3.7e-05,-0.0,0.001902,11.417455,0.033158,-0.031454,0.0,0.0,0.0
137692,0.03732,-0.019484,-0.008545,0.015905,0.012257,0.648653,0.0,0.0,0.7,-0.0,0.560212,0.537805,0.575939,0.539793,-0.001323,0.0,0.700163,-1.5e-05,-0.0,0.001868,11.43202,0.028824,-0.030176,0.0,0.0,0.0
137712,0.039269,-0.021946,-0.007014,0.015956,0.012892,0.649334,0.0,-3.4e-05,0.699966,-0.0,0.564824,0.545529,0.570256,0.532094,-0.001323,0.0,0.700201,8e-06,-0.0,0.001835,11.418573,0.031496,-0.031316,0.0,0.0,0.0
137732,0.041695,-0.021964,-0.005644,0.016116,0.013242,0.650056,0.0,-0.001559,0.698441,-0.0,0.560987,0.535099,0.577337,0.537594,-0.001323,0.0,0.700237,3e-05,-0.0,0.0018,11.401717,0.031039,-0.031116,0.0,0.0,0.0
137752,0.04107,-0.021503,-0.00444,0.016063,0.013763,0.650838,0.0,-0.003105,0.696895,-0.0,0.57543,0.535161,0.563972,0.535599,-0.001322,0.0,0.700273,5.2e-05,-0.0,0.001748,11.391681,0.030191,-0.030227,0.0,0.0,0.0
137772,0.042279,-0.022746,-0.00318,0.015776,0.013648,0.651843,0.0,-0.004698,0.695302,-0.0,0.568874,0.536535,0.565366,0.533764,-0.001321,-0.0,0.700303,7.3e-05,-1.7e-05,0.000908,11.320475,0.034757,-0.030011,0.0,0.0,0.0
137792,0.041898,-0.023629,-0.001823,0.015776,0.013648,0.651843,0.0,-0.006681,0.693319,-0.0,0.569916,0.534341,0.557851,0.537575,-0.00132,-2e-06,0.70031,9.5e-05,-0.000277,-0.000843,11.259277,0.039373,-0.028949,0.0,0.0,0.0
137812,0.042493,-0.021094,-0.000528,0.015553,0.013816,0.652907,0.0,-0.006681,0.693319,-0.0,0.563953,0.526653,0.562078,0.541842,-0.001317,-1.2e-05,0.700276,0.000115,-0.001058,-0.003367,11.197997,0.040691,-0.027107,0.0,0.0,0.0
137832,0.043942,-0.02088,0.000947,0.014949,0.013344,0.654081,0.0,-0.00955,0.69045,-0.0,0.57161,0.534935,0.553426,0.53237,-0.001315,-4.3e-05,0.700185,0.000135,-0.002537,-0.006723,11.172348,0.044032,-0.02687,0.0,0.0,0.0
137852,0.045639,-0.020546,0.002299,0.014485,0.012969,0.655151,0.0,-0.011322,0.688678,-0.0,0.551624,0.53271,0.568867,0.540993,-0.001312,-0.00011,0.700026,0.000155,-0.004852,-0.009789,11.191167,0.039055,-0.025741,0.0,0.0,0.0
137872,0.048191,-0.018388,0.003859,0.013633,0.012268,0.656196,0.0,-0.013196,0.686804,-0.0,0.553304,0.523991,0.563293,0.544452,-0.001309,-0.000228,0.699803,0.000175,-0.007807,-0.013728,11.082261,0.044689,-0.023205,0.0,0.0,0.0
137892,0.051597,-0.018191,0.005471,0.013633,0.012268,0.656196,0.0,-0.013196,0.686804,-0.0,0.549155,0.536175,0.562352,0.534438,-0.001305,-0.000411,0.699495,0.000194,-0.011468,-0.018275,11.042829,0.04508,-0.021755,0.0,0.0,0.0
137912,0.055499,-0.015429,0.00677,0.012643,0.011464,0.657288,0.0,-0.015111,0.684889,-0.0,0.540734,0.521161,0.572444,0.543964,-0.001301,-0.000672,0.699094,0.000213,-0.015935,-0.023155,11.007929,0.044552,-0.018913,0.0,0.0,0.0
137932,0.058181,-0.014138,0.008216,0.01133,0.010092,0.65824,0.0,-0.017062,0.682938,-0.0,0.539064,0.52414,0.577067,0.545444,-0.001297,-0.001029,0.698597,0.000231,-0.021175,-0.02732,11.098874,0.039192,-0.020265,0.0,0.0,0.0
137952,0.062943,-0.012726,0.0093,0.010307,0.008159,0.659124,0.0,-0.018947,0.681053,-0.0,0.541434,0.532707,0.577069,0.53045,-0.001292,-0.001495,0.69802,0.00025,-0.026831,-0.031519,11.049011,0.039709,-0.017105,0.0,0.0,0.0
137972,0.065031,-0.009717,0.01019,0.009134,0.006018,0.659843,0.0,-0.020648,0.679352,-0.0,0.546482,0.519171,0.572078,0.540737,-0.001287,-0.002075,0.697356,0.000267,-0.032737,-0.036045,11.010966,0.037948,-0.013143,0.0,0.0,0.0
137992,0.065762,-0.009256,0.010909,0.007839,0.003963,0.660312,0.0,-0.022184,0.677816,-0.0,0.541057,0.521942,0.577912,0.534987,-0.001281,-0.002776,0.6966,0.000285,-0.038927,-0.04077,10.984178,0.033905,-0.011144,0.0,0.0,0.0
138012,0.067366,-0.005624,0.011402,0.006889,0.001633,0.660667,0.0,-0.02372,0.67628,-0.0,0.544474,0.511713,0.583549,0.53433,-0.001276,-0.003603,0.695749,0.000302,-0.045399,-0.04551,10.974985,0.029014,-0.00885,0.0,0.0,0.0
138032,0.065672,-0.003183,0.011563,0.006889,0.001633,0.660667,0.0,-0.025336,0.674664,-0.0,0.559038,0.520976,0.568855,0.526911,-0.001269,-0.004561,0.694804,0.000319,-0.052085,-0.0501,10.981988,0.024764,-0.006422,0.0,0.0,0.0
138052,0.063003,0.000245,0.011573,0.005367,-0.00114,0.660915,0.0,-0.025336,0.674664,-0.0,0.554912,0.497295,0.57726,0.545142,-0.001263,-0.005653,0.693769,0.000336,-0.05886,-0.054493,10.990729,0.020186,-0.00589,0.0,0.0,0.0
138072,0.057903,0.005281,0.011309,0.003843,-0.005911,0.661072,0.0,-0.027291,0.672709,-0.0,0.587592,0.486816,0.552666,0.54668,-0.001256,-0.006881,0.692647,0.000352,-0.06559,-0.058719,11.004585,0.026862,-0.009496,0.0,0.0,0.0
138092,0.052661,0.006776,0.011287,0.002651,-0.009905,0.661033,0.0,-0.028995,0.671005,-0.0,0.573662,0.519612,0.566801,0.522319,-0.001249,-0.008243,0.691446,0.000368,-0.07219,-0.061946,11.071552,0.013464,-0.005843,0.0,0.0,0.0
138112,0.047053,0.009133,0.011007,0.001711,-0.01423,0.660858,0.0,-0.031134,0.668866,-0.0,0.561623,0.506975,0.574362,0.537235,-0.001241,-0.009733,0.690185,0.000384,-0.078323,-0.065039,11.047645,0.002411,-0.002821,0.0,0.0,0.0
138132,0.039012,0.01223,0.010987,0.000527,-0.018807,0.660554,0.0,-0.032949,0.667051,-0.0,0.577523,0.504176,0.559932,0.537889,-0.001234,-0.011342,0.68886,0.0004,-0.083901,-0.068189,11.044165,-0.00432,-0.001738,0.0,0.0,0.0
138152,0.030839,0.013746,0.010773,0.000527,-0.018807,0.660554,0.0,-0.032949,0.667051,-0.0,0.590243,0.508997,0.549041,0.52914,-0.001226,-0.013059,0.687472,0.000415,-0.088999,-0.071533,11.026996,-0.009387,-0.001879,0.0,0.0,0.0
138172,0.020949,0.013927,0.010475,-0.000616,-0.024977,0.660076,0.0,-0.034708,0.665292,-0.0,0.588425,0.513288,0.550124,0.526288,-0.001217,-0.014875,0.686016,0.00043,-0.093719,-0.074913,11.03096,-0.016041,-0.000887,0.0,0.0,0.0
138192,0.011304,0.014347,0.010174,-0.001269,-0.029991,0.659521,0.0,-0.03661,0.66339,-0.0,0.6081,0.513422,0.532042,0.527595,-0.001208,-0.016783,0.684497,0.000444,-0.098116,-0.077301,11.095851,-0.009648,-0.005107,0.0,0.0,0.0
138212,0.001416,0.014642,0.010001,-0.002055,-0.035658,0.658761,0.0,-0.038473,0.661527,-0.0,0.586733,0.514277,0.55191,0.53097,-0.001199,-0.018775,0.682935,0.000459,-0.101909,-0.079438,11.095676,-0.023483,-0.003567,0.0,0.0,0.0
138232,-0.008476,0.01408,0.009827,-0.002648,-0.041435,0.657824,0.0,-0.040039,0.659961,-0.0,0.591195,0.513263,0.546763,0.53199,-0.00119,-0.020837,0.68133,0.000473,-0.105005,-0.08171,11.092554,-0.029241,-0.004367,0.0,0.0,0.0
138252,-0.017882,0.013026,0.009761,-0.002958,-0.046039,0.656985,0.0,-0.041601,0.658399,-0.0,0.597478,0.524311,0.540203,0.521354,-0.001181,-0.022957,0.679678,0.000486,-0.107528,-0.084073,11.100054,-0.037019,-0.004392,0.0,0.0,0.0
138272,-0.026925,0.011356,0.009551,-0.003322,-0.050861,0.656073,0.0,-0.043116,0.656884,-0.0,0.598265,0.521843,0.549223,0.515675,-0.001171,-0.025124,0.677979,0.0005,-0.109592,-0.08633,11.126308,-0.045234,-0.005191,0.0,0.0,0.0
138292,-0.035729,0.008707,0.009307,-0.00344,-0.055529,0.655077,0.0,-0.044657,0.655343,-0.0,0.601406,0.527203,0.543946,0.513697,-0.001161,-0.027329,0.676237,0.000513,-0.111228,-0.088422,11.144252,-0.047051,-0.007003,0.0,0.0,0.0
138312,-0.044531,0.006911,0.00906,-0.003499,-0.059881,0.653995,0.0,-0.046199,0.653801,-0.0,0.602413,0.524337,0.538372,0.523047,-0.00115,-0.029563,0.674454,0.000526,-0.112435,-0.090331,11.164224,-0.049847,-0.008196,0.0,0.0,0.0
138332,-0.053335,0.004506,0.008902,-0.003738,-0.064338,0.652823,0.0,-0.04793,0.65207,-0.0,0.602348,0.527014,0.539062,0.521439,-0.00114,-0.031818,0.672634,0.000538,-0.113209,-0.092072,11.183924,-0.051532,-0.010183,0.0,0.0,0.0
138352,-0.059578,0.00075,0.008801,-0.003763,-0.069308,0.651267,0.0,-0.04793,0.65207,-0.0,0.59644,0.531804,0.545035,0.518993,-0.001129,-0.034086,0.67078,0.00055,-0.11356,-0.093658,11.203598,-0.051732,-0.012015,0.0,0.0,0.0
138372,-0.06508,-0.000808,0.008871,-0.003763,-0.069308,0.651267,0.0,-0.050027,0.649973,-0.0,0.595762,0.526263,0.543118,0.52841,-0.001118,-0.036357,0.668895,0.000562,-0.113512,-0.095194,11.215178,-0.051734,-0.012697,0.0,0.0,0.0
138392,-0.069738,-0.003833,0.008885,-0.003568,-0.074268,0.649693,0.0,-0.051641,0.648359,-0.0,0.587788,0.535966,0.562154,0.515963,-0.001106,-0.038625,0.666984,0.000573,-0.113107,-0.095813,11.312864,-0.061577,-0.014145,0.0,0.0,0.0
138412,-0.073653,-0.005523,0.008813,-0.003366,-0.077694,0.648276,0.0,-0.053173,0.646827,-0.0,0.617647,0.529656,0.519362,0.525392,-0.001095,-0.040881,0.665064,0.000584,-0.112172,-0.096447,11.240977,-0.039411,-0.015402,0.0,0.0,0.0
138432,-0.076479,-0.008794,0.008922,-0.003508,-0.081327,0.646563,0.0,-0.054721,0.645279,-0.0,0.593383,0.532472,0.547743,0.524629,-0.001083,-0.043114,0.66313,0.000595,-0.110759,-0.097187,11.267486,-0.044972,-0.01724,0.0,0.0,0.0
138452,-0.075639,-0.011717,0.00906,-0.003358,-0.084656,0.644707,0.0,-0.056561,0.643439,-0.0,0.588253,0.538432,0.560111,0.512454,-0.001071,-0.045317,0.661181,0.000605,-0.109033,-0.097881,11.283428,-0.043423,-0.018751,0.0,0.0,0.0
138472,-0.073089,-0.01501,0.009321,-0.003388,-0.087401,0.642741,0.0,-0.056561,0.643439,-0.0,0.573631,0.544441,0.566644,0.517648,-0.001059,-0.047483,0.659218,0.000615,-0.107085,-0.098524,11.305552,-0.043152,-0.01849,0.0,0.0,0.0
138492,-0.069193,-0.016722,0.009781,-0.003388,-0.087401,0.642741,0.0,-0.05838,0.64162,-0.0,0.567897,0.536417,0.567592,0.532145,-0.001047,-0.049609,0.657242,0.000625,-0.104983,-0.099268,11.315826,-0.040548,-0.019523,0.0,0.0,0.0
138512,-0.064937,-0.019657,0.010212,-0.003293,-0.09008,0.640082,0.0,-0.060638,0.639362,-0.0,0.563275,0.546312,0.581329,0.519378,-0.001034,-0.051693,0.655255,0.000634,-0.102804,-0.09919,11.40424,-0.04399,-0.019581,0.0,0.0,0.0
138532,-0.060792,-0.02065,0.010469,-0.003385,-0.092053,0.637883,0.0,-0.062475,0.637525,-0.0,0.582686,0.535572,0.557417,0.527865,-0.001021,-0.053731,0.653273,0.000643,-0.100399,-0.099051,11.318609,-0.027331,-0.01975,0.0,0.0,0.0
138552,-0.056407,-0.022129,0.010841,-0.003695,-0.093809,0.635635,0.0,-0.064123,0.635877,-0.0,0.570562,0.536319,0.564963,0.534342,-0.001008,-0.05572,0.651291,0.000651,-0.097792,-0.09939,11.340991,-0.023554,-0.020294,0.0,0.0,0.0
138572,-0.052147,-0.023862,0.010969,-0.003732,-0.094581,0.633787,0.0,-0.065642,0.634358,-0.0,0.566382,0.541085,0.571295,0.528518,-0.000995,-0.057656,0.649299,0.000659,-0.095223,-0.099978,11.356662,-0.019375,-0.01992,0.0,0.0,0.0
138592,-0.04556,-0.024747,0.011395,-0.004084,-0.095222,0.631916,0.0,-0.067181,0.632819,-0.0,0.557285,0.538223,0.582552,0.53056,-0.000982,-0.059543,0.647295,0.000667,-0.092856,-0.100599,11.377682,-0.015953,-0.018678,0.0,0.0,0.0
138612,-0.039577,-0.024294,0.011602,-0.004084,-0.095222,0.631916,0.0,-0.068798,0.631202,-0.0,0.571926,0.533965,0.570757,0.532744,-0.000969,-0.061384,0.645278,0.000675,-0.090737,-0.101143,11.384919,-0.009578,-0.018832,0.0,0.0,0.0
138632,-0.035911,-0.022971,0.011917,-0.004349,-0.094994,0.629999,0.0,-0.068798,0.631202,-0.0,0.576044,0.529885,0.562837,0.541165,-0.000955,-0.063184,0.643252,0.000682,-0.088858,-0.101602,11.389621,-0.003818,-0.017597,0.0,0.0,0.0
138652,-0.029199,-0.023377,0.012112,-0.004976,-0.095822,0.627096,0.0,-0.070861,0.629139,-0.0,0.565785,0.535876,0.576068,0.525446,-0.000941,-0.064948,0.641217,0.000688,-0.087202,-0.102026,11.31301,0.003907,-0.018093,0.0,0.0,0.0
138672,-0.023449,-0.021093,0.012328,-0.005283,-0.095645,0.625201,0.0,-0.072882,0.627118,-0.0,0.56835,0.52846,0.577485,0.535749,-0.000928,-0.066681,0.639177,0.000695,-0.085755,-0.101596,11.396631,0.004185,-0.017344,0.0,0.0,0.0
138692,-0.018076,-0.020514,0.012634,-0.005967,-0.095585,0.622775,0.0,-0.074508,0.625492,-0.0,0.566691,0.535718,0.572735,0.537495,-0.000914,-0.068386,0.637149,0.000701,-0.084309,-0.101244,11.420225,0.008726,-0.015168,0.0,0.0,0.0
138712,-0.013795,-0.018955,0.012812,-0.005967,-0.095585,0.622775,0.0,-0.074508,0.625492,-0.0,0.572126,0.528007,0.568389,0.542197,-0.0009,-0.070061,0.635124,0.000706,-0.082881,-0.10128,11.399776,0.016547,-0.014756,0.0,0.0,0.0
138732,-0.009147,-0.017275,0.013109,-0.006873,-0.09478,0.620636,0.0,-0.076378,0.623622,-0.0,0.573947,0.530952,0.569784,0.537745,-0.000885,-0.071709,0.633098,0.000712,-0.081656,-0.101427,11.421863,0.020716,-0.012778,0.0,0.0,0.0
138752,-0.004266,-0.017307,0.013274,-0.007443,-0.094433,0.618461,0.0,-0.078073,0.621927,-0.0,0.558566,0.532162,0.58165,0.538813,-0.000871,-0.073334,0.631072,0.000717,-0.080696,-0.100758,11.407408,0.016887,-0.014086,0.0,0.0,0.0
138772,-0.000471,-0.015622,0.013427,-0.008272,-0.093778,0.616424,0.0,-0.079973,0.620027,-0.0,0.572448,0.526354,0.569353,0.543018,-0.000857,-0.074942,0.629063,0.000721,-0.079784,-0.100101,11.406768,0.025299,-0.011226,0.0,0.0,0.0
138792,0.004049,-0.014799,0.013704,-0.009241,-0.093399,0.61415,0.0,-0.081986,0.618014,-0.0,0.575375,0.53339,0.572048,0.530793,-0.000842,-0.07653,0.627064,0.000726,-0.078892,-0.099682,11.415787,0.02946,-0.010319,0.0,0.0,0.0
138812,0.006489,-0.015059,0.013723,-0.010011,-0.092754,0.612233,0.0,-0.083812,0.616188,-0.0,0.587536,0.540859,0.557622,0.524613,-0.000828,-0.078102,0.625072,0.00073,-0.078144,-0.099537,11.409443,0.035108,-0.008435,0.0,0.0,0.0
138832,0.010027,-0.015451,0.013753,-0.011054,-0.092184,0.610486,0.0,-0.085358,0.614642,-0.0,0.572031,0.535741,0.570355,0.533395,-0.000813,-0.079661,0.623081,0.000733,-0.077648,-0.099711,11.409594,0.039076,-0.006262,0.0,0.0,0.0
138852,0.013449,-0.014621,0.014017,-0.011846,-0.091515,0.609062,0.0,-0.086903,0.613097,-0.0,0.576914,0.537986,0.566512,0.529393,-0.000799,-0.081212,0.621084,0.000737,-0.077502,-0.10007,11.40334,0.042725,-0.005305,0.0,0.0,0.0
138872,0.015284,-0.014023,0.014026,-0.012855,-0.090857,0.607714,0.0,-0.088445,0.611555,-0.0,0.579562,0.53706,0.563429,0.530685,-0.000784,-0.082764,0.61908,0.00074,-0.077737,-0.100403,11.402886,0.044269,-0.003301,0.0,0.0,0.0
138892,0.020158,-0.015277,0.014071,-0.013906,-0.09053,0.606455,0.0,-0.088445,0.611555,-0.0,0.565323,0.539332,0.57505,0.530204,-0.000769,-0.084322,0.61707,0.000742,-0.078302,-0.100659,11.389897,0.04606,-0.002697,0.0,0.0,0.0
138912,0.023343,-0.013832,0.013955,-0.015064,-0.089818,0.605065,0.0,-0.089964,0.610036,-0.0,0.57282,0.530838,0.569071,0.536003,-0.000754,-0.085894,0.615055,0.000745,-0.079123,-0.100845,11.376662,0.047566,-0.001218,0.0,0.0,0.0
138932,0.027128,-0.013979,0.013861,-0.015064,-0.089818,0.605065,0.0,-0.092373,0.607627,-0.0,0.561045,0.541348,0.585168,0.524634,-0.000739,-0.087484,0.613041,0.000747,-0.080127,-0.100173,11.426878,0.040857,0.00023,0.0,0.0,0.0
138952,0.029456,-0.013135,0.013498,-0.01633,-0.088982,0.603917,0.0,-0.093935,0.606065,-0.0,0.576881,0.536439,0.571164,0.526518,-0.000724,-0.089093,0.611044,0.000749,-0.08104,-0.099308,11.410173,0.043698,0.001931,0.0,0.0,0.0
138972,0.031183,-0.010819,0.012983,-0.018008,-0.088772,0.602605,0.0,-0.0955,0.6045,-0.0,0.586234,0.512661,0.567093,0.534644,-0.000709,-0.09072,0.609062,0.000751,-0.081763,-0.099,11.301819,0.046878,-0.001594,0.0,0.0,0.0
138992,0.031307,-0.011055,0.012378,-0.019609,-0.088637,0.601559,0.0,-0.0955,0.6045,-0.0,0.588123,0.53066,0.563564,0.51804,-0.000694,-0.09236,0.607083,0.000752,-0.082493,-0.098868,11.2962,0.049533,0.001049,0.0,0.0,0.0
139012,0.031931,-0.009218,0.011741,-0.019609,-0.088637,0.601559,0.0,-0.097367,0.602633,-0.0,0.581725,0.527944,0.569279,0.522037,-0.000679,-0.094016,0.605106,0.000753,-0.083327,-0.09874,11.298413,0.049139,0.005035,0.0,0.0,0.0
139032,0.031579,-0.007255,0.01122,-0.021277,-0.088605,0.600726,0.0,-0.099194,0.600806,-0.0,0.579338,0.525958,0.57321,0.527117,-0.000664,-0.09569,0.603137,0.000754,-0.08424,-0.09781,11.352742,0.041898,0.008021,0.0,0.0,0.0
139052,0.029992,-0.007603,0.010611,-0.022775,-0.088616,0.600071,0.0,-0.100936,0.599064,-0.0,0.585957,0.52084,0.561103,0.531316,-0.000649,-0.097381,0.601188,0.000755,-0.084978,-0.096914,11.276572,0.043569,0.003655,0.0,0.0,0.0
139072,0.029639,-0.005516,0.009846,-0.024373,-0.088797,0.599458,0.0,-0.102887,0.597113,-0.0,0.587304,0.523188,0.563771,0.52232,-0.000634,-0.099084,0.599254,0.000755,-0.085504,-0.096342,11.250547,0.045006,0.007361,0.0,0.0,0.0
139092,0.027575,-0.003176,0.009075,-0.026067,-0.089287,0.598942,0.0,-0.10457,0.59543,-0.0,0.598775,0.518849,0.552322,0.523365,-0.000619,-0.100798,0.597331,0.000755,-0.085955,-0.095992,11.223911,0.045732,0.009727,0.0,0.0,0.0
139112,0.024647,-0.003154,0.008339,-0.02767,-0.089817,0.598523,0.0,-0.106219,0.593781,-0.0,0.595491,0.525023,0.551956,0.518588,-0.000604,-0.10252,0.595412,0.000755,-0.086423,-0.09592,11.191619,0.046613,0.01217,0.0,0.0,0.0
139132,0.024289,-0.001192,0.007704,-0.028955,-0.09027,0.598214,0.0,-0.10776,0.59224,-0.0,0.589278,0.526456,0.558505,0.515562,-0.000589,-0.104253,0.593493,0.000754,-0.086982,-0.095975,11.172086,0.044966,0.014676,0.0,0.0,0.0
139152,0.022585,0.000164,0.007078,-0.030476,-0.090832,0.597947,0.0,-0.109299,0.590701,-0.0,0.593111,0.523877,0.555521,0.515231,-0.000574,-0.105997,0.591573,0.000754,-0.087651,-0.09607,11.152676,0.043428,0.016427,0.0,0.0,0.0
139172,0.021977,0.00066,0.006584,-0.030476,-0.090832,0.597947,0.0,-0.110824,0.589176,-0.0,0.57942,0.521661,0.563406,0.523235,-0.000558,-0.107756,0.589651,0.000753,-0.088407,-0.096134,11.136564,0.042154,0.016597,0.0,0.0,0.0
139192,0.021134,0.004696,0.006054,-0.032239,-0.091532,0.597688,0.0,-0.110824,0.589176,-0.0,0.584753,0.510054,0.561176,0.529575,-0.000543,-0.10953,0.587728,0.000752,-0.089205,-0.096147,11.120538,0.040751,0.017868,0.0,0.0,0.0
139212,0.019913,0.005192,0.005685,-0.034686,-0.092708,0.597345,0.0,-0.11262,0.58738,-0.0,0.588815,0.512768,0.550984,0.531079,-0.000528,-0.11132,0.585805,0.00075,-0.089999,-0.096107,11.096124,0.042069,0.012479,0.0,0.0,0.0
139232,0.020037,0.006661,0.005182,-0.036129,-0.093527,0.59719,0.0,-0.114703,0.585297,-0.0,0.571461,0.521362,0.572251,0.523853,-0.000513,-0.113126,0.583888,0.000749,-0.090743,-0.095231,11.149797,0.033678,0.015785,0.0,0.0,0.0
139252,0.020163,0.007762,0.004927,-0.037974,-0.094634,0.597028,0.0,-0.116711,0.583289,-0.0,0.57978,0.529369,0.567417,0.509147,-0.000498,-0.114945,0.581991,0.000747,-0.091194,-0.09433,11.121621,0.03262,0.021523,0.0,0.0,0.0
139272,0.019062,0.00838,0.004436,-0.037974,-0.094634,0.597028,0.0,-0.118333,0.581667,-0.0,0.58708,0.522082,0.555334,0.517663,-0.000483,-0.11677,0.580108,0.000745,-0.091319,-0.09386,11.077799,0.034601,0.021997,0.0,0.0,0.0
139292,0.016989,0.010096,0.004065,-0.039586,-0.095878,0.596926,0.0,-0.118333,0.581667,-0.0,0.590958,0.519812,0.548166,0.520197,-0.000469,-0.118596,0.578233,0.000743,-0.091307,-0.09376,11.044418,0.03474,0.024243,0.0,0.0,0.0
139312,0.015767,0.010224,0.003704,-0.041329,-0.097307,0.596821,0.0,-0.12018,0.57982,-0.0,0.593501,0.517229,0.549797,0.516363,-0.000454,-0.120422,0.576357,0.00074,-0.091316,-0.093755,11.025277,0.038034,0.01827,0.0,0.0,0.0
139332,0.014057,0.011085,0.003218,-0.042894,-0.098624,0.596711,0.0,-0.122219,0.577781,-0.0,0.580467,0.524798,0.561687,0.515783,-0.000439,-0.122249,0.574486,0.000738,-0.091369,-0.092927,11.080103,0.028482,0.020466,0.0,0.0,0.0
139352,0.012349,0.013165,0.002971,-0.04456,-0.100128,0.596581,0.0,-0.123927,0.576073,-0.0,0.584015,0.519006,0.554665,0.52233,-0.000424,-0.124076,0.572635,0.000735,-0.091219,-0.092095,11.047605,0.027927,0.022943,0.0,0.0,0.0
139372,0.011005,0.013168,0.002736,-0.046036,-0.101775,0.596416,0.0,-0.125801,0.574199,-0.0,0.581857,0.525197,0.554838,0.515218,-0.00041,-0.125897,0.570797,0.000732,-0.090826,-0.091672,11.011825,0.028849,0.024321,0.0,0.0,0.0
139392,0.009784,0.015003,0.002368,-0.047288,-0.103195,0.59621,0.0,-0.127453,0.572547,-0.0,0.584517,0.513769,0.553738,0.523416,-0.000395,-0.127711,0.568965,0.000728,-0.09036,-0.09145,10.996292,0.027432,0.026008,0.0,0.0,0.0
139412,0.008074,0.015617,0.002135,-0.04846,-0.10455,0.596029,0.0,-0.128988,0.571012,-0.0,0.586502,0.518331,0.553071,0.515603,-0.00038,-0.129514,0.567137,0.000725,-0.089923,-0.091426,10.976838,0.026441,0.026701,0.0,0.0,0.0
139432,0.007952,0.017937,0.001882,-0.049401,-0.105968,0.595793,0.0,-0.128988,0.571012,-0.0,0.578647,0.513217,0.560127,0.521492,-0.000366,-0.13131,0.565308,0.000721,-0.089573,-0.091478,10.970796,0.025711,0.02645,0.0,0.0,0.0
139452,0.007096,0.019892,0.001517,-0.049401,-0.105968,0.595793,0.0,-0.130533,0.569467,-0.0,0.589479,0.513756,0.549184,0.520133,-0.000352,-0.133099,0.563478,0.000718,-0.089324,-0.091492,10.968351,0.024948,0.026037,0.0,0.0,0.0
139472,0.006239,0.020016,0.001281,-0.050391,-0.107377,0.595532,0.0,-0.132361,0.567639,-0.0,0.575058,0.519187,0.564144,0.520516,-0.000337,-0.134885,0.561653,0.000713,-0.089133,-0.090661,11.030746,0.017512,0.024848,0.0,0.0,0.0
139492,0.006114,0.021971,0.00091,-0.051399,-0.109073,0.595127,0.0,-0.134188,0.565812,-0.0,0.586885,0.506239,0.554146,0.528477,-0.000323,-0.136665,0.559847,0.000709,-0.088747,-0.089665,11.006952,0.024236,0.019972,0.0,0.0,0.0
139512,0.005622,0.021606,0.00055,-0.052136,-0.110627,0.594773,0.0,-0.13587,0.56413,-0.0,0.587137,0.517463,0.552515,0.517086,-0.000309,-0.138435,0.55806,0.000705,-0.088091,-0.088943,10.985221,0.024903,0.020388,0.0,0.0,0.0
139532,0.005008,0.021974,0.000189,-0.052136,-0.110627,0.594773,0.0,-0.13587,0.56413,-0.0,0.580056,0.509907,0.558943,0.524521,-0.000295,-0.140191,0.556285,0.0007,-0.087303,-0.088497,10.9721,0.024256,0.02092,0.0,0.0,0.0
139552,0.005249,0.020386,-5.4e-05,-0.053334,-0.114331,0.59371,0.0,-0.137909,0.562091,-0.0,0.583228,0.526226,0.5572,0.505561,-0.000281,-0.141931,0.554517,0.000695,-0.086521,-0.088208,10.963371,0.023767,0.020312,0.0,0.0,0.0
139572,0.006465,0.01819,-0.000547,-0.053334,-0.114331,0.59371,0.0,-0.139544,0.560456,-0.0,0.577444,0.524135,0.566213,0.5086,-0.000267,-0.143656,0.552759,0.00069,-0.0858,-0.08716,11.010114,0.022861,0.016765,0.0,0.0,0.0
139592,0.006828,0.017337,-0.000914,-0.053525,-0.116106,0.593177,0.0,-0.141487,0.558513,-0.0,0.568819,0.522055,0.574577,0.51081,-0.000253,-0.145366,0.551024,0.000685,-0.084938,-0.086251,11.006905,0.015001,0.019139,0.0,0.0,0.0
139612,0.008047,0.013922,-0.001399,-0.0536,-0.117907,0.592622,0.0,-0.14326,0.55674,-0.0,0.592293,0.527398,0.553073,0.499092,-0.000239,-0.147057,0.549304,0.00068,-0.083943,-0.085599,10.974748,0.022831,0.01603,0.0,0.0,0.0
139632,0.007556,0.012093,-0.002121,-0.053598,-0.119822,0.591993,0.0,-0.145262,0.554738,-0.0,0.588087,0.519949,0.559134,0.503551,-0.000226,-0.148729,0.547595,0.000675,-0.08295,-0.085252,10.956982,0.022923,0.014427,0.0,0.0,0.0
139652,0.008167,0.0088,-0.002722,-0.053598,-0.119822,0.591993,0.0,-0.145262,0.554738,-0.0,0.575971,0.529034,0.567203,0.498437,-0.000212,-0.150381,0.545891,0.000669,-0.082074,-0.085126,10.949199,0.022193,0.012725,0.0,0.0,0.0
139672,0.008901,0.006118,-0.003324,-0.053543,-0.12365,0.590701,0.0,-0.146952,0.553048,-0.0,0.580545,0.526143,0.562459,0.500239,-0.000199,-0.152017,0.544188,0.000663,-0.081391,-0.085271,10.934802,0.022132,0.011098,0.0,0.0,0.0
139692,0.008781,0.004168,-0.003925,-0.053364,-0.125178,0.590134,0.0,-0.148663,0.551337,-0.0,0.579646,0.514117,0.567899,0.511544,-0.000186,-0.153641,0.542485,0.000657,-0.080946,-0.084648,10.978899,0.021746,0.009871,0.0,0.0,0.0
139712,0.010375,0.000878,-0.004522,-0.053127,-0.126747,0.589549,0.0,-0.150207,0.549793,-0.0,0.570468,0.531868,0.579477,0.491761,-0.000173,-0.155257,0.540798,0.000651,-0.080508,-0.083918,10.996987,0.01227,0.008717,0.0,0.0,0.0
139732,0.010256,-0.000461,-0.005369,-0.053127,-0.126747,0.589549,0.0,-0.151747,0.548253,-0.0,0.587874,0.521018,0.563864,0.499367,-0.00016,-0.156863,0.539124,0.000645,-0.079985,-0.083397,10.979676,0.014566,0.007323,0.0,0.0,0.0
139752,0.008433,-0.003026,-0.006091,-0.052748,-0.128479,0.588958,0.0,-0.153594,0.546406,-0.0,0.592803,0.524493,0.561552,0.491551,-0.000147,-0.158459,0.53746,0.000639,-0.079468,-0.082969,10.971857,0.015547,0.006009,0.0,0.0,0.0
139772,0.008321,-0.005708,-0.007057,-0.052212,-0.130905,0.588127,0.0,-0.15573,0.54427,-0.0,0.599507,0.529902,0.554237,0.482674,-0.000134,-0.160045,0.535803,0.000632,-0.07901,-0.082589,10.940356,0.023085,0.006026,0.0,0.0,0.0
139792,0.006127,-0.005957,-0.007917,-0.051864,-0.132607,0.587519,0.0,-0.157302,0.542698,-0.0,0.589891,0.505895,0.559134,0.512705,-0.000122,-0.161622,0.534153,0.000626,-0.078632,-0.082407,10.924883,0.023118,0.004475,0.0,0.0,0.0
139812,0.004058,-0.006697,-0.008655,-0.051696,-0.134833,0.586709,0.0,-0.157302,0.542698,-0.0,0.592675,0.50979,0.558821,0.504378,-0.000109,-0.163193,0.532505,0.000619,-0.078388,-0.082589,10.908782,0.021441,0.002596,0.0,0.0,0.0
139832,0.003698,-0.007673,-0.009387,-0.051696,-0.134833,0.586709,0.0,-0.159084,0.540916,-0.0,0.588569,0.517172,0.557933,0.502766,-9.7e-05,-0.16476,0.530851,0.000612,-0.078377,-0.082829,10.908543,0.020801,0.00193,0.0,0.0,0.0
139852,0.004067,-0.00767,-0.009996,-0.051193,-0.137197,0.585823,0.0,-0.160732,0.539268,-0.0,0.575397,0.512869,0.576041,0.508538,-8.5e-05,-0.166329,0.529197,0.000605,-0.07859,-0.082209,10.980461,0.011294,0.00221,0.0,0.0,0.0
139872,0.004686,-0.008887,-0.010601,-0.05083,-0.139227,0.584978,0.0,-0.162582,0.537418,-0.0,0.590849,0.524514,0.559977,0.491914,-7.3e-05,-0.167902,0.527558,0.000598,-0.078745,-0.081527,10.930581,0.020805,0.003208,0.0,0.0,0.0
139892,0.004435,-0.007055,-0.011338,-0.050444,-0.141158,0.584119,0.0,-0.164365,0.535635,-0.0,0.586545,0.503182,0.564363,0.513975,-6.1e-05,-0.169477,0.525932,0.000591,-0.078764,-0.081027,10.930498,0.017819,0.001906,0.0,0.0,0.0
139912,0.003461,-0.007304,-0.01183,-0.050319,-0.143446,0.583119,0.0,-0.166275,0.533725,-0.0,0.589935,0.514988,0.557423,0.504913,-4.9e-05,-0.171052,0.524314,0.000584,-0.07874,-0.080759,10.919123,0.017718,0.001492,0.0,0.0,0.0
139932,0.004931,-0.00766,-0.012434,-0.050319,-0.143446,0.583119,0.0,-0.166275,0.533725,-0.0,0.579575,0.516813,0.569031,0.50149,-3.7e-05,-0.172627,0.5227,0.000577,-0.078766,-0.080684,10.912034,0.017791,0.001105,0.0,0.0,0.0
139952,0.005899,-0.006066,-0.012923,-0.049608,-0.147602,0.580935,0.0,-0.168043,0.531957,-0.0,0.585605,0.507546,0.565277,0.507469,-2.6e-05,-0.174203,0.521085,0.000569,-0.078908,-0.080823,10.905276,0.016877,0.001949,0.0,0.0,0.0
139972,0.005416,-0.006678,-0.013411,-0.049608,-0.147602,0.580935,0.0,-0.169725,0.530275,-0.0,0.583953,0.514739,0.564952,0.505346,-1.4e-05,-0.175784,0.519471,0.000562,-0.079203,-0.080176,10.936256,0.017774,0.003215,0.0,0.0,0.0
139992,0.005776,-0.005576,-0.013779,-0.048996,-0.150938,0.578893,0.0,-0.17127,0.52873,-0.0,0.575762,0.509789,0.575662,0.511377,-3e-06,-0.17737,0.517874,0.000554,-0.079413,-0.079465,10.977507,0.00825,0.001229,0.0,0.0,0.0
140012,0.005051,-0.006434,-0.014268,-0.048996,-0.150938,0.578893,0.0,-0.172818,0.527182,-0.0,0.592117,0.51805,0.552998,0.504437,8e-06,-0.178958,0.516289,0.000546,-0.07946,-0.078957,10.922904,0.018004,0.002713,0.0,0.0,0.0
140032,0.005672,-0.007649,-0.014628,-0.048845,-0.152713,0.577795,0.0,-0.174565,0.525435,-0.0,0.574631,0.517617,0.577215,0.502037,1.9e-05,-0.180547,0.514713,0.000539,-0.07944,-0.078533,10.967754,0.011006,0.001329,0.0,0.0,0.0
140052,0.005301,-0.006796,-0.01512,-0.048341,-0.154784,0.576383,0.0,-0.176335,0.523665,-0.0,0.600361,0.514874,0.550031,0.500503,2.9e-05,-0.182136,0.513145,0.000531,-0.0794,-0.07816,10.91818,0.019672,0.002872,0.0,0.0,0.0
140072,0.003346,-0.006444,-0.015494,-0.048249,-0.156455,0.575231,0.0,-0.178275,0.521725,-0.0,0.592279,0.509187,0.557548,0.50734,4e-05,-0.183724,0.511584,0.000523,-0.079363,-0.077934,10.913663,0.019961,0.003518,0.0,0.0,0.0
140092,0.003968,-0.007782,-0.015733,-0.047773,-0.158603,0.573685,0.0,-0.178275,0.521725,-0.0,0.584686,0.523529,0.563235,0.495863,5e-05,-0.185311,0.510026,0.000515,-0.079368,-0.077876,10.921096,0.019042,0.002559,0.0,0.0,0.0
140112,0.004573,-0.006922,-0.016099,-0.047773,-0.158603,0.573685,0.0,-0.179915,0.520085,-0.0,0.584887,0.510473,0.559518,0.512102,6e-05,-0.186899,0.508468,0.000507,-0.07946,-0.078048,10.907866,0.020757,0.003596,0.0,0.0,0.0
140132,0.004948,-0.008017,-0.016095,-0.047384,-0.160415,0.572141,0.0,-0.181687,0.518313,-0.0,0.575363,0.519012,0.575238,0.504366,7.1e-05,-0.188489,0.506909,0.000499,-0.079681,-0.077437,10.992939,0.011784,0.002822,0.0,0.0,0.0
140152,0.005311,-0.007525,-0.016339,-0.046959,-0.162404,0.570468,0.0,-0.18352,0.51648,-0.0,0.595359,0.521717,0.552145,0.498169,8e-05,-0.190084,0.505366,0.000491,-0.079794,-0.076696,10.929059,0.020781,0.004277,0.0,0.0,0.0
140172,0.005196,-0.00838,-0.016459,-0.04683,-0.164373,0.568849,0.0,-0.185367,0.514633,-0.0,0.584787,0.516349,0.561215,0.506774,9e-05,-0.19168,0.503837,0.000482,-0.07971,-0.076192,10.93429,0.020883,0.003826,0.0,0.0,0.0
140192,0.006308,-0.009958,-0.01645,-0.04683,-0.164373,0.568849,0.0,-0.185367,0.514633,-0.0,0.576985,0.528088,0.567165,0.497487,0.0001,-0.193273,0.502315,0.000474,-0.079532,-0.075942,10.940553,0.02049,0.003342,0.0,0.0,0.0
140212,0.008011,-0.009212,-0.016444,-0.046272,-0.166138,0.567108,0.0,-0.187352,0.512648,-0.0,0.574801,0.513175,0.569559,0.512845,0.000109,-0.194862,0.500797,0.000466,-0.07937,-0.075921,10.941619,0.020336,0.004258,0.0,0.0,0.0
140232,0.009239,-0.010179,-0.016311,-0.04573,-0.169887,0.563523,0.0,-0.189081,0.510919,-0.0,0.578316,0.523326,0.565297,0.504091,0.000118,-0.196449,0.499282,0.000457,-0.079288,-0.075143,10.951067,0.020756,0.005592,0.0,0.0,0.0
140252,0.010571,-0.008948,-0.016189,-0.04573,-0.169887,0.563523,0.0,-0.190767,0.509233,-0.0,0.578911,0.512791,0.565727,0.513367,0.000128,-0.198033,0.497785,0.000449,-0.079071,-0.074448,10.947652,0.022061,0.004315,0.0,0.0,0.0
140272,0.011059,-0.008944,-0.016186,-0.045353,-0.172848,0.560422,0.0,-0.192308,0.507692,-0.0,0.580837,0.520243,0.569919,0.506296,0.000136,-0.199612,0.4963,0.000441,-0.078698,-0.07403,11.030785,0.013514,0.003384,0.0,0.0,0.0
140292,0.011931,-0.01089,-0.016296,-0.045353,-0.172848,0.560422,0.0,-0.193825,0.506175,-0.0,0.587364,0.532356,0.556661,0.493505,0.000145,-0.201183,0.494822,0.000432,-0.078295,-0.073777,10.951416,0.022506,0.004988,0.0,0.0,0.0
140312,0.012286,-0.009544,-0.016302,-0.044695,-0.175682,0.557203,0.0,-0.195451,0.504549,-0.0,0.574407,0.518862,0.574044,0.509489,0.000154,-0.202746,0.493348,0.000424,-0.077932,-0.073582,11.020116,0.016479,0.004704,0.0,0.0,0.0
140332,0.010956,-0.011019,-0.016423,-0.044695,-0.175682,0.557203,0.0,-0.197558,0.502442,-0.0,0.597268,0.529813,0.546765,0.494913,0.000162,-0.204302,0.491877,0.000415,-0.077626,-0.0734,10.947462,0.024214,0.006129,0.0,0.0,0.0
140352,0.009866,-0.012004,-0.016546,-0.044477,-0.177256,0.555573,0.0,-0.199203,0.500797,-0.0,0.581982,0.516195,0.568769,0.509131,0.00017,-0.205853,0.49041,0.000407,-0.07737,-0.07328,11.016607,0.018809,0.004494,0.0,0.0,0.0
140372,0.009736,-0.010906,-0.016674,-0.044151,-0.178817,0.55383,0.0,-0.199203,0.500797,-0.0,0.595883,0.519231,0.547638,0.504202,0.000179,-0.207399,0.488944,0.000398,-0.077173,-0.073477,10.918643,0.028686,0.006026,0.0,0.0,0.0
140392,0.008649,-0.012135,-0.01692,-0.043964,-0.180269,0.552173,0.0,-0.201219,0.498782,-0.0,0.588573,0.521649,0.555277,0.502577,0.000186,-0.208941,0.487472,0.00039,-0.077115,-0.073778,10.924582,0.027995,0.006367,0.0,0.0,0.0
140412,0.007051,-0.010927,-0.016931,-0.043639,-0.181655,0.550476,0.0,-0.2031,0.4969,-0.0,0.585811,0.515267,0.563756,0.509878,0.000194,-0.210484,0.485999,0.000381,-0.07721,-0.073238,11.001369,0.020455,0.006219,0.0,0.0,0.0
140432,0.006443,-0.011176,-0.016933,-0.043623,-0.183307,0.548535,0.0,-0.205004,0.494996,-0.0,0.59134,0.525745,0.555389,0.499518,0.000202,-0.212029,0.484538,0.000372,-0.077199,-0.07276,10.97605,0.023482,0.006727,0.0,0.0,0.0
140452,0.006084,-0.011911,-0.017177,-0.04328,-0.185269,0.546185,0.0,-0.206756,0.493244,-0.0,0.597372,0.527002,0.552706,0.49245,0.000209,-0.213572,0.483085,0.000364,-0.077049,-0.072606,10.962101,0.025676,0.00658,0.0,0.0,0.0
140472,0.005959,-0.011423,-0.017302,-0.043101,-0.186888,0.544101,0.0,-0.206756,0.493244,-0.0,0.59352,0.519251,0.554087,0.503565,0.000216,-0.215111,0.481632,0.000355,-0.076901,-0.07271,10.95883,0.02644,0.007823,0.0,0.0,0.0
140492,0.006204,-0.011543,-0.017422,-0.043101,-0.186888,0.544101,0.0,-0.208799,0.491201,-0.0,0.585112,0.525895,0.567851,0.49281,0.000223,-0.216649,0.480177,0.000347,-0.076853,-0.072952,10.979029,0.025105,0.007463,0.0,0.0,0.0
140512,0.006432,-0.009588,-0.017427,-0.042985,-0.188442,0.542019,0.0,-0.210542,0.489458,-0.0,0.58191,0.519727,0.569555,0.508278,0.00023,-0.218186,0.47872,0.000338,-0.076932,-0.072381,11.056044,0.017992,0.007911,0.0,0.0,0.0
140532,0.006198,-0.010565,-0.017791,-0.043041,-0.190239,0.539635,0.0,-0.21216,0.48784,-0.0,0.596711,0.518759,0.550858,0.502733,0.000237,-0.219725,0.477277,0.00033,-0.076896,-0.071891,10.947281,0.027965,0.009077,0.0,0.0,0.0
140552,0.00582,-0.009226,-0.017919,-0.042791,-0.191593,0.537841,0.0,-0.213696,0.486304,-0.0,0.590858,0.513301,0.562238,0.50352,0.000243,-0.221262,0.475841,0.000321,-0.076717,-0.071661,10.9568,0.028133,0.009564,0.0,0.0,0.0
140572,0.00704,-0.009092,-0.018035,-0.042775,-0.192898,0.536044,0.0,-0.215239,0.484761,-0.0,0.58484,0.517352,0.562623,0.508377,0.00025,-0.222795,0.474409,0.000312,-0.076517,-0.071533,10.981416,0.026718,0.010735,0.0,0.0,0.0
140592,0.00789,-0.008473,-0.018278,-0.042658,-0.194029,0.534236,0.0,-0.216817,0.483183,-0.0,0.586121,0.516517,0.564634,0.5053,0.000256,-0.224324,0.472979,0.000304,-0.076348,-0.071426,10.979996,0.027156,0.010412,0.0,0.0,0.0
140612,0.00726,-0.006281,-0.018411,-0.042482,-0.195816,0.531599,0.0,-0.218697,0.481303,-0.0,0.59177,0.509587,0.5603,0.510281,0.000262,-0.22585,0.471551,0.000295,-0.076216,-0.071329,10.977836,0.027787,0.011198,0.0,0.0,0.0
140632,0.007258,-0.005914,-0.018656,-0.042482,-0.195816,0.531599,0.0,-0.218697,0.481303,-0.0,0.594921,0.516813,0.560168,0.498933,0.000268,-0.227373,0.470125,0.000287,-0.076115,-0.071258,10.974513,0.029237,0.011439,0.0,0.0,0.0
140652,0.007973,-0.004076,-0.018783,-0.042585,-0.197185,0.529776,0.0,-0.220426,0.479574,-0.0,0.593477,0.512847,0.561349,0.505142,0.000274,-0.228895,0.4687,0.000278,-0.076047,-0.07137,10.993041,0.028929,0.011422,0.0,0.0,0.0
140672,0.008107,-0.005295,-0.018778,-0.042585,-0.198723,0.527486,0.0,-0.22235,0.47765,-0.0,0.589171,0.528617,0.558743,0.495282,0.000279,-0.230416,0.467275,0.00027,-0.076045,-0.070717,10.976331,0.028314,0.012207,0.0,0.0,0.0
140692,0.009678,-0.003571,-0.018782,-0.04225,-0.200212,0.525371,0.0,-0.224145,0.475855,-0.0,0.58621,0.526047,0.561706,0.497301,0.000284,-0.231936,0.465867,0.000261,-0.075896,-0.070002,10.966235,0.029394,0.013329,0.0,0.0,0.0
140712,0.010163,-0.003323,-0.01866,-0.042222,-0.201611,0.523161,0.0,-0.226152,0.473848,-0.0,0.583082,0.517776,0.56481,0.50638,0.00029,-0.233451,0.46447,0.000253,-0.075547,-0.069634,10.968629,0.030424,0.013842,0.0,0.0,0.0
140732,0.010525,-0.002832,-0.01854,-0.041999,-0.203262,0.520766,0.0,-0.227895,0.472105,-0.0,0.591762,0.518822,0.555653,0.505222,0.000295,-0.234959,0.463079,0.000244,-0.075145,-0.069521,10.968003,0.030956,0.012862,0.0,0.0,0.0
140752,0.010502,-0.000392,-0.01843,-0.041787,-0.204719,0.518664,0.0,-0.227895,0.472105,-0.0,0.589118,0.503947,0.555992,0.52224,0.000299,-0.236459,0.461687,0.000236,-0.074805,-0.069712,10.962192,0.03273,0.013424,0.0,0.0,0.0
140772,0.010877,-0.001365,-0.018303,-0.041787,-0.204719,0.518664,0.0,-0.229743,0.470257,-0.0,0.58688,0.517053,0.562234,0.506159,0.000304,-0.237954,0.460291,0.000228,-0.074619,-0.070053,10.975449,0.032004,0.013086,0.0,0.0,0.0
140792,0.012447,0.000479,-0.018069,-0.041619,-0.206298,0.516411,0.0,-0.231646,0.468354,-0.0,0.579529,0.522324,0.568695,0.508471,0.000308,-0.239446,0.458891,0.000219,-0.074606,-0.069575,11.046057,0.024793,0.012899,0.0,0.0,0.0
140812,0.012334,-0.0005,-0.017941,-0.041497,-0.207755,0.514178,0.0,-0.233337,0.466663,-0.0,0.593633,0.517704,0.553057,0.504422,0.000313,-0.240938,0.457504,0.000211,-0.074512,-0.069076,10.939619,0.033167,0.013698,0.0,0.0,0.0
140832,0.011474,0.000102,-0.0177,-0.041112,-0.209099,0.512403,0.0,-0.234887,0.465113,-0.0,0.588851,0.528699,0.556716,0.494841,0.000317,-0.242426,0.456124,0.000203,-0.074274,-0.068901,10.943382,0.033468,0.013668,0.0,0.0,0.0
140852,0.010863,0.000217,-0.017457,-0.040868,-0.21048,0.510654,0.0,-0.236423,0.463577,-0.0,0.59152,0.517244,0.552338,0.50951,0.000321,-0.24391,0.454747,0.000195,-0.074026,-0.068897,10.953662,0.033369,0.013875,0.0,0.0,0.0
140872,0.011242,-0.001247,-0.017083,-0.040586,-0.211825,0.508944,0.0,-0.238084,0.461916,-0.0,0.589745,0.525779,0.551479,0.503274,0.000325,-0.245389,0.453369,0.000187,-0.073846,-0.068927,10.948436,0.033218,0.012956,0.0,0.0,0.0
140892,0.011353,-2.8e-05,-0.016601,-0.040065,-0.213088,0.507247,0.0,-0.239871,0.460129,-0.0,0.58542,0.518355,0.555847,0.510801,0.000328,-0.246865,0.45199,0.000179,-0.07374,-0.068955,10.943341,0.032919,0.012848,0.0,0.0,0.0
140912,0.011725,-0.00076,-0.016109,-0.039831,-0.214376,0.505576,0.0,-0.239871,0.460129,-0.0,0.585755,0.526916,0.553596,0.50298,0.000332,-0.248339,0.45061,0.000171,-0.073695,-0.069043,10.931799,0.033415,0.012635,0.0,0.0,0.0
140932,0.011956,0.000948,-0.015631,-0.039379,-0.21566,0.503913,0.0,-0.241605,0.458395,-0.0,0.588913,0.516946,0.549501,0.51262,0.000335,-0.249813,0.449228,0.000163,-0.073714,-0.069266,10.916054,0.034763,0.011466,0.0,0.0,0.0
140952,0.010495,0.000444,-0.014895,-0.039107,-0.217018,0.502261,0.0,-0.243532,0.456468,-0.0,0.582961,0.527631,0.549361,0.514161,0.000339,-0.251288,0.447845,0.000155,-0.073815,-0.0687,10.975627,0.028109,0.011777,0.0,0.0,0.0
140972,0.010367,0.001295,-0.014411,-0.038594,-0.218408,0.500602,0.0,-0.245404,0.454596,-0.0,0.592906,0.526989,0.544838,0.505801,0.000342,-0.252765,0.446476,0.000147,-0.073772,-0.068073,10.951547,0.030209,0.011125,0.0,0.0,0.0
140992,0.00965,-0.000788,-0.013791,-0.038182,-0.220074,0.498667,0.0,-0.247162,0.452838,-0.0,0.590346,0.539101,0.542063,0.496307,0.000344,-0.254238,0.445117,0.000139,-0.073529,-0.067791,10.923055,0.032465,0.011393,0.0,0.0,0.0
141012,0.008913,-0.000185,-0.013184,-0.03737,-0.221643,0.496831,0.0,-0.247162,0.452838,-0.0,0.584203,0.521388,0.549306,0.512577,0.000347,-0.255707,0.443762,0.000131,-0.073234,-0.067802,10.901888,0.033959,0.010599,0.0,0.0,0.0
141032,0.007686,0.00078,-0.012333,-0.03737,-0.221643,0.496831,0.0,-0.249079,0.450921,-0.0,0.591263,0.523015,0.539059,0.513456,0.00035,-0.25717,0.442405,0.000124,-0.073011,-0.067989,10.900116,0.033538,0.010414,0.0,0.0,0.0
141052,0.006709,0.000893,-0.011601,-0.036874,-0.223486,0.494869,0.0,-0.250919,0.449081,-0.0,0.5756,0.521759,0.553384,0.523419,0.000352,-0.258629,0.441047,0.000116,-0.072904,-0.0674,10.967047,0.026102,0.008563,0.0,0.0,0.0
141072,0.006106,-0.000456,-0.010742,-0.03612,-0.225362,0.492808,0.0,-0.252834,0.447166,-0.0,0.593311,0.530156,0.533976,0.505858,0.000354,-0.260086,0.439704,0.000108,-0.072684,-0.06686,10.865475,0.03507,0.010567,0.0,0.0,0.0
141092,0.005374,-0.000462,-0.009888,-0.035251,-0.227068,0.490931,0.0,-0.254521,0.445479,-0.0,0.587092,0.529931,0.538079,0.509258,0.000357,-0.261537,0.438369,0.000101,-0.072319,-0.066647,10.866633,0.034149,0.010082,0.0,0.0,0.0
141112,0.005134,-0.001564,-0.008786,-0.034656,-0.228429,0.489454,0.0,-0.256072,0.443928,-0.0,0.57516,0.528906,0.543819,0.518153,0.000358,-0.26298,0.437036,9.3e-05,-0.07195,-0.066735,10.86804,0.033625,0.008598,0.0,0.0,0.0
141132,0.005375,-0.000956,-0.007567,-0.033996,-0.229738,0.488013,0.0,-0.257614,0.442386,-0.0,0.580311,0.527685,0.541718,0.515951,0.00036,-0.264417,0.4357,8.6e-05,-0.071687,-0.066968,10.87023,0.032992,0.006908,0.0,0.0,0.0
141152,0.005258,-0.002547,-0.006464,-0.033477,-0.231016,0.486568,0.0,-0.259154,0.440846,-0.0,0.581899,0.533874,0.538558,0.510154,0.000362,-0.26585,0.434359,7.9e-05,-0.071573,-0.067213,10.860518,0.033415,0.006722,0.0,0.0,0.0
141172,0.0066,-0.003035,-0.005118,-0.032629,-0.232637,0.484861,0.0,-0.259154,0.440846,-0.0,0.576116,0.531932,0.540989,0.515427,0.000363,-0.267281,0.433013,7.2e-05,-0.071587,-0.06744,10.85098,0.033981,0.006299,0.0,0.0,0.0
141192,0.007702,-0.005845,-0.003762,-0.032629,-0.232637,0.484861,0.0,-0.26111,0.43889,-0.0,0.575558,0.548498,0.542848,0.495383,0.000365,-0.268713,0.431662,6.5e-05,-0.071695,-0.067646,10.842935,0.034611,0.006561,0.0,0.0,0.0
141212,0.008309,-0.006337,-0.002538,-0.031597,-0.234033,0.48313,0.0,-0.262802,0.437198,-0.0,0.567367,0.537773,0.54895,0.515996,0.000366,-0.270149,0.430312,5.8e-05,-0.071858,-0.067041,10.910301,0.027065,0.005361,0.0,0.0,0.0
141232,0.007941,-0.009272,-0.001306,-0.030797,-0.235738,0.481331,0.0,-0.264717,0.435283,-0.0,0.583141,0.546561,0.52767,0.502227,0.000367,-0.271586,0.428976,5.1e-05,-0.071838,-0.066513,10.812979,0.036338,0.008035,0.0,0.0,0.0
141252,0.008667,-0.009888,4.3e-05,-0.029958,-0.237169,0.479845,0.0,-0.266429,0.433571,-0.0,0.567678,0.531927,0.541241,0.521518,0.000368,-0.273021,0.427648,4.4e-05,-0.071625,-0.066245,10.815631,0.036779,0.005775,0.0,0.0,0.0
141272,0.009149,-0.009528,0.001387,-0.029185,-0.238437,0.478286,0.0,-0.268161,0.431839,-0.0,0.581258,0.534273,0.532854,0.512028,0.000369,-0.274452,0.426324,3.7e-05,-0.071355,-0.066266,10.810688,0.036815,0.00494,0.0,0.0,0.0
141292,0.009509,-0.01051,0.002492,-0.029185,-0.238437,0.478286,0.0,-0.268161,0.431839,-0.0,0.575466,0.535885,0.534975,0.513942,0.00037,-0.275877,0.424997,3e-05,-0.071144,-0.066464,10.801271,0.037199,0.004083,0.0,0.0,0.0
141312,0.010355,-0.011006,0.003842,-0.028457,-0.23992,0.476616,0.0,-0.270083,0.429917,-0.0,0.57271,0.538715,0.535479,0.513022,0.00037,-0.277299,0.423666,2.3e-05,-0.071053,-0.066783,10.795137,0.038345,0.003666,0.0,0.0,0.0
141332,0.01242,-0.012361,0.005204,-0.027702,-0.241253,0.474979,0.0,-0.271806,0.428194,-0.0,0.568754,0.550573,0.540891,0.498967,0.000371,-0.27872,0.422331,1.7e-05,-0.071088,-0.066316,10.796844,0.037334,0.006641,0.0,0.0,0.0
141352,0.014124,-0.011397,0.006428,-0.026952,-0.242631,0.473356,0.0,-0.273574,0.426426,-0.0,0.566995,0.529881,0.540353,0.522745,0.000371,-0.280142,0.421009,1e-05,-0.071011,-0.065894,10.786686,0.038452,0.005924,0.0,0.0,0.0
141372,0.014362,-0.011406,0.007529,-0.026512,-0.243857,0.471857,0.0,-0.275225,0.424775,-0.0,0.573591,0.532232,0.532973,0.520466,0.000371,-0.281561,0.419693,4e-06,-0.070789,-0.065735,10.784638,0.039195,0.005223,0.0,0.0,0.0
141392,0.016675,-0.011424,0.00864,-0.025989,-0.245149,0.470486,0.0,-0.27679,0.42321,-0.0,0.564048,0.531401,0.546946,0.516907,0.000371,-0.282974,0.418378,-2e-06,-0.070541,-0.065785,10.780065,0.039852,0.004666,0.0,0.0,0.0
141412,0.018264,-0.009976,0.009736,-0.025476,-0.246235,0.469114,0.0,-0.278336,0.421664,-0.0,0.570508,0.532571,0.538112,0.517396,0.000371,-0.284384,0.417061,-8e-06,-0.070354,-0.065958,10.775087,0.04059,0.005537,0.0,0.0,0.0
141432,0.019723,-0.010115,0.010721,-0.025153,-0.24739,0.467756,0.0,-0.279894,0.420106,-0.0,0.569074,0.539374,0.540515,0.508726,0.000371,-0.28579,0.415741,-1.5e-05,-0.070264,-0.06617,10.768665,0.040597,0.005885,0.0,0.0,0.0
141452,0.021676,-0.00916,0.011818,-0.024587,-0.248902,0.466114,0.0,-0.279894,0.420106,-0.0,0.562509,0.52921,0.545818,0.520575,0.00037,-0.287195,0.414415,-2.1e-05,-0.07027,-0.06639,10.763357,0.041461,0.006196,0.0,0.0,0.0
141472,0.023021,-0.008203,0.012789,-0.024221,-0.249992,0.464733,0.0,-0.282077,0.417923,-0.0,0.573346,0.534783,0.53554,0.512996,0.00037,-0.288601,0.413086,-2.7e-05,-0.070352,-0.066617,10.757346,0.04197,0.007265,0.0,0.0,0.0
141492,0.024124,-0.006999,0.013633,-0.024221,-0.249992,0.464733,0.0,-0.283688,0.416312,-0.0,0.558755,0.529349,0.550303,0.525436,0.000369,-0.290009,0.411756,-3.2e-05,-0.070486,-0.066049,10.828048,0.03421,0.007083,0.0,0.0,0.0
141512,0.02399,-0.008228,0.014379,-0.023979,-0.251804,0.462813,0.0,-0.285396,0.414604,-0.0,0.57407,0.538382,0.537108,0.509066,0.000369,-0.291419,0.410439,-3.8e-05,-0.070441,-0.065685,10.783742,0.039144,0.007791,0.0,0.0,0.0
141532,0.024981,-0.006045,0.014966,-0.023486,-0.253726,0.461028,0.0,-0.286932,0.413068,-0.0,0.577355,0.525933,0.537623,0.511458,0.000368,-0.292826,0.409126,-4.4e-05,-0.070243,-0.065569,10.713259,0.045429,0.009936,0.0,0.0,0.0
141552,0.024986,-0.005198,0.015565,-0.023113,-0.255412,0.459508,0.0,-0.288819,0.411181,-0.0,0.574009,0.528713,0.5369,0.51469,0.000367,-0.29423,0.407815,-4.9e-05,-0.070024,-0.065611,10.730043,0.043223,0.010639,0.0,0.0,0.0
141572,0.025727,-0.003871,0.016282,-0.022814,-0.257048,0.457936,0.0,-0.29062,0.40938,-0.0,0.571647,0.526132,0.54099,0.517033,0.000366,-0.295629,0.406502,-5.5e-05,-0.069851,-0.065717,10.744945,0.040284,0.010138,0.0,0.0,0.0
141592,0.026722,-0.00181,0.016746,-0.022814,-0.257048,0.457936,0.0,-0.29062,0.40938,-0.0,0.570152,0.52296,0.544306,0.51718,0.000365,-0.297025,0.405186,-6e-05,-0.069746,-0.066028,10.730881,0.040469,0.010249,0.0,0.0,0.0
141612,0.0266,-0.001695,0.017355,-0.022709,-0.259042,0.456135,0.0,-0.292453,0.407547,-0.0,0.572681,0.531829,0.534775,0.514667,0.000364,-0.29842,0.403862,-6.6e-05,-0.069755,-0.066522,10.724069,0.040515,0.010656,0.0,0.0,0.0
141632,0.028081,0.000118,0.017696,-0.022389,-0.260975,0.454573,0.0,-0.294285,0.405715,-0.0,0.562332,0.524146,0.547801,0.520664,0.000362,-0.299816,0.402531,-7.1e-05,-0.069909,-0.066226,10.727736,0.039894,0.012278,0.0,0.0,0.0
141652,0.028947,0.001447,0.018042,-0.022015,-0.263172,0.452783,0.0,-0.295831,0.404169,-0.0,0.561587,0.525505,0.548825,0.519067,0.000361,-0.301215,0.40121,-7.6e-05,-0.069971,-0.065913,10.728319,0.038748,0.013151,0.0,0.0,0.0
141672,0.029466,0.004733,0.018359,-0.021779,-0.26507,0.451323,0.0,-0.297383,0.402617,-0.0,0.57641,0.513835,0.539331,0.523316,0.000359,-0.302614,0.399892,-8.1e-05,-0.069885,-0.065898,10.717828,0.038113,0.012945,0.0,0.0,0.0
141692,0.029709,0.004605,0.018604,-0.021564,-0.267108,0.449843,0.0,-0.298926,0.401074,-0.0,0.567407,0.528819,0.544986,0.513481,0.000358,-0.30401,0.398574,-8.6e-05,-0.069774,-0.065983,10.730245,0.035278,0.012557,0.0,0.0,0.0
141712,0.029972,0.006554,0.018696,-0.021442,-0.269188,0.448337,0.0,-0.298201,0.4,-0.0,0.567011,0.519985,0.54907,0.518152,0.000356,-0.305405,0.397253,-9.1e-05,-0.069697,-0.066109,10.725724,0.034316,0.012839,0.0,0.0,0.0
141732,0.029736,0.007409,0.018807,-0.020963,-0.271859,0.446493,0.0,-0.294745,0.4,-0.0,0.573144,0.523741,0.543185,0.513402,0.000354,-0.306799,0.39593,-9.5e-05,-0.069665,-0.066265,10.721977,0.032924,0.013164,0.0,0.0,0.0
141752,0.02963,0.009119,0.018782,-0.020473,-0.274597,0.444705,0.0,-0.291568,0.4,-0.0,0.553745,0.511942,0.563408,0.526233,0.000352,-0.308192,0.394605,-0.0001,-0.069659,-0.066203,10.739203,0.021883,0.013838,0.0,0.0,0.0
141772,0.029166,0.011561,0.018993,-0.020003,-0.277486,0.442814,0.0,-0.291568,0.4,-0.0,0.546216,0.517728,0.579243,0.517179,0.00035,-0.309584,0.393285,-0.000105,-0.069318,-0.065329,10.810484,-0.001379,0.012862,0.0,0.0,0.0
141792,0.026235,0.011718,0.018522,-0.01939,-0.280737,0.440792,0.0,-0.287945,0.4,-0.0,0.558334,0.523973,0.572077,0.510756,0.000348,-0.310961,0.39199,-0.000109,-0.067802,-0.063607,10.865555,-0.01945,0.012027,0.0,0.0,0.0
141812,0.021219,0.011162,0.017825,-0.01939,-0.280737,0.440792,0.0,-0.28457,0.4,-0.0,0.578559,0.51782,0.561012,0.510977,0.000346,-0.312295,0.390735,-0.000114,-0.064394,-0.061192,10.914087,-0.021258,0.011436,0.0,0.0,0.0
141832,0.013534,0.012336,0.017009,-0.018666,-0.284466,0.438859,0.0,-0.280884,0.4,-0.0,0.577676,0.519832,0.569691,0.504055,0.000343,-0.313546,0.389532,-0.000118,-0.059152,-0.058223,10.957962,-0.040009,0.010343,0.0,0.0,0.0
141852,0.000462,0.012082,0.015868,-0.017542,-0.288285,0.436531,0.0,-0.277062,0.4,-0.0,0.616279,0.519129,0.524701,0.502872,0.000341,-0.314679,0.388393,-0.000122,-0.051975,-0.054819,10.910335,-0.040402,0.012088,0.0,0.0,0.0
141872,-0.014903,0.014884,0.01525,-0.016374,-0.291765,0.434363,0.0,-0.277062,0.4,-0.0,0.603941,0.502142,0.53357,0.529387,0.000339,-0.315651,0.387324,-0.000126,-0.042614,-0.051085,10.953596,-0.058298,0.010395,0.0,0.0,0.0
141892,-0.031162,0.012791,0.014234,-0.015242,-0.295032,0.432361,0.0,-0.273005,0.4,-0.0,0.612847,0.527334,0.533138,0.498594,0.000336,-0.31642,0.386331,-0.00013,-0.030962,-0.047115,11.007955,-0.074079,0.007296,0.0,0.0,0.0
141912,-0.047409,0.012755,0.013234,-0.015242,-0.295032,0.432361,0.0,-0.269242,0.4,-0.0,0.640375,0.512391,0.504385,0.512141,0.000333,-0.316938,0.38542,-0.000134,-0.017059,-0.042987,11.050693,-0.069316,0.004573,0.0,0.0,0.0
141932,-0.065723,0.014066,0.012652,-0.013228,-0.300202,0.429915,0.0,-0.265863,0.4,-0.0,0.635614,0.513086,0.508897,0.516222,0.000331,-0.317165,0.384591,-0.000138,-0.001592,-0.038768,11.085028,-0.082277,0.002497,0.0,0.0,0.0
141952,-0.084067,0.012181,0.011716,-0.011728,-0.302765,0.428237,0.0,-0.26279,0.4,-0.0,0.653753,0.52968,0.477166,0.501297,0.000328,-0.317074,0.383848,-0.000142,0.0151,-0.034516,11.036234,-0.077836,0.005647,0.0,0.0,0.0
141972,-0.100937,0.011515,0.011285,-0.01021,-0.304939,0.426545,0.0,-0.259721,0.4,-0.0,0.63568,0.517756,0.498271,0.523314,0.000325,-0.316639,0.383189,-0.000145,0.032982,-0.030279,11.102801,-0.087266,-0.000476,0.0,0.0,0.0
141992,-0.115135,0.008634,0.010702,-0.008654,-0.306899,0.424868,0.0,-0.255977,0.4,-0.0,0.642062,0.532735,0.500239,0.500222,0.000322,-0.31584,0.382615,-0.000149,0.051826,-0.026099,11.131273,-0.087266,-0.003274,0.0,0.0,0.0
142012,-0.126884,0.007587,0.010554,-0.006201,-0.308114,0.422495,0.0,-0.252267,0.4,-0.0,0.63434,0.52319,0.49598,0.526586,0.000319,-0.314657,0.382124,-0.000152,0.071342,-0.022007,11.158186,-0.087266,-0.00568,0.0,0.0,0.0
142032,-0.135207,0.005946,0.010829,-0.004361,-0.3088,0.420731,0.0,-0.252267,0.4,-0.0,0.625976,0.532288,0.503513,0.522576,0.000316,-0.313082,0.381714,-0.000155,0.091213,-0.018031,11.179749,-0.087266,-0.007849,0.0,0.0,0.0
142052,-0.139384,0.002331,0.010827,-0.004361,-0.3088,0.420731,0.0,-0.248412,0.4,-0.0,0.619265,0.539259,0.523165,0.507997,0.000313,-0.311108,0.381383,-0.000159,0.111204,-0.014192,11.223498,-0.087266,-0.013533,0.0,0.0,0.0
142072,-0.139531,-0.00067,0.011225,-0.001413,-0.308921,0.418058,0.0,-0.245199,0.4,-0.0,0.604087,0.53876,0.527466,0.523263,0.00031,-0.308734,0.381127,-0.000162,0.131093,-0.010507,11.229866,-0.080489,-0.015598,0.0,0.0,0.0
142092,-0.136233,-0.001832,0.012241,0.000839,-0.307599,0.415934,0.0,-0.241589,0.4,-0.0,0.58212,0.548334,0.537237,0.522472,0.000306,-0.305968,0.380943,-0.000165,0.150128,-0.006987,11.158192,-0.079408,-0.009451,0.0,0.0,0.0
142112,-0.130017,-0.004731,0.013037,0.003128,-0.3055,0.413731,0.0,-0.237844,0.4,-0.0,0.575324,0.542894,0.549216,0.52741,0.000303,-0.302829,0.380829,-0.000168,0.167974,-0.003641,11.205111,-0.076626,-0.017203,0.0,0.0,0.0
142132,-0.121974,-0.008878,0.013664,0.005271,-0.302712,0.411551,0.0,-0.234378,0.4,-0.0,0.56978,0.548183,0.556399,0.521365,0.0003,-0.299343,0.38078,-0.00017,0.184621,-0.000476,11.216504,-0.070194,-0.020602,0.0,0.0,0.0
142152,-0.11172,-0.010721,0.014713,0.005271,-0.302712,0.411551,0.0,-0.234378,0.4,-0.0,0.56239,0.540586,0.563786,0.530251,0.000296,-0.295533,0.380793,-0.000173,0.200058,0.002505,11.226432,-0.062513,-0.023627,0.0,0.0,0.0
142172,-0.101472,-0.013313,0.015621,0.008186,-0.297906,0.409205,0.0,-0.230713,0.4,-0.0,0.563695,0.548582,0.559743,0.525455,0.000293,-0.291423,0.380865,-0.000176,0.2143,0.005301,11.232885,-0.052396,-0.025571,0.0,0.0,0.0
142192,-0.089424,-0.0185,0.016338,0.010444,-0.293589,0.40712,0.0,-0.226957,0.4,-0.0,0.552977,0.56673,0.56525,0.503404,0.000289,-0.287038,0.380991,-0.000178,0.227273,0.007911,11.145986,-0.041512,-0.018057,0.0,0.0,0.0
142212,-0.07651,-0.021755,0.017201,0.013024,-0.288473,0.405019,0.0,-0.223513,0.4,-0.0,0.554006,0.543996,0.567038,0.52748,0.000286,-0.282405,0.381167,-0.00018,0.238405,0.010338,11.172333,-0.027983,-0.024588,0.0,0.0,0.0
142232,-0.062256,-0.025287,0.01787,0.015112,-0.283534,0.403381,0.0,-0.220426,0.4,-0.0,0.539296,0.550045,0.57852,0.52474,0.000282,-0.277566,0.381391,-0.000183,0.247545,0.012586,11.182668,-0.019658,-0.027183,0.0,0.0,0.0
142252,-0.048376,-0.028456,0.018717,0.017042,-0.278169,0.401799,0.0,-0.217348,0.4,-0.0,0.547338,0.550018,0.572646,0.523868,0.000278,-0.272557,0.381659,-0.000185,0.25495,0.014659,11.193302,-0.008266,-0.030805,0.0,0.0,0.0
142272,-0.033376,-0.029696,0.019405,0.018972,-0.272749,0.400285,0.0,-0.21426,0.4,-0.0,0.538411,0.54415,0.580968,0.529127,0.000275,-0.267412,0.381967,-0.000187,0.26081,0.016562,11.183302,0.001657,-0.031773,0.0,0.0,0.0
142292,-0.018511,-0.031674,0.020105,0.021104,-0.266219,0.39858,0.0,-0.210397,0.4,-0.0,0.537975,0.546676,0.585156,0.521605,0.000271,-0.26216,0.382311,-0.000189,0.265188,0.018302,11.176495,0.011505,-0.032017,0.0,0.0,0.0
142312,-0.004131,-0.033654,0.020578,0.021104,-0.266219,0.39858,0.0,-0.210397,0.4,-0.0,0.54186,0.552903,0.582877,0.512941,0.000267,-0.256833,0.38269,-0.000191,0.268115,0.019884,11.170759,0.019656,-0.032358,0.0,0.0,0.0
142332,0.010262,-0.035021,0.020582,0.023158,-0.258754,0.397241,0.0,-0.207111,0.4,-0.0,0.538879,0.543234,0.588977,0.519973,0.000263,-0.251457,0.383098,-0.000192,0.26965,0.021315,11.177392,0.027695,-0.033647,0.0,0.0,0.0
142352,0.022214,-0.036481,0.020562,0.025198,-0.250491,0.395427,0.0,-0.20307,0.4,-0.0,0.522791,0.545774,0.602944,0.511737,0.000259,-0.246059,0.383535,-0.000194,0.269959,0.022604,11.114447,0.022765,-0.025675,0.0,0.0,0.0
142372,0.035162,-0.036601,0.020308,0.027003,-0.24388,0.394181,0.0,-0.199603,0.4,-0.0,0.54682,0.532088,0.589099,0.518258,0.000256,-0.240667,0.383996,-0.000196,0.268724,0.023757,11.122851,0.036721,-0.028156,0.0,0.0,0.0
142392,0.043018,-0.033845,0.019406,0.028551,-0.237057,0.393012,0.0,-0.196062,0.4,-0.0,0.572733,0.518299,0.572464,0.52525,0.000252,-0.235311,0.384479,-0.000197,0.265927,0.024783,11.149951,0.048284,-0.03024,0.0,0.0,0.0
142412,0.051703,-0.03402,0.018577,0.029816,-0.230598,0.391972,0.0,-0.192487,0.4,-0.0,0.558394,0.531027,0.583324,0.516036,0.000248,-0.230021,0.384981,-0.000199,0.262006,0.025687,11.1511,0.053114,-0.03106,0.0,0.0,0.0
142432,0.058214,-0.031361,0.017627,0.029816,-0.230598,0.391972,0.0,-0.192487,0.4,-0.0,0.566828,0.519635,0.580517,0.521455,0.000244,-0.224815,0.385501,-0.0002,0.257324,0.026478,11.150261,0.057723,-0.030757,0.0,0.0,0.0
142452,0.063634,-0.02759,0.016611,0.031016,-0.223007,0.391124,0.0,-0.188805,0.4,-0.0,0.567076,0.503877,0.5837,0.532363,0.00024,-0.219707,0.386036,-0.000201,0.252125,0.027164,11.145002,0.059861,-0.029438,0.0,0.0,0.0
142472,0.069026,-0.026624,0.015793,0.032106,-0.216945,0.390405,0.0,-0.18513,0.4,-0.0,0.550784,0.526581,0.592259,0.513902,0.000236,-0.214705,0.386584,-0.000202,0.246587,0.02775,11.099731,0.049311,-0.023058,0.0,0.0,0.0
142492,0.072489,-0.02307,0.01461,0.033236,-0.210991,0.389881,0.0,-0.181741,0.4,-0.0,0.577142,0.506245,0.574627,0.52524,0.000232,-0.209819,0.387143,-0.000203,0.240377,0.028244,11.099468,0.057634,-0.02315,0.0,0.0,0.0
142512,0.074489,-0.018397,0.013115,0.033762,-0.206504,0.389556,0.0,-0.178681,0.4,-0.0,0.579434,0.493928,0.579459,0.528227,0.000227,-0.205062,0.387711,-0.000205,0.233529,0.028652,11.092073,0.057961,-0.022865,0.0,0.0,0.0
142532,0.075251,-0.015188,0.011903,0.034504,-0.202189,0.389362,0.0,-0.175585,0.4,-0.0,0.586969,0.506402,0.563023,0.524876,0.000223,-0.200444,0.388287,-0.000205,0.226438,0.028981,11.077981,0.059107,-0.022916,0.0,0.0,0.0
142552,0.073812,-0.011475,0.010536,0.035123,-0.197992,0.389298,0.0,-0.17199,0.4,-0.0,0.5819,0.499914,0.56933,0.52831,0.000219,-0.195968,0.388868,-0.000206,0.21939,0.029236,11.059921,0.055256,-0.020475,0.0,0.0,0.0
142572,0.072619,-0.007404,0.009286,0.035745,-0.193145,0.389351,0.0,-0.17199,0.4,-0.0,0.578465,0.497457,0.57147,0.530274,0.000215,-0.191633,0.389454,-0.000207,0.21253,0.029424,11.038919,0.051341,-0.019526,0.0,0.0,0.0
142592,0.071164,-0.005049,0.008344,0.036215,-0.189895,0.389479,0.0,-0.168003,0.4,-0.0,0.579921,0.499079,0.57008,0.526622,0.000211,-0.187432,0.390044,-0.000208,0.205951,0.029548,11.015326,0.045605,-0.018327,0.0,0.0,0.0
142612,0.068128,-0.000733,0.007215,0.036215,-0.189895,0.389479,0.0,-0.164741,0.4,-0.0,0.605215,0.486487,0.544218,0.534713,0.000207,-0.18336,0.390636,-0.000208,0.199781,0.029615,10.9919,0.059278,-0.017464,0.0,0.0,0.0
142632,0.064112,0.003819,0.006338,0.036655,-0.18624,0.389754,0.0,-0.161543,0.4,-0.0,0.590455,0.495721,0.555698,0.529309,0.000203,-0.17941,0.391228,-0.000209,0.193676,0.029629,10.968454,0.046487,-0.016201,0.0,0.0,0.0
142652,0.060325,0.004098,0.005606,0.037298,-0.182807,0.390181,0.0,-0.157713,0.4,-0.0,0.568161,0.5179,0.575873,0.509674,0.000198,-0.175582,0.39182,-0.000209,0.18768,0.029594,10.955481,0.025331,-0.013245,0.0,0.0,0.0
142672,0.057273,0.005592,0.004839,0.038164,-0.179767,0.39068,0.0,-0.154272,0.4,-0.0,0.58213,0.505639,0.561533,0.520106,0.000194,-0.171871,0.392412,-0.00021,0.182087,0.029515,10.93367,0.024153,-0.012818,0.0,0.0,0.0
142692,0.050441,0.00917,0.003916,0.038882,-0.177463,0.391172,0.0,-0.150729,0.4,-0.0,0.59424,0.485077,0.548744,0.536701,0.00019,-0.168268,0.393001,-0.00021,0.177065,0.029395,10.907673,0.019543,-0.013417,0.0,0.0,0.0
142712,0.042134,0.009448,0.003217,0.038882,-0.177463,0.391172,0.0,-0.150729,0.4,-0.0,0.598461,0.5023,0.544432,0.518249,0.000186,-0.16476,0.393588,-0.00021,0.1728,0.029238,10.882704,0.015776,-0.014946,0.0,0.0,0.0
142732,0.035416,0.009839,0.00251,0.039419,-0.176189,0.391684,0.0,-0.146903,0.4,-0.0,0.595031,0.503038,0.54619,0.517922,0.000182,-0.16133,0.394171,-0.000211,0.169412,0.029047,10.862375,0.009108,-0.015632,0.0,0.0,0.0
142752,0.026991,0.0112,0.002046,0.040376,-0.174379,0.392272,0.0,-0.14279,0.4,-0.0,0.609963,0.504315,0.531173,0.51488,0.000177,-0.157962,0.394751,-0.000211,0.166918,0.028825,10.865995,0.008985,-0.013187,0.0,0.0,0.0
142772,0.018076,0.010604,0.001613,0.04144,-0.17275,0.392887,0.0,-0.139704,0.4,-0.0,0.601228,0.512754,0.533629,0.512953,0.000173,-0.15464,0.395326,-0.000211,0.164833,0.028575,10.847688,-0.002124,-0.013588,0.0,0.0,0.0
142792,0.010626,0.008417,0.001176,0.042298,-0.171824,0.393357,0.0,-0.136611,0.4,-0.0,0.590982,0.516695,0.544445,0.508181,0.000169,-0.151357,0.395895,-0.000211,0.163063,0.028299,10.830365,-0.01013,-0.015794,0.0,0.0,0.0
142812,0.002689,0.009155,0.00072,0.043231,-0.17099,0.393793,0.0,-0.133529,0.4,-0.0,0.601544,0.501345,0.535215,0.519215,0.000165,-0.148105,0.396459,-0.000211,0.161911,0.028,10.815365,-0.013095,-0.018133,0.0,0.0,0.0
142832,-0.005248,0.007082,0.000507,0.044183,-0.170386,0.394229,0.0,-0.130341,0.4,-0.0,0.595266,0.51023,0.531257,0.521595,0.000161,-0.144872,0.397016,-0.000211,0.161469,0.02768,10.809524,-0.018648,-0.019236,0.0,0.0,0.0
142852,-0.012451,0.005984,0.000403,0.045662,-0.168977,0.394803,0.0,-0.126126,0.4,-0.0,0.596432,0.5133,0.532379,0.515777,0.000156,-0.141642,0.397568,-0.00021,0.161681,0.027342,10.806512,-0.02362,-0.020546,0.0,0.0,0.0
142872,-0.019898,0.003541,0.000157,0.045662,-0.168977,0.394803,0.0,-0.126126,0.4,-0.0,0.601579,0.522038,0.529388,0.503625,0.000152,-0.138403,0.398112,-0.00021,0.162475,0.026986,10.80477,-0.029239,-0.021786,0.0,0.0,0.0
142892,-0.026491,0.002441,3.2e-05,0.046944,-0.169217,0.395226,0.0,-0.122613,0.4,-0.0,0.58975,0.509591,0.538127,0.520535,0.000148,-0.135144,0.398649,-0.00021,0.163802,0.026614,10.797955,-0.034901,-0.025161,0.0,0.0,0.0
142912,-0.032596,0.001589,0.000148,0.048514,-0.167881,0.395778,0.0,-0.118653,0.4,-0.0,0.61149,0.520673,0.51535,0.508476,0.000144,-0.131855,0.399178,-0.000209,0.165731,0.026229,10.817208,-0.027598,-0.021652,0.0,0.0,0.0
142932,-0.037234,-0.000242,0.000118,0.049856,-0.167169,0.396144,0.0,-0.115276,0.4,-0.0,0.585184,0.517751,0.540523,0.516765,0.00014,-0.128524,0.3997,-0.000209,0.167791,0.025831,10.815075,-0.037938,-0.024413,0.0,0.0,0.0
142952,-0.041752,-0.001579,0.000333,0.051298,-0.165619,0.396559,0.0,-0.11168,0.4,-0.0,0.586887,0.515836,0.539185,0.517496,0.000135,-0.125154,0.400213,-0.000208,0.169786,0.025421,10.80813,-0.041663,-0.028,0.0,0.0,0.0
142972,-0.045051,-0.001448,0.000699,0.051298,-0.165619,0.396559,0.0,-0.11168,0.4,-0.0,0.588068,0.51291,0.535229,0.523333,0.000131,-0.121742,0.400719,-0.000208,0.171936,0.025002,10.810474,-0.045044,-0.030049,0.0,0.0,0.0
142992,-0.049201,-0.002777,0.001151,0.052772,-0.16483,0.39686,0.0,-0.108224,0.4,-0.0,0.582572,0.510493,0.531307,0.535785,0.000127,-0.118286,0.401215,-0.000207,0.174355,0.024573,10.810362,-0.045329,-0.032265,0.0,0.0,0.0
143012,-0.051158,-0.003739,0.001612,0.054322,-0.163248,0.397079,0.0,-0.104387,0.4,-0.0,0.594007,0.526883,0.526786,0.51253,0.000123,-0.114779,0.401704,-0.000206,0.177051,0.024136,10.827166,-0.036952,-0.027991,0.0,0.0,0.0
143032,-0.05226,-0.005797,0.002166,0.055991,-0.161543,0.397243,0.0,-0.100831,0.4,-0.0,0.575174,0.524145,0.540198,0.523252,0.000119,-0.111218,0.402183,-0.000206,0.179522,0.023692,10.828196,-0.041782,-0.030969,0.0,0.0,0.0
