time_ms,roll,pitch,yaw,x,y,z,reference_x,reference_y,reference_z,reference_yaw,throttle_1,throttle_2,throttle_3,throttle_4,roll_predicted,pitch_predicted,yaw_predicted,roll_rate_predicted,pitch_rate_predicted,yaw_rate_predicted,value1,value2,value3,value4,value5,value6
55412,-0.010581,0.002835,0.028214,0.011115,-0.026433,0.684182,0.0,0.0,0.7,-0.0,0.580796,0.546466,0.545672,0.519795,0.0,0.0,0.7,0.0,-0.0,0.0,11.188477,-0.00069,0.009798,0.0,0.0,0.0
55432,-0.009218,0.00428,0.028097,0.011597,-0.026026,0.684996,-2.8e-05,-2.8e-05,0.7,-0.0,0.57661,0.539652,0.553384,0.522512,0.0,0.0,0.7,0.0,-0.0,0.0,11.177526,-0.000164,0.00917,0.0,0.0,0.0
55452,-0.008845,0.004763,0.028099,0.011872,-0.025591,0.685658,-2.8e-05,-2.8e-05,0.7,-0.0,0.579241,0.543112,0.545863,0.522888,0.0,0.0,0.7,0.0,-0.0,0.0,11.165684,0.001541,0.008908,0.0,0.0,0.0
55472,-0.007465,0.00743,0.028106,0.01221,-0.025227,0.686333,-0.003118,-0.003118,0.7,-0.0,0.575102,0.527767,0.549212,0.538623,0.0,0.0,0.7,-0.0,-0.0,0.0,11.155601,0.003111,0.008072,0.0,0.0,0.0
55492,-0.006977,0.007423,0.028104,0.012572,-0.024692,0.687041,-0.003118,-0.003118,0.7,-0.0,0.571905,0.540258,0.549167,0.529453,-0.0,-0.0,0.7,-5e-06,-5e-06,0.0,11.153205,0.004368,0.008365,0.0,0.0,0.0
55512,-0.004882,0.008737,0.028222,0.013173,-0.023889,0.687996,-0.004773,-0.004773,0.7,-0.0,0.586107,0.514582,0.536087,0.551899,-0.0,-0.0,0.7,-3.7e-05,-3.8e-05,0.0,11.150615,0.018356,-0.00499,0.0,0.0,0.0
55532,-0.002663,0.010171,0.028459,0.013653,-0.023398,0.688721,-0.006617,-0.006617,0.7,-0.0,0.574752,0.536497,0.545337,0.533581,-4e-06,-4e-06,0.7,-0.000526,-0.000535,0.0,11.146913,0.017189,-0.002731,0.0,0.0,0.0
55552,-0.00108,0.009782,0.028817,0.013653,-0.023398,0.688721,-0.008483,-0.008483,0.7,-0.0,0.57874,0.531077,0.53679,0.542077,-2.1e-05,-2.2e-05,0.7,-0.001589,-0.001618,0.0,11.133302,0.024529,-0.009106,0.0,0.0,0.0
55572,0.002681,0.008018,0.029289,0.014337,-0.022246,0.689663,-0.010167,-0.010167,0.7,-0.0,0.572739,0.538592,0.543117,0.534586,-6.4e-05,-6.6e-05,0.7,-0.003255,-0.003313,0.0,11.131164,0.030012,-0.014669,0.0,0.0,0.0
55592,0.008,0.004275,0.030018,0.014959,-0.021443,0.690374,-0.012043,-0.012043,0.7,-0.0,0.564764,0.555168,0.547599,0.523819,-0.000146,-0.000149,0.7,-0.005667,-0.005765,0.0,11.159288,0.032513,-0.017327,0.0,0.0,0.0
55612,0.01221,5.6e-05,0.030765,0.015527,-0.020521,0.691067,-0.012043,-0.012043,0.7,-0.0,0.566829,0.556788,0.542929,0.523328,-0.000283,-0.000288,0.7,-0.008916,-0.009066,0.0,11.143399,0.038789,-0.021761,0.0,0.0,0.0
55632,0.018365,-0.004441,0.031656,0.016124,-0.019638,0.691772,-0.014045,-0.014045,0.7,-0.0,0.553084,0.555907,0.551561,0.529759,-0.000491,-0.000499,0.7,-0.012998,-0.013208,0.0,11.140426,0.043305,-0.026047,0.0,0.0,0.0
55652,0.023854,-0.012109,0.032737,0.01644,-0.018839,0.692559,-0.015949,-0.015949,0.7,-0.0,0.546943,0.581583,0.554406,0.504422,-0.000786,-0.000799,0.7,-0.017862,-0.01814,0.0,11.139154,0.039523,-0.021371,0.0,0.0,0.0
55672,0.029972,-0.018204,0.03384,0.016892,-0.017994,0.693461,-0.017862,-0.017862,0.7,-0.0,0.547685,0.567682,0.554375,0.519589,-0.001183,-0.001202,0.7,-0.023193,-0.023537,0.0,11.139058,0.044986,-0.026432,0.0,0.0,0.0
55692,0.035718,-0.02454,0.034742,0.016892,-0.017994,0.693461,-0.017862,-0.017862,0.7,-0.0,0.548058,0.571616,0.554113,0.514828,-0.001688,-0.001715,0.7,-0.02886,-0.029265,0.0,11.136426,0.048753,-0.029055,0.0,0.0,0.0
55712,0.040011,-0.029754,0.035631,0.017634,-0.016555,0.694422,-0.019744,-0.019744,0.7,-0.0,0.560868,0.571845,0.540332,0.514786,-0.00231,-0.002345,0.7,-0.034902,-0.035362,0.0,11.129587,0.052182,-0.031966,0.0,0.0,0.0
55732,0.045895,-0.034992,0.036207,0.017674,-0.016271,0.695304,-0.021423,-0.021423,0.7,-0.0,0.537822,0.590994,0.568972,0.488452,-0.003056,-0.003101,0.7,-0.0413,-0.041809,0.0,11.16316,0.04324,-0.024316,0.0,0.0,0.0
55752,0.048638,-0.03846,0.036463,0.01756,-0.015673,0.696026,-0.022965,-0.022965,0.7,-0.0,0.55924,0.560193,0.549735,0.521294,-0.00393,-0.003986,0.7,-0.047746,-0.04829,0.0,11.14954,0.050364,-0.029516,0.0,0.0,0.0
55772,0.050568,-0.039838,0.036537,0.017247,-0.015601,0.696701,-0.024491,-0.024491,0.7,-0.0,0.564586,0.555419,0.548889,0.520766,-0.004933,-0.004999,0.7,-0.054096,-0.054659,0.0,11.140904,0.050447,-0.03001,0.0,0.0,0.0
55792,0.05263,-0.04072,0.036353,0.016637,-0.015573,0.697361,-0.026066,-0.026066,0.7,-0.0,0.567689,0.556162,0.55249,0.512586,-0.006062,-0.00614,0.7,-0.060363,-0.06093,0.0,11.140634,0.051403,-0.029303,0.0,0.0,0.0
55812,0.052624,-0.041442,0.036006,0.015788,-0.01601,0.698155,-0.028399,-0.028399,0.7,-0.0,0.57436,0.558091,0.546939,0.508831,-0.007316,-0.007404,0.7,-0.066509,-0.067065,0.0,11.139989,0.049988,-0.027959,0.0,0.0,0.0
55832,0.05303,-0.03985,0.035482,0.01496,-0.016463,0.698804,-0.030048,-0.030048,0.7,-0.0,0.574618,0.546134,0.549561,0.518604,-0.008691,-0.008791,0.7,-0.072468,-0.072998,0.0,11.138557,0.048996,-0.025945,0.0,0.0,0.0
55852,0.050639,-0.037596,0.034766,0.01496,-0.016463,0.698804,-0.030048,-0.030048,0.7,-0.0,0.580163,0.527791,0.545453,0.534823,-0.010184,-0.010294,0.7,-0.078188,-0.078676,0.0,11.130826,0.049574,-0.026679,0.0,0.0,0.0
55872,0.048747,-0.034501,0.034164,0.013087,-0.017505,0.699811,-0.031743,-0.031743,0.7,-0.0,0.58064,0.532125,0.54353,0.531797,-0.011789,-0.011908,0.7,-0.083723,-0.084157,0.0,11.128874,0.047163,-0.024566,0.0,0.0,0.0
55892,0.047815,-0.0324,0.033611,0.011583,-0.018677,0.700564,-0.033581,-0.033581,0.7,-0.0,0.5736,0.551012,0.553844,0.511281,-0.013504,-0.013632,0.7,-0.08905,-0.089419,0.0,11.154564,0.040187,-0.019452,0.0,0.0,0.0
55912,0.045326,-0.02844,0.032869,0.009709,-0.02009,0.701384,-0.035382,-0.035382,0.7,-0.0,0.579654,0.535678,0.546307,0.526574,-0.015322,-0.015456,0.7,-0.093859,-0.094148,0.0,11.130537,0.03743,-0.014649,0.0,0.0,0.0
55932,0.043055,-0.02571,0.03241,0.007782,-0.021817,0.702178,-0.037482,-0.037482,0.7,-0.0,0.581599,0.535637,0.542924,0.527196,-0.017231,-0.017371,0.7,-0.098028,-0.09822,0.0,11.121817,0.035333,-0.013047,0.0,0.0,0.0
55952,0.039367,-0.019901,0.031632,0.005722,-0.023574,0.702905,-0.037482,-0.037482,0.7,-0.0,0.582137,0.5158,0.54613,0.541813,-0.01922,-0.019362,0.7,-0.101644,-0.101728,0.0,11.110589,0.032532,-0.010092,0.0,0.0,0.0
55972,0.035255,-0.017875,0.030952,0.005722,-0.023574,0.702905,-0.039299,-0.039299,0.7,-0.0,0.587695,0.535267,0.540361,0.521565,-0.021277,-0.02142,0.7,-0.104792,-0.104761,0.0,11.101891,0.030262,-0.008837,0.0,0.0,0.0
55992,0.032623,-0.014648,0.030142,0.002684,-0.026251,0.703613,-0.041351,-0.041351,0.7,-0.0,0.573147,0.542905,0.556077,0.512919,-0.023394,-0.023536,0.7,-0.107552,-0.107404,0.0,11.096754,0.019336,0.001702,0.0,0.0,0.0
56012,0.028152,-0.011765,0.029459,-8.3e-05,-0.028631,0.704339,-0.043031,-0.043031,0.7,-0.0,0.590852,0.517891,0.532394,0.544866,-0.025563,-0.025701,0.7,-0.109719,-0.109449,0.0,11.121879,0.025864,-0.006455,0.0,0.0,0.0
56032,0.023334,-0.007414,0.028647,-0.002188,-0.030729,0.704835,-0.044576,-0.044576,0.7,-0.0,0.594199,0.526995,0.536917,0.526919,-0.027769,-0.027901,0.7,-0.111236,-0.110841,0.0,11.112054,0.020724,-0.001103,0.0,0.0,0.0
56052,0.018464,-0.006726,0.027773,-0.004444,-0.032853,0.705317,-0.046131,-0.046131,0.7,-0.0,0.596025,0.546542,0.534864,0.505652,-0.030002,-0.030125,0.7,-0.112263,-0.111745,0.0,11.103328,0.016264,0.003631,0.0,0.0,0.0
56072,0.014202,-0.006051,0.02702,-0.006671,-0.035182,0.705766,-0.047945,-0.047945,0.7,-0.0,0.588787,0.545518,0.537663,0.512628,-0.032253,-0.032364,0.7,-0.112901,-0.112266,0.0,11.105314,0.013303,0.005163,0.0,0.0,0.0
56092,0.008376,-0.00365,0.026263,-0.009005,-0.037369,0.706187,-0.047945,-0.047945,0.7,-0.0,0.596237,0.536032,0.533388,0.518488,-0.034514,-0.034612,0.7,-0.113172,-0.112429,0.0,11.106753,0.010844,0.006984,0.0,0.0,0.0
56112,0.003625,-0.002976,0.0254,-0.011585,-0.040123,0.706645,-0.049807,-0.049807,0.7,-0.0,0.591846,0.534592,0.534825,0.523835,-0.036777,-0.036859,0.7,-0.113089,-0.112249,0.0,11.109191,0.009091,0.007202,0.0,0.0,0.0
56132,-0.001001,-0.001941,0.024661,-0.014042,-0.042423,0.706974,-0.051644,-0.051644,0.7,-0.0,0.591539,0.545041,0.540908,0.507006,-0.039036,-0.039101,0.7,-0.112695,-0.11177,0.0,11.112021,0.000478,0.015608,0.0,0.0,0.0
56152,-0.005269,-0.001646,0.023803,-0.016402,-0.044845,0.707259,-0.053662,-0.053662,0.7,-0.0,0.592709,0.542418,0.536863,0.512817,-0.041284,-0.04133,0.7,-0.111812,-0.110812,0.0,11.112613,-0.000976,0.015492,0.0,0.0,0.0
56172,-0.010746,-0.000242,0.023072,-0.016402,-0.044845,0.707259,-0.053662,-0.053662,0.7,-0.0,0.602889,0.53805,0.528322,0.514698,-0.043511,-0.043536,0.7,-0.110443,-0.10938,0.0,11.118274,-0.000334,0.014979,0.0,0.0,0.0
56192,-0.013908,0.000886,0.022102,-0.019334,-0.048073,0.707515,-0.055627,-0.055627,0.7,-0.0,0.600753,0.539925,0.535654,0.508165,-0.045708,-0.045711,0.7,-0.10877,-0.107658,0.0,11.124494,0.000414,0.013362,0.0,0.0,0.0
56212,-0.017435,0.002137,0.021137,-0.022403,-0.050785,0.707687,-0.057589,-0.057589,0.7,-0.0,0.60215,0.530401,0.531703,0.522074,-0.04787,-0.047851,0.7,-0.106953,-0.105811,0.0,11.141263,0.002731,0.01058,0.0,0.0,0.0
56232,-0.019244,0.004347,0.020427,-0.025455,-0.053404,0.707732,-0.059389,-0.059389,0.7,-0.0,0.591623,0.534158,0.543221,0.518842,-0.049994,-0.049952,0.7,-0.104853,-0.103697,0.0,11.143726,-0.000838,0.012469,0.0,0.0,0.0
56252,-0.021441,0.004607,0.019823,-0.02876,-0.05602,0.707633,-0.061383,-0.061383,0.7,-0.0,0.592915,0.546876,0.541045,0.506568,-0.052073,-0.052008,0.7,-0.102493,-0.101339,0.0,11.149085,-0.001552,0.014597,0.0,0.0,0.0
56272,-0.022895,0.005835,0.019229,-0.02876,-0.05602,0.707633,-0.061383,-0.061383,0.7,-0.0,0.591788,0.541871,0.541955,0.513192,-0.054105,-0.054017,0.7,-0.100071,-0.098936,0.0,11.158423,-0.002472,0.016958,0.0,0.0,0.0
56292,-0.022906,0.004851,0.018608,-0.031879,-0.058623,0.707418,-0.063211,-0.063211,0.7,-0.0,0.587554,0.553098,0.543376,0.505657,-0.056088,-0.055978,0.7,-0.097723,-0.096628,0.0,11.171659,-0.002398,0.019142,0.0,0.0,0.0
56312,-0.023875,0.005829,0.018011,-0.035101,-0.060982,0.707054,-0.0649,-0.0649,0.7,-0.0,0.586984,0.5304,0.542853,0.531344,-0.058026,-0.057895,0.7,-0.095544,-0.094509,0.0,11.177946,0.0003,0.015294,0.0,0.0,0.0
56332,-0.0218,0.005929,0.017641,-0.037564,-0.062653,0.706714,-0.066436,-0.066436,0.7,-0.0,0.578457,0.548769,0.551633,0.513861,-0.059921,-0.059769,0.7,-0.093346,-0.092387,0.0,11.191355,-0.000868,0.017725,0.0,0.0,0.0
56352,-0.020939,0.006772,0.017282,-0.039956,-0.06419,0.706312,-0.067953,-0.067953,0.7,-0.0,0.582692,0.546578,0.544765,0.520223,-0.061771,-0.0616,0.7,-0.091095,-0.090223,0.0,11.208358,-0.001397,0.02076,0.0,0.0,0.0
56372,-0.019474,0.006999,0.016792,-0.042454,-0.065718,0.705882,-0.069496,-0.069496,0.7,-0.0,0.579472,0.543786,0.551067,0.521246,-0.063576,-0.063389,0.7,-0.088912,-0.088139,0.0,11.220897,0.000447,0.020641,0.0,0.0,0.0
56392,-0.019706,0.008705,0.016321,-0.04636,-0.068178,0.705067,-0.071404,-0.071404,0.7,-0.0,0.590317,0.538549,0.542058,0.524985,-0.065339,-0.065137,0.7,-0.086867,-0.086205,0.0,11.234257,0.002406,0.020355,0.0,0.0,0.0
56412,-0.018114,0.009543,0.015956,-0.04636,-0.068178,0.705067,-0.071404,-0.071404,0.7,-0.0,0.581386,0.543323,0.550619,0.522231,-0.067062,-0.066848,0.7,-0.084993,-0.084451,0.0,11.245843,0.004128,0.020487,0.0,0.0,0.0
56432,-0.017254,0.01051,0.015595,-0.048693,-0.069404,0.704523,-0.073609,-0.073609,0.7,-0.0,0.587476,0.549856,0.546113,0.515351,-0.068749,-0.068525,0.7,-0.083315,-0.082901,0.0,11.271529,0.003077,0.025111,0.0,0.0,0.0
56452,-0.015904,0.011718,0.015232,-0.05165,-0.071055,0.703732,-0.075672,-0.075672,0.7,-0.0,0.582336,0.539696,0.550954,0.525669,-0.070404,-0.070173,0.7,-0.081893,-0.081613,0.0,11.258389,0.004575,0.020317,0.0,0.0,0.0
56472,-0.016258,0.013548,0.014883,-0.054672,-0.072388,0.702945,-0.077675,-0.077675,0.7,-0.0,0.589757,0.532866,0.542083,0.534526,-0.072032,-0.071796,0.7,-0.080541,-0.080397,0.0,11.271023,0.009987,0.017003,0.0,0.0,0.0
56492,-0.014045,0.015851,0.014763,-0.054672,-0.072388,0.702945,-0.079342,-0.079342,0.7,-0.0,0.583701,0.538748,0.548043,0.531033,-0.073633,-0.073395,0.7,-0.079284,-0.079274,0.0,11.291628,0.011943,0.017626,0.0,0.0,0.0
56512,-0.013066,0.016452,0.014515,-0.057393,-0.073555,0.702166,-0.079342,-0.079342,0.7,-0.0,0.585942,0.540938,0.543423,0.532512,-0.075211,-0.074974,0.7,-0.078308,-0.07843,0.0,11.308537,0.014657,0.018685,0.0,0.0,0.0
56532,-0.010254,0.017164,0.014374,-0.059913,-0.074614,0.701282,-0.081386,-0.081386,0.7,-0.0,0.581772,0.527141,0.545746,0.546752,-0.076772,-0.076538,0.7,-0.077722,-0.077977,0.0,11.289382,0.021161,0.008025,0.0,0.0,0.0
56552,-0.007443,0.017389,0.014474,-0.062345,-0.075624,0.700386,-0.083411,-0.083411,0.7,-0.0,0.568381,0.559331,0.55817,0.516922,-0.078324,-0.078097,0.7,-0.07752,-0.077907,0.0,11.306603,0.014294,0.018224,0.0,0.0,0.0
56572,-0.004387,0.017734,0.014693,-0.064605,-0.076482,0.69943,-0.085121,-0.085121,0.7,-0.0,0.577808,0.549351,0.545485,0.532195,-0.079874,-0.079655,0.7,-0.077433,-0.077942,0.0,11.32509,0.017986,0.016882,0.0,0.0,0.0
56592,-0.00233,0.014789,0.015034,-0.066914,-0.077377,0.69856,-0.086808,-0.086808,0.7,-0.0,0.580503,0.560957,0.543445,0.520295,-0.081422,-0.081215,0.7,-0.077415,-0.078033,0.0,11.340756,0.02114,0.015519,0.0,0.0,0.0
56612,0.000838,0.013788,0.015255,-0.068421,-0.077945,0.697832,-0.088347,-0.088347,0.7,-0.0,0.578289,0.555832,0.548859,0.524025,-0.082972,-0.082777,0.7,-0.077605,-0.078323,0.0,11.356556,0.023041,0.015044,0.0,0.0,0.0
56632,0.003746,0.010713,0.015607,-0.069948,-0.078455,0.697168,-0.08989,-0.08989,0.7,-0.0,0.574053,0.567752,0.551358,0.513883,-0.084527,-0.084347,0.7,-0.078057,-0.078864,0.0,11.366053,0.024362,0.014985,0.0,0.0,0.0
56652,0.006543,0.009103,0.016085,-0.0715,-0.078816,0.696524,-0.08989,-0.08989,0.7,-0.0,0.575063,0.560094,0.547676,0.525377,-0.086093,-0.08593,0.7,-0.078763,-0.079648,0.0,11.368955,0.026259,0.012138,0.0,0.0,0.0
56672,0.009943,0.006755,0.016324,-0.0715,-0.078816,0.696524,-0.091817,-0.091817,0.7,-0.0,0.572274,0.564749,0.549428,0.521578,-0.087675,-0.08753,0.7,-0.079676,-0.080626,0.0,11.369106,0.028116,0.009908,0.0,0.0,0.0
56692,0.011024,0.004425,0.016699,-0.074907,-0.080053,0.695224,-0.093938,-0.093938,0.7,-0.0,0.565294,0.56668,0.554206,0.522092,-0.089276,-0.089151,0.7,-0.080731,-0.081731,0.0,11.369271,0.023686,0.014839,0.0,0.0,0.0
56712,0.014428,0.002563,0.016951,-0.074907,-0.080053,0.695224,-0.095826,-0.095826,0.7,-0.0,0.575515,0.549728,0.546091,0.535241,-0.090898,-0.090793,0.7,-0.081669,-0.0827,0.0,11.34317,0.029972,0.003903,0.0,0.0,0.0
56732,0.015521,0.001942,0.017198,-0.076864,-0.080647,0.694512,-0.097497,-0.097497,0.7,-0.0,0.581516,0.565824,0.543186,0.517201,-0.092537,-0.092453,0.7,-0.082456,-0.083498,0.0,11.376473,0.030659,0.008818,0.0,0.0,0.0
56752,0.017346,0.001191,0.017446,-0.078081,-0.081364,0.694071,-0.097497,-0.097497,0.7,-0.0,0.580352,0.544893,0.541218,0.540436,-0.094192,-0.094129,0.7,-0.083263,-0.084301,0.0,11.350121,0.035597,-0.000835,0.0,0.0,0.0
56772,0.018188,-0.000283,0.017703,-0.079547,-0.08186,0.6937,-0.09941,-0.09941,0.7,-0.0,0.581571,0.563195,0.539562,0.522287,-0.095864,-0.095822,0.7,-0.084194,-0.085216,0.0,11.35884,0.036198,0.000645,0.0,0.0,0.0
56792,0.021235,-0.000801,0.017951,-0.080657,-0.082493,0.693363,-0.101393,-0.101393,0.7,-0.0,0.563963,0.56599,0.560956,0.515763,-0.097556,-0.097534,0.7,-0.085246,-0.08624,0.0,11.355551,0.029059,0.005822,0.0,0.0,0.0
56812,0.022319,-0.0024,0.018213,-0.082228,-0.083179,0.693056,-0.10328,-0.10328,0.7,-0.0,0.575931,0.557526,0.547741,0.525489,-0.099268,-0.099265,0.7,-0.086159,-0.087109,0.0,11.350404,0.032499,0.002867,0.0,0.0,0.0
56832,0.022565,-0.00216,0.018333,-0.082228,-0.083179,0.693056,-0.10328,-0.10328,0.7,-0.0,0.585511,0.546376,0.539451,0.534594,-0.100997,-0.101013,0.7,-0.086879,-0.087771,0.0,11.345015,0.035067,-0.001382,0.0,0.0,0.0
56852,0.024372,-0.00474,0.018365,-0.084081,-0.084204,0.692692,-0.105188,-0.105188,0.7,-0.0,0.574171,0.560633,0.547554,0.523422,-0.10274,-0.102773,0.7,-0.087548,-0.088371,0.0,11.340378,0.036596,-0.002466,0.0,0.0,0.0
56872,0.024872,-0.003649,0.0186,-0.085653,-0.085178,0.692387,-0.107107,-0.107107,0.7,-0.0,0.568044,0.544601,0.552616,0.540189,-0.104496,-0.104545,0.7,-0.088251,-0.088999,0.0,11.323958,0.032757,-0.002022,0.0,0.0,0.0
56892,0.025971,-0.003538,0.018721,-0.087499,-0.086356,0.692125,-0.108749,-0.108749,0.7,-0.0,0.578233,0.553643,0.546164,0.526593,-0.106265,-0.106328,0.7,-0.088775,-0.089438,0.0,11.326015,0.033509,-0.00193,0.0,0.0,0.0
56912,0.025971,-0.003538,0.018721,-0.088797,-0.087462,0.691925,-0.110262,-0.110262,0.7,-0.0,0.587674,0.555032,0.538575,0.522264,-0.108043,-0.108119,0.7,-0.089081,-0.089651,0.0,11.325504,0.034459,-0.003139,0.0,0.0,0.0
56932,0.026817,-0.004521,0.018613,-0.090246,-0.088622,0.691753,-0.111805,-0.111805,0.7,-0.0,0.572862,0.554272,0.5514,0.526218,-0.109827,-0.109913,0.7,-0.089307,-0.089779,0.0,11.323986,0.033234,-0.001784,0.0,0.0,0.0
56952,0.024881,-0.002674,0.018709,-0.091716,-0.089634,0.691614,-0.113419,-0.113419,0.7,-0.0,0.581372,0.539858,0.540422,0.542642,-0.111614,-0.11171,0.7,-0.089521,-0.089896,0.0,11.320061,0.032071,-0.00252,0.0,0.0,0.0
56972,0.025126,-0.002553,0.018586,-0.093972,-0.091714,0.691435,-0.115227,-0.115227,0.7,-0.0,0.579699,0.548688,0.549383,0.525945,-0.113406,-0.113508,0.7,-0.089723,-0.090001,0.0,11.316043,0.031088,-0.002622,0.0,0.0,0.0
56992,0.024405,-0.0012,0.018322,-0.093972,-0.091714,0.691435,-0.11695,-0.11695,0.7,-0.0,0.580568,0.541132,0.544263,0.537671,-0.115202,-0.115309,0.7,-0.089899,-0.090083,0.0,11.311599,0.031296,-0.002953,0.0,0.0,0.0
57012,0.023927,-9.3e-05,0.017942,-0.09567,-0.093336,0.691315,-0.11695,-0.11695,0.7,-0.0,0.580031,0.545228,0.547679,0.530434,-0.117001,-0.117111,0.7,-0.090055,-0.090148,0.0,11.309934,0.027775,-0.000704,0.0,0.0,0.0
57032,0.022478,0.001754,0.017678,-0.097499,-0.09506,0.691257,-0.118901,-0.118901,0.7,-0.0,0.594958,0.52854,0.534475,0.543128,-0.118804,-0.118915,0.7,-0.090224,-0.090232,0.0,11.30143,0.033545,-0.008241,0.0,0.0,0.0
57052,0.021996,0.002495,0.017305,-0.099214,-0.096937,0.691214,-0.120601,-0.120601,0.7,-0.0,0.573972,0.551193,0.55565,0.521589,-0.12061,-0.12072,0.7,-0.090423,-0.090352,0.0,11.299531,0.02392,0.000303,0.0,0.0,0.0
57072,0.020421,0.003977,0.016927,-0.100836,-0.098693,0.691175,-0.122562,-0.122562,0.7,-0.0,0.587973,0.542094,0.54211,0.529292,-0.122419,-0.122527,0.7,-0.090421,-0.090274,0.0,11.295773,0.024093,-0.000606,0.0,0.0,0.0
57092,0.019822,0.005451,0.016547,-0.100836,-0.098693,0.691175,-0.122562,-0.122562,0.7,-0.0,0.583163,0.547434,0.546581,0.52424,-0.124226,-0.124331,0.7,-0.090191,-0.089973,0.0,11.292377,0.022536,-0.000777,0.0,0.0,0.0
57112,0.017757,0.006815,0.016054,-0.104751,-0.103223,0.691034,-0.12446,-0.12446,0.7,-0.0,0.588394,0.525472,0.542137,0.544771,-0.126027,-0.126127,0.7,-0.089857,-0.089573,0.0,11.289561,0.022954,-0.002457,0.0,0.0,0.0
57132,0.015671,0.005738,0.01546,-0.104751,-0.103223,0.691034,-0.126385,-0.126385,0.7,-0.0,0.588451,0.546019,0.541303,0.524607,-0.127822,-0.127916,0.7,-0.089519,-0.089179,0.0,11.285439,0.022447,-0.002394,0.0,0.0,0.0
57152,0.01372,0.006243,0.015216,-0.106599,-0.105701,0.690905,-0.128789,-0.128789,0.7,-0.0,0.573921,0.556558,0.557199,0.513147,-0.129608,-0.129695,0.7,-0.089,-0.08861,0.0,11.288371,0.01075,0.006301,0.0,0.0,0.0
57172,0.012617,0.005765,0.014978,-0.109111,-0.108871,0.690671,-0.130432,-0.130432,0.7,-0.0,0.595198,0.535047,0.530159,0.539333,-0.131383,-0.131462,0.7,-0.088283,-0.08785,0.0,11.284952,0.020844,-0.003584,0.0,0.0,0.0
57192,0.008837,0.006528,0.014498,-0.110457,-0.110757,0.690501,-0.131976,-0.131976,0.7,-0.0,0.600245,0.531827,0.530539,0.536655,-0.133143,-0.133213,0.7,-0.087531,-0.087065,0.0,11.287569,0.020478,-0.005755,0.0,0.0,0.0
57212,0.007234,0.004466,0.014145,-0.11189,-0.112863,0.690312,-0.133521,-0.133521,0.7,-0.0,0.582168,0.557174,0.551755,0.509463,-0.134889,-0.134949,0.7,-0.086938,-0.086451,0.0,11.294388,0.01396,-0.00143,0.0,0.0,0.0
57232,0.007115,0.004955,0.014022,-0.11189,-0.112863,0.690312,-0.133521,-0.133521,0.7,-0.0,0.588444,0.543664,0.54101,0.528419,-0.136625,-0.136675,0.7,-0.086558,-0.086064,0.0,11.297502,0.013765,-0.002523,0.0,0.0,0.0
57252,0.0043,0.003877,0.013909,-0.113085,-0.11485,0.690104,-0.135187,-0.135187,0.7,-0.0,0.586411,0.553763,0.535226,0.526372,-0.138354,-0.138395,0.7,-0.08634,-0.085851,0.0,11.301033,0.012671,-0.003068,0.0,0.0,0.0
57272,0.003196,0.003152,0.013913,-0.114567,-0.117217,0.689853,-0.13771,-0.13771,0.7,-0.0,0.586783,0.547553,0.536982,0.530282,-0.14008,-0.140111,0.7,-0.086218,-0.085744,0.0,11.296355,0.014198,-0.003056,0.0,0.0,0.0
57292,0.002452,0.00157,0.013916,-0.115816,-0.119104,0.689639,-0.13927,-0.13927,0.7,-0.0,0.583835,0.550694,0.539926,0.52775,-0.141802,-0.141824,0.7,-0.085937,-0.085482,0.0,11.301387,0.014062,-0.0051,0.0,0.0,0.0
57312,0.002452,0.00157,0.013794,-0.117428,-0.121591,0.689357,-0.140785,-0.140785,0.7,-0.0,0.587818,0.541042,0.537431,0.536299,-0.143518,-0.14353,0.7,-0.085441,-0.085008,0.0,11.30756,0.016012,-0.009244,0.0,0.0,0.0
57332,0.00159,0.000477,0.013917,-0.119009,-0.123697,0.689088,-0.142358,-0.142358,0.7,-0.0,0.581019,0.555166,0.538919,0.528083,-0.145223,-0.145227,0.7,-0.084959,-0.084553,0.0,11.311327,0.015527,-0.00951,0.0,0.0,0.0
57352,0.00268,-0.000873,0.013919,-0.119009,-0.123697,0.689088,-0.142358,-0.142358,0.7,-0.0,0.572549,0.546011,0.551623,0.534399,-0.146919,-0.146915,0.7,-0.084597,-0.084226,0.0,11.317513,0.012368,-0.008017,0.0,0.0,0.0
57372,0.001937,-0.002333,0.014164,-0.12189,-0.128155,0.688467,-0.144163,-0.144163,0.7,-0.0,0.586078,0.563473,0.53615,0.517141,-0.148609,-0.148598,0.7,-0.084332,-0.084002,0.0,11.322337,0.01169,-0.007231,0.0,0.0,0.0
57392,0.004363,-0.004426,0.014293,-0.12189,-0.128155,0.688467,-0.145998,-0.145998,0.7,-0.0,0.576791,0.561914,0.546741,0.517739,-0.150294,-0.150277,0.7,-0.084131,-0.083846,0.0,11.315465,0.013427,-0.006662,0.0,0.0,0.0
57412,0.00571,-0.003826,0.014539,-0.12317,-0.130074,0.68812,-0.147765,-0.147765,0.7,-0.0,0.561701,0.558512,0.558299,0.527577,-0.151974,-0.151952,0.7,-0.083762,-0.08352,0.0,11.335927,0.003434,-0.001609,0.0,0.0,0.0
57432,0.006556,-0.004931,0.014666,-0.124722,-0.131978,0.687748,-0.14968,-0.14968,0.7,-0.0,0.586503,0.542533,0.535502,0.539838,-0.153645,-0.153619,0.7,-0.083195,-0.082995,0.0,11.327181,0.014583,-0.010042,0.0,0.0,0.0
57452,0.005946,-0.004805,0.014786,-0.126186,-0.134191,0.687256,-0.151217,-0.151217,0.7,-0.0,0.582708,0.555151,0.5389,0.528261,-0.155305,-0.155274,0.7,-0.082579,-0.082419,0.0,11.334862,0.015098,-0.011139,0.0,0.0,0.0
57472,0.008874,-0.00495,0.015037,-0.12732,-0.135879,0.686833,-0.15276,-0.15276,0.7,-0.0,0.571171,0.545428,0.549222,0.54105,-0.156952,-0.156919,0.7,-0.082022,-0.081905,0.0,11.342379,0.016222,-0.011545,0.0,0.0,0.0
57492,0.008394,-0.003848,0.015154,-0.128458,-0.137277,0.686374,-0.154295,-0.154295,0.7,-0.0,0.574943,0.549342,0.544322,0.538978,-0.158589,-0.158554,0.7,-0.081607,-0.081533,0.0,11.354,0.014185,-0.010671,0.0,0.0,0.0
57512,0.01009,-0.005449,0.015409,-0.128458,-0.137277,0.686374,-0.155843,-0.155843,0.7,-0.0,0.572313,0.551294,0.550225,0.534365,-0.160219,-0.160182,0.7,-0.081341,-0.081313,0.0,11.360985,0.01482,-0.011459,0.0,0.0,0.0
57532,0.011435,-0.005094,0.015654,-0.129526,-0.138787,0.685868,-0.155843,-0.155843,0.7,-0.0,0.579983,0.549785,0.544019,0.534581,-0.161844,-0.161808,0.7,-0.081191,-0.081208,0.0,11.368665,0.016553,-0.012089,0.0,0.0,0.0
57552,0.0129,-0.004986,0.016023,-0.131765,-0.14185,0.684801,-0.157746,-0.157746,0.7,-0.0,0.583412,0.546571,0.537329,0.539815,-0.163468,-0.163432,0.7,-0.081127,-0.081189,0.0,11.356488,0.024035,-0.017602,0.0,0.0,0.0
57572,0.014124,-0.004508,0.016144,-0.132895,-0.143346,0.684235,-0.159315,-0.159315,0.7,-0.0,0.565037,0.55531,0.553811,0.53488,-0.16509,-0.165056,0.7,-0.081118,-0.081221,0.0,11.367958,0.016994,-0.010899,0.0,0.0,0.0
57592,0.016686,-0.004776,0.016521,-0.133919,-0.145043,0.68362,-0.161546,-0.161546,0.7,-0.0,0.564482,0.554847,0.556742,0.535713,-0.166712,-0.166679,0.7,-0.080935,-0.081072,0.0,11.40106,0.012786,-0.00864,0.0,0.0,0.0
57612,0.017652,-0.006006,0.016655,-0.135149,-0.146591,0.682977,-0.163276,-0.163276,0.7,-0.0,0.568274,0.559315,0.553787,0.530649,-0.168328,-0.168298,0.7,-0.080563,-0.080726,0.0,11.408254,0.014668,-0.010178,0.0,0.0,0.0
57632,0.019245,-0.005288,0.016775,-0.135149,-0.146591,0.682977,-0.163276,-0.163276,0.7,-0.0,0.571166,0.540191,0.554158,0.547452,-0.169936,-0.16991,0.7,-0.08012,-0.080304,0.0,11.416523,0.018178,-0.014775,0.0,0.0,0.0
57652,0.019129,-0.004555,0.016767,-0.137501,-0.150152,0.681487,-0.165158,-0.165158,0.7,-0.0,0.581084,0.543342,0.544123,0.544551,-0.171535,-0.171513,0.7,-0.079762,-0.079964,0.0,11.424755,0.019525,-0.015517,0.0,0.0,0.0
57672,0.019972,-0.005904,0.016782,-0.137501,-0.150152,0.681487,-0.166935,-0.166935,0.7,-0.0,0.572246,0.559692,0.548254,0.531493,-0.173129,-0.173111,0.7,-0.079562,-0.07978,0.0,11.405769,0.019855,-0.01403,0.0,0.0,0.0
57692,0.021083,-0.004448,0.016648,-0.138617,-0.152153,0.680689,-0.168784,-0.168784,0.7,-0.0,0.562095,0.542448,0.56374,0.547845,-0.174718,-0.174705,0.7,-0.079288,-0.079517,0.0,11.452603,0.01292,-0.010854,0.0,0.0,0.0
57712,0.01998,-0.004928,0.016773,-0.1401,-0.154237,0.679802,-0.170577,-0.170577,0.7,-0.0,0.591794,0.543011,0.530705,0.546778,-0.176301,-0.176292,0.7,-0.078895,-0.079128,0.0,11.429304,0.022142,-0.017979,0.0,0.0,0.0
57732,0.021333,-0.003717,0.01664,-0.141194,-0.156284,0.678975,-0.172183,-0.172183,0.7,-0.0,0.57787,0.543544,0.552562,0.540925,-0.177876,-0.177872,0.7,-0.078502,-0.078736,0.0,11.444392,0.021357,-0.019337,0.0,0.0,0.0
57752,0.019861,-0.00456,0.016647,-0.142283,-0.157786,0.678281,-0.173721,-0.173721,0.7,-0.0,0.586719,0.558506,0.539289,0.530661,-0.179444,-0.179444,0.7,-0.078207,-0.07844,0.0,11.460796,0.020144,-0.018687,0.0,0.0,0.0
57772,0.020592,-0.00481,0.01665,-0.143187,-0.159589,0.6776,-0.175265,-0.175265,0.7,-0.0,0.569307,0.542873,0.556368,0.549182,-0.181006,-0.181012,0.7,-0.078066,-0.078296,0.0,11.4729,0.018531,-0.019099,0.0,0.0,0.0
57792,0.019606,-0.005901,0.016781,-0.144199,-0.161232,0.67691,-0.176811,-0.176811,0.7,-0.0,0.582388,0.55192,0.542101,0.540902,-0.182568,-0.182577,0.7,-0.078076,-0.078304,0.0,11.477399,0.019275,-0.01922,0.0,0.0,0.0
57812,0.02082,-0.006645,0.016914,-0.145112,-0.163007,0.676234,-0.17835,-0.17835,0.7,-0.0,0.572952,0.553741,0.554113,0.537412,-0.18413,-0.184144,0.7,-0.078203,-0.078428,0.0,11.482111,0.018628,-0.020211,0.0,0.0,0.0
57832,0.020566,-0.007742,0.016925,-0.146076,-0.164634,0.675554,-0.179889,-0.179889,0.7,-0.0,0.578936,0.55419,0.54643,0.538732,-0.185695,-0.185714,0.7,-0.078412,-0.078632,0.0,11.486589,0.018811,-0.020625,0.0,0.0,0.0
57852,0.020806,-0.008353,0.01681,-0.147009,-0.166366,0.674901,-0.181432,-0.181432,0.7,-0.0,0.577158,0.547653,0.552267,0.54176,-0.187266,-0.187289,0.7,-0.078677,-0.078889,0.0,11.490939,0.018369,-0.021429,0.0,0.0,0.0
57872,0.021031,-0.010552,0.016834,-0.147996,-0.168126,0.674267,-0.181432,-0.181432,0.7,-0.0,0.581278,0.558313,0.547788,0.531177,-0.188841,-0.188869,0.7,-0.078976,-0.079179,0.0,11.495224,0.018658,-0.021928,0.0,0.0,0.0
57892,0.02176,-0.010924,0.016842,-0.149025,-0.170434,0.673488,-0.183094,-0.183094,0.7,-0.0,0.578469,0.554186,0.552067,0.534497,-0.190423,-0.190454,0.7,-0.079293,-0.079484,0.0,11.498889,0.018465,-0.022555,0.0,0.0,0.0
57912,0.021257,-0.01275,0.016737,-0.149025,-0.170434,0.673488,-0.185074,-0.185074,0.7,-0.0,0.571153,0.570967,0.55687,0.519625,-0.192011,-0.192046,0.7,-0.079603,-0.07978,0.0,11.501809,0.01156,-0.016275,0.0,0.0,0.0
57932,0.022233,-0.012999,0.016501,-0.151101,-0.174301,0.672307,-0.187496,-0.187496,0.7,-0.0,0.573735,0.550724,0.555356,0.540819,-0.193605,-0.193643,0.7,-0.079682,-0.079839,0.0,11.510876,0.010733,-0.018195,0.0,0.0,0.0
57952,0.020263,-0.015421,0.016148,-0.151101,-0.174301,0.672307,-0.187496,-0.187496,0.7,-0.0,0.59547,0.544745,0.532417,0.544124,-0.195197,-0.195238,0.7,-0.079488,-0.079617,0.0,11.486881,0.021333,-0.025601,0.0,0.0,0.0
57972,0.020395,-0.014322,0.016015,-0.15206,-0.176145,0.671807,-0.189314,-0.189314,0.7,-0.0,0.573338,0.544847,0.560635,0.542249,-0.196785,-0.196828,0.7,-0.079192,-0.079292,0.0,11.517031,0.015231,-0.024673,0.0,0.0,0.0
57992,0.019547,-0.013824,0.015639,-0.153097,-0.178139,0.671296,-0.191024,-0.191024,0.7,-0.0,0.589097,0.551807,0.54746,0.529433,-0.198367,-0.198412,0.7,-0.078998,-0.07907,0.0,11.493259,0.016486,-0.022508,0.0,0.0,0.0
58012,0.018921,-0.016135,0.015291,-0.154276,-0.180591,0.670786,-0.192906,-0.192906,0.7,-0.0,0.585366,0.558028,0.545098,0.529741,-0.199945,-0.199992,0.7,-0.078747,-0.078791,0.0,11.495785,0.017394,-0.024512,0.0,0.0,0.0
58032,0.019897,-0.016506,0.015058,-0.155595,-0.183028,0.670295,-0.19484,-0.19484,0.7,-0.0,0.573853,0.545769,0.556775,0.543263,-0.201517,-0.201565,0.7,-0.078374,-0.078389,0.0,11.499098,0.017026,-0.025419,0.0,0.0,0.0
58052,0.018795,-0.017107,0.014933,-0.155595,-0.183028,0.670295,-0.19484,-0.19484,0.7,-0.0,0.583769,0.552211,0.546544,0.536712,-0.203082,-0.203129,0.7,-0.077974,-0.07796,0.0,11.502526,0.015496,-0.026357,0.0,0.0,0.0
58072,0.019652,-0.017231,0.014575,-0.158385,-0.187888,0.669495,-0.198152,-0.198152,0.7,-0.0,0.57586,0.549375,0.55858,0.536101,-0.204639,-0.204686,0.7,-0.077643,-0.077604,0.0,11.505548,0.014538,-0.026824,0.0,0.0,0.0
58092,0.019762,-0.019304,0.01423,-0.159653,-0.190002,0.669205,-0.198152,-0.198152,0.7,-0.0,0.580243,0.557382,0.553436,0.526815,-0.20619,-0.206236,0.7,-0.077448,-0.077388,0.0,11.488442,0.015918,-0.02464,0.0,0.0,0.0
58112,0.020985,-0.019676,0.013882,-0.160804,-0.192069,0.66894,-0.199704,-0.199704,0.7,-0.0,0.566399,0.549258,0.567072,0.537709,-0.207737,-0.207782,0.7,-0.077184,-0.077105,0.0,11.508965,0.010382,-0.02519,0.0,0.0,0.0
58132,0.020981,-0.020527,0.013647,-0.160804,-0.192069,0.66894,-0.201229,-0.201229,0.7,-0.0,0.570566,0.561363,0.564982,0.52228,-0.209279,-0.209322,0.7,-0.076989,-0.076895,0.0,11.504713,0.003428,-0.018007,0.0,0.0,0.0
58152,0.02221,-0.020042,0.013165,-0.162114,-0.194274,0.668701,-0.202876,-0.202876,0.7,-0.0,0.574808,0.549741,0.562305,0.532571,-0.210818,-0.210859,0.7,-0.076781,-0.076673,0.0,11.501371,0.004612,-0.019401,0.0,0.0,0.0
58172,0.020749,-0.020635,0.012425,-0.164854,-0.198228,0.668319,-0.202876,-0.202876,0.7,-0.0,0.60102,0.548257,0.53835,0.528408,-0.212351,-0.21239,0.7,-0.07645,-0.076329,-0.0,11.488174,0.014313,-0.025429,0.0,0.0,0.0
58192,0.021614,-0.020265,0.011575,-0.166235,-0.200672,0.668149,-0.205638,-0.205638,0.7,-0.0,0.582641,0.545636,0.559478,0.530003,-0.213877,-0.213913,0.7,-0.076044,-0.07591,-0.0,11.487747,0.01322,-0.025283,0.0,0.0,0.0
58212,0.019915,-0.019637,0.010817,-0.167836,-0.20288,0.66801,-0.207227,-0.207227,0.7,-0.0,0.564315,0.5543,0.5766,0.522956,-0.215395,-0.215428,0.7,-0.075611,-0.075468,-0.0,11.493885,-0.002281,-0.012011,0.0,0.0,0.0
58232,0.021259,-0.020614,0.01023,-0.167836,-0.20288,0.66801,-0.208779,-0.208779,0.7,-0.0,0.575869,0.548196,0.560981,0.533569,-0.216902,-0.216933,0.7,-0.074984,-0.07483,-0.0,11.491446,0.00344,-0.018979,0.0,0.0,0.0
58252,0.021765,-0.019262,0.009121,-0.169699,-0.20562,0.667895,-0.210311,-0.210311,0.7,-0.0,0.583808,0.542663,0.566554,0.524194,-0.218397,-0.218424,0.7,-0.074296,-0.074134,-0.0,11.48855,0.004011,-0.0187,0.0,0.0,0.0
58272,0.019709,-0.017167,0.007983,-0.171804,-0.208375,0.667851,-0.211964,-0.211964,0.7,-0.0,0.605102,0.522781,0.543164,0.543602,-0.219878,-0.219902,0.7,-0.073712,-0.073546,-0.0,11.479967,0.013772,-0.025252,0.0,0.0,0.0
58292,0.019105,-0.018009,0.006887,-0.174014,-0.211383,0.667836,-0.213914,-0.213914,0.7,-0.0,0.587443,0.546125,0.561708,0.520896,-0.221349,-0.22137,0.7,-0.073246,-0.073081,-0.0,11.479318,0.009821,-0.022546,0.0,0.0,0.0
58312,0.020703,-0.017027,0.005914,-0.17604,-0.214258,0.667902,-0.215747,-0.215747,0.7,-0.0,0.578004,0.542713,0.572707,0.52286,-0.222811,-0.222829,0.7,-0.072889,-0.07273,-0.0,11.476595,0.007038,-0.019885,0.0,0.0,0.0
58332,0.021198,-0.01775,0.004949,-0.178482,-0.217307,0.668043,-0.217465,-0.217465,0.7,-0.0,0.579505,0.547675,0.566918,0.522113,-0.224267,-0.224281,0.7,-0.072648,-0.072499,-0.0,11.473756,0.004934,-0.0186,0.0,0.0,0.0
58352,0.021576,-0.016885,0.003845,-0.180914,-0.22031,0.668237,-0.219075,-0.219075,0.7,-0.0,0.582623,0.538935,0.566754,0.527434,-0.225719,-0.22573,0.7,-0.072578,-0.072445,-0.0,11.468605,0.003261,-0.017897,0.0,0.0,0.0
58372,0.021097,-0.017237,0.002624,-0.183175,-0.222887,0.668494,-0.219075,-0.219075,0.7,-0.0,0.582195,0.545929,0.568503,0.518075,-0.227171,-0.22718,0.7,-0.07272,-0.072606,-0.0,11.461672,0.000606,-0.015079,0.0,0.0,0.0
58392,0.021719,-0.017468,0.001288,-0.185237,-0.22553,0.66882,-0.220611,-0.220611,0.7,-0.0,0.575439,0.54192,0.580217,0.516158,-0.228628,-0.228635,0.7,-0.073065,-0.072977,-0.0,11.454595,-0.00187,-0.012407,0.0,0.0,0.0
58412,0.020633,-0.015011,-0.000211,-0.185237,-0.22553,0.66882,-0.222162,-0.222162,0.7,-0.0,0.583737,0.538764,0.573607,0.516755,-0.230093,-0.230098,0.7,-0.073563,-0.073501,-0.0,11.446059,-0.009031,-0.004072,0.0,0.0,0.0
58432,0.018203,-0.012677,-0.00196,-0.18761,-0.228215,0.669211,-0.224122,-0.224122,0.7,-0.0,0.594244,0.528482,0.563192,0.525854,-0.231567,-0.231572,0.7,-0.073941,-0.073904,-0.0,11.436106,-0.008607,-0.004769,0.0,0.0,0.0
58452,0.016014,-0.011932,-0.003689,-0.190701,-0.231893,0.669829,-0.224122,-0.224122,0.7,-0.0,0.609956,0.518625,0.554828,0.526738,-0.233047,-0.233051,0.7,-0.074098,-0.074079,-0.0,11.442087,0.003078,-0.014257,0.0,0.0,0.0
58472,0.013571,-0.007653,-0.005442,-0.192947,-0.234734,0.67036,-0.226676,-0.226676,0.7,-0.0,0.604487,0.517654,0.560688,0.526891,-0.23453,-0.234533,0.7,-0.074107,-0.074102,-0.0,11.43064,0.002742,-0.013548,0.0,0.0,0.0
58492,0.009901,-0.003505,-0.007185,-0.192947,-0.234734,0.67036,-0.228274,-0.228274,0.7,-0.0,0.590646,0.529694,0.57043,0.518731,-0.236012,-0.236015,0.7,-0.07408,-0.074086,-0.0,11.412275,-0.01028,-0.001486,0.0,0.0,0.0
58512,0.008433,-0.002283,-0.008658,-0.196401,-0.238696,0.671168,-0.229806,-0.229806,0.7,-0.0,0.598889,0.52278,0.559867,0.526747,-0.237492,-0.237496,0.7,-0.073867,-0.07388,-0.0,11.401541,-0.006363,-0.006292,0.0,0.0,0.0
58532,0.005129,-0.000339,-0.010499,-0.199267,-0.242101,0.672003,-0.231531,-0.231531,0.7,-0.0,0.615402,0.50445,0.548843,0.537751,-0.238967,-0.238971,0.7,-0.073556,-0.073574,-0.0,11.414991,0.004845,-0.015742,0.0,0.0,0.0
58552,0.003773,0.001854,-0.011968,-0.202073,-0.245376,0.672857,-0.233483,-0.233483,0.7,-0.0,0.587377,0.524939,0.574796,0.520749,-0.240436,-0.24044,0.7,-0.073291,-0.073312,-0.0,11.392853,-0.003409,-0.008312,0.0,0.0,0.0
58572,0.005106,0.003208,-0.013315,-0.204655,-0.248567,0.673725,-0.235319,-0.235319,0.7,-0.0,0.583179,0.524385,0.575896,0.523219,-0.2419,-0.241905,0.7,-0.073088,-0.073114,-0.0,11.373953,-0.00696,-0.005642,0.0,0.0,0.0
58592,0.00387,0.004911,-0.014659,-0.204655,-0.248567,0.673725,-0.235319,-0.235319,0.7,-0.0,0.589329,0.520065,0.569045,0.526692,-0.243361,-0.243366,0.7,-0.07297,-0.073001,-0.0,11.357851,-0.008384,-0.004706,0.0,0.0,0.0
58612,0.003129,0.005641,-0.016124,-0.207709,-0.251761,0.674645,-0.237194,-0.237194,0.7,-0.0,0.592351,0.524823,0.571292,0.514703,-0.24482,-0.244826,0.7,-0.072999,-0.073036,-0.0,11.344214,-0.009767,-0.004402,0.0,0.0,0.0
58632,0.003121,0.006009,-0.017589,-0.210262,-0.255103,0.675541,-0.239158,-0.239158,0.7,-0.0,0.601882,0.522004,0.564426,0.516145,-0.246282,-0.246288,0.7,-0.073199,-0.073245,-0.0,11.369015,-0.005146,-0.007356,0.0,0.0,0.0
58652,0.000782,0.007698,-0.018925,-0.21271,-0.258145,0.676447,-0.240715,-0.240715,0.7,-0.0,0.596658,0.519133,0.564013,0.52408,-0.247747,-0.247755,0.7,-0.073325,-0.073376,-0.0,11.351203,-0.007131,-0.004691,0.0,0.0,0.0
58672,0.000899,0.007578,-0.02039,-0.214785,-0.260592,0.677164,-0.242255,-0.242255,0.7,-0.0,0.597313,0.5272,0.570656,0.506415,-0.249213,-0.249222,0.7,-0.073315,-0.073368,-0.0,11.337523,-0.009086,-0.005045,0.0,0.0,0.0
58692,0.002251,0.006251,-0.021862,-0.216633,-0.263038,0.677886,-0.243797,-0.243797,0.7,-0.0,0.58753,0.534924,0.578239,0.500102,-0.250679,-0.250689,0.7,-0.073302,-0.073355,-0.0,11.325846,-0.011213,-0.004032,0.0,0.0,0.0
58712,0.001499,0.007587,-0.023326,-0.218464,-0.265208,0.678603,-0.245388,-0.245388,0.7,-0.0,0.592998,0.515118,0.57379,0.51912,-0.252146,-0.252157,0.7,-0.07334,-0.073392,-0.0,11.324229,-0.010548,-0.004729,0.0,0.0,0.0
58732,-0.000109,0.008789,-0.024784,-0.220711,-0.268009,0.679446,-0.247501,-0.247501,0.7,-0.0,0.604494,0.516332,0.562272,0.516966,-0.253613,-0.253625,0.7,-0.073422,-0.073472,-0.0,11.3225,-0.010078,-0.006272,0.0,0.0,0.0
58752,-0.001073,0.007311,-0.026245,-0.222425,-0.270438,0.680135,-0.249064,-0.249064,0.7,-0.0,0.598361,0.522874,0.566754,0.512585,-0.255082,-0.255095,0.7,-0.073534,-0.073583,-0.0,11.320966,-0.008395,-0.007798,0.0,0.0,0.0
58772,-0.001926,0.00681,-0.027707,-0.222425,-0.270438,0.680135,-0.249064,-0.249064,0.7,-0.0,0.596702,0.518367,0.571688,0.512984,-0.256554,-0.256568,0.7,-0.073677,-0.073725,-0.0,11.314363,-0.007574,-0.009493,0.0,0.0,0.0
58792,-0.001679,0.006324,-0.028928,-0.224492,-0.273336,0.681027,-0.250624,-0.250624,0.7,-0.0,0.596736,0.522333,0.570704,0.51009,-0.258029,-0.258044,0.7,-0.073926,-0.073972,-0.0,11.315174,-0.00775,-0.0108,0.0,0.0,0.0
58812,-0.000686,0.004995,-0.030152,-0.226029,-0.275699,0.681766,-0.252269,-0.252269,0.7,-0.0,0.593289,0.516161,0.57374,0.51956,-0.25951,-0.259526,0.7,-0.074281,-0.074327,-0.0,11.344144,-0.004252,-0.012516,0.0,0.0,0.0
58832,-0.000337,0.005977,-0.031134,-0.227627,-0.277768,0.682513,-0.253939,-0.253939,0.7,-0.0,0.591245,0.516658,0.578215,0.515183,-0.260998,-0.261015,0.7,-0.07448,-0.074523,-0.0,11.330645,-0.007236,-0.011738,0.0,0.0,0.0
58852,-0.000681,0.004384,-0.032354,-0.229468,-0.280356,0.683411,-0.255792,-0.255792,0.7,-0.0,0.598472,0.525689,0.566993,0.509711,-0.262487,-0.262505,0.7,-0.074432,-0.074465,-0.0,11.325769,-0.007062,-0.013765,0.0,0.0,0.0
58872,-0.000889,0.002061,-0.03333,-0.230986,-0.282674,0.684237,-0.257617,-0.257617,0.7,-0.0,0.595874,0.525938,0.571226,0.507346,-0.263975,-0.263993,0.7,-0.074229,-0.074248,-0.0,11.321264,-0.005633,-0.015264,0.0,0.0,0.0
58892,-0.000644,0.001942,-0.034307,-0.232409,-0.285076,0.685152,-0.259313,-0.259313,0.7,-0.0,0.595829,0.523551,0.570139,0.510206,-0.265457,-0.265476,0.7,-0.073963,-0.073968,-0.0,11.311113,-0.005988,-0.016248,0.0,0.0,0.0
58912,-0.001214,-0.000388,-0.035283,-0.233758,-0.28723,0.686006,-0.260922,-0.260922,0.7,-0.0,0.600222,0.523555,0.565951,0.509155,-0.266935,-0.266953,0.7,-0.073727,-0.073719,-0.0,11.305559,-0.005306,-0.01833,0.0,0.0,0.0
58932,-0.000799,-0.003067,-0.036138,-0.234769,-0.288876,0.68677,-0.262467,-0.262467,0.7,-0.0,0.59463,0.529049,0.572334,0.502088,-0.268408,-0.268426,0.7,-0.07359,-0.073572,-0.0,11.297127,-0.005739,-0.019906,0.0,0.0,0.0
58952,-0.000775,-0.004288,-0.036993,-0.2357,-0.290478,0.687547,-0.264006,-0.264006,0.7,-0.0,0.60004,0.529142,0.568736,0.499093,-0.26988,-0.269897,0.7,-0.073575,-0.073549,-0.0,11.292486,-0.005471,-0.02116,0.0,0.0,0.0
58972,-0.001354,-0.005886,-0.037849,-0.2357,-0.290478,0.687547,-0.264006,-0.264006,0.7,-0.0,0.596831,0.522102,0.566646,0.512733,-0.271352,-0.271369,0.7,-0.073664,-0.073633,-0.0,11.292012,-0.003414,-0.023387,0.0,0.0,0.0
58992,-0.001952,-0.006387,-0.03859,-0.236588,-0.292196,0.688327,-0.265621,-0.265621,0.7,-0.0,0.600574,0.518001,0.566682,0.512263,-0.272826,-0.272842,0.7,-0.073826,-0.073791,-0.0,11.290849,-0.001642,-0.025554,0.0,0.0,0.0
59012,-0.004015,-0.006916,-0.039329,-0.238099,-0.294394,0.689477,-0.267692,-0.267692,0.7,-0.0,0.608047,0.522655,0.555955,0.513173,-0.274304,-0.27432,0.7,-0.074016,-0.073979,-0.0,11.321793,1e-05,-0.024749,0.0,0.0,0.0
59032,-0.004573,-0.009493,-0.039825,-0.239224,-0.295938,0.69025,-0.269601,-0.269601,0.7,-0.0,0.600369,0.525263,0.563809,0.510432,-0.275785,-0.2758,0.7,-0.073997,-0.073955,-0.0,11.314428,0.000856,-0.027272,0.0,0.0,0.0
59052,-0.003189,-0.011419,-0.040188,-0.240267,-0.297589,0.691166,-0.271142,-0.271142,0.7,-0.0,0.590941,0.531698,0.570643,0.505323,-0.277263,-0.277277,0.7,-0.073713,-0.073661,-0.0,11.292905,0.00139,-0.028644,0.0,0.0,0.0
59072,-0.002436,-0.012381,-0.040429,-0.241302,-0.298908,0.692039,-0.27284,-0.27284,0.7,-0.0,0.592308,0.520596,0.564099,0.522267,-0.278734,-0.278747,0.7,-0.07334,-0.073277,-0.0,11.290379,0.003896,-0.030782,0.0,0.0,0.0
59092,-0.000209,-0.013801,-0.040416,-0.241302,-0.298908,0.692039,-0.27284,-0.27284,0.7,-0.0,0.586546,0.526242,0.569726,0.516308,-0.280199,-0.28021,0.7,-0.073026,-0.072954,-0.0,11.282334,0.003851,-0.031349,0.0,0.0,0.0
59112,0.002254,-0.01485,-0.040398,-0.24217,-0.299891,0.692912,-0.274605,-0.274605,0.7,-0.0,0.582675,0.526191,0.571996,0.517826,-0.281657,-0.281667,0.7,-0.072803,-0.072727,-0.0,11.277188,0.005873,-0.032577,0.0,0.0,0.0
59132,0.004598,-0.016146,-0.040256,-0.24217,-0.299891,0.692912,-0.274605,-0.274605,0.7,-0.0,0.580585,0.532343,0.570305,0.518588,-0.283112,-0.283121,0.7,-0.072662,-0.072584,-0.0,11.308553,0.005857,-0.030793,0.0,0.0,0.0
59152,0.006924,-0.016589,-0.039869,-0.243431,-0.300909,0.693799,-0.277774,-0.277774,0.7,-0.0,0.584697,0.526368,0.56805,0.521553,-0.284564,-0.284571,0.7,-0.072379,-0.072297,-0.0,11.297865,0.00918,-0.033264,0.0,0.0,0.0
59172,0.008604,-0.015213,-0.039616,-0.245777,-0.303144,0.695254,-0.279564,-0.279564,0.7,-0.0,0.5843,0.521901,0.570023,0.526645,-0.286008,-0.286013,0.7,-0.071895,-0.071807,-0.0,11.324734,0.008492,-0.031478,0.0,0.0,0.0
59192,0.011559,-0.016622,-0.039218,-0.247263,-0.304294,0.696021,-0.281239,-0.281239,0.7,-0.0,0.593669,0.526637,0.555241,0.525943,-0.28744,-0.287444,0.7,-0.071103,-0.071005,-0.0,11.309923,0.017159,-0.038294,0.0,0.0,0.0
59212,0.013893,-0.017433,-0.038955,-0.24868,-0.305398,0.696865,-0.282885,-0.282885,0.7,-0.0,0.577018,0.541009,0.572883,0.50756,-0.288856,-0.288857,0.7,-0.070242,-0.070135,-0.0,11.274314,0.013045,-0.033313,0.0,0.0,0.0
59232,0.017061,-0.017376,-0.038315,-0.24989,-0.306078,0.697559,-0.284423,-0.284423,0.7,-0.0,0.571631,0.531617,0.571598,0.524861,-0.290255,-0.290254,0.7,-0.069554,-0.069443,-0.0,11.273226,0.013861,-0.032536,0.0,0.0,0.0
59252,0.019506,-0.017823,-0.037677,-0.251201,-0.306941,0.698272,-0.285964,-0.285964,0.7,-0.0,0.578962,0.533137,0.563218,0.523942,-0.291642,-0.291639,0.7,-0.069074,-0.068964,-0.0,11.268753,0.0146,-0.032141,0.0,0.0,0.0
59272,0.01924,-0.016856,-0.037201,-0.252582,-0.307661,0.699016,-0.28752,-0.28752,0.7,-0.0,0.587219,0.522377,0.55925,0.529843,-0.293021,-0.293016,0.7,-0.06879,-0.068688,-0.0,11.270505,0.016553,-0.032306,0.0,0.0,0.0
59292,0.019499,-0.017956,-0.036578,-0.254277,-0.308726,0.69991,-0.28752,-0.28752,0.7,-0.0,0.583319,0.532563,0.562024,0.521062,-0.294396,-0.294389,0.7,-0.068669,-0.068579,-0.0,11.270692,0.017379,-0.032083,0.0,0.0,0.0
59312,0.021085,-0.0183,-0.035827,-0.255503,-0.309595,0.700722,-0.28965,-0.28965,0.7,-0.0,0.579638,0.533618,0.561341,0.524779,-0.295769,-0.295761,0.7,-0.068676,-0.068601,-0.0,11.269319,0.018732,-0.031723,0.0,0.0,0.0
59332,0.019707,-0.016744,-0.035117,-0.255503,-0.309595,0.700722,-0.291194,-0.291194,0.7,-0.0,0.57669,0.531583,0.5642,0.526294,-0.297144,-0.297133,0.7,-0.068774,-0.068716,-0.0,11.260661,0.011671,-0.023446,0.0,0.0,0.0
59352,0.019949,-0.016993,-0.034259,-0.257394,-0.31048,0.701747,-0.292812,-0.292812,0.7,-0.0,0.586868,0.532114,0.551746,0.527331,-0.298519,-0.298508,0.7,-0.068734,-0.06869,-0.0,11.257066,0.015929,-0.027928,0.0,0.0,0.0
59372,0.019925,-0.0159,-0.033659,-0.259109,-0.311646,0.702704,-0.294479,-0.294479,0.7,-0.0,0.594308,0.520478,0.548692,0.536119,-0.299893,-0.299881,0.7,-0.068565,-0.068533,-0.0,11.286589,0.020612,-0.034368,0.0,0.0,0.0
59392,0.018806,-0.015073,-0.032823,-0.261005,-0.31251,0.703723,-0.296245,-0.296245,0.7,-0.0,0.587596,0.528616,0.551567,0.531119,-0.301262,-0.30125,0.7,-0.068382,-0.068361,-0.0,11.267685,0.020948,-0.031849,0.0,0.0,0.0
59412,0.01988,-0.013966,-0.031848,-0.262777,-0.313419,0.704772,-0.298086,-0.298086,0.7,-0.0,0.580734,0.534911,0.556913,0.525764,-0.302629,-0.302616,0.7,-0.068236,-0.068225,-0.0,11.255178,0.020246,-0.030825,0.0,0.0,0.0
59432,0.019751,-0.013978,-0.030873,-0.264797,-0.314373,0.705798,-0.299958,-0.299958,0.7,-0.0,0.583939,0.536331,0.547831,0.529097,-0.303993,-0.30398,0.7,-0.068167,-0.068168,-0.0,11.24119,0.021417,-0.029691,0.0,0.0,0.0
59452,0.019993,-0.014351,-0.02977,-0.267003,-0.31543,0.706977,-0.299958,-0.299958,0.7,-0.0,0.576715,0.530436,0.552567,0.536961,-0.305356,-0.305344,0.7,-0.068218,-0.068233,-0.0,11.228274,0.022527,-0.029679,0.0,0.0,0.0
59472,0.02119,-0.013369,-0.028545,-0.267003,-0.31543,0.706977,-0.296388,-0.3,0.7,-0.0,0.577536,0.531035,0.554495,0.532613,-0.306722,-0.30671,0.7,-0.068433,-0.068463,-0.0,11.218355,0.023395,-0.028777,0.0,0.0,0.0
59492,0.024012,-0.01493,-0.02729,-0.269064,-0.316287,0.708054,-0.293112,-0.3,0.7,-0.0,0.557228,0.556909,0.569235,0.510455,-0.308094,-0.308082,0.7,-0.068831,-0.068879,-0.0,11.203638,0.015637,-0.019245,0.0,0.0,0.0
59512,0.024833,-0.013104,-0.025963,-0.270852,-0.316877,0.70894,-0.290081,-0.3,0.7,-0.0,0.565099,0.544896,0.5647,0.522975,-0.309473,-0.309462,0.7,-0.069128,-0.069216,-0.0,11.23935,0.014072,-0.005649,0.0,0.0,0.0
59532,0.02664,-0.011999,-0.024617,-0.27285,-0.317765,0.709802,-0.286994,-0.3,0.7,-0.0,0.562699,0.566225,0.564999,0.50035,-0.310853,-0.310847,0.7,-0.068463,-0.069137,-0.0,11.223172,0.008937,0.013026,0.0,0.0,0.0
59552,0.026844,-0.009207,-0.02331,-0.274748,-0.318585,0.710653,-0.283227,-0.3,0.7,-0.0,0.568862,0.559862,0.557484,0.508519,-0.312207,-0.312225,0.7,-0.066015,-0.068418,-0.0,11.217109,0.005904,0.02605,0.0,0.0,0.0
59572,0.026019,-0.001293,-0.022563,-0.277578,-0.319914,0.711717,-0.279688,-0.3,0.7,-0.0,0.573103,0.53241,0.558505,0.531281,-0.313496,-0.313584,0.7,-0.061354,-0.06694,-0.0,11.211471,0.002134,0.037904,0.0,0.0,0.0
59592,0.024351,0.006124,-0.021802,-0.279851,-0.320864,0.712425,-0.276144,-0.3,0.7,-0.0,0.572977,0.532065,0.556851,0.533139,-0.314674,-0.314907,0.7,-0.054316,-0.064658,-0.0,11.207117,-0.000665,0.050199,0.0,0.0,0.0
59612,0.02079,0.01975,-0.021205,-0.279851,-0.320864,0.712425,-0.276144,-0.3,0.7,-0.0,0.57947,0.508698,0.555774,0.548521,-0.315693,-0.316178,0.7,-0.044806,-0.061582,-0.0,11.194622,-0.005167,0.063411,0.0,0.0,0.0
59632,0.016962,0.036432,-0.020713,-0.283713,-0.322609,0.713301,-0.272639,-0.3,0.7,-0.0,0.587686,0.483209,0.552077,0.566273,-0.316503,-0.317382,0.7,-0.032853,-0.057757,-0.0,11.201857,-0.007252,0.072021,0.0,0.0,0.0
59652,0.013394,0.052143,-0.020281,-0.28589,-0.324057,0.714017,-0.268654,-0.3,0.7,-0.0,0.597871,0.443004,0.547206,0.593984,-0.317057,-0.318505,0.7,-0.018661,-0.053252,-0.0,11.239297,-0.004921,0.054278,0.0,0.0,0.0
59672,0.007366,0.071137,-0.019613,-0.28749,-0.325355,0.714527,-0.26485,-0.3,0.7,-0.0,0.595972,0.4736,0.540772,0.57907,-0.317314,-0.319532,0.7,-0.00296,-0.048156,-0.0,11.23956,-0.010587,0.071768,0.0,0.0,0.0
59692,0.002264,0.085745,-0.018493,-0.288897,-0.326714,0.714913,-0.261355,-0.3,0.7,-0.0,0.58317,0.485821,0.54162,0.58248,-0.317249,-0.320454,0.7,0.013839,-0.042568,-0.0,11.251021,-0.013978,0.081066,0.0,0.0,0.0
59712,-0.001717,0.09964,-0.017356,-0.288897,-0.326714,0.714913,-0.261355,-0.3,0.7,-0.0,0.582622,0.484897,0.543814,0.583248,-0.31684,-0.321261,0.7,0.03167,-0.036591,-0.0,11.270408,-0.016171,0.085665,0.0,0.0,0.0
59732,-0.007136,0.111702,-0.01621,-0.290847,-0.328605,0.715211,-0.257702,-0.3,0.7,-0.0,0.591564,0.482348,0.533666,0.587396,-0.316067,-0.321946,0.7,0.05034,-0.030331,-0.0,11.295052,-0.018304,0.087266,0.0,0.0,0.0
59752,-0.010799,0.120844,-0.014865,-0.29087,-0.329913,0.715194,-0.253653,-0.3,0.7,-0.0,0.590483,0.457885,0.536675,0.606989,-0.314917,-0.322505,0.7,0.069584,-0.023895,-0.0,11.332274,-0.014286,0.068356,0.0,0.0,0.0
59772,-0.015018,0.12608,-0.013224,-0.289783,-0.331193,0.71494,-0.250422,-0.3,0.7,-0.0,0.591617,0.520338,0.53138,0.561077,-0.313381,-0.322934,0.7,0.088806,-0.017388,-0.0,11.34563,-0.019235,0.07711,0.0,0.0,0.0
59792,-0.014913,0.126703,-0.0115,-0.288555,-0.332317,0.714625,-0.247345,-0.3,0.7,-0.0,0.568713,0.534485,0.550612,0.55488,-0.311462,-0.323233,0.7,0.107715,-0.010906,-0.0,11.365289,-0.020845,0.07794,0.0,0.0,0.0
59812,-0.017354,0.123151,-0.009766,-0.286826,-0.332996,0.714168,-0.244246,-0.3,0.7,-0.0,0.579142,0.543878,0.536069,0.550744,-0.309168,-0.323403,0.7,0.126344,-0.004543,-0.0,11.38523,-0.022128,0.070621,0.0,0.0,0.0
59832,-0.019064,0.11643,-0.008237,-0.284544,-0.333941,0.713603,-0.241017,-0.3,0.7,-0.0,0.5788,0.548357,0.544167,0.539657,-0.306503,-0.323448,0.7,0.144583,0.001618,-0.0,11.39775,-0.022611,0.063683,0.0,0.0,0.0
59852,-0.018439,0.106795,-0.006509,-0.281366,-0.334873,0.71281,-0.241017,-0.3,0.7,-0.0,0.569873,0.565363,0.547593,0.528987,-0.303478,-0.323371,0.7,0.162196,0.007501,-0.0,11.409231,-0.02119,0.056239,0.0,0.0,0.0
59872,-0.017823,0.094098,-0.004803,-0.281366,-0.334873,0.71281,-0.236761,-0.3,0.7,-0.0,0.566028,0.577211,0.553179,0.514664,-0.300107,-0.323178,0.7,0.178953,0.013039,-0.0,11.415715,-0.021283,0.048608,0.0,0.0,0.0
59892,-0.016013,0.083,-0.003133,-0.276311,-0.335557,0.711831,-0.233712,-0.3,0.7,-0.0,0.568826,0.555674,0.554709,0.534906,-0.296409,-0.322878,0.7,0.194652,0.018176,-0.0,11.431332,-0.021403,0.024876,0.0,0.0,0.0
59912,-0.016056,0.066888,-0.001665,-0.271846,-0.336159,0.710922,-0.230378,-0.3,0.7,-0.0,0.586397,0.616338,0.536946,0.457478,-0.292407,-0.322479,0.7,0.208711,0.022863,-0.0,11.406275,-0.017594,0.037701,0.0,0.0,0.0
59932,-0.014278,0.051396,0.000367,-0.266511,-0.336893,0.709909,-0.226469,-0.3,0.7,-0.0,0.561554,0.591822,0.549117,0.508031,-0.288138,-0.32199,0.7,0.221047,0.027064,-0.0,11.4271,-0.017531,0.021363,0.0,0.0,0.0
59952,-0.013027,0.035414,0.002063,-0.260886,-0.337393,0.708887,-0.223003,-0.3,0.7,-0.0,0.5652,0.601911,0.550995,0.490502,-0.283634,-0.32142,0.7,0.231805,0.030754,-0.0,11.440718,-0.017214,0.011979,0.0,0.0,0.0
59972,-0.011928,0.019676,0.003659,-0.255303,-0.337668,0.707879,-0.219574,-0.3,0.7,-0.0,0.567677,0.602648,0.549234,0.490354,-0.278926,-0.32078,0.7,0.241056,0.033916,-0.0,11.458831,-0.017608,0.003176,0.0,0.0,0.0
59992,-0.010732,0.0043,0.005151,-0.255303,-0.337668,0.707879,-0.219574,-0.3,0.7,-0.0,0.566169,0.600157,0.548555,0.497604,-0.274044,-0.320081,0.7,0.248944,0.036542,-0.0,11.475404,-0.017014,-0.007061,0.0,0.0,0.0
60012,-0.010408,-0.009365,0.006666,-0.24743,-0.337871,0.706793,-0.215687,-0.3,0.7,-0.0,0.567394,0.596834,0.549769,0.500386,-0.269013,-0.319334,0.7,0.255566,0.038633,-0.0,11.491027,-0.015642,-0.015323,0.0,0.0,0.0
60032,-0.00936,-0.020227,0.008087,-0.240874,-0.338186,0.705729,-0.211998,-0.3,0.7,-0.0,0.574279,0.605307,0.546539,0.482572,-0.26386,-0.318549,0.7,0.260925,0.040199,-0.0,11.464526,-0.013429,-0.012767,0.0,0.0,0.0
60052,-0.007971,-0.032678,0.009643,-0.234548,-0.338097,0.704775,-0.208643,-0.3,0.7,-0.0,0.567256,0.595407,0.549756,0.502211,-0.258611,-0.317736,0.7,0.264575,0.041255,-0.0,11.48991,-0.012576,-0.027817,0.0,0.0,0.0
60072,-0.007552,-0.041343,0.010964,-0.2291,-0.338131,0.704088,-0.205557,-0.3,0.7,-0.0,0.569573,0.583584,0.550395,0.514884,-0.253303,-0.316906,0.7,0.266506,0.041825,-0.0,11.511234,-0.012434,-0.035268,0.0,0.0,0.0
60092,-0.004831,-0.049782,0.012596,-0.224053,-0.337914,0.703444,-0.202485,-0.3,0.7,-0.0,0.561998,0.584822,0.549717,0.523777,-0.247966,-0.316068,0.7,0.267057,0.041938,-0.0,11.524861,-0.010651,-0.041828,0.0,0.0,0.0
60112,-0.004427,-0.056496,0.014063,-0.21867,-0.337753,0.702922,-0.199155,-0.3,0.7,-0.0,0.563132,0.584652,0.545076,0.527846,-0.242628,-0.315231,0.7,0.266462,0.041628,-0.0,11.527581,-0.00979,-0.044621,0.0,0.0,0.0
60132,-0.0033,-0.062244,0.015806,-0.212771,-0.337398,0.702382,-0.194848,-0.3,0.7,-0.0,0.562763,0.586909,0.548751,0.521862,-0.23731,-0.314403,0.7,0.264842,0.040933,-0.0,11.528093,-0.008073,-0.04531,0.0,0.0,0.0
60152,-0.000932,-0.065804,0.01723,-0.207839,-0.337214,0.702123,-0.194848,-0.3,0.7,-0.0,0.566978,0.583857,0.552685,0.516224,-0.232031,-0.313592,0.7,0.262287,0.039895,-0.0,11.524976,-0.006971,-0.046302,0.0,0.0,0.0
60172,0.000196,-0.070455,0.018742,-0.20202,-0.336569,0.701923,-0.191637,-0.3,0.7,-0.0,0.563145,0.592168,0.546414,0.51747,-0.226809,-0.312803,0.7,0.258939,0.038556,-0.0,11.524084,-0.005289,-0.045221,0.0,0.0,0.0
60192,0.001226,-0.072543,0.020132,-0.20202,-0.336569,0.701923,-0.188243,-0.3,0.7,-0.0,0.561346,0.559433,0.548662,0.551684,-0.221658,-0.312044,0.7,0.255064,0.036962,-0.0,11.5109,-0.004701,-0.0588,0.0,0.0,0.0
60212,0.003458,-0.075988,0.021572,-0.196489,-0.335781,0.701945,-0.184627,-0.3,0.7,-0.0,0.560898,0.576195,0.544727,0.53744,-0.216591,-0.311318,0.7,0.250374,0.035158,-0.0,11.498327,-0.00228,-0.059978,0.0,0.0,0.0
60232,0.005366,-0.075768,0.022869,-0.191605,-0.335047,0.70216,-0.18106,-0.3,0.7,-0.0,0.553875,0.593614,0.551464,0.516571,-0.211624,-0.310629,0.7,0.244801,0.033191,-0.0,11.479748,-0.00312,-0.035267,0.0,0.0,0.0
60252,0.007596,-0.077268,0.024802,-0.187673,-0.334346,0.702459,-0.177343,-0.3,0.7,-0.0,0.551253,0.582376,0.547486,0.535063,-0.206773,-0.309981,0.7,0.238647,0.031104,-0.0,11.46472,-0.000449,-0.038087,0.0,0.0,0.0
60272,0.010015,-0.074985,0.026228,-0.187673,-0.334346,0.702459,-0.177343,-0.3,0.7,-0.0,0.557097,0.568252,0.550675,0.539165,-0.202048,-0.309375,0.7,0.232233,0.02894,-0.0,11.442592,0.001464,-0.037885,0.0,0.0,0.0
60292,0.012327,-0.072332,0.027392,-0.183737,-0.33305,0.702935,-0.173831,-0.3,0.7,-0.0,0.550942,0.565997,0.554352,0.542217,-0.197452,-0.308813,0.7,0.225824,0.026742,-0.0,11.420031,0.00286,-0.033056,0.0,0.0,0.0
60312,0.013219,-0.067465,0.028238,-0.180271,-0.332166,0.703428,-0.17015,-0.3,0.7,-0.0,0.559347,0.555677,0.550611,0.547417,-0.192982,-0.308294,0.7,0.219609,0.024547,-0.0,11.411785,0.000966,-0.02827,0.0,0.0,0.0
60332,0.016459,-0.061648,0.028771,-0.177131,-0.331209,0.704015,-0.166765,-0.3,0.7,-0.0,0.557818,0.545943,0.557011,0.550073,-0.188637,-0.30782,0.7,0.213245,0.022391,-0.0,11.385029,0.004985,-0.026255,0.0,0.0,0.0
60352,0.018631,-0.05399,0.029242,-0.175208,-0.330324,0.704558,-0.163695,-0.3,0.7,-0.0,0.560677,0.533991,0.553976,0.559681,-0.184421,-0.307387,0.7,0.206702,0.020306,-0.0,11.359102,0.006471,-0.021904,0.0,0.0,0.0
60372,0.020192,-0.046323,0.0298,-0.173157,-0.329473,0.7052,-0.160609,-0.3,0.7,-0.0,0.565707,0.536876,0.547501,0.556312,-0.180336,-0.306996,0.7,0.200314,0.018321,-0.0,11.33553,0.007992,-0.018272,0.0,0.0,0.0
60392,0.021306,-0.036819,0.029957,-0.171461,-0.328699,0.705907,-0.157516,-0.3,0.7,-0.0,0.563326,0.524608,0.558177,0.558166,-0.176375,-0.306644,0.7,0.194329,0.016459,-0.0,11.316238,0.008924,-0.011465,0.0,0.0,0.0
60412,0.022864,-0.030373,0.030146,-0.169051,-0.327574,0.70707,-0.157516,-0.3,0.7,-0.0,0.555281,0.533601,0.559333,0.555073,-0.17253,-0.306328,0.7,0.188848,0.014743,-0.0,11.29711,0.00954,-0.006403,0.0,0.0,0.0
60432,0.023496,-0.020618,0.030275,-0.167336,-0.326636,0.708109,-0.152751,-0.3,0.7,-0.0,0.568477,0.521381,0.546946,0.563851,-0.168791,-0.306045,0.7,0.183915,0.013188,-0.0,11.277641,0.009729,-0.000723,0.0,0.0,0.0
60452,0.024589,-0.012826,0.030553,-0.167336,-0.326636,0.708109,-0.14949,-0.3,0.7,-0.0,0.563857,0.506195,0.548186,0.577963,-0.165147,-0.305792,0.7,0.179542,0.011807,-0.0,11.243689,0.011399,-0.012438,0.0,0.0,0.0
60472,0.023606,-0.005244,0.03058,-0.166409,-0.325819,0.70937,-0.146119,-0.3,0.7,-0.0,0.569271,0.533714,0.545069,0.548634,-0.161587,-0.305565,0.7,0.175332,0.010609,-0.0,11.220415,0.011974,0.00153,0.0,0.0,0.0
60492,0.024558,0.001087,0.030747,-0.164614,-0.324903,0.710746,-0.142581,-0.3,0.7,-0.0,0.555785,0.544432,0.557899,0.541107,-0.158111,-0.305361,0.7,0.171425,0.0096,-0.0,11.245187,0.008429,0.013821,0.0,0.0,0.0
60512,0.023913,0.006709,0.031048,-0.163067,-0.324407,0.712092,-0.139012,-0.3,0.7,-0.0,0.566114,0.536436,0.543932,0.549713,-0.154708,-0.305175,0.7,0.168125,0.008781,-0.0,11.212064,0.009076,0.020373,0.0,0.0,0.0
60532,0.023628,0.011961,0.03111,-0.161347,-0.323645,0.713568,-0.135187,-0.3,0.7,-0.0,0.564628,0.530687,0.544799,0.553325,-0.151366,-0.305005,0.7,0.165539,0.00815,-0.0,11.180545,0.010035,0.022787,0.0,0.0,0.0
60552,0.022277,0.019307,0.031039,-0.161347,-0.323645,0.713568,-0.135187,-0.3,0.7,-0.0,0.569162,0.521253,0.544874,0.555438,-0.14807,-0.304845,0.7,0.163748,0.007702,-0.0,11.155822,0.009034,0.026056,0.0,0.0,0.0
60572,0.022733,0.025038,0.030977,-0.160378,-0.323272,0.715062,-0.131511,-0.3,0.7,-0.0,0.56718,0.532615,0.54876,0.540617,-0.144804,-0.304694,0.7,0.162804,0.007431,-0.0,11.129616,0.009373,0.029184,0.0,0.0,0.0
60592,0.02162,0.032386,0.030555,-0.158292,-0.322802,0.716688,-0.127688,-0.3,0.7,-0.0,0.568771,0.50386,0.549773,0.567834,-0.141549,-0.304546,0.7,0.162728,0.007326,-0.0,11.17013,0.006391,0.022806,0.0,0.0,0.0
60612,0.021434,0.036418,0.030396,-0.156258,-0.322505,0.718288,-0.124387,-0.3,0.7,-0.0,0.557788,0.526519,0.552585,0.553281,-0.138293,-0.304399,0.7,0.163015,0.007375,-0.0,11.140999,0.005584,0.029377,0.0,0.0,0.0
60632,0.021395,0.042037,0.030223,-0.154394,-0.322291,0.719488,-0.121305,-0.3,0.7,-0.0,0.562611,0.518816,0.551531,0.55415,-0.135029,-0.304251,0.7,0.163493,0.007564,-0.0,11.11066,0.005349,0.030675,0.0,0.0,0.0
60652,0.021328,0.045826,0.03007,-0.152505,-0.322354,0.720645,-0.118225,-0.3,0.7,-0.0,0.569223,0.52703,0.543754,0.545283,-0.131754,-0.304097,0.7,0.16437,0.007879,-0.0,11.08611,0.004418,0.029834,0.0,0.0,0.0
60672,0.019757,0.047318,0.029849,-0.150361,-0.32236,0.721791,-0.115129,-0.3,0.7,-0.0,0.565802,0.532585,0.543608,0.543233,-0.128457,-0.303937,0.7,0.165733,0.008304,-0.0,11.081183,0.003311,0.029074,0.0,0.0,0.0
60692,0.020018,0.048412,0.029833,-0.147625,-0.322546,0.723101,-0.115129,-0.3,0.7,-0.0,0.554296,0.528165,0.556756,0.545873,-0.125129,-0.303767,0.7,0.167536,0.008821,-0.0,11.078445,0.001219,0.02847,0.0,0.0,0.0
60712,0.017954,0.049177,0.029878,-0.144842,-0.322641,0.724242,-0.110763,-0.3,0.7,-0.0,0.569134,0.533353,0.539704,0.542256,-0.121763,-0.303586,0.7,0.169699,0.009413,-0.0,11.073943,-0.000237,0.027077,0.0,0.0,0.0
60732,0.018275,0.046363,0.029766,-0.144842,-0.322641,0.724242,-0.1075,-0.3,0.7,-0.0,0.554765,0.527899,0.549704,0.551374,-0.118351,-0.303393,0.7,0.172121,0.010063,-0.0,11.061516,-0.002201,0.010209,0.0,0.0,0.0
60752,0.015581,0.045794,0.029835,-0.141027,-0.323161,0.725578,-0.104079,-0.3,0.7,-0.0,0.568233,0.541553,0.539632,0.533675,-0.114891,-0.303187,0.7,0.17431,0.010755,-0.0,11.057121,-0.003425,0.015146,0.0,0.0,0.0
60772,0.015014,0.040307,0.030002,-0.137799,-0.323707,0.726645,-0.100821,-0.3,0.7,-0.0,0.563907,0.576628,0.542823,0.500255,-0.11139,-0.302966,0.7,0.176272,0.011471,-0.0,11.098033,-0.004028,0.026463,0.0,0.0,0.0
60792,0.01216,0.037177,0.030079,-0.133691,-0.324279,0.727791,-0.096988,-0.3,0.7,-0.0,0.565653,0.545132,0.540561,0.533352,-0.10785,-0.302731,0.7,0.178228,0.012195,-0.0,11.074707,-0.006774,0.020047,0.0,0.0,0.0
60812,0.00865,0.031371,0.029918,-0.133691,-0.324279,0.727791,-0.096988,-0.3,0.7,-0.0,0.570496,0.558762,0.537749,0.51562,-0.104271,-0.302482,0.7,0.180269,0.012914,-0.0,11.065195,-0.009141,0.016757,0.0,0.0,0.0
60832,0.007027,0.029074,0.029823,-0.129457,-0.325066,0.728837,-0.09301,-0.3,0.7,-0.0,0.561626,0.544041,0.543222,0.534251,-0.100649,-0.302218,0.7,0.182423,0.013612,-0.0,11.053588,-0.011214,0.012861,0.0,0.0,0.0
60852,0.003797,0.025339,0.029877,-0.125486,-0.325774,0.729883,-0.089481,-0.3,0.7,-0.0,0.578767,0.556233,0.526754,0.522573,-0.096984,-0.301941,0.7,0.184731,0.014277,-0.0,11.090107,-0.010477,0.010952,0.0,0.0,0.0
60872,0.001184,0.022202,0.029661,-0.120798,-0.326464,0.730914,-0.085636,-0.3,0.7,-0.0,0.572463,0.554063,0.542727,0.514181,-0.093273,-0.301651,0.7,0.186733,0.014899,-0.0,11.075353,-0.0133,0.008368,0.0,0.0,0.0
60892,-0.001542,0.019679,0.029445,-0.116335,-0.327105,0.731843,-0.082289,-0.3,0.7,-0.0,0.566802,0.546581,0.541654,0.528491,-0.089526,-0.301349,0.7,0.188346,0.015467,-0.0,11.063016,-0.0153,0.00553,0.0,0.0,0.0
60912,-0.004766,0.016308,0.029467,-0.112543,-0.327546,0.732538,-0.079202,-0.3,0.7,-0.0,0.572833,0.551927,0.530574,0.52661,-0.085748,-0.301035,0.7,0.189792,0.015973,-0.0,11.051962,-0.016899,0.001546,0.0,0.0,0.0
60932,-0.005415,0.013632,0.029586,-0.108678,-0.328214,0.73319,-0.076103,-0.3,0.7,-0.0,0.564304,0.547612,0.539498,0.530892,-0.081941,-0.300712,0.7,0.191248,0.016411,-0.0,11.04637,-0.018047,-0.002821,0.0,0.0,0.0
60952,-0.008737,0.01185,0.029722,-0.104698,-0.328631,0.733835,-0.073012,-0.3,0.7,-0.0,0.57362,0.546298,0.52979,0.532291,-0.078105,-0.300381,0.7,0.192768,0.016775,-0.0,11.050585,-0.018177,-0.004587,0.0,0.0,0.0
60972,-0.009646,0.00808,0.029952,-0.099031,-0.32911,0.734724,-0.069289,-0.3,0.7,-0.0,0.562804,0.56049,0.539034,0.519974,-0.074238,-0.300044,0.7,0.194296,0.017061,-0.0,11.054284,-0.019321,-0.006263,0.0,0.0,0.0
60992,-0.010772,0.006267,0.03019,-0.099031,-0.32911,0.734724,-0.066001,-0.3,0.7,-0.0,0.562929,0.550818,0.533778,0.535711,-0.070341,-0.299701,0.7,0.195755,0.017267,-0.0,11.056986,-0.019232,-0.008143,0.0,0.0,0.0
