time_ms,roll,pitch,yaw,x,y,z,reference_roll,reference_pitch,reference_yaw,reference_throttle,throttle_1,throttle_2,throttle_3,throttle_4,roll_predicted,pitch_predicted,yaw_predicted,roll_rate_predicted,pitch_rate_predicted,yaw_rate_predicted,value1,value2,value3,value4,value5,value6
234640,0.009333,-0.018344,0.007289,0.0,0.0,0.0,0.0,0.0,0.0,3.0,0.281625,0.356296,0.27036,0.376179,-2.2e-05,0.028113,-0.0,-4.8e-05,0.005757,1e-06,0.0,0.0,0.0,0.0,0.0,0.0
234660,0.009455,-0.018712,0.007171,0.0,0.0,0.0,0.0,0.0,0.0,3.0,0.275513,0.358844,0.273136,0.376072,-2.3e-05,0.028219,-0.0,-4.7e-05,0.004521,1e-06,0.0,0.0,0.0,0.0,0.0,0.0
234680,0.009455,-0.018834,0.007172,0.0,0.0,0.0,0.0,0.0,0.0,3.0,0.275673,0.359334,0.271237,0.376725,-2.4e-05,0.0283,-0.0,-4.5e-05,0.003295,1e-06,0.0,0.0,0.0,0.0,0.0,0.0
234700,0.009577,-0.019322,0.007053,0.0,0.0,0.0,0.0,0.0,0.0,3.0,0.278986,0.356449,0.273232,0.375963,-2.5e-05,0.028357,-0.0,-4.4e-05,0.00208,1e-06,0.0,0.0,0.0,0.0,0.0,0.0
234720,0.009699,-0.019322,0.007054,0.0,0.0,0.0,0.0,0.0,0.0,3.0,0.274656,0.358541,0.272293,0.377456,-2.6e-05,0.028389,-0.0,-4.2e-05,0.000875,1e-06,0.0,0.0,0.0,0.0,0.0,0.0
234740,0.009698,-0.019444,0.007055,0.0,0.0,0.0,0.0,0.0,0.0,3.0,0.276843,0.357789,0.26966,0.378404,-2.6e-05,0.028398,-0.0,-4.1e-05,-0.000317,1e-06,0.0,0.0,0.0,0.0,0.0,0.0
234760,0.009698,-0.01981,0.006935,0.0,0.0,0.0,0.0,0.0,0.0,3.0,0.280583,0.359705,0.268497,0.374858,-2.7e-05,0.028383,-0.0,-3.9e-05,-0.001496,1e-06,0.0,0.0,0.0,0.0,0.0,0.0
234780,0.009819,-0.020176,0.006938,0.0,0.0,0.0,0.0,0.0,0.0,3.0,0.275704,0.362749,0.270527,0.373912,-2.8e-05,0.028344,-0.0,-3.8e-05,-0.002661,1e-06,0.0,0.0,0.0,0.0,0.0,0.0
234800,0.009941,-0.02042,0.006818,0.0,0.0,0.0,0.0,0.0,0.0,3.0,0.277373,0.363133,0.271371,0.371888,-2.9e-05,0.028282,0.0,-3.6e-05,-0.003812,1e-06,0.0,0.0,0.0,0.0,0.0,0.0
234820,0.010062,-0.020909,0.006822,0.0,0.0,0.0,0.0,0.0,0.0,3.0,0.277677,0.362484,0.268424,0.374201,-2.9e-05,0.028197,0.0,-3.5e-05,-0.004947,1e-06,0.0,0.0,0.0,0.0,0.0,0.0
234840,0.010184,-0.021275,0.006703,0.0,0.0,0.0,0.0,0.0,0.0,3.0,0.279595,0.362681,0.269024,0.372342,-3e-05,0.02809,0.0,-3.3e-05,-0.006066,1e-06,0.0,0.0,0.0,0.0,0.0,0.0
234860,0.010429,-0.021032,0.006704,0.0,0.0,0.0,0.0,0.0,0.0,3.0,0.276853,0.360079,0.269169,0.376562,-3.1e-05,0.02796,0.0,-3.1e-05,-0.007168,1e-06,0.0,0.0,0.0,0.0,0.0,0.0
234880,0.010308,-0.021153,0.006581,0.0,0.0,0.0,0.0,0.0,0.0,3.0,0.280056,0.359304,0.268542,0.375563,-3.1e-05,0.027809,0.0,-3e-05,-0.008252,1e-06,0.0,0.0,0.0,0.0,0.0,0.0
234900,0.010185,-0.021274,0.006581,0.0,0.0,0.0,0.0,0.0,0.0,3.0,0.277128,0.362055,0.268655,0.374829,-3.2e-05,0.027636,0.0,-2.8e-05,-0.009318,1e-06,0.0,0.0,0.0,0.0,0.0,0.0
234920,0.010064,-0.021518,0.006458,0.0,0.0,0.0,0.0,0.0,0.0,3.0,0.278516,0.360594,0.269865,0.374531,-3.3e-05,0.027441,0.0,-2.6e-05,-0.010364,1e-06,0.0,0.0,0.0,0.0,0.0,0.0
234940,0.009941,-0.021639,0.006458,0.0,0.0,0.0,0.0,0.0,0.0,3.0,0.277194,0.361087,0.268481,0.375817,-3.3e-05,0.027226,0.0,-2.5e-05,-0.011391,1e-06,0.0,0.0,0.0,0.0,0.0,0.0
234960,0.009942,-0.021761,0.006336,0.0,0.0,0.0,0.0,0.0,0.0,3.0,0.273669,0.36274,0.268872,0.3763,-3.4e-05,0.026991,0.0,-2.3e-05,-0.012397,0.0,0.0,0.0,0.0,0.0,0.0,0.0
234980,0.010064,-0.021883,0.006338,0.0,0.0,0.0,0.0,0.0,0.0,3.0,0.27874,0.358403,0.273075,0.374394,-3.4e-05,0.026736,0.0,-2.1e-05,-0.013383,0.0,0.0,0.0,0.0,0.0,0.0,0.0
235000,0.009942,-0.021639,0.006336,0.0,0.0,0.0,0.0,0.0,0.0,3.0,0.277786,0.359327,0.267848,0.377485,-3.4e-05,0.026461,0.0,-2e-05,-0.014346,0.0,0.0,0.0,0.0,0.0,0.0,0.0
235020,0.009942,-0.021639,0.006336,0.0,0.0,0.0,0.0,0.0,0.0,3.0,0.277317,0.360523,0.267677,0.376775,-3.5e-05,0.026167,0.0,-1.8e-05,-0.015287,0.0,0.0,0.0,0.0,0.0,0.0,0.0
235040,0.009942,-0.021639,0.006336,0.0,0.0,0.0,0.0,0.0,0.0,3.0,0.276155,0.362454,0.268507,0.375182,-3.5e-05,0.025854,0.0,-1.6e-05,-0.016206,0.0,0.0,0.0,0.0,0.0,0.0,0.0
235060,0.009822,-0.021516,0.006212,0.0,0.0,0.0,0.0,0.0,0.0,3.0,0.283622,0.358967,0.271696,0.371434,-3.5e-05,0.025523,0.0,-1.5e-05,-0.017101,0.0,0.0,0.0,0.0,0.0,0.0,0.0
235080,0.009822,-0.021638,0.006212,0.0,0.0,0.0,0.0,0.0,0.0,3.0,0.279916,0.36229,0.267923,0.373203,-3.6e-05,0.025175,0.0,-1.3e-05,-0.017972,0.0,0.0,0.0,0.0,0.0,0.0,0.0
235100,0.010065,-0.02176,0.006215,0.0,0.0,0.0,0.0,0.0,0.0,3.0,0.275578,0.36416,0.268863,0.373698,-3.6e-05,0.024809,0.0,-1.2e-05,-0.018819,-0.0,0.0,0.0,0.0,0.0,0.0,0.0
235120,0.010064,-0.021639,0.006337,0.0,0.0,0.0,0.0,0.0,0.0,3.0,0.278618,0.360997,0.268216,0.375125,-3.6e-05,0.024426,0.0,-1e-05,-0.019642,-0.0,0.0,0.0,0.0,0.0,0.0,0.0
235140,0.009821,-0.021516,0.006334,0.0,0.0,0.0,0.0,0.0,0.0,3.0,0.272485,0.364695,0.264518,0.3779,-3.6e-05,0.024027,0.0,-8e-06,-0.020439,-0.0,0.0,0.0,0.0,0.0,0.0,0.0
235160,0.00982,-0.02176,0.006335,0.0,0.0,0.0,0.0,0.0,0.0,3.0,0.27064,0.36629,0.26679,0.376142,-3.7e-05,0.023613,0.0,-7e-06,-0.021211,-0.0,0.0,0.0,0.0,0.0,0.0,0.0
235180,0.00982,-0.022004,0.006214,0.0,0.0,0.0,0.0,0.0,0.0,3.0,0.275499,0.361327,0.270278,0.375566,-3.7e-05,0.023183,0.0,-5e-06,-0.021956,-0.0,0.0,0.0,0.0,0.0,0.0,0.0
235200,0.009943,-0.021882,0.006215,0.0,0.0,0.0,0.0,0.0,0.0,3.0,0.271796,0.362493,0.271468,0.376094,-3.7e-05,0.022738,0.0,-4e-06,-0.022676,-0.0,0.0,0.0,0.0,0.0,0.0,0.0
235220,0.010065,-0.022005,0.006217,0.0,0.0,0.0,0.0,0.0,0.0,3.0,0.27357,0.363666,0.269395,0.375149,-3.7e-05,0.02228,0.0,-2e-06,-0.023369,-1e-06,0.0,0.0,0.0,0.0,0.0,0.0
235240,0.009943,-0.021882,0.006215,0.0,0.0,0.0,0.0,0.0,0.0,3.0,0.273794,0.361891,0.26904,0.376921,-3.7e-05,0.021807,0.0,-0.0,-0.024035,-1e-06,0.0,0.0,0.0,0.0,0.0,0.0
235260,0.009699,-0.021881,0.006212,0.0,0.0,0.0,0.0,0.0,0.0,3.0,0.275824,0.363654,0.266776,0.375338,-3.7e-05,0.021322,0.0,1e-06,-0.024674,-1e-06,0.0,0.0,0.0,0.0,0.0,0.0
235280,0.009698,-0.022126,0.006213,0.0,0.0,0.0,0.0,0.0,0.0,3.0,0.276109,0.365253,0.26622,0.373956,-3.7e-05,0.020823,0.0,3e-06,-0.025285,-1e-06,0.0,0.0,0.0,0.0,0.0,0.0
235300,0.00982,-0.022126,0.006215,0.0,0.0,0.0,0.0,0.0,0.0,3.0,0.275489,0.36558,0.266613,0.373801,-3.7e-05,0.020313,0.0,4e-06,-0.025869,-1e-06,0.0,0.0,0.0,0.0,0.0,0.0
235320,0.009822,-0.021881,0.006091,0.0,0.0,0.0,0.0,0.0,0.0,3.0,0.273705,0.365311,0.265521,0.375907,-3.7e-05,0.019792,0.0,6e-06,-0.026425,-1e-06,0.0,0.0,0.0,0.0,0.0,0.0
235340,0.009945,-0.02176,0.006092,0.0,0.0,0.0,0.0,0.0,0.0,3.0,0.281119,0.361904,0.270053,0.371396,-3.7e-05,0.019259,0.0,7e-06,-0.026954,-1e-06,0.0,0.0,0.0,0.0,0.0,0.0
235360,0.009944,-0.021882,0.006093,0.0,0.0,0.0,0.0,0.0,0.0,3.0,0.275982,0.363555,0.266442,0.375538,-3.6e-05,0.018716,0.0,9e-06,-0.027454,-1e-06,0.0,0.0,0.0,0.0,0.0,0.0
235380,0.009822,-0.021881,0.006091,0.0,0.0,0.0,0.0,0.0,0.0,3.0,0.273514,0.365165,0.268059,0.374585,-3.6e-05,0.018164,0.0,1e-05,-0.027926,-1e-06,0.0,0.0,0.0,0.0,0.0,0.0
235400,0.009944,-0.022126,0.006094,0.0,0.0,0.0,0.0,0.0,0.0,3.0,0.272241,0.365277,0.269046,0.374677,-3.6e-05,0.017602,0.0,1.1e-05,-0.028369,-1e-06,0.0,0.0,0.0,0.0,0.0,0.0
235420,0.009822,-0.021881,0.006091,0.0,0.0,0.0,0.0,0.0,0.0,3.0,0.271741,0.363494,0.269395,0.376491,-3.6e-05,0.017031,0.0,1.3e-05,-0.028785,-1e-06,0.0,0.0,0.0,0.0,0.0,0.0
235440,0.009702,-0.021636,0.005967,0.0,0.0,0.0,0.0,0.0,0.0,3.0,0.274388,0.359749,0.272274,0.376508,-3.5e-05,0.016453,0.0,1.4e-05,-0.029171,-1e-06,0.0,0.0,0.0,0.0,0.0,0.0
235460,0.009702,-0.021758,0.005967,0.0,0.0,0.0,0.0,0.0,0.0,3.0,0.270998,0.364913,0.270249,0.375063,-3.5e-05,0.015867,0.0,1.5e-05,-0.02953,-1e-06,0.0,0.0,0.0,0.0,0.0,0.0
235480,0.009824,-0.021881,0.005969,0.0,0.0,0.0,0.0,0.0,0.0,3.0,0.272837,0.367018,0.267903,0.373322,-3.5e-05,0.015273,0.0,1.7e-05,-0.02986,-1e-06,0.0,0.0,0.0,0.0,0.0,0.0
235500,0.009824,-0.021759,0.005969,0.0,0.0,0.0,0.0,0.0,0.0,3.0,0.271254,0.366026,0.269243,0.374461,-3.5e-05,0.014674,0.0,1.8e-05,-0.030162,-1e-06,0.0,0.0,0.0,0.0,0.0,0.0
235520,0.009704,-0.021514,0.005844,0.0,0.0,0.0,0.0,0.0,0.0,3.0,0.272037,0.365707,0.268311,0.374857,-3.4e-05,0.014069,0.0,1.9e-05,-0.030435,-1e-06,0.0,0.0,0.0,0.0,0.0,0.0
235540,0.009704,-0.021514,0.005844,0.0,0.0,0.0,0.0,0.0,0.0,3.0,0.274703,0.365889,0.267115,0.373702,-3.4e-05,0.013458,0.0,2e-05,-0.03068,-1e-06,0.0,0.0,0.0,0.0,0.0,0.0
235560,0.009827,-0.021635,0.005724,0.0,0.0,0.0,0.0,0.0,0.0,3.0,0.277248,0.36222,0.274026,0.37112,-3.3e-05,0.012843,0.0,2.2e-05,-0.030897,-1e-06,0.0,0.0,0.0,0.0,0.0,0.0
235580,0.009949,-0.021514,0.005725,0.0,0.0,0.0,0.0,0.0,0.0,3.0,0.272489,0.364265,0.268578,0.375789,-3.3e-05,0.012223,0.0,2.3e-05,-0.031086,-1e-06,0.0,0.0,0.0,0.0,0.0,0.0
235600,0.009829,-0.021513,0.005601,0.0,0.0,0.0,0.0,0.0,0.0,3.0,0.275558,0.361949,0.270396,0.374858,-3.2e-05,0.0116,0.0,2.4e-05,-0.031247,-1e-06,0.0,0.0,0.0,0.0,0.0,0.0
235620,0.009829,-0.021269,0.0056,0.0,0.0,0.0,0.0,0.0,0.0,3.0,0.272246,0.36259,0.268457,0.377619,-3.2e-05,0.010974,0.0,2.5e-05,-0.03138,-1e-06,0.0,0.0,0.0,0.0,0.0,0.0
235640,0.009587,-0.021023,0.005474,0.0,0.0,0.0,0.0,0.0,0.0,3.0,0.272465,0.364041,0.270581,0.374749,-3.1e-05,0.010346,0.0,2.6e-05,-0.031486,-1e-06,0.0,0.0,0.0,0.0,0.0,0.0
235660,0.009466,-0.021144,0.005351,0.0,0.0,0.0,0.0,0.0,0.0,3.0,0.274413,0.365732,0.268884,0.372925,-3.1e-05,0.009716,0.0,2.7e-05,-0.031564,-1e-06,0.0,0.0,0.0,0.0,0.0,0.0
235680,0.009712,-0.0209,0.005231,0.0,0.0,0.0,0.0,0.0,0.0,3.0,0.270553,0.365812,0.272665,0.37292,-3e-05,0.009084,0.0,2.8e-05,-0.031615,-1e-06,0.0,0.0,0.0,0.0,0.0,0.0
235700,0.009714,-0.020655,0.005107,0.0,0.0,0.0,0.0,0.0,0.0,3.0,0.272273,0.364802,0.271197,0.373742,-3e-05,0.008451,0.0,2.9e-05,-0.031639,-1e-06,0.0,0.0,0.0,0.0,0.0,0.0
235720,0.009716,-0.020776,0.004864,0.0,0.0,0.0,0.0,0.0,0.0,3.0,0.274321,0.363403,0.269401,0.374908,-2.9e-05,0.007819,0.0,3e-05,-0.031637,-1e-06,0.0,0.0,0.0,0.0,0.0,0.0
235740,0.009839,-0.020898,0.004743,0.0,0.0,0.0,0.0,0.0,0.0,3.0,0.272252,0.36595,0.270104,0.373343,-2.9e-05,0.007186,0.0,3.1e-05,-0.031609,-1e-06,0.0,0.0,0.0,0.0,0.0,0.0
235760,0.009841,-0.020653,0.00462,0.0,0.0,0.0,0.0,0.0,0.0,3.0,0.278018,0.361448,0.275335,0.370483,-2.8e-05,0.006554,0.0,3.1e-05,-0.031554,-1e-06,0.0,0.0,0.0,0.0,0.0,0.0
235780,0.009844,-0.02053,0.004375,0.0,0.0,0.0,0.0,0.0,0.0,3.0,0.278653,0.358756,0.274316,0.373309,-2.7e-05,0.005924,0.0,3.2e-05,-0.031474,-1e-06,0.0,0.0,0.0,0.0,0.0,0.0
235800,0.009846,-0.020163,0.004251,0.0,0.0,0.0,0.0,0.0,0.0,3.0,0.272897,0.363581,0.270766,0.374793,-2.7e-05,0.005295,0.0,3.3e-05,-0.031368,-1e-06,0.0,0.0,0.0,0.0,0.0,0.0
235820,0.009725,-0.020162,0.004128,0.0,0.0,0.0,0.0,0.0,0.0,3.0,0.281263,0.361777,0.272858,0.369591,-2.6e-05,0.004669,0.0,3.4e-05,-0.031237,-1e-06,0.0,0.0,0.0,0.0,0.0,0.0
235840,0.009728,-0.020039,0.003883,0.0,0.0,0.0,0.0,0.0,0.0,3.0,0.279057,0.361393,0.274499,0.370388,-2.5e-05,0.004045,0.0,3.4e-05,-0.031082,-1e-06,0.0,0.0,0.0,0.0,0.0,0.0
235860,0.009852,-0.019795,0.003761,0.0,0.0,0.0,0.0,0.0,0.0,3.0,0.277824,0.361982,0.277291,0.368782,-2.5e-05,0.003425,0.0,3.5e-05,-0.030902,-1e-06,0.0,0.0,0.0,0.0,0.0,0.0
235880,0.009975,-0.019672,0.00364,0.0,0.0,0.0,0.0,0.0,0.0,3.0,0.280653,0.362562,0.273502,0.36882,-2.4e-05,0.002808,0.0,3.6e-05,-0.030699,-1e-06,0.0,0.0,0.0,0.0,0.0,0.0
235900,0.009977,-0.01955,0.003517,0.0,0.0,0.0,0.0,0.0,0.0,3.0,0.277972,0.36133,0.276228,0.370032,-2.3e-05,0.002196,0.0,3.6e-05,-0.030472,-1e-06,0.0,0.0,0.0,0.0,0.0,0.0
235920,0.009978,-0.019304,0.003393,0.0,0.0,0.0,0.0,0.0,0.0,3.0,0.276242,0.362193,0.272942,0.372529,-2.3e-05,0.001588,0.0,3.7e-05,-0.030223,-1e-06,0.0,0.0,0.0,0.0,0.0,0.0
235940,0.009736,-0.019424,0.003147,0.0,0.0,0.0,0.0,0.0,0.0,3.0,0.277814,0.361561,0.274113,0.37132,-2.2e-05,0.000986,0.0,3.7e-05,-0.029951,-1e-06,0.0,0.0,0.0,0.0,0.0,0.0
235960,0.009859,-0.019302,0.003025,0.0,0.0,0.0,0.0,0.0,0.0,3.0,0.273743,0.361511,0.275765,0.372978,-2.1e-05,0.000389,0.0,3.8e-05,-0.029656,-1e-06,0.0,0.0,0.0,0.0,0.0,0.0
235980,0.009738,-0.019179,0.002902,0.0,0.0,0.0,0.0,0.0,0.0,3.0,0.269219,0.362132,0.277427,0.374199,-2e-05,-0.000202,0.0,3.8e-05,-0.029341,-1e-06,0.0,0.0,0.0,0.0,0.0,0.0
236000,0.009619,-0.018811,0.002654,0.0,0.0,0.0,0.0,0.0,0.0,3.0,0.281648,0.35791,0.276224,0.370819,-1.9e-05,-0.000786,0.0,3.9e-05,-0.029004,-1e-06,0.0,0.0,0.0,0.0,0.0,0.0
236020,0.009376,-0.018688,0.00253,0.0,0.0,0.0,0.0,0.0,0.0,3.0,0.274763,0.362867,0.275876,0.370923,-1.9e-05,-0.001364,0.0,3.9e-05,-0.028646,-1e-06,0.0,0.0,0.0,0.0,0.0,0.0
236040,0.009377,-0.018688,0.002407,0.0,0.0,0.0,0.0,0.0,0.0,3.0,0.273078,0.364723,0.274615,0.371063,-1.8e-05,-0.001934,0.0,3.9e-05,-0.028269,-1e-06,0.0,0.0,0.0,0.0,0.0,0.0
236060,0.009258,-0.018564,0.002162,0.0,0.0,0.0,0.0,0.0,0.0,3.0,0.275702,0.363807,0.272158,0.371836,-1.7e-05,-0.002496,0.0,4e-05,-0.027872,-1e-06,0.0,0.0,0.0,0.0,0.0,0.0
236080,0.009259,-0.018198,0.002038,0.0,0.0,0.0,0.0,0.0,0.0,3.0,0.280098,0.361113,0.277382,0.368015,-1.6e-05,-0.003051,0.0,4e-05,-0.027456,-1e-06,0.0,0.0,0.0,0.0,0.0,0.0
236100,0.009138,-0.018075,0.001914,0.0,0.0,0.0,0.0,0.0,0.0,3.0,0.280919,0.36088,0.273549,0.370243,-1.6e-05,-0.003597,0.0,4e-05,-0.027021,-1e-06,0.0,0.0,0.0,0.0,0.0,0.0
236120,0.008897,-0.018074,0.001668,0.0,0.0,0.0,0.0,0.0,0.0,3.0,0.280136,0.364606,0.269015,0.370106,-1.5e-05,-0.004134,-0.0,4e-05,-0.026569,-1e-06,0.0,0.0,0.0,0.0,0.0,0.0
236140,0.008898,-0.017951,0.001545,0.0,0.0,0.0,0.0,0.0,0.0,3.0,0.276194,0.36645,0.271436,0.369388,-1.4e-05,-0.004661,-0.0,4.1e-05,-0.0261,-1e-06,0.0,0.0,0.0,0.0,0.0,0.0
236160,0.008899,-0.017829,0.001422,0.0,0.0,0.0,0.0,0.0,0.0,3.0,0.277588,0.362097,0.270352,0.373402,-1.3e-05,-0.00518,-0.0,4.1e-05,-0.025613,-1e-06,0.0,0.0,0.0,0.0,0.0,0.0
236180,0.008656,-0.017584,0.001297,0.0,0.0,0.0,0.0,0.0,0.0,3.0,0.282502,0.359516,0.276366,0.368589,-1.2e-05,-0.005688,-0.0,4.1e-05,-0.025111,-1e-06,0.0,0.0,0.0,0.0,0.0,0.0
236200,0.008535,-0.017461,0.001173,0.0,0.0,0.0,0.0,0.0,0.0,3.0,0.278795,0.361417,0.274443,0.37058,-1.1e-05,-0.006187,-0.0,4.1e-05,-0.024593,-1e-06,0.0,0.0,0.0,0.0,0.0,0.0
236220,0.008415,-0.017216,0.000927,0.0,0.0,0.0,0.0,0.0,0.0,3.0,0.281297,0.356857,0.27988,0.369595,-1.1e-05,-0.006675,-0.0,4.1e-05,-0.02406,-1e-06,0.0,0.0,0.0,0.0,0.0,0.0
236240,0.008294,-0.016849,0.000802,0.0,0.0,0.0,0.0,0.0,0.0,3.0,0.280245,0.359764,0.27899,0.368131,-1e-05,-0.007152,-0.0,4.1e-05,-0.023513,-1e-06,0.0,0.0,0.0,0.0,0.0,0.0
236260,0.008173,-0.016726,0.000679,0.0,0.0,0.0,0.0,0.0,0.0,3.0,0.277237,0.362522,0.276878,0.368932,-9e-06,-0.007618,-0.0,4.1e-05,-0.022951,-1e-06,0.0,0.0,0.0,0.0,0.0,0.0
236280,0.008175,-0.01636,0.000555,0.0,0.0,0.0,0.0,0.0,0.0,3.0,0.275869,0.363191,0.275558,0.370084,-8e-06,-0.008073,-0.0,4.1e-05,-0.022377,-1e-06,0.0,0.0,0.0,0.0,0.0,0.0
236300,0.007933,-0.016115,0.000308,0.0,0.0,0.0,0.0,0.0,0.0,3.0,0.279809,0.361348,0.277245,0.368077,-7e-06,-0.008516,-0.0,4.1e-05,-0.021791,-0.0,0.0,0.0,0.0,0.0,0.0,0.0
236320,0.007811,-0.01587,0.000184,0.0,0.0,0.0,0.0,0.0,0.0,3.0,0.278676,0.360545,0.276405,0.370196,-7e-06,-0.008947,-0.0,4e-05,-0.021192,-0.0,0.0,0.0,0.0,0.0,0.0,0.0
236340,0.007569,-0.015503,-6.3e-05,0.0,0.0,0.0,0.0,0.0,0.0,3.0,0.279689,0.36005,0.278365,0.36866,-6e-06,-0.009366,-0.0,4e-05,-0.020582,-0.0,0.0,0.0,0.0,0.0,0.0,0.0
236360,0.007449,-0.01538,-0.000309,0.0,0.0,0.0,0.0,0.0,0.0,3.0,0.278048,0.361576,0.275269,0.370383,-5e-06,-0.009773,-0.0,4e-05,-0.019962,-0.0,0.0,0.0,0.0,0.0,0.0,0.0
236380,0.007206,-0.01538,-0.000433,0.0,0.0,0.0,0.0,0.0,0.0,3.0,0.281522,0.357521,0.281082,0.367977,-4e-06,-0.010168,-0.0,4e-05,-0.019331,-0.0,0.0,0.0,0.0,0.0,0.0,0.0
236400,0.007085,-0.015135,-0.000557,0.0,0.0,0.0,0.0,0.0,0.0,3.0,0.278667,0.359657,0.278332,0.369761,-3e-06,-0.01055,-0.0,4e-05,-0.018691,-0.0,0.0,0.0,0.0,0.0,0.0,0.0
236420,0.006842,-0.01489,-0.000804,0.0,0.0,0.0,0.0,0.0,0.0,3.0,0.280236,0.35939,0.274195,0.371716,-3e-06,-0.010919,-0.0,3.9e-05,-0.018043,-0.0,0.0,0.0,0.0,0.0,0.0,0.0
236440,0.006599,-0.014524,-0.000929,0.0,0.0,0.0,0.0,0.0,0.0,3.0,0.282972,0.358461,0.280775,0.366267,-2e-06,-0.011275,-0.0,3.9e-05,-0.017386,-0.0,0.0,0.0,0.0,0.0,0.0,0.0
236460,0.006356,-0.014523,-0.001053,0.0,0.0,0.0,0.0,0.0,0.0,3.0,0.28477,0.35973,0.278564,0.365287,-1e-06,-0.011617,-0.0,3.9e-05,-0.016722,-0.0,0.0,0.0,0.0,0.0,0.0,0.0
236480,0.006113,-0.014401,-0.001299,0.0,0.0,0.0,0.0,0.0,0.0,3.0,0.282927,0.362944,0.272931,0.367245,-0.0,-0.011947,-0.0,3.8e-05,-0.016051,-0.0,0.0,0.0,0.0,0.0,0.0,0.0
236500,0.00587,-0.014156,-0.001424,0.0,0.0,0.0,0.0,0.0,0.0,3.0,0.280729,0.363693,0.273657,0.367554,0.0,-0.012263,-0.0,3.8e-05,-0.015373,-0.0,0.0,0.0,0.0,0.0,0.0,0.0
236520,0.005748,-0.01379,-0.001548,0.0,0.0,0.0,0.0,0.0,0.0,3.0,0.281989,0.360178,0.272691,0.370749,1e-06,-0.012565,-0.0,3.7e-05,-0.01469,0.0,0.0,0.0,0.0,0.0,0.0,0.0
236540,0.005505,-0.013424,-0.001672,0.0,0.0,0.0,0.0,0.0,0.0,3.0,0.28763,0.356849,0.277919,0.366488,2e-06,-0.012854,-0.0,3.7e-05,-0.014003,0.0,0.0,0.0,0.0,0.0,0.0,0.0
236560,0.005261,-0.013057,-0.001797,0.0,0.0,0.0,0.0,0.0,0.0,3.0,0.28756,0.356952,0.277677,0.366604,3e-06,-0.013129,-0.0,3.6e-05,-0.013311,0.0,0.0,0.0,0.0,0.0,0.0,0.0
236580,0.005018,-0.012935,-0.001921,0.0,0.0,0.0,0.0,0.0,0.0,3.0,0.285774,0.358991,0.274626,0.36797,3e-06,-0.01339,-0.0,3.6e-05,-0.012615,0.0,0.0,0.0,0.0,0.0,0.0,0.0
236600,0.004774,-0.012569,-0.002046,0.0,0.0,0.0,0.0,0.0,0.0,3.0,0.284766,0.358196,0.275679,0.368743,4e-06,-0.013637,-0.0,3.5e-05,-0.011916,0.0,0.0,0.0,0.0,0.0,0.0,0.0
236620,0.004408,-0.012569,-0.00217,0.0,0.0,0.0,0.0,0.0,0.0,3.0,0.284027,0.357865,0.276749,0.36886,5e-06,-0.01387,-0.0,3.5e-05,-0.011214,0.0,0.0,0.0,0.0,0.0,0.0,0.0
236640,0.004043,-0.012203,-0.002295,0.0,0.0,0.0,0.0,0.0,0.0,3.0,0.283538,0.357036,0.277594,0.369426,6e-06,-0.014089,-0.0,3.4e-05,-0.010511,0.0,0.0,0.0,0.0,0.0,0.0,0.0
236660,0.003799,-0.011959,-0.002419,0.0,0.0,0.0,0.0,0.0,0.0,3.0,0.28694,0.356334,0.279615,0.366314,6e-06,-0.014294,-0.0,3.3e-05,-0.009807,0.0,0.0,0.0,0.0,0.0,0.0,0.0
236680,0.003555,-0.011715,-0.002543,0.0,0.0,0.0,0.0,0.0,0.0,3.0,0.28716,0.355629,0.280066,0.366523,7e-06,-0.014484,-0.0,3.3e-05,-0.009102,0.0,0.0,0.0,0.0,0.0,0.0,0.0
236700,0.003311,-0.011349,-0.002667,0.0,0.0,0.0,0.0,0.0,0.0,3.0,0.280838,0.360401,0.276236,0.368972,8e-06,-0.014661,-0.0,3.2e-05,-0.008397,0.0,0.0,0.0,0.0,0.0,0.0,0.0
236720,0.003067,-0.010983,-0.002669,0.0,0.0,0.0,0.0,0.0,0.0,3.0,0.280659,0.35842,0.277442,0.370193,8e-06,-0.014824,-0.0,3.1e-05,-0.007692,0.0,0.0,0.0,0.0,0.0,0.0,0.0
236740,0.0027,-0.010495,-0.002794,0.0,0.0,0.0,0.0,0.0,0.0,3.0,0.281993,0.357852,0.274961,0.371477,9e-06,-0.014972,-0.0,3.1e-05,-0.006988,0.0,0.0,0.0,0.0,0.0,0.0,0.0
236760,0.002456,-0.010495,-0.002795,0.0,0.0,0.0,0.0,0.0,0.0,3.0,0.282031,0.360633,0.276473,0.367761,9e-06,-0.015107,-0.0,3e-05,-0.006287,0.0,0.0,0.0,0.0,0.0,0.0,0.0
236780,0.002335,-0.010373,-0.002918,0.0,0.0,0.0,0.0,0.0,0.0,3.0,0.284179,0.358877,0.278625,0.366498,1e-05,-0.015227,-0.0,2.9e-05,-0.005587,0.0,0.0,0.0,0.0,0.0,0.0,0.0
236800,0.002213,-0.010373,-0.002919,0.0,0.0,0.0,0.0,0.0,0.0,3.0,0.280666,0.360422,0.277335,0.368328,1.1e-05,-0.015334,-0.0,2.9e-05,-0.00489,0.0,0.0,0.0,0.0,0.0,0.0,0.0
236820,0.002091,-0.010129,-0.003042,0.0,0.0,0.0,0.0,0.0,0.0,3.0,0.285132,0.358454,0.280619,0.364853,1.1e-05,-0.015427,-0.0,2.8e-05,-0.004197,0.0,0.0,0.0,0.0,0.0,0.0,0.0
236840,0.00209,-0.009763,-0.003042,0.0,0.0,0.0,0.0,0.0,0.0,3.0,0.282612,0.359528,0.276037,0.368723,1.2e-05,-0.015505,-0.0,2.7e-05,-0.003507,0.0,0.0,0.0,0.0,0.0,0.0,0.0
236860,0.001968,-0.009641,-0.003165,0.0,0.0,0.0,0.0,0.0,0.0,3.0,0.283207,0.360173,0.275077,0.368328,1.2e-05,-0.01557,-0.0,2.6e-05,-0.002822,0.0,0.0,0.0,0.0,0.0,0.0,0.0
236880,0.001724,-0.009641,-0.003166,0.0,0.0,0.0,0.0,0.0,0.0,3.0,0.287829,0.35672,0.279743,0.365211,1.3e-05,-0.015622,-0.0,2.5e-05,-0.002142,0.0,0.0,0.0,0.0,0.0,0.0,0.0
236900,0.001602,-0.009642,-0.003167,0.0,0.0,0.0,0.0,0.0,0.0,3.0,0.283605,0.359566,0.275703,0.368218,1.3e-05,-0.015659,-0.0,2.5e-05,-0.001468,0.0,0.0,0.0,0.0,0.0,0.0,0.0
236920,0.001602,-0.009519,-0.003167,0.0,0.0,0.0,0.0,0.0,0.0,3.0,0.283423,0.359745,0.275463,0.368333,1.4e-05,-0.015684,-0.0,2.4e-05,-0.000799,0.0,0.0,0.0,0.0,0.0,0.0,0.0
236940,0.001602,-0.009397,-0.003167,0.0,0.0,0.0,0.0,0.0,0.0,3.0,0.282322,0.359573,0.276647,0.36847,1.4e-05,-0.015695,-0.0,2.3e-05,-0.000137,0.0,0.0,0.0,0.0,0.0,0.0,0.0
236960,0.00148,-0.009275,-0.003168,0.0,0.0,0.0,0.0,0.0,0.0,3.0,0.283694,0.35952,0.275368,0.368425,1.5e-05,-0.015693,-0.0,2.2e-05,0.000518,0.0,0.0,0.0,0.0,0.0,0.0,0.0
236980,0.001602,-0.009031,-0.003289,0.0,0.0,0.0,0.0,0.0,0.0,3.0,0.285118,0.358212,0.279457,0.365906,1.5e-05,-0.015677,-0.0,2.1e-05,0.001166,0.0,0.0,0.0,0.0,0.0,0.0,0.0
237000,0.00148,-0.008909,-0.00329,0.0,0.0,0.0,0.0,0.0,0.0,3.0,0.282507,0.358131,0.277391,0.36923,1.6e-05,-0.015649,-0.0,2e-05,0.001806,0.0,0.0,0.0,0.0,0.0,0.0,0.0
237020,0.001479,-0.008665,-0.003168,0.0,0.0,0.0,0.0,0.0,0.0,3.0,0.283098,0.360531,0.276593,0.367033,1.6e-05,-0.015608,-0.0,1.9e-05,0.002437,0.0,0.0,0.0,0.0,0.0,0.0,0.0
237040,0.001479,-0.008665,-0.003168,0.0,0.0,0.0,0.0,0.0,0.0,3.0,0.283501,0.358291,0.280128,0.366509,1.6e-05,-0.015555,-0.0,1.9e-05,0.00306,0.0,0.0,0.0,0.0,0.0,0.0,0.0
237060,0.001356,-0.008543,-0.003169,0.0,0.0,0.0,0.0,0.0,0.0,3.0,0.282301,0.35971,0.279116,0.36667,1.7e-05,-0.015489,0.0,1.8e-05,0.003674,0.0,0.0,0.0,0.0,0.0,0.0,0.0
237080,0.001356,-0.008543,-0.003169,0.0,0.0,0.0,0.0,0.0,0.0,3.0,0.28204,0.360597,0.279335,0.365833,1.7e-05,-0.015411,0.0,1.7e-05,0.004278,0.0,0.0,0.0,0.0,0.0,0.0,0.0
237100,0.001356,-0.008421,-0.003169,0.0,0.0,0.0,0.0,0.0,0.0,3.0,0.279005,0.362151,0.274435,0.36973,1.7e-05,-0.015321,0.0,1.6e-05,0.004872,0.0,0.0,0.0,0.0,0.0,0.0,0.0
237120,0.001478,-0.008299,-0.003168,0.0,0.0,0.0,0.0,0.0,0.0,3.0,0.280207,0.359277,0.279332,0.368395,1.8e-05,-0.015219,0.0,1.5e-05,0.005455,0.0,0.0,0.0,0.0,0.0,0.0,0.0
237140,0.001356,-0.008055,-0.003169,0.0,0.0,0.0,0.0,0.0,0.0,3.0,0.282641,0.359207,0.277393,0.368098,1.8e-05,-0.015106,0.0,1.4e-05,0.006028,0.0,0.0,0.0,0.0,0.0,0.0,0.0
237160,0.001233,-0.007933,-0.00317,0.0,0.0,0.0,0.0,0.0,0.0,3.0,0.281929,0.359299,0.278235,0.367931,1.8e-05,-0.014981,0.0,1.3e-05,0.006589,0.0,0.0,0.0,0.0,0.0,0.0,0.0
237180,0.001233,-0.007811,-0.00317,0.0,0.0,0.0,0.0,0.0,0.0,3.0,0.282203,0.358787,0.278072,0.368348,1.8e-05,-0.014845,0.0,1.2e-05,0.00714,0.0,0.0,0.0,0.0,0.0,0.0,0.0
237200,0.001111,-0.008055,-0.00317,0.0,0.0,0.0,0.0,0.0,0.0,3.0,0.275804,0.364109,0.273859,0.370358,1.9e-05,-0.014698,0.0,1.1e-05,0.007678,0.0,0.0,0.0,0.0,0.0,0.0,0.0
237220,0.001233,-0.007933,-0.003047,0.0,0.0,0.0,0.0,0.0,0.0,3.0,0.280312,0.362007,0.275366,0.368355,1.9e-05,-0.014541,0.0,1e-05,0.008204,0.0,0.0,0.0,0.0,0.0,0.0,0.0
237240,0.001233,-0.007811,-0.003048,0.0,0.0,0.0,0.0,0.0,0.0,3.0,0.281367,0.360005,0.278659,0.367347,1.9e-05,-0.014373,0.0,1e-05,0.008718,0.0,0.0,0.0,0.0,0.0,0.0,0.0
237260,0.00111,-0.007567,-0.003048,0.0,0.0,0.0,0.0,0.0,0.0,3.0,0.28401,0.35747,0.276382,0.369497,1.9e-05,-0.014195,0.0,9e-06,0.009219,0.0,0.0,0.0,0.0,0.0,0.0,0.0
237280,0.000866,-0.007201,-0.003049,0.0,0.0,0.0,0.0,0.0,0.0,3.0,0.282992,0.359485,0.274931,0.369241,1.9e-05,-0.014007,0.0,8e-06,0.009707,0.0,0.0,0.0,0.0,0.0,0.0,0.0
237300,0.000743,-0.007079,-0.00305,0.0,0.0,0.0,0.0,0.0,0.0,3.0,0.283153,0.359629,0.277303,0.367392,2e-05,-0.013809,0.0,7e-06,0.010181,0.0,0.0,0.0,0.0,0.0,0.0,0.0
237320,0.000743,-0.007079,-0.00305,0.0,0.0,0.0,0.0,0.0,0.0,3.0,0.284642,0.358983,0.276046,0.367823,2e-05,-0.013602,0.0,6e-06,0.010642,-0.0,0.0,0.0,0.0,0.0,0.0,0.0
237340,0.000743,-0.006957,-0.00305,0.0,0.0,0.0,0.0,0.0,0.0,3.0,0.28593,0.36004,0.279986,0.363164,2e-05,-0.013386,0.0,5e-06,0.01109,-0.0,0.0,0.0,0.0,0.0,0.0,0.0
237360,0.000865,-0.006591,-0.003049,0.0,0.0,0.0,0.0,0.0,0.0,3.0,0.287301,0.357183,0.281561,0.363872,2e-05,-0.01316,0.0,4e-06,0.011523,-0.0,0.0,0.0,0.0,0.0,0.0,0.0
237380,0.000742,-0.006225,-0.002928,0.0,0.0,0.0,0.0,0.0,0.0,3.0,0.289002,0.357731,0.280105,0.36312,2e-05,-0.012927,0.0,3e-06,0.011942,-0.0,0.0,0.0,0.0,0.0,0.0,0.0
237400,0.000741,-0.005981,-0.002928,0.0,0.0,0.0,0.0,0.0,0.0,3.0,0.290674,0.356025,0.279766,0.363794,2e-05,-0.012685,0.0,2e-06,0.012347,-0.0,0.0,0.0,0.0,0.0,0.0,0.0
237420,0.000619,-0.005859,-0.002928,0.0,0.0,0.0,0.0,0.0,0.0,3.0,0.286461,0.360257,0.273687,0.366878,2e-05,-0.012435,0.0,2e-06,0.012737,-0.0,0.0,0.0,0.0,0.0,0.0,0.0
237440,0.000496,-0.005371,-0.002929,0.0,0.0,0.0,0.0,0.0,0.0,3.0,0.285591,0.358514,0.275357,0.36807,2e-05,-0.012177,0.0,1e-06,0.013112,-0.0,0.0,0.0,0.0,0.0,0.0,0.0
237460,0.000374,-0.005249,-0.002929,0.0,0.0,0.0,0.0,0.0,0.0,3.0,0.288675,0.355546,0.277767,0.367093,2e-05,-0.011912,0.0,-0.0,0.013472,-0.0,0.0,0.0,0.0,0.0,0.0,0.0
237480,7e-06,-0.004883,-0.00293,0.0,0.0,0.0,0.0,0.0,0.0,3.0,0.287897,0.35373,0.277707,0.36942,2e-05,-0.01164,0.0,-1e-06,0.013818,-0.0,0.0,0.0,0.0,0.0,0.0,0.0
237500,-0.000238,-0.004517,-0.002931,0.0,0.0,0.0,0.0,0.0,0.0,3.0,0.286182,0.353676,0.27951,0.369462,2e-05,-0.011362,0.0,-2e-06,0.014148,-0.0,0.0,0.0,0.0,0.0,0.0,0.0
237520,-0.000238,-0.004151,-0.002931,0.0,0.0,0.0,0.0,0.0,0.0,3.0,0.277972,0.35705,0.27728,0.373422,2e-05,-0.011076,0.0,-3e-06,0.014462,-0.0,0.0,0.0,0.0,0.0,0.0,0.0
237540,-0.000361,-0.003541,-0.002931,0.0,0.0,0.0,0.0,0.0,0.0,3.0,0.285238,0.352823,0.281298,0.369705,2e-05,-0.010785,0.0,-3e-06,0.014762,-0.0,0.0,0.0,0.0,0.0,0.0,0.0
237560,-0.000484,-0.003053,-0.003053,0.0,0.0,0.0,0.0,0.0,0.0,3.0,0.282051,0.354306,0.281455,0.370418,2e-05,-0.010487,0.0,-4e-06,0.015046,-0.0,0.0,0.0,0.0,0.0,0.0,0.0
237580,-0.000729,-0.002565,-0.003053,0.0,0.0,0.0,0.0,0.0,0.0,3.0,0.282929,0.354706,0.2792,0.370974,2e-05,-0.010184,0.0,-5e-06,0.015314,-0.0,0.0,0.0,0.0,0.0,0.0,0.0
237600,-0.000973,-0.002199,-0.003053,0.0,0.0,0.0,0.0,0.0,0.0,3.0,0.284944,0.357237,0.277154,0.368546,2e-05,-0.009876,0.0,-6e-06,0.015567,-0.0,0.0,0.0,0.0,0.0,0.0,0.0
237620,-0.001095,-0.002199,-0.003054,0.0,0.0,0.0,0.0,0.0,0.0,3.0,0.282087,0.360879,0.27232,0.370248,2e-05,-0.009563,0.0,-7e-06,0.015804,-0.0,0.0,0.0,0.0,0.0,0.0,0.0
237640,-0.001217,-0.002199,-0.003054,0.0,0.0,0.0,0.0,0.0,0.0,3.0,0.284311,0.36006,0.274914,0.367772,2e-05,-0.009245,0.0,-7e-06,0.016025,-0.0,0.0,0.0,0.0,0.0,0.0,0.0
237660,-0.001339,-0.002199,-0.003054,0.0,0.0,0.0,0.0,0.0,0.0,3.0,0.284548,0.358669,0.275065,0.368852,1.9e-05,-0.008923,0.0,-8e-06,0.016231,-0.0,0.0,0.0,0.0,0.0,0.0,0.0
237680,-0.001462,-0.002078,-0.003054,0.0,0.0,0.0,0.0,0.0,0.0,3.0,0.284172,0.359679,0.275587,0.367789,1.9e-05,-0.008597,0.0,-9e-06,0.016421,-0.0,0.0,0.0,0.0,0.0,0.0,0.0
237700,-0.00134,-0.001833,-0.003054,0.0,0.0,0.0,0.0,0.0,0.0,3.0,0.285237,0.358608,0.2772,0.366984,1.9e-05,-0.008267,0.0,-9e-06,0.016595,-0.0,0.0,0.0,0.0,0.0,0.0,0.0
237720,-0.00134,-0.001833,-0.003054,0.0,0.0,0.0,0.0,0.0,0.0,3.0,0.284206,0.359638,0.278534,0.365799,1.9e-05,-0.007934,0.0,-1e-05,0.016753,-0.0,0.0,0.0,0.0,0.0,0.0,0.0
237740,-0.001218,-0.001711,-0.003053,0.0,0.0,0.0,0.0,0.0,0.0,3.0,0.285372,0.359238,0.274822,0.367884,1.9e-05,-0.007598,0.0,-1.1e-05,0.016896,-0.0,0.0,0.0,0.0,0.0,0.0,0.0
237760,-0.001219,-0.001345,-0.002931,0.0,0.0,0.0,0.0,0.0,0.0,3.0,0.2856,0.358081,0.277144,0.367276,1.8e-05,-0.007259,0.0,-1.1e-05,0.017023,-0.0,0.0,0.0,0.0,0.0,0.0,0.0
237780,-0.001219,-0.001467,-0.002931,0.0,0.0,0.0,0.0,0.0,0.0,3.0,0.285617,0.358504,0.275794,0.367767,1.8e-05,-0.006918,0.0,-1.2e-05,0.017135,-0.0,0.0,0.0,0.0,0.0,0.0,0.0
237800,-0.001463,-0.001467,-0.002931,0.0,0.0,0.0,0.0,0.0,0.0,3.0,0.289266,0.35804,0.273262,0.367302,1.8e-05,-0.006574,0.0,-1.3e-05,0.017231,-0.0,0.0,0.0,0.0,0.0,0.0,0.0
237820,-0.001585,-0.001711,-0.002932,0.0,0.0,0.0,0.0,0.0,0.0,3.0,0.287635,0.359973,0.275203,0.365293,1.8e-05,-0.006229,0.0,-1.3e-05,0.017312,-0.0,0.0,0.0,0.0,0.0,0.0,0.0
237840,-0.001585,-0.001711,-0.002932,0.0,0.0,0.0,0.0,0.0,0.0,3.0,0.287191,0.357501,0.275763,0.367638,1.7e-05,-0.005882,0.0,-1.4e-05,0.017378,-0.0,0.0,0.0,0.0,0.0,0.0,0.0
237860,-0.001585,-0.001711,-0.002809,0.0,0.0,0.0,0.0,0.0,0.0,3.0,0.286994,0.356317,0.276062,0.368713,1.7e-05,-0.005535,0.0,-1.4e-05,0.017428,-0.0,0.0,0.0,0.0,0.0,0.0,0.0
237880,-0.001585,-0.001467,-0.002809,0.0,0.0,0.0,0.0,0.0,0.0,3.0,0.283583,0.355579,0.278111,0.370432,1.7e-05,-0.005186,0.0,-1.5e-05,0.017464,-0.0,0.0,0.0,0.0,0.0,0.0,0.0
237900,-0.001585,-0.001223,-0.002809,0.0,0.0,0.0,0.0,0.0,0.0,3.0,0.283794,0.354647,0.279201,0.370429,1.7e-05,-0.004836,0.0,-1.5e-05,0.017484,-0.0,0.0,0.0,0.0,0.0,0.0,0.0
237920,-0.001586,-0.000979,-0.002687,0.0,0.0,0.0,0.0,0.0,0.0,3.0,0.285342,0.355552,0.280373,0.36768,1.6e-05,-0.004486,0.0,-1.6e-05,0.01749,-0.0,0.0,0.0,0.0,0.0,0.0,0.0
237940,-0.001586,-0.000979,-0.002687,0.0,0.0,0.0,0.0,0.0,0.0,3.0,0.282085,0.35687,0.279814,0.369084,1.6e-05,-0.004137,0.0,-1.7e-05,0.017481,-0.0,0.0,0.0,0.0,0.0,0.0,0.0
237960,-0.001586,-0.000734,-0.002565,0.0,0.0,0.0,0.0,0.0,0.0,3.0,0.284179,0.355906,0.278829,0.369219,1.6e-05,-0.003787,0.0,-1.7e-05,0.017457,-0.0,0.0,0.0,0.0,0.0,0.0,0.0
237980,-0.001831,-0.000491,-0.002564,0.0,0.0,0.0,0.0,0.0,0.0,3.0,0.282926,0.357674,0.278704,0.368487,1.5e-05,-0.003438,0.0,-1.7e-05,0.01742,-0.0,0.0,0.0,0.0,0.0,0.0,0.0
238000,-0.001953,-0.000491,-0.002442,0.0,0.0,0.0,0.0,0.0,0.0,3.0,0.284518,0.357257,0.278378,0.367995,1.5e-05,-0.00309,0.0,-1.8e-05,0.017368,-0.0,0.0,0.0,0.0,0.0,0.0,0.0
238020,-0.002075,-0.000369,-0.002442,0.0,0.0,0.0,0.0,0.0,0.0,3.0,0.280354,0.361967,0.273381,0.369686,1.5e-05,-0.002743,0.0,-1.8e-05,0.017302,-0.0,0.0,0.0,0.0,0.0,0.0,0.0
238040,-0.002075,-0.000369,-0.002442,0.0,0.0,0.0,0.0,0.0,0.0,3.0,0.28464,0.358371,0.277663,0.367321,1.4e-05,-0.002398,0.0,-1.9e-05,0.017223,-0.0,0.0,0.0,0.0,0.0,0.0,0.0
238060,-0.002075,-0.000124,-0.00232,0.0,0.0,0.0,0.0,0.0,0.0,3.0,0.283891,0.359215,0.273518,0.369814,1.4e-05,-0.002054,0.0,-1.9e-05,0.01713,-0.0,0.0,0.0,0.0,0.0,0.0,0.0
238080,-0.002075,0.00012,-0.00232,0.0,0.0,0.0,0.0,0.0,0.0,3.0,0.285262,0.35814,0.277141,0.36746,1.3e-05,-0.001712,0.0,-1.9e-05,0.017024,-0.0,0.0,0.0,0.0,0.0,0.0,0.0
238100,-0.001954,0.000364,-0.002319,0.0,0.0,0.0,0.0,0.0,0.0,3.0,0.288529,0.354126,0.279287,0.367515,1.3e-05,-0.001373,0.0,-2e-05,0.016904,-0.0,0.0,0.0,0.0,0.0,0.0,0.0
238120,-0.001954,0.000486,-0.002197,0.0,0.0,0.0,0.0,0.0,0.0,3.0,0.282506,0.360211,0.275299,0.368631,1.3e-05,-0.001036,0.0,-2e-05,0.016772,-0.0,0.0,0.0,0.0,0.0,0.0,0.0
238140,-0.002076,0.000364,-0.002197,0.0,0.0,0.0,0.0,0.0,0.0,3.0,0.286727,0.358893,0.275582,0.366743,1.2e-05,-0.000701,0.0,-2e-05,0.016628,-0.0,0.0,0.0,0.0,0.0,0.0,0.0
238160,-0.002076,0.000364,-0.002075,0.0,0.0,0.0,0.0,0.0,0.0,3.0,0.285209,0.358996,0.274624,0.368365,1.2e-05,-0.00037,0.0,-2.1e-05,0.016471,-0.0,0.0,0.0,0.0,0.0,0.0,0.0
238180,-0.002076,0.000364,-0.002075,0.0,0.0,0.0,0.0,0.0,0.0,3.0,0.279884,0.361795,0.271858,0.371173,1.1e-05,-4.2e-05,0.0,-2.1e-05,0.016302,-0.0,0.0,0.0,0.0,0.0,0.0,0.0
238200,-0.002076,0.000242,-0.001953,0.0,0.0,0.0,0.0,0.0,0.0,3.0,0.285864,0.358438,0.274457,0.368553,1.1e-05,0.000283,0.0,-2.1e-05,0.016121,-0.0,0.0,0.0,0.0,0.0,0.0,0.0
238220,-0.001953,-2e-06,-0.001831,0.0,0.0,0.0,0.0,0.0,0.0,3.0,0.280939,0.361443,0.273332,0.369826,1.1e-05,0.000604,0.0,-2.1e-05,0.015929,-0.0,0.0,0.0,0.0,0.0,0.0,0.0
238240,-0.001831,0.000242,-0.001831,0.0,0.0,0.0,0.0,0.0,0.0,3.0,0.284431,0.355615,0.277273,0.370372,1e-05,0.000921,0.0,-2.2e-05,0.015725,-0.0,0.0,0.0,0.0,0.0,0.0,0.0
238260,-0.001831,0.000243,-0.001709,0.0,0.0,0.0,0.0,0.0,0.0,3.0,0.281645,0.358539,0.272506,0.372674,1e-05,0.001234,0.0,-2.2e-05,0.015511,-0.0,0.0,0.0,0.0,0.0,0.0,0.0
238280,-0.001832,0.000487,-0.001709,0.0,0.0,0.0,0.0,0.0,0.0,3.0,0.283052,0.355379,0.278543,0.370697,9e-06,0.001543,0.0,-2.2e-05,0.015286,-0.0,0.0,0.0,0.0,0.0,0.0,0.0
238300,-0.001832,0.000609,-0.001587,0.0,0.0,0.0,0.0,0.0,0.0,3.0,0.28252,0.358102,0.279623,0.367728,9e-06,0.001847,-0.0,-2.2e-05,0.015051,-0.0,0.0,0.0,0.0,0.0,0.0,0.0
238320,-0.001954,0.000365,-0.001587,0.0,0.0,0.0,0.0,0.0,0.0,3.0,0.282194,0.357843,0.278462,0.368998,8e-06,0.002146,-0.0,-2.2e-05,0.014805,-0.0,0.0,0.0,0.0,0.0,0.0,0.0
238340,-0.001954,0.000365,-0.001465,0.0,0.0,0.0,0.0,0.0,0.0,3.0,0.283079,0.359336,0.278842,0.366677,8e-06,0.00244,-0.0,-2.2e-05,0.01455,-0.0,0.0,0.0,0.0,0.0,0.0,0.0
238360,-0.001954,0.000609,-0.001465,0.0,0.0,0.0,0.0,0.0,0.0,3.0,0.28291,0.356951,0.28042,0.368016,7e-06,0.002729,-0.0,-2.2e-05,0.014286,-0.0,0.0,0.0,0.0,0.0,0.0,0.0
238380,-0.001954,0.000731,-0.001586,0.0,0.0,0.0,0.0,0.0,0.0,3.0,0.278572,0.361147,0.274265,0.371109,7e-06,0.003013,-0.0,-2.2e-05,0.014012,-0.0,0.0,0.0,0.0,0.0,0.0,0.0
238400,-0.001832,0.000975,-0.001586,0.0,0.0,0.0,0.0,0.0,0.0,3.0,0.279249,0.361667,0.272963,0.371005,7e-06,0.003291,-0.0,-2.2e-05,0.01373,-0.0,0.0,0.0,0.0,0.0,0.0,0.0
238420,-0.001832,0.000975,-0.001464,0.0,0.0,0.0,0.0,0.0,0.0,3.0,0.279051,0.361488,0.273181,0.371169,6e-06,0.003563,-0.0,-2.2e-05,0.013439,-0.0,0.0,0.0,0.0,0.0,0.0,0.0
238440,-0.001832,0.001219,-0.001586,0.0,0.0,0.0,0.0,0.0,0.0,3.0,0.283877,0.357319,0.274832,0.370769,6e-06,0.00383,-0.0,-2.2e-05,0.01314,-0.0,0.0,0.0,0.0,0.0,0.0,0.0
238460,-0.002076,0.001585,-0.001463,0.0,0.0,0.0,0.0,0.0,0.0,3.0,0.285539,0.356997,0.274867,0.369891,5e-06,0.00409,-0.0,-2.2e-05,0.012834,-0.0,0.0,0.0,0.0,0.0,0.0,0.0
238480,-0.002077,0.00183,-0.001463,0.0,0.0,0.0,0.0,0.0,0.0,3.0,0.285746,0.356154,0.273465,0.371475,5e-06,0.004345,-0.0,-2.2e-05,0.01252,-0.0,0.0,0.0,0.0,0.0,0.0,0.0
238500,-0.002321,0.001951,-0.001585,0.0,0.0,0.0,0.0,0.0,0.0,3.0,0.288217,0.357103,0.273461,0.368825,4e-06,0.004593,-0.0,-2.2e-05,0.012198,-0.0,0.0,0.0,0.0,0.0,0.0,0.0
238520,-0.002443,0.001951,-0.001585,0.0,0.0,0.0,0.0,0.0,0.0,3.0,0.286046,0.358716,0.274689,0.368001,4e-06,0.004834,-0.0,-2.2e-05,0.011871,-0.0,0.0,0.0,0.0,0.0,0.0,0.0
238540,-0.002443,0.002196,-0.001462,0.0,0.0,0.0,0.0,0.0,0.0,3.0,0.284956,0.358712,0.273161,0.369789,3e-06,0.005069,-0.0,-2.2e-05,0.011536,-0.0,0.0,0.0,0.0,0.0,0.0,0.0
238560,-0.002443,0.002318,-0.001462,0.0,0.0,0.0,0.0,0.0,0.0,3.0,0.287492,0.357441,0.27432,0.368447,3e-06,0.005297,-0.0,-2.2e-05,0.011196,-0.0,0.0,0.0,0.0,0.0,0.0,0.0
238580,-0.002321,0.00244,-0.001462,0.0,0.0,0.0,0.0,0.0,0.0,3.0,0.280474,0.361015,0.271086,0.372026,3e-06,0.005519,-0.0,-2.2e-05,0.01085,-0.0,0.0,0.0,0.0,0.0,0.0,0.0
238600,-0.002321,0.00244,-0.00134,0.0,0.0,0.0,0.0,0.0,0.0,3.0,0.286271,0.356864,0.27369,0.370284,2e-06,0.005733,-0.0,-2.2e-05,0.010499,-0.0,0.0,0.0,0.0,0.0,0.0,0.0
238620,-0.002199,0.002562,-0.00134,0.0,0.0,0.0,0.0,0.0,0.0,3.0,0.287286,0.357247,0.274529,0.368642,2e-06,0.00594,-0.0,-2.2e-05,0.010143,-0.0,0.0,0.0,0.0,0.0,0.0,0.0
238640,-0.002321,0.002806,-0.00134,0.0,0.0,0.0,0.0,0.0,0.0,3.0,0.28796,0.353459,0.276583,0.370388,1e-06,0.00614,-0.0,-2.1e-05,0.009782,-0.0,0.0,0.0,0.0,0.0,0.0,0.0
238660,-0.002321,0.002928,-0.001218,0.0,0.0,0.0,0.0,0.0,0.0,3.0,0.287764,0.353696,0.279626,0.36824,1e-06,0.006333,-0.0,-2.1e-05,0.009416,-0.0,0.0,0.0,0.0,0.0,0.0,0.0
238680,-0.002565,0.00305,-0.001217,0.0,0.0,0.0,0.0,0.0,0.0,3.0,0.28797,0.352856,0.280914,0.368001,0.0,0.006519,-0.0,-2.1e-05,0.009047,-0.0,0.0,0.0,0.0,0.0,0.0,0.0
238700,-0.002565,0.002928,-0.001217,0.0,0.0,0.0,0.0,0.0,0.0,3.0,0.289297,0.352861,0.282232,0.366123,-0.0,0.006697,-0.0,-2.1e-05,0.008675,-0.0,0.0,0.0,0.0,0.0,0.0,0.0
238720,-0.002688,0.003172,-0.001217,0.0,0.0,0.0,0.0,0.0,0.0,3.0,0.28276,0.356996,0.27864,0.369296,-0.0,0.006868,-0.0,-2.1e-05,0.008299,-0.0,0.0,0.0,0.0,0.0,0.0,0.0
238740,-0.002688,0.003294,-0.001216,0.0,0.0,0.0,0.0,0.0,0.0,3.0,0.284609,0.356211,0.27742,0.369583,-1e-06,0.007031,-0.0,-2e-05,0.00792,0.0,0.0,0.0,0.0,0.0,0.0,0.0
238760,-0.002688,0.003661,-0.001216,0.0,0.0,0.0,0.0,0.0,0.0,3.0,0.284095,0.355906,0.278038,0.369815,-1e-06,0.007186,-0.0,-2e-05,0.007538,0.0,0.0,0.0,0.0,0.0,0.0,0.0
238780,-0.002688,0.003661,-0.001216,0.0,0.0,0.0,0.0,0.0,0.0,3.0,0.27841,0.362012,0.273158,0.371111,-2e-06,0.007334,-0.0,-2e-05,0.007154,0.0,0.0,0.0,0.0,0.0,0.0,0.0
238800,-0.002688,0.003783,-0.001094,0.0,0.0,0.0,0.0,0.0,0.0,3.0,0.280081,0.359619,0.2721,0.372972,-2e-06,0.007474,-0.0,-1.9e-05,0.006769,0.0,0.0,0.0,0.0,0.0,0.0,0.0
238820,-0.002688,0.003905,-0.001094,0.0,0.0,0.0,0.0,0.0,0.0,3.0,0.285543,0.356365,0.275745,0.369906,-2e-06,0.007607,-0.0,-1.9e-05,0.006382,0.0,0.0,0.0,0.0,0.0,0.0,0.0
238840,-0.00281,0.004271,-0.001215,0.0,0.0,0.0,0.0,0.0,0.0,3.0,0.285578,0.356957,0.273669,0.370696,-3e-06,0.007732,-0.0,-1.9e-05,0.005994,0.0,0.0,0.0,0.0,0.0,0.0,0.0
238860,-0.002932,0.004515,-0.001092,0.0,0.0,0.0,0.0,0.0,0.0,3.0,0.291761,0.352629,0.279067,0.366743,-3e-06,0.007849,-0.0,-1.9e-05,0.005604,0.0,0.0,0.0,0.0,0.0,0.0,0.0
238880,-0.003054,0.004393,-0.001092,0.0,0.0,0.0,0.0,0.0,0.0,3.0,0.285395,0.357756,0.275901,0.368574,-4e-06,0.007958,-0.0,-1.8e-05,0.005215,0.0,0.0,0.0,0.0,0.0,0.0,0.0
238900,-0.003054,0.004393,-0.001092,0.0,0.0,0.0,0.0,0.0,0.0,3.0,0.287222,0.357104,0.274687,0.368719,-4e-06,0.008059,-0.0,-1.8e-05,0.004825,0.0,0.0,0.0,0.0,0.0,0.0,0.0
238920,-0.003054,0.004515,-0.001092,0.0,0.0,0.0,0.0,0.0,0.0,3.0,0.288057,0.356715,0.27386,0.369047,-4e-06,0.008153,-0.0,-1.7e-05,0.004435,0.0,0.0,0.0,0.0,0.0,0.0,0.0
238940,-0.003177,0.004637,-0.001091,0.0,0.0,0.0,0.0,0.0,0.0,3.0,0.288401,0.356788,0.273527,0.368951,-5e-06,0.008238,-0.0,-1.7e-05,0.004046,0.0,0.0,0.0,0.0,0.0,0.0,0.0
238960,-0.003299,0.004515,-0.001091,0.0,0.0,0.0,0.0,0.0,0.0,3.0,0.289719,0.354187,0.274771,0.369654,-5e-06,0.008316,-0.0,-1.7e-05,0.003658,0.0,0.0,0.0,0.0,0.0,0.0,0.0
238980,-0.003299,0.004759,-0.001091,0.0,0.0,0.0,0.0,0.0,0.0,3.0,0.28768,0.352972,0.277161,0.370655,-5e-06,0.008387,-0.0,-1.6e-05,0.003271,0.0,0.0,0.0,0.0,0.0,0.0,0.0
239000,-0.003421,0.005003,-0.000968,0.0,0.0,0.0,0.0,0.0,0.0,3.0,0.287583,0.352306,0.277303,0.371251,-6e-06,0.008449,-0.0,-1.6e-05,0.002885,0.0,0.0,0.0,0.0,0.0,0.0,0.0
239020,-0.003543,0.005492,-0.000967,0.0,0.0,0.0,0.0,0.0,0.0,3.0,0.287619,0.349979,0.278584,0.372525,-6e-06,0.008504,-0.0,-1.5e-05,0.0025,0.0,0.0,0.0,0.0,0.0,0.0,0.0
239040,-0.003788,0.005736,-0.001088,0.0,0.0,0.0,0.0,0.0,0.0,3.0,0.287706,0.351056,0.278623,0.371441,-6e-06,0.008551,-0.0,-1.5e-05,0.002118,0.0,0.0,0.0,0.0,0.0,0.0,0.0
239060,-0.00391,0.00598,-0.001087,0.0,0.0,0.0,0.0,0.0,0.0,3.0,0.285708,0.352393,0.276854,0.372786,-7e-06,0.008591,-0.0,-1.5e-05,0.001738,0.0,0.0,0.0,0.0,0.0,0.0,0.0
239080,-0.004032,0.006468,-0.001086,0.0,0.0,0.0,0.0,0.0,0.0,3.0,0.285657,0.351523,0.276684,0.37374,-7e-06,0.008623,-0.0,-1.4e-05,0.001361,0.0,0.0,0.0,0.0,0.0,0.0,0.0
239100,-0.004032,0.006956,-0.001085,0.0,0.0,0.0,0.0,0.0,0.0,3.0,0.284819,0.351453,0.277597,0.373779,-7e-06,0.008647,-0.0,-1.4e-05,0.000987,0.0,0.0,0.0,0.0,0.0,0.0,0.0
239120,-0.004277,0.007078,-0.001084,0.0,0.0,0.0,0.0,0.0,0.0,3.0,0.284854,0.35164,0.277601,0.37358,-7e-06,0.008664,-0.0,-1.3e-05,0.000616,0.0,0.0,0.0,0.0,0.0,0.0,0.0
239140,-0.004399,0.007078,-0.001083,0.0,0.0,0.0,0.0,0.0,0.0,3.0,0.286523,0.354274,0.275899,0.371093,-8e-06,0.008674,-0.0,-1.3e-05,0.000248,0.0,0.0,0.0,0.0,0.0,0.0,0.0
239160,-0.004521,0.007078,-0.001083,0.0,0.0,0.0,0.0,0.0,0.0,3.0,0.28399,0.357049,0.27334,0.371931,-8e-06,0.008676,-0.0,-1.2e-05,-0.000116,0.0,0.0,0.0,0.0,0.0,0.0,0.0
239180,-0.004765,0.0072,-0.001204,0.0,0.0,0.0,0.0,0.0,0.0,3.0,0.288219,0.352976,0.276741,0.37055,-8e-06,0.008671,-0.0,-1.2e-05,-0.000476,0.0,0.0,0.0,0.0,0.0,0.0,0.0
239200,-0.004887,0.0072,-0.001203,0.0,0.0,0.0,0.0,0.0,0.0,3.0,0.288878,0.354929,0.273901,0.370132,-8e-06,0.008659,-0.0,-1.1e-05,-0.000832,0.0,0.0,0.0,0.0,0.0,0.0,0.0
239220,-0.00501,0.007444,-0.001202,0.0,0.0,0.0,0.0,0.0,0.0,3.0,0.287918,0.353343,0.274828,0.371694,-9e-06,0.008639,-0.0,-1.1e-05,-0.001183,0.0,0.0,0.0,0.0,0.0,0.0,0.0
239240,-0.00501,0.007565,-0.001324,0.0,0.0,0.0,0.0,0.0,0.0,3.0,0.291256,0.351464,0.28206,0.36614,-9e-06,0.008613,-0.0,-1e-05,-0.00153,0.0,0.0,0.0,0.0,0.0,0.0,0.0
239260,-0.005132,0.007932,-0.001323,0.0,0.0,0.0,0.0,0.0,0.0,3.0,0.292894,0.351709,0.27837,0.36726,-9e-06,0.00858,-0.0,-1e-05,-0.001871,0.0,0.0,0.0,0.0,0.0,0.0,0.0
239280,-0.005255,0.008298,-0.001321,0.0,0.0,0.0,0.0,0.0,0.0,3.0,0.290533,0.354227,0.272918,0.370257,-9e-06,0.00854,-0.0,-1e-05,-0.002208,0.0,0.0,0.0,0.0,0.0,0.0,0.0
239300,-0.005499,0.008297,-0.00132,0.0,0.0,0.0,0.0,0.0,0.0,3.0,0.290252,0.353624,0.272747,0.37114,-9e-06,0.008493,0.0,-9e-06,-0.002539,0.0,0.0,0.0,0.0,0.0,0.0,0.0
239320,-0.005499,0.008542,-0.00132,0.0,0.0,0.0,0.0,0.0,0.0,3.0,0.290158,0.353506,0.272864,0.37124,-1e-05,0.00844,0.0,-9e-06,-0.002864,0.0,0.0,0.0,0.0,0.0,0.0,0.0
239340,-0.005866,0.008908,-0.001317,0.0,0.0,0.0,0.0,0.0,0.0,3.0,0.289376,0.351874,0.273741,0.372745,-1e-05,0.00838,0.0,-8e-06,-0.003183,0.0,0.0,0.0,0.0,0.0,0.0,0.0
239360,-0.00611,0.009151,-0.001437,0.0,0.0,0.0,0.0,0.0,0.0,3.0,0.291677,0.351936,0.274224,0.370722,-1e-05,0.008314,0.0,-8e-06,-0.003497,0.0,0.0,0.0,0.0,0.0,0.0,0.0
239380,-0.006233,0.009273,-0.001436,0.0,0.0,0.0,0.0,0.0,0.0,3.0,0.288563,0.352742,0.275219,0.371541,-1e-05,0.008242,0.0,-7e-06,-0.003804,0.0,0.0,0.0,0.0,0.0,0.0,0.0
239400,-0.006477,0.009761,-0.001433,0.0,0.0,0.0,0.0,0.0,0.0,3.0,0.288046,0.353516,0.2757,0.370863,-1e-05,0.008164,0.0,-7e-06,-0.004105,0.0,0.0,0.0,0.0,0.0,0.0,0.0
239420,-0.006599,0.010127,-0.001432,0.0,0.0,0.0,0.0,0.0,0.0,3.0,0.287874,0.351217,0.275872,0.373012,-1e-05,0.008079,0.0,-6e-06,-0.004399,0.0,0.0,0.0,0.0,0.0,0.0,0.0
239440,-0.006966,0.010493,-0.001429,0.0,0.0,0.0,0.0,0.0,0.0,3.0,0.286814,0.353137,0.271701,0.374699,-1e-05,0.007989,0.0,-6e-06,-0.004686,0.0,0.0,0.0,0.0,0.0,0.0,0.0
239460,-0.007088,0.010615,-0.001427,0.0,0.0,0.0,0.0,0.0,0.0,3.0,0.288747,0.352886,0.274724,0.371603,-1.1e-05,0.007893,0.0,-5e-06,-0.004966,0.0,0.0,0.0,0.0,0.0,0.0,0.0
239480,-0.007332,0.010859,-0.001425,0.0,0.0,0.0,0.0,0.0,0.0,3.0,0.290477,0.351626,0.273125,0.372595,-1.1e-05,0.007792,0.0,-5e-06,-0.005239,0.0,0.0,0.0,0.0,0.0,0.0,0.0
239500,-0.007577,0.011347,-0.001422,0.0,0.0,0.0,0.0,0.0,0.0,3.0,0.289498,0.351999,0.271565,0.373957,-1.1e-05,0.007685,0.0,-4e-06,-0.005505,0.0,0.0,0.0,0.0,0.0,0.0,0.0
239520,-0.007944,0.011713,-0.001541,0.0,0.0,0.0,0.0,0.0,0.0,3.0,0.296677,0.34917,0.274407,0.369513,-1.1e-05,0.007573,0.0,-4e-06,-0.005764,-0.0,0.0,0.0,0.0,0.0,0.0,0.0
239540,-0.008066,0.012079,-0.001416,0.0,0.0,0.0,0.0,0.0,0.0,3.0,0.290692,0.35363,0.268075,0.373828,-1.1e-05,0.007456,0.0,-3e-06,-0.006014,-0.0,0.0,0.0,0.0,0.0,0.0,0.0
239560,-0.00831,0.012323,-0.001414,0.0,0.0,0.0,0.0,0.0,0.0,3.0,0.291397,0.35221,0.272021,0.372113,-1.1e-05,0.007334,0.0,-3e-06,-0.006258,-0.0,0.0,0.0,0.0,0.0,0.0,0.0
239580,-0.008432,0.01269,-0.001412,0.0,0.0,0.0,0.0,0.0,0.0,3.0,0.292643,0.352657,0.270951,0.371493,-1.1e-05,0.007207,0.0,-2e-06,-0.006493,-0.0,0.0,0.0,0.0,0.0,0.0,0.0
239600,-0.008677,0.013055,-0.001531,0.0,0.0,0.0,0.0,0.0,0.0,3.0,0.297558,0.347823,0.276431,0.368749,-1.1e-05,0.007075,0.0,-2e-06,-0.00672,-0.0,0.0,0.0,0.0,0.0,0.0,0.0
239620,-0.0088,0.013421,-0.001528,0.0,0.0,0.0,0.0,0.0,0.0,3.0,0.291531,0.352128,0.273326,0.37124,-1.1e-05,0.006939,0.0,-1e-06,-0.00694,-0.0,0.0,0.0,0.0,0.0,0.0,0.0
239640,-0.008922,0.013909,-0.001525,0.0,0.0,0.0,0.0,0.0,0.0,3.0,0.2942,0.34877,0.26951,0.374875,-1.1e-05,0.006799,0.0,-1e-06,-0.007151,-0.0,0.0,0.0,0.0,0.0,0.0,0.0
239660,-0.009289,0.014397,-0.00152,0.0,0.0,0.0,0.0,0.087266,0.0,3.0,0.291993,0.663206,0.272111,0.15,-1.1e-05,0.006654,0.0,-0.0,0.269752,-0.015518,0.0,0.0,0.0,0.0,0.0,0.0
239680,-0.009657,0.014518,-0.001761,0.0,0.0,0.0,0.0,0.087266,0.0,3.0,0.299932,0.395916,0.279739,0.30999,-1.4e-05,0.01554,-0.000441,0.000342,0.589403,-0.024487,0.0,0.0,0.0,0.0,0.0,0.0
239700,-0.009647,0.016233,-0.00041,0.0,0.0,0.0,0.0,0.087266,0.0,3.0,0.263009,0.387081,0.24568,0.372434,-1.3e-05,0.027162,-0.000914,0.000793,0.546889,-0.02228,0.0,0.0,0.0,0.0,0.0,0.0
239720,-0.010867,0.020019,-0.000135,0.0,0.0,0.0,0.0,0.087266,0.0,3.0,0.289905,0.365446,0.254083,0.371661,-7e-06,0.037543,-0.001343,0.001113,0.474026,-0.020039,0.0,0.0,0.0,0.0,0.0,0.0
239740,-0.011602,0.025267,-0.000342,0.0,0.0,0.0,0.0,0.087266,0.0,3.0,0.296794,0.343539,0.269084,0.377959,1e-06,0.046545,-0.001728,0.001311,0.413094,-0.017885,0.0,0.0,0.0,0.0,0.0,0.0
239760,-0.0121,0.033565,-0.000774,0.0,0.0,0.0,0.0,0.087266,0.0,3.0,0.301178,0.325028,0.273843,0.387329,1.1e-05,0.054428,-0.002071,0.001418,0.364985,-0.01583,0.0,0.0,0.0,0.0,0.0,0.0
239780,-0.013213,0.042598,-0.001185,0.0,0.0,0.0,0.0,0.087266,0.0,3.0,0.309724,0.313384,0.275861,0.388848,2.2e-05,0.061429,-0.002373,0.001456,0.327158,-0.013873,0.0,0.0,0.0,0.0,0.0,0.0
239800,-0.014943,0.052726,-0.001684,0.0,0.0,0.0,0.0,0.087266,0.0,3.0,0.312239,0.302394,0.267501,0.399956,3.5e-05,0.067738,-0.002637,0.001445,0.297316,-0.012014,0.0,0.0,0.0,0.0,0.0,0.0
239820,-0.016301,0.063467,-0.001807,0.0,0.0,0.0,0.0,0.087266,0.0,3.0,0.311506,0.295917,0.269705,0.403578,4.7e-05,0.073498,-0.002864,0.001396,0.273641,-0.010252,0.0,0.0,0.0,0.0,0.0,0.0
239840,-0.017295,0.074089,-0.001929,0.0,0.0,0.0,0.0,0.087266,0.0,3.0,0.300346,0.301093,0.262817,0.411652,6e-05,0.078823,-0.003057,0.001318,0.254724,-0.008586,0.0,0.0,0.0,0.0,0.0,0.0
239860,-0.018292,0.08435,-0.002045,0.0,0.0,0.0,0.0,0.087266,0.0,3.0,0.307299,0.296347,0.265533,0.408601,7.3e-05,0.083798,-0.003217,0.00122,0.239468,-0.007016,0.0,0.0,0.0,0.0,0.0,0.0
239880,-0.01941,0.093873,-0.002153,0.0,0.0,0.0,0.0,0.087266,0.0,3.0,0.31051,0.294885,0.259481,0.410637,8.6e-05,0.08849,-0.003346,0.001105,0.227024,-0.00554,0.0,0.0,0.0,0.0,0.0,0.0
239900,-0.020042,0.103281,-0.002276,0.0,0.0,0.0,0.0,0.087266,0.0,3.0,0.305911,0.291403,0.267123,0.41183,9.8e-05,0.09295,-0.003446,0.000979,0.216735,-0.004156,0.0,0.0,0.0,0.0,0.0,0.0
239920,-0.020552,0.111348,-0.002415,0.0,0.0,0.0,0.0,0.087266,0.0,3.0,0.305211,0.297732,0.269333,0.406978,0.000109,0.097218,-0.003519,0.000844,0.20809,-0.002862,0.0,0.0,0.0,0.0,0.0,0.0
239940,-0.021062,0.118068,-0.002563,0.0,0.0,0.0,0.0,0.087266,0.0,3.0,0.29836,0.304772,0.267948,0.40765,0.000121,0.101323,-0.003567,0.000703,0.200695,-0.001657,0.0,0.0,0.0,0.0,0.0,0.0
239960,-0.021077,0.123815,-0.002627,0.0,0.0,0.0,0.0,0.087266,0.0,3.0,0.299244,0.311414,0.268799,0.401946,0.000131,0.105287,-0.003591,0.000558,0.194244,-0.000538,0.0,0.0,0.0,0.0,0.0,0.0
239980,-0.020855,0.128702,-0.002838,0.0,0.0,0.0,0.0,0.087266,0.0,3.0,0.304064,0.310507,0.273577,0.396451,0.000141,0.109128,-0.003594,0.000411,0.188501,0.000497,0.0,0.0,0.0,0.0,0.0,0.0
240000,-0.020389,0.132736,-0.003075,0.0,0.0,0.0,0.0,0.087266,0.0,3.0,0.300228,0.312737,0.278203,0.394667,0.00015,0.112858,-0.003576,0.000263,0.183283,0.001451,0.0,0.0,0.0,0.0,0.0,0.0
240020,-0.020037,0.135554,-0.003196,0.0,0.0,0.0,0.0,0.087266,0.0,3.0,0.295248,0.321319,0.275868,0.393101,0.000158,0.116487,-0.003539,0.000115,0.178449,0.002326,0.0,0.0,0.0,0.0,0.0,0.0
240040,-0.019448,0.137876,-0.003462,0.0,0.0,0.0,0.0,0.087266,0.0,3.0,0.298239,0.320075,0.281562,0.388389,0.000166,0.120021,-0.003486,-3e-05,0.173892,0.003124,0.0,0.0,0.0,0.0,0.0,0.0
240060,-0.018616,0.139712,-0.003751,0.0,0.0,0.0,0.0,0.087266,0.0,3.0,0.300932,0.321354,0.287084,0.3818,0.000172,0.123466,-0.003417,-0.000173,0.169527,0.003849,0.0,0.0,0.0,0.0,0.0,0.0
240080,-0.017783,0.141061,-0.004046,0.0,0.0,0.0,0.0,0.087266,0.0,3.0,0.300452,0.32423,0.282764,0.382749,0.000178,0.126825,-0.003333,-0.000312,0.165292,0.004503,0.0,0.0,0.0,0.0,0.0,0.0
240100,-0.017438,0.142408,-0.004307,0.0,0.0,0.0,0.0,0.087266,0.0,3.0,0.303407,0.325002,0.280096,0.381734,0.000183,0.130099,-0.003237,-0.000446,0.161138,0.005089,0.0,0.0,0.0,0.0,0.0,0.0
240120,-0.016962,0.143383,-0.004457,0.0,0.0,0.0,0.0,0.087266,0.0,3.0,0.29939,0.326427,0.281388,0.382653,0.000187,0.133291,-0.00313,-0.000575,0.157029,0.00561,0.0,0.0,0.0,0.0,0.0,0.0
240140,-0.016496,0.144731,-0.004728,0.0,0.0,0.0,0.0,0.087266,0.0,3.0,0.298305,0.322071,0.28519,0.384396,0.000191,0.136401,-0.003013,-0.000699,0.152937,0.006069,0.0,0.0,0.0,0.0,0.0,0.0
240160,-0.016159,0.14559,-0.005118,0.0,0.0,0.0,0.0,0.087266,0.0,3.0,0.30556,0.319311,0.287465,0.379753,0.000193,0.139429,-0.002886,-0.000816,0.148841,0.006468,0.0,0.0,0.0,0.0,0.0,0.0
240180,-0.016189,0.146805,-0.005478,0.0,0.0,0.0,0.0,0.087266,0.0,3.0,0.30593,0.322159,0.282267,0.380718,0.000195,0.142375,-0.002753,-0.000926,0.144728,0.006811,0.0,0.0,0.0,0.0,0.0,0.0
240200,-0.015958,0.148275,-0.005608,0.0,0.0,0.0,0.0,0.087266,0.0,3.0,0.306177,0.320546,0.280756,0.382817,0.000196,0.145238,-0.002612,-0.00103,0.140585,0.0071,0.0,0.0,0.0,0.0,0.0,0.0
240220,-0.015738,0.149987,-0.005861,0.0,0.0,0.0,0.0,0.087266,0.0,3.0,0.306889,0.314606,0.281732,0.38626,0.000196,0.148019,-0.002466,-0.001126,0.136407,0.007338,0.0,0.0,0.0,0.0,0.0,0.0
240240,-0.015648,0.151576,-0.006228,0.0,0.0,0.0,0.0,0.087266,0.0,3.0,0.305471,0.318089,0.27883,0.386505,0.000195,0.150715,-0.002316,-0.001214,0.132189,0.007528,0.0,0.0,0.0,0.0,0.0,0.0
240260,-0.015672,0.153044,-0.006465,0.0,0.0,0.0,0.0,0.087266,0.0,3.0,0.306108,0.317464,0.276572,0.387959,0.000193,0.153327,-0.002162,-0.001295,0.127928,0.007673,0.0,0.0,0.0,0.0,0.0,0.0
240280,-0.015443,0.154758,-0.006595,0.0,0.0,0.0,0.0,0.087266,0.0,3.0,0.306339,0.31248,0.283698,0.386986,0.000191,0.155854,-0.002005,-0.001367,0.123623,0.007776,0.0,0.0,0.0,0.0,0.0,0.0
240300,-0.015468,0.156591,-0.006829,0.0,0.0,0.0,0.0,0.087266,0.0,3.0,0.302074,0.312724,0.280489,0.391946,0.000188,0.158293,-0.001847,-0.001432,0.119274,0.007839,0.0,0.0,0.0,0.0,0.0,0.0
240320,-0.015362,0.158303,-0.00695,0.0,0.0,0.0,0.0,0.087266,0.0,3.0,0.302786,0.311172,0.281239,0.39211,0.000184,0.160646,-0.001687,-0.001489,0.114883,0.007865,0.0,0.0,0.0,0.0,0.0,0.0
240340,-0.01551,0.160145,-0.007175,0.0,0.0,0.0,0.0,0.087266,0.0,3.0,0.310164,0.307353,0.280885,0.389798,0.000179,0.162911,-0.001527,-0.001538,0.110451,0.007857,0.0,0.0,0.0,0.0,0.0,0.0
240360,-0.015404,0.161858,-0.007297,0.0,0.0,0.0,0.0,0.087266,0.0,3.0,0.309004,0.310263,0.281269,0.388267,0.000174,0.165086,-0.001368,-0.001579,0.105981,0.007817,0.0,0.0,0.0,0.0,0.0,0.0
240380,-0.015064,0.163328,-0.007564,0.0,0.0,0.0,0.0,0.087266,0.0,3.0,0.308298,0.307689,0.283207,0.389426,0.000169,0.167172,-0.00121,-0.001612,0.101476,0.007747,0.0,0.0,0.0,0.0,0.0,0.0
240400,-0.014958,0.164798,-0.007688,0.0,0.0,0.0,0.0,0.087266,0.0,3.0,0.305445,0.309964,0.277146,0.393681,0.000162,0.169167,-0.001053,-0.001638,0.096938,0.007651,0.0,0.0,0.0,0.0,0.0,0.0
240420,-0.014853,0.166389,-0.007812,0.0,0.0,0.0,0.0,0.087266,0.0,3.0,0.305325,0.307111,0.281175,0.3933,0.000156,0.171072,-0.000898,-0.001657,0.092372,0.00753,0.0,0.0,0.0,0.0,0.0,0.0
240440,-0.014625,0.16786,-0.007947,0.0,0.0,0.0,0.0,0.087266,0.0,3.0,0.305856,0.306131,0.282895,0.392526,0.000148,0.172885,-0.000746,-0.001669,0.087781,0.007386,0.0,0.0,0.0,0.0,0.0,0.0
240460,-0.01464,0.168842,-0.008065,0.0,0.0,0.0,0.0,0.087266,0.0,3.0,0.303285,0.308685,0.281188,0.393605,0.000141,0.174606,-0.000597,-0.001674,0.083168,0.007223,0.0,0.0,0.0,0.0,0.0,0.0
240480,-0.014531,0.169693,-0.008193,0.0,0.0,0.0,0.0,0.087266,0.0,3.0,0.305882,0.309828,0.278576,0.392574,0.000132,0.176235,-0.000451,-0.001673,0.078538,0.007041,0.0,0.0,0.0,0.0,0.0,0.0
240500,-0.014424,0.170555,-0.008322,0.0,0.0,0.0,0.0,0.087266,0.0,3.0,0.305316,0.311891,0.280779,0.390064,0.000124,0.177771,-0.00031,-0.001665,0.073895,0.006843,0.0,0.0,0.0,0.0,0.0,0.0
240520,-0.014315,0.171163,-0.008452,0.0,0.0,0.0,0.0,0.087266,0.0,3.0,0.311679,0.305491,0.283579,0.388283,0.000115,0.179214,-0.000172,-0.001652,0.069241,0.00663,0.0,0.0,0.0,0.0,0.0,0.0
240540,-0.014207,0.171781,-0.008583,0.0,0.0,0.0,0.0,0.087266,0.0,3.0,0.313235,0.30577,0.28053,0.388892,0.000106,0.180563,-3.9e-05,-0.001633,0.064582,0.006405,0.0,0.0,0.0,0.0,0.0,0.0
240560,-0.014339,0.171779,-0.008696,0.0,0.0,0.0,0.0,0.087266,0.0,3.0,0.309183,0.310249,0.282363,0.387435,9.7e-05,0.18182,9e-05,-0.001609,0.059922,0.00617,0.0,0.0,0.0,0.0,0.0,0.0
240580,-0.014228,0.171779,-0.00883,0.0,0.0,0.0,0.0,0.087266,0.0,3.0,0.308303,0.30899,0.284348,0.387719,8.7e-05,0.182984,0.000214,-0.001581,0.055263,0.005925,0.0,0.0,0.0,0.0,0.0,0.0
240600,-0.014116,0.171779,-0.008964,0.0,0.0,0.0,0.0,0.087266,0.0,3.0,0.306438,0.309269,0.285188,0.388328,7.8e-05,0.184054,0.000332,-0.001548,0.050611,0.005673,0.0,0.0,0.0,0.0,0.0,0.0
240620,-0.014258,0.171644,-0.0092,0.0,0.0,0.0,0.0,0.087266,0.0,3.0,0.309495,0.31117,0.280138,0.387958,6.8e-05,0.185031,0.000446,-0.001511,0.045969,0.005415,0.0,0.0,0.0,0.0,0.0,0.0
240640,-0.014258,0.171644,-0.0092,0.0,0.0,0.0,0.0,0.087266,0.0,3.0,0.308534,0.311776,0.281081,0.387608,5.8e-05,0.185916,0.000554,-0.00147,0.04134,0.005152,0.0,0.0,0.0,0.0,0.0,0.0
240660,-0.014146,0.171644,-0.009334,0.0,0.0,0.0,0.0,0.087266,0.0,3.0,0.311992,0.308011,0.280314,0.388326,4.8e-05,0.186708,0.000657,-0.001427,0.036729,0.004886,0.0,0.0,0.0,0.0,0.0,0.0
240680,-0.013915,0.171777,-0.00948,0.0,0.0,0.0,0.0,0.087266,0.0,3.0,0.31361,0.302039,0.285272,0.388212,3.8e-05,0.187408,0.000754,-0.00138,0.03214,0.004617,0.0,0.0,0.0,0.0,0.0,0.0
240700,-0.013926,0.171897,-0.009602,0.0,0.0,0.0,0.0,0.087266,0.0,3.0,0.310833,0.307098,0.285067,0.386763,2.7e-05,0.188017,0.000846,-0.001331,0.027576,0.004348,0.0,0.0,0.0,0.0,0.0,0.0
240720,-0.013804,0.171898,-0.009613,0.0,0.0,0.0,0.0,0.087266,0.0,3.0,0.308626,0.306016,0.282279,0.391001,1.7e-05,0.188534,0.000933,-0.001279,0.02304,0.004079,0.0,0.0,0.0,0.0,0.0,0.0
240740,-0.013805,0.172142,-0.009611,0.0,0.0,0.0,0.0,0.087266,0.0,3.0,0.307913,0.304663,0.283609,0.391634,7e-06,0.188961,0.001014,-0.001226,0.018536,0.003811,0.0,0.0,0.0,0.0,0.0,0.0
240760,-0.013805,0.172142,-0.009611,0.0,0.0,0.0,0.0,0.087266,0.0,3.0,0.309994,0.305827,0.280174,0.391483,-2e-06,0.189298,0.001089,-0.001172,0.014069,0.003545,0.0,0.0,0.0,0.0,0.0,0.0
240780,-0.013805,0.172142,-0.009611,0.0,0.0,0.0,0.0,0.087266,0.0,3.0,0.312332,0.304741,0.2832,0.388586,-1.2e-05,0.189546,0.00116,-0.001116,0.00964,0.003282,0.0,0.0,0.0,0.0,0.0,0.0
240800,-0.013683,0.172021,-0.009623,0.0,0.0,0.0,0.0,0.087266,0.0,3.0,0.313138,0.306502,0.282686,0.387034,-2.2e-05,0.189706,0.001224,-0.001059,0.005253,0.003022,0.0,0.0,0.0,0.0,0.0,0.0
240820,-0.013551,0.171901,-0.009511,0.0,0.0,0.0,0.0,0.087266,0.0,3.0,0.311172,0.304262,0.279835,0.391954,-3.1e-05,0.189779,0.001284,-0.001002,0.000913,0.002767,0.0,0.0,0.0,0.0,0.0,0.0
240840,-0.013551,0.171901,-0.009511,0.0,0.0,0.0,0.0,0.087266,0.0,3.0,0.306575,0.307203,0.279625,0.39332,-4.1e-05,0.189765,0.001338,-0.000944,-0.003379,0.002516,0.0,0.0,0.0,0.0,0.0,0.0
240860,-0.013551,0.171901,-0.009511,0.0,0.0,0.0,0.0,0.087266,0.0,3.0,0.307222,0.305728,0.280027,0.39366,-5e-05,0.189665,0.001388,-0.000887,-0.00762,0.002271,0.0,0.0,0.0,0.0,0.0,0.0
240880,-0.013672,0.1719,-0.0095,0.0,0.0,0.0,0.0,0.087266,0.0,3.0,0.309501,0.302675,0.283187,0.392165,-5.9e-05,0.189481,0.001432,-0.000829,-0.011805,0.002033,0.0,0.0,0.0,0.0,0.0,0.0
240900,-0.013672,0.1719,-0.0095,0.0,0.0,0.0,0.0,0.087266,0.0,3.0,0.312588,0.30014,0.28511,0.39043,-6.8e-05,0.189214,0.001472,-0.000772,-0.015933,0.0018,0.0,0.0,0.0,0.0,0.0,0.0
240920,-0.013662,0.172023,-0.009376,0.0,0.0,0.0,0.0,0.087266,0.0,3.0,0.308826,0.305586,0.279096,0.393189,-7.6e-05,0.188865,0.001507,-0.000716,-0.020001,0.001575,0.0,0.0,0.0,0.0,0.0,0.0
240940,-0.013651,0.171902,-0.009253,0.0,0.0,0.0,0.0,0.087266,0.0,3.0,0.306652,0.308076,0.275471,0.395219,-8.4e-05,0.188435,0.001537,-0.00066,-0.024005,0.001356,0.0,0.0,0.0,0.0,0.0,0.0
240960,-0.013529,0.171781,-0.009265,0.0,0.0,0.0,0.0,0.087266,0.0,3.0,0.313984,0.299242,0.282724,0.391567,-9.2e-05,0.187925,0.001563,-0.000605,-0.027943,0.001145,0.0,0.0,0.0,0.0,0.0,0.0
240980,-0.013528,0.171649,-0.009264,0.0,0.0,0.0,0.0,0.087266,0.0,3.0,0.310958,0.302017,0.281115,0.39289,-0.0001,0.187337,0.001585,-0.000552,-0.031813,0.000942,0.0,0.0,0.0,0.0,0.0,0.0
241000,-0.013527,0.171527,-0.009265,0.0,0.0,0.0,0.0,0.087266,0.0,3.0,0.30991,0.299991,0.284891,0.392651,-0.000107,0.186672,0.001603,-0.000499,-0.035613,0.000747,0.0,0.0,0.0,0.0,0.0,0.0
241020,-0.013415,0.171284,-0.0094,0.0,0.0,0.0,0.0,0.087266,0.0,3.0,0.30916,0.299829,0.283383,0.394281,-0.000114,0.185932,0.001617,-0.000448,-0.039339,0.00056,0.0,0.0,0.0,0.0,0.0,0.0
241040,-0.013537,0.171283,-0.00939,0.0,0.0,0.0,0.0,0.087266,0.0,3.0,0.311311,0.297203,0.285065,0.393443,-0.000121,0.185118,0.001627,-0.000399,-0.04299,0.000381,0.0,0.0,0.0,0.0,0.0,0.0
241060,-0.013537,0.171283,-0.00939,0.0,0.0,0.0,0.0,0.087266,0.0,3.0,0.311233,0.299636,0.284404,0.392245,-0.000127,0.184231,0.001633,-0.000351,-0.046564,0.00021,0.0,0.0,0.0,0.0,0.0,0.0
241080,-0.013547,0.171161,-0.009514,0.0,0.0,0.0,0.0,0.087266,0.0,3.0,0.318121,0.295077,0.285596,0.38946,-0.000133,0.183273,0.001636,-0.000305,-0.050058,4.8e-05,0.0,0.0,0.0,0.0,0.0,0.0
241100,-0.013425,0.171161,-0.009524,0.0,0.0,0.0,0.0,0.087266,0.0,3.0,0.317737,0.294912,0.284221,0.390766,-0.000139,0.182246,0.001636,-0.00026,-0.053471,-0.000106,0.0,0.0,0.0,0.0,0.0,0.0
241120,-0.013424,0.170918,-0.009526,0.0,0.0,0.0,0.0,0.087266,0.0,3.0,0.312314,0.296511,0.284669,0.393438,-0.000145,0.181152,0.001633,-0.000218,-0.0568,-0.000251,0.0,0.0,0.0,0.0,0.0,0.0
241140,-0.013424,0.170796,-0.009527,0.0,0.0,0.0,0.0,0.087266,0.0,3.0,0.310016,0.299369,0.282033,0.39484,-0.00015,0.179991,0.001627,-0.000177,-0.060045,-0.000388,0.0,0.0,0.0,0.0,0.0,0.0
241160,-0.013433,0.170431,-0.009652,0.0,0.0,0.0,0.0,0.087266,0.0,3.0,0.313915,0.294404,0.285217,0.393336,-0.000155,0.178767,0.001619,-0.000138,-0.063202,-0.000517,0.0,0.0,0.0,0.0,0.0,0.0
241180,-0.013564,0.170307,-0.009766,0.0,0.0,0.0,0.0,0.087266,0.0,3.0,0.313508,0.296151,0.283732,0.393407,-0.000159,0.177479,0.001607,-0.000101,-0.066271,-0.000638,0.0,0.0,0.0,0.0,0.0,0.0
241200,-0.013441,0.170055,-0.009776,0.0,0.0,0.0,0.0,0.087266,0.0,3.0,0.315655,0.295847,0.2819,0.393191,-0.000163,0.176132,0.001594,-6.6e-05,-0.069251,-0.000751,0.0,0.0,0.0,0.0,0.0,0.0
241220,-0.01345,0.169932,-0.009901,0.0,0.0,0.0,0.0,0.087266,0.0,3.0,0.316936,0.293014,0.285592,0.391773,-0.000167,0.174725,0.001578,-3.3e-05,-0.072139,-0.000856,0.0,0.0,0.0,0.0,0.0,0.0
241240,-0.013327,0.169568,-0.009914,0.0,0.0,0.0,0.0,0.087266,0.0,3.0,0.315102,0.295644,0.28317,0.39293,-0.00017,0.173261,0.00156,-1e-06,-0.074934,-0.000953,0.0,0.0,0.0,0.0,0.0,0.0
241260,-0.013335,0.169081,-0.01004,0.0,0.0,0.0,0.0,0.087266,0.0,3.0,0.310681,0.296702,0.281312,0.39664,-0.000174,0.171742,0.00154,2.8e-05,-0.077636,-0.001043,0.0,0.0,0.0,0.0,0.0,0.0
241280,-0.013332,0.168584,-0.010041,0.0,0.0,0.0,0.0,0.087266,0.0,3.0,0.313351,0.293403,0.288216,0.392471,-0.000177,0.170169,0.001519,5.6e-05,-0.080243,-0.001125,0.0,0.0,0.0,0.0,0.0,0.0
241300,-0.013341,0.168096,-0.010168,0.0,0.0,0.0,0.0,0.087266,0.0,3.0,0.316676,0.293893,0.285433,0.391477,-0.000179,0.168546,0.001496,8.2e-05,-0.082754,-0.0012,0.0,0.0,0.0,0.0,0.0,0.0
241320,-0.013349,0.167731,-0.010293,0.0,0.0,0.0,0.0,0.087266,0.0,3.0,0.31731,0.293895,0.285271,0.391101,-0.000181,0.166872,0.001471,0.000106,-0.085168,-0.001268,0.0,0.0,0.0,0.0,0.0,0.0
241340,-0.013112,0.167113,-0.01044,0.0,0.0,0.0,0.0,0.087266,0.0,3.0,0.320787,0.290287,0.289333,0.388188,-0.000183,0.165151,0.001445,0.000128,-0.087485,-0.00133,0.0,0.0,0.0,0.0,0.0,0.0
241360,-0.012867,0.16675,-0.010462,0.0,0.0,0.0,0.0,0.087266,0.0,3.0,0.314977,0.292217,0.288246,0.39204,-0.000185,0.163385,0.001418,0.000149,-0.089703,-0.001384,0.0,0.0,0.0,0.0,0.0,0.0
241380,-0.01263,0.165889,-0.01061,0.0,0.0,0.0,0.0,0.087266,0.0,3.0,0.315585,0.291492,0.290529,0.390552,-0.000187,0.161575,0.00139,0.000168,-0.091823,-0.001433,0.0,0.0,0.0,0.0,0.0,0.0
241400,-0.012505,0.165281,-0.010624,0.0,0.0,0.0,0.0,0.087266,0.0,3.0,0.313232,0.294254,0.285538,0.393735,-0.000188,0.159723,0.001361,0.000186,-0.093842,-0.001475,0.0,0.0,0.0,0.0,0.0,0.0
241420,-0.01239,0.164551,-0.010761,0.0,0.0,0.0,0.0,0.087266,0.0,3.0,0.316198,0.291745,0.290319,0.390059,-0.000189,0.157831,0.001331,0.000202,-0.095761,-0.001512,0.0,0.0,0.0,0.0,0.0,0.0
241440,-0.012153,0.163934,-0.010907,0.0,0.0,0.0,0.0,0.087266,0.0,3.0,0.314907,0.291983,0.290361,0.390843,-0.000189,0.155902,0.001301,0.000217,-0.09758,-0.001543,0.0,0.0,0.0,0.0,0.0,0.0
241460,-0.011915,0.163083,-0.011055,0.0,0.0,0.0,0.0,0.087266,0.0,3.0,0.31835,0.29182,0.286426,0.390961,-0.00019,0.153938,0.00127,0.00023,-0.099298,-0.001568,0.0,0.0,0.0,0.0,0.0,0.0
241480,-0.011545,0.162102,-0.011088,0.0,0.0,0.0,0.0,0.087266,0.0,3.0,0.318766,0.293654,0.289989,0.387012,-0.00019,0.15194,0.001238,0.000242,-0.100915,-0.001589,0.0,0.0,0.0,0.0,0.0,0.0
241500,-0.011306,0.161242,-0.011234,0.0,0.0,0.0,0.0,0.087266,0.0,3.0,0.316911,0.29216,0.289052,0.390086,-0.00019,0.14991,0.001206,0.000253,-0.102431,-0.001604,0.0,0.0,0.0,0.0,0.0,0.0
241520,-0.011057,0.160148,-0.01126,0.0,0.0,0.0,0.0,0.087266,0.0,3.0,0.312407,0.296977,0.286146,0.392089,-0.000189,0.14785,0.001174,0.000263,-0.103845,-0.001615,0.0,0.0,0.0,0.0,0.0,0.0
241540,-0.010565,0.15929,-0.011302,0.0,0.0,0.0,0.0,0.087266,0.0,3.0,0.315545,0.290604,0.293504,0.389164,-0.000189,0.145763,0.001142,0.000271,-0.105158,-0.001622,0.0,0.0,0.0,0.0,0.0,0.0
241560,-0.010315,0.158065,-0.011325,0.0,0.0,0.0,0.0,0.087266,0.0,3.0,0.316246,0.292416,0.291773,0.388583,-0.000188,0.143651,0.001109,0.000279,-0.10637,-0.001624,0.0,0.0,0.0,0.0,0.0,0.0
241580,-0.0097,0.156843,-0.011377,0.0,0.0,0.0,0.0,0.087266,0.0,3.0,0.316601,0.293672,0.29183,0.387412,-0.000187,0.141515,0.001077,0.000285,-0.107481,-0.001623,0.0,0.0,0.0,0.0,0.0,0.0
