time_ms,roll,pitch,yaw,x,y,z,reference_roll,reference_pitch,reference_yaw,reference_throttle,throttle_1,throttle_2,throttle_3,throttle_4,roll_predicted,pitch_predicted,yaw_predicted,roll_rate_predicted,pitch_rate_predicted,yaw_rate_predicted,value1,value2,value3,value4,value5,value6
267240,-0.00294,0.021605,-0.000945,0.0,0.0,0.0,0.0,0.0,0.0,3.0,0.28723,0.342426,0.279737,0.378811,1.2e-05,-0.043953,0.0,0.000118,-0.0409,-0.0,0.0,0.0,0.0,0.0,0.0,0.0
267260,-0.002938,0.020873,-0.000824,0.0,0.0,0.0,0.0,0.0,0.0,3.0,0.282459,0.345964,0.273994,0.38265,1.4e-05,-0.044558,0.0,0.000117,-0.039183,0.0,0.0,0.0,0.0,0.0,0.0,0.0
267280,-0.002938,0.020385,-0.000825,0.0,0.0,0.0,0.0,0.0,0.0,3.0,0.288779,0.341944,0.277484,0.379646,1.7e-05,-0.045509,0.0,0.000114,-0.036312,1e-06,0.0,0.0,0.0,0.0,0.0,0.0
267300,-0.002938,0.019653,-0.000826,0.0,0.0,0.0,0.0,0.0,0.0,3.0,0.290639,0.341257,0.281083,0.376566,1.9e-05,-0.046218,0.0,0.000112,-0.034009,1e-06,0.0,0.0,0.0,0.0,0.0,0.0
267320,-0.002815,0.019165,-0.000706,0.0,0.0,0.0,0.0,0.0,0.0,3.0,0.285647,0.344395,0.276046,0.380578,2.1e-05,-0.046881,0.0,0.00011,-0.031702,1e-06,0.0,0.0,0.0,0.0,0.0,0.0
267340,-0.002814,0.018798,-0.000706,0.0,0.0,0.0,0.0,0.0,0.0,3.0,0.289544,0.342355,0.27645,0.379429,2.4e-05,-0.047498,0.0,0.000108,-0.029393,1e-06,0.0,0.0,0.0,0.0,0.0,0.0
267360,-0.002692,0.018432,-0.000708,0.0,0.0,0.0,0.0,0.0,0.0,3.0,0.289732,0.339696,0.279216,0.379801,2.6e-05,-0.048068,0.0,0.000106,-0.027084,2e-06,0.0,0.0,0.0,0.0,0.0,0.0
267380,-0.002691,0.018066,-0.000586,0.0,0.0,0.0,0.0,0.0,0.0,3.0,0.286339,0.341402,0.27486,0.383467,2.8e-05,-0.048593,0.0,0.000104,-0.024778,2e-06,0.0,0.0,0.0,0.0,0.0,0.0
267400,-0.002447,0.017456,-0.000589,0.0,0.0,0.0,0.0,0.0,0.0,3.0,0.287717,0.341672,0.278257,0.380109,3e-05,-0.049071,0.0,0.000101,-0.022475,2e-06,0.0,0.0,0.0,0.0,0.0,0.0
267420,-0.002323,0.016846,-0.000469,0.0,0.0,0.0,0.0,0.0,0.0,3.0,0.286391,0.342701,0.278421,0.380011,3.2e-05,-0.049503,0.0,9.9e-05,-0.020179,2e-06,0.0,0.0,0.0,0.0,0.0,0.0
267440,-0.0022,0.016358,-0.000348,0.0,0.0,0.0,0.0,0.0,0.0,3.0,0.285955,0.342054,0.277219,0.381651,3.4e-05,-0.049889,0.0,9.6e-05,-0.01789,2e-06,0.0,0.0,0.0,0.0,0.0,0.0
267460,-0.002076,0.015748,-0.000106,0.0,0.0,0.0,0.0,0.0,0.0,3.0,0.279054,0.347803,0.270527,0.385434,3.6e-05,-0.05023,0.0,9.4e-05,-0.015611,2e-06,0.0,0.0,0.0,0.0,0.0,0.0
267480,-0.002076,0.015503,-0.000106,0.0,0.0,0.0,0.0,0.0,0.0,3.0,0.285463,0.341984,0.276268,0.382657,3.8e-05,-0.050525,0.0,9.1e-05,-0.013343,2e-06,0.0,0.0,0.0,0.0,0.0,0.0
267500,-0.002075,0.014893,1.5e-05,0.0,0.0,0.0,0.0,0.0,0.0,3.0,0.289502,0.342635,0.277682,0.37841,3.9e-05,-0.050775,0.0,8.9e-05,-0.011088,2e-06,0.0,0.0,0.0,0.0,0.0,0.0
267520,-0.001829,0.014283,0.000257,0.0,0.0,0.0,0.0,0.0,0.0,3.0,0.280346,0.349565,0.272718,0.381669,4.1e-05,-0.05098,0.0,8.6e-05,-0.008848,2e-06,0.0,0.0,0.0,0.0,0.0,0.0
267540,-0.001706,0.014161,0.000378,0.0,0.0,0.0,0.0,0.0,0.0,3.0,0.281121,0.34726,0.272007,0.383647,4.3e-05,-0.05114,0.0,8.4e-05,-0.006625,2e-06,0.0,0.0,0.0,0.0,0.0,0.0
267560,-0.001584,0.013917,0.000377,0.0,0.0,0.0,0.0,0.0,0.0,3.0,0.287689,0.341935,0.275637,0.381596,4.4e-05,-0.051256,0.0,8.1e-05,-0.004421,2e-06,0.0,0.0,0.0,0.0,0.0,0.0
267580,-0.001339,0.013673,0.000498,0.0,0.0,0.0,0.0,0.0,0.0,3.0,0.284248,0.34352,0.278425,0.380745,4.6e-05,-0.051328,0.0,7.8e-05,-0.002236,2e-06,0.0,0.0,0.0,0.0,0.0,0.0
267600,-0.001338,0.013673,0.000742,0.0,0.0,0.0,0.0,0.0,0.0,3.0,0.279754,0.346116,0.271856,0.385629,4.8e-05,-0.051357,0.0,7.5e-05,-7.3e-05,2e-06,0.0,0.0,0.0,0.0,0.0,0.0
267620,-0.001216,0.013551,0.000741,0.0,0.0,0.0,0.0,0.0,0.0,3.0,0.285812,0.341056,0.276729,0.382925,4.9e-05,-0.051342,1e-06,7.2e-05,0.002068,2e-06,0.0,0.0,0.0,0.0,0.0,0.0
267640,-0.001093,0.013429,0.000862,0.0,0.0,0.0,0.0,0.0,0.0,3.0,0.279592,0.344879,0.274443,0.385189,5e-05,-0.051285,1e-06,7e-05,0.004183,2e-06,0.0,0.0,0.0,0.0,0.0,0.0
267660,-0.001215,0.013307,0.000863,0.0,0.0,0.0,0.0,0.0,0.0,3.0,0.286316,0.341231,0.276008,0.382897,5.2e-05,-0.051186,1e-06,6.7e-05,0.006272,2e-06,0.0,0.0,0.0,0.0,0.0,0.0
267680,-0.001214,0.013063,0.000985,0.0,0.0,0.0,0.0,0.0,0.0,3.0,0.284511,0.343596,0.272832,0.384081,5.3e-05,-0.051045,1e-06,6.4e-05,0.008334,2e-06,0.0,0.0,0.0,0.0,0.0,0.0
267700,-0.001092,0.012819,0.000984,0.0,0.0,0.0,0.0,0.0,0.0,3.0,0.284924,0.342473,0.277427,0.381849,5.4e-05,-0.050863,1e-06,6.1e-05,0.010366,2e-06,0.0,0.0,0.0,0.0,0.0,0.0
267720,-0.001092,0.012819,0.001106,0.0,0.0,0.0,0.0,0.0,0.0,3.0,0.285257,0.34211,0.275721,0.383036,5.6e-05,-0.05064,1e-06,5.8e-05,0.012368,2e-06,0.0,0.0,0.0,0.0,0.0,0.0
267740,-0.001092,0.012574,0.001106,0.0,0.0,0.0,0.0,0.0,0.0,3.0,0.287184,0.3401,0.274842,0.384022,5.7e-05,-0.050378,1e-06,5.5e-05,0.014339,2e-06,0.0,0.0,0.0,0.0,0.0,0.0
267760,-0.000969,0.01233,0.001227,0.0,0.0,0.0,0.0,0.0,0.0,3.0,0.280939,0.344194,0.273307,0.385619,5.8e-05,-0.050077,1e-06,5.2e-05,0.016276,2e-06,0.0,0.0,0.0,0.0,0.0,0.0
267780,-0.001091,0.012086,0.001228,0.0,0.0,0.0,0.0,0.0,0.0,3.0,0.285922,0.342946,0.275453,0.382038,5.9e-05,-0.049737,1e-06,4.9e-05,0.018179,1e-06,0.0,0.0,0.0,0.0,0.0,0.0
267800,-0.000969,0.012086,0.001227,0.0,0.0,0.0,0.0,0.0,0.0,3.0,0.283998,0.340231,0.277945,0.384062,6e-05,-0.049359,1e-06,4.6e-05,0.020046,1e-06,0.0,0.0,0.0,0.0,0.0,0.0
267820,-0.000847,0.01172,0.001348,0.0,0.0,0.0,0.0,0.0,0.0,3.0,0.279458,0.347012,0.271768,0.385096,6.1e-05,-0.048945,1e-06,4.3e-05,0.021877,1e-06,0.0,0.0,0.0,0.0,0.0,0.0
267840,-0.000847,0.011476,0.001348,0.0,0.0,0.0,0.0,0.0,0.0,3.0,0.285144,0.34396,0.275716,0.381511,6.2e-05,-0.048493,1e-06,4e-05,0.02367,1e-06,0.0,0.0,0.0,0.0,0.0,0.0
267860,-0.000725,0.011354,0.001347,0.0,0.0,0.0,0.0,0.0,0.0,3.0,0.285861,0.343093,0.275514,0.381912,6.2e-05,-0.048007,1e-06,3.7e-05,0.025423,1e-06,0.0,0.0,0.0,0.0,0.0,0.0
267880,-0.000603,0.011109,0.001346,0.0,0.0,0.0,0.0,0.0,0.0,3.0,0.284984,0.344425,0.27646,0.380733,6.3e-05,-0.047485,1e-06,3.4e-05,0.027137,0.0,0.0,0.0,0.0,0.0,0.0,0.0
267900,-0.000725,0.011232,0.001347,0.0,0.0,0.0,0.0,0.0,0.0,3.0,0.286252,0.342242,0.275033,0.382692,6.4e-05,-0.04693,1e-06,3.1e-05,0.02881,0.0,0.0,0.0,0.0,0.0,0.0,0.0
267920,-0.000603,0.011109,0.001346,0.0,0.0,0.0,0.0,0.0,0.0,3.0,0.285617,0.341763,0.275676,0.383123,6.4e-05,-0.046342,1e-06,2.8e-05,0.030441,-0.0,0.0,0.0,0.0,0.0,0.0,0.0
267940,-0.000481,0.010987,0.001346,0.0,0.0,0.0,0.0,0.0,0.0,3.0,0.283566,0.343248,0.277837,0.381822,6.5e-05,-0.045721,1e-06,2.5e-05,0.032029,-0.0,0.0,0.0,0.0,0.0,0.0,0.0
267960,-0.000481,0.010865,0.001346,0.0,0.0,0.0,0.0,0.0,0.0,3.0,0.28429,0.341821,0.277014,0.383105,6.5e-05,-0.045069,1e-06,2.2e-05,0.033574,-1e-06,0.0,0.0,0.0,0.0,0.0,0.0
267980,-0.000359,0.010499,0.001345,0.0,0.0,0.0,0.0,0.0,0.0,3.0,0.283397,0.341458,0.277916,0.38343,6.6e-05,-0.044386,1e-06,1.9e-05,0.035073,-1e-06,0.0,0.0,0.0,0.0,0.0,0.0
268000,-0.000115,0.010132,0.001466,0.0,0.0,0.0,0.0,0.0,0.0,3.0,0.283173,0.343566,0.278119,0.381623,6.6e-05,-0.043854,1e-06,1.7e-05,0.036169,-1e-06,0.0,0.0,0.0,0.0,0.0,0.0
268020,-0.000115,0.01001,0.001466,0.0,0.0,0.0,0.0,0.0,0.0,3.0,0.284662,0.341781,0.275517,0.383848,6.6e-05,-0.042932,1e-06,1.3e-05,0.037937,-1e-06,0.0,0.0,0.0,0.0,0.0,0.0
268040,-0.000115,0.009644,0.001466,0.0,0.0,0.0,0.0,0.0,0.0,3.0,0.285757,0.3426,0.274909,0.382796,6.7e-05,-0.042163,1e-06,1e-05,0.039299,-2e-06,0.0,0.0,0.0,0.0,0.0,0.0
268060,7e-06,0.009522,0.001465,0.0,0.0,0.0,0.0,0.0,0.0,3.0,0.283823,0.342106,0.275647,0.384044,6.7e-05,-0.041367,1e-06,7e-06,0.040613,-2e-06,0.0,0.0,0.0,0.0,0.0,0.0
268080,0.000129,0.009278,0.001465,0.0,0.0,0.0,0.0,0.0,0.0,3.0,0.282956,0.343331,0.277763,0.382204,6.7e-05,-0.040545,1e-06,4e-06,0.04188,-2e-06,0.0,0.0,0.0,0.0,0.0,0.0
268100,0.000129,0.008912,0.001465,0.0,0.0,0.0,0.0,0.0,0.0,3.0,0.284629,0.343678,0.276009,0.381915,6.7e-05,-0.039699,1e-06,2e-06,0.043099,-2e-06,0.0,0.0,0.0,0.0,0.0,0.0
268120,0.000128,0.008545,0.001465,0.0,0.0,0.0,0.0,0.0,0.0,3.0,0.286489,0.34354,0.273962,0.382088,6.7e-05,-0.039048,1e-06,-1e-06,0.04398,-2e-06,0.0,0.0,0.0,0.0,0.0,0.0
268140,0.00025,0.008301,0.001464,0.0,0.0,0.0,0.0,0.0,0.0,3.0,0.283936,0.344361,0.27665,0.381371,6.7e-05,-0.037934,1e-06,-4e-06,0.045388,-3e-06,0.0,0.0,0.0,0.0,0.0,0.0
268160,0.000494,0.007935,0.001463,0.0,0.0,0.0,0.0,0.0,0.0,3.0,0.281183,0.343763,0.279482,0.381884,6.7e-05,-0.037018,1e-06,-7e-06,0.046459,-3e-06,0.0,0.0,0.0,0.0,0.0,0.0
268180,0.000616,0.007568,0.001463,0.0,0.0,0.0,0.0,0.0,0.0,3.0,0.281827,0.34433,0.278759,0.381435,6.7e-05,-0.036081,1e-06,-9e-06,0.047479,-3e-06,0.0,0.0,0.0,0.0,0.0,0.0
268200,0.000738,0.007324,0.001462,0.0,0.0,0.0,0.0,0.0,0.0,3.0,0.283119,0.343919,0.277357,0.381846,6.6e-05,-0.035124,1e-06,-1.2e-05,0.048449,-3e-06,0.0,0.0,0.0,0.0,0.0,0.0
268220,0.000982,0.00708,0.001462,0.0,0.0,0.0,0.0,0.0,0.0,3.0,0.28286,0.343607,0.277577,0.382148,6.6e-05,-0.034148,1e-06,-1.5e-05,0.049368,-3e-06,0.0,0.0,0.0,0.0,0.0,0.0
268240,0.001226,0.006835,0.001461,0.0,0.0,0.0,0.0,0.0,0.0,3.0,0.283165,0.344497,0.2772,0.381413,6.6e-05,-0.033154,1e-06,-1.7e-05,0.050236,-4e-06,0.0,0.0,0.0,0.0,0.0,0.0
268260,0.001348,0.006469,0.001461,0.0,0.0,0.0,0.0,0.0,0.0,3.0,0.284209,0.344653,0.276043,0.381324,6.5e-05,-0.032143,1e-06,-2e-05,0.051053,-4e-06,0.0,0.0,0.0,0.0,0.0,0.0
268280,0.001714,0.006103,0.001582,0.0,0.0,0.0,0.0,0.0,0.0,3.0,0.278325,0.345897,0.27524,0.38462,6.5e-05,-0.031116,1e-06,-2.2e-05,0.051819,-4e-06,0.0,0.0,0.0,0.0,0.0,0.0
268300,0.001836,0.005614,0.001582,0.0,0.0,0.0,0.0,0.0,0.0,3.0,0.281555,0.344204,0.278025,0.382203,6.5e-05,-0.030075,1e-06,-2.5e-05,0.052534,-4e-06,0.0,0.0,0.0,0.0,0.0,0.0
268320,0.001957,0.00537,0.001582,0.0,0.0,0.0,0.0,0.0,0.0,3.0,0.279331,0.345409,0.275386,0.384301,6.4e-05,-0.029019,1e-06,-2.7e-05,0.053197,-4e-06,0.0,0.0,0.0,0.0,0.0,0.0
268340,0.00208,0.00537,0.001582,0.0,0.0,0.0,0.0,0.0,0.0,3.0,0.286818,0.340978,0.282854,0.37828,6.4e-05,-0.028219,1e-06,-2.9e-05,0.053661,-4e-06,0.0,0.0,0.0,0.0,0.0,0.0
268360,0.002079,0.005126,0.001582,0.0,0.0,0.0,0.0,0.0,0.0,3.0,0.282798,0.342793,0.276637,0.3835,6.3e-05,-0.02687,1e-06,-3.2e-05,0.05437,-5e-06,0.0,0.0,0.0,0.0,0.0,0.0
268380,0.002079,0.005126,0.001582,0.0,0.0,0.0,0.0,0.0,0.0,3.0,0.283816,0.342771,0.275839,0.383354,6.2e-05,-0.025779,1e-06,-3.4e-05,0.054879,-5e-06,0.0,0.0,0.0,0.0,0.0,0.0
268400,0.002079,0.004759,0.001582,0.0,0.0,0.0,0.0,0.0,0.0,3.0,0.283395,0.345766,0.276225,0.380775,6.2e-05,-0.024677,1e-06,-3.6e-05,0.055338,-5e-06,0.0,0.0,0.0,0.0,0.0,0.0
268420,0.001957,0.004515,0.001461,0.0,0.0,0.0,0.0,0.0,0.0,3.0,0.290861,0.341366,0.279003,0.377702,6.1e-05,-0.023568,1e-06,-3.8e-05,0.055745,-5e-06,0.0,0.0,0.0,0.0,0.0,0.0
268440,0.002079,0.004149,0.001583,0.0,0.0,0.0,0.0,0.0,0.0,3.0,0.282907,0.34667,0.275964,0.380471,6e-05,-0.02245,1e-06,-4.1e-05,0.056102,-5e-06,0.0,0.0,0.0,0.0,0.0,0.0
268460,0.0022,0.003661,0.001583,0.0,0.0,0.0,0.0,0.0,0.0,3.0,0.282729,0.345102,0.276696,0.381499,5.9e-05,-0.021607,1e-06,-4.2e-05,0.056336,-5e-06,0.0,0.0,0.0,0.0,0.0,0.0
268480,0.002322,0.003416,0.001583,0.0,0.0,0.0,0.0,0.0,0.0,3.0,0.287274,0.342169,0.281065,0.378123,5.8e-05,-0.020195,1e-06,-4.5e-05,0.056664,-5e-06,0.0,0.0,0.0,0.0,0.0,0.0
268500,0.002444,0.00305,0.001706,0.0,0.0,0.0,0.0,0.0,0.0,3.0,0.281406,0.347298,0.276981,0.380256,5.7e-05,-0.01906,1e-06,-4.6e-05,0.05687,-5e-06,0.0,0.0,0.0,0.0,0.0,0.0
268520,0.002444,0.00305,0.001706,0.0,0.0,0.0,0.0,0.0,0.0,3.0,0.282984,0.344938,0.275996,0.381923,5.7e-05,-0.017922,1e-06,-4.8e-05,0.057026,-5e-06,0.0,0.0,0.0,0.0,0.0,0.0
268540,0.002688,0.002805,0.001706,0.0,0.0,0.0,0.0,0.0,0.0,3.0,0.280044,0.34571,0.278999,0.381244,5.6e-05,-0.01678,1e-06,-5e-05,0.057134,-5e-06,0.0,0.0,0.0,0.0,0.0,0.0
268560,0.002566,0.002684,0.001584,0.0,0.0,0.0,0.0,0.0,0.0,3.0,0.28443,0.343863,0.276016,0.381883,5.5e-05,-0.015637,1e-06,-5.2e-05,0.057193,-5e-06,0.0,0.0,0.0,0.0,0.0,0.0
268580,0.002565,0.002317,0.001584,0.0,0.0,0.0,0.0,0.0,0.0,3.0,0.283354,0.345709,0.275841,0.3811,5.3e-05,-0.014493,1e-06,-5.4e-05,0.057203,-5e-06,0.0,0.0,0.0,0.0,0.0,0.0
268600,0.002565,0.001951,0.001585,0.0,0.0,0.0,0.0,0.0,0.0,3.0,0.284132,0.345598,0.274893,0.381284,5.2e-05,-0.013349,1e-06,-5.5e-05,0.057166,-5e-06,0.0,0.0,0.0,0.0,0.0,0.0
268620,0.002565,0.001707,0.001585,0.0,0.0,0.0,0.0,0.0,0.0,3.0,0.28326,0.345327,0.275752,0.381555,5.1e-05,-0.012207,1e-06,-5.7e-05,0.057082,-5e-06,0.0,0.0,0.0,0.0,0.0,0.0
268640,0.002687,0.001219,0.001463,0.0,0.0,0.0,0.0,0.0,0.0,3.0,0.288032,0.342339,0.281386,0.377235,5e-05,-0.011066,1e-06,-5.8e-05,0.056951,-5e-06,0.0,0.0,0.0,0.0,0.0,0.0
268660,0.002686,0.000853,0.001464,0.0,0.0,0.0,0.0,0.0,0.0,3.0,0.282848,0.344784,0.277013,0.381493,4.9e-05,-0.009928,1e-06,-6e-05,0.056774,-5e-06,0.0,0.0,0.0,0.0,0.0,0.0
268680,0.002808,0.000364,0.001465,0.0,0.0,0.0,0.0,0.0,0.0,3.0,0.279959,0.347286,0.279273,0.379727,4.8e-05,-0.008794,1e-06,-6.1e-05,0.056552,-5e-06,0.0,0.0,0.0,0.0,0.0,0.0
268700,0.002808,0.00012,0.001465,0.0,0.0,0.0,0.0,0.0,0.0,3.0,0.281549,0.345156,0.277595,0.381653,4.7e-05,-0.007665,1e-06,-6.2e-05,0.056284,-5e-06,0.0,0.0,0.0,0.0,0.0,0.0
268720,0.002808,-0.000368,0.001466,0.0,0.0,0.0,0.0,0.0,0.0,3.0,0.283832,0.347738,0.278056,0.377531,4.6e-05,-0.006822,1e-06,-6.3e-05,0.056055,-5e-06,0.0,0.0,0.0,0.0,0.0,0.0
268740,0.002929,-0.000857,0.001344,0.0,0.0,0.0,0.0,0.0,0.0,3.0,0.281621,0.347172,0.278406,0.379296,4.4e-05,-0.005425,1e-06,-6.5e-05,0.055619,-5e-06,0.0,0.0,0.0,0.0,0.0,0.0
268760,0.002929,-0.001223,0.001345,0.0,0.0,0.0,0.0,0.0,0.0,3.0,0.282955,0.347004,0.276312,0.379918,4.3e-05,-0.004315,1e-06,-6.6e-05,0.055222,-5e-06,0.0,0.0,0.0,0.0,0.0,0.0
268780,0.003051,-0.001711,0.001224,0.0,0.0,0.0,0.0,0.0,0.0,3.0,0.28394,0.347076,0.276788,0.378882,4.1e-05,-0.003214,1e-06,-6.7e-05,0.054784,-5e-06,0.0,0.0,0.0,0.0,0.0,0.0
268800,0.003173,-0.002443,0.001225,0.0,0.0,0.0,0.0,0.0,0.0,3.0,0.283044,0.350303,0.276408,0.376832,4e-05,-0.002122,1e-06,-6.8e-05,0.054304,-4e-06,0.0,0.0,0.0,0.0,0.0,0.0
268820,0.00305,-0.003054,0.001226,0.0,0.0,0.0,0.0,0.0,0.0,3.0,0.283225,0.350856,0.276099,0.376407,3.9e-05,-0.00104,0.0,-6.9e-05,0.053785,-4e-06,0.0,0.0,0.0,0.0,0.0,0.0
268840,0.003172,-0.003664,0.001105,0.0,0.0,0.0,0.0,0.0,0.0,3.0,0.285369,0.346405,0.279347,0.376824,3.7e-05,3.2e-05,0.0,-6.9e-05,0.053226,-4e-06,0.0,0.0,0.0,0.0,0.0,0.0
268860,0.003416,-0.004396,0.000984,0.0,0.0,0.0,0.0,0.0,0.0,3.0,0.282898,0.348906,0.279817,0.375942,3.6e-05,0.001092,0.0,-7e-05,0.052629,-4e-06,0.0,0.0,0.0,0.0,0.0,0.0
268880,0.00366,-0.004885,0.000986,0.0,0.0,0.0,0.0,0.0,0.0,3.0,0.280436,0.349013,0.279546,0.377683,3.4e-05,0.00214,0.0,-7.1e-05,0.051994,-4e-06,0.0,0.0,0.0,0.0,0.0,0.0
268900,0.003782,-0.005251,0.000987,0.0,0.0,0.0,0.0,0.0,0.0,3.0,0.280437,0.34764,0.27936,0.379037,3.3e-05,0.003175,0.0,-7.2e-05,0.051323,-4e-06,0.0,0.0,0.0,0.0,0.0,0.0
268920,0.003904,-0.005617,0.000988,0.0,0.0,0.0,0.0,0.0,0.0,3.0,0.280119,0.348867,0.279612,0.377983,3.2e-05,0.004196,0.0,-7.2e-05,0.050616,-4e-06,0.0,0.0,0.0,0.0,0.0,0.0
268940,0.004026,-0.006106,0.000867,0.0,0.0,0.0,0.0,0.0,0.0,3.0,0.281202,0.3484,0.281318,0.37654,3e-05,0.005203,0.0,-7.3e-05,0.049875,-3e-06,0.0,0.0,0.0,0.0,0.0,0.0
268960,0.004026,-0.006594,0.000868,0.0,0.0,0.0,0.0,0.0,0.0,3.0,0.281258,0.347872,0.279031,0.378501,2.9e-05,0.005948,0.0,-7.3e-05,0.049297,-3e-06,0.0,0.0,0.0,0.0,0.0,0.0
268980,0.004026,-0.00696,0.000869,0.0,0.0,0.0,0.0,0.0,0.0,3.0,0.281983,0.349708,0.277933,0.377085,2.7e-05,0.00717,0.0,-7.3e-05,0.048292,-3e-06,0.0,0.0,0.0,0.0,0.0,0.0
269000,0.004025,-0.007326,0.000869,0.0,0.0,0.0,0.0,0.0,0.0,3.0,0.281963,0.349506,0.277918,0.377291,2.6e-05,0.00813,0.0,-7.4e-05,0.047453,-3e-06,0.0,0.0,0.0,0.0,0.0,0.0
269020,0.003904,-0.007448,0.000747,0.0,0.0,0.0,0.0,0.0,0.0,3.0,0.288311,0.346073,0.279438,0.375023,2.4e-05,0.009073,0.0,-7.4e-05,0.046583,-3e-06,0.0,0.0,0.0,0.0,0.0,0.0
269040,0.003781,-0.007814,0.000747,0.0,0.0,0.0,0.0,0.0,0.0,3.0,0.284974,0.350044,0.275567,0.376301,2.3e-05,0.009998,0.0,-7.4e-05,0.045684,-3e-06,0.0,0.0,0.0,0.0,0.0,0.0
269060,0.003903,-0.007937,0.00087,0.0,0.0,0.0,0.0,0.0,0.0,3.0,0.277598,0.350957,0.273149,0.381947,2.1e-05,0.010904,-0.0,-7.4e-05,0.044756,-3e-06,0.0,0.0,0.0,0.0,0.0,0.0
269080,0.003781,-0.008181,0.00087,0.0,0.0,0.0,0.0,0.0,0.0,3.0,0.283417,0.348156,0.275251,0.379267,2e-05,0.011572,-0.0,-7.4e-05,0.044042,-2e-06,0.0,0.0,0.0,0.0,0.0,0.0
269100,0.004025,-0.008303,0.000871,0.0,0.0,0.0,0.0,0.0,0.0,3.0,0.279337,0.348781,0.280348,0.37809,1.8e-05,0.012661,-0.0,-7.4e-05,0.042819,-2e-06,0.0,0.0,0.0,0.0,0.0,0.0
269120,0.004025,-0.008303,0.000871,0.0,0.0,0.0,0.0,0.0,0.0,3.0,0.280251,0.346275,0.279497,0.380283,1.7e-05,0.01351,-0.0,-7.4e-05,0.041812,-2e-06,0.0,0.0,0.0,0.0,0.0,0.0
269140,0.003781,-0.008181,0.00087,0.0,0.0,0.0,0.0,0.0,0.0,3.0,0.281967,0.345093,0.277791,0.381304,1.5e-05,0.014339,-0.0,-7.4e-05,0.040782,-2e-06,0.0,0.0,0.0,0.0,0.0,0.0
269160,0.003903,-0.008303,0.000871,0.0,0.0,0.0,0.0,0.0,0.0,3.0,0.280385,0.346643,0.279307,0.379995,1.4e-05,0.015146,-0.0,-7.4e-05,0.039728,-2e-06,0.0,0.0,0.0,0.0,0.0,0.0
269180,0.003781,-0.008425,0.000871,0.0,0.0,0.0,0.0,0.0,0.0,3.0,0.281667,0.346637,0.278011,0.379999,1.2e-05,0.015933,-0.0,-7.4e-05,0.038652,-2e-06,0.0,0.0,0.0,0.0,0.0,0.0
269200,0.003659,-0.008669,0.000871,0.0,0.0,0.0,0.0,0.0,0.0,3.0,0.28664,0.345044,0.280641,0.376301,1.1e-05,0.016698,-0.0,-7.3e-05,0.037556,-1e-06,0.0,0.0,0.0,0.0,0.0,0.0
269220,0.003658,-0.008791,0.000993,0.0,0.0,0.0,0.0,0.0,0.0,3.0,0.281487,0.347311,0.277046,0.380149,1e-05,0.01744,-0.0,-7.3e-05,0.03644,-1e-06,0.0,0.0,0.0,0.0,0.0,0.0
269240,0.003658,-0.008791,0.000993,0.0,0.0,0.0,0.0,0.0,0.0,3.0,0.282905,0.346157,0.27636,0.38067,8e-06,0.018161,-0.0,-7.2e-05,0.035305,-1e-06,0.0,0.0,0.0,0.0,0.0,0.0
269260,0.00378,-0.008913,0.000994,0.0,0.0,0.0,0.0,0.0,0.0,3.0,0.282,0.347192,0.277269,0.379768,7e-06,0.018858,-0.0,-7.2e-05,0.034154,-1e-06,0.0,0.0,0.0,0.0,0.0,0.0
269280,0.00378,-0.008791,0.000993,0.0,0.0,0.0,0.0,0.0,0.0,3.0,0.281928,0.344387,0.277352,0.382232,5e-06,0.019533,-0.0,-7.1e-05,0.032986,-1e-06,0.0,0.0,0.0,0.0,0.0,0.0
269300,0.00378,-0.009158,0.000994,0.0,0.0,0.0,0.0,0.0,0.0,3.0,0.282088,0.348259,0.277104,0.378864,4e-06,0.020183,-0.0,-7.1e-05,0.031803,-1e-06,0.0,0.0,0.0,0.0,0.0,0.0
269320,0.003902,-0.009158,0.000995,0.0,0.0,0.0,0.0,0.0,0.0,3.0,0.279057,0.347227,0.280071,0.379848,2e-06,0.020811,-0.0,-7e-05,0.030606,-0.0,0.0,0.0,0.0,0.0,0.0,0.0
269340,0.00378,-0.009158,0.000994,0.0,0.0,0.0,0.0,0.0,0.0,3.0,0.28436,0.347365,0.27734,0.377978,1e-06,0.021265,-0.0,-7e-05,0.0297,-0.0,0.0,0.0,0.0,0.0,0.0,0.0
269360,0.003658,-0.009402,0.000994,0.0,0.0,0.0,0.0,0.0,0.0,3.0,0.281074,0.347934,0.2781,0.379181,-0.0,0.021992,-0.0,-6.9e-05,0.028175,-0.0,0.0,0.0,0.0,0.0,0.0,0.0
269380,0.00378,-0.009402,0.000995,0.0,0.0,0.0,0.0,0.0,0.0,3.0,0.280076,0.347245,0.278985,0.379876,-2e-06,0.022547,-0.0,-6.8e-05,0.026944,-0.0,0.0,0.0,0.0,0.0,0.0,0.0
269400,0.003658,-0.009646,0.000994,0.0,0.0,0.0,0.0,0.0,0.0,3.0,0.282521,0.348476,0.276506,0.378769,-3e-06,0.023076,-0.0,-6.7e-05,0.025703,0.0,0.0,0.0,0.0,0.0,0.0,0.0
269420,0.003657,-0.00989,0.000995,0.0,0.0,0.0,0.0,0.0,0.0,3.0,0.279694,0.350199,0.279254,0.377299,-4e-06,0.023457,-0.0,-6.6e-05,0.024767,0.0,0.0,0.0,0.0,0.0,0.0,0.0
269440,0.003535,-0.010012,0.000994,0.0,0.0,0.0,0.0,0.0,0.0,3.0,0.283766,0.348796,0.275182,0.378503,-6e-06,0.024061,-0.0,-6.5e-05,0.023198,0.0,0.0,0.0,0.0,0.0,0.0,0.0
269460,0.003535,-0.010134,0.000995,0.0,0.0,0.0,0.0,0.0,0.0,3.0,0.28291,0.349193,0.276009,0.378186,-7e-06,0.024515,-0.0,-6.4e-05,0.021936,0.0,0.0,0.0,0.0,0.0,0.0,0.0
269480,0.003535,-0.010378,0.000995,0.0,0.0,0.0,0.0,0.0,0.0,3.0,0.283045,0.349671,0.275836,0.377776,-8e-06,0.024944,-0.0,-6.3e-05,0.020669,0.0,0.0,0.0,0.0,0.0,0.0,0.0
269500,0.003657,-0.010256,0.000996,0.0,0.0,0.0,0.0,0.0,0.0,3.0,0.280029,0.34757,0.278826,0.379722,-1e-05,0.025348,-0.0,-6.2e-05,0.019398,0.0,0.0,0.0,0.0,0.0,0.0,0.0
269520,0.003535,-0.0105,0.000995,0.0,0.0,0.0,0.0,0.0,0.0,3.0,0.282119,0.349886,0.276697,0.377644,-1.1e-05,0.025727,-0.0,-6.1e-05,0.018125,1e-06,0.0,0.0,0.0,0.0,0.0,0.0
269540,0.003413,-0.010378,0.000994,0.0,0.0,0.0,0.0,0.0,0.0,3.0,0.282047,0.347702,0.276766,0.379609,-1.2e-05,0.02608,-0.0,-6e-05,0.016851,1e-06,0.0,0.0,0.0,0.0,0.0,0.0
269560,0.003291,-0.010378,0.000994,0.0,0.0,0.0,0.0,0.0,0.0,3.0,0.281821,0.348799,0.276946,0.378662,-1.3e-05,0.026407,-0.0,-5.9e-05,0.015576,1e-06,0.0,0.0,0.0,0.0,0.0,0.0
269580,0.003169,-0.0105,0.000993,0.0,0.0,0.0,0.0,0.0,0.0,3.0,0.2825,0.348614,0.276237,0.378834,-1.4e-05,0.026709,-0.0,-5.8e-05,0.014301,1e-06,0.0,0.0,0.0,0.0,0.0,0.0
269600,0.003047,-0.0105,0.000993,0.0,0.0,0.0,0.0,0.0,0.0,3.0,0.28278,0.34882,0.275921,0.378667,-1.6e-05,0.026985,-0.0,-5.6e-05,0.013029,1e-06,0.0,0.0,0.0,0.0,0.0,0.0
269620,0.003169,-0.010866,0.000994,0.0,0.0,0.0,0.0,0.0,0.0,3.0,0.280881,0.35201,0.277741,0.375855,-1.7e-05,0.027237,-0.0,-5.5e-05,0.011759,1e-06,0.0,0.0,0.0,0.0,0.0,0.0
269640,0.003169,-0.010988,0.000994,0.0,0.0,0.0,0.0,0.0,0.0,3.0,0.280965,0.351297,0.277634,0.376522,-1.8e-05,0.027462,-0.0,-5.4e-05,0.010493,1e-06,0.0,0.0,0.0,0.0,0.0,0.0
269660,0.003046,-0.010988,0.000994,0.0,0.0,0.0,0.0,0.0,0.0,3.0,0.283704,0.351107,0.274863,0.376658,-1.9e-05,0.027663,-0.0,-5.2e-05,0.009231,1e-06,0.0,0.0,0.0,0.0,0.0,0.0
269680,0.002924,-0.01111,0.000993,0.0,0.0,0.0,0.0,0.0,0.0,3.0,0.282423,0.351123,0.276131,0.376686,-2e-05,0.027796,-0.0,-5.1e-05,0.008289,1e-06,0.0,0.0,0.0,0.0,0.0,0.0
269700,0.002924,-0.011232,0.000993,0.0,0.0,0.0,0.0,0.0,0.0,3.0,0.28318,0.350406,0.27534,0.377342,-2.1e-05,0.027988,-0.0,-5e-05,0.006727,1e-06,0.0,0.0,0.0,0.0,0.0,0.0
269720,0.002924,-0.011355,0.000993,0.0,0.0,0.0,0.0,0.0,0.0,3.0,0.280616,0.351194,0.277852,0.376707,-2.2e-05,0.028113,-0.0,-4.8e-05,0.005486,1e-06,0.0,0.0,0.0,0.0,0.0,0.0
269740,0.002802,-0.011477,0.000993,0.0,0.0,0.0,0.0,0.0,0.0,3.0,0.282066,0.351479,0.276382,0.376438,-2.3e-05,0.028214,-0.0,-4.7e-05,0.004253,1e-06,0.0,0.0,0.0,0.0,0.0,0.0
269760,0.002802,-0.011477,0.000993,0.0,0.0,0.0,0.0,0.0,0.0,3.0,0.280307,0.349747,0.278106,0.378058,-2.4e-05,0.028289,-0.0,-4.5e-05,0.003031,1e-06,0.0,0.0,0.0,0.0,0.0,0.0
269780,0.00268,-0.011599,0.000992,0.0,0.0,0.0,0.0,0.0,0.0,3.0,0.281123,0.351052,0.277258,0.376887,-2.5e-05,0.028341,-0.0,-4.4e-05,0.001818,1e-06,0.0,0.0,0.0,0.0,0.0,0.0
269800,0.002679,-0.011721,0.001115,0.0,0.0,0.0,0.0,0.0,0.0,3.0,0.280641,0.351924,0.274845,0.37799,-2.6e-05,0.028368,-0.0,-4.2e-05,0.000618,1e-06,0.0,0.0,0.0,0.0,0.0,0.0
269820,0.002557,-0.011721,0.001114,0.0,0.0,0.0,0.0,0.0,0.0,3.0,0.282366,0.350917,0.275518,0.377312,-2.6e-05,0.028372,-0.0,-4.1e-05,-0.000571,1e-06,0.0,0.0,0.0,0.0,0.0,0.0
269840,0.002557,-0.011843,0.001114,0.0,0.0,0.0,0.0,0.0,0.0,3.0,0.28084,0.352294,0.277135,0.376022,-2.7e-05,0.028351,-0.0,-3.9e-05,-0.001746,1e-06,0.0,0.0,0.0,0.0,0.0,0.0
269860,0.002312,-0.011843,0.001235,0.0,0.0,0.0,0.0,0.0,0.0,3.0,0.281682,0.352786,0.273402,0.377436,-2.8e-05,0.028308,-0.0,-3.8e-05,-0.002907,1e-06,0.0,0.0,0.0,0.0,0.0,0.0
269880,0.002068,-0.011721,0.001233,0.0,0.0,0.0,0.0,0.0,0.0,3.0,0.283748,0.351558,0.273723,0.376956,-2.9e-05,0.028241,0.0,-3.6e-05,-0.004054,1e-06,0.0,0.0,0.0,0.0,0.0,0.0
269900,0.001823,-0.011721,0.001354,0.0,0.0,0.0,0.0,0.0,0.0,3.0,0.283173,0.351288,0.272835,0.378161,-2.9e-05,0.028151,0.0,-3.4e-05,-0.005185,1e-06,0.0,0.0,0.0,0.0,0.0,0.0
269920,0.001701,-0.011598,0.001475,0.0,0.0,0.0,0.0,0.0,0.0,3.0,0.282343,0.350408,0.273285,0.379228,-3e-05,0.028039,0.0,-3.3e-05,-0.006299,1e-06,0.0,0.0,0.0,0.0,0.0,0.0
269940,0.0017,-0.011599,0.001597,0.0,0.0,0.0,0.0,0.0,0.0,3.0,0.279381,0.351874,0.275902,0.378187,-3.1e-05,0.027905,0.0,-3.1e-05,-0.007396,1e-06,0.0,0.0,0.0,0.0,0.0,0.0
269960,0.001577,-0.011721,0.001719,0.0,0.0,0.0,0.0,0.0,0.0,3.0,0.281852,0.353602,0.271701,0.377663,-3.1e-05,0.02779,0.0,-3e-05,-0.008207,1e-06,0.0,0.0,0.0,0.0,0.0,0.0
269980,0.001454,-0.011599,0.001962,0.0,0.0,0.0,0.0,0.0,0.0,3.0,0.274765,0.354338,0.268992,0.383319,-3.2e-05,0.027572,0.0,-2.8e-05,-0.009536,1e-06,0.0,0.0,0.0,0.0,0.0,0.0
270000,0.001331,-0.011843,0.002084,0.0,0.0,0.0,0.0,0.0,0.0,3.0,0.277635,0.353499,0.271759,0.380508,-3.2e-05,0.027373,0.0,-2.6e-05,-0.010578,1e-06,0.0,0.0,0.0,0.0,0.0,0.0
270020,0.001207,-0.012087,0.002205,0.0,0.0,0.0,0.0,0.0,0.0,3.0,0.279213,0.353725,0.272828,0.378588,-3.3e-05,0.027154,0.0,-2.5e-05,-0.011599,0.0,0.0,0.0,0.0,0.0,0.0,0.0
270040,0.001085,-0.012087,0.002326,0.0,0.0,0.0,0.0,0.0,0.0,3.0,0.280337,0.352574,0.271534,0.379717,-3.3e-05,0.026914,0.0,-2.3e-05,-0.0126,0.0,0.0,0.0,0.0,0.0,0.0,0.0
270060,0.000962,-0.012209,0.002448,0.0,0.0,0.0,0.0,0.0,0.0,3.0,0.280051,0.353859,0.271465,0.378779,-3.4e-05,0.026655,0.0,-2.1e-05,-0.01358,0.0,0.0,0.0,0.0,0.0,0.0,0.0
270080,0.000961,-0.012331,0.00257,0.0,0.0,0.0,0.0,0.0,0.0,3.0,0.279856,0.354959,0.27129,0.378009,-3.4e-05,0.026376,0.0,-2e-05,-0.014538,0.0,0.0,0.0,0.0,0.0,0.0,0.0
270100,0.000838,-0.012331,0.002691,0.0,0.0,0.0,0.0,0.0,0.0,3.0,0.279948,0.354867,0.270825,0.378327,-3.5e-05,0.026078,0.0,-1.8e-05,-0.015473,0.0,0.0,0.0,0.0,0.0,0.0,0.0
270120,0.000959,-0.012453,0.002814,0.0,0.0,0.0,0.0,0.0,0.0,3.0,0.277643,0.354119,0.272762,0.379303,-3.5e-05,0.025762,0.0,-1.6e-05,-0.016386,0.0,0.0,0.0,0.0,0.0,0.0,0.0
270140,0.00108,-0.012453,0.002937,0.0,0.0,0.0,0.0,0.0,0.0,3.0,0.27652,0.353308,0.274795,0.379472,-3.5e-05,0.025427,0.0,-1.5e-05,-0.017275,0.0,0.0,0.0,0.0,0.0,0.0,0.0
270160,0.001079,-0.012575,0.003059,0.0,0.0,0.0,0.0,0.0,0.0,3.0,0.276501,0.354287,0.27451,0.378774,-3.6e-05,0.025075,0.0,-1.3e-05,-0.018141,0.0,0.0,0.0,0.0,0.0,0.0,0.0
270180,0.001201,-0.012332,0.003182,0.0,0.0,0.0,0.0,0.0,0.0,3.0,0.270664,0.354781,0.270607,0.384493,-3.6e-05,0.024706,0.0,-1.1e-05,-0.018982,-0.0,0.0,0.0,0.0,0.0,0.0,0.0
270200,0.001322,-0.012332,0.003305,0.0,0.0,0.0,0.0,0.0,0.0,3.0,0.269808,0.356948,0.27045,0.383156,-3.6e-05,0.024321,0.0,-1e-05,-0.019798,-0.0,0.0,0.0,0.0,0.0,0.0,0.0
270220,0.001444,-0.01221,0.003428,0.0,0.0,0.0,0.0,0.0,0.0,3.0,0.269022,0.356586,0.270774,0.38377,-3.6e-05,0.023919,0.0,-8e-06,-0.020589,-0.0,0.0,0.0,0.0,0.0,0.0,0.0
270240,0.001322,-0.012088,0.003427,0.0,0.0,0.0,0.0,0.0,0.0,3.0,0.278547,0.353496,0.271917,0.379815,-3.6e-05,0.023501,0.0,-7e-06,-0.021354,-0.0,0.0,0.0,0.0,0.0,0.0,0.0
270260,0.001443,-0.012088,0.00355,0.0,0.0,0.0,0.0,0.0,0.0,3.0,0.273919,0.356845,0.271464,0.38003,-3.7e-05,0.023068,0.0,-5e-06,-0.022094,-0.0,0.0,0.0,0.0,0.0,0.0,0.0
270280,0.001322,-0.011966,0.003549,0.0,0.0,0.0,0.0,0.0,0.0,3.0,0.277426,0.354257,0.272878,0.379244,-3.7e-05,0.022621,0.0,-3e-06,-0.022807,-0.0,0.0,0.0,0.0,0.0,0.0,0.0
270300,0.001322,-0.011844,0.003549,0.0,0.0,0.0,0.0,0.0,0.0,3.0,0.278506,0.352931,0.272008,0.380298,-3.7e-05,0.022276,0.0,-2e-06,-0.023324,-0.0,0.0,0.0,0.0,0.0,0.0,0.0
270320,0.001565,-0.011966,0.003672,0.0,0.0,0.0,0.0,0.0,0.0,3.0,0.274543,0.356864,0.274184,0.377877,-3.7e-05,0.021685,0.0,-0.0,-0.024153,-1e-06,0.0,0.0,0.0,0.0,0.0,0.0
270340,0.001686,-0.011967,0.003795,0.0,0.0,0.0,0.0,0.0,0.0,3.0,0.268655,0.35877,0.270151,0.382385,-3.7e-05,0.021197,0.0,1e-06,-0.024786,-1e-06,0.0,0.0,0.0,0.0,0.0,0.0
270360,0.001686,-0.011967,0.003795,0.0,0.0,0.0,0.0,0.0,0.0,3.0,0.276432,0.356391,0.272454,0.378199,-3.7e-05,0.020697,0.0,3e-06,-0.025391,-1e-06,0.0,0.0,0.0,0.0,0.0,0.0
270380,0.001808,-0.011967,0.003796,0.0,0.0,0.0,0.0,0.0,0.0,3.0,0.276826,0.35445,0.272561,0.37966,-3.7e-05,0.020314,0.0,4e-06,-0.025827,-1e-06,0.0,0.0,0.0,0.0,0.0,0.0
270400,0.001564,-0.011967,0.003916,0.0,0.0,0.0,0.0,0.0,0.0,3.0,0.274665,0.356794,0.269023,0.381128,-3.6e-05,0.019661,0.0,6e-06,-0.026518,-1e-06,0.0,0.0,0.0,0.0,0.0,0.0
270420,0.001319,-0.012088,0.003915,0.0,0.0,0.0,0.0,0.0,0.0,3.0,0.278925,0.356148,0.269618,0.378585,-3.6e-05,0.019127,0.0,7e-06,-0.02704,-1e-06,0.0,0.0,0.0,0.0,0.0,0.0
270440,0.001319,-0.012088,0.003915,0.0,0.0,0.0,0.0,0.0,0.0,3.0,0.277491,0.354917,0.271244,0.379633,-3.6e-05,0.018582,0.0,9e-06,-0.027533,-1e-06,0.0,0.0,0.0,0.0,0.0,0.0
270460,0.001196,-0.012088,0.004036,0.0,0.0,0.0,0.0,0.0,0.0,3.0,0.271481,0.359848,0.266081,0.382136,-3.6e-05,0.018028,0.0,1e-05,-0.027999,-1e-06,0.0,0.0,0.0,0.0,0.0,0.0
270480,0.001196,-0.012088,0.004036,0.0,0.0,0.0,0.0,0.0,0.0,3.0,0.27662,0.35686,0.269576,0.379462,-3.6e-05,0.017465,0.0,1.1e-05,-0.028436,-1e-06,0.0,0.0,0.0,0.0,0.0,0.0
270500,0.001318,-0.012088,0.004037,0.0,0.0,0.0,0.0,0.0,0.0,3.0,0.276582,0.356607,0.270018,0.379443,-3.6e-05,0.016893,0.0,1.3e-05,-0.028845,-1e-06,0.0,0.0,0.0,0.0,0.0,0.0
270520,0.001442,-0.011966,0.003916,0.0,0.0,0.0,0.0,0.0,0.0,3.0,0.279148,0.352604,0.27424,0.37875,-3.5e-05,0.016313,0.0,1.4e-05,-0.029225,-1e-06,0.0,0.0,0.0,0.0,0.0,0.0
270540,0.001563,-0.012089,0.003917,0.0,0.0,0.0,0.0,0.0,0.0,3.0,0.277751,0.354505,0.270648,0.380216,-3.5e-05,0.015726,0.0,1.5e-05,-0.029577,-1e-06,0.0,0.0,0.0,0.0,0.0,0.0
270560,0.001685,-0.012089,0.003917,0.0,0.0,0.0,0.0,0.0,0.0,3.0,0.274261,0.355899,0.273644,0.379297,-3.5e-05,0.015132,0.0,1.7e-05,-0.029901,-1e-06,0.0,0.0,0.0,0.0,0.0,0.0
270580,0.001442,-0.011966,0.003916,0.0,0.0,0.0,0.0,0.0,0.0,3.0,0.27666,0.354379,0.271143,0.380728,-3.4e-05,0.014532,0.0,1.8e-05,-0.030196,-1e-06,0.0,0.0,0.0,0.0,0.0,0.0
270600,0.001319,-0.011966,0.003915,0.0,0.0,0.0,0.0,0.0,0.0,3.0,0.276548,0.354871,0.271115,0.380369,-3.4e-05,0.013926,0.0,1.9e-05,-0.030463,-1e-06,0.0,0.0,0.0,0.0,0.0,0.0
270620,0.001197,-0.01221,0.003914,0.0,0.0,0.0,0.0,0.0,0.0,3.0,0.276752,0.357011,0.270765,0.378489,-3.4e-05,0.013314,0.0,2e-05,-0.030702,-1e-06,0.0,0.0,0.0,0.0,0.0,0.0
270640,0.001076,-0.01221,0.003792,0.0,0.0,0.0,0.0,0.0,0.0,3.0,0.276567,0.355115,0.273769,0.378447,-3.3e-05,0.012853,0.0,2.1e-05,-0.030863,-1e-06,0.0,0.0,0.0,0.0,0.0,0.0
270660,0.001198,-0.012332,0.00367,0.0,0.0,0.0,0.0,0.0,0.0,3.0,0.277638,0.356299,0.271595,0.378043,-3.3e-05,0.012079,0.0,2.3e-05,-0.031096,-1e-06,0.0,0.0,0.0,0.0,0.0,0.0
270680,0.001442,-0.012454,0.003672,0.0,0.0,0.0,0.0,0.0,0.0,3.0,0.277285,0.35576,0.275737,0.376104,-3.2e-05,0.011456,0.0,2.4e-05,-0.03125,-1e-06,0.0,0.0,0.0,0.0,0.0,0.0
270700,0.001441,-0.012454,0.003794,0.0,0.0,0.0,0.0,0.0,0.0,3.0,0.27426,0.358008,0.268384,0.380664,-3.2e-05,0.010987,0.0,2.5e-05,-0.031348,-1e-06,0.0,0.0,0.0,0.0,0.0,0.0
270720,0.001442,-0.012332,0.003794,0.0,0.0,0.0,0.0,0.0,0.0,3.0,0.280329,0.355124,0.27196,0.377116,-3.1e-05,0.010202,0.0,2.6e-05,-0.031477,-1e-06,0.0,0.0,0.0,0.0,0.0,0.0
270740,0.001685,-0.012211,0.003917,0.0,0.0,0.0,0.0,0.0,0.0,3.0,0.27269,0.357397,0.271657,0.380182,-3.1e-05,0.009572,0.0,2.7e-05,-0.03155,-1e-06,0.0,0.0,0.0,0.0,0.0,0.0
270760,0.001564,-0.011844,0.003916,0.0,0.0,0.0,0.0,0.0,0.0,3.0,0.276357,0.354773,0.270107,0.381213,-3e-05,0.00894,0.0,2.8e-05,-0.031595,-1e-06,0.0,0.0,0.0,0.0,0.0,0.0
270780,0.001686,-0.011967,0.003917,0.0,0.0,0.0,0.0,0.0,0.0,3.0,0.274104,0.358182,0.27231,0.378136,-3e-05,0.008308,0.0,2.9e-05,-0.031614,-1e-06,0.0,0.0,0.0,0.0,0.0,0.0
270800,0.001686,-0.011601,0.003917,0.0,0.0,0.0,0.0,0.0,0.0,3.0,0.275546,0.355525,0.270817,0.380606,-2.9e-05,0.007834,0.0,2.9e-05,-0.03161,-1e-06,0.0,0.0,0.0,0.0,0.0,0.0
270820,0.001565,-0.011722,0.003794,0.0,0.0,0.0,0.0,0.0,0.0,3.0,0.27623,0.355984,0.272889,0.378429,-2.8e-05,0.007044,0.0,3.1e-05,-0.031571,-1e-06,0.0,0.0,0.0,0.0,0.0,0.0
270840,0.001564,-0.011722,0.003916,0.0,0.0,0.0,0.0,0.0,0.0,3.0,0.273404,0.358982,0.267443,0.380892,-2.8e-05,0.006413,0.0,3.1e-05,-0.031511,-1e-06,0.0,0.0,0.0,0.0,0.0,0.0
270860,0.001564,-0.011844,0.003916,0.0,0.0,0.0,0.0,0.0,0.0,3.0,0.274863,0.358273,0.27072,0.378572,-2.7e-05,0.005783,0.0,3.2e-05,-0.031426,-1e-06,0.0,0.0,0.0,0.0,0.0,0.0
270880,0.001441,-0.012088,0.003916,0.0,0.0,0.0,0.0,0.0,0.0,3.0,0.275638,0.359822,0.270108,0.377005,-2.7e-05,0.005156,0.0,3.3e-05,-0.031315,-1e-06,0.0,0.0,0.0,0.0,0.0,0.0
270900,0.001563,-0.012089,0.003917,0.0,0.0,0.0,0.0,0.0,0.0,3.0,0.274619,0.359056,0.271005,0.377818,-2.6e-05,0.00453,0.0,3.4e-05,-0.031179,-1e-06,0.0,0.0,0.0,0.0,0.0,0.0
270920,0.001564,-0.011967,0.003916,0.0,0.0,0.0,0.0,0.0,0.0,3.0,0.274722,0.35874,0.270772,0.378195,-2.5e-05,0.003908,0.0,3.4e-05,-0.031018,-1e-06,0.0,0.0,0.0,0.0,0.0,0.0
270940,0.001565,-0.011844,0.003794,0.0,0.0,0.0,0.0,0.0,0.0,3.0,0.278345,0.355857,0.272618,0.377334,-2.5e-05,0.003289,0.0,3.5e-05,-0.030834,-1e-06,0.0,0.0,0.0,0.0,0.0,0.0
270960,0.001809,-0.011601,0.003795,0.0,0.0,0.0,0.0,0.0,0.0,3.0,0.27295,0.35629,0.272868,0.38027,-2.4e-05,0.002674,0.0,3.6e-05,-0.030626,-1e-06,0.0,0.0,0.0,0.0,0.0,0.0
270980,0.001932,-0.011357,0.003674,0.0,0.0,0.0,0.0,0.0,0.0,3.0,0.274342,0.355053,0.276577,0.378129,-2.3e-05,0.002063,0.0,3.6e-05,-0.030394,-1e-06,0.0,0.0,0.0,0.0,0.0,0.0
271000,0.001932,-0.011357,0.003674,0.0,0.0,0.0,0.0,0.0,0.0,3.0,0.275435,0.357234,0.271773,0.378499,-2.2e-05,0.001457,0.0,3.7e-05,-0.03014,-1e-06,0.0,0.0,0.0,0.0,0.0,0.0
271020,0.002054,-0.011357,0.003675,0.0,0.0,0.0,0.0,0.0,0.0,3.0,0.273066,0.357775,0.272419,0.37911,-2.2e-05,0.000856,0.0,3.7e-05,-0.029863,-1e-06,0.0,0.0,0.0,0.0,0.0,0.0
271040,0.002054,-0.011601,0.003675,0.0,0.0,0.0,0.0,0.0,0.0,3.0,0.271125,0.361223,0.268755,0.379433,-2.1e-05,0.000261,0.0,3.8e-05,-0.029564,-1e-06,0.0,0.0,0.0,0.0,0.0,0.0
271060,0.002055,-0.011479,0.003553,0.0,0.0,0.0,0.0,0.0,0.0,3.0,0.275827,0.356183,0.270639,0.379933,-2e-05,-0.000328,0.0,3.8e-05,-0.029244,-1e-06,0.0,0.0,0.0,0.0,0.0,0.0
271080,0.002177,-0.011601,0.003553,0.0,0.0,0.0,0.0,0.0,0.0,3.0,0.273441,0.35713,0.27193,0.379778,-1.9e-05,-0.00091,0.0,3.9e-05,-0.028903,-1e-06,0.0,0.0,0.0,0.0,0.0,0.0
271100,0.002054,-0.011723,0.003553,0.0,0.0,0.0,0.0,0.0,0.0,3.0,0.273273,0.358116,0.271905,0.378989,-1.9e-05,-0.001486,0.0,3.9e-05,-0.028542,-1e-06,0.0,0.0,0.0,0.0,0.0,0.0
271120,0.001934,-0.011356,0.00343,0.0,0.0,0.0,0.0,0.0,0.0,3.0,0.278355,0.353575,0.272345,0.379598,-1.8e-05,-0.002054,0.0,3.9e-05,-0.02816,-1e-06,0.0,0.0,0.0,0.0,0.0,0.0
271140,0.002056,-0.01099,0.00343,0.0,0.0,0.0,0.0,0.0,0.0,3.0,0.274054,0.355003,0.271537,0.381585,-1.7e-05,-0.002614,0.0,4e-05,-0.02776,-1e-06,0.0,0.0,0.0,0.0,0.0,0.0
271160,0.002057,-0.010868,0.003308,0.0,0.0,0.0,0.0,0.0,0.0,3.0,0.281426,0.354918,0.274598,0.374865,-1.6e-05,-0.003029,0.0,4e-05,-0.027447,-1e-06,0.0,0.0,0.0,0.0,0.0,0.0
271180,0.002058,-0.010624,0.003308,0.0,0.0,0.0,0.0,0.0,0.0,3.0,0.272007,0.354854,0.27358,0.381726,-1.5e-05,-0.00371,0.0,4e-05,-0.026902,-1e-06,0.0,0.0,0.0,0.0,0.0,0.0
271200,0.002302,-0.010746,0.003187,0.0,0.0,0.0,0.0,0.0,0.0,3.0,0.272965,0.356198,0.277688,0.377229,-1.5e-05,-0.004244,-0.0,4e-05,-0.026447,-1e-06,0.0,0.0,0.0,0.0,0.0,0.0
271220,0.002303,-0.010624,0.003187,0.0,0.0,0.0,0.0,0.0,0.0,3.0,0.272434,0.357338,0.273209,0.379415,-1.4e-05,-0.00477,-0.0,4e-05,-0.025974,-1e-06,0.0,0.0,0.0,0.0,0.0,0.0
271240,0.002425,-0.010624,0.003187,0.0,0.0,0.0,0.0,0.0,0.0,3.0,0.273907,0.357403,0.271403,0.379562,-1.3e-05,-0.005157,-0.0,4.1e-05,-0.025608,-1e-06,0.0,0.0,0.0,0.0,0.0,0.0
271260,0.002424,-0.010747,0.003188,0.0,0.0,0.0,0.0,0.0,0.0,3.0,0.273145,0.359074,0.271955,0.378146,-1.2e-05,-0.005791,-0.0,4.1e-05,-0.024979,-1e-06,0.0,0.0,0.0,0.0,0.0,0.0
271280,0.002303,-0.010624,0.003187,0.0,0.0,0.0,0.0,0.0,0.0,3.0,0.27377,0.359281,0.268567,0.379685,-1.1e-05,-0.006287,-0.0,4.1e-05,-0.024458,-1e-06,0.0,0.0,0.0,0.0,0.0,0.0
271300,0.002303,-0.010624,0.003187,0.0,0.0,0.0,0.0,0.0,0.0,3.0,0.275294,0.359743,0.269438,0.377726,-1.1e-05,-0.006772,-0.0,4.1e-05,-0.023922,-1e-06,0.0,0.0,0.0,0.0,0.0,0.0
271320,0.002303,-0.010624,0.003187,0.0,0.0,0.0,0.0,0.0,0.0,3.0,0.275089,0.359852,0.269688,0.3776,-1e-05,-0.007247,-0.0,4.1e-05,-0.023373,-1e-06,0.0,0.0,0.0,0.0,0.0,0.0
271340,0.00218,-0.010502,0.003308,0.0,0.0,0.0,0.0,0.0,0.0,3.0,0.275437,0.36012,0.267603,0.378427,-9e-06,-0.00771,-0.0,4.1e-05,-0.022809,-1e-06,0.0,0.0,0.0,0.0,0.0,0.0
271360,0.002302,-0.01038,0.003431,0.0,0.0,0.0,0.0,0.0,0.0,3.0,0.269578,0.362184,0.26344,0.382747,-8e-06,-0.008162,-0.0,4.1e-05,-0.022233,-1e-06,0.0,0.0,0.0,0.0,0.0,0.0
271380,0.002424,-0.010259,0.003431,0.0,0.0,0.0,0.0,0.0,0.0,3.0,0.273037,0.358892,0.270157,0.379522,-7e-06,-0.008602,-0.0,4e-05,-0.021644,-0.0,0.0,0.0,0.0,0.0,0.0,0.0
271400,0.002423,-0.010259,0.003553,0.0,0.0,0.0,0.0,0.0,0.0,3.0,0.273661,0.359226,0.270035,0.378889,-7e-06,-0.008924,-0.0,4e-05,-0.021195,-0.0,0.0,0.0,0.0,0.0,0.0,0.0
271420,0.002545,-0.010381,0.003554,0.0,0.0,0.0,0.0,0.0,0.0,3.0,0.271825,0.361558,0.27016,0.377794,-6e-06,-0.009344,-0.0,4e-05,-0.020586,-0.0,0.0,0.0,0.0,0.0,0.0,0.0
271440,0.002544,-0.010503,0.003676,0.0,0.0,0.0,0.0,0.0,0.0,3.0,0.26926,0.360705,0.268187,0.381437,-5e-06,-0.009851,-0.0,4e-05,-0.01981,-0.0,0.0,0.0,0.0,0.0,0.0,0.0
271460,0.0023,-0.010503,0.003797,0.0,0.0,0.0,0.0,0.0,0.0,3.0,0.268906,0.361964,0.262332,0.384025,-4e-06,-0.010242,-0.0,4e-05,-0.019177,-0.0,0.0,0.0,0.0,0.0,0.0,0.0
271480,0.002178,-0.010381,0.003796,0.0,0.0,0.0,0.0,0.0,0.0,3.0,0.274986,0.35824,0.265347,0.381848,-3e-06,-0.010621,-0.0,3.9e-05,-0.018536,-0.0,0.0,0.0,0.0,0.0,0.0,0.0
271500,0.0023,-0.010259,0.003797,0.0,0.0,0.0,0.0,0.0,0.0,3.0,0.272104,0.358933,0.270011,0.380167,-3e-06,-0.010987,-0.0,3.9e-05,-0.017886,-0.0,0.0,0.0,0.0,0.0,0.0,0.0
271520,0.0023,-0.010137,0.003797,0.0,0.0,0.0,0.0,0.0,0.0,3.0,0.27545,0.357505,0.272012,0.378086,-2e-06,-0.011339,-0.0,3.9e-05,-0.017229,-0.0,0.0,0.0,0.0,0.0,0.0,0.0
271540,0.002178,-0.010137,0.003918,0.0,0.0,0.0,0.0,0.0,0.0,3.0,0.274073,0.360508,0.266593,0.379567,-1e-06,-0.011679,-0.0,3.8e-05,-0.016563,-0.0,0.0,0.0,0.0,0.0,0.0,0.0
271560,0.002421,-0.010381,0.00392,0.0,0.0,0.0,0.0,0.0,0.0,3.0,0.270423,0.36171,0.271,0.378008,-0.0,-0.012005,-0.0,3.8e-05,-0.015892,-0.0,0.0,0.0,0.0,0.0,0.0,0.0
271580,0.002421,-0.010381,0.00392,0.0,0.0,0.0,0.0,0.0,0.0,3.0,0.271564,0.360571,0.269823,0.3791,1e-06,-0.012318,-0.0,3.8e-05,-0.015214,-0.0,0.0,0.0,0.0,0.0,0.0,0.0
271600,0.002665,-0.010382,0.004043,0.0,0.0,0.0,0.0,0.0,0.0,3.0,0.268697,0.362434,0.270835,0.378513,1e-06,-0.012617,-0.0,3.7e-05,-0.01453,0.0,0.0,0.0,0.0,0.0,0.0,0.0
271620,0.002543,-0.010137,0.004042,0.0,0.0,0.0,0.0,0.0,0.0,3.0,0.278089,0.355518,0.273586,0.377195,2e-06,-0.012833,-0.0,3.7e-05,-0.014015,0.0,0.0,0.0,0.0,0.0,0.0,0.0
271640,0.0023,-0.010015,0.003919,0.0,0.0,0.0,0.0,0.0,0.0,3.0,0.275145,0.358653,0.268204,0.379611,3e-06,-0.013174,-0.0,3.6e-05,-0.01315,0.0,0.0,0.0,0.0,0.0,0.0,0.0
271660,0.0023,-0.009893,0.003918,0.0,0.0,0.0,0.0,0.0,0.0,3.0,0.274964,0.357138,0.271415,0.37912,3e-06,-0.013432,-0.0,3.6e-05,-0.012454,0.0,0.0,0.0,0.0,0.0,0.0,0.0
271680,0.002056,-0.009892,0.003917,0.0,0.0,0.0,0.0,0.0,0.0,3.0,0.272023,0.360066,0.26941,0.37954,4e-06,-0.013616,-0.0,3.5e-05,-0.01193,0.0,0.0,0.0,0.0,0.0,0.0,0.0
271700,0.002056,-0.010014,0.003917,0.0,0.0,0.0,0.0,0.0,0.0,3.0,0.271682,0.360484,0.268905,0.379681,5e-06,-0.013906,-0.0,3.4e-05,-0.011054,0.0,0.0,0.0,0.0,0.0,0.0,0.0
271720,0.0023,-0.010015,0.003796,0.0,0.0,0.0,0.0,0.0,0.0,3.0,0.274518,0.356732,0.275518,0.377151,6e-06,-0.014122,-0.0,3.4e-05,-0.010351,0.0,0.0,0.0,0.0,0.0,0.0,0.0
271740,0.002179,-0.00977,0.003796,0.0,0.0,0.0,0.0,0.0,0.0,3.0,0.272625,0.359055,0.268567,0.380623,6e-06,-0.014323,-0.0,3.3e-05,-0.009647,0.0,0.0,0.0,0.0,0.0,0.0,0.0
271760,0.002302,-0.00977,0.003674,0.0,0.0,0.0,0.0,0.0,0.0,3.0,0.275405,0.358321,0.270757,0.378153,7e-06,-0.014511,-0.0,3.3e-05,-0.008942,0.0,0.0,0.0,0.0,0.0,0.0,0.0
271780,0.002546,-0.009649,0.003675,0.0,0.0,0.0,0.0,0.0,0.0,3.0,0.26769,0.359726,0.273124,0.380226,8e-06,-0.014685,-0.0,3.2e-05,-0.008238,0.0,0.0,0.0,0.0,0.0,0.0,0.0
271800,0.002424,-0.00977,0.003553,0.0,0.0,0.0,0.0,0.0,0.0,3.0,0.273395,0.360059,0.272737,0.376561,8e-06,-0.014844,-0.0,3.1e-05,-0.007534,0.0,0.0,0.0,0.0,0.0,0.0,0.0
271820,0.002546,-0.009771,0.003553,0.0,0.0,0.0,0.0,0.0,0.0,3.0,0.273899,0.359039,0.270155,0.378834,9e-06,-0.014954,-0.0,3.1e-05,-0.007007,0.0,0.0,0.0,0.0,0.0,0.0,0.0
271840,0.002425,-0.009648,0.00343,0.0,0.0,0.0,0.0,0.0,0.0,3.0,0.272238,0.358843,0.271363,0.379316,9e-06,-0.015121,-0.0,3e-05,-0.006131,0.0,0.0,0.0,0.0,0.0,0.0,0.0
271860,0.002303,-0.009648,0.00343,0.0,0.0,0.0,0.0,0.0,0.0,3.0,0.27144,0.360649,0.269415,0.37936,1e-05,-0.015238,-0.0,2.9e-05,-0.005432,0.0,0.0,0.0,0.0,0.0,0.0,0.0
271880,0.002548,-0.009282,0.003308,0.0,0.0,0.0,0.0,0.0,0.0,3.0,0.272462,0.358765,0.271099,0.379413,1.1e-05,-0.015342,-0.0,2.8e-05,-0.004737,0.0,0.0,0.0,0.0,0.0,0.0,0.0
271900,0.002549,-0.008916,0.003186,0.0,0.0,0.0,0.0,0.0,0.0,3.0,0.272407,0.359144,0.270149,0.379693,1.1e-05,-0.015431,-0.0,2.8e-05,-0.004045,0.0,0.0,0.0,0.0,0.0,0.0,0.0
271920,0.002428,-0.008793,0.003063,0.0,0.0,0.0,0.0,0.0,0.0,3.0,0.280131,0.356195,0.271825,0.376341,1.2e-05,-0.015507,-0.0,2.7e-05,-0.003357,0.0,0.0,0.0,0.0,0.0,0.0,0.0
271940,0.002672,-0.008794,0.003064,0.0,0.0,0.0,0.0,0.0,0.0,3.0,0.271205,0.361401,0.270547,0.378092,1.2e-05,-0.015569,-0.0,2.6e-05,-0.002673,0.0,0.0,0.0,0.0,0.0,0.0,0.0
271960,0.002551,-0.008427,0.002941,0.0,0.0,0.0,0.0,0.0,0.0,3.0,0.271836,0.359311,0.272225,0.378588,1.3e-05,-0.015606,-0.0,2.5e-05,-0.002164,0.0,0.0,0.0,0.0,0.0,0.0,0.0
271980,0.002552,-0.008549,0.002819,0.0,0.0,0.0,0.0,0.0,0.0,3.0,0.276715,0.357646,0.270214,0.378272,1.3e-05,-0.015652,-0.0,2.4e-05,-0.001322,0.0,0.0,0.0,0.0,0.0,0.0,0.0
272000,0.002674,-0.008427,0.002697,0.0,0.0,0.0,0.0,0.0,0.0,3.0,0.273416,0.357559,0.273923,0.378126,1.4e-05,-0.015674,-0.0,2.4e-05,-0.000656,0.0,0.0,0.0,0.0,0.0,0.0,0.0
272020,0.002553,-0.008304,0.002575,0.0,0.0,0.0,0.0,0.0,0.0,3.0,0.271768,0.356794,0.273115,0.380398,1.4e-05,-0.015682,-0.0,2.3e-05,5e-06,0.0,0.0,0.0,0.0,0.0,0.0,0.0
272040,0.002553,-0.008182,0.002574,0.0,0.0,0.0,0.0,0.0,0.0,3.0,0.2724,0.357845,0.269581,0.381254,1.5e-05,-0.015677,-0.0,2.2e-05,0.000658,0.0,0.0,0.0,0.0,0.0,0.0,0.0
272060,0.002554,-0.007938,0.002452,0.0,0.0,0.0,0.0,0.0,0.0,3.0,0.270814,0.356881,0.272495,0.381311,1.5e-05,-0.015659,-0.0,2.1e-05,0.001303,0.0,0.0,0.0,0.0,0.0,0.0,0.0
272080,0.002433,-0.007694,0.002329,0.0,0.0,0.0,0.0,0.0,0.0,3.0,0.27342,0.356244,0.271545,0.38085,1.5e-05,-0.015628,-0.0,2e-05,0.001941,0.0,0.0,0.0,0.0,0.0,0.0,0.0
272100,0.002555,-0.007816,0.00233,0.0,0.0,0.0,0.0,0.0,0.0,3.0,0.271408,0.359976,0.270839,0.379116,1.6e-05,-0.015584,-0.0,1.9e-05,0.00257,0.0,0.0,0.0,0.0,0.0,0.0,0.0
272120,0.002799,-0.007694,0.002208,0.0,0.0,0.0,0.0,0.0,0.0,3.0,0.273812,0.357266,0.277723,0.375663,1.6e-05,-0.015528,-0.0,1.8e-05,0.00319,0.0,0.0,0.0,0.0,0.0,0.0,0.0
272140,0.002677,-0.007816,0.002208,0.0,0.0,0.0,0.0,0.0,0.0,3.0,0.270943,0.360064,0.27183,0.378701,1.7e-05,-0.01546,0.0,1.8e-05,0.003801,0.0,0.0,0.0,0.0,0.0,0.0,0.0
272160,0.0028,-0.007938,0.002087,0.0,0.0,0.0,0.0,0.0,0.0,3.0,0.276572,0.358984,0.276469,0.373062,1.7e-05,-0.015379,0.0,1.7e-05,0.004402,0.0,0.0,0.0,0.0,0.0,0.0,0.0
272180,0.0028,-0.007816,0.002087,0.0,0.0,0.0,0.0,0.0,0.0,3.0,0.271809,0.361937,0.271182,0.376798,1.7e-05,-0.015287,0.0,1.6e-05,0.004994,0.0,0.0,0.0,0.0,0.0,0.0,0.0
272200,0.002678,-0.007694,0.002086,0.0,0.0,0.0,0.0,0.0,0.0,3.0,0.274353,0.361001,0.267953,0.378082,1.8e-05,-0.015183,0.0,1.5e-05,0.005574,0.0,0.0,0.0,0.0,0.0,0.0,0.0
272220,0.0028,-0.00745,0.002086,0.0,0.0,0.0,0.0,0.0,0.0,3.0,0.273238,0.359013,0.268987,0.380012,1.8e-05,-0.015067,0.0,1.4e-05,0.006144,0.0,0.0,0.0,0.0,0.0,0.0,0.0
272240,0.002922,-0.007328,0.002086,0.0,0.0,0.0,0.0,0.0,0.0,3.0,0.269,0.360068,0.273052,0.379139,1.8e-05,-0.01494,0.0,1.3e-05,0.006703,0.0,0.0,0.0,0.0,0.0,0.0,0.0
272260,0.0028,-0.007205,0.002086,0.0,0.0,0.0,0.0,0.0,0.0,3.0,0.273198,0.357766,0.271562,0.379579,1.8e-05,-0.014801,0.0,1.2e-05,0.00725,0.0,0.0,0.0,0.0,0.0,0.0,0.0
272280,0.0028,-0.007206,0.002208,0.0,0.0,0.0,0.0,0.087266,0.0,3.0,0.270293,0.474604,0.270214,0.189078,2.1e-05,-0.011125,-0.000192,0.000119,0.525627,-0.025302,0.0,0.0,0.0,0.0,0.0,0.0
272300,0.003166,-0.006596,0.002452,0.0,0.0,0.0,0.0,0.087266,0.0,3.0,0.249548,0.3927,0.265735,0.362416,3e-05,0.000404,-0.00069,0.000501,0.591669,-0.02375,0.0,0.0,0.0,0.0,0.0,0.0
272320,0.002554,-0.00562,0.003548,0.0,0.0,0.0,0.0,0.087266,0.0,3.0,0.26376,0.388735,0.242655,0.371897,4.1e-05,0.011747,-0.001148,0.000804,0.522772,-0.021459,0.0,0.0,0.0,0.0,0.0,0.0
272340,0.002194,-0.001713,0.003665,0.0,0.0,0.0,0.0,0.087266,0.0,3.0,0.264307,0.368894,0.260795,0.381207,5.2e-05,0.021686,-0.00156,0.001003,0.456551,-0.01923,0.0,0.0,0.0,0.0,0.0,0.0
272360,0.001593,0.004026,0.003049,0.0,0.0,0.0,0.0,0.087266,0.0,3.0,0.288295,0.340702,0.280391,0.379148,6.4e-05,0.0304,-0.001928,0.001119,0.415683,-0.017623,0.0,0.0,0.0,0.0,0.0,0.0
272380,0.001235,0.011474,0.002557,0.0,0.0,0.0,0.0,0.087266,0.0,3.0,0.295962,0.327607,0.282071,0.383687,7.6e-05,0.038145,-0.002254,0.001174,0.362119,-0.015067,0.0,0.0,0.0,0.0,0.0,0.0
272400,0.000389,0.019898,0.002316,0.0,0.0,0.0,0.0,0.087266,0.0,3.0,0.286082,0.330158,0.268466,0.396776,8.8e-05,0.045131,-0.00254,0.001184,0.329553,-0.013135,0.0,0.0,0.0,0.0,0.0,0.0
272420,-0.001192,0.0293,0.001972,0.0,0.0,0.0,0.0,0.087266,0.0,3.0,0.28578,0.323799,0.255692,0.408904,9.9e-05,0.051521,-0.002789,0.00116,0.3039,-0.011301,0.0,0.0,0.0,0.0,0.0,0.0
272440,-0.002166,0.038825,0.001631,0.0,0.0,0.0,0.0,0.087266,0.0,3.0,0.28911,0.313999,0.270164,0.405951,0.000111,0.057439,-0.003001,0.00111,0.283575,-0.009566,0.0,0.0,0.0,0.0,0.0,0.0
272460,-0.003141,0.047859,0.00142,0.0,0.0,0.0,0.0,0.087266,0.0,3.0,0.291964,0.313737,0.270734,0.403978,0.000122,0.062983,-0.00318,0.001039,0.26735,-0.007927,0.0,0.0,0.0,0.0,0.0,0.0
272480,-0.004481,0.056408,0.00135,0.0,0.0,0.0,0.0,0.087266,0.0,3.0,0.284587,0.322551,0.257766,0.40946,0.000133,0.068228,-0.003326,0.000953,0.254272,-0.006384,0.0,0.0,0.0,0.0,0.0,0.0
272500,-0.005829,0.06459,0.001045,0.0,0.0,0.0,0.0,0.087266,0.0,3.0,0.28753,0.318298,0.262089,0.408394,0.000143,0.07323,-0.003443,0.000853,0.243602,-0.004934,0.0,0.0,0.0,0.0,0.0,0.0
272520,-0.006936,0.072162,0.000741,0.0,0.0,0.0,0.0,0.087266,0.0,3.0,0.291316,0.316646,0.268751,0.403446,0.000153,0.078033,-0.003531,0.000744,0.234766,-0.003577,0.0,0.0,0.0,0.0,0.0,0.0
272540,-0.007919,0.078757,0.000558,0.0,0.0,0.0,0.0,0.087266,0.0,3.0,0.294432,0.321599,0.268621,0.397802,0.000162,0.082671,-0.003592,0.000627,0.227322,-0.002311,0.0,0.0,0.0,0.0,0.0,0.0
272560,-0.008903,0.084498,0.000378,0.0,0.0,0.0,0.0,0.087266,0.0,3.0,0.287281,0.330743,0.258992,0.400933,0.00017,0.087168,-0.003629,0.000504,0.220925,-0.001132,0.0,0.0,0.0,0.0,0.0,0.0
272580,-0.009534,0.089262,-6.3e-05,0.0,0.0,0.0,0.0,0.087266,0.0,3.0,0.289518,0.328164,0.268537,0.396062,0.000178,0.091543,-0.003642,0.000377,0.215311,-4e-05,0.0,0.0,0.0,0.0,0.0,0.0
272600,-0.009917,0.093418,-0.000394,0.0,0.0,0.0,0.0,0.087266,0.0,3.0,0.291634,0.327251,0.274985,0.391481,0.000185,0.095811,-0.003634,0.000247,0.210273,0.000969,0.0,0.0,0.0,0.0,0.0,0.0
272620,-0.010417,0.096836,-0.000598,0.0,0.0,0.0,0.0,0.087266,0.0,3.0,0.285726,0.336286,0.267568,0.392628,0.000192,0.099981,-0.003607,0.000115,0.205654,0.001896,0.0,0.0,0.0,0.0,0.0,0.0
272640,-0.01093,0.099399,-0.00105,0.0,0.0,0.0,0.0,0.087266,0.0,3.0,0.28734,0.340098,0.270578,0.38658,0.000198,0.104061,-0.003562,-1.7e-05,0.201331,0.002745,0.0,0.0,0.0,0.0,0.0,0.0
272660,-0.011322,0.101597,-0.00151,0.0,0.0,0.0,0.0,0.087266,0.0,3.0,0.292866,0.337254,0.275159,0.382339,0.000203,0.108057,-0.0035,-0.000149,0.197211,0.003519,0.0,0.0,0.0,0.0,0.0,0.0
272680,-0.011105,0.103551,-0.002002,0.0,0.0,0.0,0.0,0.087266,0.0,3.0,0.292611,0.335878,0.280725,0.380067,0.000208,0.111971,-0.003423,-0.00028,0.193221,0.004219,0.0,0.0,0.0,0.0,0.0,0.0
272700,-0.011247,0.105255,-0.002354,0.0,0.0,0.0,0.0,0.087266,0.0,3.0,0.289038,0.340589,0.271718,0.384311,0.000211,0.115806,-0.003332,-0.000407,0.189307,0.004849,0.0,0.0,0.0,0.0,0.0,0.0
272720,-0.011397,0.106721,-0.00283,0.0,0.0,0.0,0.0,0.087266,0.0,3.0,0.289971,0.338377,0.277155,0.382111,0.000214,0.119563,-0.003229,-0.000532,0.185427,0.005411,0.0,0.0,0.0,0.0,0.0,0.0
272740,-0.011426,0.108188,-0.003313,0.0,0.0,0.0,0.0,0.087266,0.0,3.0,0.291861,0.334559,0.282324,0.380646,0.000216,0.123242,-0.003116,-0.000653,0.18155,0.005909,0.0,0.0,0.0,0.0,0.0,0.0
272760,-0.011454,0.109526,-0.003796,0.0,0.0,0.0,0.0,0.087266,0.0,3.0,0.297177,0.334018,0.282585,0.377145,0.000218,0.126844,-0.002992,-0.000769,0.177653,0.006345,0.0,0.0,0.0,0.0,0.0,0.0
272780,-0.011484,0.11087,-0.00428,0.0,0.0,0.0,0.0,0.087266,0.0,3.0,0.295152,0.334619,0.281352,0.37892,0.000218,0.130368,-0.002861,-0.00088,0.173718,0.006722,0.0,0.0,0.0,0.0,0.0,0.0
272800,-0.011881,0.112579,-0.004741,0.0,0.0,0.0,0.0,0.087266,0.0,3.0,0.297978,0.331339,0.278143,0.381762,0.000218,0.133812,-0.002722,-0.000985,0.169734,0.007043,0.0,0.0,0.0,0.0,0.0,0.0
272820,-0.012029,0.114656,-0.00509,0.0,0.0,0.0,0.0,0.087266,0.0,3.0,0.297668,0.328217,0.278088,0.38458,0.000217,0.137177,-0.002577,-0.001084,0.165691,0.007312,0.0,0.0,0.0,0.0,0.0,0.0
272840,-0.012185,0.116853,-0.005562,0.0,0.0,0.0,0.0,0.087266,0.0,3.0,0.298217,0.324632,0.28021,0.385702,0.000216,0.14046,-0.002427,-0.001177,0.161585,0.00753,0.0,0.0,0.0,0.0,0.0,0.0
272860,-0.012463,0.118806,-0.006027,0.0,0.0,0.0,0.0,0.087266,0.0,3.0,0.298799,0.326302,0.281057,0.383396,0.000213,0.14366,-0.002272,-0.001262,0.157413,0.007702,0.0,0.0,0.0,0.0,0.0,0.0
272880,-0.012621,0.121003,-0.006499,0.0,0.0,0.0,0.0,0.087266,0.0,3.0,0.301303,0.323087,0.281458,0.38391,0.000211,0.146006,-0.002155,-0.001322,0.154238,0.007801,0.0,0.0,0.0,0.0,0.0,0.0
272900,-0.012894,0.123321,-0.006839,0.0,0.0,0.0,0.0,0.087266,0.0,3.0,0.298211,0.320833,0.283173,0.38677,0.000206,0.149808,-0.001955,-0.001412,0.148862,0.007914,0.0,0.0,0.0,0.0,0.0,0.0
272920,-0.013413,0.125761,-0.007162,0.0,0.0,0.0,0.0,0.087266,0.0,3.0,0.299371,0.320864,0.277618,0.389503,0.000202,0.152753,-0.001794,-0.001476,0.144486,0.00796,0.0,0.0,0.0,0.0,0.0,0.0
272940,-0.01381,0.127965,-0.007495,0.0,0.0,0.0,0.0,0.087266,0.0,3.0,0.297401,0.323758,0.275559,0.389921,0.000197,0.155609,-0.001633,-0.001532,0.140043,0.00797,0.0,0.0,0.0,0.0,0.0,0.0
272960,-0.014215,0.129916,-0.007951,0.0,0.0,0.0,0.0,0.087266,0.0,3.0,0.302857,0.32044,0.280961,0.385201,0.000191,0.158376,-0.001471,-0.00158,0.135538,0.007946,0.0,0.0,0.0,0.0,0.0,0.0
272980,-0.014369,0.131992,-0.008298,0.0,0.0,0.0,0.0,0.087266,0.0,3.0,0.304566,0.3181,0.283394,0.384184,0.000185,0.161053,-0.00131,-0.001622,0.130973,0.007891,0.0,0.0,0.0,0.0,0.0,0.0
273000,-0.014515,0.133946,-0.008524,0.0,0.0,0.0,0.0,0.087266,0.0,3.0,0.298942,0.322939,0.274503,0.390143,0.000178,0.163638,-0.00115,-0.001655,0.126351,0.007808,0.0,0.0,0.0,0.0,0.0,0.0
273020,-0.01479,0.135655,-0.008865,0.0,0.0,0.0,0.0,0.087266,0.0,3.0,0.299435,0.321362,0.27721,0.38933,0.00017,0.16613,-0.000992,-0.001682,0.121675,0.007698,0.0,0.0,0.0,0.0,0.0,0.0
273040,-0.014945,0.137365,-0.009215,0.0,0.0,0.0,0.0,0.087266,0.0,3.0,0.30244,0.31571,0.28508,0.386457,0.000162,0.168528,-0.000836,-0.001701,0.116951,0.007564,0.0,0.0,0.0,0.0,0.0,0.0
273060,-0.014969,0.138954,-0.009451,0.0,0.0,0.0,0.0,0.087266,0.0,3.0,0.300056,0.318165,0.284495,0.386665,0.000154,0.170831,-0.000684,-0.001714,0.112182,0.007409,0.0,0.0,0.0,0.0,0.0,0.0
273080,-0.015115,0.140421,-0.00968,0.0,0.0,0.0,0.0,0.087266,0.0,3.0,0.297005,0.320621,0.278992,0.390474,0.000145,0.173039,-0.000534,-0.001719,0.107372,0.007234,0.0,0.0,0.0,0.0,0.0,0.0
273100,-0.015267,0.141514,-0.010032,0.0,0.0,0.0,0.0,0.087266,0.0,3.0,0.299814,0.319608,0.28156,0.387641,0.000136,0.17515,-0.000388,-0.001718,0.102526,0.007042,0.0,0.0,0.0,0.0,0.0,0.0
273120,-0.015412,0.142615,-0.010263,0.0,0.0,0.0,0.0,0.087266,0.0,3.0,0.304946,0.318452,0.282762,0.384049,0.000126,0.177164,-0.000247,-0.001711,0.097647,0.006834,0.0,0.0,0.0,0.0,0.0,0.0
273140,-0.015436,0.14384,-0.010502,0.0,0.0,0.0,0.0,0.087266,0.0,3.0,0.304787,0.317291,0.284772,0.383735,0.000117,0.17908,-0.000109,-0.001699,0.092741,0.006612,0.0,0.0,0.0,0.0,0.0,0.0
273160,-0.01546,0.145055,-0.010739,0.0,0.0,0.0,0.0,0.087266,0.0,3.0,0.303383,0.315902,0.28326,0.386829,0.000106,0.180898,2.4e-05,-0.00168,0.087812,0.006379,0.0,0.0,0.0,0.0,0.0,0.0
273180,-0.015483,0.146036,-0.01098,0.0,0.0,0.0,0.0,0.087266,0.0,3.0,0.301845,0.316803,0.281916,0.388122,9.6e-05,0.182617,0.000152,-0.001656,0.082864,0.006135,0.0,0.0,0.0,0.0,0.0,0.0
273200,-0.015262,0.146888,-0.011238,0.0,0.0,0.0,0.0,0.087266,0.0,3.0,0.299906,0.316333,0.28603,0.387163,8.6e-05,0.184237,0.000275,-0.001628,0.077901,0.005883,0.0,0.0,0.0,0.0,0.0,0.0
273220,-0.015164,0.147991,-0.011487,0.0,0.0,0.0,0.0,0.087266,0.0,3.0,0.305694,0.31115,0.28713,0.38618,7.5e-05,0.185758,0.000393,-0.001595,0.072928,0.005625,0.0,0.0,0.0,0.0,0.0,0.0
273240,-0.015057,0.148731,-0.011616,0.0,0.0,0.0,0.0,0.087266,0.0,3.0,0.30187,0.315869,0.284088,0.3874,6.4e-05,0.187179,0.000505,-0.001558,0.06795,0.00536,0.0,0.0,0.0,0.0,0.0,0.0
273260,-0.01508,0.149702,-0.011855,0.0,0.0,0.0,0.0,0.087266,0.0,3.0,0.30065,0.315304,0.283163,0.389302,5.3e-05,0.188501,0.000612,-0.001517,0.062971,0.005092,0.0,0.0,0.0,0.0,0.0,0.0
273280,-0.014981,0.150319,-0.012108,0.0,0.0,0.0,0.0,0.087266,0.0,3.0,0.305286,0.313451,0.287934,0.384198,4.2e-05,0.189723,0.000714,-0.001472,0.057995,0.004821,0.0,0.0,0.0,0.0,0.0,0.0
273300,-0.015004,0.151169,-0.012349,0.0,0.0,0.0,0.0,0.087266,0.0,3.0,0.305685,0.312177,0.286324,0.385954,3.4e-05,0.190574,0.000787,-0.001437,0.054267,0.004617,0.0,0.0,0.0,0.0,0.0,0.0
273320,-0.014765,0.151911,-0.012364,0.0,0.0,0.0,0.0,0.087266,0.0,3.0,0.300864,0.315524,0.281977,0.389752,2.1e-05,0.191869,0.000901,-0.001375,0.048069,0.004275,0.0,0.0,0.0,0.0,0.0,0.0
273340,-0.014787,0.152517,-0.012606,0.0,0.0,0.0,0.0,0.087266,0.0,3.0,0.302244,0.314114,0.284422,0.388243,1e-05,0.192793,0.000986,-0.001322,0.043127,0.004003,0.0,0.0,0.0,0.0,0.0,0.0
273360,-0.014557,0.153127,-0.012744,0.0,0.0,0.0,0.0,0.087266,0.0,3.0,0.301508,0.311791,0.28675,0.388976,-1e-06,0.193618,0.001065,-0.001268,0.038205,0.003732,0.0,0.0,0.0,0.0,0.0,0.0
273380,-0.014457,0.153622,-0.012999,0.0,0.0,0.0,0.0,0.087266,0.0,3.0,0.307399,0.309193,0.289542,0.38476,-1.2e-05,0.194173,0.001121,-0.001226,0.034529,0.00353,0.0,0.0,0.0,0.0,0.0,0.0
273400,-0.014225,0.153988,-0.013139,0.0,0.0,0.0,0.0,0.087266,0.0,3.0,0.306385,0.309768,0.289608,0.385035,-2.2e-05,0.194975,0.001208,-0.001154,0.028437,0.003198,0.0,0.0,0.0,0.0,0.0,0.0
273420,-0.013994,0.154354,-0.013279,0.0,0.0,0.0,0.0,0.087266,0.0,3.0,0.304721,0.311451,0.288435,0.385788,-3.3e-05,0.195508,0.001271,-0.001095,0.023598,0.002937,0.0,0.0,0.0,0.0,0.0,0.0
273440,-0.013763,0.154842,-0.013418,0.0,0.0,0.0,0.0,0.087266,0.0,3.0,0.303768,0.312237,0.285815,0.387643,-4.3e-05,0.195844,0.001315,-0.001051,0.019992,0.002744,0.0,0.0,0.0,0.0,0.0,0.0
273460,-0.013653,0.155217,-0.013551,0.0,0.0,0.0,0.0,0.087266,0.0,3.0,0.305165,0.311615,0.284092,0.388232,-5.3e-05,0.196284,0.001382,-0.000976,0.01403,0.002429,0.0,0.0,0.0,0.0,0.0,0.0
273480,-0.013419,0.155218,-0.013693,0.0,0.0,0.0,0.0,0.087266,0.0,3.0,0.305524,0.3114,0.286056,0.386835,-6.3e-05,0.196529,0.001429,-0.000916,0.009309,0.002183,0.0,0.0,0.0,0.0,0.0,0.0
273500,-0.013064,0.15522,-0.013845,0.0,0.0,0.0,0.0,0.087266,0.0,3.0,0.305046,0.311294,0.289633,0.384856,-7.2e-05,0.19668,0.001472,-0.000857,0.004633,0.001944,0.0,0.0,0.0,0.0,0.0,0.0
273520,-0.012699,0.155345,-0.013873,0.0,0.0,0.0,0.0,0.087266,0.0,3.0,0.303422,0.311032,0.286842,0.38811,-7.9e-05,0.196732,0.001501,-0.000812,0.001159,0.00177,0.0,0.0,0.0,0.0,0.0,0.0
273540,-0.012709,0.155344,-0.013996,0.0,0.0,0.0,0.0,0.087266,0.0,3.0,0.300182,0.313437,0.284514,0.390156,-9e-05,0.196704,0.001543,-0.000738,-0.004565,0.001487,0.0,0.0,0.0,0.0,0.0,0.0
273560,-0.012962,0.155341,-0.0141,0.0,0.0,0.0,0.0,0.087266,0.0,3.0,0.306515,0.309975,0.285546,0.387512,-9.9e-05,0.196578,0.001572,-0.00068,-0.009082,0.001269,0.0,0.0,0.0,0.0,0.0,0.0
273580,-0.01297,0.155218,-0.014224,0.0,0.0,0.0,0.0,0.087266,0.0,3.0,0.310163,0.30655,0.290606,0.383934,-0.000108,0.196363,0.001596,-0.000623,-0.013539,0.001059,0.0,0.0,0.0,0.0,0.0,0.0
273600,-0.013091,0.155096,-0.014215,0.0,0.0,0.0,0.0,0.087266,0.0,3.0,0.30726,0.312079,0.28405,0.38638,-0.000116,0.196059,0.001616,-0.000567,-0.017934,0.000858,0.0,0.0,0.0,0.0,0.0,0.0
273620,-0.013101,0.155095,-0.014339,0.0,0.0,0.0,0.0,0.087266,0.0,3.0,0.307271,0.310042,0.285854,0.386703,-0.000124,0.195668,0.001632,-0.000512,-0.022263,0.000664,0.0,0.0,0.0,0.0,0.0,0.0
273640,-0.013102,0.155217,-0.014338,0.0,0.0,0.0,0.0,0.087266,0.0,3.0,0.307381,0.308325,0.28464,0.388694,-0.000131,0.195191,0.001644,-0.000458,-0.026524,0.000478,0.0,0.0,0.0,0.0,0.0,0.0
273660,-0.012858,0.155219,-0.014357,0.0,0.0,0.0,0.0,0.087266,0.0,3.0,0.304833,0.308199,0.289649,0.387307,-0.000138,0.194629,0.001653,-0.000406,-0.030714,0.000301,0.0,0.0,0.0,0.0,0.0,0.0
273680,-0.012625,0.155342,-0.014499,0.0,0.0,0.0,0.0,0.087266,0.0,3.0,0.306939,0.305796,0.29021,0.387154,-0.000145,0.193983,0.001658,-0.000356,-0.03483,0.000133,0.0,0.0,0.0,0.0,0.0,0.0
273700,-0.012381,0.155222,-0.014519,0.0,0.0,0.0,0.0,0.087266,0.0,3.0,0.30486,0.306109,0.291391,0.38764,-0.000151,0.193256,0.001659,-0.000307,-0.03887,-2.8e-05,0.0,0.0,0.0,0.0,0.0,0.0
273720,-0.01238,0.1551,-0.014519,0.0,0.0,0.0,0.0,0.087266,0.0,3.0,0.309343,0.305711,0.290653,0.385135,-0.000157,0.192449,0.001657,-0.00026,-0.042832,-0.000179,0.0,0.0,0.0,0.0,0.0,0.0
273740,-0.012492,0.1551,-0.014387,0.0,0.0,0.0,0.0,0.087266,0.0,3.0,0.306189,0.309559,0.283828,0.389186,-0.000163,0.191563,0.001653,-0.000215,-0.046712,-0.000322,0.0,0.0,0.0,0.0,0.0,0.0
273760,-0.012615,0.155221,-0.014376,0.0,0.0,0.0,0.0,0.087266,0.0,3.0,0.306715,0.307657,0.284367,0.389849,-0.000169,0.1906,0.001645,-0.000172,-0.050509,-0.000457,0.0,0.0,0.0,0.0,0.0,0.0
273780,-0.01298,0.155218,-0.014347,0.0,0.0,0.0,0.0,0.087266,0.0,3.0,0.311275,0.306654,0.281924,0.388815,-0.000174,0.189562,0.001635,-0.000131,-0.05422,-0.000584,0.0,0.0,0.0,0.0,0.0,0.0
273800,-0.012858,0.155219,-0.014357,0.0,0.0,0.0,0.0,0.087266,0.0,3.0,0.312503,0.300952,0.290451,0.386352,-0.000178,0.188451,0.001623,-9.1e-05,-0.057844,-0.000702,0.0,0.0,0.0,0.0,0.0,0.0
273820,-0.012726,0.155099,-0.014244,0.0,0.0,0.0,0.0,0.087266,0.0,3.0,0.306719,0.306575,0.288653,0.387797,-0.000183,0.187267,0.001608,-5.4e-05,-0.061378,-0.000812,0.0,0.0,0.0,0.0,0.0,0.0
273840,-0.012484,0.155223,-0.014263,0.0,0.0,0.0,0.0,0.087266,0.0,3.0,0.306469,0.301644,0.292016,0.389263,-0.000187,0.186013,0.001591,-1.9e-05,-0.064821,-0.000915,0.0,0.0,0.0,0.0,0.0,0.0
273860,-0.01236,0.15498,-0.014274,0.0,0.0,0.0,0.0,0.087266,0.0,3.0,0.308245,0.305054,0.289447,0.38725,-0.000189,0.185029,0.001577,6e-06,-0.067342,-0.000986,0.0,0.0,0.0,0.0,0.0,0.0
273880,-0.012349,0.15485,-0.014149,0.0,0.0,0.0,0.0,0.087266,0.0,3.0,0.309221,0.304882,0.286836,0.388404,-0.000194,0.183304,0.001551,4.6e-05,-0.071426,-0.001096,0.0,0.0,0.0,0.0,0.0,0.0
273900,-0.012217,0.15473,-0.014036,0.0,0.0,0.0,0.0,0.087266,0.0,3.0,0.30753,0.305252,0.285077,0.390534,-0.000197,0.181851,0.001528,7.5e-05,-0.074584,-0.001176,0.0,0.0,0.0,0.0,0.0,0.0
273920,-0.012459,0.154485,-0.014018,0.0,0.0,0.0,0.0,0.087266,0.0,3.0,0.310997,0.304591,0.285902,0.387917,-0.000199,0.180337,0.001504,0.000103,-0.077645,-0.001248,0.0,0.0,0.0,0.0,0.0,0.0
273940,-0.01258,0.154362,-0.014009,0.0,0.0,0.0,0.0,0.087266,0.0,3.0,0.312022,0.301333,0.288298,0.387896,-0.000202,0.178761,0.001478,0.000129,-0.080607,-0.001314,0.0,0.0,0.0,0.0,0.0,0.0
273960,-0.01257,0.154241,-0.013887,0.0,0.0,0.0,0.0,0.087266,0.0,3.0,0.309289,0.303121,0.288786,0.388322,-0.000204,0.177128,0.001451,0.000153,-0.083468,-0.001373,0.0,0.0,0.0,0.0,0.0,0.0
273980,-0.012569,0.154119,-0.013887,0.0,0.0,0.0,0.0,0.087266,0.0,3.0,0.309934,0.300161,0.289522,0.389459,-0.000205,0.175437,0.001423,0.000175,-0.086228,-0.001425,0.0,0.0,0.0,0.0,0.0,0.0
274000,-0.012568,0.153876,-0.013889,0.0,0.0,0.0,0.0,0.087266,0.0,3.0,0.310528,0.299617,0.289187,0.389628,-0.000207,0.173693,0.001395,0.000195,-0.088885,-0.001471,0.0,0.0,0.0,0.0,0.0,0.0
274020,-0.012434,0.153513,-0.013777,0.0,0.0,0.0,0.0,0.087266,0.0,3.0,0.30923,0.303155,0.288626,0.388448,-0.000208,0.171896,0.001365,0.000214,-0.09081,-0.001501,0.0,0.0,0.0,0.0,0.0,0.0
274040,-0.012302,0.153383,-0.013662,0.0,0.0,0.0,0.0,0.087266,0.0,3.0,0.307844,0.302888,0.287613,0.39033,-0.000208,0.170048,0.001334,0.000231,-0.093888,-0.001545,0.0,0.0,0.0,0.0,0.0,0.0
274060,-0.012423,0.153261,-0.013653,0.0,0.0,0.0,0.0,0.087266,0.0,3.0,0.308221,0.304908,0.282659,0.391848,-0.000209,0.168153,0.001303,0.000247,-0.096232,-0.001574,0.0,0.0,0.0,0.0,0.0,0.0
274080,-0.012421,0.153017,-0.013654,0.0,0.0,0.0,0.0,0.087266,0.0,3.0,0.312515,0.299938,0.286799,0.389515,-0.000209,0.166211,0.001271,0.000261,-0.09847,-0.001597,0.0,0.0,0.0,0.0,0.0,0.0
274100,-0.012411,0.152897,-0.013532,0.0,0.0,0.0,0.0,0.087266,0.0,3.0,0.312038,0.300556,0.287008,0.389296,-0.000209,0.164226,0.001239,0.000274,-0.100601,-0.001615,0.0,0.0,0.0,0.0,0.0,0.0
274120,-0.012157,0.152778,-0.013428,0.0,0.0,0.0,0.0,0.087266,0.0,3.0,0.309521,0.299183,0.289946,0.390167,-0.000209,0.162198,0.001207,0.000285,-0.102626,-0.001629,0.0,0.0,0.0,0.0,0.0,0.0
274140,-0.012025,0.152536,-0.013316,0.0,0.0,0.0,0.0,0.087266,0.0,3.0,0.305812,0.302432,0.286834,0.392637,-0.000208,0.160131,0.001174,0.000296,-0.104543,-0.001638,0.0,0.0,0.0,0.0,0.0,0.0
274160,-0.0119,0.15205,-0.013328,0.0,0.0,0.0,0.0,0.087266,0.0,3.0,0.310925,0.299534,0.290926,0.38822,-0.000208,0.158027,0.001141,0.000305,-0.106353,-0.001642,0.0,0.0,0.0,0.0,0.0,0.0
