time_ms,roll,pitch,yaw,x,y,z,reference_roll,reference_pitch,reference_yaw,reference_throttle,throttle_1,throttle_2,throttle_3,throttle_4,roll_predicted,pitch_predicted,yaw_predicted,roll_rate_predicted,pitch_rate_predicted,yaw_rate_predicted,value1,value2,value3,value4,value5,value6
199560,0.001349,0.007201,0.001827,0.0,0.0,0.0,0.0,0.0,0.0,3.0,0.281856,0.35458,0.282451,0.369606,-0.002215,6e-06,0.0,0.004812,-4e-06,-0.0,0.0,0.0,0.0,0.0,0.0,0.0
199580,0.00074,0.007812,0.001829,0.0,0.0,0.0,0.0,0.0,0.0,3.0,0.280571,0.355008,0.281094,0.371018,-0.002118,6e-06,0.0,0.004849,-4e-06,-0.0,0.0,0.0,0.0,0.0,0.0,0.0
199600,0.000251,0.008301,0.001708,0.0,0.0,0.0,0.0,0.0,0.0,3.0,0.28042,0.35401,0.285123,0.369269,-0.002021,6e-06,0.0,0.004883,-5e-06,-0.0,0.0,0.0,0.0,0.0,0.0,0.0
199620,-0.000238,0.009034,0.001466,0.0,0.0,0.0,0.0,0.0,0.0,3.0,0.282699,0.352899,0.284529,0.369162,-0.001923,6e-06,0.0,0.004911,-5e-06,-0.0,0.0,0.0,0.0,0.0,0.0,0.0
199640,-0.000848,0.009645,0.001347,0.0,0.0,0.0,0.0,0.0,0.0,3.0,0.281395,0.352636,0.283599,0.370958,-0.001825,6e-06,0.0,0.004936,-5e-06,-0.0,0.0,0.0,0.0,0.0,0.0,0.0
199660,-0.001337,0.010133,0.001228,0.0,0.0,0.0,0.0,0.0,0.0,3.0,0.280044,0.353153,0.285021,0.370406,-0.001726,6e-06,0.0,0.004956,-5e-06,-0.0,0.0,0.0,0.0,0.0,0.0,0.0
199680,-0.001703,0.0105,0.001108,0.0,0.0,0.0,0.0,0.0,0.0,3.0,0.280252,0.353958,0.285026,0.369502,-0.001627,6e-06,0.0,0.004971,-5e-06,-0.0,0.0,0.0,0.0,0.0,0.0,0.0
199700,-0.002192,0.010622,0.000988,0.0,0.0,0.0,0.0,0.0,0.0,3.0,0.280077,0.355772,0.285442,0.367603,-0.001527,5e-06,0.0,0.004983,-6e-06,-0.0,0.0,0.0,0.0,0.0,0.0,0.0
199720,-0.002925,0.010988,0.000871,0.0,0.0,0.0,0.0,0.0,0.0,3.0,0.281695,0.355552,0.284039,0.367683,-0.001428,5e-06,0.0,0.00499,-6e-06,-0.0,0.0,0.0,0.0,0.0,0.0,0.0
199740,-0.00317,0.011232,0.00075,0.0,0.0,0.0,0.0,0.0,0.0,3.0,0.281211,0.354332,0.284758,0.368676,-0.001328,5e-06,0.0,0.004993,-6e-06,-0.0,0.0,0.0,0.0,0.0,0.0,0.0
199760,-0.003537,0.011598,0.000631,0.0,0.0,0.0,0.0,0.0,0.0,3.0,0.281447,0.355041,0.284771,0.367829,-0.001228,5e-06,0.0,0.004991,-6e-06,-0.0,0.0,0.0,0.0,0.0,0.0,0.0
199780,-0.003781,0.011842,0.000511,0.0,0.0,0.0,0.0,0.0,0.0,3.0,0.281022,0.355207,0.285453,0.367483,-0.001128,5e-06,0.0,0.004986,-6e-06,-0.0,0.0,0.0,0.0,0.0,0.0,0.0
199800,-0.003904,0.011964,0.00039,0.0,0.0,0.0,0.0,0.0,0.0,3.0,0.282925,0.354794,0.287594,0.365016,-0.001028,5e-06,0.0,0.004976,-6e-06,-0.0,0.0,0.0,0.0,0.0,0.0,0.0
199820,-0.004027,0.01233,0.000269,0.0,0.0,0.0,0.0,0.0,0.0,3.0,0.279967,0.353473,0.287236,0.368593,-0.000929,5e-06,0.0,0.004963,-6e-06,-0.0,0.0,0.0,0.0,0.0,0.0,0.0
199840,-0.00415,0.012452,0.000148,0.0,0.0,0.0,0.0,0.0,0.0,3.0,0.281798,0.355034,0.285453,0.367109,-0.00083,5e-06,0.0,0.004945,-7e-06,-0.0,0.0,0.0,0.0,0.0,0.0,0.0
199860,-0.004395,0.012452,2.7e-05,0.0,0.0,0.0,0.0,0.0,0.0,3.0,0.280137,0.355405,0.286114,0.367436,-0.000731,4e-06,0.0,0.004923,-7e-06,-0.0,0.0,0.0,0.0,0.0,0.0,0.0
199880,-0.004395,0.012452,2.7e-05,0.0,0.0,0.0,0.0,0.0,0.0,3.0,0.28478,0.353993,0.287938,0.364222,-0.000633,4e-06,0.0,0.004898,-7e-06,-0.0,0.0,0.0,0.0,0.0,0.0,0.0
199900,-0.004395,0.012452,2.7e-05,0.0,0.0,0.0,0.0,0.0,0.0,3.0,0.281999,0.351528,0.2886,0.36805,-0.000511,4e-06,0.0,0.004869,-7e-06,-0.0,0.0,0.0,0.0,0.0,0.0,0.0
199920,-0.004517,0.012696,-9.3e-05,0.0,0.0,0.0,0.0,0.0,0.0,3.0,0.282957,0.353355,0.285545,0.367835,-0.000438,4e-06,0.0,0.004836,-7e-06,-0.0,0.0,0.0,0.0,0.0,0.0,0.0
199940,-0.004518,0.012939,-0.000215,0.0,0.0,0.0,0.0,0.0,0.0,3.0,0.286136,0.352321,0.289705,0.363566,-0.000342,4e-06,0.0,0.004799,-7e-06,-0.0,0.0,0.0,0.0,0.0,0.0,0.0
199960,-0.00464,0.013061,-0.000214,0.0,0.0,0.0,0.0,0.0,0.0,3.0,0.280403,0.354881,0.285874,0.367924,-0.000246,4e-06,0.0,0.004759,-7e-06,-0.0,0.0,0.0,0.0,0.0,0.0,0.0
199980,-0.004641,0.013183,-0.000336,0.0,0.0,0.0,0.0,0.0,0.0,3.0,0.284861,0.351442,0.291107,0.36429,-0.000151,4e-06,0.0,0.004716,-7e-06,-0.0,0.0,0.0,0.0,0.0,0.0,0.0
200000,-0.004763,0.013427,-0.000334,0.0,0.0,0.0,0.0,0.0,0.0,3.0,0.280988,0.353558,0.285542,0.369011,-5.7e-05,3e-06,0.0,0.004668,-7e-06,-0.0,0.0,0.0,0.0,0.0,0.0,0.0
200020,-0.005007,0.013671,-0.000332,0.0,0.0,0.0,0.0,0.0,0.0,3.0,0.280826,0.354379,0.28513,0.368635,3.6e-05,3e-06,-0.0,0.004618,-7e-06,-0.0,0.0,0.0,0.0,0.0,0.0,0.0
200040,-0.005252,0.014038,-0.000329,0.0,0.0,0.0,0.0,0.0,0.0,3.0,0.284781,0.348262,0.291397,0.367134,0.000128,3e-06,-0.0,0.004564,-7e-06,-0.0,0.0,0.0,0.0,0.0,0.0,0.0
200060,-0.005252,0.013915,-0.000452,0.0,0.0,0.0,0.0,0.0,0.0,3.0,0.280419,0.353282,0.290229,0.366307,0.000219,3e-06,-0.0,0.004507,-7e-06,-0.0,0.0,0.0,0.0,0.0,0.0,0.0
200080,-0.00562,0.014037,-0.000571,0.0,0.0,0.0,0.0,0.0,0.0,3.0,0.285529,0.349442,0.291234,0.365616,0.000309,3e-06,-0.0,0.004447,-8e-06,-0.0,0.0,0.0,0.0,0.0,0.0,0.0
200100,-0.005742,0.014037,-0.00057,0.0,0.0,0.0,0.0,0.0,0.0,3.0,0.279458,0.353062,0.288981,0.368082,0.000397,3e-06,-0.0,0.004384,-8e-06,-0.0,0.0,0.0,0.0,0.0,0.0,0.0
200120,-0.005742,0.014281,-0.000569,0.0,0.0,0.0,0.0,0.0,0.0,3.0,0.279441,0.352984,0.287216,0.369429,0.000484,3e-06,-0.0,0.004318,-8e-06,-0.0,0.0,0.0,0.0,0.0,0.0,0.0
200140,-0.005865,0.014647,-0.00069,0.0,0.0,0.0,0.0,0.0,0.0,3.0,0.280855,0.353718,0.285713,0.368831,0.00057,2e-06,-0.0,0.004249,-8e-06,-0.0,0.0,0.0,0.0,0.0,0.0,0.0
200160,-0.005865,0.014647,-0.00069,0.0,0.0,0.0,0.0,0.0,0.0,3.0,0.279708,0.355887,0.284363,0.368508,0.000654,2e-06,-0.0,0.004177,-8e-06,-0.0,0.0,0.0,0.0,0.0,0.0,0.0
200180,-0.005865,0.015013,-0.000689,0.0,0.0,0.0,0.0,0.0,0.0,3.0,0.282645,0.352792,0.285302,0.368757,0.000737,2e-06,-0.0,0.004102,-8e-06,-0.0,0.0,0.0,0.0,0.0,0.0,0.0
200200,-0.005866,0.015257,-0.00081,0.0,0.0,0.0,0.0,0.0,0.0,3.0,0.28696,0.348736,0.290222,0.365996,0.000819,2e-06,-0.0,0.004025,-8e-06,-0.0,0.0,0.0,0.0,0.0,0.0,0.0
200220,-0.005988,0.015379,-0.000809,0.0,0.0,0.0,0.0,0.0,0.0,3.0,0.283148,0.352628,0.284628,0.369035,0.000899,2e-06,-0.0,0.003945,-8e-06,-0.0,0.0,0.0,0.0,0.0,0.0,0.0
200240,-0.005988,0.015379,-0.000809,0.0,0.0,0.0,0.0,0.0,0.0,3.0,0.281197,0.35225,0.286048,0.369743,0.000977,2e-06,-0.0,0.003863,-8e-06,-0.0,0.0,0.0,0.0,0.0,0.0,0.0
200260,-0.006111,0.015378,-0.00093,0.0,0.0,0.0,0.0,0.0,0.0,3.0,0.287236,0.350147,0.290261,0.364437,0.001054,2e-06,-0.0,0.003779,-8e-06,-0.0,0.0,0.0,0.0,0.0,0.0,0.0
200280,-0.006111,0.015378,-0.00093,0.0,0.0,0.0,0.0,0.0,0.0,3.0,0.287606,0.349512,0.290796,0.364378,0.001129,1e-06,-0.0,0.003692,-8e-06,-0.0,0.0,0.0,0.0,0.0,0.0,0.0
200300,-0.006234,0.015622,-0.00105,0.0,0.0,0.0,0.0,0.0,0.0,3.0,0.285466,0.352418,0.285519,0.366974,0.001202,1e-06,-0.0,0.003604,-8e-06,0.0,0.0,0.0,0.0,0.0,0.0,0.0
200320,-0.006234,0.015378,-0.001051,0.0,0.0,0.0,0.0,0.0,0.0,3.0,0.282594,0.352875,0.285485,0.368585,0.001273,1e-06,-0.0,0.003513,-8e-06,0.0,0.0,0.0,0.0,0.0,0.0,0.0
200340,-0.006234,0.015622,-0.00105,0.0,0.0,0.0,0.0,0.0,0.0,3.0,0.282468,0.353193,0.28547,0.368382,0.001343,1e-06,-0.0,0.00342,-8e-06,0.0,0.0,0.0,0.0,0.0,0.0,0.0
200360,-0.006356,0.015866,-0.001048,0.0,0.0,0.0,0.0,0.0,0.0,3.0,0.282493,0.3516,0.285431,0.369891,0.001411,1e-06,-0.0,0.003325,-7e-06,0.0,0.0,0.0,0.0,0.0,0.0,0.0
200380,-0.006235,0.015988,-0.001171,0.0,0.0,0.0,0.0,0.0,0.0,3.0,0.285525,0.347266,0.292694,0.366583,0.001476,1e-06,-0.0,0.003229,-7e-06,0.0,0.0,0.0,0.0,0.0,0.0,0.0
200400,-0.00648,0.016232,-0.001168,0.0,0.0,0.0,0.0,0.0,0.0,3.0,0.289167,0.346645,0.289877,0.366608,0.00154,0.0,-0.0,0.003131,-7e-06,0.0,0.0,0.0,0.0,0.0,0.0,0.0
200420,-0.006602,0.01611,-0.001168,0.0,0.0,0.0,0.0,0.0,0.0,3.0,0.283069,0.35001,0.289987,0.367729,0.001602,0.0,-0.0,0.003032,-7e-06,0.0,0.0,0.0,0.0,0.0,0.0,0.0
200440,-0.006602,0.015987,-0.00129,0.0,0.0,0.0,0.0,0.0,0.0,3.0,0.285736,0.347757,0.291913,0.366549,0.001662,0.0,-0.0,0.002931,-7e-06,0.0,0.0,0.0,0.0,0.0,0.0,0.0
200460,-0.006847,0.016231,-0.001287,0.0,0.0,0.0,0.0,0.0,0.0,3.0,0.278748,0.353407,0.279673,0.374709,0.001734,0.0,-0.0,0.002803,-7e-06,0.0,0.0,0.0,0.0,0.0,0.0,0.0
200480,-0.006847,0.016231,-0.001287,0.0,0.0,0.0,0.0,0.0,0.0,3.0,0.282073,0.350283,0.28796,0.369622,0.001776,-0.0,-0.0,0.002725,-7e-06,0.0,0.0,0.0,0.0,0.0,0.0,0.0
200500,-0.006969,0.016231,-0.001286,0.0,0.0,0.0,0.0,0.0,0.0,3.0,0.28286,0.351656,0.286,0.369184,0.001829,-0.0,-0.0,0.00262,-7e-06,0.0,0.0,0.0,0.0,0.0,0.0,0.0
200520,-0.006848,0.016231,-0.00141,0.0,0.0,0.0,0.0,0.0,0.0,3.0,0.282313,0.351812,0.286536,0.369038,0.001881,-0.0,-0.0,0.002514,-7e-06,0.0,0.0,0.0,0.0,0.0,0.0,0.0
200540,-0.006848,0.016475,-0.001409,0.0,0.0,0.0,0.0,0.0,0.0,3.0,0.287525,0.347972,0.28904,0.367163,0.00193,-1e-06,-0.0,0.002408,-7e-06,0.0,0.0,0.0,0.0,0.0,0.0,0.0
200560,-0.00697,0.016719,-0.001407,0.0,0.0,0.0,0.0,0.0,0.0,3.0,0.284131,0.349606,0.285452,0.370597,0.001978,-1e-06,-0.0,0.0023,-7e-06,0.0,0.0,0.0,0.0,0.0,0.0,0.0
200580,-0.006848,0.016841,-0.001407,0.0,0.0,0.0,0.0,0.0,0.0,3.0,0.282706,0.352059,0.28659,0.368494,0.002023,-1e-06,-0.0,0.002192,-7e-06,0.0,0.0,0.0,0.0,0.0,0.0,0.0
200600,-0.006849,0.016719,-0.00153,0.0,0.0,0.0,0.0,0.0,0.0,3.0,0.282875,0.350591,0.2864,0.369887,0.002066,-1e-06,-0.0,0.002083,-6e-06,0.0,0.0,0.0,0.0,0.0,0.0,0.0
200620,-0.006849,0.016719,-0.00153,0.0,0.0,0.0,0.0,0.0,0.0,3.0,0.288824,0.349069,0.288184,0.365818,0.002107,-1e-06,-0.0,0.001973,-6e-06,0.0,0.0,0.0,0.0,0.0,0.0,0.0
200640,-0.006849,0.016597,-0.00153,0.0,0.0,0.0,0.0,0.0,0.0,3.0,0.286734,0.35014,0.288379,0.366175,0.002145,-1e-06,-0.0,0.001863,-6e-06,0.0,0.0,0.0,0.0,0.0,0.0,0.0
200660,-0.006971,0.016474,-0.00153,0.0,0.0,0.0,0.0,0.0,0.0,3.0,0.28682,0.352249,0.283101,0.367875,0.002182,-1e-06,-0.0,0.001753,-6e-06,0.0,0.0,0.0,0.0,0.0,0.0,0.0
200680,-0.007093,0.016352,-0.001529,0.0,0.0,0.0,0.0,0.0,0.0,3.0,0.28491,0.352292,0.284846,0.367964,0.002216,-1e-06,-0.0,0.001642,-6e-06,0.0,0.0,0.0,0.0,0.0,0.0,0.0
200700,-0.006971,0.016352,-0.00153,0.0,0.0,0.0,0.0,0.0,0.0,3.0,0.283966,0.350066,0.285805,0.370035,0.002248,-2e-06,-0.0,0.001532,-6e-06,0.0,0.0,0.0,0.0,0.0,0.0,0.0
200720,-0.007093,0.016596,-0.001528,0.0,0.0,0.0,0.0,0.0,0.0,3.0,0.284392,0.349157,0.285392,0.370872,0.002278,-2e-06,-0.0,0.001421,-6e-06,0.0,0.0,0.0,0.0,0.0,0.0,0.0
200740,-0.007092,0.016597,-0.001406,0.0,0.0,0.0,0.0,0.0,0.0,3.0,0.283845,0.349992,0.286039,0.370025,0.002305,-2e-06,-0.0,0.00131,-6e-06,0.0,0.0,0.0,0.0,0.0,0.0,0.0
200760,-0.007092,0.016353,-0.001407,0.0,0.0,0.0,0.0,0.0,0.0,3.0,0.284894,0.347826,0.288796,0.36934,0.002331,-2e-06,-0.0,0.001199,-5e-06,0.0,0.0,0.0,0.0,0.0,0.0,0.0
200780,-0.007093,0.016352,-0.001529,0.0,0.0,0.0,0.0,0.0,0.0,3.0,0.281654,0.349794,0.287072,0.370995,0.002354,-2e-06,-0.0,0.001089,-5e-06,0.0,0.0,0.0,0.0,0.0,0.0,0.0
200800,-0.007214,0.016353,-0.001406,0.0,0.0,0.0,0.0,0.0,0.0,3.0,0.282671,0.350001,0.284483,0.371917,0.002375,-2e-06,-0.0,0.000978,-5e-06,0.0,0.0,0.0,0.0,0.0,0.0,0.0
200820,-0.007336,0.016475,-0.001405,0.0,0.0,0.0,0.0,0.0,0.0,3.0,0.282552,0.349614,0.287132,0.370501,0.002394,-2e-06,-0.0,0.000869,-5e-06,0.0,0.0,0.0,0.0,0.0,0.0,0.0
200840,-0.007336,0.016475,-0.001405,0.0,0.0,0.0,0.0,0.0,0.0,3.0,0.284588,0.348685,0.285205,0.371301,0.00241,-2e-06,-0.0,0.000759,-5e-06,0.0,0.0,0.0,0.0,0.0,0.0,0.0
200860,-0.007214,0.016475,-0.001406,0.0,0.0,0.0,0.0,0.0,0.0,3.0,0.27934,0.354552,0.280131,0.372937,0.002425,-2e-06,-0.0,0.00065,-5e-06,0.0,0.0,0.0,0.0,0.0,0.0,0.0
200880,-0.007335,0.016597,-0.001282,0.0,0.0,0.0,0.0,0.0,0.0,3.0,0.285113,0.350564,0.28126,0.371925,0.002437,-2e-06,-0.0,0.000542,-5e-06,0.0,0.0,0.0,0.0,0.0,0.0,0.0
200900,-0.007213,0.016719,-0.001283,0.0,0.0,0.0,0.0,0.0,0.0,3.0,0.285062,0.34909,0.284397,0.37116,0.002447,-3e-06,-0.0,0.000435,-4e-06,0.0,0.0,0.0,0.0,0.0,0.0,0.0
200920,-0.007213,0.016597,-0.001283,0.0,0.0,0.0,0.0,0.0,0.0,3.0,0.284702,0.349894,0.285037,0.370221,0.002455,-3e-06,-0.0,0.000328,-4e-06,0.0,0.0,0.0,0.0,0.0,0.0,0.0
200940,-0.007213,0.016597,-0.001283,0.0,0.0,0.0,0.0,0.0,0.0,3.0,0.285584,0.34889,0.28414,0.371158,0.00246,-3e-06,-0.0,0.000222,-4e-06,0.0,0.0,0.0,0.0,0.0,0.0,0.0
200960,-0.007212,0.016598,-0.001161,0.0,0.0,0.0,0.0,0.0,0.0,3.0,0.28464,0.349912,0.28521,0.370126,0.002464,-3e-06,-0.0,0.000117,-4e-06,0.0,0.0,0.0,0.0,0.0,0.0,0.0
200980,-0.007212,0.016842,-0.00116,0.0,0.0,0.0,0.0,0.0,0.0,3.0,0.2852,0.348931,0.28174,0.37304,0.002466,-3e-06,-0.0,1.4e-05,-4e-06,0.0,0.0,0.0,0.0,0.0,0.0,0.0
201000,-0.007211,0.016842,-0.001038,0.0,0.0,0.0,0.0,0.0,0.0,3.0,0.289684,0.347765,0.284642,0.368936,0.002465,-3e-06,-0.0,-8.9e-05,-4e-06,0.0,0.0,0.0,0.0,0.0,0.0,0.0
201020,-0.007211,0.016598,-0.001039,0.0,0.0,0.0,0.0,0.0,0.0,3.0,0.28376,0.350543,0.283435,0.371389,0.002463,-3e-06,-0.0,-0.000191,-3e-06,0.0,0.0,0.0,0.0,0.0,0.0,0.0
201040,-0.00721,0.016721,-0.000916,0.0,0.0,0.0,0.0,0.0,0.0,3.0,0.279889,0.351759,0.278894,0.375986,0.002458,-3e-06,-0.0,-0.000291,-3e-06,0.0,0.0,0.0,0.0,0.0,0.0,0.0
201060,-0.00721,0.016721,-0.000916,0.0,0.0,0.0,0.0,0.0,0.0,3.0,0.283275,0.348925,0.284023,0.37281,0.002452,-3e-06,-0.0,-0.00039,-3e-06,0.0,0.0,0.0,0.0,0.0,0.0,0.0
201080,-0.007209,0.016721,-0.000794,0.0,0.0,0.0,0.0,0.0,0.0,3.0,0.279138,0.352038,0.279501,0.375827,0.002443,-3e-06,-0.0,-0.000487,-3e-06,0.0,0.0,0.0,0.0,0.0,0.0,0.0
201100,-0.007209,0.016721,-0.000794,0.0,0.0,0.0,0.0,0.0,0.0,3.0,0.284052,0.347881,0.284274,0.373056,0.002433,-3e-06,-0.0,-0.000583,-3e-06,0.0,0.0,0.0,0.0,0.0,0.0,0.0
201120,-0.007331,0.016721,-0.000793,0.0,0.0,0.0,0.0,0.0,0.0,3.0,0.283326,0.347521,0.285667,0.372918,0.00242,-3e-06,-0.0,-0.000678,-3e-06,0.0,0.0,0.0,0.0,0.0,0.0,0.0
201140,-0.007208,0.016599,-0.000673,0.0,0.0,0.0,0.0,0.0,0.0,3.0,0.277329,0.351467,0.282613,0.375455,0.002406,-3e-06,-0.0,-0.000771,-2e-06,0.0,0.0,0.0,0.0,0.0,0.0,0.0
201160,-0.007086,0.016721,-0.000673,0.0,0.0,0.0,0.0,0.0,0.0,3.0,0.283296,0.349253,0.285001,0.371816,0.00239,-3e-06,-0.0,-0.000862,-2e-06,0.0,0.0,0.0,0.0,0.0,0.0,0.0
201180,-0.007086,0.016599,-0.000674,0.0,0.0,0.0,0.0,0.0,0.0,3.0,0.284146,0.349207,0.284673,0.371498,0.002372,-4e-06,0.0,-0.000952,-2e-06,0.0,0.0,0.0,0.0,0.0,0.0,0.0
201200,-0.007208,0.016599,-0.000673,0.0,0.0,0.0,0.0,0.0,0.0,3.0,0.285985,0.347142,0.282734,0.373449,0.002352,-4e-06,0.0,-0.00104,-2e-06,0.0,0.0,0.0,0.0,0.0,0.0,0.0
201220,-0.007207,0.016356,-0.000552,0.0,0.0,0.0,0.0,0.0,0.0,3.0,0.283542,0.34858,0.285375,0.372004,0.002331,-4e-06,0.0,-0.001126,-2e-06,0.0,0.0,0.0,0.0,0.0,0.0,0.0
201240,-0.007207,0.016356,-0.000552,0.0,0.0,0.0,0.0,0.0,0.0,3.0,0.28473,0.35009,0.281296,0.372605,0.002308,-4e-06,0.0,-0.00121,-2e-06,0.0,0.0,0.0,0.0,0.0,0.0,0.0
201260,-0.007329,0.0166,-0.00055,0.0,0.0,0.0,0.0,0.0,0.0,3.0,0.288298,0.347177,0.279869,0.373744,0.002283,-4e-06,0.0,-0.001292,-1e-06,0.0,0.0,0.0,0.0,0.0,0.0,0.0
201280,-0.00745,0.016478,-0.000427,0.0,0.0,0.0,0.0,0.0,0.0,3.0,0.279663,0.351205,0.278462,0.376929,0.002256,-4e-06,0.0,-0.001373,-1e-06,0.0,0.0,0.0,0.0,0.0,0.0,0.0
201300,-0.007328,0.016478,-0.000428,0.0,0.0,0.0,0.0,0.0,0.0,3.0,0.284069,0.347555,0.283677,0.373752,0.002228,-4e-06,0.0,-0.001451,-1e-06,0.0,0.0,0.0,0.0,0.0,0.0,0.0
201320,-0.007327,0.016479,-0.000306,0.0,0.0,0.0,0.0,0.0,0.0,3.0,0.285896,0.347649,0.28238,0.373291,0.002199,-4e-06,0.0,-0.001527,-1e-06,0.0,0.0,0.0,0.0,0.0,0.0,0.0
201340,-0.007327,0.016479,-0.000306,0.0,0.0,0.0,0.0,0.0,0.0,3.0,0.281102,0.348898,0.284603,0.373918,0.002168,-4e-06,0.0,-0.001601,-1e-06,0.0,0.0,0.0,0.0,0.0,0.0,0.0
201360,-0.007205,0.016234,-0.000308,0.0,0.0,0.0,0.0,0.0,0.0,3.0,0.281693,0.347279,0.286395,0.373749,0.002135,-4e-06,0.0,-0.001673,-1e-06,0.0,0.0,0.0,0.0,0.0,0.0,0.0
201380,-0.007448,0.016235,-0.000184,0.0,0.0,0.0,0.0,0.0,0.0,3.0,0.279827,0.350273,0.277774,0.37812,0.002101,-4e-06,0.0,-0.001743,-0.0,0.0,0.0,0.0,0.0,0.0,0.0,0.0
201400,-0.007692,0.016113,-0.000182,0.0,0.0,0.0,0.0,0.0,0.0,3.0,0.282512,0.348894,0.28486,0.372783,0.002066,-4e-06,0.0,-0.001811,-0.0,0.0,0.0,0.0,0.0,0.0,0.0,0.0
201420,-0.00757,0.016235,-0.000183,0.0,0.0,0.0,0.0,0.0,0.0,3.0,0.277214,0.350118,0.280205,0.378377,0.002029,-4e-06,0.0,-0.001876,-0.0,0.0,0.0,0.0,0.0,0.0,0.0,0.0
201440,-0.007447,0.016235,-6.2e-05,0.0,0.0,0.0,0.0,0.0,0.0,3.0,0.278732,0.352157,0.279405,0.376051,0.001991,-4e-06,0.0,-0.001939,0.0,0.0,0.0,0.0,0.0,0.0,0.0,0.0
201460,-0.007447,0.016357,-6.1e-05,0.0,0.0,0.0,0.0,0.0,0.0,3.0,0.28378,0.3481,0.283303,0.373712,0.001952,-4e-06,0.0,-0.002,0.0,0.0,0.0,0.0,0.0,0.0,0.0,0.0
201480,-0.007324,0.016358,6e-05,0.0,0.0,0.0,0.0,0.0,0.0,3.0,0.281209,0.348053,0.281036,0.377037,0.001911,-4e-06,0.0,-0.002059,0.0,0.0,0.0,0.0,0.0,0.0,0.0,0.0
201500,-0.007202,0.016358,5.9e-05,0.0,0.0,0.0,0.0,0.0,0.0,3.0,0.283407,0.347764,0.283697,0.374004,0.00187,-4e-06,0.0,-0.002115,0.0,0.0,0.0,0.0,0.0,0.0,0.0,0.0
201520,-0.00708,0.016236,5.7e-05,0.0,0.0,0.0,0.0,0.0,0.0,3.0,0.285328,0.349065,0.282017,0.372641,0.001827,-4e-06,0.0,-0.002168,1e-06,0.0,0.0,0.0,0.0,0.0,0.0,0.0
201540,-0.007079,0.016114,0.000179,0.0,0.0,0.0,0.0,0.0,0.0,3.0,0.28543,0.348417,0.28191,0.373235,0.001783,-4e-06,0.0,-0.00222,1e-06,0.0,0.0,0.0,0.0,0.0,0.0,0.0
201560,-0.007079,0.015992,0.000179,0.0,0.0,0.0,0.0,0.0,0.0,3.0,0.284071,0.349241,0.281779,0.373511,0.001738,-4e-06,0.0,-0.002269,1e-06,-0.0,0.0,0.0,0.0,0.0,0.0,0.0
201580,-0.007201,0.015992,0.00018,0.0,0.0,0.0,0.0,0.0,0.0,3.0,0.28662,0.347624,0.280243,0.37426,0.001693,-4e-06,0.0,-0.002316,1e-06,-0.0,0.0,0.0,0.0,0.0,0.0,0.0
201600,-0.007566,0.016115,0.000305,0.0,0.0,0.0,0.0,0.0,0.0,3.0,0.285948,0.347452,0.282357,0.37345,0.001646,-4e-06,0.0,-0.00236,1e-06,-0.0,0.0,0.0,0.0,0.0,0.0,0.0
201620,-0.007444,0.016115,0.000304,0.0,0.0,0.0,0.0,0.0,0.0,3.0,0.282874,0.348897,0.282823,0.373935,0.001599,-4e-06,0.0,-0.002401,1e-06,-0.0,0.0,0.0,0.0,0.0,0.0,0.0
201640,-0.007443,0.015993,0.000426,0.0,0.0,0.0,0.0,0.0,0.0,3.0,0.283337,0.347084,0.283431,0.374851,0.00155,-4e-06,0.0,-0.002441,2e-06,-0.0,0.0,0.0,0.0,0.0,0.0,0.0
201660,-0.007565,0.015993,0.000427,0.0,0.0,0.0,0.0,0.0,0.0,3.0,0.281736,0.349196,0.283636,0.373881,0.001501,-4e-06,0.0,-0.002477,2e-06,-0.0,0.0,0.0,0.0,0.0,0.0,0.0
201680,-0.007443,0.015993,0.000426,0.0,0.0,0.0,0.0,0.0,0.0,3.0,0.282967,0.348464,0.283552,0.373767,0.001451,-4e-06,0.0,-0.002512,2e-06,-0.0,0.0,0.0,0.0,0.0,0.0,0.0
201700,-0.007321,0.015993,0.000425,0.0,0.0,0.0,0.0,0.0,0.0,3.0,0.283745,0.349557,0.282835,0.372724,0.001401,-4e-06,0.0,-0.002544,2e-06,-0.0,0.0,0.0,0.0,0.0,0.0,0.0
201720,-0.00732,0.016115,0.000547,0.0,0.0,0.0,0.0,0.0,0.0,3.0,0.278046,0.351913,0.277975,0.377676,0.00135,-4e-06,0.0,-0.002573,2e-06,-0.0,0.0,0.0,0.0,0.0,0.0,0.0
201740,-0.007198,0.016115,0.000546,0.0,0.0,0.0,0.0,0.0,0.0,3.0,0.283087,0.347528,0.282512,0.375246,0.001298,-3e-06,0.0,-0.0026,2e-06,-0.0,0.0,0.0,0.0,0.0,0.0,0.0
201760,-0.007197,0.016116,0.000668,0.0,0.0,0.0,0.0,0.0,0.0,3.0,0.278822,0.351259,0.276778,0.378544,0.001246,-3e-06,0.0,-0.002625,2e-06,-0.0,0.0,0.0,0.0,0.0,0.0,0.0
201780,-0.007441,0.01636,0.000671,0.0,0.0,0.0,0.0,0.0,0.0,3.0,0.286189,0.348513,0.278906,0.37465,0.001193,-3e-06,0.0,-0.002647,2e-06,-0.0,0.0,0.0,0.0,0.0,0.0,0.0
201800,-0.007441,0.016238,0.000671,0.0,0.0,0.0,0.0,0.0,0.0,3.0,0.286273,0.347578,0.279397,0.375112,0.00114,-3e-06,0.0,-0.002666,3e-06,-0.0,0.0,0.0,0.0,0.0,0.0,0.0
201820,-0.00744,0.016238,0.000793,0.0,0.0,0.0,0.0,0.0,0.0,3.0,0.284092,0.346058,0.281711,0.376425,0.001087,-3e-06,0.0,-0.002684,3e-06,-0.0,0.0,0.0,0.0,0.0,0.0,0.0
201840,-0.00744,0.016238,0.000793,0.0,0.0,0.0,0.0,0.0,0.0,3.0,0.28303,0.347837,0.279939,0.376738,0.001033,-3e-06,0.0,-0.002698,3e-06,-0.0,0.0,0.0,0.0,0.0,0.0,0.0
201860,-0.007195,0.016117,0.000913,0.0,0.0,0.0,0.0,0.0,0.0,3.0,0.281552,0.345847,0.283883,0.376864,0.000979,-3e-06,0.0,-0.002711,3e-06,-0.0,0.0,0.0,0.0,0.0,0.0,0.0
201880,-0.007073,0.016117,0.000912,0.0,0.0,0.0,0.0,0.0,0.0,3.0,0.281351,0.348156,0.282695,0.37573,0.000924,-3e-06,0.0,-0.002721,3e-06,-0.0,0.0,0.0,0.0,0.0,0.0,0.0
201900,-0.007073,0.015995,0.000911,0.0,0.0,0.0,0.0,0.0,0.0,3.0,0.281948,0.346429,0.283236,0.376515,0.00087,-3e-06,0.0,-0.002728,3e-06,-0.0,0.0,0.0,0.0,0.0,0.0,0.0
201920,-0.007316,0.015995,0.001035,0.0,0.0,0.0,0.0,0.0,0.0,3.0,0.277806,0.350198,0.27815,0.379273,0.000815,-3e-06,0.0,-0.002734,3e-06,-0.0,0.0,0.0,0.0,0.0,0.0,0.0
201940,-0.007316,0.016117,0.001036,0.0,0.0,0.0,0.0,0.0,0.0,3.0,0.284367,0.347789,0.279884,0.375908,0.000761,-3e-06,0.0,-0.002737,3e-06,-0.0,0.0,0.0,0.0,0.0,0.0,0.0
201960,-0.007438,0.016117,0.001037,0.0,0.0,0.0,0.0,0.0,0.0,3.0,0.285241,0.346059,0.279409,0.37718,0.000706,-3e-06,0.0,-0.002737,3e-06,-0.0,0.0,0.0,0.0,0.0,0.0,0.0
201980,-0.007559,0.016118,0.00116,0.0,0.0,0.0,0.0,0.0,0.0,3.0,0.283409,0.34875,0.275797,0.378386,0.000651,-3e-06,0.0,-0.002736,3e-06,-0.0,0.0,0.0,0.0,0.0,0.0,0.0
202000,-0.007558,0.01624,0.001282,0.0,0.0,0.0,0.0,0.0,0.0,3.0,0.285238,0.346613,0.278774,0.377108,0.000597,-3e-06,0.0,-0.002732,3e-06,-0.0,0.0,0.0,0.0,0.0,0.0,0.0
202020,-0.007436,0.016118,0.001281,0.0,0.0,0.0,0.0,0.0,0.0,3.0,0.279861,0.350177,0.276565,0.378975,0.000542,-3e-06,0.0,-0.002726,4e-06,-0.0,0.0,0.0,0.0,0.0,0.0,0.0
202040,-0.007314,0.016118,0.00128,0.0,0.0,0.0,0.0,0.0,0.0,3.0,0.282492,0.347803,0.279888,0.377167,0.000487,-3e-06,0.0,-0.002717,4e-06,-0.0,0.0,0.0,0.0,0.0,0.0,0.0
202060,-0.007192,0.015996,0.001278,0.0,0.0,0.0,0.0,0.0,0.0,3.0,0.281697,0.347134,0.282371,0.376638,0.000433,-3e-06,0.0,-0.002707,4e-06,-0.0,0.0,0.0,0.0,0.0,0.0,0.0
202080,-0.007069,0.015996,0.0014,0.0,0.0,0.0,0.0,0.0,0.0,3.0,0.282968,0.34623,0.281076,0.377461,0.000379,-2e-06,0.0,-0.002694,4e-06,-0.0,0.0,0.0,0.0,0.0,0.0,0.0
202100,-0.007191,0.016119,0.001401,0.0,0.0,0.0,0.0,0.0,0.0,3.0,0.280286,0.34679,0.280945,0.378845,0.000325,-2e-06,0.0,-0.002679,4e-06,-0.0,0.0,0.0,0.0,0.0,0.0,0.0
202120,-0.007313,0.016119,0.001402,0.0,0.0,0.0,0.0,0.0,0.0,3.0,0.282092,0.346158,0.281472,0.377851,0.000272,-2e-06,0.0,-0.002663,4e-06,-0.0,0.0,0.0,0.0,0.0,0.0,0.0
202140,-0.007434,0.016119,0.001525,0.0,0.0,0.0,0.0,0.0,0.0,3.0,0.280719,0.348597,0.277482,0.379228,0.000219,-2e-06,0.0,-0.002644,4e-06,-0.0,0.0,0.0,0.0,0.0,0.0,0.0
202160,-0.007679,0.016119,0.001527,0.0,0.0,0.0,0.0,0.0,0.0,3.0,0.284613,0.347843,0.278287,0.376753,0.000166,-2e-06,0.0,-0.002623,4e-06,-0.0,0.0,0.0,0.0,0.0,0.0,0.0
202180,-0.007556,0.016119,0.001526,0.0,0.0,0.0,0.0,0.0,0.0,3.0,0.283351,0.347554,0.279898,0.376802,0.000114,-2e-06,0.0,-0.0026,4e-06,-0.0,0.0,0.0,0.0,0.0,0.0,0.0
202200,-0.007557,0.015997,0.001526,0.0,0.0,0.0,0.0,0.0,0.0,3.0,0.282852,0.347279,0.280391,0.377058,6.2e-05,-2e-06,0.0,-0.002575,4e-06,-0.0,0.0,0.0,0.0,0.0,0.0,0.0
202220,-0.007189,0.016119,0.001645,0.0,0.0,0.0,0.0,0.0,0.0,3.0,0.278296,0.350572,0.279617,0.377646,1.1e-05,-2e-06,-0.0,-0.002549,4e-06,-0.0,0.0,0.0,0.0,0.0,0.0,0.0
202240,-0.007067,0.015875,0.001643,0.0,0.0,0.0,0.0,0.0,0.0,3.0,0.284346,0.350079,0.278152,0.374997,-4e-05,-2e-06,-0.0,-0.00252,4e-06,-0.0,0.0,0.0,0.0,0.0,0.0,0.0
202260,-0.00719,0.015753,0.001644,0.0,0.0,0.0,0.0,0.0,0.0,3.0,0.285549,0.347174,0.277021,0.377548,-9e-05,-2e-06,-0.0,-0.00249,4e-06,-0.0,0.0,0.0,0.0,0.0,0.0,0.0
202280,-0.00719,0.015875,0.001644,0.0,0.0,0.0,0.0,0.0,0.0,3.0,0.283433,0.346744,0.279262,0.377896,-0.00014,-2e-06,-0.0,-0.002458,4e-06,-0.0,0.0,0.0,0.0,0.0,0.0,0.0
202300,-0.007433,0.015876,0.001768,0.0,0.0,0.0,0.0,0.0,0.0,3.0,0.284665,0.347026,0.277891,0.377712,-0.000189,-2e-06,-0.0,-0.002424,4e-06,-0.0,0.0,0.0,0.0,0.0,0.0,0.0
202320,-0.007555,0.015754,0.001769,0.0,0.0,0.0,0.0,0.0,0.0,3.0,0.282514,0.347552,0.278535,0.378273,-0.000237,-1e-06,-0.0,-0.002389,4e-06,-0.0,0.0,0.0,0.0,0.0,0.0,0.0
202340,-0.007677,0.015754,0.00177,0.0,0.0,0.0,0.0,0.0,0.0,3.0,0.283734,0.34727,0.278418,0.377779,-0.000284,-1e-06,-0.0,-0.002352,4e-06,-0.0,0.0,0.0,0.0,0.0,0.0,0.0
202360,-0.0078,0.015632,0.001648,0.0,0.0,0.0,0.0,0.0,0.0,3.0,0.284067,0.346178,0.278047,0.378772,-0.000331,-1e-06,-0.0,-0.002314,4e-06,-0.0,0.0,0.0,0.0,0.0,0.0,0.0
202380,-0.007678,0.015631,0.001647,0.0,0.0,0.0,0.0,0.0,0.0,3.0,0.282005,0.349721,0.277629,0.37726,-0.000377,-1e-06,-0.0,-0.002274,4e-06,-0.0,0.0,0.0,0.0,0.0,0.0,0.0
202400,-0.007556,0.015509,0.001646,0.0,0.0,0.0,0.0,0.0,0.0,3.0,0.287712,0.345855,0.280781,0.374735,-0.000422,-1e-06,-0.0,-0.002232,4e-06,-0.0,0.0,0.0,0.0,0.0,0.0,0.0
202420,-0.007434,0.015387,0.001644,0.0,0.0,0.0,0.0,0.0,0.0,3.0,0.287865,0.345391,0.279789,0.375712,-0.000467,-1e-06,-0.0,-0.002189,4e-06,-0.0,0.0,0.0,0.0,0.0,0.0,0.0
202440,-0.007434,0.015387,0.001644,0.0,0.0,0.0,0.0,0.0,0.0,3.0,0.287645,0.346218,0.279951,0.375013,-0.00051,-1e-06,-0.0,-0.002145,4e-06,-0.0,0.0,0.0,0.0,0.0,0.0,0.0
202460,-0.007556,0.015509,0.001646,0.0,0.0,0.0,0.0,0.0,0.0,3.0,0.286266,0.347817,0.276078,0.377094,-0.000553,-1e-06,-0.0,-0.0021,4e-06,-0.0,0.0,0.0,0.0,0.0,0.0,0.0
202480,-0.007679,0.015265,0.001524,0.0,0.0,0.0,0.0,0.0,0.0,3.0,0.291508,0.343567,0.280795,0.374098,-0.000594,-1e-06,-0.0,-0.002053,4e-06,-0.0,0.0,0.0,0.0,0.0,0.0,0.0
202500,-0.007801,0.015509,0.001526,0.0,0.0,0.0,0.0,0.0,0.0,3.0,0.286269,0.346635,0.276541,0.37785,-0.000635,-1e-06,-0.0,-0.002005,4e-06,0.0,0.0,0.0,0.0,0.0,0.0,0.0
202520,-0.007923,0.015387,0.001526,0.0,0.0,0.0,0.0,0.0,0.0,3.0,0.283585,0.346703,0.278773,0.378153,-0.000675,-1e-06,-0.0,-0.001956,4e-06,0.0,0.0,0.0,0.0,0.0,0.0,0.0
202540,-0.007924,0.015021,0.001525,0.0,0.0,0.0,0.0,0.0,0.0,3.0,0.279967,0.350308,0.272889,0.381147,-0.000714,-1e-06,-0.0,-0.001906,4e-06,0.0,0.0,0.0,0.0,0.0,0.0,0.0
202560,-0.008046,0.015021,0.001526,0.0,0.0,0.0,0.0,0.0,0.0,3.0,0.2793,0.349194,0.272916,0.382559,-0.000751,-0.0,-0.0,-0.001854,4e-06,0.0,0.0,0.0,0.0,0.0,0.0,0.0
202580,-0.008168,0.014899,0.001526,0.0,0.0,0.0,0.0,0.0,0.0,3.0,0.27796,0.350079,0.274292,0.381771,-0.000788,-0.0,-0.0,-0.001802,4e-06,0.0,0.0,0.0,0.0,0.0,0.0,0.0
202600,-0.007925,0.014898,0.001402,0.0,0.0,0.0,0.0,0.0,0.0,3.0,0.283396,0.346224,0.279428,0.378274,-0.000824,-0.0,-0.0,-0.001749,4e-06,0.0,0.0,0.0,0.0,0.0,0.0,0.0
202620,-0.008047,0.01502,0.001281,0.0,0.0,0.0,0.0,0.0,0.0,3.0,0.284727,0.34485,0.278866,0.378962,-0.000858,-0.0,-0.0,-0.001695,4e-06,0.0,0.0,0.0,0.0,0.0,0.0,0.0
202640,-0.008048,0.014898,0.001281,0.0,0.0,0.0,0.0,0.0,0.0,3.0,0.281751,0.349085,0.272716,0.38117,-0.000892,-0.0,-0.0,-0.00164,4e-06,0.0,0.0,0.0,0.0,0.0,0.0,0.0
202660,-0.008048,0.014776,0.00128,0.0,0.0,0.0,0.0,0.0,0.0,3.0,0.285711,0.345525,0.277481,0.378604,-0.000924,-0.0,-0.0,-0.001584,4e-06,0.0,0.0,0.0,0.0,0.0,0.0,0.0
202680,-0.008293,0.014898,0.001161,0.0,0.0,0.0,0.0,0.0,0.0,3.0,0.286934,0.3456,0.275301,0.379119,-0.000955,0.0,-0.0,-0.001528,4e-06,0.0,0.0,0.0,0.0,0.0,0.0,0.0
202700,-0.008171,0.014653,0.001159,0.0,0.0,0.0,0.0,0.0,0.0,3.0,0.28784,0.346187,0.277234,0.376712,-0.000985,0.0,-0.0,-0.001471,4e-06,0.0,0.0,0.0,0.0,0.0,0.0,0.0
202720,-0.008416,0.014531,0.001038,0.0,0.0,0.0,0.0,0.0,0.0,3.0,0.285321,0.346155,0.277419,0.378352,-0.001014,0.0,-0.0,-0.001413,4e-06,0.0,0.0,0.0,0.0,0.0,0.0,0.0
202740,-0.008539,0.014408,0.000916,0.0,0.0,0.0,0.0,0.0,0.0,3.0,0.285983,0.345067,0.279443,0.377533,-0.001042,0.0,-0.0,-0.001355,4e-06,0.0,0.0,0.0,0.0,0.0,0.0,0.0
202760,-0.008662,0.014042,0.000793,0.0,0.0,0.0,0.0,0.0,0.0,3.0,0.287772,0.345449,0.277925,0.376963,-0.001069,0.0,-0.0,-0.001296,4e-06,0.0,0.0,0.0,0.0,0.0,0.0,0.0
202780,-0.009028,0.014042,0.000796,0.0,0.0,0.0,0.0,0.0,0.0,3.0,0.28611,0.344994,0.279983,0.377151,-0.001094,0.0,-0.0,-0.001237,4e-06,0.0,0.0,0.0,0.0,0.0,0.0,0.0
202800,-0.009029,0.013797,0.000673,0.0,0.0,0.0,0.0,0.0,0.0,3.0,0.28484,0.347456,0.280074,0.375756,-0.001119,0.0,-0.0,-0.001178,4e-06,0.0,0.0,0.0,0.0,0.0,0.0,0.0
202820,-0.00903,0.013674,0.00055,0.0,0.0,0.0,0.0,0.0,0.0,3.0,0.288627,0.346432,0.277454,0.375799,-0.001142,1e-06,-0.0,-0.001118,4e-06,0.0,0.0,0.0,0.0,0.0,0.0,0.0
202840,-0.009152,0.013552,0.00055,0.0,0.0,0.0,0.0,0.0,0.0,3.0,0.288351,0.344374,0.278032,0.377446,-0.001164,1e-06,-0.0,-0.001058,3e-06,0.0,0.0,0.0,0.0,0.0,0.0,0.0
202860,-0.009153,0.01343,0.000428,0.0,0.0,0.0,0.0,0.0,0.0,3.0,0.289991,0.343506,0.279157,0.376325,-0.001184,1e-06,-0.0,-0.000997,3e-06,0.0,0.0,0.0,0.0,0.0,0.0,0.0
202880,-0.009154,0.013307,0.000305,0.0,0.0,0.0,0.0,0.0,0.0,3.0,0.293364,0.341778,0.281134,0.374132,-0.001204,1e-06,-0.0,-0.000937,3e-06,0.0,0.0,0.0,0.0,0.0,0.0,0.0
202900,-0.009277,0.013062,0.000183,0.0,0.0,0.0,0.0,0.0,0.0,3.0,0.29249,0.341532,0.282699,0.373914,-0.001222,1e-06,-0.0,-0.000876,3e-06,0.0,0.0,0.0,0.0,0.0,0.0,0.0
202920,-0.009399,0.012818,0.000182,0.0,0.0,0.0,0.0,0.0,0.0,3.0,0.294572,0.342479,0.280741,0.372901,-0.001239,1e-06,-0.0,-0.000815,3e-06,0.0,0.0,0.0,0.0,0.0,0.0,0.0
202940,-0.009522,0.012696,6e-05,0.0,0.0,0.0,0.0,0.0,0.0,3.0,0.289413,0.344597,0.278533,0.376176,-0.001255,1e-06,-0.0,-0.000755,3e-06,0.0,0.0,0.0,0.0,0.0,0.0,0.0
202960,-0.009767,0.012695,-6e-05,0.0,0.0,0.0,0.0,0.0,0.0,3.0,0.290957,0.343478,0.279255,0.375603,-0.00127,1e-06,-0.0,-0.000694,3e-06,0.0,0.0,0.0,0.0,0.0,0.0,0.0
202980,-0.009767,0.01245,-0.000183,0.0,0.0,0.0,0.0,0.0,0.0,3.0,0.28978,0.342225,0.280919,0.376429,-0.001283,1e-06,-0.0,-0.000633,3e-06,0.0,0.0,0.0,0.0,0.0,0.0,0.0
203000,-0.009767,0.012328,-0.000184,0.0,0.0,0.0,0.0,0.0,0.0,3.0,0.285945,0.343886,0.279827,0.378349,-0.001295,1e-06,-0.0,-0.000573,3e-06,0.0,0.0,0.0,0.0,0.0,0.0,0.0
203020,-0.009768,0.012328,-0.000306,0.0,0.0,0.0,0.0,0.0,0.0,3.0,0.290243,0.342032,0.285621,0.37306,-0.001306,1e-06,-0.0,-0.000512,3e-06,0.0,0.0,0.0,0.0,0.0,0.0,0.0
203040,-0.00989,0.012206,-0.000306,0.0,0.0,0.0,0.0,0.0,0.0,3.0,0.287339,0.344049,0.278957,0.377825,-0.001316,1e-06,-0.0,-0.000452,3e-06,0.0,0.0,0.0,0.0,0.0,0.0,0.0
203060,-0.00989,0.012083,-0.000307,0.0,0.0,0.0,0.0,0.0,0.0,3.0,0.287241,0.34586,0.278519,0.376571,-0.001325,1e-06,-0.0,-0.000392,3e-06,0.0,0.0,0.0,0.0,0.0,0.0,0.0
203080,-0.009891,0.012083,-0.000429,0.0,0.0,0.0,0.0,0.0,0.0,3.0,0.293194,0.341116,0.282716,0.373765,-0.001332,1e-06,-0.0,-0.000333,3e-06,0.0,0.0,0.0,0.0,0.0,0.0,0.0
203100,-0.009891,0.011961,-0.000429,0.0,0.0,0.0,0.0,0.0,0.0,3.0,0.29251,0.344278,0.278978,0.373968,-0.001338,1e-06,-0.0,-0.000274,3e-06,0.0,0.0,0.0,0.0,0.0,0.0,0.0
203120,-0.009891,0.011839,-0.00043,0.0,0.0,0.0,0.0,0.0,0.0,3.0,0.2923,0.343614,0.278911,0.374757,-0.001343,1e-06,-0.0,-0.000215,2e-06,0.0,0.0,0.0,0.0,0.0,0.0,0.0
203140,-0.010013,0.011839,-0.000429,0.0,0.0,0.0,0.0,0.0,0.0,3.0,0.291667,0.344801,0.274262,0.377206,-0.001347,2e-06,-0.0,-0.000156,2e-06,0.0,0.0,0.0,0.0,0.0,0.0,0.0
203160,-0.010136,0.011594,-0.000552,0.0,0.0,0.0,0.0,0.0,0.0,3.0,0.29664,0.34226,0.279318,0.372548,-0.00135,2e-06,-0.0,-9.9e-05,2e-06,0.0,0.0,0.0,0.0,0.0,0.0,0.0
203180,-0.010136,0.011594,-0.000552,0.0,0.0,0.0,0.0,0.0,0.0,3.0,0.290924,0.344596,0.275744,0.37695,-0.001352,2e-06,-0.0,-4.1e-05,2e-06,0.0,0.0,0.0,0.0,0.0,0.0,0.0
203200,-0.010258,0.011472,-0.000552,0.0,0.0,0.0,0.0,0.0,0.0,3.0,0.289785,0.345006,0.276414,0.376947,-0.001352,2e-06,-0.0,1.5e-05,2e-06,0.0,0.0,0.0,0.0,0.0,0.0,0.0
203220,-0.010258,0.011228,-0.000553,0.0,0.0,0.0,0.0,0.0,0.0,3.0,0.287386,0.344648,0.279004,0.377229,-0.001351,2e-06,-0.0,7.1e-05,2e-06,0.0,0.0,0.0,0.0,0.0,0.0,0.0
203240,-0.010502,0.011227,-0.000674,0.0,0.0,0.0,0.0,0.0,0.0,3.0,0.288192,0.344117,0.27813,0.377719,-0.001349,2e-06,-0.0,0.000127,2e-06,0.0,0.0,0.0,0.0,0.0,0.0,0.0
203260,-0.010502,0.011105,-0.000674,0.0,0.0,0.0,0.0,0.0,0.0,3.0,0.284163,0.345696,0.273112,0.382309,-0.001346,2e-06,-0.0,0.000181,2e-06,0.0,0.0,0.0,0.0,0.0,0.0,0.0
203280,-0.010502,0.011105,-0.000674,0.0,0.0,0.0,0.0,0.0,0.0,3.0,0.288069,0.343848,0.279342,0.377242,-0.001342,2e-06,-0.0,0.000235,2e-06,0.0,0.0,0.0,0.0,0.0,0.0,0.0
203300,-0.010624,0.010983,-0.000674,0.0,0.0,0.0,0.0,0.0,0.0,3.0,0.291019,0.34424,0.275437,0.377398,-0.001337,2e-06,-0.0,0.000288,2e-06,0.0,0.0,0.0,0.0,0.0,0.0,0.0
203320,-0.010747,0.010738,-0.000797,0.0,0.0,0.0,0.0,0.0,0.0,3.0,0.290501,0.34539,0.274689,0.377227,-0.001331,2e-06,-0.0,0.000341,2e-06,0.0,0.0,0.0,0.0,0.0,0.0,0.0
203340,-0.010747,0.010494,-0.000798,0.0,0.0,0.0,0.0,0.0,0.0,3.0,0.285757,0.348866,0.273199,0.378362,-0.001324,2e-06,-0.0,0.000392,1e-06,0.0,0.0,0.0,0.0,0.0,0.0,0.0
203360,-0.010869,0.010494,-0.000798,0.0,0.0,0.0,0.0,0.0,0.0,3.0,0.292566,0.343449,0.27485,0.377387,-0.001316,2e-06,-0.0,0.000443,1e-06,0.0,0.0,0.0,0.0,0.0,0.0,0.0
203380,-0.011113,0.010249,-0.000798,0.0,0.0,0.0,0.0,0.0,0.0,3.0,0.290586,0.345592,0.276399,0.375871,-0.001306,2e-06,0.0,0.000493,1e-06,0.0,0.0,0.0,0.0,0.0,0.0,0.0
203400,-0.011113,0.010249,-0.000798,0.0,0.0,0.0,0.0,0.0,0.0,3.0,0.290524,0.342999,0.276337,0.378255,-0.001296,2e-06,0.0,0.000541,1e-06,0.0,0.0,0.0,0.0,0.0,0.0,0.0
203420,-0.011112,0.01025,-0.000676,0.0,0.0,0.0,0.0,0.0,0.0,3.0,0.290157,0.342958,0.278114,0.377385,-0.001285,2e-06,0.0,0.000589,1e-06,0.0,0.0,0.0,0.0,0.0,0.0,0.0
203440,-0.011234,0.010128,-0.000676,0.0,0.0,0.0,0.0,0.0,0.0,3.0,0.291217,0.342098,0.279699,0.376345,-0.001273,2e-06,0.0,0.000636,1e-06,0.0,0.0,0.0,0.0,0.0,0.0,0.0
203460,-0.011234,0.010128,-0.000676,0.0,0.0,0.0,0.0,0.0,0.0,3.0,0.289399,0.34354,0.276309,0.378583,-0.00126,2e-06,0.0,0.000682,1e-06,0.0,0.0,0.0,0.0,0.0,0.0,0.0
203480,-0.011234,0.010128,-0.000676,0.0,0.0,0.0,0.0,0.0,0.0,3.0,0.289539,0.342413,0.277156,0.378923,-0.001246,2e-06,0.0,0.000726,1e-06,0.0,0.0,0.0,0.0,0.0,0.0,0.0
203500,-0.011112,0.010007,-0.000555,0.0,0.0,0.0,0.0,0.0,0.0,3.0,0.290925,0.344388,0.275804,0.377094,-0.001231,2e-06,0.0,0.00077,1e-06,0.0,0.0,0.0,0.0,0.0,0.0,0.0
203520,-0.011112,0.009885,-0.000555,0.0,0.0,0.0,0.0,0.0,0.0,3.0,0.289925,0.344895,0.273957,0.378542,-0.001215,2e-06,0.0,0.000812,1e-06,0.0,0.0,0.0,0.0,0.0,0.0,0.0
203540,-0.011112,0.009885,-0.000555,0.0,0.0,0.0,0.0,0.0,0.0,3.0,0.291828,0.34358,0.274353,0.378114,-0.001199,2e-06,0.0,0.000854,0.0,0.0,0.0,0.0,0.0,0.0,0.0,0.0
203560,-0.011111,0.009885,-0.000433,0.0,0.0,0.0,0.0,0.0,0.0,3.0,0.285899,0.34791,0.270036,0.381119,-0.001181,2e-06,0.0,0.000894,0.0,0.0,0.0,0.0,0.0,0.0,0.0,0.0
203580,-0.011355,0.010007,-0.000432,0.0,0.0,0.0,0.0,0.0,0.0,3.0,0.296372,0.340278,0.27943,0.374429,-0.001163,2e-06,0.0,0.000933,0.0,0.0,0.0,0.0,0.0,0.0,0.0,0.0
203600,-0.011355,0.009885,-0.000432,0.0,0.0,0.0,0.0,0.0,0.0,3.0,0.291159,0.344232,0.274352,0.37801,-0.001144,2e-06,0.0,0.000971,0.0,0.0,0.0,0.0,0.0,0.0,0.0,0.0
203620,-0.011477,0.009763,-0.000432,0.0,0.0,0.0,0.0,0.0,0.0,3.0,0.291485,0.342771,0.274618,0.378896,-0.001125,2e-06,0.0,0.001007,0.0,0.0,0.0,0.0,0.0,0.0,0.0,0.0
203640,-0.011355,0.009641,-0.000434,0.0,0.0,0.0,0.0,0.0,0.0,3.0,0.288373,0.343637,0.278149,0.378006,-0.001104,2e-06,0.0,0.001043,0.0,0.0,0.0,0.0,0.0,0.0,0.0,0.0
203660,-0.011477,0.009275,-0.000313,0.0,0.0,0.0,0.0,0.0,0.0,3.0,0.288901,0.34439,0.277629,0.377314,-0.001083,2e-06,0.0,0.001077,-0.0,0.0,0.0,0.0,0.0,0.0,0.0,0.0
203680,-0.011721,0.009397,-0.000311,0.0,0.0,0.0,0.0,0.0,0.0,3.0,0.288445,0.344012,0.276492,0.37871,-0.001061,2e-06,0.0,0.00111,-0.0,0.0,0.0,0.0,0.0,0.0,0.0,0.0
203700,-0.011599,0.009275,-0.000312,0.0,0.0,0.0,0.0,0.0,0.0,3.0,0.289814,0.344665,0.276301,0.377303,-0.001039,2e-06,0.0,0.001141,-0.0,0.0,0.0,0.0,0.0,0.0,0.0,0.0
203720,-0.011598,0.00952,-0.000189,0.0,0.0,0.0,0.0,0.0,0.0,3.0,0.289291,0.344844,0.271215,0.380769,-0.001016,2e-06,0.0,0.001171,-0.0,0.0,0.0,0.0,0.0,0.0,0.0,0.0
203740,-0.01172,0.009398,-0.000189,0.0,0.0,0.0,0.0,0.0,0.0,3.0,0.294888,0.342622,0.275441,0.376074,-0.000992,2e-06,0.0,0.0012,-0.0,0.0,0.0,0.0,0.0,0.0,0.0,0.0
203760,-0.011476,0.009277,-6.9e-05,0.0,0.0,0.0,0.0,0.0,0.0,3.0,0.289489,0.346756,0.271138,0.37899,-0.000968,2e-06,0.0,0.001228,-0.0,0.0,0.0,0.0,0.0,0.0,0.0,0.0
203780,-0.011597,0.009278,5.4e-05,0.0,0.0,0.0,0.0,0.0,0.0,3.0,0.289437,0.349031,0.264696,0.380985,-0.000943,2e-06,0.0,0.001254,-1e-06,-0.0,0.0,0.0,0.0,0.0,0.0,0.0
203800,-0.011474,0.009034,0.000174,0.0,0.0,0.0,0.0,0.0,0.0,3.0,0.291158,0.344448,0.273351,0.378464,-0.000918,2e-06,0.0,0.001279,-1e-06,-0.0,0.0,0.0,0.0,0.0,0.0,0.0
203820,-0.011474,0.009034,0.000174,0.0,0.0,0.0,0.0,0.0,0.0,3.0,0.290755,0.344233,0.271408,0.380169,-0.000892,2e-06,0.0,0.001303,-1e-06,-0.0,0.0,0.0,0.0,0.0,0.0,0.0
203840,-0.011596,0.00879,0.000173,0.0,0.0,0.0,0.0,0.0,0.0,3.0,0.291621,0.34441,0.273065,0.378355,-0.000866,2e-06,0.0,0.001325,-1e-06,-0.0,0.0,0.0,0.0,0.0,0.0,0.0
203860,-0.011474,0.008669,0.000294,0.0,0.0,0.0,0.0,0.0,0.0,3.0,0.283079,0.347503,0.272892,0.381581,-0.000839,2e-06,0.0,0.001346,-1e-06,-0.0,0.0,0.0,0.0,0.0,0.0,0.0
203880,-0.011596,0.008791,0.000295,0.0,0.0,0.0,0.0,0.0,0.0,3.0,0.290435,0.342998,0.2736,0.380083,-0.000812,2e-06,0.0,0.001366,-1e-06,-0.0,0.0,0.0,0.0,0.0,0.0,0.0
203900,-0.011596,0.008669,0.000294,0.0,0.0,0.0,0.0,0.0,0.0,3.0,0.285009,0.346957,0.26902,0.38319,-0.000785,2e-06,0.0,0.001384,-1e-06,-0.0,0.0,0.0,0.0,0.0,0.0,0.0
203920,-0.011596,0.008425,0.000415,0.0,0.0,0.0,0.0,0.0,0.0,3.0,0.289617,0.345487,0.270092,0.380682,-0.000757,2e-06,0.0,0.001401,-1e-06,-0.0,0.0,0.0,0.0,0.0,0.0,0.0
203940,-0.011596,0.00818,0.000292,0.0,0.0,0.0,0.0,0.0,0.0,3.0,0.290527,0.34431,0.273539,0.378906,-0.000729,2e-06,0.0,0.001417,-1e-06,-0.0,0.0,0.0,0.0,0.0,0.0,0.0
203960,-0.011474,0.008058,0.00029,0.0,0.0,0.0,0.0,0.0,0.0,3.0,0.290162,0.348121,0.27165,0.376972,-0.0007,2e-06,0.0,0.001431,-1e-06,-0.0,0.0,0.0,0.0,0.0,0.0,0.0
203980,-0.011474,0.007815,0.000411,0.0,0.0,0.0,0.0,0.0,0.0,3.0,0.290808,0.346832,0.269298,0.379161,-0.000672,2e-06,0.0,0.001444,-1e-06,-0.0,0.0,0.0,0.0,0.0,0.0,0.0
204000,-0.011596,0.007571,0.00041,0.0,0.0,0.0,0.0,0.0,0.0,3.0,0.288546,0.347219,0.270377,0.37971,-0.000643,2e-06,0.0,0.001456,-1e-06,-0.0,0.0,0.0,0.0,0.0,0.0,0.0
204020,-0.011596,0.007571,0.00041,0.0,0.0,0.0,0.0,0.0,0.0,3.0,0.291099,0.344042,0.272785,0.379224,-0.000613,2e-06,0.0,0.001466,-1e-06,-0.0,0.0,0.0,0.0,0.0,0.0,0.0
204040,-0.011718,0.007204,0.000408,0.0,0.0,0.0,0.0,0.0,0.0,3.0,0.290497,0.345208,0.273838,0.377941,-0.000584,2e-06,0.0,0.001475,-1e-06,-0.0,0.0,0.0,0.0,0.0,0.0,0.0
204060,-0.011718,0.006594,0.000405,0.0,0.0,0.0,0.0,0.0,0.0,3.0,0.288839,0.346504,0.275732,0.376716,-0.000554,2e-06,0.0,0.001482,-2e-06,-0.0,0.0,0.0,0.0,0.0,0.0,0.0
204080,-0.011962,0.006228,0.000403,0.0,0.0,0.0,0.0,0.0,0.0,3.0,0.290523,0.345847,0.273836,0.377354,-0.000525,2e-06,0.0,0.001489,-2e-06,-0.0,0.0,0.0,0.0,0.0,0.0,0.0
204100,-0.011962,0.005618,0.0004,0.0,0.0,0.0,0.0,0.0,0.0,3.0,0.289225,0.347267,0.275321,0.37603,-0.000495,2e-06,0.0,0.001494,-2e-06,-0.0,0.0,0.0,0.0,0.0,0.0,0.0
204120,-0.011962,0.005129,0.000397,0.0,0.0,0.0,0.0,0.0,0.0,3.0,0.291162,0.347515,0.273181,0.375831,-0.000465,2e-06,0.0,0.001497,-2e-06,-0.0,0.0,0.0,0.0,0.0,0.0,0.0
204140,-0.011963,0.004641,0.000394,0.0,0.0,0.0,0.0,0.0,0.0,3.0,0.293672,0.346336,0.270283,0.37696,-0.000435,2e-06,0.0,0.0015,-2e-06,-0.0,0.0,0.0,0.0,0.0,0.0,0.0
204160,-0.011719,0.004031,0.00039,0.0,0.0,0.0,0.0,0.0,0.0,3.0,0.290895,0.346695,0.273413,0.376608,-0.000405,2e-06,0.0,0.001501,-2e-06,-0.0,0.0,0.0,0.0,0.0,0.0,0.0
204180,-0.011719,0.00342,0.000386,0.0,0.0,0.0,0.0,0.0,0.0,3.0,0.292102,0.34905,0.27217,0.374422,-0.000375,2e-06,0.0,0.001501,-2e-06,-0.0,0.0,0.0,0.0,0.0,0.0,0.0
204200,-0.011841,0.00281,0.000383,0.0,0.0,0.0,0.0,0.0,0.0,3.0,0.292222,0.348658,0.272005,0.3748,-0.000345,2e-06,0.0,0.001499,-2e-06,-0.0,0.0,0.0,0.0,0.0,0.0,0.0
204220,-0.011841,0.002078,0.000501,0.0,0.0,0.0,0.0,0.0,0.0,3.0,0.292731,0.349646,0.271472,0.373878,-0.000315,1e-06,0.0,0.001497,-2e-06,-0.0,0.0,0.0,0.0,0.0,0.0,0.0
204240,-0.011963,0.001468,0.000497,0.0,0.0,0.0,0.0,0.0,0.0,3.0,0.294818,0.345642,0.273024,0.375004,-0.000285,1e-06,0.0,0.001493,-2e-06,-0.0,0.0,0.0,0.0,0.0,0.0,0.0
204260,-0.011963,0.000735,0.000493,0.0,0.0,0.0,0.0,0.0,0.0,3.0,0.290817,0.349568,0.272165,0.374868,-0.000255,1e-06,0.0,0.001488,-2e-06,-0.0,0.0,0.0,0.0,0.0,0.0,0.0
204280,-0.011963,-0.00012,0.000366,0.0,0.0,0.0,0.0,0.0,0.0,3.0,0.291028,0.349532,0.27295,0.374244,-0.000226,1e-06,0.0,0.001481,-2e-06,-0.0,0.0,0.0,0.0,0.0,0.0,0.0
204300,-0.011964,-0.000485,0.000485,0.0,0.0,0.0,0.0,0.0,0.0,3.0,0.291521,0.347499,0.275347,0.374179,-0.000196,1e-06,0.0,0.001474,-2e-06,-0.0,0.0,0.0,0.0,0.0,0.0,0.0
204320,-0.011964,-0.000852,0.000483,0.0,0.0,0.0,0.0,0.0,0.0,3.0,0.292414,0.346673,0.27583,0.373971,-0.000167,1e-06,0.0,0.001465,-2e-06,-0.0,0.0,0.0,0.0,0.0,0.0,0.0
204340,-0.011842,-0.00134,0.00048,0.0,0.0,0.0,0.0,0.0,0.0,3.0,0.290474,0.351232,0.2712,0.374208,-0.000137,1e-06,0.0,0.001456,-2e-06,-0.0,0.0,0.0,0.0,0.0,0.0,0.0
204360,-0.011842,-0.001705,0.0006,0.0,0.0,0.0,0.0,0.0,0.0,3.0,0.292871,0.348875,0.270729,0.374958,-0.000108,1e-06,0.0,0.001445,-2e-06,-0.0,0.0,0.0,0.0,0.0,0.0,0.0
204380,-0.01172,-0.002072,0.000598,0.0,0.0,0.0,0.0,0.0,0.0,3.0,0.294277,0.347889,0.271972,0.374044,-8e-05,1e-06,0.0,0.001433,-2e-06,-0.0,0.0,0.0,0.0,0.0,0.0,0.0
204400,-0.011598,-0.002316,0.000597,0.0,0.0,0.0,0.0,0.0,0.0,3.0,0.289722,0.351279,0.271576,0.374455,-5.1e-05,1e-06,0.0,0.00142,-2e-06,-0.0,0.0,0.0,0.0,0.0,0.0,0.0
204420,-0.011598,-0.002316,0.000597,0.0,0.0,0.0,0.0,0.0,0.0,3.0,0.292368,0.347765,0.270875,0.376229,-2.3e-05,1e-06,0.0,0.001406,-2e-06,-0.0,0.0,0.0,0.0,0.0,0.0,0.0
204440,-0.011598,-0.00256,0.000596,0.0,0.0,0.0,0.0,0.0,0.0,3.0,0.292607,0.348581,0.270777,0.375382,5e-06,1e-06,-0.0,0.001391,-2e-06,-0.0,0.0,0.0,0.0,0.0,0.0,0.0
204460,-0.011476,-0.002681,0.000717,0.0,0.0,0.0,0.0,0.0,0.0,3.0,0.29112,0.348031,0.272375,0.375914,3.3e-05,1e-06,-0.0,0.001375,-2e-06,-0.0,0.0,0.0,0.0,0.0,0.0,0.0
204480,-0.011476,-0.00256,0.000596,0.0,0.0,0.0,0.0,0.0,0.0,3.0,0.292245,0.346931,0.273775,0.375204,6e-05,1e-06,-0.0,0.001358,-2e-06,-0.0,0.0,0.0,0.0,0.0,0.0,0.0
204500,-0.011476,-0.002682,0.000595,0.0,0.0,0.0,0.0,0.0,0.0,3.0,0.291559,0.34664,0.271954,0.377125,8.7e-05,1e-06,-0.0,0.00134,-2e-06,-0.0,0.0,0.0,0.0,0.0,0.0,0.0
204520,-0.011354,-0.002804,0.000594,0.0,0.0,0.0,0.0,0.0,0.0,3.0,0.287832,0.347845,0.275837,0.376144,0.000114,1e-06,-0.0,0.001322,-2e-06,-0.0,0.0,0.0,0.0,0.0,0.0,0.0
204540,-0.011476,-0.002926,0.000594,0.0,0.0,0.0,0.0,0.0,0.0,3.0,0.289578,0.346574,0.27389,0.377333,0.00014,1e-06,-0.0,0.001302,-2e-06,-0.0,0.0,0.0,0.0,0.0,0.0,0.0
204560,-0.011476,-0.003048,0.000593,0.0,0.0,0.0,0.0,0.0,0.0,3.0,0.290226,0.349253,0.273288,0.374848,0.000166,1e-06,-0.0,0.001281,-2e-06,-0.0,0.0,0.0,0.0,0.0,0.0,0.0
204580,-0.011476,-0.003415,0.000591,0.0,0.0,0.0,0.0,0.0,0.0,3.0,0.291224,0.349499,0.272192,0.374624,0.000192,1e-06,-0.0,0.00126,-2e-06,-0.0,0.0,0.0,0.0,0.0,0.0,0.0
204600,-0.01172,-0.003537,0.000468,0.0,0.0,0.0,0.0,0.087266,0.0,3.0,0.293503,0.541998,0.269633,0.15,0.000217,0.001384,-7.7e-05,0.001272,0.431336,-0.022646,0.0,0.0,0.0,0.0,0.0,0.0
204620,-0.010988,-0.003413,0.000836,0.0,0.0,0.0,0.0,0.087266,0.0,3.0,0.292209,0.383668,0.278129,0.333948,0.000242,0.011993,-0.000562,0.00166,0.596284,-0.024077,0.0,0.0,0.0,0.0,0.0,0.0
204640,-0.011477,-0.001942,0.001942,0.0,0.0,0.0,0.0,0.087266,0.0,3.0,0.26026,0.391918,0.234534,0.374982,0.000271,0.02353,-0.001024,0.002032,0.534851,-0.02183,0.0,0.0,0.0,0.0,0.0,0.0
204660,-0.011718,0.001478,0.002206,0.0,0.0,0.0,0.0,0.087266,0.0,3.0,0.28696,0.364626,0.252751,0.375307,0.000302,0.033682,-0.001441,0.002275,0.464584,-0.019612,0.0,0.0,0.0,0.0,0.0,0.0
204680,-0.011348,0.005992,0.001865,0.0,0.0,0.0,0.0,0.087266,0.0,3.0,0.291542,0.350747,0.269822,0.374776,0.000335,0.042524,-0.001815,0.002412,0.407439,-0.017486,0.0,0.0,0.0,0.0,0.0,0.0
204700,-0.0111,0.012337,0.001411,0.0,0.0,0.0,0.0,0.087266,0.0,3.0,0.29568,0.334133,0.283075,0.377797,0.000369,0.050319,-0.002147,0.002468,0.362469,-0.015457,0.0,0.0,0.0,0.0,0.0,0.0
204720,-0.011222,0.018804,0.00096,0.0,0.0,0.0,0.0,0.087266,0.0,3.0,0.301091,0.327269,0.278898,0.38237,0.000403,0.05729,-0.002439,0.002465,0.327117,-0.013527,0.0,0.0,0.0,0.0,0.0,0.0
204740,-0.011342,0.025884,0.00088,0.0,0.0,0.0,0.0,0.087266,0.0,3.0,0.297811,0.323038,0.273888,0.391234,0.000437,0.063613,-0.002694,0.002418,0.299215,-0.011693,0.0,0.0,0.0,0.0,0.0,0.0
204760,-0.010733,0.033086,0.000666,0.0,0.0,0.0,0.0,0.087266,0.0,3.0,0.2895,0.322561,0.277801,0.394803,0.00047,0.069424,-0.002912,0.002337,0.277065,-0.009956,0.0,0.0,0.0,0.0,0.0,0.0
204780,-0.010125,0.039433,0.000444,0.0,0.0,0.0,0.0,0.087266,0.0,3.0,0.287415,0.326906,0.276318,0.393728,0.000503,0.074826,-0.003097,0.00223,0.259346,-0.008315,0.0,0.0,0.0,0.0,0.0,0.0
204800,-0.00988,0.045294,0.000469,0.0,0.0,0.0,0.0,0.087266,0.0,3.0,0.284202,0.329381,0.271851,0.396584,0.000535,0.079901,-0.003249,0.002104,0.245033,-0.006768,0.0,0.0,0.0,0.0,0.0,0.0
204820,-0.00939,0.050911,0.000484,0.0,0.0,0.0,0.0,0.087266,0.0,3.0,0.290198,0.328548,0.274472,0.391733,0.000566,0.084711,-0.003371,0.001963,0.233333,-0.005314,0.0,0.0,0.0,0.0,0.0,0.0
204840,-0.008539,0.055673,0.00036,0.0,0.0,0.0,0.0,0.087266,0.0,3.0,0.284308,0.330595,0.2796,0.390774,0.000596,0.089302,-0.003465,0.00181,0.223631,-0.003953,0.0,0.0,0.0,0.0,0.0,0.0
204860,-0.007931,0.059337,0.000236,0.0,0.0,0.0,0.0,0.087266,0.0,3.0,0.282719,0.339093,0.27173,0.389761,0.000625,0.093711,-0.003532,0.001649,0.21545,-0.00268,0.0,0.0,0.0,0.0,0.0,0.0
204880,-0.007439,0.0619,0.000353,0.0,0.0,0.0,0.0,0.087266,0.0,3.0,0.287394,0.343883,0.27462,0.380754,0.000653,0.097966,-0.003574,0.001482,0.208421,-0.001496,0.0,0.0,0.0,0.0,0.0,0.0
204900,-0.006707,0.063978,0.000337,0.0,0.0,0.0,0.0,0.087266,0.0,3.0,0.293306,0.342386,0.280934,0.373769,0.000679,0.102087,-0.003593,0.00131,0.202259,-0.000397,0.0,0.0,0.0,0.0,0.0,0.0
204920,-0.0061,0.065442,0.0002,0.0,0.0,0.0,0.0,0.087266,0.0,3.0,0.289198,0.344344,0.279948,0.375609,0.000704,0.10609,-0.00359,0.001135,0.196742,0.000618,0.0,0.0,0.0,0.0,0.0,0.0
204940,-0.005616,0.066544,6.5e-05,0.0,0.0,0.0,0.0,0.087266,0.0,3.0,0.288567,0.348563,0.276156,0.37477,0.000728,0.109986,-0.003568,0.00096,0.1917,0.001553,0.0,0.0,0.0,0.0,0.0,0.0
204960,-0.005377,0.066909,-6.4e-05,0.0,0.0,0.0,0.0,0.087266,0.0,3.0,0.289052,0.352263,0.277129,0.370366,0.000751,0.113784,-0.003527,0.000784,0.187002,0.002409,0.0,0.0,0.0,0.0,0.0,0.0
204980,-0.005137,0.067397,-0.000194,0.0,0.0,0.0,0.0,0.087266,0.0,3.0,0.295014,0.348502,0.283006,0.365489,0.000772,0.117491,-0.00347,0.00061,0.182548,0.00319,0.0,0.0,0.0,0.0,0.0,0.0
205000,-0.004653,0.067519,-0.000332,0.0,0.0,0.0,0.0,0.087266,0.0,3.0,0.290148,0.35619,0.275892,0.366681,0.000791,0.121109,-0.003397,0.000438,0.178259,0.003898,0.0,0.0,0.0,0.0,0.0,0.0
205020,-0.004901,0.067763,-0.000446,0.0,0.0,0.0,0.0,0.087266,0.0,3.0,0.291692,0.354909,0.274772,0.367539,0.000809,0.124643,-0.003311,0.000269,0.174076,0.004535,0.0,0.0,0.0,0.0,0.0,0.0
205040,-0.004905,0.068128,-0.000567,0.0,0.0,0.0,0.0,0.087266,0.0,3.0,0.294544,0.354283,0.272795,0.367356,0.000826,0.128093,-0.003212,0.000104,0.169955,0.005106,0.0,0.0,0.0,0.0,0.0,0.0
205060,-0.004787,0.068616,-0.000692,0.0,0.0,0.0,0.0,0.087266,0.0,3.0,0.298474,0.348635,0.279868,0.364949,0.000841,0.131462,-0.003102,-5.6e-05,0.165861,0.005612,0.0,0.0,0.0,0.0,0.0,0.0
205080,-0.004548,0.06947,-0.000821,0.0,0.0,0.0,0.0,0.087266,0.0,3.0,0.291467,0.352155,0.275435,0.369865,0.000854,0.134748,-0.002983,-0.000211,0.16177,0.006056,0.0,0.0,0.0,0.0,0.0,0.0
205100,-0.004309,0.070328,-0.00095,0.0,0.0,0.0,0.0,0.087266,0.0,3.0,0.292546,0.351842,0.274967,0.369687,0.000866,0.137953,-0.002855,-0.00036,0.157663,0.006442,0.0,0.0,0.0,0.0,0.0,0.0
205120,-0.004187,0.07167,-0.000952,0.0,0.0,0.0,0.0,0.087266,0.0,3.0,0.293884,0.348437,0.274968,0.371871,0.000877,0.141075,-0.002719,-0.000503,0.153526,0.006772,0.0,0.0,0.0,0.0,0.0,0.0
205140,-0.003831,0.07326,-0.001207,0.0,0.0,0.0,0.0,0.087266,0.0,3.0,0.298504,0.340989,0.283935,0.369132,0.000886,0.144114,-0.002578,-0.000638,0.149349,0.007049,0.0,0.0,0.0,0.0,0.0,0.0
205160,-0.00347,0.074724,-0.00134,0.0,0.0,0.0,0.0,0.087266,0.0,3.0,0.295657,0.34153,0.283284,0.371214,0.000893,0.147069,-0.002431,-0.000767,0.145127,0.007277,0.0,0.0,0.0,0.0,0.0,0.0
205180,-0.00311,0.076559,-0.001474,0.0,0.0,0.0,0.0,0.087266,0.0,3.0,0.29329,0.342685,0.280754,0.373636,0.000899,0.14994,-0.00228,-0.000888,0.140856,0.007457,0.0,0.0,0.0,0.0,0.0,0.0
205200,-0.002755,0.078511,-0.00173,0.0,0.0,0.0,0.0,0.087266,0.0,3.0,0.297572,0.336085,0.286787,0.37218,0.000904,0.152724,-0.002125,-0.001001,0.136533,0.007593,0.0,0.0,0.0,0.0,0.0,0.0
205220,-0.002152,0.080467,-0.001874,0.0,0.0,0.0,0.0,0.087266,0.0,3.0,0.294146,0.336703,0.286726,0.374187,0.000907,0.155422,-0.001968,-0.001106,0.132159,0.007687,0.0,0.0,0.0,0.0,0.0,0.0
205240,-0.001554,0.082541,-0.002142,0.0,0.0,0.0,0.0,0.087266,0.0,3.0,0.293743,0.335457,0.28737,0.375108,0.000909,0.158032,-0.00181,-0.001204,0.127733,0.007742,0.0,0.0,0.0,0.0,0.0,0.0
205260,-0.00119,0.084498,-0.002157,0.0,0.0,0.0,0.0,0.087266,0.0,3.0,0.291387,0.338315,0.282337,0.377762,0.000909,0.160553,-0.00165,-0.001293,0.123258,0.007761,0.0,0.0,0.0,0.0,0.0,0.0
205280,-0.00071,0.086456,-0.0023,0.0,0.0,0.0,0.0,0.087266,0.0,3.0,0.295364,0.334941,0.285582,0.375623,0.000909,0.162984,-0.001491,-0.001374,0.118735,0.007747,0.0,0.0,0.0,0.0,0.0,0.0
205300,-0.000108,0.088286,-0.002449,0.0,0.0,0.0,0.0,0.087266,0.0,3.0,0.289416,0.340376,0.282579,0.37719,0.000906,0.165325,-0.001332,-0.001448,0.114167,0.007701,0.0,0.0,0.0,0.0,0.0,0.0
205320,0.000372,0.089999,-0.002594,0.0,0.0,0.0,0.0,0.087266,0.0,3.0,0.290612,0.339288,0.282212,0.377548,0.000903,0.167573,-0.001174,-0.001513,0.109557,0.007627,0.0,0.0,0.0,0.0,0.0,0.0
205340,0.000731,0.09159,-0.002734,0.0,0.0,0.0,0.0,0.087266,0.0,3.0,0.29168,0.337119,0.281244,0.379317,0.000898,0.169729,-0.001018,-0.001571,0.10491,0.007527,0.0,0.0,0.0,0.0,0.0,0.0
205360,0.001216,0.093176,-0.002757,0.0,0.0,0.0,0.0,0.087266,0.0,3.0,0.290886,0.336756,0.282783,0.379155,0.000893,0.171792,-0.000865,-0.001621,0.100227,0.007403,0.0,0.0,0.0,0.0,0.0,0.0
205380,0.001697,0.094402,-0.002904,0.0,0.0,0.0,0.0,0.087266,0.0,3.0,0.296288,0.336275,0.286075,0.373455,0.000886,0.173762,-0.000714,-0.001665,0.095514,0.007257,0.0,0.0,0.0,0.0,0.0,0.0
205400,0.001811,0.0955,-0.003034,0.0,0.0,0.0,0.0,0.087266,0.0,3.0,0.296594,0.3365,0.285227,0.373625,0.000878,0.175636,-0.000566,-0.0017,0.090774,0.007091,0.0,0.0,0.0,0.0,0.0,0.0
205420,0.002047,0.096603,-0.00317,0.0,0.0,0.0,0.0,0.087266,0.0,3.0,0.295459,0.339021,0.28278,0.373931,0.000869,0.177416,-0.000422,-0.00173,0.086011,0.006908,0.0,0.0,0.0,0.0,0.0,0.0
205440,0.00229,0.097701,-0.003183,0.0,0.0,0.0,0.0,0.087266,0.0,3.0,0.298334,0.33364,0.286277,0.374093,0.000859,0.1791,-0.000281,-0.001752,0.08123,0.006709,0.0,0.0,0.0,0.0,0.0,0.0
205460,0.002525,0.098927,-0.00332,0.0,0.0,0.0,0.0,0.087266,0.0,3.0,0.292773,0.336695,0.285805,0.375819,0.000848,0.180689,-0.000145,-0.001769,0.076434,0.006497,0.0,0.0,0.0,0.0,0.0,0.0
205480,0.002884,0.099659,-0.003461,0.0,0.0,0.0,0.0,0.087266,0.0,3.0,0.293704,0.334848,0.28595,0.376642,0.000837,0.182181,-1.3e-05,-0.001779,0.071628,0.006273,0.0,0.0,0.0,0.0,0.0,0.0
205500,0.003005,0.100391,-0.003469,0.0,0.0,0.0,0.0,0.087266,0.0,3.0,0.289918,0.339974,0.280993,0.378254,0.000824,0.183578,0.000114,-0.001784,0.066816,0.006038,0.0,0.0,0.0,0.0,0.0,0.0
205520,0.003241,0.101123,-0.003605,0.0,0.0,0.0,0.0,0.087266,0.0,3.0,0.291919,0.334412,0.28841,0.376583,0.000811,0.184878,0.000236,-0.001784,0.062002,0.005795,0.0,0.0,0.0,0.0,0.0,0.0
205540,0.003593,0.102105,-0.003871,0.0,0.0,0.0,0.0,0.087266,0.0,3.0,0.295123,0.334494,0.290835,0.372496,0.000797,0.186082,0.000353,-0.001778,0.05719,0.005546,0.0,0.0,0.0,0.0,0.0,0.0
205560,0.003713,0.102593,-0.003878,0.0,0.0,0.0,0.0,0.087266,0.0,3.0,0.291506,0.340087,0.281703,0.376564,0.000782,0.187189,0.000465,-0.001769,0.052384,0.00529,0.0,0.0,0.0,0.0,0.0,0.0
205580,0.003834,0.103203,-0.003886,0.0,0.0,0.0,0.0,0.087266,0.0,3.0,0.29825,0.335716,0.288318,0.370919,0.000766,0.188201,0.000571,-0.001755,0.047588,0.00503,0.0,0.0,0.0,0.0,0.0,0.0
205600,0.004193,0.103454,-0.004029,0.0,0.0,0.0,0.0,0.087266,0.0,3.0,0.295123,0.339311,0.283532,0.373405,0.00075,0.189117,0.000672,-0.001737,0.042807,0.004768,0.0,0.0,0.0,0.0,0.0,0.0
205620,0.004429,0.104064,-0.004165,0.0,0.0,0.0,0.0,0.087266,0.0,3.0,0.291764,0.339679,0.283398,0.375589,0.000734,0.189937,0.000768,-0.001716,0.038043,0.004503,0.0,0.0,0.0,0.0,0.0,0.0
205640,0.004551,0.10443,-0.004173,0.0,0.0,0.0,0.0,0.087266,0.0,3.0,0.293813,0.339736,0.283619,0.37392,0.000717,0.190662,0.000858,-0.001692,0.033302,0.004238,0.0,0.0,0.0,0.0,0.0,0.0
205660,0.004794,0.104553,-0.004186,0.0,0.0,0.0,0.0,0.087266,0.0,3.0,0.293323,0.339871,0.283143,0.37448,0.000699,0.191293,0.000943,-0.001665,0.028587,0.003974,0.0,0.0,0.0,0.0,0.0,0.0
205680,0.005031,0.104919,-0.004322,0.0,0.0,0.0,0.0,0.087266,0.0,3.0,0.298093,0.33414,0.288623,0.372193,0.000681,0.191829,0.001022,-0.001635,0.023901,0.003711,0.0,0.0,0.0,0.0,0.0,0.0
205700,0.005023,0.105407,-0.004446,0.0,0.0,0.0,0.0,0.087266,0.0,3.0,0.294251,0.336751,0.283175,0.376512,0.000663,0.192272,0.001096,-0.001603,0.019249,0.00345,0.0,0.0,0.0,0.0,0.0,0.0
205720,0.005023,0.105285,-0.004446,0.0,0.0,0.0,0.0,0.087266,0.0,3.0,0.295002,0.336391,0.284856,0.375134,0.000644,0.192622,0.001165,-0.00157,0.014633,0.003192,0.0,0.0,0.0,0.0,0.0,0.0
205740,0.005145,0.105285,-0.004452,0.0,0.0,0.0,0.0,0.087266,0.0,3.0,0.292528,0.340235,0.285611,0.373029,0.000625,0.192881,0.001228,-0.001535,0.010058,0.002938,0.0,0.0,0.0,0.0,0.0,0.0
205760,0.005138,0.105529,-0.004575,0.0,0.0,0.0,0.0,0.087266,0.0,3.0,0.292395,0.338734,0.285816,0.374305,0.000606,0.193048,0.001286,-0.001499,0.005526,0.002688,0.0,0.0,0.0,0.0,0.0,0.0
205780,0.00501,0.10578,-0.004693,0.0,0.0,0.0,0.0,0.087266,0.0,3.0,0.293377,0.337628,0.28644,0.374134,0.000586,0.193125,0.001339,-0.001461,0.001042,0.002443,0.0,0.0,0.0,0.0,0.0,0.0
205800,0.005131,0.105902,-0.0047,0.0,0.0,0.0,0.0,0.087266,0.0,3.0,0.293831,0.338015,0.287785,0.372526,0.000567,0.193112,0.001387,-0.001423,-0.003392,0.002204,0.0,0.0,0.0,0.0,0.0,0.0
205820,0.005375,0.105902,-0.004713,0.0,0.0,0.0,0.0,0.087266,0.0,3.0,0.293187,0.336979,0.286052,0.375105,0.000547,0.193011,0.00143,-0.001385,-0.007772,0.001971,0.0,0.0,0.0,0.0,0.0,0.0
205840,0.005368,0.106146,-0.004836,0.0,0.0,0.0,0.0,0.087266,0.0,3.0,0.294223,0.337112,0.284578,0.375262,0.000527,0.192823,0.001468,-0.001346,-0.012096,0.001745,0.0,0.0,0.0,0.0,0.0,0.0
205860,0.00549,0.106147,-0.004843,0.0,0.0,0.0,0.0,0.087266,0.0,3.0,0.294551,0.33555,0.286098,0.37533,0.000506,0.192549,0.001502,-0.001307,-0.01636,0.001525,0.0,0.0,0.0,0.0,0.0,0.0
205880,0.00549,0.106147,-0.004843,0.0,0.0,0.0,0.0,0.087266,0.0,3.0,0.294327,0.337672,0.285154,0.374302,0.000486,0.19219,0.001531,-0.001268,-0.020562,0.001313,0.0,0.0,0.0,0.0,0.0,0.0
205900,0.005733,0.106391,-0.004856,0.0,0.0,0.0,0.0,0.087266,0.0,3.0,0.299319,0.334246,0.290202,0.370058,0.000466,0.191748,0.001556,-0.001229,-0.024699,0.001108,0.0,0.0,0.0,0.0,0.0,0.0
205920,0.005727,0.106269,-0.004979,0.0,0.0,0.0,0.0,0.087266,0.0,3.0,0.297141,0.336432,0.291223,0.36903,0.000446,0.191223,0.001577,-0.001191,-0.028767,0.000911,0.0,0.0,0.0,0.0,0.0,0.0
205940,0.005727,0.106269,-0.004979,0.0,0.0,0.0,0.0,0.087266,0.0,3.0,0.295399,0.338843,0.284945,0.372641,0.000425,0.190618,0.001594,-0.001154,-0.032765,0.000721,0.0,0.0,0.0,0.0,0.0,0.0
205960,0.005842,0.106392,-0.005108,0.0,0.0,0.0,0.0,0.087266,0.0,3.0,0.300971,0.334852,0.288686,0.369368,0.000405,0.189933,0.001607,-0.001117,-0.03669,0.00054,0.0,0.0,0.0,0.0,0.0,0.0
205980,0.005719,0.106635,-0.005102,0.0,0.0,0.0,0.0,0.087266,0.0,3.0,0.295481,0.336648,0.285698,0.373982,0.000385,0.18917,0.001616,-0.001081,-0.040539,0.000366,0.0,0.0,0.0,0.0,0.0,0.0
206000,0.005842,0.106392,-0.005108,0.0,0.0,0.0,0.0,0.087266,0.0,3.0,0.295195,0.335524,0.285624,0.375215,0.000364,0.188331,0.001622,-0.001045,-0.044311,0.000201,0.0,0.0,0.0,0.0,0.0,0.0
206020,0.005592,0.106148,-0.005217,0.0,0.0,0.0,0.0,0.087266,0.0,3.0,0.295924,0.338699,0.284638,0.372596,0.000344,0.187417,0.001625,-0.001011,-0.048002,4.4e-05,0.0,0.0,0.0,0.0,0.0,0.0
206040,0.00547,0.106269,-0.005211,0.0,0.0,0.0,0.0,0.087266,0.0,3.0,0.290167,0.338605,0.284093,0.377179,0.000324,0.18643,0.001624,-0.000978,-0.051611,-0.000105,0.0,0.0,0.0,0.0,0.0,0.0
206060,0.005585,0.106392,-0.00534,0.0,0.0,0.0,0.0,0.087266,0.0,3.0,0.290593,0.336589,0.287907,0.376,0.000304,0.185371,0.001621,-0.000946,-0.055137,-0.000245,0.0,0.0,0.0,0.0,0.0,0.0
206080,0.005579,0.10627,-0.005462,0.0,0.0,0.0,0.0,0.087266,0.0,3.0,0.296549,0.336629,0.287605,0.371882,0.000284,0.184242,0.001614,-0.000914,-0.058576,-0.000378,0.0,0.0,0.0,0.0,0.0,0.0
206100,0.005457,0.106392,-0.005456,0.0,0.0,0.0,0.0,0.087266,0.0,3.0,0.294863,0.339446,0.284726,0.372651,0.000265,0.183046,0.001605,-0.000885,-0.061927,-0.000502,0.0,0.0,0.0,0.0,0.0,0.0
206120,0.005585,0.106636,-0.005341,0.0,0.0,0.0,0.0,0.087266,0.0,3.0,0.293957,0.336462,0.285942,0.375076,0.000245,0.181782,0.001594,-0.000856,-0.065188,-0.000619,0.0,0.0,0.0,0.0,0.0,0.0
206140,0.005706,0.106636,-0.005347,0.0,0.0,0.0,0.0,0.087266,0.0,3.0,0.29557,0.334513,0.288269,0.373973,0.000226,0.180455,0.00158,-0.000828,-0.068359,-0.000728,0.0,0.0,0.0,0.0,0.0,0.0
206160,0.005707,0.10627,-0.005346,0.0,0.0,0.0,0.0,0.087266,0.0,3.0,0.299413,0.336334,0.287579,0.37003,0.000206,0.179064,0.001564,-0.000802,-0.071436,-0.000829,0.0,0.0,0.0,0.0,0.0,0.0
206180,0.005708,0.106148,-0.005346,0.0,0.0,0.0,0.0,0.087266,0.0,3.0,0.296612,0.336854,0.286213,0.372616,0.000187,0.177613,0.001546,-0.000777,-0.07442,-0.000923,0.0,0.0,0.0,0.0,0.0,0.0
206200,0.005714,0.10627,-0.005224,0.0,0.0,0.0,0.0,0.087266,0.0,3.0,0.296379,0.334201,0.286455,0.374918,0.000169,0.176103,0.001527,-0.000753,-0.077307,-0.00101,0.0,0.0,0.0,0.0,0.0,0.0
206220,0.00572,0.106392,-0.005101,0.0,0.0,0.0,0.0,0.087266,0.0,3.0,0.301818,0.333606,0.289028,0.369571,0.00015,0.174536,0.001505,-0.00073,-0.080098,-0.001089,0.0,0.0,0.0,0.0,0.0,0.0
206240,0.005477,0.106025,-0.005087,0.0,0.0,0.0,0.0,0.087266,0.0,3.0,0.30052,0.336114,0.288443,0.368773,0.000132,0.172913,0.001482,-0.000708,-0.082791,-0.001161,0.0,0.0,0.0,0.0,0.0,0.0
206260,0.005477,0.106025,-0.005087,0.0,0.0,0.0,0.0,0.087266,0.0,3.0,0.296408,0.336944,0.283804,0.374355,0.000113,0.171238,0.001458,-0.000687,-0.085385,-0.001227,0.0,0.0,0.0,0.0,0.0,0.0
206280,0.005611,0.106391,-0.00485,0.0,0.0,0.0,0.0,0.087266,0.0,3.0,0.295134,0.335211,0.283399,0.37705,9.5e-05,0.169511,0.001432,-0.000667,-0.087879,-0.001286,0.0,0.0,0.0,0.0,0.0,0.0
206300,0.005611,0.106391,-0.00485,0.0,0.0,0.0,0.0,0.087266,0.0,3.0,0.295072,0.335621,0.286155,0.374852,7.8e-05,0.167736,0.001406,-0.000649,-0.090273,-0.001339,0.0,0.0,0.0,0.0,0.0,0.0
206320,0.00574,0.106147,-0.004733,0.0,0.0,0.0,0.0,0.087266,0.0,3.0,0.291446,0.337598,0.286828,0.375271,6e-05,0.165913,0.001378,-0.000631,-0.092564,-0.001386,0.0,0.0,0.0,0.0,0.0,0.0
206340,0.005625,0.106146,-0.004604,0.0,0.0,0.0,0.0,0.087266,0.0,3.0,0.288468,0.338458,0.28464,0.378119,4.3e-05,0.164045,0.00135,-0.000614,-0.094754,-0.001428,0.0,0.0,0.0,0.0,0.0,0.0
206360,0.005625,0.106024,-0.004603,0.0,0.0,0.0,0.0,0.087266,0.0,3.0,0.293673,0.334235,0.289012,0.375062,2.6e-05,0.162134,0.00132,-0.000598,-0.09684,-0.001463,0.0,0.0,0.0,0.0,0.0,0.0
206380,0.005625,0.105902,-0.004603,0.0,0.0,0.0,0.0,0.087266,0.0,3.0,0.293999,0.336384,0.289362,0.372718,1e-05,0.160182,0.00129,-0.000582,-0.098824,-0.001493,0.0,0.0,0.0,0.0,0.0,0.0
206400,0.00551,0.105902,-0.004474,0.0,0.0,0.0,0.0,0.087266,0.0,3.0,0.294404,0.338779,0.282761,0.374921,-7e-06,0.158192,0.00126,-0.000568,-0.100703,-0.001519,0.0,0.0,0.0,0.0,0.0,0.0
206420,0.005388,0.106023,-0.004468,0.0,0.0,0.0,0.0,0.087266,0.0,3.0,0.296443,0.334345,0.285665,0.375296,-2.3e-05,0.156164,0.001229,-0.000554,-0.102478,-0.001539,0.0,0.0,0.0,0.0,0.0,0.0
206440,0.005638,0.106146,-0.004359,0.0,0.0,0.0,0.0,0.087266,0.0,3.0,0.289505,0.340021,0.28369,0.376685,-3.9e-05,0.154102,0.001198,-0.000541,-0.104149,-0.001555,0.0,0.0,0.0,0.0,0.0,0.0
206460,0.005637,0.106267,-0.004359,0.0,0.0,0.0,0.0,0.087266,0.0,3.0,0.296064,0.333642,0.285852,0.376043,-5.4e-05,0.152007,0.001166,-0.000528,-0.105716,-0.001566,0.0,0.0,0.0,0.0,0.0,0.0
206480,0.00576,0.106146,-0.004365,0.0,0.0,0.0,0.0,0.087266,0.0,3.0,0.295899,0.335934,0.28687,0.373483,-6.9e-05,0.149881,0.001135,-0.000516,-0.107178,-0.001573,0.0,0.0,0.0,0.0,0.0,0.0
206500,0.005888,0.106024,-0.004249,0.0,0.0,0.0,0.0,0.087266,0.0,3.0,0.293171,0.337842,0.284686,0.375308,-8.4e-05,0.147728,0.001103,-0.000504,-0.108535,-0.001576,0.0,0.0,0.0,0.0,0.0,0.0
206520,0.005888,0.106146,-0.004249,0.0,0.0,0.0,0.0,0.087266,0.0,3.0,0.292063,0.33541,0.284619,0.378238,-9.9e-05,0.145547,0.001071,-0.000492,-0.109788,-0.001576,0.0,0.0,0.0,0.0,0.0,0.0
206540,0.005766,0.106023,-0.004242,0.0,0.0,0.0,0.0,0.087266,0.0,3.0,0.295616,0.334142,0.287018,0.375133,-0.000113,0.143343,0.00104,-0.000481,-0.110936,-0.001572,0.0,0.0,0.0,0.0,0.0,0.0
206560,0.005645,0.105779,-0.004235,0.0,0.0,0.0,0.0,0.087266,0.0,3.0,0.295345,0.336229,0.287941,0.372879,-0.000127,0.141116,0.001008,-0.00047,-0.111981,-0.001565,0.0,0.0,0.0,0.0,0.0,0.0
206580,0.005645,0.105901,-0.004235,0.0,0.0,0.0,0.0,0.087266,0.0,3.0,0.29612,0.335098,0.287052,0.373918,-0.000141,0.138869,0.000977,-0.00046,-0.112922,-0.001555,0.0,0.0,0.0,0.0,0.0,0.0
206600,0.005516,0.106023,-0.004352,0.0,0.0,0.0,0.0,0.087266,0.0,3.0,0.294467,0.334366,0.286633,0.376038,-0.000154,0.136604,0.000946,-0.000449,-0.113759,-0.001542,0.0,0.0,0.0,0.0,0.0,0.0
206620,0.005272,0.106145,-0.004339,0.0,0.0,0.0,0.0,0.087266,0.0,3.0,0.297532,0.331702,0.288472,0.374806,-0.000167,0.134323,0.000915,-0.000439,-0.114493,-0.001527,0.0,0.0,0.0,0.0,0.0,0.0
