time_ms,roll,pitch,yaw,x,y,z,reference_roll,reference_pitch,reference_yaw,reference_throttle,throttle_1,throttle_2,throttle_3,throttle_4,roll_predicted,pitch_predicted,yaw_predicted,roll_rate_predicted,pitch_rate_predicted,yaw_rate_predicted,value1,value2,value3,value4,value5,value6
156960,0.006825,-0.00636,0.003684,0.0,0.0,0.0,0.0,0.0,0.0,3.0,0.306472,0.348827,0.281851,0.357063,0.00038,1.1e-05,-0.0,0.015202,-2.5e-05,-0.0,0.0,0.0,0.0,0.0,0.0,0.0
156980,0.007069,-0.006604,0.003442,0.0,0.0,0.0,0.0,0.0,0.0,3.0,0.308024,0.348935,0.282454,0.35525,0.000682,1e-05,-0.0,0.015014,-2.5e-05,-0.0,0.0,0.0,0.0,0.0,0.0,0.0
157000,0.007557,-0.006605,0.003443,0.0,0.0,0.0,0.0,0.0,0.0,3.0,0.303951,0.350657,0.280934,0.357981,0.000981,1e-05,-0.0,0.014816,-2.5e-05,-0.0,0.0,0.0,0.0,0.0,0.0,0.0
157020,0.007802,-0.006727,0.003323,0.0,0.0,0.0,0.0,0.0,0.0,3.0,0.30504,0.349045,0.280808,0.358759,0.001276,9e-06,-0.0,0.014607,-2.6e-05,-0.0,0.0,0.0,0.0,0.0,0.0,0.0
157040,0.007925,-0.006726,0.003079,0.0,0.0,0.0,0.0,0.0,0.0,3.0,0.304176,0.346074,0.285923,0.358599,0.001638,9e-06,-0.0,0.014332,-2.6e-05,-0.0,0.0,0.0,0.0,0.0,0.0,0.0
157060,0.008047,-0.006848,0.002958,0.0,0.0,0.0,0.0,0.0,0.0,3.0,0.309753,0.345262,0.284444,0.355919,0.001852,8e-06,-0.0,0.01416,-2.6e-05,-0.0,0.0,0.0,0.0,0.0,0.0,0.0
157080,0.008291,-0.007092,0.002837,0.0,0.0,0.0,0.0,0.0,0.0,3.0,0.308024,0.346956,0.286342,0.354307,0.002134,8e-06,-0.0,0.013923,-2.6e-05,-0.0,0.0,0.0,0.0,0.0,0.0,0.0
157100,0.008292,-0.006848,0.002836,0.0,0.0,0.0,0.0,0.0,0.0,3.0,0.302697,0.347071,0.281809,0.361794,0.002479,7e-06,-0.0,0.013613,-2.6e-05,-0.0,0.0,0.0,0.0,0.0,0.0,0.0
157120,0.008292,-0.007091,0.002715,0.0,0.0,0.0,0.0,0.0,0.0,3.0,0.303272,0.350111,0.282203,0.358143,0.002749,7e-06,-0.0,0.013356,-2.6e-05,-0.0,0.0,0.0,0.0,0.0,0.0,0.0
157140,0.008414,-0.006969,0.002593,0.0,0.0,0.0,0.0,0.0,0.0,3.0,0.307708,0.34801,0.281475,0.357118,0.002949,6e-06,-0.0,0.013158,-2.6e-05,-0.0,0.0,0.0,0.0,0.0,0.0,0.0
157160,0.008537,-0.007091,0.002472,0.0,0.0,0.0,0.0,0.0,0.0,3.0,0.308221,0.345376,0.286271,0.355726,0.00321,6e-06,-0.0,0.012886,-2.6e-05,-0.0,0.0,0.0,0.0,0.0,0.0,0.0
157180,0.008781,-0.007091,0.002351,0.0,0.0,0.0,0.0,0.0,0.0,3.0,0.308004,0.345688,0.286993,0.355067,0.003465,5e-06,-0.0,0.012607,-2.6e-05,-0.0,0.0,0.0,0.0,0.0,0.0,0.0
157200,0.008904,-0.006846,0.002228,0.0,0.0,0.0,0.0,0.0,0.0,3.0,0.307799,0.346171,0.282499,0.358072,0.003715,5e-06,-0.0,0.01232,-2.6e-05,-0.0,0.0,0.0,0.0,0.0,0.0,0.0
157220,0.009026,-0.006846,0.002106,0.0,0.0,0.0,0.0,0.0,0.0,3.0,0.303725,0.34669,0.2866,0.357873,0.00402,4e-06,-0.0,0.011951,-2.6e-05,0.0,0.0,0.0,0.0,0.0,0.0,0.0
157240,0.009271,-0.006724,0.002107,0.0,0.0,0.0,0.0,0.0,0.0,3.0,0.297983,0.349381,0.282857,0.362514,0.004256,3e-06,-0.0,0.011648,-2.5e-05,0.0,0.0,0.0,0.0,0.0,0.0,0.0
157260,0.009394,-0.006723,0.001863,0.0,0.0,0.0,0.0,0.0,0.0,3.0,0.307567,0.342628,0.289552,0.356435,0.00443,3e-06,-0.0,0.011417,-2.5e-05,0.0,0.0,0.0,0.0,0.0,0.0,0.0
157280,0.009638,-0.0066,0.001741,0.0,0.0,0.0,0.0,0.0,0.0,3.0,0.306707,0.343631,0.289513,0.356214,0.004656,3e-06,-0.0,0.011104,-2.5e-05,0.0,0.0,0.0,0.0,0.0,0.0,0.0
157300,0.009882,-0.0066,0.001742,0.0,0.0,0.0,0.0,0.0,0.0,3.0,0.302287,0.344359,0.289489,0.359097,0.004876,2e-06,-0.0,0.010784,-2.5e-05,0.0,0.0,0.0,0.0,0.0,0.0,0.0
157320,0.010127,-0.006478,0.00162,0.0,0.0,0.0,0.0,0.0,0.0,3.0,0.304829,0.343643,0.287943,0.358895,0.005089,2e-06,-0.0,0.010459,-2.5e-05,0.0,0.0,0.0,0.0,0.0,0.0,0.0
157340,0.010372,-0.0066,0.001499,0.0,0.0,0.0,0.0,0.0,0.0,3.0,0.308104,0.342744,0.291936,0.354069,0.005296,1e-06,-0.0,0.010129,-2.5e-05,0.0,0.0,0.0,0.0,0.0,0.0,0.0
157360,0.010616,-0.006477,0.001377,0.0,0.0,0.0,0.0,0.0,0.0,3.0,0.301995,0.343454,0.289214,0.360384,0.005496,1e-06,-0.0,0.009794,-2.4e-05,0.0,0.0,0.0,0.0,0.0,0.0,0.0
157380,0.010982,-0.006477,0.001378,0.0,0.0,0.0,0.0,0.0,0.0,3.0,0.300447,0.349318,0.286222,0.358224,0.005736,-0.0,-0.0,0.009369,-2.4e-05,0.0,0.0,0.0,0.0,0.0,0.0,0.0
157400,0.011226,-0.0066,0.00138,0.0,0.0,0.0,0.0,0.0,0.0,3.0,0.30071,0.347012,0.285883,0.360479,0.005876,-0.0,-0.0,0.009111,-2.4e-05,0.0,0.0,0.0,0.0,0.0,0.0,0.0
157420,0.011471,-0.006599,0.001259,0.0,0.0,0.0,0.0,0.0,0.0,3.0,0.300635,0.349014,0.288491,0.356688,0.006099,-1e-06,-0.0,0.008676,-2.3e-05,0.0,0.0,0.0,0.0,0.0,0.0,0.0
157440,0.011715,-0.006965,0.00114,0.0,0.0,0.0,0.0,0.0,0.0,3.0,0.302975,0.345348,0.289123,0.357882,0.006228,-1e-06,-0.0,0.008412,-2.3e-05,0.0,0.0,0.0,0.0,0.0,0.0,0.0
157460,0.012082,-0.006964,0.001019,0.0,0.0,0.0,0.0,0.0,0.0,3.0,0.300897,0.348609,0.291215,0.354815,0.006434,-2e-06,-0.0,0.007969,-2.3e-05,0.0,0.0,0.0,0.0,0.0,0.0,0.0
157480,0.012327,-0.006963,0.000897,0.0,0.0,0.0,0.0,0.0,0.0,3.0,0.306034,0.342964,0.291534,0.355868,0.006552,-2e-06,-0.0,0.007701,-2.3e-05,0.0,0.0,0.0,0.0,0.0,0.0,0.0
157500,0.012449,-0.007086,0.000899,0.0,0.0,0.0,0.0,0.0,0.0,3.0,0.302137,0.346694,0.285893,0.359652,0.006703,-3e-06,-0.0,0.007341,-2.2e-05,0.0,0.0,0.0,0.0,0.0,0.0,0.0
157520,0.012693,-0.007086,0.0009,0.0,0.0,0.0,0.0,0.0,0.0,3.0,0.307054,0.343896,0.290048,0.355273,0.006847,-3e-06,-0.0,0.006979,-2.2e-05,0.0,0.0,0.0,0.0,0.0,0.0,0.0
157540,0.012815,-0.007207,0.000779,0.0,0.0,0.0,0.0,0.0,0.0,3.0,0.302573,0.348147,0.289444,0.355266,0.007017,-4e-06,-0.0,0.006524,-2.1e-05,0.0,0.0,0.0,0.0,0.0,0.0,0.0
157560,0.013181,-0.007207,0.00078,0.0,0.0,0.0,0.0,0.0,0.0,3.0,0.303162,0.346622,0.287341,0.357841,0.007114,-4e-06,-0.0,0.00625,-2.1e-05,0.0,0.0,0.0,0.0,0.0,0.0,0.0
157580,0.013426,-0.007207,0.000781,0.0,0.0,0.0,0.0,0.0,0.0,3.0,0.298421,0.348634,0.289286,0.358202,0.007266,-5e-06,-0.0,0.005791,-2.1e-05,0.0,0.0,0.0,0.0,0.0,0.0,0.0
157600,0.013548,-0.007206,0.000659,0.0,0.0,0.0,0.0,0.0,0.0,3.0,0.30335,0.346303,0.286821,0.358381,0.007351,-5e-06,-0.0,0.005516,-2e-05,0.0,0.0,0.0,0.0,0.0,0.0,0.0
157620,0.013671,-0.007206,0.000538,0.0,0.0,0.0,0.0,0.0,0.0,3.0,0.306836,0.345149,0.290733,0.353724,0.007459,-5e-06,-0.0,0.005147,-2e-05,0.0,0.0,0.0,0.0,0.0,0.0,0.0
157640,0.013548,-0.007206,0.000537,0.0,0.0,0.0,0.0,0.0,0.0,3.0,0.303531,0.347486,0.287397,0.356672,0.007559,-6e-06,-0.0,0.004779,-1.9e-05,0.0,0.0,0.0,0.0,0.0,0.0,0.0
157660,0.013793,-0.007206,0.000538,0.0,0.0,0.0,0.0,0.0,0.0,3.0,0.298233,0.34853,0.289929,0.357969,0.007674,-6e-06,-0.0,0.004318,-1.9e-05,0.0,0.0,0.0,0.0,0.0,0.0,0.0
157680,0.013671,-0.007083,0.000415,0.0,0.0,0.0,0.0,0.0,0.0,3.0,0.301923,0.346256,0.288781,0.358108,0.007737,-6e-06,-0.0,0.004042,-1.9e-05,0.0,0.0,0.0,0.0,0.0,0.0,0.0
157700,0.013793,-0.006961,0.000414,0.0,0.0,0.0,0.0,0.0,0.0,3.0,0.30113,0.347433,0.287282,0.35872,0.007815,-7e-06,-0.0,0.003675,-1.8e-05,0.0,0.0,0.0,0.0,0.0,0.0,0.0
157720,0.013793,-0.006961,0.000414,0.0,0.0,0.0,0.0,0.0,0.0,3.0,0.297888,0.350345,0.285528,0.359739,0.007902,-7e-06,-0.0,0.003217,-1.7e-05,0.0,0.0,0.0,0.0,0.0,0.0,0.0
157740,0.013671,-0.00696,0.000292,0.0,0.0,0.0,0.0,0.0,0.0,3.0,0.304755,0.346418,0.2881,0.35619,0.007964,-8e-06,-0.0,0.002852,-1.7e-05,0.0,0.0,0.0,0.0,0.0,0.0,0.0
157760,0.013794,-0.00696,0.000292,0.0,0.0,0.0,0.0,0.0,0.0,3.0,0.300984,0.346975,0.288101,0.358669,0.008005,-8e-06,-0.0,0.002579,-1.7e-05,0.0,0.0,0.0,0.0,0.0,0.0,0.0
157780,0.013794,-0.00696,0.000292,0.0,0.0,0.0,0.0,0.0,0.0,3.0,0.300636,0.347859,0.287887,0.358253,0.008054,-8e-06,-0.0,0.002217,-1.6e-05,0.0,0.0,0.0,0.0,0.0,0.0,0.0
157800,0.013916,-0.006959,0.000171,0.0,0.0,0.0,0.0,0.0,0.0,3.0,0.30035,0.347273,0.290811,0.356854,0.008105,-9e-06,-0.0,0.001767,-1.5e-05,0.0,0.0,0.0,0.0,0.0,0.0,0.0
157820,0.013794,-0.006959,0.00017,0.0,0.0,0.0,0.0,0.0,0.0,3.0,0.301355,0.348866,0.287448,0.357037,0.008138,-9e-06,-0.0,0.00141,-1.5e-05,0.0,0.0,0.0,0.0,0.0,0.0,0.0
157840,0.013916,-0.006837,0.00017,0.0,0.0,0.0,0.0,0.0,0.0,3.0,0.297343,0.347978,0.291487,0.358021,0.008158,-9e-06,-0.0,0.001144,-1.4e-05,0.0,0.0,0.0,0.0,0.0,0.0,0.0
157860,0.013916,-0.006715,0.000169,0.0,0.0,0.0,0.0,0.0,0.0,3.0,0.30148,0.34612,0.287301,0.359683,0.008178,-9e-06,-0.0,0.000791,-1.4e-05,0.0,0.0,0.0,0.0,0.0,0.0,0.0
157880,0.013916,-0.006592,4.6e-05,0.0,0.0,0.0,0.0,0.0,0.0,3.0,0.300167,0.347602,0.291228,0.356365,0.008191,-1e-05,-0.0,0.000442,-1.3e-05,0.0,0.0,0.0,0.0,0.0,0.0,0.0
157900,0.013917,-0.006591,-7.6e-05,0.0,0.0,0.0,0.0,0.0,0.0,3.0,0.30715,0.342905,0.291675,0.354902,0.008197,-1e-05,-0.0,9.7e-05,-1.3e-05,0.0,0.0,0.0,0.0,0.0,0.0,0.0
157920,0.013917,-0.006591,-7.6e-05,0.0,0.0,0.0,0.0,0.0,0.0,3.0,0.304265,0.345745,0.292659,0.353776,0.008197,-1e-05,-0.0,-0.000245,-1.2e-05,0.0,0.0,0.0,0.0,0.0,0.0,0.0
157940,0.013917,-0.006591,-7.6e-05,0.0,0.0,0.0,0.0,0.0,0.0,3.0,0.300804,0.347245,0.28896,0.357913,0.008189,-1e-05,-0.0,-0.000583,-1.2e-05,0.0,0.0,0.0,0.0,0.0,0.0,0.0
157960,0.013795,-0.006712,-0.000198,0.0,0.0,0.0,0.0,0.0,0.0,3.0,0.302241,0.346852,0.289676,0.356613,0.008175,-1.1e-05,-0.0,-0.000917,-1.1e-05,0.0,0.0,0.0,0.0,0.0,0.0,0.0
157980,0.013918,-0.006833,-0.000319,0.0,0.0,0.0,0.0,0.0,0.0,3.0,0.301766,0.347732,0.292794,0.353761,0.008148,-1.1e-05,-0.0,-0.001329,-1e-05,0.0,0.0,0.0,0.0,0.0,0.0,0.0
158000,0.01404,-0.006955,-0.000439,0.0,0.0,0.0,0.0,0.0,0.0,3.0,0.301886,0.344906,0.290985,0.357773,0.008127,-1.1e-05,-0.0,-0.001572,-1e-05,0.0,0.0,0.0,0.0,0.0,0.0,0.0
158020,0.014284,-0.007077,-0.000438,0.0,0.0,0.0,0.0,0.0,0.0,3.0,0.302399,0.343924,0.2962,0.354294,0.008093,-1.1e-05,-0.0,-0.001892,-9e-06,0.0,0.0,0.0,0.0,0.0,0.0,0.0
158040,0.014529,-0.007199,-0.000436,0.0,0.0,0.0,0.0,0.0,0.0,3.0,0.30014,0.34639,0.290558,0.358058,0.008053,-1.1e-05,-0.0,-0.002207,-9e-06,0.0,0.0,0.0,0.0,0.0,0.0,0.0
158060,0.014895,-0.00732,-0.000556,0.0,0.0,0.0,0.0,0.0,0.0,3.0,0.298992,0.34975,0.293662,0.35333,0.007994,-1.2e-05,-0.0,-0.002594,-8e-06,0.0,0.0,0.0,0.0,0.0,0.0,0.0
158080,0.015261,-0.007442,-0.000554,0.0,0.0,0.0,0.0,0.0,0.0,3.0,0.29957,0.346852,0.291179,0.357596,0.007954,-1.2e-05,-0.0,-0.002822,-8e-06,0.0,0.0,0.0,0.0,0.0,0.0,0.0
158100,0.015628,-0.007685,-0.000672,0.0,0.0,0.0,0.0,0.0,0.0,3.0,0.302956,0.345021,0.29713,0.352046,0.007895,-1.2e-05,0.0,-0.00312,-7e-06,0.0,0.0,0.0,0.0,0.0,0.0,0.0
158120,0.015872,-0.007807,-0.00067,0.0,0.0,0.0,0.0,0.0,0.0,3.0,0.299919,0.346875,0.291413,0.357122,0.00783,-1.2e-05,0.0,-0.003413,-7e-06,0.0,0.0,0.0,0.0,0.0,0.0,0.0
158140,0.016117,-0.007928,-0.000791,0.0,0.0,0.0,0.0,0.0,0.0,3.0,0.298455,0.348294,0.292293,0.356234,0.00776,-1.2e-05,0.0,-0.0037,-6e-06,0.0,0.0,0.0,0.0,0.0,0.0,0.0
158160,0.016361,-0.007805,-0.000791,0.0,0.0,0.0,0.0,0.0,0.0,3.0,0.299204,0.345204,0.293121,0.357987,0.007684,-1.2e-05,0.0,-0.003981,-5e-06,0.0,0.0,0.0,0.0,0.0,0.0,0.0
158180,0.016605,-0.007805,-0.00079,0.0,0.0,0.0,0.0,0.0,0.0,3.0,0.294426,0.351381,0.291771,0.356757,0.007581,-1.2e-05,0.0,-0.004323,-5e-06,0.0,0.0,0.0,0.0,0.0,0.0,0.0
158200,0.016606,-0.007682,-0.000913,0.0,0.0,0.0,0.0,0.0,0.0,3.0,0.303988,0.345111,0.296402,0.351691,0.007492,-1.3e-05,0.0,-0.00459,-4e-06,0.0,0.0,0.0,0.0,0.0,0.0,0.0
158220,0.016849,-0.007683,-0.00079,0.0,0.0,0.0,0.0,0.0,0.0,3.0,0.296353,0.349698,0.294043,0.355169,0.007399,-1.3e-05,0.0,-0.004849,-4e-06,0.0,0.0,0.0,0.0,0.0,0.0,0.0
158240,0.016849,-0.007561,-0.000791,0.0,0.0,0.0,0.0,0.0,0.0,3.0,0.296538,0.350213,0.290919,0.35691,0.0073,-1.3e-05,0.0,-0.005102,-3e-06,0.0,0.0,0.0,0.0,0.0,0.0,0.0
158260,0.016728,-0.007682,-0.000912,0.0,0.0,0.0,0.0,0.0,0.0,3.0,0.299963,0.349016,0.293481,0.353418,0.007196,-1.3e-05,0.0,-0.005348,-2e-06,0.0,0.0,0.0,0.0,0.0,0.0,0.0
158280,0.016606,-0.007681,-0.001035,0.0,0.0,0.0,0.0,0.0,0.0,3.0,0.304965,0.345118,0.296187,0.351051,0.007087,-1.3e-05,0.0,-0.005586,-2e-06,0.0,0.0,0.0,0.0,0.0,0.0,0.0
158300,0.016728,-0.007559,-0.001035,0.0,0.0,0.0,0.0,0.0,0.0,3.0,0.301147,0.34868,0.289061,0.356177,0.007002,-1.3e-05,0.0,-0.005761,-1e-06,0.0,0.0,0.0,0.0,0.0,0.0,0.0
158320,0.016728,-0.00756,-0.000913,0.0,0.0,0.0,0.0,0.0,0.0,3.0,0.295901,0.351164,0.287098,0.359328,0.006886,-1.3e-05,0.0,-0.005987,-1e-06,0.0,0.0,0.0,0.0,0.0,0.0,0.0
158340,0.01685,-0.007559,-0.001035,0.0,0.0,0.0,0.0,0.0,0.0,3.0,0.302297,0.348694,0.291199,0.353619,0.006764,-1.3e-05,0.0,-0.006205,-0.0,0.0,0.0,0.0,0.0,0.0,0.0,0.0
158360,0.016972,-0.007681,-0.001033,0.0,0.0,0.0,0.0,0.0,0.0,3.0,0.303795,0.346867,0.295085,0.351171,0.006638,-1.3e-05,0.0,-0.006416,0.0,0.0,0.0,0.0,0.0,0.0,0.0,0.0
158380,0.017217,-0.007681,-0.001032,0.0,0.0,0.0,0.0,0.0,0.0,3.0,0.301247,0.345174,0.297896,0.352676,0.006475,-1.3e-05,0.0,-0.006669,1e-06,0.0,0.0,0.0,0.0,0.0,0.0,0.0
158400,0.01746,-0.007682,-0.000909,0.0,0.0,0.0,0.0,0.0,0.0,3.0,0.298079,0.350831,0.289604,0.356096,0.006375,-1.3e-05,0.0,-0.006815,1e-06,0.0,0.0,0.0,0.0,0.0,0.0,0.0
158420,0.01746,-0.007682,-0.000909,0.0,0.0,0.0,0.0,0.0,0.0,3.0,0.297956,0.347631,0.293625,0.35625,0.006202,-1.3e-05,0.0,-0.007049,2e-06,0.0,0.0,0.0,0.0,0.0,0.0,0.0
158440,0.017582,-0.007804,-0.000908,0.0,0.0,0.0,0.0,0.0,0.0,3.0,0.297805,0.347129,0.293947,0.356605,0.00606,-1.3e-05,0.0,-0.007227,2e-06,0.0,0.0,0.0,0.0,0.0,0.0,0.0
158460,0.017704,-0.007926,-0.000906,0.0,0.0,0.0,0.0,0.0,0.0,3.0,0.297582,0.346722,0.29653,0.35517,0.005914,-1.3e-05,0.0,-0.007397,3e-06,0.0,0.0,0.0,0.0,0.0,0.0,0.0
158480,0.017704,-0.008049,-0.000783,0.0,0.0,0.0,0.0,0.0,0.0,3.0,0.295292,0.349537,0.291611,0.358007,0.005765,-1.3e-05,0.0,-0.007559,3e-06,-0.0,0.0,0.0,0.0,0.0,0.0,0.0
158500,0.017704,-0.008171,-0.000782,0.0,0.0,0.0,0.0,0.0,0.0,3.0,0.292398,0.352036,0.2904,0.358698,0.005612,-1.3e-05,0.0,-0.007713,4e-06,-0.0,0.0,0.0,0.0,0.0,0.0,0.0
158520,0.017704,-0.008293,-0.000781,0.0,0.0,0.0,0.0,0.0,0.0,3.0,0.293987,0.349306,0.2923,0.358709,0.005457,-1.2e-05,0.0,-0.007859,4e-06,-0.0,0.0,0.0,0.0,0.0,0.0,0.0
158540,0.01746,-0.008537,-0.00078,0.0,0.0,0.0,0.0,0.0,0.0,3.0,0.29854,0.348331,0.292723,0.355803,0.005299,-1.2e-05,0.0,-0.007997,5e-06,-0.0,0.0,0.0,0.0,0.0,0.0,0.0
158560,0.017338,-0.008537,-0.00078,0.0,0.0,0.0,0.0,0.0,0.0,3.0,0.300237,0.353829,0.288616,0.352149,0.005178,-1.2e-05,0.0,-0.008095,5e-06,-0.0,0.0,0.0,0.0,0.0,0.0,0.0
158580,0.017216,-0.008659,-0.00078,0.0,0.0,0.0,0.0,0.0,0.0,3.0,0.294043,0.351194,0.291501,0.357438,0.004974,-1.2e-05,0.0,-0.008249,6e-06,-0.0,0.0,0.0,0.0,0.0,0.0,0.0
158600,0.017094,-0.008537,-0.000782,0.0,0.0,0.0,0.0,0.0,0.0,3.0,0.295282,0.348897,0.291316,0.358857,0.004808,-1.2e-05,0.0,-0.008362,6e-06,-0.0,0.0,0.0,0.0,0.0,0.0,0.0
158620,0.017216,-0.008659,-0.00078,0.0,0.0,0.0,0.0,0.0,0.0,3.0,0.295682,0.347783,0.29571,0.356266,0.00464,-1.2e-05,0.0,-0.008467,7e-06,-0.0,0.0,0.0,0.0,0.0,0.0,0.0
158640,0.017094,-0.008537,-0.000782,0.0,0.0,0.0,0.0,0.0,0.0,3.0,0.30233,0.344091,0.296534,0.353925,0.00447,-1.2e-05,0.0,-0.008564,7e-06,-0.0,0.0,0.0,0.0,0.0,0.0,0.0
158660,0.017337,-0.00866,-0.000657,0.0,0.0,0.0,0.0,0.0,0.0,3.0,0.298271,0.349785,0.294259,0.353404,0.004342,-1.2e-05,0.0,-0.008632,7e-06,-0.0,0.0,0.0,0.0,0.0,0.0,0.0
158680,0.017459,-0.008538,-0.000658,0.0,0.0,0.0,0.0,0.0,0.0,3.0,0.29456,0.349498,0.291671,0.358561,0.004125,-1.1e-05,0.0,-0.008734,8e-06,-0.0,0.0,0.0,0.0,0.0,0.0,0.0
158700,0.017459,-0.008538,-0.000658,0.0,0.0,0.0,0.0,0.0,0.0,3.0,0.297008,0.348484,0.294214,0.355709,0.003949,-1.1e-05,0.0,-0.008807,8e-06,-0.0,0.0,0.0,0.0,0.0,0.0,0.0
158720,0.017337,-0.008416,-0.000659,0.0,0.0,0.0,0.0,0.0,0.0,3.0,0.298611,0.347713,0.292991,0.356141,0.003773,-1.1e-05,0.0,-0.008871,9e-06,-0.0,0.0,0.0,0.0,0.0,0.0,0.0
158740,0.017338,-0.008293,-0.000783,0.0,0.0,0.0,0.0,0.0,0.0,3.0,0.301974,0.34319,0.299357,0.352845,0.003595,-1.1e-05,0.0,-0.008927,9e-06,-0.0,0.0,0.0,0.0,0.0,0.0,0.0
158760,0.017216,-0.008171,-0.000784,0.0,0.0,0.0,0.0,0.0,0.0,3.0,0.298304,0.347277,0.294224,0.355857,0.003416,-1.1e-05,0.0,-0.008976,9e-06,-0.0,0.0,0.0,0.0,0.0,0.0,0.0
158780,0.017215,-0.007928,-0.000664,0.0,0.0,0.0,0.0,0.0,0.0,3.0,0.295873,0.347694,0.293531,0.357881,0.003236,-1.1e-05,0.0,-0.009016,1e-05,-0.0,0.0,0.0,0.0,0.0,0.0,0.0
158800,0.017215,-0.00805,-0.000663,0.0,0.0,0.0,0.0,0.0,0.0,3.0,0.298222,0.349377,0.293261,0.354619,0.003056,-1e-05,0.0,-0.009049,1e-05,-0.0,0.0,0.0,0.0,0.0,0.0,0.0
158820,0.01746,-0.007927,-0.000785,0.0,0.0,0.0,0.0,0.0,0.0,3.0,0.297443,0.350554,0.294109,0.353417,0.00292,-1e-05,0.0,-0.009068,1e-05,-0.0,0.0,0.0,0.0,0.0,0.0,0.0
158840,0.01746,-0.007927,-0.000785,0.0,0.0,0.0,0.0,0.0,0.0,3.0,0.29758,0.348348,0.294982,0.354799,0.002693,-1e-05,0.0,-0.00909,1.1e-05,-0.0,0.0,0.0,0.0,0.0,0.0,0.0
158860,0.017582,-0.007683,-0.000787,0.0,0.0,0.0,0.0,0.0,0.0,3.0,0.297319,0.347068,0.294807,0.356382,0.002511,-1e-05,0.0,-0.009099,1.1e-05,-0.0,0.0,0.0,0.0,0.0,0.0,0.0
158880,0.017582,-0.007438,-0.000911,0.0,0.0,0.0,0.0,0.0,0.0,3.0,0.302004,0.343494,0.299738,0.35222,0.002329,-1e-05,0.0,-0.0091,1.1e-05,-0.0,0.0,0.0,0.0,0.0,0.0,0.0
158900,0.017582,-0.007315,-0.000912,0.0,0.0,0.0,0.0,0.0,0.0,3.0,0.299513,0.345857,0.296988,0.354122,0.002147,-9e-06,0.0,-0.009094,1.2e-05,-0.0,0.0,0.0,0.0,0.0,0.0,0.0
158920,0.017582,-0.007315,-0.000912,0.0,0.0,0.0,0.0,0.0,0.0,3.0,0.297259,0.349178,0.295289,0.353999,0.001965,-9e-06,0.0,-0.00908,1.2e-05,-0.0,0.0,0.0,0.0,0.0,0.0,0.0
158940,0.017582,-0.007193,-0.000913,0.0,0.0,0.0,0.0,0.0,0.0,3.0,0.297277,0.348512,0.295106,0.35478,0.001784,-9e-06,0.0,-0.009059,1.2e-05,-0.0,0.0,0.0,0.0,0.0,0.0,0.0
158960,0.017704,-0.007193,-0.000913,0.0,0.0,0.0,0.0,0.0,0.0,3.0,0.292936,0.35168,0.292252,0.35724,0.001603,-9e-06,0.0,-0.009031,1.2e-05,-0.0,0.0,0.0,0.0,0.0,0.0,0.0
158980,0.017827,-0.007192,-0.001034,0.0,0.0,0.0,0.0,0.0,0.0,3.0,0.297956,0.348078,0.298899,0.351674,0.001422,-8e-06,0.0,-0.008995,1.2e-05,-0.0,0.0,0.0,0.0,0.0,0.0,0.0
159000,0.017827,-0.007314,-0.001033,0.0,0.0,0.0,0.0,0.0,0.0,3.0,0.301607,0.347452,0.298319,0.34981,0.001243,-8e-06,0.0,-0.008952,1.3e-05,-0.0,0.0,0.0,0.0,0.0,0.0,0.0
159020,0.017949,-0.007314,-0.001033,0.0,0.0,0.0,0.0,0.0,0.0,3.0,0.296993,0.349445,0.296141,0.353279,0.001064,-8e-06,0.0,-0.008903,1.3e-05,-0.0,0.0,0.0,0.0,0.0,0.0,0.0
159040,0.017949,-0.007436,-0.001032,0.0,0.0,0.0,0.0,0.0,0.0,3.0,0.297244,0.349959,0.295477,0.353094,0.000886,-8e-06,0.0,-0.008846,1.3e-05,-0.0,0.0,0.0,0.0,0.0,0.0,0.0
159060,0.017827,-0.007558,-0.001031,0.0,0.0,0.0,0.0,0.0,0.0,3.0,0.29847,0.350373,0.294243,0.352677,0.00071,-7e-06,0.0,-0.008783,1.3e-05,-0.0,0.0,0.0,0.0,0.0,0.0,0.0
159080,0.017827,-0.007803,-0.001029,0.0,0.0,0.0,0.0,0.0,0.0,3.0,0.297132,0.353032,0.29544,0.350141,0.000535,-7e-06,0.0,-0.008713,1.3e-05,-0.0,0.0,0.0,0.0,0.0,0.0,0.0
159100,0.017827,-0.007925,-0.001028,0.0,0.0,0.0,0.0,0.0,0.0,3.0,0.297014,0.351901,0.295663,0.351198,0.000361,-7e-06,0.0,-0.008636,1.4e-05,-0.0,0.0,0.0,0.0,0.0,0.0,0.0
159120,0.017827,-0.008169,-0.001026,0.0,0.0,0.0,0.0,0.0,0.0,3.0,0.297323,0.348043,0.295623,0.354799,0.000232,-7e-06,0.0,-0.008575,1.4e-05,-0.0,0.0,0.0,0.0,0.0,0.0,0.0
159140,0.017827,-0.008291,-0.001025,0.0,0.0,0.0,0.0,0.0,0.0,3.0,0.297431,0.351228,0.29651,0.350869,1.9e-05,-6e-06,-0.0,-0.008465,1.4e-05,-0.0,0.0,0.0,0.0,0.0,0.0,0.0
159160,0.017827,-0.008413,-0.001024,0.0,0.0,0.0,0.0,0.0,0.0,3.0,0.297633,0.352147,0.295215,0.350812,-0.00015,-6e-06,-0.0,-0.008369,1.4e-05,-0.0,0.0,0.0,0.0,0.0,0.0,0.0
159180,0.017949,-0.008414,-0.000901,0.0,0.0,0.0,0.0,0.0,0.0,3.0,0.294836,0.35353,0.292984,0.353379,-0.000317,-6e-06,-0.0,-0.008268,1.4e-05,-0.0,0.0,0.0,0.0,0.0,0.0,0.0
159200,0.017949,-0.008414,-0.000901,0.0,0.0,0.0,0.0,0.0,0.0,3.0,0.295812,0.353494,0.292923,0.352697,-0.000481,-5e-06,-0.0,-0.008162,1.4e-05,-0.0,0.0,0.0,0.0,0.0,0.0,0.0
159220,0.017949,-0.008292,-0.000902,0.0,0.0,0.0,0.0,0.0,0.0,3.0,0.297203,0.350382,0.295297,0.35285,-0.000644,-5e-06,-0.0,-0.008049,1.4e-05,-0.0,0.0,0.0,0.0,0.0,0.0,0.0
159240,0.017949,-0.008292,-0.000902,0.0,0.0,0.0,0.0,0.0,0.0,3.0,0.297266,0.351649,0.29769,0.349634,-0.000804,-5e-06,-0.0,-0.007931,1.4e-05,-0.0,0.0,0.0,0.0,0.0,0.0,0.0
159260,0.017826,-0.007927,-0.000784,0.0,0.0,0.0,0.0,0.0,0.0,3.0,0.294933,0.351008,0.293066,0.355741,-0.000961,-5e-06,-0.0,-0.007808,1.4e-05,-0.0,0.0,0.0,0.0,0.0,0.0,0.0
159280,0.017948,-0.007928,-0.000661,0.0,0.0,0.0,0.0,0.0,0.0,3.0,0.288671,0.356264,0.291193,0.356733,-0.001117,-4e-06,-0.0,-0.007679,1.4e-05,-0.0,0.0,0.0,0.0,0.0,0.0,0.0
159300,0.017826,-0.007683,-0.000786,0.0,0.0,0.0,0.0,0.0,0.0,3.0,0.298238,0.348246,0.29607,0.353528,-0.001269,-4e-06,-0.0,-0.007546,1.4e-05,-0.0,0.0,0.0,0.0,0.0,0.0,0.0
159320,0.017948,-0.007806,-0.000662,0.0,0.0,0.0,0.0,0.0,0.0,3.0,0.295204,0.35291,0.295932,0.351406,-0.001419,-4e-06,-0.0,-0.007408,1.4e-05,-0.0,0.0,0.0,0.0,0.0,0.0,0.0
159340,0.017947,-0.007441,-0.000544,0.0,0.0,0.0,0.0,0.0,0.0,3.0,0.293768,0.351237,0.293595,0.35601,-0.001566,-3e-06,-0.0,-0.007265,1.4e-05,-0.0,0.0,0.0,0.0,0.0,0.0,0.0
159360,0.017947,-0.007563,-0.000542,0.0,0.0,0.0,0.0,0.0,0.0,3.0,0.29172,0.354785,0.291673,0.355539,-0.00171,-3e-06,-0.0,-0.007117,1.4e-05,-0.0,0.0,0.0,0.0,0.0,0.0,0.0
159380,0.017825,-0.007197,-0.000546,0.0,0.0,0.0,0.0,0.0,0.0,3.0,0.296704,0.348231,0.295101,0.355507,-0.001852,-3e-06,-0.0,-0.006966,1.4e-05,-0.0,0.0,0.0,0.0,0.0,0.0,0.0
159400,0.017825,-0.007197,-0.000546,0.0,0.0,0.0,0.0,0.0,0.0,3.0,0.29622,0.350241,0.295962,0.353242,-0.00199,-3e-06,-0.0,-0.00681,1.4e-05,-0.0,0.0,0.0,0.0,0.0,0.0,0.0
159420,0.017702,-0.006954,-0.000427,0.0,0.0,0.0,0.0,0.0,0.0,3.0,0.293911,0.350442,0.293402,0.356826,-0.002125,-2e-06,-0.0,-0.00665,1.4e-05,0.0,0.0,0.0,0.0,0.0,0.0,0.0
159440,0.017702,-0.006954,-0.000427,0.0,0.0,0.0,0.0,0.0,0.0,3.0,0.293975,0.351401,0.295323,0.354349,-0.002256,-2e-06,-0.0,-0.006486,1.4e-05,0.0,0.0,0.0,0.0,0.0,0.0,0.0
159460,0.017703,-0.006708,-0.000551,0.0,0.0,0.0,0.0,0.0,0.0,3.0,0.299159,0.344655,0.302404,0.351233,-0.002385,-2e-06,-0.0,-0.006319,1.4e-05,0.0,0.0,0.0,0.0,0.0,0.0,0.0
159480,0.017702,-0.006709,-0.000429,0.0,0.0,0.0,0.0,0.0,0.0,3.0,0.294739,0.350375,0.298859,0.354212,-0.002479,-2e-06,-0.0,-0.006191,1.4e-05,0.0,0.0,0.0,0.0,0.0,0.0,0.0
159500,0.017702,-0.006465,-0.000431,0.0,0.0,0.0,0.0,0.0,0.0,3.0,0.292187,0.349246,0.296341,0.357042,-0.002632,-1e-06,-0.0,-0.005974,1.4e-05,0.0,0.0,0.0,0.0,0.0,0.0,0.0
159520,0.01758,-0.006465,-0.000431,0.0,0.0,0.0,0.0,0.0,0.0,3.0,0.294464,0.350085,0.295065,0.355467,-0.00275,-1e-06,-0.0,-0.005797,1.4e-05,0.0,0.0,0.0,0.0,0.0,0.0,0.0
159540,0.017702,-0.006343,-0.000432,0.0,0.0,0.0,0.0,0.0,0.0,3.0,0.293564,0.348676,0.298389,0.354939,-0.002864,-1e-06,-0.0,-0.005617,1.4e-05,0.0,0.0,0.0,0.0,0.0,0.0,0.0
159560,0.01758,-0.006221,-0.000434,0.0,0.0,0.0,0.0,0.0,0.0,3.0,0.295369,0.348903,0.296791,0.354575,-0.002975,-0.0,-0.0,-0.005434,1.3e-05,0.0,0.0,0.0,0.0,0.0,0.0,0.0
159580,0.01758,-0.005978,-0.000314,0.0,0.0,0.0,0.0,0.0,0.0,3.0,0.288974,0.351409,0.293379,0.359628,-0.003083,-0.0,-0.0,-0.005249,1.3e-05,0.0,0.0,0.0,0.0,0.0,0.0,0.0
159600,0.017458,-0.005856,-0.000315,0.0,0.0,0.0,0.0,0.0,0.0,3.0,0.294879,0.347912,0.296547,0.356111,-0.003186,0.0,-0.0,-0.005061,1.3e-05,0.0,0.0,0.0,0.0,0.0,0.0,0.0
159620,0.017458,-0.005612,-0.000317,0.0,0.0,0.0,0.0,0.0,0.0,3.0,0.293689,0.347136,0.298294,0.356413,-0.003286,0.0,-0.0,-0.004871,1.3e-05,0.0,0.0,0.0,0.0,0.0,0.0,0.0
159640,0.017335,-0.005369,-0.000198,0.0,0.0,0.0,0.0,0.0,0.0,3.0,0.293708,0.348944,0.295677,0.356689,-0.003382,1e-06,-0.0,-0.004679,1.3e-05,0.0,0.0,0.0,0.0,0.0,0.0,0.0
159660,0.017335,-0.005004,-7.9e-05,0.0,0.0,0.0,0.0,0.0,0.0,3.0,0.288164,0.350732,0.2936,0.360714,-0.003474,1e-06,-0.0,-0.004486,1.3e-05,0.0,0.0,0.0,0.0,0.0,0.0,0.0
159680,0.017091,-0.004759,-0.000203,0.0,0.0,0.0,0.0,0.0,0.0,3.0,0.296142,0.346079,0.297489,0.356168,-0.003562,1e-06,-0.0,-0.004291,1.3e-05,0.0,0.0,0.0,0.0,0.0,0.0,0.0
159700,0.017091,-0.004393,-8.5e-05,0.0,0.0,0.0,0.0,0.0,0.0,3.0,0.293568,0.347082,0.296954,0.357605,-0.003647,1e-06,-0.0,-0.004094,1.2e-05,0.0,0.0,0.0,0.0,0.0,0.0,0.0
159720,0.016846,-0.00415,3.5e-05,0.0,0.0,0.0,0.0,0.0,0.0,3.0,0.290082,0.351704,0.291522,0.359919,-0.003727,2e-06,-0.0,-0.003896,1.2e-05,0.0,0.0,0.0,0.0,0.0,0.0,0.0
159740,0.016724,-0.003906,3.3e-05,0.0,0.0,0.0,0.0,0.0,0.0,3.0,0.292541,0.349498,0.299973,0.353664,-0.003785,2e-06,-0.0,-0.003746,1.2e-05,0.0,0.0,0.0,0.0,0.0,0.0,0.0
159760,0.01648,-0.003662,3e-05,0.0,0.0,0.0,0.0,0.0,0.0,3.0,0.297769,0.34577,0.301998,0.351588,-0.003858,2e-06,-0.0,-0.003547,1.2e-05,0.0,0.0,0.0,0.0,0.0,0.0,0.0
159780,0.01648,-0.00354,2.9e-05,0.0,0.0,0.0,0.0,0.0,0.0,3.0,0.293622,0.348756,0.297283,0.355685,-0.003945,2e-06,-0.0,-0.003296,1.2e-05,0.0,0.0,0.0,0.0,0.0,0.0,0.0
159800,0.016236,-0.003419,0.00015,0.0,0.0,0.0,0.0,0.0,0.0,3.0,0.292252,0.350214,0.293964,0.357883,-0.004009,3e-06,-0.0,-0.003094,1.1e-05,0.0,0.0,0.0,0.0,0.0,0.0,0.0
159820,0.016236,-0.003175,0.000148,0.0,0.0,0.0,0.0,0.0,0.0,3.0,0.289211,0.350651,0.293128,0.360376,-0.004069,3e-06,-0.0,-0.002893,1.1e-05,0.0,0.0,0.0,0.0,0.0,0.0,0.0
159840,0.016114,-0.003052,2.5e-05,0.0,0.0,0.0,0.0,0.0,0.0,3.0,0.295409,0.346093,0.297778,0.356496,-0.004126,3e-06,-0.0,-0.002691,1.1e-05,0.0,0.0,0.0,0.0,0.0,0.0,0.0
159860,0.016114,-0.003051,-9.7e-05,0.0,0.0,0.0,0.0,0.0,0.0,3.0,0.298894,0.344731,0.30212,0.351603,-0.004178,3e-06,-0.0,-0.002489,1.1e-05,0.0,0.0,0.0,0.0,0.0,0.0,0.0
159880,0.015992,-0.00293,2.3e-05,0.0,0.0,0.0,0.0,0.0,0.0,3.0,0.293436,0.349181,0.29604,0.356385,-0.004226,4e-06,-0.0,-0.002287,1e-05,0.0,0.0,0.0,0.0,0.0,0.0,0.0
159900,0.01587,-0.002808,2.2e-05,0.0,0.0,0.0,0.0,0.0,0.0,3.0,0.293915,0.349086,0.294879,0.357008,-0.00427,4e-06,-0.0,-0.002085,1e-05,0.0,0.0,0.0,0.0,0.0,0.0,0.0
159920,0.015748,-0.002685,-0.000101,0.0,0.0,0.0,0.0,0.0,0.0,3.0,0.296767,0.346088,0.299347,0.354203,-0.004311,4e-06,-0.0,-0.001884,1e-05,0.0,0.0,0.0,0.0,0.0,0.0,0.0
159940,0.015504,-0.002318,-0.000104,0.0,0.0,0.0,0.0,0.0,0.0,3.0,0.298926,0.344013,0.301163,0.353048,-0.004347,4e-06,-0.0,-0.001683,9e-06,0.0,0.0,0.0,0.0,0.0,0.0,0.0
159960,0.015382,-0.002074,-0.000106,0.0,0.0,0.0,0.0,0.0,0.0,3.0,0.297033,0.345967,0.299758,0.353784,-0.004379,4e-06,-0.0,-0.001483,9e-06,0.0,0.0,0.0,0.0,0.0,0.0,0.0
159980,0.015137,-0.001586,-0.00011,0.0,0.0,0.0,0.0,0.0,0.0,3.0,0.293619,0.346603,0.295983,0.358776,-0.004407,4e-06,-0.0,-0.001284,9e-06,0.0,0.0,0.0,0.0,0.0,0.0,0.0
160000,0.015015,-0.001463,-0.000233,0.0,0.0,0.0,0.0,0.0,0.0,3.0,0.295627,0.346487,0.298434,0.355432,-0.004431,5e-06,-0.0,-0.001087,9e-06,0.0,0.0,0.0,0.0,0.0,0.0,0.0
160020,0.014893,-0.001219,-0.000235,0.0,0.0,0.0,0.0,0.0,0.0,3.0,0.298665,0.344006,0.301531,0.352966,-0.004452,5e-06,-0.0,-0.00089,8e-06,0.0,0.0,0.0,0.0,0.0,0.0,0.0
160040,0.014771,-0.000976,-0.000115,0.0,0.0,0.0,0.0,0.0,0.0,3.0,0.29333,0.349069,0.296342,0.356341,-0.004468,5e-06,-0.0,-0.000695,8e-06,0.0,0.0,0.0,0.0,0.0,0.0,0.0
160060,0.014771,-0.000731,-0.000239,0.0,0.0,0.0,0.0,0.0,0.0,3.0,0.293158,0.348121,0.299639,0.354803,-0.00448,5e-06,-0.0,-0.000501,8e-06,0.0,0.0,0.0,0.0,0.0,0.0,0.0
160080,0.014649,-0.000486,-0.000363,0.0,0.0,0.0,0.0,0.0,0.0,3.0,0.29609,0.346287,0.300726,0.353439,-0.004489,5e-06,-0.0,-0.000309,7e-06,0.0,0.0,0.0,0.0,0.0,0.0,0.0
160100,0.014649,-0.000364,-0.000364,0.0,0.0,0.0,0.0,0.0,0.0,3.0,0.29496,0.346969,0.300889,0.35353,-0.004494,5e-06,-0.0,-0.000119,7e-06,0.0,0.0,0.0,0.0,0.0,0.0,0.0
160120,0.014649,-0.000241,-0.000364,0.0,0.0,0.0,0.0,0.0,0.0,3.0,0.295816,0.34718,0.301134,0.352454,-0.004495,6e-06,-0.0,6.9e-05,7e-06,0.0,0.0,0.0,0.0,0.0,0.0,0.0
160140,0.014649,-0.000119,-0.000365,0.0,0.0,0.0,0.0,0.0,0.0,3.0,0.292584,0.348213,0.29974,0.355075,-0.004492,6e-06,-0.0,0.000256,7e-06,0.0,0.0,0.0,0.0,0.0,0.0,0.0
160160,0.014649,3e-06,-0.000366,0.0,0.0,0.0,0.0,0.0,0.0,3.0,0.292951,0.348069,0.299121,0.355424,-0.004485,6e-06,-0.0,0.000439,6e-06,0.0,0.0,0.0,0.0,0.0,0.0,0.0
160180,0.014649,4e-06,-0.000488,0.0,0.0,0.0,0.0,0.0,0.0,3.0,0.296532,0.344971,0.305098,0.35081,-0.004475,6e-06,-0.0,0.000621,6e-06,0.0,0.0,0.0,0.0,0.0,0.0,0.0
160200,0.014649,0.000125,-0.000367,0.0,0.0,0.0,0.0,0.0,0.0,3.0,0.290991,0.348784,0.299264,0.356113,-0.004461,6e-06,-0.0,0.0008,6e-06,0.0,0.0,0.0,0.0,0.0,0.0,0.0
160220,0.014649,0.000125,-0.000367,0.0,0.0,0.0,0.0,0.0,0.0,3.0,0.290805,0.350164,0.297552,0.356254,-0.004444,6e-06,-0.0,0.000977,5e-06,0.0,0.0,0.0,0.0,0.0,0.0,0.0
160240,0.014771,0.000613,-0.000371,0.0,0.0,0.0,0.0,0.0,0.0,3.0,0.291519,0.345592,0.300435,0.357864,-0.004423,6e-06,-0.0,0.00115,5e-06,0.0,0.0,0.0,0.0,0.0,0.0,0.0
160260,0.014649,0.000735,-0.000372,0.0,0.0,0.0,0.0,0.0,0.0,3.0,0.292981,0.34699,0.29917,0.356408,-0.004399,6e-06,-0.0,0.001321,5e-06,0.0,0.0,0.0,0.0,0.0,0.0,0.0
160280,0.014527,0.000857,-0.000372,0.0,0.0,0.0,0.0,0.0,0.0,3.0,0.291995,0.348366,0.298934,0.356014,-0.004371,6e-06,-0.0,0.001489,4e-06,0.0,0.0,0.0,0.0,0.0,0.0,0.0
160300,0.014283,0.000979,-0.000373,0.0,0.0,0.0,0.0,0.0,0.0,3.0,0.293937,0.346842,0.295886,0.358379,-0.00434,7e-06,0.0,0.001654,4e-06,0.0,0.0,0.0,0.0,0.0,0.0,0.0
160320,0.014161,0.000857,-0.000372,0.0,0.0,0.0,0.0,0.0,0.0,3.0,0.292648,0.347869,0.299348,0.355671,-0.004306,7e-06,0.0,0.001816,4e-06,0.0,0.0,0.0,0.0,0.0,0.0,0.0
160340,0.013916,0.001101,-0.000374,0.0,0.0,0.0,0.0,0.0,0.0,3.0,0.293714,0.346792,0.297354,0.35746,-0.004268,7e-06,0.0,0.001974,3e-06,0.0,0.0,0.0,0.0,0.0,0.0,0.0
160360,0.013916,0.001223,-0.000375,0.0,0.0,0.0,0.0,0.0,0.0,3.0,0.28993,0.34832,0.298602,0.357882,-0.004228,7e-06,0.0,0.00213,3e-06,0.0,0.0,0.0,0.0,0.0,0.0,0.0
160380,0.013916,0.001467,-0.000376,0.0,0.0,0.0,0.0,0.0,0.0,3.0,0.291898,0.346216,0.300115,0.357232,-0.004184,7e-06,0.0,0.002281,3e-06,0.0,0.0,0.0,0.0,0.0,0.0,0.0
160400,0.013916,0.001589,-0.000377,0.0,0.0,0.0,0.0,0.0,0.0,3.0,0.293523,0.344109,0.30341,0.35538,-0.004137,7e-06,0.0,0.002429,2e-06,0.0,0.0,0.0,0.0,0.0,0.0,0.0
160420,0.013916,0.001711,-0.000256,0.0,0.0,0.0,0.0,0.0,0.0,3.0,0.290822,0.348295,0.299038,0.356892,-0.004088,7e-06,0.0,0.002538,2e-06,0.0,0.0,0.0,0.0,0.0,0.0,0.0
160440,0.013794,0.001954,-0.000136,0.0,0.0,0.0,0.0,0.0,0.0,3.0,0.287507,0.349726,0.294538,0.361453,-0.004035,7e-06,0.0,0.002715,2e-06,0.0,0.0,0.0,0.0,0.0,0.0,0.0
160460,0.013672,0.002076,-0.000136,0.0,0.0,0.0,0.0,0.0,0.0,3.0,0.289149,0.349328,0.294846,0.360393,-0.00398,7e-06,0.0,0.002852,1e-06,0.0,0.0,0.0,0.0,0.0,0.0,0.0
160480,0.013428,0.002198,-0.000137,0.0,0.0,0.0,0.0,0.0,0.0,3.0,0.294397,0.346226,0.296955,0.35779,-0.003922,7e-06,0.0,0.002985,1e-06,0.0,0.0,0.0,0.0,0.0,0.0,0.0
160500,0.013306,0.002197,-1.5e-05,0.0,0.0,0.0,0.0,0.0,0.0,3.0,0.290618,0.350075,0.296033,0.357663,-0.003861,7e-06,0.0,0.003114,1e-06,0.0,0.0,0.0,0.0,0.0,0.0,0.0
160520,0.01294,0.002441,0.000106,0.0,0.0,0.0,0.0,0.0,0.0,3.0,0.292714,0.34796,0.293533,0.360035,-0.003798,7e-06,0.0,0.00324,1e-06,0.0,0.0,0.0,0.0,0.0,0.0,0.0
160540,0.012696,0.002685,0.000105,0.0,0.0,0.0,0.0,0.0,0.0,3.0,0.292791,0.347468,0.295811,0.358709,-0.003732,7e-06,0.0,0.003361,0.0,0.0,0.0,0.0,0.0,0.0,0.0,0.0
160560,0.012452,0.002929,0.000104,0.0,0.0,0.0,0.0,0.0,0.0,3.0,0.292355,0.345367,0.298798,0.35873,-0.003664,7e-06,0.0,0.003478,-0.0,0.0,0.0,0.0,0.0,0.0,0.0,0.0
160580,0.012086,0.00305,0.000226,0.0,0.0,0.0,0.0,0.0,0.0,3.0,0.292067,0.34814,0.296533,0.358054,-0.003594,7e-06,0.0,0.003591,-0.0,0.0,0.0,0.0,0.0,0.0,0.0,0.0
160600,0.01172,0.003294,0.000347,0.0,0.0,0.0,0.0,0.0,0.0,3.0,0.288375,0.35047,0.291395,0.362463,-0.003521,7e-06,0.0,0.0037,-1e-06,0.0,0.0,0.0,0.0,0.0,0.0,0.0
160620,0.011354,0.003538,0.000346,0.0,0.0,0.0,0.0,0.0,0.0,3.0,0.290281,0.348604,0.292619,0.361928,-0.003446,7e-06,0.0,0.003804,-1e-06,0.0,0.0,0.0,0.0,0.0,0.0,0.0
160640,0.010987,0.003416,0.000347,0.0,0.0,0.0,0.0,0.0,0.0,3.0,0.293407,0.34854,0.296779,0.356456,-0.003369,7e-06,0.0,0.003904,-1e-06,0.0,0.0,0.0,0.0,0.0,0.0,0.0
160660,0.010499,0.003538,0.00047,0.0,0.0,0.0,0.0,0.0,0.0,3.0,0.293874,0.348193,0.294154,0.358459,-0.00329,7e-06,0.0,0.004,-1e-06,0.0,0.0,0.0,0.0,0.0,0.0,0.0
160680,0.010378,0.003537,0.000592,0.0,0.0,0.0,0.0,0.0,0.0,3.0,0.28708,0.352432,0.293221,0.360152,-0.00321,7e-06,0.0,0.004092,-2e-06,-0.0,0.0,0.0,0.0,0.0,0.0,0.0
160700,0.010011,0.003659,0.000592,0.0,0.0,0.0,0.0,0.0,0.0,3.0,0.28868,0.350338,0.292443,0.361585,-0.003127,7e-06,0.0,0.004179,-2e-06,-0.0,0.0,0.0,0.0,0.0,0.0,0.0
160720,0.009645,0.003537,0.000593,0.0,0.0,0.0,0.0,0.0,0.0,3.0,0.294121,0.349112,0.295409,0.356414,-0.003043,7e-06,0.0,0.004262,-2e-06,-0.0,0.0,0.0,0.0,0.0,0.0,0.0
160740,0.009279,0.003781,0.000593,0.0,0.0,0.0,0.0,0.0,0.0,3.0,0.295397,0.346583,0.294707,0.358414,-0.002957,7e-06,0.0,0.00434,-3e-06,-0.0,0.0,0.0,0.0,0.0,0.0,0.0
160760,0.009035,0.003781,0.000715,0.0,0.0,0.0,0.0,0.0,0.0,3.0,0.292319,0.349783,0.292702,0.359211,-0.00287,7e-06,0.0,0.004414,-3e-06,-0.0,0.0,0.0,0.0,0.0,0.0,0.0
160780,0.008913,0.003903,0.000715,0.0,0.0,0.0,0.0,0.0,0.0,3.0,0.292654,0.346836,0.296888,0.358586,-0.002781,7e-06,0.0,0.004483,-3e-06,-0.0,0.0,0.0,0.0,0.0,0.0,0.0
160800,0.008669,0.003781,0.000838,0.0,0.0,0.0,0.0,0.0,0.0,3.0,0.287864,0.352762,0.291936,0.360223,-0.002691,7e-06,0.0,0.004548,-3e-06,-0.0,0.0,0.0,0.0,0.0,0.0,0.0
160820,0.008303,0.003781,0.000839,0.0,0.0,0.0,0.0,0.0,0.0,3.0,0.292778,0.349821,0.294895,0.357151,-0.002599,7e-06,0.0,0.004608,-4e-06,-0.0,0.0,0.0,0.0,0.0,0.0,0.0
160840,0.007937,0.00378,0.000962,0.0,0.0,0.0,0.0,0.0,0.0,3.0,0.290259,0.352868,0.289124,0.360445,-0.002507,7e-06,0.0,0.004664,-4e-06,-0.0,0.0,0.0,0.0,0.0,0.0,0.0
160860,0.007693,0.003781,0.000962,0.0,0.0,0.0,0.0,0.0,0.0,3.0,0.292704,0.349071,0.294676,0.358104,-0.002413,6e-06,0.0,0.004716,-4e-06,-0.0,0.0,0.0,0.0,0.0,0.0,0.0
160880,0.007327,0.00378,0.001085,0.0,0.0,0.0,0.0,0.0,0.0,3.0,0.290251,0.351743,0.288841,0.361748,-0.002319,6e-06,0.0,0.004763,-4e-06,-0.0,0.0,0.0,0.0,0.0,0.0,0.0
160900,0.007082,0.003659,0.000964,0.0,0.0,0.0,0.0,0.0,0.0,3.0,0.292547,0.348234,0.297158,0.357114,-0.002223,6e-06,0.0,0.004805,-4e-06,-0.0,0.0,0.0,0.0,0.0,0.0,0.0
160920,0.006594,0.003659,0.000965,0.0,0.0,0.0,0.0,0.0,0.0,3.0,0.29557,0.347152,0.293569,0.358606,-0.002127,6e-06,0.0,0.004843,-5e-06,-0.0,0.0,0.0,0.0,0.0,0.0,0.0
160940,0.006228,0.003415,0.001088,0.0,0.0,0.0,0.0,0.0,0.0,3.0,0.292801,0.350888,0.29357,0.357111,-0.002029,6e-06,0.0,0.004877,-5e-06,-0.0,0.0,0.0,0.0,0.0,0.0,0.0
160960,0.00574,0.003659,0.001088,0.0,0.0,0.0,0.0,0.0,0.0,3.0,0.291456,0.350231,0.288702,0.362408,-0.001932,6e-06,0.0,0.004906,-5e-06,-0.0,0.0,0.0,0.0,0.0,0.0,0.0
160980,0.005373,0.003415,0.00109,0.0,0.0,0.0,0.0,0.0,0.0,3.0,0.288861,0.353244,0.290841,0.359838,-0.001833,6e-06,0.0,0.004931,-5e-06,-0.0,0.0,0.0,0.0,0.0,0.0,0.0
161000,0.004763,0.003538,0.000968,0.0,0.0,0.0,0.0,0.0,0.0,3.0,0.297988,0.345884,0.293978,0.357634,-0.001735,6e-06,0.0,0.004951,-5e-06,-0.0,0.0,0.0,0.0,0.0,0.0,0.0
161020,0.004275,0.003294,0.001092,0.0,0.0,0.0,0.0,0.0,0.0,3.0,0.292683,0.351608,0.291334,0.358197,-0.001635,6e-06,0.0,0.004967,-6e-06,-0.0,0.0,0.0,0.0,0.0,0.0,0.0
161040,0.003664,0.00366,0.001092,0.0,0.0,0.0,0.0,0.0,0.0,3.0,0.292855,0.349272,0.286985,0.36353,-0.001536,6e-06,0.0,0.004979,-6e-06,-0.0,0.0,0.0,0.0,0.0,0.0,0.0
161060,0.003176,0.003661,0.000971,0.0,0.0,0.0,0.0,0.0,0.0,3.0,0.297033,0.346074,0.293667,0.358432,-0.001436,5e-06,0.0,0.004986,-6e-06,-0.0,0.0,0.0,0.0,0.0,0.0,0.0
161080,0.002443,0.003905,0.000972,0.0,0.0,0.0,0.0,0.0,0.0,3.0,0.298181,0.34576,0.290683,0.360094,-0.001337,5e-06,0.0,0.00499,-6e-06,-0.0,0.0,0.0,0.0,0.0,0.0,0.0
161100,0.001833,0.003906,0.000973,0.0,0.0,0.0,0.0,0.0,0.0,3.0,0.296773,0.348262,0.291983,0.357816,-0.001237,5e-06,0.0,0.004989,-6e-06,-0.0,0.0,0.0,0.0,0.0,0.0,0.0
161120,0.001101,0.00415,0.000974,0.0,0.0,0.0,0.0,0.0,0.0,3.0,0.294202,0.349001,0.285985,0.363503,-0.001137,5e-06,0.0,0.004984,-6e-06,-0.0,0.0,0.0,0.0,0.0,0.0,0.0
161140,0.000612,0.004272,0.000853,0.0,0.0,0.0,0.0,0.0,0.0,3.0,0.293571,0.347328,0.291282,0.361682,-0.001037,5e-06,0.0,0.004974,-7e-06,-0.0,0.0,0.0,0.0,0.0,0.0,0.0
161160,-0.000243,0.004517,0.000733,0.0,0.0,0.0,0.0,0.0,0.0,3.0,0.303063,0.340726,0.295258,0.357529,-0.000938,5e-06,0.0,0.004961,-7e-06,-0.0,0.0,0.0,0.0,0.0,0.0,0.0
161180,-0.00073,0.004639,0.000856,0.0,0.0,0.0,0.0,0.0,0.0,3.0,0.29515,0.346574,0.291945,0.360705,-0.000839,5e-06,0.0,0.004944,-7e-06,-0.0,0.0,0.0,0.0,0.0,0.0,0.0
161200,-0.001463,0.005006,0.000736,0.0,0.0,0.0,0.0,0.0,0.0,3.0,0.298657,0.343594,0.291476,0.361174,-0.00074,5e-06,0.0,0.004923,-7e-06,-0.0,0.0,0.0,0.0,0.0,0.0,0.0
161220,-0.001952,0.005006,0.000615,0.0,0.0,0.0,0.0,0.0,0.0,3.0,0.2979,0.345351,0.29391,0.358263,-0.000642,4e-06,0.0,0.004898,-7e-06,-0.0,0.0,0.0,0.0,0.0,0.0,0.0
161240,-0.002684,0.00525,0.000495,0.0,0.0,0.0,0.0,0.0,0.0,3.0,0.304322,0.340687,0.294729,0.356962,-0.000544,4e-06,0.0,0.004869,-7e-06,-0.0,0.0,0.0,0.0,0.0,0.0,0.0
161260,-0.003172,0.005128,0.000619,0.0,0.0,0.0,0.0,0.0,0.0,3.0,0.297749,0.348555,0.289707,0.358488,-0.000447,4e-06,0.0,0.004837,-7e-06,-0.0,0.0,0.0,0.0,0.0,0.0,0.0
161280,-0.003783,0.005372,0.000499,0.0,0.0,0.0,0.0,0.0,0.0,3.0,0.299021,0.344903,0.291526,0.359622,-0.000351,4e-06,0.0,0.0048,-7e-06,-0.0,0.0,0.0,0.0,0.0,0.0,0.0
161300,-0.004272,0.005372,0.000378,0.0,0.0,0.0,0.0,0.0,0.0,3.0,0.298963,0.34492,0.293241,0.358355,-0.000255,4e-06,0.0,0.004761,-7e-06,-0.0,0.0,0.0,0.0,0.0,0.0,0.0
161320,-0.004882,0.005372,0.000257,0.0,0.0,0.0,0.0,0.0,0.0,3.0,0.302888,0.344028,0.291867,0.357143,-0.00016,4e-06,0.0,0.004717,-8e-06,-0.0,0.0,0.0,0.0,0.0,0.0,0.0
161340,-0.005249,0.005372,0.000258,0.0,0.0,0.0,0.0,0.0,0.0,3.0,0.300297,0.34592,0.292345,0.357033,-6.6e-05,4e-06,-0.0,0.004671,-8e-06,-0.0,0.0,0.0,0.0,0.0,0.0,0.0
161360,-0.005737,0.005494,0.00026,0.0,0.0,0.0,0.0,0.0,0.0,3.0,0.298623,0.348874,0.28782,0.358903,2.7e-05,3e-06,-0.0,0.00462,-8e-06,-0.0,0.0,0.0,0.0,0.0,0.0,0.0
161380,-0.006226,0.005616,0.00014,0.0,0.0,0.0,0.0,0.0,0.0,3.0,0.300347,0.345828,0.290768,0.358275,0.000119,3e-06,-0.0,0.004567,-8e-06,-0.0,0.0,0.0,0.0,0.0,0.0,0.0
161400,-0.006592,0.005616,1.9e-05,0.0,0.0,0.0,0.0,0.0,0.0,3.0,0.301459,0.344742,0.2938,0.356126,0.00021,3e-06,-0.0,0.00451,-8e-06,-0.0,0.0,0.0,0.0,0.0,0.0,0.0
161420,-0.00708,0.005738,2e-05,0.0,0.0,0.0,0.0,0.0,0.0,3.0,0.305071,0.344345,0.292638,0.354487,0.0003,3e-06,-0.0,0.00445,-8e-06,-0.0,0.0,0.0,0.0,0.0,0.0,0.0
161440,-0.007325,0.005738,2.1e-05,0.0,0.0,0.0,0.0,0.0,0.0,3.0,0.299778,0.3488,0.289933,0.356491,0.000388,3e-06,-0.0,0.004388,-8e-06,-0.0,0.0,0.0,0.0,0.0,0.0,0.0
161460,-0.007691,0.005859,-0.0001,0.0,0.0,0.0,0.0,0.0,0.0,3.0,0.301083,0.346806,0.290711,0.356798,0.000476,3e-06,-0.0,0.004322,-8e-06,-0.0,0.0,0.0,0.0,0.0,0.0,0.0
161480,-0.008058,0.005859,-0.000221,0.0,0.0,0.0,0.0,0.0,0.0,3.0,0.303184,0.345791,0.292541,0.354699,0.000561,2e-06,-0.0,0.004253,-8e-06,-0.0,0.0,0.0,0.0,0.0,0.0,0.0
161500,-0.008424,0.005981,-0.000219,0.0,0.0,0.0,0.0,0.0,0.0,3.0,0.305005,0.344211,0.293249,0.354198,0.000646,2e-06,-0.0,0.004181,-8e-06,-0.0,0.0,0.0,0.0,0.0,0.0,0.0
161520,-0.008912,0.005981,-0.000218,0.0,0.0,0.0,0.0,0.0,0.0,3.0,0.302513,0.347784,0.287517,0.35711,0.000729,2e-06,-0.0,0.004107,-8e-06,-0.0,0.0,0.0,0.0,0.0,0.0,0.0
161540,-0.009401,0.00598,-0.000338,0.0,0.0,0.0,0.0,0.0,0.0,3.0,0.30285,0.347412,0.289401,0.35579,0.000811,2e-06,-0.0,0.00403,-8e-06,-0.0,0.0,0.0,0.0,0.0,0.0,0.0
161560,-0.010133,0.006102,-0.000335,0.0,0.0,0.0,0.0,0.0,0.0,3.0,0.304167,0.346828,0.286813,0.357228,0.000891,2e-06,-0.0,0.003951,-8e-06,-0.0,0.0,0.0,0.0,0.0,0.0,0.0
161580,-0.010744,0.005979,-0.000456,0.0,0.0,0.0,0.0,0.0,0.0,3.0,0.309172,0.344188,0.291456,0.352157,0.000969,2e-06,-0.0,0.003869,-8e-06,-0.0,0.0,0.0,0.0,0.0,0.0,0.0
161600,-0.011599,0.005979,-0.000454,0.0,0.0,0.0,0.0,0.0,0.0,3.0,0.307257,0.34702,0.284233,0.356438,0.001046,2e-06,-0.0,0.003785,-8e-06,-0.0,0.0,0.0,0.0,0.0,0.0,0.0
161620,-0.012209,0.005734,-0.000575,0.0,0.0,0.0,0.0,0.0,0.0,3.0,0.308398,0.345885,0.288981,0.353051,0.001121,1e-06,-0.0,0.003699,-8e-06,-0.0,0.0,0.0,0.0,0.0,0.0,0.0
161640,-0.01282,0.005733,-0.000574,0.0,0.0,0.0,0.0,0.0,0.0,3.0,0.305485,0.347016,0.286314,0.356352,0.001194,1e-06,-0.0,0.00361,-8e-06,0.0,0.0,0.0,0.0,0.0,0.0,0.0
161660,-0.01343,0.00561,-0.000695,0.0,0.0,0.0,0.0,0.0,0.0,3.0,0.309814,0.343309,0.29136,0.352543,0.001266,1e-06,-0.0,0.00352,-8e-06,0.0,0.0,0.0,0.0,0.0,0.0,0.0
161680,-0.014041,0.00561,-0.000693,0.0,0.0,0.0,0.0,0.0,0.0,3.0,0.306827,0.346736,0.285367,0.356229,0.001335,1e-06,-0.0,0.003427,-8e-06,0.0,0.0,0.0,0.0,0.0,0.0,0.0
161700,-0.014407,0.005487,-0.000815,0.0,0.0,0.0,0.0,0.0,0.0,3.0,0.308939,0.343641,0.291434,0.352899,0.001403,1e-06,-0.0,0.003333,-8e-06,0.0,0.0,0.0,0.0,0.0,0.0,0.0
161720,-0.015018,0.005487,-0.000813,0.0,0.0,0.0,0.0,0.0,0.0,3.0,0.305289,0.343616,0.28772,0.358716,0.001453,1e-06,-0.0,0.003261,-8e-06,0.0,0.0,0.0,0.0,0.0,0.0,0.0
161740,-0.015384,0.005487,-0.000812,0.0,0.0,0.0,0.0,0.0,0.0,3.0,0.301008,0.34915,0.28269,0.36051,0.001533,0.0,-0.0,0.003139,-8e-06,0.0,0.0,0.0,0.0,0.0,0.0,0.0
161760,-0.015872,0.005485,-0.000933,0.0,0.0,0.0,0.0,0.0,0.0,3.0,0.306224,0.345821,0.286753,0.356576,0.001595,0.0,-0.0,0.00304,-7e-06,0.0,0.0,0.0,0.0,0.0,0.0,0.0
161780,-0.016361,0.005484,-0.001054,0.0,0.0,0.0,0.0,0.0,0.0,3.0,0.31238,0.34245,0.289461,0.35266,0.001655,0.0,-0.0,0.002939,-7e-06,0.0,0.0,0.0,0.0,0.0,0.0,0.0
161800,-0.016605,0.005484,-0.001053,0.0,0.0,0.0,0.0,0.0,0.0,3.0,0.305911,0.345881,0.287372,0.356312,0.001713,-0.0,-0.0,0.002837,-7e-06,0.0,0.0,0.0,0.0,0.0,0.0,0.0
161820,-0.016971,0.005362,-0.001053,0.0,0.0,0.0,0.0,0.0,0.0,3.0,0.302721,0.349752,0.281534,0.359409,0.001769,-0.0,-0.0,0.002733,-7e-06,0.0,0.0,0.0,0.0,0.0,0.0,0.0
161840,-0.017216,0.005238,-0.001176,0.0,0.0,0.0,0.0,0.0,0.0,3.0,0.306432,0.347229,0.287321,0.354621,0.001823,-0.0,-0.0,0.002629,-7e-06,0.0,0.0,0.0,0.0,0.0,0.0,0.0
161860,-0.01746,0.005116,-0.001176,0.0,0.0,0.0,0.0,0.0,0.0,3.0,0.306659,0.347389,0.286445,0.354934,0.001875,-0.0,-0.0,0.002523,-7e-06,0.0,0.0,0.0,0.0,0.0,0.0,0.0
161880,-0.017582,0.005115,-0.001298,0.0,0.0,0.0,0.0,0.0,0.0,3.0,0.309728,0.344372,0.289478,0.35303,0.001925,-1e-06,-0.0,0.002417,-7e-06,0.0,0.0,0.0,0.0,0.0,0.0,0.0
161900,-0.017826,0.004993,-0.001298,0.0,0.0,0.0,0.0,0.0,0.0,3.0,0.306144,0.34772,0.287766,0.354044,0.001972,-1e-06,-0.0,0.002309,-7e-06,0.0,0.0,0.0,0.0,0.0,0.0,0.0
161920,-0.01807,0.004869,-0.001421,0.0,0.0,0.0,0.0,0.0,0.0,3.0,0.310161,0.344135,0.290633,0.35201,0.002017,-1e-06,-0.0,0.002201,-7e-06,0.0,0.0,0.0,0.0,0.0,0.0,0.0
161940,-0.018193,0.005114,-0.001418,0.0,0.0,0.0,0.0,0.0,0.0,3.0,0.305786,0.346183,0.288512,0.35527,0.002061,-1e-06,-0.0,0.002092,-7e-06,0.0,0.0,0.0,0.0,0.0,0.0,0.0
161960,-0.018315,0.005113,-0.001418,0.0,0.0,0.0,0.0,0.0,0.0,3.0,0.305664,0.34644,0.288266,0.355306,0.002102,-1e-06,-0.0,0.00201,-7e-06,0.0,0.0,0.0,0.0,0.0,0.0,0.0
161980,-0.018681,0.005112,-0.001539,0.0,0.0,0.0,0.087266,0.0,0.0,3.0,0.521116,0.344087,0.15,0.353699,0.003578,-1e-06,7.8e-05,0.450202,2.9e-05,0.022628,0.0,0.0,0.0,0.0,0.0,0.0
162000,-0.018682,0.004988,-0.001784,0.0,0.0,0.0,0.087266,0.0,0.0,3.0,0.357944,0.338997,0.233073,0.350444,0.014634,-2e-06,0.000564,0.619173,0.000459,0.024003,0.0,0.0,0.0,0.0,0.0,0.0
162020,-0.018073,0.00535,-0.002271,0.0,0.0,0.0,0.087266,0.0,0.0,3.0,0.34189,0.335219,0.265733,0.349866,0.026575,2e-06,0.001027,0.550457,0.000873,0.021749,0.0,0.0,0.0,0.0,0.0,0.0
162040,-0.016365,0.005349,-0.002642,0.0,0.0,0.0,0.087266,0.0,0.0,3.0,0.332959,0.339282,0.2741,0.348672,0.036988,9e-06,0.001446,0.473757,0.001154,0.019523,0.0,0.0,0.0,0.0,0.0,0.0
162060,-0.013435,0.005353,-0.00265,0.0,0.0,0.0,0.087266,0.0,0.0,3.0,0.315484,0.345859,0.27624,0.356441,0.045978,1.8e-05,0.001821,0.412113,0.001324,0.017389,0.0,0.0,0.0,0.0,0.0,0.0
162080,-0.009407,0.005603,-0.00266,0.0,0.0,0.0,0.087266,0.0,0.0,3.0,0.310186,0.343327,0.286467,0.355917,0.053841,2.9e-05,0.002154,0.364168,0.00141,0.015353,0.0,0.0,0.0,0.0,0.0,0.0
162100,-0.004402,0.005854,-0.002429,0.0,0.0,0.0,0.087266,0.0,0.0,3.0,0.301077,0.346446,0.290127,0.357589,0.060831,4.1e-05,0.002448,0.326913,0.001436,0.013414,0.0,0.0,0.0,0.0,0.0,0.0
162120,0.000848,0.005861,-0.0022,0.0,0.0,0.0,0.087266,0.0,0.0,3.0,0.293536,0.348977,0.291073,0.360292,0.06714,5.4e-05,0.002703,0.297841,0.001416,0.011572,0.0,0.0,0.0,0.0,0.0,0.0
162140,0.00683,0.005623,-0.002095,0.0,0.0,0.0,0.087266,0.0,0.0,3.0,0.291083,0.347086,0.302422,0.355175,0.072917,6.7e-05,0.002923,0.27501,0.001362,0.009828,0.0,0.0,0.0,0.0,0.0,0.0
162160,0.013178,0.00575,-0.001991,0.0,0.0,0.0,0.087266,0.0,0.0,3.0,0.281423,0.350938,0.299769,0.360663,0.07697,7.6e-05,0.003065,0.26107,0.001304,0.008582,0.0,0.0,0.0,0.0,0.0,0.0
162180,0.019405,0.005632,-0.001763,0.0,0.0,0.0,0.087266,0.0,0.0,3.0,0.285198,0.344921,0.307086,0.357882,0.0833,9.2e-05,0.003262,0.242454,0.001182,0.006624,0.0,0.0,0.0,0.0,0.0,0.0
162200,0.025266,0.005513,-0.001656,0.0,0.0,0.0,0.087266,0.0,0.0,3.0,0.286916,0.346125,0.305999,0.356345,0.088058,0.000105,0.003385,0.230715,0.001067,0.005164,0.0,0.0,0.0,0.0,0.0,0.0
162220,0.031249,0.005636,-0.001431,0.0,0.0,0.0,0.087266,0.0,0.0,3.0,0.282423,0.345069,0.307688,0.359267,0.09148,0.000114,0.003458,0.223296,0.000973,0.004129,0.0,0.0,0.0,0.0,0.0,0.0
162240,0.036864,0.005393,-0.00132,0.0,0.0,0.0,0.087266,0.0,0.0,3.0,0.284122,0.346779,0.307319,0.356701,0.096954,0.000128,0.003546,0.212919,0.000807,0.002516,0.0,0.0,0.0,0.0,0.0,0.0
162260,0.041993,0.005391,-0.001089,0.0,0.0,0.0,0.087266,0.0,0.0,3.0,0.28517,0.346109,0.30542,0.358118,0.101159,0.000139,0.003589,0.205958,0.000666,0.001325,0.0,0.0,0.0,0.0,0.0,0.0
162280,0.046634,0.005146,-0.000974,0.0,0.0,0.0,0.087266,0.0,0.0,3.0,0.287985,0.3461,0.303619,0.357497,0.105231,0.000149,0.003608,0.19986,0.000522,0.000221,0.0,0.0,0.0,0.0,0.0,0.0
162300,0.051153,0.005144,-0.000863,0.0,0.0,0.0,0.087266,0.0,0.0,3.0,0.285886,0.346588,0.303194,0.358919,0.109187,0.000159,0.003606,0.194395,0.000375,-0.0008,0.0,0.0,0.0,0.0,0.0,0.0
162320,0.055428,0.005261,-0.000634,0.0,0.0,0.0,0.087266,0.0,0.0,3.0,0.282724,0.348021,0.298827,0.363252,0.113036,0.000168,0.003583,0.189389,0.000227,-0.00174,0.0,0.0,0.0,0.0,0.0,0.0
162340,0.059092,0.005258,-0.000521,0.0,0.0,0.0,0.087266,0.0,0.0,3.0,0.285981,0.347945,0.297322,0.362142,0.116789,0.000176,0.003543,0.18471,8e-05,-0.002601,0.0,0.0,0.0,0.0,0.0,0.0
162360,0.062513,0.005132,-0.000404,0.0,0.0,0.0,0.087266,0.0,0.0,3.0,0.291255,0.347168,0.298791,0.357846,0.120449,0.000183,0.003485,0.180258,-6.6e-05,-0.003385,0.0,0.0,0.0,0.0,0.0,0.0
162380,0.065686,0.005124,-0.000168,0.0,0.0,0.0,0.087266,0.0,0.0,3.0,0.288789,0.347405,0.296752,0.361039,0.124022,0.00019,0.003412,0.175955,-0.000209,-0.004096,0.0,0.0,0.0,0.0,0.0,0.0
162400,0.068618,0.004876,-4.5e-05,0.0,0.0,0.0,0.087266,0.0,0.0,3.0,0.290818,0.348208,0.298439,0.35745,0.127509,0.000196,0.003326,0.171745,-0.000349,-0.004736,0.0,0.0,0.0,0.0,0.0,0.0
162420,0.071063,0.004745,0.000197,0.0,0.0,0.0,0.087266,0.0,0.0,3.0,0.286851,0.351793,0.292404,0.361553,0.13007,0.000199,0.003252,0.168623,-0.000451,-0.005172,0.0,0.0,0.0,0.0,0.0,0.0
162440,0.073508,0.004369,0.000449,0.0,0.0,0.0,0.087266,0.0,0.0,3.0,0.288135,0.353721,0.290111,0.360454,0.134233,0.000204,0.003116,0.163444,-0.000615,-0.005815,0.0,0.0,0.0,0.0,0.0,0.0
162460,0.075948,0.004237,0.000692,0.0,0.0,0.0,0.087266,0.0,0.0,3.0,0.2871,0.352454,0.290595,0.362083,0.137471,0.000207,0.002995,0.159297,-0.00074,-0.00626,0.0,0.0,0.0,0.0,0.0,0.0
162480,0.078271,0.003987,0.000818,0.0,0.0,0.0,0.087266,0.0,0.0,3.0,0.291933,0.348349,0.295256,0.358939,0.140626,0.00021,0.002866,0.155128,-0.000858,-0.006645,0.0,0.0,0.0,0.0,0.0,0.0
162500,0.080594,0.003488,0.001077,0.0,0.0,0.0,0.087266,0.0,0.0,3.0,0.287946,0.352752,0.293757,0.358795,0.143697,0.000211,0.002729,0.150925,-0.00097,-0.006974,0.0,0.0,0.0,0.0,0.0,0.0
162520,0.082916,0.003111,0.001332,0.0,0.0,0.0,0.087266,0.0,0.0,3.0,0.286735,0.352057,0.29435,0.359913,0.146684,0.000211,0.002586,0.146679,-0.001075,-0.007249,0.0,0.0,0.0,0.0,0.0,0.0
162540,0.085356,0.002732,0.001588,0.0,0.0,0.0,0.087266,0.0,0.0,3.0,0.2816,0.354473,0.294867,0.360876,0.149585,0.000211,0.002438,0.142387,-0.001172,-0.007473,0.0,0.0,0.0,0.0,0.0,0.0
162560,0.087678,0.002348,0.001966,0.0,0.0,0.0,0.087266,0.0,0.0,3.0,0.280808,0.355262,0.292276,0.362618,0.1524,0.00021,0.002285,0.138044,-0.001262,-0.007649,0.0,0.0,0.0,0.0,0.0,0.0
162580,0.090122,0.001847,0.002229,0.0,0.0,0.0,0.087266,0.0,0.0,3.0,0.281161,0.354783,0.296704,0.359479,0.155128,0.000208,0.002129,0.133651,-0.001344,-0.007779,0.0,0.0,0.0,0.0,0.0,0.0
162600,0.092567,0.001705,0.002598,0.0,0.0,0.0,0.087266,0.0,0.0,3.0,0.275197,0.355829,0.294064,0.364615,0.157768,0.000205,0.00197,0.129206,-0.001418,-0.007868,0.0,0.0,0.0,0.0,0.0,0.0
162620,0.095133,0.00133,0.002735,0.0,0.0,0.0,0.087266,0.0,0.0,3.0,0.280159,0.352036,0.30136,0.359252,0.160318,0.000201,0.00181,0.124712,-0.001484,-0.007917,0.0,0.0,0.0,0.0,0.0,0.0
162640,0.097578,0.001308,0.003099,0.0,0.0,0.0,0.087266,0.0,0.0,3.0,0.278167,0.351975,0.299015,0.362538,0.162779,0.000197,0.001649,0.12017,-0.001541,-0.007929,0.0,0.0,0.0,0.0,0.0,0.0
162660,0.099779,0.001165,0.003469,0.0,0.0,0.0,0.087266,0.0,0.0,3.0,0.274869,0.355649,0.292594,0.366102,0.165148,0.000192,0.001487,0.115583,-0.001591,-0.007906,0.0,0.0,0.0,0.0,0.0,0.0
162680,0.102223,0.001026,0.003717,0.0,0.0,0.0,0.087266,0.0,0.0,3.0,0.275247,0.352268,0.299579,0.363832,0.167425,0.000186,0.001326,0.110955,-0.001633,-0.007852,0.0,0.0,0.0,0.0,0.0,0.0
162700,0.104545,0.000765,0.003972,0.0,0.0,0.0,0.087266,0.0,0.0,3.0,0.275441,0.351127,0.302671,0.362393,0.169609,0.00018,0.001167,0.106287,-0.001667,-0.007768,0.0,0.0,0.0,0.0,0.0,0.0
162720,0.106745,0.000253,0.004363,0.0,0.0,0.0,0.087266,0.0,0.0,3.0,0.273528,0.35487,0.299562,0.362502,0.171699,0.000173,0.001009,0.101585,-0.001694,-0.007658,0.0,0.0,0.0,0.0,0.0,0.0
162740,0.109066,-0.000381,0.004761,0.0,0.0,0.0,0.087266,0.0,0.0,3.0,0.265083,0.360581,0.296833,0.364576,0.173696,0.000166,0.000853,0.096852,-0.001713,-0.007523,0.0,0.0,0.0,0.0,0.0,0.0
162760,0.111265,-0.00101,0.005038,0.0,0.0,0.0,0.087266,0.0,0.0,3.0,0.266921,0.357386,0.30039,0.363802,0.175597,0.000158,0.0007,0.092092,-0.001724,-0.007366,0.0,0.0,0.0,0.0,0.0,0.0
162780,0.113707,-0.002005,0.005338,0.0,0.0,0.0,0.087266,0.0,0.0,3.0,0.263875,0.364754,0.297478,0.360689,0.17696,0.000152,0.000587,0.088507,-0.001729,-0.007235,0.0,0.0,0.0,0.0,0.0,0.0
162800,0.116028,-0.002634,0.005619,0.0,0.0,0.0,0.087266,0.0,0.0,3.0,0.265716,0.362416,0.300567,0.359455,0.178695,0.000143,0.00044,0.08371,-0.001729,-0.007045,0.0,0.0,0.0,0.0,0.0,0.0
162820,0.118347,-0.003386,0.005908,0.0,0.0,0.0,0.087266,0.0,0.0,3.0,0.26077,0.358654,0.305777,0.362285,0.180727,0.000132,0.000262,0.077691,-0.00172,-0.006784,0.0,0.0,0.0,0.0,0.0,0.0
162840,0.120546,-0.003772,0.006177,0.0,0.0,0.0,0.087266,0.0,0.0,3.0,0.258067,0.359946,0.302802,0.365041,0.182245,0.000122,0.000124,0.072865,-0.001705,-0.006559,0.0,0.0,0.0,0.0,0.0,0.0
162860,0.122624,-0.004037,0.006438,0.0,0.0,0.0,0.087266,0.0,0.0,3.0,0.256045,0.358511,0.304079,0.366686,0.183666,0.000112,-1e-05,0.068032,-0.001686,-0.006322,0.0,0.0,0.0,0.0,0.0,0.0
162880,0.12458,-0.004294,0.006579,0.0,0.0,0.0,0.087266,0.0,0.0,3.0,0.262194,0.355865,0.307519,0.362727,0.18499,0.000102,-0.000138,0.063196,-0.001661,-0.006075,0.0,0.0,0.0,0.0,0.0,0.0
162900,0.126534,-0.004688,0.006971,0.0,0.0,0.0,0.087266,0.0,0.0,3.0,0.254744,0.362293,0.301989,0.365388,0.186218,9.2e-05,-0.000262,0.058363,-0.001631,-0.00582,0.0,0.0,0.0,0.0,0.0,0.0
162920,0.128619,-0.005084,0.007365,0.0,0.0,0.0,0.087266,0.0,0.0,3.0,0.244347,0.366995,0.299749,0.368492,0.187349,8.1e-05,-0.000381,0.053536,-0.001597,-0.005558,0.0,0.0,0.0,0.0,0.0,0.0
162940,0.130451,-0.00583,0.007538,0.0,0.0,0.0,0.087266,0.0,0.0,3.0,0.2538,0.365739,0.301961,0.362534,0.188383,7e-05,-0.000494,0.04872,-0.001558,-0.00529,0.0,0.0,0.0,0.0,0.0,0.0
162960,0.132647,-0.006584,0.007836,0.0,0.0,0.0,0.087266,0.0,0.0,3.0,0.254171,0.362738,0.304327,0.363469,0.189096,6.2e-05,-0.000575,0.045116,-0.001527,-0.005086,0.0,0.0,0.0,0.0,0.0,0.0
162980,0.13448,-0.007094,0.008117,0.0,0.0,0.0,0.087266,0.0,0.0,3.0,0.254965,0.36387,0.30436,0.361823,0.190164,4.8e-05,-0.000704,0.039133,-0.001471,-0.004743,0.0,0.0,0.0,0.0,0.0,0.0
163000,0.136554,-0.007735,0.00853,0.0,0.0,0.0,0.087266,0.0,0.0,3.0,0.246655,0.367742,0.300432,0.365914,0.190911,3.7e-05,-0.0008,0.034371,-0.001422,-0.004467,0.0,0.0,0.0,0.0,0.0,0.0
163020,0.13863,-0.008247,0.008814,0.0,0.0,0.0,0.087266,0.0,0.0,3.0,0.244354,0.366878,0.30234,0.366625,0.191563,2.7e-05,-0.000891,0.029635,-0.001371,-0.00419,0.0,0.0,0.0,0.0,0.0,0.0
163040,0.140461,-0.008758,0.009099,0.0,0.0,0.0,0.087266,0.0,0.0,3.0,0.246534,0.365744,0.303474,0.365641,0.19212,1.6e-05,-0.000977,0.024928,-0.001318,-0.003915,0.0,0.0,0.0,0.0,0.0,0.0
163060,0.142537,-0.009028,0.009367,0.0,0.0,0.0,0.087266,0.0,0.0,3.0,0.247176,0.361865,0.307017,0.366345,0.192584,5e-06,-0.001056,0.020255,-0.001263,-0.003641,0.0,0.0,0.0,0.0,0.0,0.0
163080,0.144501,-0.009297,0.009637,0.0,0.0,0.0,0.087266,0.0,0.0,3.0,0.245359,0.362779,0.308315,0.365455,0.192954,-6e-06,-0.001131,0.015618,-0.001206,-0.00337,0.0,0.0,0.0,0.0,0.0,0.0
163100,0.146455,-0.009454,0.010019,0.0,0.0,0.0,0.087266,0.0,0.0,3.0,0.236221,0.367501,0.304526,0.368772,0.193232,-1.7e-05,-0.001199,0.011022,-0.001148,-0.003102,0.0,0.0,0.0,0.0,0.0,0.0
163120,0.148409,-0.009724,0.010288,0.0,0.0,0.0,0.087266,0.0,0.0,3.0,0.238764,0.36446,0.309492,0.36653,0.193418,-2.7e-05,-0.001263,0.00647,-0.001089,-0.002839,0.0,0.0,0.0,0.0,0.0,0.0
163140,0.150241,-0.010115,0.010567,0.0,0.0,0.0,0.087266,0.0,0.0,3.0,0.233879,0.366928,0.30743,0.368317,0.193498,-3.5e-05,-0.001307,0.003087,-0.001044,-0.002644,0.0,0.0,0.0,0.0,0.0,0.0
163160,0.152195,-0.010264,0.010827,0.0,0.0,0.0,0.087266,0.0,0.0,3.0,0.23934,0.362585,0.310051,0.367622,0.193519,-4.8e-05,-0.001373,-0.002489,-0.00097,-0.002328,0.0,0.0,0.0,0.0,0.0,0.0
163180,0.154039,-0.010292,0.01108,0.0,0.0,0.0,0.087266,0.0,0.0,3.0,0.238023,0.361853,0.310539,0.368663,0.193437,-5.8e-05,-0.001421,-0.00689,-0.00091,-0.002081,0.0,0.0,0.0,0.0,0.0,0.0
163200,0.15575,-0.010441,0.011341,0.0,0.0,0.0,0.087266,0.0,0.0,3.0,0.232352,0.366781,0.30694,0.36964,0.193266,-6.8e-05,-0.001463,-0.011235,-0.00085,-0.001842,0.0,0.0,0.0,0.0,0.0,0.0
163220,0.157462,-0.010459,0.01147,0.0,0.0,0.0,0.087266,0.0,0.0,3.0,0.233439,0.365449,0.310625,0.367489,0.193009,-7.7e-05,-0.001501,-0.015519,-0.000791,-0.001609,0.0,0.0,0.0,0.0,0.0,0.0
163240,0.159054,-0.010355,0.011589,0.0,0.0,0.0,0.087266,0.0,0.0,3.0,0.234633,0.364213,0.312895,0.366261,0.192667,-8.7e-05,-0.001534,-0.019741,-0.000732,-0.001384,0.0,0.0,0.0,0.0,0.0,0.0
163260,0.160523,-0.01026,0.011829,0.0,0.0,0.0,0.087266,0.0,0.0,3.0,0.228284,0.367718,0.307765,0.370137,0.192241,-9.6e-05,-0.001562,-0.023898,-0.000675,-0.001167,0.0,0.0,0.0,0.0,0.0,0.0
163280,0.161872,-0.010156,0.011946,0.0,0.0,0.0,0.087266,0.0,0.0,3.0,0.233789,0.364309,0.312079,0.36727,0.191732,-0.000104,-0.001586,-0.027986,-0.000618,-0.000958,0.0,0.0,0.0,0.0,0.0,0.0
163300,0.162967,-0.010049,0.012061,0.0,0.0,0.0,0.087266,0.0,0.0,3.0,0.235799,0.362878,0.311525,0.368062,0.191142,-0.000113,-0.001605,-0.032004,-0.000563,-0.000757,0.0,0.0,0.0,0.0,0.0,0.0
163320,0.163829,-0.009942,0.012177,0.0,0.0,0.0,0.087266,0.0,0.0,3.0,0.238325,0.363001,0.309354,0.368316,0.190472,-0.000121,-0.001621,-0.035949,-0.000508,-0.000565,0.0,0.0,0.0,0.0,0.0,0.0
163340,0.164559,-0.009713,0.012281,0.0,0.0,0.0,0.087266,0.0,0.0,3.0,0.237013,0.363643,0.308609,0.368978,0.189724,-0.000128,-0.001632,-0.039818,-0.000456,-0.000382,0.0,0.0,0.0,0.0,0.0,0.0
163360,0.165178,-0.009716,0.012284,0.0,0.0,0.0,0.087266,0.0,0.0,3.0,0.238913,0.363707,0.311282,0.365762,0.189113,-0.000134,-0.001639,-0.042668,-0.000417,-0.00025,0.0,0.0,0.0,0.0,0.0,0.0
163380,0.165784,-0.009973,0.012428,0.0,0.0,0.0,0.087266,0.0,0.0,3.0,0.234817,0.364185,0.311026,0.367695,0.187999,-0.000143,-0.001645,-0.04732,-0.000355,-4.1e-05,0.0,0.0,0.0,0.0,0.0,0.0
163400,0.166026,-0.010096,0.012438,0.0,0.0,0.0,0.087266,0.0,0.0,3.0,0.236291,0.364624,0.310366,0.367004,0.187026,-0.000149,-0.001645,-0.050948,-0.000308,0.000116,0.0,0.0,0.0,0.0,0.0,0.0
163420,0.166026,-0.010096,0.012438,0.0,0.0,0.0,0.087266,0.0,0.0,3.0,0.232844,0.367416,0.30752,0.3683,0.18598,-0.000156,-0.001643,-0.054493,-0.000262,0.000264,0.0,0.0,0.0,0.0,0.0,0.0
163440,0.165783,-0.010206,0.012326,0.0,0.0,0.0,0.087266,0.0,0.0,3.0,0.238642,0.366947,0.30805,0.365258,0.184864,-0.000162,-0.001638,-0.057951,-0.000218,0.000404,0.0,0.0,0.0,0.0,0.0,0.0
163460,0.16566,-0.010327,0.012336,0.0,0.0,0.0,0.087266,0.0,0.0,3.0,0.232466,0.370747,0.303112,0.368581,0.183679,-0.000167,-0.00163,-0.061322,-0.000176,0.000535,0.0,0.0,0.0,0.0,0.0,0.0
163480,0.165539,-0.010438,0.012224,0.0,0.0,0.0,0.087266,0.0,0.0,3.0,0.239483,0.366897,0.306993,0.365685,0.182428,-0.000173,-0.001619,-0.064602,-0.000136,0.000657,0.0,0.0,0.0,0.0,0.0,0.0
163500,0.165297,-0.010305,0.012092,0.0,0.0,0.0,0.087266,0.0,0.0,3.0,0.244647,0.36181,0.30886,0.366383,0.181112,-0.000178,-0.001605,-0.067792,-9.8e-05,0.000771,0.0,0.0,0.0,0.0,0.0,0.0
163520,0.165177,-0.010061,0.012071,0.0,0.0,0.0,0.087266,0.0,0.0,3.0,0.241205,0.362273,0.3074,0.368999,0.179733,-0.000182,-0.00159,-0.070888,-6.2e-05,0.000877,0.0,0.0,0.0,0.0,0.0,0.0
163540,0.1653,-0.00993,0.01194,0.0,0.0,0.0,0.087266,0.0,0.0,3.0,0.237807,0.36326,0.309866,0.367935,0.178293,-0.000186,-0.001572,-0.07389,-2.7e-05,0.000974,0.0,0.0,0.0,0.0,0.0,0.0
163560,0.165299,-0.010052,0.01195,0.0,0.0,0.0,0.087266,0.0,0.0,3.0,0.234792,0.366843,0.307279,0.36804,0.176793,-0.00019,-0.001552,-0.076797,5e-06,0.001064,0.0,0.0,0.0,0.0,0.0,0.0
163580,0.165421,-0.010164,0.011839,0.0,0.0,0.0,0.087266,0.0,0.0,3.0,0.236136,0.364844,0.30979,0.367328,0.175236,-0.000194,-0.001531,-0.079606,3.5e-05,0.001145,0.0,0.0,0.0,0.0,0.0,0.0
163600,0.165662,-0.01052,0.011748,0.0,0.0,0.0,0.087266,0.0,0.0,3.0,0.23247,0.366795,0.312232,0.36536,0.173623,-0.000197,-0.001507,-0.082318,6.3e-05,0.00122,0.0,0.0,0.0,0.0,0.0,0.0
163620,0.165541,-0.010621,0.011514,0.0,0.0,0.0,0.087266,0.0,0.0,3.0,0.242326,0.36427,0.313233,0.361708,0.171957,-0.0002,-0.001482,-0.08493,9e-05,0.001287,0.0,0.0,0.0,0.0,0.0,0.0
163640,0.165419,-0.010742,0.011524,0.0,0.0,0.0,0.087266,0.0,0.0,3.0,0.235425,0.36767,0.30846,0.365943,0.170239,-0.000202,-0.001456,-0.087443,0.000115,0.001347,0.0,0.0,0.0,0.0,0.0,0.0
163660,0.165178,-0.010599,0.01127,0.0,0.0,0.0,0.087266,0.0,0.0,3.0,0.237993,0.365339,0.311955,0.36409,0.168472,-0.000204,-0.001429,-0.089854,0.000138,0.0014,0.0,0.0,0.0,0.0,0.0,0.0
163680,0.164815,-0.010344,0.011127,0.0,0.0,0.0,0.087266,0.0,0.0,3.0,0.24098,0.364656,0.309574,0.365049,0.166658,-0.000206,-0.001401,-0.092164,0.000159,0.001447,0.0,0.0,0.0,0.0,0.0,0.0
163700,0.164684,-0.010333,0.011003,0.0,0.0,0.0,0.087266,0.0,0.0,3.0,0.242603,0.360109,0.314303,0.364817,0.165267,-0.000208,-0.001379,-0.09383,0.000174,0.001478,0.0,0.0,0.0,0.0,0.0,0.0
163720,0.164562,-0.010566,0.010901,0.0,0.0,0.0,0.087266,0.0,0.0,3.0,0.234506,0.366873,0.312751,0.363781,0.162894,-0.000209,-0.001341,-0.096477,0.000196,0.001522,0.0,0.0,0.0,0.0,0.0,0.0
163740,0.164561,-0.010677,0.010789,0.0,0.0,0.0,0.087266,0.0,0.0,3.0,0.233518,0.364153,0.314576,0.365544,0.16095,-0.00021,-0.00131,-0.098478,0.000213,0.00155,0.0,0.0,0.0,0.0,0.0,0.0
163760,0.164561,-0.01091,0.010688,0.0,0.0,0.0,0.087266,0.0,0.0,3.0,0.232767,0.365096,0.31458,0.364996,0.158966,-0.000211,-0.001279,-0.100376,0.000228,0.001573,0.0,0.0,0.0,0.0,0.0,0.0
163780,0.164562,-0.01089,0.010445,0.0,0.0,0.0,0.087266,0.0,0.0,3.0,0.237284,0.362354,0.31827,0.36225,0.156944,-0.000211,-0.001247,-0.102169,0.000241,0.001591,0.0,0.0,0.0,0.0,0.0,0.0
163800,0.164443,-0.010637,0.010302,0.0,0.0,0.0,0.087266,0.0,0.0,3.0,0.231115,0.364497,0.314609,0.366431,0.154888,-0.000211,-0.001214,-0.103858,0.000254,0.001604,0.0,0.0,0.0,0.0,0.0,0.0
163820,0.164323,-0.010383,0.01016,0.0,0.0,0.0,0.087266,0.0,0.0,3.0,0.231046,0.363061,0.314871,0.367673,0.152799,-0.000211,-0.001182,-0.105442,0.000265,0.001613,0.0,0.0,0.0,0.0,0.0,0.0
163840,0.164324,-0.010373,0.010039,0.0,0.0,0.0,0.087266,0.0,0.0,3.0,0.227218,0.367701,0.313288,0.366295,0.151212,-0.000211,-0.001157,-0.106562,0.000272,0.001616,0.0,0.0,0.0,0.0,0.0,0.0
163860,0.164201,-0.010494,0.010048,0.0,0.0,0.0,0.087266,0.0,0.0,3.0,0.228075,0.365364,0.314853,0.366927,0.14853,-0.00021,-0.001116,-0.108297,0.000283,0.001617,0.0,0.0,0.0,0.0,0.0,0.0
163880,0.163957,-0.010726,0.009946,0.0,0.0,0.0,0.087266,0.0,0.0,3.0,0.231817,0.364191,0.317022,0.364385,0.146354,-0.000209,-0.001083,-0.109568,0.000291,0.001612,0.0,0.0,0.0,0.0,0.0,0.0
163900,0.163712,-0.01109,0.009975,0.0,0.0,0.0,0.087266,0.0,0.0,3.0,0.224677,0.368482,0.314264,0.365985,0.144154,-0.000208,-0.001051,-0.110734,0.000298,0.001605,0.0,0.0,0.0,0.0,0.0,0.0
163920,0.163591,-0.011192,0.009741,0.0,0.0,0.0,0.087266,0.0,0.0,3.0,0.226333,0.364941,0.319067,0.364749,0.141931,-0.000207,-0.001018,-0.111796,0.000304,0.001594,0.0,0.0,0.0,0.0,0.0,0.0
163940,0.163218,-0.011058,0.009606,0.0,0.0,0.0,0.087266,0.0,0.0,3.0,0.228084,0.364375,0.317708,0.36556,0.139688,-0.000205,-0.000986,-0.112754,0.000309,0.001579,0.0,0.0,0.0,0.0,0.0,0.0
163960,0.162855,-0.010804,0.009464,0.0,0.0,0.0,0.087266,0.0,0.0,3.0,0.224578,0.365146,0.316783,0.367311,0.137426,-0.000203,-0.000954,-0.113609,0.000313,0.001562,0.0,0.0,0.0,0.0,0.0,0.0
163980,0.16249,-0.010914,0.00935,0.0,0.0,0.0,0.087266,0.0,0.0,3.0,0.224848,0.366684,0.317476,0.365069,0.135148,-0.000201,-0.000922,-0.114361,0.000316,0.001542,0.0,0.0,0.0,0.0,0.0,0.0
