time_ms,roll,pitch,yaw,x,y,z,reference_roll,reference_pitch,reference_yaw,reference_throttle,throttle_1,throttle_2,throttle_3,throttle_4,roll_predicted,pitch_predicted,yaw_predicted,roll_rate_predicted,pitch_rate_predicted,yaw_rate_predicted,value1,value2,value3,value4,value5,value6
118300,0.000351,-0.014894,0.002078,0.0,0.0,0.0,0.0,0.0,0.0,3.0,0.307743,0.352181,0.286737,0.349061,0.007229,-4e-06,-0.0,0.005929,-2e-05,0.0,0.0,0.0,0.0,0.0,0.0,0.0
118320,0.000474,-0.01465,0.001957,0.0,0.0,0.0,0.0,0.0,0.0,3.0,0.311025,0.348318,0.292376,0.34577,0.007345,-4e-06,-0.0,0.005561,-2e-05,0.0,0.0,0.0,0.0,0.0,0.0,0.0
118340,0.000718,-0.014528,0.001959,0.0,0.0,0.0,0.0,0.0,0.0,3.0,0.307699,0.350336,0.286768,0.350928,0.007453,-5e-06,-0.0,0.005193,-1.9e-05,0.0,0.0,0.0,0.0,0.0,0.0,0.0
118360,0.000963,-0.014162,0.00196,0.0,0.0,0.0,0.0,0.0,0.0,3.0,0.30336,0.355627,0.283344,0.351763,0.007554,-5e-06,-0.0,0.004824,-1.9e-05,0.0,0.0,0.0,0.0,0.0,0.0,0.0
118380,0.001086,-0.014162,0.001839,0.0,0.0,0.0,0.0,0.0,0.0,3.0,0.308081,0.350481,0.28787,0.349622,0.007648,-5e-06,-0.0,0.004455,-1.9e-05,0.0,0.0,0.0,0.0,0.0,0.0,0.0
118400,0.001331,-0.014162,0.001719,0.0,0.0,0.0,0.0,0.0,0.0,3.0,0.307968,0.352502,0.288756,0.346989,0.007734,-6e-06,-0.0,0.004087,-1.8e-05,0.0,0.0,0.0,0.0,0.0,0.0,0.0
118420,0.001331,-0.014284,0.001597,0.0,0.0,0.0,0.0,0.0,0.0,3.0,0.307699,0.354084,0.284145,0.349131,0.007813,-6e-06,-0.0,0.003719,-1.8e-05,0.0,0.0,0.0,0.0,0.0,0.0,0.0
118440,0.001331,-0.014406,0.001597,0.0,0.0,0.0,0.0,0.0,0.0,3.0,0.3078,0.353478,0.287609,0.347022,0.007885,-6e-06,-0.0,0.003352,-1.7e-05,0.0,0.0,0.0,0.0,0.0,0.0,0.0
118460,0.001454,-0.014284,0.001476,0.0,0.0,0.0,0.0,0.0,0.0,3.0,0.303147,0.35746,0.284104,0.349497,0.007949,-7e-06,-0.0,0.002986,-1.7e-05,0.0,0.0,0.0,0.0,0.0,0.0,0.0
118480,0.001576,-0.014284,0.001476,0.0,0.0,0.0,0.0,0.0,0.0,3.0,0.308186,0.352712,0.28706,0.3479,0.008006,-7e-06,-0.0,0.002621,-1.6e-05,0.0,0.0,0.0,0.0,0.0,0.0,0.0
118500,0.001578,-0.01404,0.001354,0.0,0.0,0.0,0.0,0.0,0.0,3.0,0.307889,0.352938,0.289289,0.346195,0.008056,-7e-06,-0.0,0.002259,-1.6e-05,0.0,0.0,0.0,0.0,0.0,0.0,0.0
118520,0.0017,-0.014162,0.001233,0.0,0.0,0.0,0.0,0.0,0.0,3.0,0.310477,0.351274,0.289292,0.345674,0.008098,-8e-06,-0.0,0.001898,-1.5e-05,0.0,0.0,0.0,0.0,0.0,0.0,0.0
118540,0.001702,-0.01404,0.000989,0.0,0.0,0.0,0.0,0.0,0.0,3.0,0.308842,0.351512,0.291384,0.345193,0.008134,-8e-06,-0.0,0.00154,-1.5e-05,0.0,0.0,0.0,0.0,0.0,0.0,0.0
118560,0.001946,-0.014162,0.000991,0.0,0.0,0.0,0.0,0.0,0.0,3.0,0.305442,0.352772,0.291558,0.346657,0.008162,-8e-06,-0.0,0.001184,-1.4e-05,0.0,0.0,0.0,0.0,0.0,0.0,0.0
118580,0.002313,-0.014162,0.000871,0.0,0.0,0.0,0.0,0.0,0.0,3.0,0.306661,0.351848,0.291502,0.346616,0.008183,-9e-06,-0.0,0.000831,-1.4e-05,0.0,0.0,0.0,0.0,0.0,0.0,0.0
118600,0.002436,-0.01404,0.00075,0.0,0.0,0.0,0.0,0.0,0.0,3.0,0.307871,0.350123,0.292922,0.346219,0.008197,-9e-06,-0.0,0.000481,-1.3e-05,0.0,0.0,0.0,0.0,0.0,0.0,0.0
118620,0.002681,-0.013917,0.000629,0.0,0.0,0.0,0.0,0.0,0.0,3.0,0.312411,0.348017,0.293309,0.344121,0.008204,-9e-06,-0.0,0.000135,-1.3e-05,0.0,0.0,0.0,0.0,0.0,0.0,0.0
118640,0.002804,-0.013795,0.000508,0.0,0.0,0.0,0.0,0.0,0.0,3.0,0.306732,0.351732,0.290012,0.347842,0.008204,-9e-06,-0.0,-0.000208,-1.2e-05,0.0,0.0,0.0,0.0,0.0,0.0,0.0
118660,0.003048,-0.013795,0.000509,0.0,0.0,0.0,0.0,0.0,0.0,3.0,0.306715,0.352068,0.290263,0.347319,0.008194,-1e-05,-0.0,-0.000631,-1.2e-05,0.0,0.0,0.0,0.0,0.0,0.0,0.0
118680,0.00305,-0.013795,0.000265,0.0,0.0,0.0,0.0,0.0,0.0,3.0,0.310946,0.35356,0.287888,0.344013,0.008184,-1e-05,-0.0,-0.000881,-1.1e-05,0.0,0.0,0.0,0.0,0.0,0.0,0.0
118700,0.003172,-0.013673,0.000266,0.0,0.0,0.0,0.0,0.0,0.0,3.0,0.310208,0.352614,0.287807,0.345693,0.008164,-1e-05,-0.0,-0.001212,-1.1e-05,0.0,0.0,0.0,0.0,0.0,0.0,0.0
118720,0.003295,-0.013429,0.000144,0.0,0.0,0.0,0.0,0.0,0.0,3.0,0.309134,0.351712,0.290336,0.345564,0.008137,-1e-05,-0.0,-0.001537,-1e-05,0.0,0.0,0.0,0.0,0.0,0.0,0.0
118740,0.003418,-0.013428,2.3e-05,0.0,0.0,0.0,0.0,0.0,0.0,3.0,0.314253,0.349222,0.292393,0.341998,0.008104,-1.1e-05,-0.0,-0.001858,-1e-05,0.0,0.0,0.0,0.0,0.0,0.0,0.0
118760,0.003297,-0.013428,-0.0001,0.0,0.0,0.0,0.0,0.0,0.0,3.0,0.307454,0.353106,0.290466,0.34547,0.008064,-1.1e-05,-0.0,-0.002174,-9e-06,0.0,0.0,0.0,0.0,0.0,0.0,0.0
118780,0.003541,-0.01355,-9.8e-05,0.0,0.0,0.0,0.0,0.0,0.0,3.0,0.304467,0.356628,0.28452,0.348947,0.008018,-1.1e-05,-0.0,-0.002485,-9e-06,0.0,0.0,0.0,0.0,0.0,0.0,0.0
118800,0.003541,-0.013428,-9.8e-05,0.0,0.0,0.0,0.0,0.0,0.0,3.0,0.303855,0.354395,0.287326,0.349608,0.007966,-1.1e-05,-0.0,-0.00279,-8e-06,0.0,0.0,0.0,0.0,0.0,0.0,0.0
118820,0.003664,-0.013306,-0.00022,0.0,0.0,0.0,0.0,0.0,0.0,3.0,0.308838,0.35155,0.290935,0.345511,0.007908,-1.1e-05,-0.0,-0.00309,-7e-06,0.0,0.0,0.0,0.0,0.0,0.0,0.0
118840,0.003787,-0.013183,-0.000341,0.0,0.0,0.0,0.0,0.0,0.0,3.0,0.309915,0.350691,0.292975,0.343838,0.007844,-1.1e-05,0.0,-0.003384,-7e-06,0.0,0.0,0.0,0.0,0.0,0.0,0.0
118860,0.003787,-0.013183,-0.000341,0.0,0.0,0.0,0.0,0.0,0.0,3.0,0.308535,0.352233,0.289847,0.345929,0.007774,-1.2e-05,0.0,-0.003672,-6e-06,0.0,0.0,0.0,0.0,0.0,0.0,0.0
118880,0.00391,-0.013183,-0.000463,0.0,0.0,0.0,0.0,0.0,0.0,3.0,0.307617,0.352399,0.293153,0.343922,0.007699,-1.2e-05,0.0,-0.003954,-6e-06,0.0,0.0,0.0,0.0,0.0,0.0,0.0
118900,0.003787,-0.013305,-0.000463,0.0,0.0,0.0,0.0,0.0,0.0,3.0,0.309717,0.353182,0.288714,0.344825,0.007618,-1.2e-05,0.0,-0.004229,-5e-06,0.0,0.0,0.0,0.0,0.0,0.0,0.0
118920,0.003788,-0.013183,-0.000586,0.0,0.0,0.0,0.0,0.0,0.0,3.0,0.307612,0.353485,0.293418,0.342586,0.007531,-1.2e-05,0.0,-0.004498,-5e-06,0.0,0.0,0.0,0.0,0.0,0.0,0.0
118940,0.003788,-0.013183,-0.000586,0.0,0.0,0.0,0.0,0.0,0.0,3.0,0.309007,0.353095,0.28976,0.344705,0.007439,-1.2e-05,0.0,-0.00476,-4e-06,0.0,0.0,0.0,0.0,0.0,0.0,0.0
118960,0.003789,-0.013183,-0.000708,0.0,0.0,0.0,0.0,0.0,0.0,3.0,0.308786,0.35168,0.294867,0.342268,0.007342,-1.2e-05,0.0,-0.005016,-4e-06,0.0,0.0,0.0,0.0,0.0,0.0,0.0
118980,0.003789,-0.013305,-0.000707,0.0,0.0,0.0,0.0,0.0,0.0,3.0,0.30793,0.352507,0.291343,0.344986,0.00724,-1.2e-05,0.0,-0.005264,-3e-06,0.0,0.0,0.0,0.0,0.0,0.0,0.0
119000,0.003911,-0.013183,-0.000707,0.0,0.0,0.0,0.0,0.0,0.0,3.0,0.308408,0.35141,0.290601,0.346287,0.007105,-1.2e-05,0.0,-0.005565,-2e-06,0.0,0.0,0.0,0.0,0.0,0.0,0.0
119020,0.003911,-0.013061,-0.000707,0.0,0.0,0.0,0.0,0.0,0.0,3.0,0.30887,0.350943,0.290132,0.346735,0.007021,-1.2e-05,0.0,-0.00574,-2e-06,0.0,0.0,0.0,0.0,0.0,0.0,0.0
119040,0.004033,-0.013183,-0.000706,0.0,0.0,0.0,0.0,0.0,0.0,3.0,0.313839,0.349505,0.294645,0.340244,0.006904,-1.2e-05,0.0,-0.005967,-1e-06,0.0,0.0,0.0,0.0,0.0,0.0,0.0
119060,0.004033,-0.013183,-0.000706,0.0,0.0,0.0,0.0,0.0,0.0,3.0,0.314561,0.349958,0.293314,0.340215,0.006783,-1.2e-05,0.0,-0.006186,-1e-06,0.0,0.0,0.0,0.0,0.0,0.0,0.0
119080,0.003912,-0.013305,-0.000829,0.0,0.0,0.0,0.0,0.0,0.0,3.0,0.310919,0.353709,0.287349,0.344304,0.006658,-1.2e-05,0.0,-0.006398,-0.0,0.0,0.0,0.0,0.0,0.0,0.0,0.0
119100,0.003911,-0.013061,-0.000707,0.0,0.0,0.0,0.0,0.0,0.0,3.0,0.308025,0.351017,0.28931,0.34802,0.006496,-1.2e-05,0.0,-0.006653,0.0,0.0,0.0,0.0,0.0,0.0,0.0,0.0
119120,0.003911,-0.013183,-0.000707,0.0,0.0,0.0,0.0,0.0,0.0,3.0,0.308493,0.354051,0.287982,0.345552,0.006395,-1.2e-05,0.0,-0.006799,1e-06,0.0,0.0,0.0,0.0,0.0,0.0,0.0
119140,0.003667,-0.013305,-0.000708,0.0,0.0,0.0,0.0,0.0,0.0,3.0,0.31162,0.353422,0.287238,0.344075,0.006223,-1.2e-05,0.0,-0.007034,1e-06,0.0,0.0,0.0,0.0,0.0,0.0,0.0
119160,0.003789,-0.013427,-0.000707,0.0,0.0,0.0,0.0,0.0,0.0,3.0,0.31046,0.35336,0.288586,0.344097,0.006081,-1.2e-05,0.0,-0.007213,2e-06,0.0,0.0,0.0,0.0,0.0,0.0,0.0
119180,0.003789,-0.013305,-0.000707,0.0,0.0,0.0,0.0,0.0,0.0,3.0,0.304445,0.356409,0.28768,0.346777,0.005972,-1.2e-05,0.0,-0.007343,2e-06,0.0,0.0,0.0,0.0,0.0,0.0,0.0
119200,0.003789,-0.013183,-0.000708,0.0,0.0,0.0,0.0,0.0,0.0,3.0,0.310419,0.351566,0.288252,0.346238,0.005824,-1.2e-05,0.0,-0.007508,3e-06,0.0,0.0,0.0,0.0,0.0,0.0,0.0
119220,0.00391,-0.013061,-0.000585,0.0,0.0,0.0,0.0,0.0,0.0,3.0,0.301778,0.357331,0.28778,0.347961,0.005672,-1.2e-05,0.0,-0.007665,3e-06,-0.0,0.0,0.0,0.0,0.0,0.0,0.0
119240,0.003788,-0.013183,-0.000586,0.0,0.0,0.0,0.0,0.0,0.0,3.0,0.305916,0.354924,0.285356,0.348855,0.005518,-1.2e-05,0.0,-0.007814,4e-06,-0.0,0.0,0.0,0.0,0.0,0.0,0.0
119260,0.00391,-0.013061,-0.000463,0.0,0.0,0.0,0.0,0.0,0.0,3.0,0.30791,0.354057,0.29064,0.343958,0.005361,-1.2e-05,0.0,-0.007955,4e-06,-0.0,0.0,0.0,0.0,0.0,0.0,0.0
119280,0.003909,-0.012939,-0.000463,0.0,0.0,0.0,0.0,0.0,0.0,3.0,0.311103,0.350564,0.291371,0.344216,0.0052,-1.2e-05,0.0,-0.008088,4e-06,-0.0,0.0,0.0,0.0,0.0,0.0,0.0
119300,0.003909,-0.012939,-0.000463,0.0,0.0,0.0,0.0,0.0,0.0,3.0,0.309138,0.35372,0.289136,0.344437,0.004997,-1.2e-05,0.0,-0.008242,5e-06,-0.0,0.0,0.0,0.0,0.0,0.0,0.0
119320,0.004031,-0.012939,-0.00034,0.0,0.0,0.0,0.0,0.0,0.0,3.0,0.306761,0.355116,0.287027,0.346668,0.004831,-1.2e-05,0.0,-0.008357,5e-06,-0.0,0.0,0.0,0.0,0.0,0.0,0.0
119340,0.004153,-0.012939,-0.000339,0.0,0.0,0.0,0.0,0.0,0.0,3.0,0.302544,0.35556,0.290836,0.346781,0.004705,-1.2e-05,0.0,-0.008437,6e-06,-0.0,0.0,0.0,0.0,0.0,0.0,0.0
119360,0.004031,-0.012817,-0.00034,0.0,0.0,0.0,0.0,0.0,0.0,3.0,0.307341,0.353301,0.290962,0.344974,0.004536,-1.1e-05,0.0,-0.008537,6e-06,-0.0,0.0,0.0,0.0,0.0,0.0,0.0
119380,0.004031,-0.012817,-0.00034,0.0,0.0,0.0,0.0,0.0,0.0,3.0,0.309593,0.350694,0.291346,0.345412,0.004364,-1.1e-05,0.0,-0.008629,7e-06,-0.0,0.0,0.0,0.0,0.0,0.0,0.0
119400,0.00403,-0.012573,-0.000219,0.0,0.0,0.0,0.0,0.0,0.0,3.0,0.307153,0.352863,0.289026,0.347102,0.004191,-1.1e-05,0.0,-0.008713,7e-06,-0.0,0.0,0.0,0.0,0.0,0.0,0.0
119420,0.004152,-0.012573,-0.000218,0.0,0.0,0.0,0.0,0.0,0.0,3.0,0.308114,0.352235,0.290141,0.346056,0.004016,-1.1e-05,0.0,-0.008789,7e-06,-0.0,0.0,0.0,0.0,0.0,0.0,0.0
119440,0.004151,-0.012574,-9.6e-05,0.0,0.0,0.0,0.0,0.0,0.0,3.0,0.306784,0.35571,0.286558,0.346396,0.00384,-1.1e-05,0.0,-0.008856,8e-06,-0.0,0.0,0.0,0.0,0.0,0.0,0.0
119460,0.004029,-0.012574,-9.7e-05,0.0,0.0,0.0,0.0,0.0,0.0,3.0,0.308134,0.353957,0.289692,0.344618,0.003662,-1.1e-05,0.0,-0.008915,8e-06,-0.0,0.0,0.0,0.0,0.0,0.0,0.0
119480,0.004029,-0.012329,-9.7e-05,0.0,0.0,0.0,0.0,0.0,0.0,3.0,0.308004,0.353206,0.290125,0.345165,0.003484,-1.1e-05,0.0,-0.008967,8e-06,-0.0,0.0,0.0,0.0,0.0,0.0,0.0
119500,0.004029,-0.012451,-9.7e-05,0.0,0.0,0.0,0.0,0.0,0.0,3.0,0.308379,0.355039,0.287058,0.345345,0.003304,-1e-05,0.0,-0.00901,9e-06,-0.0,0.0,0.0,0.0,0.0,0.0,0.0
119520,0.003907,-0.012329,-9.8e-05,0.0,0.0,0.0,0.0,0.0,0.0,3.0,0.308752,0.35388,0.287739,0.345696,0.003123,-1e-05,0.0,-0.009045,9e-06,-0.0,0.0,0.0,0.0,0.0,0.0,0.0
119540,0.004028,-0.012452,2.5e-05,0.0,0.0,0.0,0.0,0.0,0.0,3.0,0.302227,0.357687,0.284652,0.349606,0.002942,-1e-05,0.0,-0.009073,9e-06,-0.0,0.0,0.0,0.0,0.0,0.0,0.0
119560,0.004028,-0.01233,2.5e-05,0.0,0.0,0.0,0.0,0.0,0.0,3.0,0.303769,0.357523,0.284873,0.348336,0.002761,-1e-05,0.0,-0.009092,1e-05,-0.0,0.0,0.0,0.0,0.0,0.0,0.0
119580,0.003906,-0.01233,2.4e-05,0.0,0.0,0.0,0.0,0.0,0.0,3.0,0.30385,0.356715,0.284915,0.349071,0.002579,-1e-05,0.0,-0.009104,1e-05,-0.0,0.0,0.0,0.0,0.0,0.0,0.0
119600,0.004028,-0.012086,0.000146,0.0,0.0,0.0,0.0,0.0,0.0,3.0,0.306633,0.353743,0.289311,0.346418,0.002397,-9e-06,0.0,-0.009108,1e-05,-0.0,0.0,0.0,0.0,0.0,0.0,0.0
119620,0.004028,-0.012086,0.000146,0.0,0.0,0.0,0.0,0.0,0.0,3.0,0.309796,0.353442,0.292452,0.341511,0.002169,-9e-06,0.0,-0.009103,1.1e-05,-0.0,0.0,0.0,0.0,0.0,0.0,0.0
119640,0.00415,-0.011964,0.000147,0.0,0.0,0.0,0.0,0.0,0.0,3.0,0.306457,0.354808,0.291518,0.343724,0.001987,-9e-06,0.0,-0.00909,1.1e-05,-0.0,0.0,0.0,0.0,0.0,0.0,0.0
119660,0.004271,-0.011842,0.000269,0.0,0.0,0.0,0.0,0.0,0.0,3.0,0.306982,0.353765,0.290729,0.344986,0.001851,-9e-06,0.0,-0.009075,1.1e-05,-0.0,0.0,0.0,0.0,0.0,0.0,0.0
119680,0.004271,-0.011476,0.000269,0.0,0.0,0.0,0.0,0.0,0.0,3.0,0.305856,0.354156,0.288007,0.347663,0.001669,-9e-06,0.0,-0.009049,1.1e-05,-0.0,0.0,0.0,0.0,0.0,0.0,0.0
119700,0.004271,-0.011232,0.000268,0.0,0.0,0.0,0.0,0.0,0.0,3.0,0.307016,0.352893,0.29018,0.346287,0.001489,-8e-06,0.0,-0.009016,1.2e-05,-0.0,0.0,0.0,0.0,0.0,0.0,0.0
119720,0.004515,-0.010866,0.000391,0.0,0.0,0.0,0.0,0.0,0.0,3.0,0.302348,0.354264,0.290168,0.348796,0.001309,-8e-06,0.0,-0.008976,1.2e-05,-0.0,0.0,0.0,0.0,0.0,0.0,0.0
119740,0.004515,-0.010621,0.00039,0.0,0.0,0.0,0.0,0.0,0.0,3.0,0.305085,0.35479,0.291813,0.344676,0.001129,-8e-06,0.0,-0.008929,1.2e-05,-0.0,0.0,0.0,0.0,0.0,0.0,0.0
119760,0.004636,-0.010378,0.000512,0.0,0.0,0.0,0.0,0.0,0.0,3.0,0.299864,0.356453,0.287592,0.350569,0.000951,-8e-06,0.0,-0.008875,1.2e-05,-0.0,0.0,0.0,0.0,0.0,0.0,0.0
119780,0.004758,-0.010011,0.000512,0.0,0.0,0.0,0.0,0.0,0.0,3.0,0.302249,0.354476,0.289397,0.349259,0.000774,-7e-06,0.0,-0.008814,1.2e-05,-0.0,0.0,0.0,0.0,0.0,0.0,0.0
119800,0.004881,-0.009523,0.000512,0.0,0.0,0.0,0.0,0.0,0.0,3.0,0.305517,0.352265,0.292435,0.346419,0.000555,-7e-06,0.0,-0.008728,1.3e-05,-0.0,0.0,0.0,0.0,0.0,0.0,0.0
119820,0.00488,-0.009035,0.000633,0.0,0.0,0.0,0.0,0.0,0.0,3.0,0.305286,0.352721,0.289115,0.348748,0.000424,-7e-06,0.0,-0.008672,1.3e-05,-0.0,0.0,0.0,0.0,0.0,0.0,0.0
119840,0.005125,-0.008425,0.000632,0.0,0.0,0.0,0.0,0.0,0.0,3.0,0.305106,0.351624,0.293868,0.34628,0.000208,-7e-06,0.0,-0.00857,1.3e-05,-0.0,0.0,0.0,0.0,0.0,0.0,0.0
119860,0.005246,-0.008059,0.000754,0.0,0.0,0.0,0.0,0.0,0.0,3.0,0.309733,0.349625,0.291778,0.346037,8e-05,-6e-06,-0.0,-0.008504,1.3e-05,-0.0,0.0,0.0,0.0,0.0,0.0,0.0
119880,0.005491,-0.007571,0.000753,0.0,0.0,0.0,0.0,0.0,0.0,3.0,0.304228,0.353085,0.291294,0.347563,-8.9e-05,-6e-06,-0.0,-0.008411,1.3e-05,-0.0,0.0,0.0,0.0,0.0,0.0,0.0
119900,0.00549,-0.007083,0.000874,0.0,0.0,0.0,0.0,0.0,0.0,3.0,0.307203,0.353269,0.286268,0.34877,-0.000257,-6e-06,-0.0,-0.008312,1.3e-05,-0.0,0.0,0.0,0.0,0.0,0.0,0.0
119920,0.005491,-0.006594,0.000873,0.0,0.0,0.0,0.0,0.0,0.0,3.0,0.307239,0.352419,0.288552,0.347849,-0.000422,-6e-06,-0.0,-0.008208,1.3e-05,-0.0,0.0,0.0,0.0,0.0,0.0,0.0
119940,0.005735,-0.005862,0.000871,0.0,0.0,0.0,0.0,0.0,0.0,3.0,0.308818,0.349688,0.291843,0.346706,-0.000586,-5e-06,-0.0,-0.008097,1.3e-05,-0.0,0.0,0.0,0.0,0.0,0.0,0.0
119960,0.005857,-0.005008,0.000991,0.0,0.0,0.0,0.0,0.0,0.0,3.0,0.305494,0.352112,0.28814,0.34994,-0.000747,-5e-06,-0.0,-0.007981,1.4e-05,-0.0,0.0,0.0,0.0,0.0,0.0,0.0
119980,0.006102,-0.004276,0.00099,0.0,0.0,0.0,0.0,0.0,0.0,3.0,0.303769,0.348238,0.292056,0.35221,-0.000945,-5e-06,-0.0,-0.007828,1.4e-05,-0.0,0.0,0.0,0.0,0.0,0.0,0.0
120000,0.006224,-0.003665,0.000988,0.0,0.0,0.0,0.0,0.0,0.0,3.0,0.305072,0.350148,0.29068,0.350307,-0.0011,-4e-06,-0.0,-0.0077,1.4e-05,-0.0,0.0,0.0,0.0,0.0,0.0,0.0
120020,0.006347,-0.002689,0.000985,0.0,0.0,0.0,0.0,0.0,0.0,3.0,0.310422,0.343952,0.29345,0.349776,-0.001253,-4e-06,-0.0,-0.007567,1.4e-05,-0.0,0.0,0.0,0.0,0.0,0.0,0.0
120040,0.006713,-0.001835,0.001105,0.0,0.0,0.0,0.0,0.0,0.0,3.0,0.303762,0.348152,0.291126,0.353017,-0.001404,-4e-06,-0.0,-0.007429,1.4e-05,-0.0,0.0,0.0,0.0,0.0,0.0,0.0
120060,0.006836,-0.000737,0.001223,0.0,0.0,0.0,0.0,0.0,0.0,3.0,0.299648,0.350453,0.286008,0.35791,-0.001515,-4e-06,-0.0,-0.007323,1.4e-05,-0.0,0.0,0.0,0.0,0.0,0.0,0.0
120080,0.007081,0.00024,0.00122,0.0,0.0,0.0,0.0,0.0,0.0,3.0,0.303154,0.347518,0.291545,0.35381,-0.00166,-3e-06,-0.0,-0.007177,1.4e-05,-0.0,0.0,0.0,0.0,0.0,0.0,0.0
120100,0.007081,0.001583,0.001215,0.0,0.0,0.0,0.0,0.0,0.0,3.0,0.305177,0.34621,0.289965,0.354643,-0.001838,-3e-06,-0.0,-0.006988,1.4e-05,-0.0,0.0,0.0,0.0,0.0,0.0,0.0
120120,0.007204,0.002925,0.00121,0.0,0.0,0.0,0.0,0.0,0.0,3.0,0.300551,0.346116,0.289787,0.358575,-0.001942,-3e-06,-0.0,-0.006872,1.4e-05,-0.0,0.0,0.0,0.0,0.0,0.0,0.0
120140,0.007327,0.004268,0.001327,0.0,0.0,0.0,0.0,0.0,0.0,3.0,0.303002,0.34423,0.288089,0.35969,-0.002078,-3e-06,-0.0,-0.006714,1.4e-05,-0.0,0.0,0.0,0.0,0.0,0.0,0.0
120160,0.007328,0.005611,0.001322,0.0,0.0,0.0,0.0,0.0,0.0,3.0,0.305604,0.345479,0.289022,0.355714,-0.002244,-2e-06,-0.0,-0.00651,1.4e-05,0.0,0.0,0.0,0.0,0.0,0.0,0.0
120180,0.007329,0.006709,0.00144,0.0,0.0,0.0,0.0,0.0,0.0,3.0,0.304322,0.345162,0.287787,0.357976,-0.002341,-2e-06,-0.0,-0.006385,1.4e-05,0.0,0.0,0.0,0.0,0.0,0.0,0.0
120200,0.00733,0.007807,0.001436,0.0,0.0,0.0,0.0,0.0,0.0,3.0,0.303632,0.346078,0.285581,0.35928,-0.002467,-2e-06,-0.0,-0.006215,1.3e-05,0.0,0.0,0.0,0.0,0.0,0.0,0.0
120220,0.007331,0.008662,0.001555,0.0,0.0,0.0,0.0,0.0,0.0,3.0,0.30333,0.348589,0.288876,0.354653,-0.002621,-1e-06,-0.0,-0.005999,1.3e-05,0.0,0.0,0.0,0.0,0.0,0.0,0.0
120240,0.00721,0.009394,0.001675,0.0,0.0,0.0,0.0,0.0,0.0,3.0,0.303275,0.34898,0.288022,0.354959,-0.002739,-1e-06,-0.0,-0.005822,1.3e-05,0.0,0.0,0.0,0.0,0.0,0.0,0.0
120260,0.007211,0.00976,0.001674,0.0,0.0,0.0,0.0,0.0,0.0,3.0,0.304764,0.346975,0.28866,0.355225,-0.002826,-1e-06,-0.0,-0.005687,1.3e-05,0.0,0.0,0.0,0.0,0.0,0.0,0.0
120280,0.007089,0.01037,0.001673,0.0,0.0,0.0,0.0,0.0,0.0,3.0,0.306046,0.346282,0.287491,0.355728,-0.002938,-1e-06,-0.0,-0.005505,1.3e-05,0.0,0.0,0.0,0.0,0.0,0.0,0.0
120300,0.00709,0.010858,0.001793,0.0,0.0,0.0,0.0,0.0,0.0,3.0,0.300818,0.348569,0.287957,0.357373,-0.003047,-0.0,-0.0,-0.00532,1.3e-05,0.0,0.0,0.0,0.0,0.0,0.0,0.0
120320,0.006969,0.011591,0.001791,0.0,0.0,0.0,0.0,0.0,0.0,3.0,0.305053,0.343138,0.288001,0.359148,-0.003152,-0.0,-0.0,-0.005133,1.3e-05,0.0,0.0,0.0,0.0,0.0,0.0,0.0
120340,0.007091,0.012323,0.001788,0.0,0.0,0.0,0.0,0.0,0.0,3.0,0.303514,0.347301,0.289827,0.35504,-0.003278,0.0,-0.0,-0.004897,1.3e-05,0.0,0.0,0.0,0.0,0.0,0.0,0.0
120360,0.007092,0.0133,0.001662,0.0,0.0,0.0,0.0,0.0,0.0,3.0,0.300231,0.344579,0.286025,0.36304,-0.003351,0.0,-0.0,-0.004753,1.3e-05,0.0,0.0,0.0,0.0,0.0,0.0,0.0
120380,0.007336,0.014276,0.001657,0.0,0.0,0.0,0.0,0.0,0.0,3.0,0.302008,0.344977,0.292088,0.356773,-0.003467,1e-06,-0.0,-0.004511,1.2e-05,0.0,0.0,0.0,0.0,0.0,0.0,0.0
120400,0.007337,0.015009,0.001654,0.0,0.0,0.0,0.0,0.0,0.0,3.0,0.304503,0.340508,0.293977,0.357562,-0.003534,1e-06,-0.0,-0.004365,1.2e-05,0.0,0.0,0.0,0.0,0.0,0.0,0.0
120420,0.00746,0.015863,0.00165,0.0,0.0,0.0,0.0,0.0,0.0,3.0,0.303366,0.345258,0.290245,0.356813,-0.003641,1e-06,-0.0,-0.004119,1.2e-05,0.0,0.0,0.0,0.0,0.0,0.0,0.0
120440,0.00746,0.016474,0.001648,0.0,0.0,0.0,0.0,0.0,0.0,3.0,0.302619,0.347994,0.28706,0.357162,-0.003722,1e-06,-0.0,-0.003921,1.2e-05,0.0,0.0,0.0,0.0,0.0,0.0,0.0
120460,0.00746,0.016962,0.001524,0.0,0.0,0.0,0.0,0.0,0.0,3.0,0.304148,0.346458,0.290342,0.354953,-0.003798,2e-06,-0.0,-0.003722,1.2e-05,0.0,0.0,0.0,0.0,0.0,0.0,0.0
120480,0.007458,0.017451,0.001278,0.0,0.0,0.0,0.0,0.0,0.0,3.0,0.30855,0.339475,0.294752,0.354631,-0.003854,2e-06,-0.0,-0.003572,1.1e-05,0.0,0.0,0.0,0.0,0.0,0.0,0.0
120500,0.007458,0.017818,0.001277,0.0,0.0,0.0,0.0,0.0,0.0,3.0,0.306767,0.34588,0.290232,0.353455,-0.00394,2e-06,-0.0,-0.003321,1.1e-05,0.0,0.0,0.0,0.0,0.0,0.0,0.0
120520,0.007335,0.018184,0.001154,0.0,0.0,0.0,0.0,0.0,0.0,3.0,0.306961,0.345237,0.288277,0.355397,-0.004005,2e-06,-0.0,-0.003119,1.1e-05,0.0,0.0,0.0,0.0,0.0,0.0,0.0
120540,0.007334,0.018307,0.001032,0.0,0.0,0.0,0.0,0.0,0.0,3.0,0.304687,0.34649,0.29093,0.354035,-0.004066,3e-06,-0.0,-0.002917,1.1e-05,0.0,0.0,0.0,0.0,0.0,0.0,0.0
120560,0.007332,0.018552,0.000787,0.0,0.0,0.0,0.0,0.0,0.0,3.0,0.309838,0.340663,0.296767,0.350838,-0.004123,3e-06,-0.0,-0.002715,1.1e-05,0.0,0.0,0.0,0.0,0.0,0.0,0.0
120580,0.007332,0.018552,0.000787,0.0,0.0,0.0,0.0,0.0,0.0,3.0,0.305454,0.34301,0.290858,0.356809,-0.004163,3e-06,-0.0,-0.002564,1e-05,0.0,0.0,0.0,0.0,0.0,0.0,0.0
120600,0.007331,0.018674,0.000664,0.0,0.0,0.0,0.0,0.0,0.0,3.0,0.303972,0.345097,0.293701,0.353834,-0.004213,3e-06,-0.0,-0.002361,1e-05,0.0,0.0,0.0,0.0,0.0,0.0,0.0
120620,0.00733,0.018675,0.000542,0.0,0.0,0.0,0.0,0.0,0.0,3.0,0.305003,0.34226,0.292931,0.356308,-0.004258,3e-06,-0.0,-0.002159,1e-05,0.0,0.0,0.0,0.0,0.0,0.0,0.0
120640,0.007327,0.018676,0.000298,0.0,0.0,0.0,0.0,0.0,0.0,3.0,0.306518,0.340521,0.296661,0.353827,-0.0043,3e-06,-0.0,-0.001958,1e-05,0.0,0.0,0.0,0.0,0.0,0.0,0.0
120660,0.007326,0.018798,0.000175,0.0,0.0,0.0,0.0,0.0,0.0,3.0,0.307718,0.340545,0.293443,0.355321,-0.004338,4e-06,-0.0,-0.001757,9e-06,0.0,0.0,0.0,0.0,0.0,0.0,0.0
120680,0.007325,0.018921,5.3e-05,0.0,0.0,0.0,0.0,0.0,0.0,3.0,0.306871,0.339614,0.294537,0.35605,-0.004371,4e-06,-0.0,-0.001557,9e-06,0.0,0.0,0.0,0.0,0.0,0.0,0.0
120700,0.007445,0.019288,-0.000194,0.0,0.0,0.0,0.0,0.0,0.0,3.0,0.309229,0.33935,0.298289,0.351395,-0.004408,4e-06,-0.0,-0.001307,9e-06,0.0,0.0,0.0,0.0,0.0,0.0,0.0
120720,0.007444,0.01941,-0.000316,0.0,0.0,0.0,0.0,0.0,0.0,3.0,0.309442,0.340504,0.297605,0.350656,-0.004432,4e-06,-0.0,-0.001109,9e-06,0.0,0.0,0.0,0.0,0.0,0.0,0.0
120740,0.007442,0.019533,-0.000439,0.0,0.0,0.0,0.0,0.0,0.0,3.0,0.309341,0.3407,0.297931,0.350292,-0.004453,4e-06,-0.0,-0.000912,8e-06,0.0,0.0,0.0,0.0,0.0,0.0,0.0
120760,0.007441,0.019655,-0.000562,0.0,0.0,0.0,0.0,0.0,0.0,3.0,0.310316,0.339615,0.29777,0.350638,-0.004466,5e-06,-0.0,-0.000766,8e-06,0.0,0.0,0.0,0.0,0.0,0.0,0.0
120780,0.007318,0.019778,-0.000683,0.0,0.0,0.0,0.0,0.0,0.0,3.0,0.310162,0.33849,0.29764,0.351945,-0.00448,5e-06,-0.0,-0.000571,8e-06,0.0,0.0,0.0,0.0,0.0,0.0,0.0
120800,0.007438,0.019779,-0.000928,0.0,0.0,0.0,0.0,0.0,0.0,3.0,0.309651,0.339615,0.298417,0.350683,-0.00449,5e-06,-0.0,-0.000378,8e-06,0.0,0.0,0.0,0.0,0.0,0.0,0.0
120820,0.007436,0.019901,-0.001051,0.0,0.0,0.0,0.0,0.0,0.0,3.0,0.310132,0.339378,0.298703,0.350272,-0.004497,5e-06,-0.0,-0.00014,7e-06,0.0,0.0,0.0,0.0,0.0,0.0,0.0
120840,0.007435,0.020024,-0.001173,0.0,0.0,0.0,0.0,0.0,0.0,3.0,0.305985,0.342689,0.294823,0.353635,-0.004498,5e-06,-0.0,4.9e-05,7e-06,0.0,0.0,0.0,0.0,0.0,0.0,0.0
120860,0.007432,0.020147,-0.001418,0.0,0.0,0.0,0.0,0.0,0.0,3.0,0.307643,0.339718,0.297899,0.352681,-0.004496,5e-06,-0.0,0.000235,7e-06,0.0,0.0,0.0,0.0,0.0,0.0,0.0
120880,0.007675,0.020025,-0.001542,0.0,0.0,0.0,0.0,0.0,0.0,3.0,0.309405,0.337922,0.302495,0.349199,-0.00449,5e-06,-0.0,0.000419,6e-06,0.0,0.0,0.0,0.0,0.0,0.0,0.0
120900,0.007553,0.020147,-0.001541,0.0,0.0,0.0,0.0,0.0,0.0,3.0,0.307532,0.340812,0.295375,0.353722,-0.00448,6e-06,-0.0,0.000601,6e-06,0.0,0.0,0.0,0.0,0.0,0.0,0.0
120920,0.007552,0.020148,-0.001663,0.0,0.0,0.0,0.0,0.0,0.0,3.0,0.306581,0.340222,0.294964,0.355385,-0.004467,6e-06,-0.0,0.000781,6e-06,0.0,0.0,0.0,0.0,0.0,0.0,0.0
120940,0.007429,0.02027,-0.001785,0.0,0.0,0.0,0.0,0.0,0.0,3.0,0.307433,0.339964,0.294212,0.35551,-0.00445,6e-06,-0.0,0.000958,5e-06,0.0,0.0,0.0,0.0,0.0,0.0,0.0
120960,0.007426,0.020271,-0.002029,0.0,0.0,0.0,0.0,0.0,0.0,3.0,0.309381,0.337996,0.297489,0.353188,-0.004429,6e-06,-0.0,0.001132,5e-06,0.0,0.0,0.0,0.0,0.0,0.0,0.0
120980,0.007303,0.020394,-0.00215,0.0,0.0,0.0,0.0,0.0,0.0,3.0,0.308555,0.338416,0.294184,0.356061,-0.004405,6e-06,-0.0,0.001303,5e-06,0.0,0.0,0.0,0.0,0.0,0.0,0.0
121000,0.007179,0.020394,-0.002271,0.0,0.0,0.0,0.0,0.0,0.0,3.0,0.311063,0.337308,0.296272,0.353384,-0.004378,6e-06,-0.0,0.001472,4e-06,0.0,0.0,0.0,0.0,0.0,0.0,0.0
121020,0.007057,0.020516,-0.00227,0.0,0.0,0.0,0.0,0.0,0.0,3.0,0.306569,0.339139,0.293131,0.357819,-0.004347,6e-06,-0.0,0.001637,4e-06,0.0,0.0,0.0,0.0,0.0,0.0,0.0
121040,0.006934,0.020638,-0.002391,0.0,0.0,0.0,0.0,0.0,0.0,3.0,0.307747,0.33838,0.295303,0.355894,-0.004313,6e-06,0.0,0.0018,4e-06,0.0,0.0,0.0,0.0,0.0,0.0,0.0
121060,0.006812,0.02076,-0.002391,0.0,0.0,0.0,0.0,0.0,0.0,3.0,0.307294,0.337983,0.294871,0.356971,-0.004276,6e-06,0.0,0.001959,4e-06,0.0,0.0,0.0,0.0,0.0,0.0,0.0
121080,0.00669,0.020638,-0.002389,0.0,0.0,0.0,0.0,0.0,0.0,3.0,0.305368,0.341113,0.294519,0.355876,-0.004236,6e-06,0.0,0.002114,3e-06,0.0,0.0,0.0,0.0,0.0,0.0,0.0
121100,0.006444,0.02076,-0.002509,0.0,0.0,0.0,0.0,0.0,0.0,3.0,0.309839,0.338951,0.293372,0.355122,-0.004192,6e-06,0.0,0.002266,3e-06,0.0,0.0,0.0,0.0,0.0,0.0,0.0
121120,0.006444,0.021006,-0.00251,0.0,0.0,0.0,0.0,0.0,0.0,3.0,0.30689,0.339048,0.295825,0.355567,-0.004158,7e-06,0.0,0.002378,3e-06,0.0,0.0,0.0,0.0,0.0,0.0,0.0
121140,0.006199,0.021128,-0.00263,0.0,0.0,0.0,0.0,0.0,0.0,3.0,0.306908,0.340191,0.295734,0.354545,-0.004109,7e-06,0.0,0.002524,2e-06,0.0,0.0,0.0,0.0,0.0,0.0,0.0
121160,0.006322,0.021372,-0.00251,0.0,0.0,0.0,0.0,0.0,0.0,3.0,0.305819,0.337353,0.300922,0.354008,-0.004058,7e-06,0.0,0.002667,2e-06,0.0,0.0,0.0,0.0,0.0,0.0,0.0
121180,0.006076,0.021494,-0.00263,0.0,0.0,0.0,0.0,0.0,0.0,3.0,0.309766,0.337274,0.293715,0.356486,-0.003989,7e-06,0.0,0.002839,2e-06,0.0,0.0,0.0,0.0,0.0,0.0,0.0
121200,0.006076,0.021494,-0.00263,0.0,0.0,0.0,0.0,0.0,0.0,3.0,0.309212,0.3376,0.294962,0.35568,-0.003932,7e-06,0.0,0.002973,1e-06,0.0,0.0,0.0,0.0,0.0,0.0,0.0
121220,0.006076,0.021616,-0.00263,0.0,0.0,0.0,0.0,0.0,0.0,3.0,0.307277,0.338442,0.296019,0.355666,-0.003871,7e-06,0.0,0.003103,1e-06,0.0,0.0,0.0,0.0,0.0,0.0,0.0
121240,0.005955,0.021859,-0.002508,0.0,0.0,0.0,0.0,0.0,0.0,3.0,0.305581,0.340225,0.29273,0.35791,-0.003808,7e-06,0.0,0.003229,1e-06,0.0,0.0,0.0,0.0,0.0,0.0,0.0
121260,0.005955,0.021982,-0.002508,0.0,0.0,0.0,0.0,0.0,0.0,3.0,0.30528,0.340007,0.29407,0.357334,-0.003743,7e-06,0.0,0.00335,1e-06,0.0,0.0,0.0,0.0,0.0,0.0,0.0
121280,0.005831,0.021982,-0.002629,0.0,0.0,0.0,0.0,0.0,0.0,3.0,0.309028,0.337492,0.296408,0.354806,-0.003675,7e-06,0.0,0.003468,0.0,0.0,0.0,0.0,0.0,0.0,0.0,0.0
121300,0.005831,0.021982,-0.002629,0.0,0.0,0.0,0.0,0.0,0.0,3.0,0.307922,0.338565,0.296876,0.354349,-0.003604,7e-06,0.0,0.003582,-0.0,0.0,0.0,0.0,0.0,0.0,0.0,0.0
121320,0.00571,0.022103,-0.002506,0.0,0.0,0.0,0.0,0.0,0.0,3.0,0.306487,0.340735,0.292089,0.357185,-0.003532,7e-06,0.0,0.003691,-0.0,0.0,0.0,0.0,0.0,0.0,0.0,0.0
121340,0.005712,0.022103,-0.002384,0.0,0.0,0.0,0.0,0.0,0.0,3.0,0.301084,0.344734,0.288798,0.360202,-0.003457,7e-06,0.0,0.003796,-1e-06,0.0,0.0,0.0,0.0,0.0,0.0,0.0
121360,0.005712,0.022225,-0.002384,0.0,0.0,0.0,0.0,0.0,0.0,3.0,0.305776,0.339549,0.293092,0.358109,-0.003381,7e-06,0.0,0.003897,-1e-06,0.0,0.0,0.0,0.0,0.0,0.0,0.0
121380,0.005712,0.022225,-0.002384,0.0,0.0,0.0,0.0,0.0,0.0,3.0,0.307586,0.337083,0.295433,0.357133,-0.003302,7e-06,0.0,0.003993,-1e-06,0.0,0.0,0.0,0.0,0.0,0.0,0.0
121400,0.005712,0.022225,-0.002384,0.0,0.0,0.0,0.0,0.0,0.0,3.0,0.307511,0.336974,0.295857,0.356968,-0.003221,7e-06,0.0,0.004085,-1e-06,0.0,0.0,0.0,0.0,0.0,0.0,0.0
121420,0.005712,0.022225,-0.002384,0.0,0.0,0.0,0.0,0.0,0.0,3.0,0.307113,0.338235,0.296365,0.355724,-0.003139,7e-06,0.0,0.004173,-2e-06,-0.0,0.0,0.0,0.0,0.0,0.0,0.0
121440,0.005835,0.022347,-0.002264,0.0,0.0,0.0,0.0,0.0,0.0,3.0,0.304276,0.339001,0.294448,0.35879,-0.003055,7e-06,0.0,0.004256,-2e-06,-0.0,0.0,0.0,0.0,0.0,0.0,0.0
121460,0.005835,0.022347,-0.002264,0.0,0.0,0.0,0.0,0.0,0.0,3.0,0.302816,0.3374,0.29554,0.360591,-0.002991,7e-06,0.0,0.004316,-2e-06,-0.0,0.0,0.0,0.0,0.0,0.0,0.0
121480,0.005835,0.022591,-0.002264,0.0,0.0,0.0,0.0,0.0,0.0,3.0,0.306612,0.335862,0.29796,0.357091,-0.002882,7e-06,0.0,0.004409,-2e-06,-0.0,0.0,0.0,0.0,0.0,0.0,0.0
121500,0.005958,0.022591,-0.002143,0.0,0.0,0.0,0.0,0.0,0.0,3.0,0.301394,0.338498,0.295257,0.360918,-0.002816,7e-06,0.0,0.004462,-3e-06,-0.0,0.0,0.0,0.0,0.0,0.0,0.0
121520,0.005836,0.022835,-0.002143,0.0,0.0,0.0,0.0,0.0,0.0,3.0,0.307065,0.336532,0.2936,0.359468,-0.002703,6e-06,0.0,0.004545,-3e-06,-0.0,0.0,0.0,0.0,0.0,0.0,0.0
121540,0.005958,0.022713,-0.002144,0.0,0.0,0.0,0.0,0.0,0.0,3.0,0.306608,0.336992,0.296673,0.357054,-0.002612,6e-06,0.0,0.004606,-3e-06,-0.0,0.0,0.0,0.0,0.0,0.0,0.0
121560,0.005836,0.022835,-0.002143,0.0,0.0,0.0,0.0,0.0,0.0,3.0,0.3076,0.335299,0.295815,0.358469,-0.002519,6e-06,0.0,0.004662,-3e-06,-0.0,0.0,0.0,0.0,0.0,0.0,0.0
121580,0.005958,0.022713,-0.002144,0.0,0.0,0.0,0.0,0.0,0.0,3.0,0.306646,0.336492,0.296934,0.357283,-0.002426,6e-06,0.0,0.004714,-4e-06,-0.0,0.0,0.0,0.0,0.0,0.0,0.0
121600,0.005958,0.022713,-0.002144,0.0,0.0,0.0,0.0,0.0,0.0,3.0,0.306044,0.334998,0.297682,0.358561,-0.002355,6e-06,0.0,0.00475,-4e-06,-0.0,0.0,0.0,0.0,0.0,0.0,0.0
121620,0.005958,0.022835,-0.002144,0.0,0.0,0.0,0.0,0.0,0.0,3.0,0.305202,0.336392,0.298647,0.357209,-0.002259,6e-06,0.0,0.004794,-4e-06,-0.0,0.0,0.0,0.0,0.0,0.0,0.0
121640,0.005835,0.022957,-0.002143,0.0,0.0,0.0,0.0,0.0,0.0,3.0,0.307734,0.335701,0.295922,0.357909,-0.002139,6e-06,0.0,0.004843,-4e-06,-0.0,0.0,0.0,0.0,0.0,0.0,0.0
121660,0.005835,0.023079,-0.002144,0.0,0.0,0.0,0.0,0.0,0.0,3.0,0.305381,0.337065,0.294939,0.359316,-0.002042,6e-06,0.0,0.004877,-4e-06,-0.0,0.0,0.0,0.0,0.0,0.0,0.0
121680,0.005835,0.023323,-0.002144,0.0,0.0,0.0,0.0,0.0,0.0,3.0,0.301257,0.338165,0.295411,0.361214,-0.001969,6e-06,0.0,0.0049,-5e-06,-0.0,0.0,0.0,0.0,0.0,0.0,0.0
121700,0.005957,0.023201,-0.002145,0.0,0.0,0.0,0.0,0.0,0.0,3.0,0.304418,0.33623,0.297134,0.359165,-0.001846,6e-06,0.0,0.004932,-5e-06,-0.0,0.0,0.0,0.0,0.0,0.0,0.0
121720,0.005835,0.023323,-0.002144,0.0,0.0,0.0,0.0,0.0,0.0,3.0,0.307477,0.333923,0.29634,0.359417,-0.001747,6e-06,0.0,0.004953,-5e-06,-0.0,0.0,0.0,0.0,0.0,0.0,0.0
121740,0.005957,0.023323,-0.002146,0.0,0.0,0.0,0.0,0.0,0.0,3.0,0.309869,0.332165,0.298746,0.357188,-0.001648,6e-06,0.0,0.00497,-5e-06,-0.0,0.0,0.0,0.0,0.0,0.0,0.0
121760,0.005959,0.023201,-0.002023,0.0,0.0,0.0,0.0,0.0,0.0,3.0,0.302573,0.335699,0.297771,0.360623,-0.001573,5e-06,0.0,0.004979,-5e-06,-0.0,0.0,0.0,0.0,0.0,0.0,0.0
121780,0.005957,0.023201,-0.002145,0.0,0.0,0.0,0.0,0.0,0.0,3.0,0.306309,0.334009,0.296051,0.360504,-0.001449,5e-06,0.0,0.00499,-6e-06,-0.0,0.0,0.0,0.0,0.0,0.0,0.0
121800,0.005835,0.022957,-0.002143,0.0,0.0,0.0,0.0,0.0,0.0,3.0,0.307564,0.335181,0.29773,0.357122,-0.001349,5e-06,0.0,0.004994,-6e-06,-0.0,0.0,0.0,0.0,0.0,0.0,0.0
121820,0.005591,0.022835,-0.00214,0.0,0.0,0.0,0.0,0.0,0.0,3.0,0.305796,0.336018,0.298773,0.356974,-0.001274,5e-06,0.0,0.004994,-6e-06,-0.0,0.0,0.0,0.0,0.0,0.0,0.0
121840,0.005715,0.022712,-0.002019,0.0,0.0,0.0,0.0,0.0,0.0,3.0,0.30233,0.338798,0.292486,0.362002,-0.001149,5e-06,0.0,0.004988,-6e-06,-0.0,0.0,0.0,0.0,0.0,0.0,0.0
121860,0.005592,0.02259,-0.002139,0.0,0.0,0.0,0.0,0.0,0.0,3.0,0.307804,0.333798,0.297197,0.358605,-0.001049,5e-06,0.0,0.00498,-6e-06,-0.0,0.0,0.0,0.0,0.0,0.0,0.0
121880,0.005592,0.022468,-0.002139,0.0,0.0,0.0,0.0,0.0,0.0,3.0,0.307378,0.333898,0.297168,0.358882,-0.00095,5e-06,0.0,0.004967,-6e-06,-0.0,0.0,0.0,0.0,0.0,0.0,0.0
121900,0.005591,0.022347,-0.002261,0.0,0.0,0.0,0.0,0.0,0.0,3.0,0.311567,0.330894,0.302414,0.354011,-0.000851,5e-06,0.0,0.00495,-6e-06,-0.0,0.0,0.0,0.0,0.0,0.0,0.0
121920,0.005592,0.022224,-0.002138,0.0,0.0,0.0,0.0,0.0,0.0,3.0,0.30666,0.334219,0.297447,0.358955,-0.000752,5e-06,0.0,0.00493,-7e-06,-0.0,0.0,0.0,0.0,0.0,0.0,0.0
121940,0.005714,0.022224,-0.00214,0.0,0.0,0.0,0.0,0.0,0.0,3.0,0.305351,0.334619,0.29831,0.358977,-0.000653,4e-06,0.0,0.004905,-7e-06,-0.0,0.0,0.0,0.0,0.0,0.0,0.0
121960,0.00547,0.022224,-0.002137,0.0,0.0,0.0,0.0,0.0,0.0,3.0,0.305994,0.335357,0.298722,0.357462,-0.00058,4e-06,0.0,0.004884,-7e-06,-0.0,0.0,0.0,0.0,0.0,0.0,0.0
121980,0.005348,0.022102,-0.002135,0.0,0.0,0.0,0.0,0.0,0.0,3.0,0.308232,0.333922,0.296491,0.358689,-0.000458,4e-06,0.0,0.004844,-7e-06,-0.0,0.0,0.0,0.0,0.0,0.0,0.0
122000,0.00547,0.02198,-0.002136,0.0,0.0,0.0,0.0,0.0,0.0,3.0,0.306293,0.334346,0.298709,0.358155,-0.000362,4e-06,0.0,0.004809,-7e-06,-0.0,0.0,0.0,0.0,0.0,0.0,0.0
122020,0.005348,0.022102,-0.002135,0.0,0.0,0.0,0.0,0.0,0.0,3.0,0.307598,0.332096,0.296156,0.361107,-0.000266,4e-06,0.0,0.004769,-7e-06,-0.0,0.0,0.0,0.0,0.0,0.0,0.0
122040,0.005593,0.021858,-0.002137,0.0,0.0,0.0,0.0,0.0,0.0,3.0,0.305452,0.333469,0.299702,0.358856,-0.000171,4e-06,0.0,0.004726,-7e-06,-0.0,0.0,0.0,0.0,0.0,0.0,0.0
122060,0.005471,0.021736,-0.002136,0.0,0.0,0.0,0.0,0.0,0.0,3.0,0.306902,0.334048,0.298229,0.358308,-7.6e-05,4e-06,0.0,0.00468,-7e-06,-0.0,0.0,0.0,0.0,0.0,0.0,0.0
122080,0.005472,0.021491,-0.002013,0.0,0.0,0.0,0.0,0.0,0.0,3.0,0.302291,0.339589,0.293279,0.360709,-6e-06,3e-06,-0.0,0.004643,-7e-06,-0.0,0.0,0.0,0.0,0.0,0.0,0.0
122100,0.005596,0.021369,-0.001892,0.0,0.0,0.0,0.0,0.0,0.0,3.0,0.300184,0.339142,0.29511,0.361384,0.000109,3e-06,-0.0,0.004577,-7e-06,-0.0,0.0,0.0,0.0,0.0,0.0,0.0
122120,0.005472,0.021247,-0.002012,0.0,0.0,0.0,0.0,0.0,0.0,3.0,0.308197,0.332388,0.298555,0.358508,0.0002,3e-06,-0.0,0.00452,-7e-06,-0.0,0.0,0.0,0.0,0.0,0.0,0.0
122140,0.005474,0.021001,-0.001889,0.0,0.0,0.0,0.0,0.0,0.0,3.0,0.306666,0.333385,0.297136,0.359948,0.00029,3e-06,-0.0,0.004461,-7e-06,-0.0,0.0,0.0,0.0,0.0,0.0,0.0
122160,0.005474,0.020635,-0.001888,0.0,0.0,0.0,0.0,0.0,0.0,3.0,0.305584,0.336243,0.298154,0.357423,0.000379,3e-06,-0.0,0.004398,-7e-06,-0.0,0.0,0.0,0.0,0.0,0.0,0.0
122180,0.005474,0.020391,-0.001887,0.0,0.0,0.0,0.0,0.0,0.0,3.0,0.30629,0.337456,0.296096,0.357331,0.000445,3e-06,-0.0,0.004349,-7e-06,-0.0,0.0,0.0,0.0,0.0,0.0,0.0
122200,0.005597,0.020147,-0.001888,0.0,0.0,0.0,0.0,0.0,0.0,3.0,0.30484,0.334518,0.300292,0.357929,0.000552,3e-06,-0.0,0.004264,-8e-06,-0.0,0.0,0.0,0.0,0.0,0.0,0.0
122220,0.005474,0.019903,-0.002008,0.0,0.0,0.0,0.0,0.0,0.0,3.0,0.309009,0.332339,0.300923,0.356018,0.000637,2e-06,-0.0,0.004193,-8e-06,-0.0,0.0,0.0,0.0,0.0,0.0,0.0
122240,0.005474,0.019659,-0.002007,0.0,0.0,0.0,0.0,0.0,0.0,3.0,0.310943,0.331348,0.30154,0.354823,0.000721,2e-06,-0.0,0.004119,-8e-06,-0.0,0.0,0.0,0.0,0.0,0.0,0.0
122260,0.005597,0.019537,-0.001886,0.0,0.0,0.0,0.0,0.0,0.0,3.0,0.301885,0.337828,0.294987,0.361354,0.000782,2e-06,-0.0,0.004062,-8e-06,-0.0,0.0,0.0,0.0,0.0,0.0,0.0
122280,0.005475,0.019293,-0.001884,0.0,0.0,0.0,0.0,0.0,0.0,3.0,0.30374,0.339047,0.292986,0.360285,0.000883,2e-06,-0.0,0.003963,-8e-06,-0.0,0.0,0.0,0.0,0.0,0.0,0.0
122300,0.005474,0.019171,-0.002006,0.0,0.0,0.0,0.0,0.0,0.0,3.0,0.306866,0.33355,0.299381,0.35789,0.000961,2e-06,-0.0,0.003882,-8e-06,-0.0,0.0,0.0,0.0,0.0,0.0,0.0
122320,0.005474,0.019171,-0.002006,0.0,0.0,0.0,0.0,0.0,0.0,3.0,0.306881,0.33272,0.298825,0.359064,0.001038,2e-06,-0.0,0.003798,-8e-06,-0.0,0.0,0.0,0.0,0.0,0.0,0.0
122340,0.005597,0.018927,-0.002007,0.0,0.0,0.0,0.0,0.0,0.0,3.0,0.306474,0.333311,0.299268,0.358513,0.001095,1e-06,-0.0,0.003733,-8e-06,-0.0,0.0,0.0,0.0,0.0,0.0,0.0
122360,0.005597,0.018683,-0.002006,0.0,0.0,0.0,0.0,0.0,0.0,3.0,0.306026,0.336058,0.29858,0.356901,0.001187,1e-06,-0.0,0.003623,-8e-06,0.0,0.0,0.0,0.0,0.0,0.0,0.0
122380,0.005719,0.018683,-0.002007,0.0,0.0,0.0,0.0,0.0,0.0,3.0,0.30253,0.336226,0.296355,0.361265,0.001259,1e-06,-0.0,0.003533,-7e-06,0.0,0.0,0.0,0.0,0.0,0.0,0.0
122400,0.005719,0.018439,-0.002006,0.0,0.0,0.0,0.0,0.0,0.0,3.0,0.310527,0.329768,0.303893,0.354711,0.001312,1e-06,-0.0,0.003464,-7e-06,0.0,0.0,0.0,0.0,0.0,0.0,0.0
122420,0.005596,0.018195,-0.002127,0.0,0.0,0.0,0.0,0.0,0.0,3.0,0.305628,0.334328,0.299751,0.357893,0.00138,1e-06,-0.0,0.00337,-7e-06,0.0,0.0,0.0,0.0,0.0,0.0,0.0
122440,0.00572,0.01795,-0.002005,0.0,0.0,0.0,0.0,0.0,0.0,3.0,0.306466,0.334728,0.29775,0.358414,0.001463,1e-06,-0.0,0.00325,-7e-06,0.0,0.0,0.0,0.0,0.0,0.0,0.0
122460,0.005841,0.017707,-0.002127,0.0,0.0,0.0,0.0,0.0,0.0,3.0,0.306624,0.334704,0.300779,0.355925,0.001527,1e-06,-0.0,0.003152,-7e-06,0.0,0.0,0.0,0.0,0.0,0.0,0.0
122480,0.005841,0.017585,-0.002127,0.0,0.0,0.0,0.0,0.0,0.0,3.0,0.306458,0.334263,0.300025,0.357064,0.00159,0.0,-0.0,0.003053,-7e-06,0.0,0.0,0.0,0.0,0.0,0.0,0.0
122500,0.005841,0.017463,-0.002127,0.0,0.0,0.0,0.0,0.0,0.0,3.0,0.306606,0.334028,0.302229,0.355404,0.00165,0.0,-0.0,0.002952,-7e-06,0.0,0.0,0.0,0.0,0.0,0.0,0.0
122520,0.005598,0.017584,-0.002003,0.0,0.0,0.0,0.0,0.0,0.0,3.0,0.305307,0.333221,0.296601,0.361593,0.001694,0.0,-0.0,0.002876,-7e-06,0.0,0.0,0.0,0.0,0.0,0.0,0.0
122540,0.00572,0.017462,-0.002004,0.0,0.0,0.0,0.0,0.0,0.0,3.0,0.30909,0.332397,0.300476,0.356255,0.001765,-0.0,-0.0,0.002747,-7e-06,0.0,0.0,0.0,0.0,0.0,0.0,0.0
122560,0.00572,0.01734,-0.002003,0.0,0.0,0.0,0.0,0.0,0.0,3.0,0.305901,0.333005,0.300983,0.357906,0.001805,-0.0,-0.0,0.002669,-7e-06,0.0,0.0,0.0,0.0,0.0,0.0,0.0
122580,0.005842,0.017218,-0.002004,0.0,0.0,0.0,0.0,0.0,0.0,3.0,0.307574,0.333329,0.298823,0.357952,0.001871,-0.0,-0.0,0.002537,-7e-06,0.0,0.0,0.0,0.0,0.0,0.0,0.0
122600,0.006087,0.017096,-0.002006,0.0,0.0,0.0,0.0,0.0,0.0,3.0,0.305735,0.3338,0.300851,0.35742,0.001921,-0.0,-0.0,0.00243,-7e-06,0.0,0.0,0.0,0.0,0.0,0.0,0.0
122620,0.006087,0.016852,-0.002005,0.0,0.0,0.0,0.0,0.0,0.0,3.0,0.311282,0.332613,0.30198,0.353021,0.001969,-1e-06,-0.0,0.002323,-7e-06,0.0,0.0,0.0,0.0,0.0,0.0,0.0
122640,0.00621,0.016852,-0.001884,0.0,0.0,0.0,0.0,0.0,0.0,3.0,0.30679,0.334097,0.298823,0.35789,0.002014,-1e-06,-0.0,0.002215,-7e-06,0.0,0.0,0.0,0.0,0.0,0.0,0.0
122660,0.006332,0.016608,-0.001884,0.0,0.0,0.0,0.0,0.0,0.0,3.0,0.305663,0.33505,0.300769,0.356397,0.002058,-1e-06,-0.0,0.002133,-7e-06,0.0,0.0,0.0,0.0,0.0,0.0,0.0
122680,0.006333,0.016364,-0.001883,0.0,0.0,0.0,0.0,0.0,0.0,3.0,0.306958,0.334228,0.299489,0.357111,0.002099,-1e-06,-0.0,0.001997,-6e-06,0.0,0.0,0.0,0.0,0.0,0.0,0.0
122700,0.006333,0.015997,-0.001882,0.0,0.0,0.0,0.0,0.0,0.0,3.0,0.306253,0.334531,0.300302,0.356765,0.002138,-1e-06,-0.0,0.001887,-6e-06,0.0,0.0,0.0,0.0,0.0,0.0,0.0
122720,0.006334,0.015509,-0.001758,0.0,0.0,0.0,0.0,0.0,0.0,3.0,0.305887,0.336459,0.299273,0.356099,0.002175,-1e-06,-0.0,0.001776,-6e-06,0.0,0.0,0.0,0.0,0.0,0.0,0.0
122740,0.006457,0.015021,-0.001758,0.0,0.0,0.0,0.0,0.0,0.0,3.0,0.309382,0.333461,0.303769,0.35238,0.00221,-1e-06,-0.0,0.001666,-6e-06,0.0,0.0,0.0,0.0,0.0,0.0,0.0
122760,0.006458,0.014654,-0.001635,0.0,0.0,0.0,0.0,0.0,0.0,3.0,0.304538,0.337066,0.300984,0.355271,0.002242,-1e-06,-0.0,0.001555,-6e-06,0.0,0.0,0.0,0.0,0.0,0.0,0.0
122780,0.006336,0.014532,-0.001633,0.0,0.0,0.0,0.0,0.0,0.0,3.0,0.3108,0.332306,0.299792,0.355462,0.002272,-2e-06,-0.0,0.001444,-6e-06,0.0,0.0,0.0,0.0,0.0,0.0,0.0
122800,0.006459,0.014165,-0.001511,0.0,0.0,0.0,0.0,0.0,0.0,3.0,0.304527,0.335818,0.299539,0.357581,0.0023,-2e-06,-0.0,0.001333,-6e-06,0.0,0.0,0.0,0.0,0.0,0.0,0.0
122820,0.006337,0.014043,-0.00151,0.0,0.0,0.0,0.0,0.0,0.0,3.0,0.307284,0.333056,0.298628,0.358588,0.002326,-2e-06,-0.0,0.001223,-6e-06,0.0,0.0,0.0,0.0,0.0,0.0,0.0
122840,0.00646,0.013921,-0.001388,0.0,0.0,0.0,0.0,0.0,0.0,3.0,0.305178,0.333045,0.298436,0.360443,0.00235,-2e-06,-0.0,0.001112,-5e-06,0.0,0.0,0.0,0.0,0.0,0.0,0.0
122860,0.006461,0.013555,-0.001387,0.0,0.0,0.0,0.0,0.0,0.0,3.0,0.303762,0.333247,0.30203,0.358577,0.002366,-2e-06,-0.0,0.001029,-5e-06,0.0,0.0,0.0,0.0,0.0,0.0,0.0
122880,0.006583,0.013311,-0.001387,0.0,0.0,0.0,0.0,0.0,0.0,3.0,0.305379,0.334534,0.30063,0.357212,0.002391,-2e-06,-0.0,0.000892,-5e-06,0.0,0.0,0.0,0.0,0.0,0.0,0.0
122900,0.006462,0.013066,-0.001263,0.0,0.0,0.0,0.0,0.0,0.0,3.0,0.304302,0.336783,0.297979,0.358094,0.002408,-2e-06,-0.0,0.000782,-5e-06,0.0,0.0,0.0,0.0,0.0,0.0,0.0
122920,0.006462,0.013066,-0.001263,0.0,0.0,0.0,0.0,0.0,0.0,3.0,0.303893,0.334201,0.30159,0.357953,0.002419,-2e-06,-0.0,0.0007,-5e-06,0.0,0.0,0.0,0.0,0.0,0.0,0.0
122940,0.006585,0.012821,-0.001141,0.0,0.0,0.0,0.0,0.0,0.0,3.0,0.304144,0.334034,0.300375,0.358862,0.002435,-2e-06,-0.0,0.000565,-5e-06,0.0,0.0,0.0,0.0,0.0,0.0,0.0
122960,0.006463,0.012699,-0.00114,0.0,0.0,0.0,0.0,0.0,0.0,3.0,0.308841,0.331445,0.301266,0.356698,0.002446,-2e-06,-0.0,0.000457,-5e-06,0.0,0.0,0.0,0.0,0.0,0.0,0.0
122980,0.006463,0.012455,-0.001139,0.0,0.0,0.0,0.0,0.0,0.0,3.0,0.305686,0.333475,0.300298,0.358193,0.002454,-3e-06,-0.0,0.00035,-4e-06,0.0,0.0,0.0,0.0,0.0,0.0,0.0
123000,0.006586,0.012211,-0.001017,0.0,0.0,0.0,0.0,0.0,0.0,3.0,0.305037,0.334586,0.298121,0.359406,0.002459,-3e-06,-0.0,0.000271,-4e-06,0.0,0.0,0.0,0.0,0.0,0.0,0.0
123020,0.006708,0.011967,-0.001017,0.0,0.0,0.0,0.0,0.0,0.0,3.0,0.305853,0.332975,0.303071,0.355258,0.002463,-3e-06,-0.0,0.000165,-4e-06,0.0,0.0,0.0,0.0,0.0,0.0,0.0
123040,0.006709,0.011966,-0.000895,0.0,0.0,0.0,0.0,0.0,0.0,3.0,0.304456,0.333872,0.29881,0.359983,0.002466,-3e-06,-0.0,6.1e-05,-4e-06,0.0,0.0,0.0,0.0,0.0,0.0,0.0
123060,0.00671,0.011844,-0.000772,0.0,0.0,0.0,0.0,0.0,0.0,3.0,0.302818,0.335122,0.297575,0.361105,0.002466,-3e-06,-0.0,-6.8e-05,-4e-06,0.0,0.0,0.0,0.0,0.0,0.0,0.0
123080,0.00671,0.011722,-0.000772,0.0,0.0,0.0,0.0,0.0,0.0,3.0,0.303477,0.33399,0.297878,0.361375,0.002464,-3e-06,-0.0,-0.00017,-4e-06,0.0,0.0,0.0,0.0,0.0,0.0,0.0
123100,0.006587,0.0116,-0.000893,0.0,0.0,0.0,0.0,0.0,0.0,3.0,0.309707,0.327261,0.3046,0.357073,0.00246,-3e-06,-0.0,-0.00027,-3e-06,0.0,0.0,0.0,0.0,0.0,0.0,0.0
123120,0.006588,0.011355,-0.00077,0.0,0.0,0.0,0.0,0.0,0.0,3.0,0.303655,0.333185,0.300978,0.359548,0.002454,-3e-06,-0.0,-0.000369,-3e-06,0.0,0.0,0.0,0.0,0.0,0.0,0.0
123140,0.006466,0.010989,-0.000768,0.0,0.0,0.0,0.0,0.0,0.0,3.0,0.300449,0.339156,0.295032,0.361223,0.002448,-3e-06,-0.0,-0.000443,-3e-06,0.0,0.0,0.0,0.0,0.0,0.0,0.0
123160,0.006467,0.010378,-0.000644,0.0,0.0,0.0,0.0,0.0,0.0,3.0,0.303125,0.337736,0.300942,0.355822,0.002435,-3e-06,-0.0,-0.000564,-3e-06,0.0,0.0,0.0,0.0,0.0,0.0,0.0
123180,0.006467,0.010012,-0.000643,0.0,0.0,0.0,0.0,0.0,0.0,3.0,0.303459,0.335079,0.30149,0.357575,0.002423,-3e-06,-0.0,-0.000659,-3e-06,0.0,0.0,0.0,0.0,0.0,0.0,0.0
123200,0.006467,0.009402,-0.000641,0.0,0.0,0.0,0.0,0.0,0.0,3.0,0.304772,0.334067,0.303692,0.355685,0.00241,-3e-06,-0.0,-0.000752,-3e-06,0.0,0.0,0.0,0.0,0.0,0.0,0.0
123220,0.006468,0.008791,-0.000517,0.0,0.0,0.0,0.0,0.0,0.0,3.0,0.302809,0.3359,0.301034,0.357703,0.002394,-3e-06,-0.0,-0.000844,-2e-06,0.0,0.0,0.0,0.0,0.0,0.0,0.0
123240,0.006346,0.007936,-0.000514,0.0,0.0,0.0,0.0,0.0,0.0,3.0,0.306737,0.335146,0.302508,0.354037,0.002376,-3e-06,0.0,-0.000934,-2e-06,0.0,0.0,0.0,0.0,0.0,0.0,0.0
123260,0.006469,0.007326,-0.00039,0.0,0.0,0.0,0.0,0.0,0.0,3.0,0.297249,0.340563,0.298277,0.359914,0.002357,-3e-06,0.0,-0.001,-2e-06,0.0,0.0,0.0,0.0,0.0,0.0,0.0
123280,0.006469,0.006593,-0.000388,0.0,0.0,0.0,0.0,0.0,0.0,3.0,0.299987,0.339982,0.299343,0.357488,0.002336,-4e-06,0.0,-0.001108,-2e-06,0.0,0.0,0.0,0.0,0.0,0.0,0.0
123300,0.006469,0.005983,-0.000386,0.0,0.0,0.0,0.0,0.0,0.0,3.0,0.305872,0.338993,0.297866,0.354853,0.002319,-4e-06,0.0,-0.001172,-2e-06,0.0,0.0,0.0,0.0,0.0,0.0,0.0
123320,0.006469,0.005128,-0.000383,0.0,0.0,0.0,0.0,0.0,0.0,3.0,0.302914,0.33892,0.301586,0.354366,0.002289,-4e-06,0.0,-0.001276,-2e-06,0.0,0.0,0.0,0.0,0.0,0.0,0.0
123340,0.006469,0.004396,-0.00038,0.0,0.0,0.0,0.087266,0.0,0.0,3.0,0.51788,0.339132,0.15,0.356018,0.003707,-4e-06,7.8e-05,0.447003,3.4e-05,0.022627,0.0,0.0,0.0,0.0,0.0,0.0
123360,0.006346,0.003787,-0.000867,0.0,0.0,0.0,0.087266,0.0,0.0,3.0,0.348617,0.329613,0.266204,0.348166,0.017779,-3e-06,0.000684,0.604528,0.000577,0.023449,0.0,0.0,0.0,0.0,0.0,0.0
123380,0.007322,0.003179,-0.001477,0.0,0.0,0.0,0.087266,0.0,0.0,3.0,0.338156,0.326699,0.289522,0.344027,0.029314,1e-06,0.001136,0.527012,0.000957,0.021184,0.0,0.0,0.0,0.0,0.0,0.0
123400,0.009397,0.002816,-0.001722,0.0,0.0,0.0,0.087266,0.0,0.0,3.0,0.327765,0.32935,0.290983,0.350255,0.039281,9e-06,0.001544,0.45381,0.001154,0.019522,0.0,0.0,0.0,0.0,0.0,0.0
123420,0.01306,0.002208,-0.001601,0.0,0.0,0.0,0.087266,0.0,0.0,3.0,0.314629,0.337132,0.293955,0.352335,0.045855,1.6e-05,0.001821,0.409048,0.001323,0.017388,0.0,0.0,0.0,0.0,0.0,0.0
123440,0.017944,0.001843,-0.001359,0.0,0.0,0.0,0.087266,0.0,0.0,3.0,0.293286,0.34205,0.299018,0.360978,0.055464,3e-05,0.002231,0.350944,0.00142,0.014858,0.0,0.0,0.0,0.0,0.0,0.0
123460,0.023927,0.00099,-0.00111,0.0,0.0,0.0,0.087266,0.0,0.0,3.0,0.290129,0.341301,0.309481,0.355681,0.060587,3.9e-05,0.002447,0.323927,0.001434,0.013413,0.0,0.0,0.0,0.0,0.0,0.0
123480,0.030275,-0.000109,-0.000853,0.0,0.0,0.0,0.087266,0.0,0.0,3.0,0.281661,0.34723,0.311237,0.354818,0.068311,5.5e-05,0.002761,0.288682,0.001403,0.011127,0.0,0.0,0.0,0.0,0.0,0.0
123500,0.037234,-0.000963,-0.000714,0.0,0.0,0.0,0.087266,0.0,0.0,3.0,0.27799,0.344861,0.31941,0.352776,0.073916,6.8e-05,0.002972,0.267208,0.001341,0.009406,0.0,0.0,0.0,0.0,0.0,0.0
123520,0.044684,-0.001817,-0.000569,0.0,0.0,0.0,0.087266,0.0,0.0,3.0,0.273045,0.341906,0.326585,0.352766,0.079126,8.1e-05,0.003149,0.250172,0.001256,0.007781,0.0,0.0,0.0,0.0,0.0,0.0
123540,0.051644,-0.003038,-0.000409,0.0,0.0,0.0,0.087266,0.0,0.0,3.0,0.271734,0.345561,0.325881,0.350777,0.082825,9e-05,0.003261,0.239654,0.00118,0.006624,0.0,0.0,0.0,0.0,0.0,0.0
123560,0.058362,-0.004504,-0.000234,0.0,0.0,0.0,0.087266,0.0,0.0,3.0,0.276129,0.346942,0.322744,0.349118,0.088666,0.000106,0.003411,0.22539,0.001035,0.004813,0.0,0.0,0.0,0.0,0.0,0.0
123580,0.064954,-0.00597,-5e-05,0.0,0.0,0.0,0.087266,0.0,0.0,3.0,0.269483,0.349666,0.325958,0.348209,0.092011,0.000115,0.003479,0.218346,0.00094,0.003795,0.0,0.0,0.0,0.0,0.0,0.0
123600,0.07094,-0.007072,0.000129,0.0,0.0,0.0,0.087266,0.0,0.0,3.0,0.273933,0.346469,0.322686,0.351209,0.097366,0.000129,0.003559,0.208457,0.000772,0.00221,0.0,0.0,0.0,0.0,0.0,0.0
123620,0.076316,-0.008295,0.000317,0.0,0.0,0.0,0.087266,0.0,0.0,3.0,0.277809,0.347449,0.319899,0.349939,0.101484,0.00014,0.003596,0.201795,0.000631,0.001041,0.0,0.0,0.0,0.0,0.0,0.0
123640,0.080955,-0.009641,0.000512,0.0,0.0,0.0,0.087266,0.0,0.0,3.0,0.278821,0.350167,0.318132,0.348049,0.105475,0.00015,0.003609,0.195933,0.000487,-4.2e-05,0.0,0.0,0.0,0.0,0.0,0.0
123660,0.085111,-0.0105,0.000691,0.0,0.0,0.0,0.087266,0.0,0.0,3.0,0.280057,0.347268,0.317439,0.350643,0.109353,0.000159,0.003602,0.190658,0.000341,-0.001042,0.0,0.0,0.0,0.0,0.0,0.0
123680,0.088408,-0.011724,0.000884,0.0,0.0,0.0,0.087266,0.0,0.0,3.0,0.28635,0.350127,0.310128,0.349405,0.11313,0.000168,0.003575,0.185807,0.000194,-0.001962,0.0,0.0,0.0,0.0,0.0,0.0
123700,0.091339,-0.012827,0.001073,0.0,0.0,0.0,0.087266,0.0,0.0,3.0,0.283348,0.348836,0.310624,0.352521,0.115899,0.000174,0.003543,0.182372,8.5e-05,-0.0026,0.0,0.0,0.0,0.0,0.0,0.0
123720,0.093416,-0.013686,0.001248,0.0,0.0,0.0,0.087266,0.0,0.0,3.0,0.290503,0.35114,0.305478,0.349111,0.120403,0.000183,0.003468,0.176913,-9.6e-05,-0.003569,0.0,0.0,0.0,0.0,0.0,0.0
123740,0.095249,-0.01418,0.001406,0.0,0.0,0.0,0.087266,0.0,0.0,3.0,0.291941,0.34657,0.303088,0.354483,0.123041,0.000188,0.003412,0.173747,-0.000202,-0.004096,0.0,0.0,0.0,0.0,0.0,0.0
123760,0.096833,-0.014795,0.001569,0.0,0.0,0.0,0.087266,0.0,0.0,3.0,0.290759,0.348634,0.303319,0.353186,0.126485,0.000194,0.003325,0.169605,-0.000341,-0.004736,0.0,0.0,0.0,0.0,0.0,0.0
123780,0.098056,-0.015411,0.00173,0.0,0.0,0.0,0.087266,0.0,0.0,3.0,0.2947,0.351264,0.300748,0.349594,0.130674,0.0002,0.003199,0.164494,-0.000508,-0.005441,0.0,0.0,0.0,0.0,0.0,0.0
123800,0.099152,-0.015783,0.001878,0.0,0.0,0.0,0.087266,0.0,0.0,3.0,0.293988,0.348698,0.301917,0.351761,0.133933,0.000203,0.003116,0.161441,-0.000605,-0.005815,0.0,0.0,0.0,0.0,0.0,0.0
123820,0.100253,-0.016039,0.002143,0.0,0.0,0.0,0.087266,0.0,0.0,3.0,0.291732,0.349227,0.300389,0.35422,0.137111,0.000207,0.002964,0.156342,-0.000758,-0.006362,0.0,0.0,0.0,0.0,0.0,0.0
123840,0.101349,-0.016289,0.002286,0.0,0.0,0.0,0.087266,0.0,0.0,3.0,0.292488,0.348837,0.299372,0.355505,0.139441,0.000208,0.002866,0.153266,-0.000846,-0.006645,0.0,0.0,0.0,0.0,0.0,0.0
123860,0.102329,-0.01654,0.002428,0.0,0.0,0.0,0.087266,0.0,0.0,3.0,0.293529,0.347947,0.301547,0.353159,0.143221,0.00021,0.002729,0.149135,-0.000957,-0.006974,0.0,0.0,0.0,0.0,0.0,0.0
123880,0.103424,-0.016797,0.002694,0.0,0.0,0.0,0.087266,0.0,0.0,3.0,0.285712,0.352884,0.298781,0.356428,0.146151,0.00021,0.00255,0.143912,-0.001086,-0.007309,0.0,0.0,0.0,0.0,0.0,0.0
123900,0.10477,-0.017048,0.00284,0.0,0.0,0.0,0.087266,0.0,0.0,3.0,0.286034,0.350093,0.299981,0.357978,0.148294,0.00021,0.002438,0.140743,-0.001157,-0.007473,0.0,0.0,0.0,0.0,0.0,0.0
123920,0.10623,-0.017542,0.003,0.0,0.0,0.0,0.087266,0.0,0.0,3.0,0.284899,0.350367,0.305214,0.354353,0.151077,0.000209,0.002285,0.136475,-0.001246,-0.007649,0.0,0.0,0.0,0.0,0.0,0.0
123940,0.107697,-0.017678,0.003263,0.0,0.0,0.0,0.087266,0.0,0.0,3.0,0.283144,0.350712,0.304621,0.355788,0.154435,0.000206,0.00209,0.131068,-0.001347,-0.007806,0.0,0.0,0.0,0.0,0.0,0.0
123960,0.109286,-0.018174,0.003426,0.0,0.0,0.0,0.087266,0.0,0.0,3.0,0.282747,0.351641,0.306072,0.353978,0.157024,0.000203,0.001931,0.126686,-0.001418,-0.007885,0.0,0.0,0.0,0.0,0.0,0.0
123980,0.111363,-0.018311,0.003695,0.0,0.0,0.0,0.087266,0.0,0.0,3.0,0.278199,0.351469,0.308608,0.355351,0.159524,0.0002,0.00177,0.122255,-0.001482,-0.007924,0.0,0.0,0.0,0.0,0.0,0.0
124000,0.113316,-0.018692,0.003977,0.0,0.0,0.0,0.087266,0.0,0.0,3.0,0.277817,0.352739,0.307027,0.355672,0.161936,0.000195,0.001609,0.117778,-0.001537,-0.007927,0.0,0.0,0.0,0.0,0.0,0.0
124020,0.115393,-0.019067,0.004139,0.0,0.0,0.0,0.087266,0.0,0.0,3.0,0.275489,0.352641,0.310492,0.35455,0.164257,0.00019,0.001447,0.113256,-0.001584,-0.007897,0.0,0.0,0.0,0.0,0.0,0.0
124040,0.117591,-0.019327,0.004418,0.0,0.0,0.0,0.087266,0.0,0.0,3.0,0.270356,0.354302,0.309008,0.357687,0.166488,0.000185,0.001287,0.108694,-0.001624,-0.007835,0.0,0.0,0.0,0.0,0.0,0.0
124060,0.119911,-0.019702,0.004584,0.0,0.0,0.0,0.087266,0.0,0.0,3.0,0.275369,0.350662,0.315809,0.352084,0.168628,0.000178,0.001127,0.104094,-0.001656,-0.007745,0.0,0.0,0.0,0.0,0.0,0.0
124080,0.12223,-0.019963,0.004865,0.0,0.0,0.0,0.087266,0.0,0.0,3.0,0.265182,0.354568,0.311666,0.358689,0.170172,0.000173,0.001009,0.100621,-0.001675,-0.00766,0.0,0.0,0.0,0.0,0.0,0.0
124100,0.124671,-0.020347,0.005155,0.0,0.0,0.0,0.087266,0.0,0.0,3.0,0.265966,0.3545,0.314728,0.355672,0.172629,0.000164,0.000815,0.094796,-0.001698,-0.007488,0.0,0.0,0.0,0.0,0.0,0.0
124120,0.12699,-0.020723,0.005323,0.0,0.0,0.0,0.087266,0.0,0.0,3.0,0.266215,0.354445,0.315137,0.355213,0.17449,0.000156,0.000663,0.090106,-0.001708,-0.007326,0.0,0.0,0.0,0.0,0.0,0.0
124140,0.129438,-0.021108,0.005616,0.0,0.0,0.0,0.087266,0.0,0.0,3.0,0.25942,0.357387,0.313069,0.35846,0.175824,0.00015,0.000551,0.086574,-0.001711,-0.007192,0.0,0.0,0.0,0.0,0.0,0.0
124160,0.131636,-0.021484,0.005784,0.0,0.0,0.0,0.087266,0.0,0.0,3.0,0.259519,0.356166,0.314778,0.35818,0.17752,0.000141,0.000404,0.081847,-0.001709,-0.006997,0.0,0.0,0.0,0.0,0.0,0.0
124180,0.133711,-0.021747,0.006066,0.0,0.0,0.0,0.087266,0.0,0.0,3.0,0.254229,0.358634,0.313722,0.359922,0.179121,0.000132,0.000262,0.077106,-0.001702,-0.006787,0.0,0.0,0.0,0.0,0.0,0.0
124200,0.135788,-0.022002,0.006226,0.0,0.0,0.0,0.087266,0.0,0.0,3.0,0.261975,0.356019,0.316064,0.355654,0.180989,0.00012,9e-05,0.071165,-0.001683,-0.006504,0.0,0.0,0.0,0.0,0.0,0.0
124220,0.137866,-0.022127,0.006256,0.0,0.0,0.0,0.087266,0.0,0.0,3.0,0.263859,0.352731,0.319403,0.354819,0.182377,0.000111,-4.2e-05,0.066406,-0.001663,-0.006265,0.0,0.0,0.0,0.0,0.0,0.0
124240,0.139455,-0.022382,0.006412,0.0,0.0,0.0,0.087266,0.0,0.0,3.0,0.263176,0.355363,0.317115,0.354623,0.183355,0.000103,-0.000138,0.062835,-0.001644,-0.006079,0.0,0.0,0.0,0.0,0.0,0.0
124260,0.141042,-0.022645,0.006691,0.0,0.0,0.0,0.087266,0.0,0.0,3.0,0.259462,0.360273,0.311206,0.357087,0.184867,9e-05,-0.000292,0.056886,-0.001607,-0.005759,0.0,0.0,0.0,0.0,0.0,0.0
124280,0.142634,-0.022648,0.006708,0.0,0.0,0.0,0.087266,0.0,0.0,3.0,0.263556,0.353723,0.318124,0.35514,0.185969,8e-05,-0.000409,0.052134,-0.001572,-0.005495,0.0,0.0,0.0,0.0,0.0,0.0
124300,0.14398,-0.022782,0.006854,0.0,0.0,0.0,0.087266,0.0,0.0,3.0,0.262478,0.356066,0.314688,0.356447,0.186976,6.9e-05,-0.000521,0.047392,-0.001533,-0.005226,0.0,0.0,0.0,0.0,0.0,0.0
124320,0.145204,-0.023036,0.007007,0.0,0.0,0.0,0.087266,0.0,0.0,3.0,0.256255,0.358975,0.313811,0.35825,0.187669,6.1e-05,-0.000601,0.043845,-0.001501,-0.005022,0.0,0.0,0.0,0.0,0.0,0.0
124340,0.14643,-0.023039,0.007021,0.0,0.0,0.0,0.087266,0.0,0.0,3.0,0.259537,0.358805,0.313172,0.356879,0.18851,5e-05,-0.000703,0.039132,-0.001456,-0.004748,0.0,0.0,0.0,0.0,0.0,0.0
124360,0.147403,-0.023162,0.00704,0.0,0.0,0.0,0.087266,0.0,0.0,3.0,0.260994,0.356865,0.314634,0.356658,0.189258,3.9e-05,-0.0008,0.034439,-0.001409,-0.004471,0.0,0.0,0.0,0.0,0.0,0.0
124380,0.148386,-0.023286,0.007061,0.0,0.0,0.0,0.087266,0.0,0.0,3.0,0.26048,0.356967,0.318368,0.353691,0.189912,2.9e-05,-0.000891,0.029772,-0.001358,-0.004195,0.0,0.0,0.0,0.0,0.0,0.0
124400,0.149115,-0.02353,0.007087,0.0,0.0,0.0,0.087266,0.0,0.0,3.0,0.263802,0.354777,0.316992,0.354901,0.190598,1.5e-05,-0.000997,0.023978,-0.001292,-0.003851,0.0,0.0,0.0,0.0,0.0,0.0
124420,0.149854,-0.023654,0.007105,0.0,0.0,0.0,0.087266,0.0,0.0,3.0,0.261546,0.358072,0.317198,0.352885,0.19094,7e-06,-0.001056,0.020526,-0.001251,-0.003646,0.0,0.0,0.0,0.0,0.0,0.0
124440,0.150584,-0.023776,0.007122,0.0,0.0,0.0,0.087266,0.0,0.0,3.0,0.261916,0.35321,0.318778,0.356161,0.191396,-6e-06,-0.001148,0.014819,-0.001181,-0.003307,0.0,0.0,0.0,0.0,0.0,0.0
124460,0.151202,-0.024013,0.007026,0.0,0.0,0.0,0.087266,0.0,0.0,3.0,0.263782,0.355927,0.319791,0.351319,0.191601,-1.4e-05,-0.001199,0.011424,-0.001137,-0.003107,0.0,0.0,0.0,0.0,0.0,0.0
124480,0.151932,-0.024135,0.007043,0.0,0.0,0.0,0.087266,0.0,0.0,3.0,0.262164,0.353809,0.318443,0.355694,0.191831,-2.7e-05,-0.001277,0.00582,-0.001065,-0.002778,0.0,0.0,0.0,0.0,0.0,0.0
124500,0.15254,-0.024257,0.007059,0.0,0.0,0.0,0.087266,0.0,0.0,3.0,0.26145,0.354213,0.318595,0.355626,0.191914,-3.8e-05,-0.001334,0.00139,-0.001006,-0.002521,0.0,0.0,0.0,0.0,0.0,0.0
124520,0.153157,-0.024381,0.007077,0.0,0.0,0.0,0.087266,0.0,0.0,3.0,0.258046,0.357673,0.321193,0.352079,0.191918,-4.5e-05,-0.001373,-0.001901,-0.000961,-0.002332,0.0,0.0,0.0,0.0,0.0,0.0
124540,0.154009,-0.024615,0.006983,0.0,0.0,0.0,0.087266,0.0,0.0,3.0,0.261104,0.357095,0.321161,0.350698,0.191848,-5.5e-05,-0.00142,-0.006242,-0.000902,-0.002086,0.0,0.0,0.0,0.0,0.0,0.0
124560,0.154383,-0.024739,0.006998,0.0,0.0,0.0,0.087266,0.0,0.0,3.0,0.260354,0.354712,0.319128,0.355381,0.191638,-6.7e-05,-0.001473,-0.01159,-0.000828,-0.001787,0.0,0.0,0.0,0.0,0.0,0.0
124580,0.15487,-0.025095,0.00691,0.0,0.0,0.0,0.087266,0.0,0.0,3.0,0.264126,0.35438,0.321637,0.351025,0.191374,-7.6e-05,-0.001509,-0.015802,-0.00077,-0.001556,0.0,0.0,0.0,0.0,0.0,0.0
124600,0.155355,-0.02546,0.006944,0.0,0.0,0.0,0.087266,0.0,0.0,3.0,0.25771,0.358499,0.320006,0.352498,0.191122,-8.3e-05,-0.001534,-0.018921,-0.000726,-0.001388,0.0,0.0,0.0,0.0,0.0,0.0
124620,0.15573,-0.025817,0.006856,0.0,0.0,0.0,0.087266,0.0,0.0,3.0,0.258855,0.359074,0.320066,0.351112,0.190597,-9.4e-05,-0.001568,-0.024038,-0.000655,-0.001118,0.0,0.0,0.0,0.0,0.0,0.0
124640,0.155971,-0.026183,0.006888,0.0,0.0,0.0,0.087266,0.0,0.0,3.0,0.255721,0.361197,0.318005,0.35275,0.190086,-0.000103,-0.001591,-0.028057,-0.000599,-0.000911,0.0,0.0,0.0,0.0,0.0,0.0
124660,0.155971,-0.026538,0.006795,0.0,0.0,0.0,0.087266,0.0,0.0,3.0,0.266401,0.353081,0.323842,0.348819,0.189651,-0.000109,-0.001605,-0.031025,-0.000558,-0.000761,0.0,0.0,0.0,0.0,0.0,0.0
124680,0.156094,-0.02665,0.006684,0.0,0.0,0.0,0.087266,0.0,0.0,3.0,0.261201,0.359002,0.31838,0.35113,0.188826,-0.000119,-0.001624,-0.035881,-0.000492,-0.000522,0.0,0.0,0.0,0.0,0.0,0.0
124700,0.155974,-0.026763,0.00657,0.0,0.0,0.0,0.087266,0.0,0.0,3.0,0.257491,0.361442,0.316091,0.353023,0.18808,-0.000127,-0.001635,-0.039683,-0.00044,-0.00034,0.0,0.0,0.0,0.0,0.0,0.0
124720,0.155732,-0.026631,0.006436,0.0,0.0,0.0,0.087266,0.0,0.0,3.0,0.263355,0.35911,0.316147,0.351534,0.187258,-0.000134,-0.001642,-0.043407,-0.00039,-0.000168,0.0,0.0,0.0,0.0,0.0,0.0
124740,0.155733,-0.02651,0.006427,0.0,0.0,0.0,0.087266,0.0,0.0,3.0,0.258251,0.353742,0.321314,0.355798,0.186593,-0.000139,-0.001645,-0.046149,-0.000353,-4.4e-05,0.0,0.0,0.0,0.0,0.0,0.0
124760,0.155612,-0.026266,0.006406,0.0,0.0,0.0,0.087266,0.0,0.0,3.0,0.255444,0.361023,0.316696,0.354236,0.185395,-0.000146,-0.001646,-0.049733,-0.000306,0.000113,0.0,0.0,0.0,0.0,0.0,0.0
124780,0.155483,-0.026133,0.006272,0.0,0.0,0.0,0.087266,0.0,0.0,3.0,0.258005,0.356415,0.321566,0.353055,0.184622,-0.000152,-0.001643,-0.053235,-0.000261,0.000262,0.0,0.0,0.0,0.0,0.0,0.0
124800,0.155492,-0.026378,0.006292,0.0,0.0,0.0,0.087266,0.0,0.0,3.0,0.255348,0.359633,0.318657,0.351371,0.183532,-0.000158,-0.001638,-0.056653,-0.000217,0.000402,0.0,0.0,0.0,0.0,0.0,0.0
124820,0.155736,-0.026257,0.006286,0.0,0.0,0.0,0.087266,0.0,0.0,3.0,0.263893,0.354376,0.323733,0.349307,0.182374,-0.000163,-0.00163,-0.059984,-0.000175,0.000533,0.0,0.0,0.0,0.0,0.0,0.0
124840,0.155858,-0.026369,0.006175,0.0,0.0,0.0,0.087266,0.0,0.0,3.0,0.257281,0.359928,0.320609,0.350773,0.18115,-0.000169,-0.001619,-0.063227,-0.000136,0.000655,0.0,0.0,0.0,0.0,0.0,0.0
124860,0.155858,-0.026491,0.006184,0.0,0.0,0.0,0.087266,0.0,0.0,3.0,0.256418,0.361507,0.319292,0.350856,0.179861,-0.000174,-0.001606,-0.06638,-9.8e-05,0.000769,0.0,0.0,0.0,0.0,0.0,0.0
124880,0.155859,-0.026603,0.006072,0.0,0.0,0.0,0.087266,0.0,0.0,3.0,0.256484,0.362228,0.318797,0.350498,0.178511,-0.000178,-0.00159,-0.069441,-6.2e-05,0.000875,0.0,0.0,0.0,0.0,0.0,0.0
124900,0.155737,-0.026725,0.00608,0.0,0.0,0.0,0.087266,0.0,0.0,3.0,0.25478,0.35857,0.321984,0.352553,0.176737,-0.000183,-0.001568,-0.073138,-2e-05,0.000996,0.0,0.0,0.0,0.0,0.0,0.0
124920,0.155617,-0.026593,0.005948,0.0,0.0,0.0,0.087266,0.0,0.0,3.0,0.264025,0.357385,0.322483,0.347253,0.175629,-0.000186,-0.001553,-0.075286,4e-06,0.001063,0.0,0.0,0.0,0.0,0.0,0.0
124940,0.155365,-0.026592,0.005943,0.0,0.0,0.0,0.087266,0.0,0.0,3.0,0.259106,0.360825,0.318188,0.350791,0.174103,-0.00019,-0.001531,-0.078065,3.4e-05,0.001145,0.0,0.0,0.0,0.0,0.0,0.0
124960,0.155002,-0.026461,0.005808,0.0,0.0,0.0,0.087266,0.0,0.0,3.0,0.260008,0.357682,0.32188,0.350179,0.172521,-0.000193,-0.001508,-0.080749,6.2e-05,0.001219,0.0,0.0,0.0,0.0,0.0,0.0
124980,0.155125,-0.02633,0.005678,0.0,0.0,0.0,0.087266,0.0,0.0,3.0,0.255824,0.358936,0.321025,0.352363,0.170887,-0.000196,-0.001483,-0.083335,8.8e-05,0.001286,0.0,0.0,0.0,0.0,0.0,0.0
125000,0.155003,-0.026451,0.005686,0.0,0.0,0.0,0.087266,0.0,0.0,3.0,0.256216,0.358804,0.323624,0.349931,0.168772,-0.000199,-0.00145,-0.086429,0.000118,0.001361,0.0,0.0,0.0,0.0,0.0,0.0
125020,0.155247,-0.026329,0.005679,0.0,0.0,0.0,0.087266,0.0,0.0,3.0,0.251618,0.359835,0.323685,0.351728,0.167467,-0.0002,-0.00143,-0.088211,0.000135,0.0014,0.0,0.0,0.0,0.0,0.0,0.0
125040,0.155247,-0.026807,0.005596,0.0,0.0,0.0,0.087266,0.0,0.0,3.0,0.256441,0.360247,0.322848,0.35098,0.165685,-0.000202,-0.001401,-0.090499,0.000156,0.001447,0.0,0.0,0.0,0.0,0.0,0.0
125060,0.155368,-0.026928,0.005607,0.0,0.0,0.0,0.087266,0.0,0.0,3.0,0.255257,0.356727,0.327959,0.348745,0.163858,-0.000204,-0.001372,-0.092687,0.000176,0.001487,0.0,0.0,0.0,0.0,0.0,0.0
125080,0.155501,-0.027042,0.005497,0.0,0.0,0.0,0.087266,0.0,0.0,3.0,0.251379,0.359114,0.324123,0.352227,0.161989,-0.000205,-0.001341,-0.094773,0.000194,0.001522,0.0,0.0,0.0,0.0,0.0,0.0
125100,0.155371,-0.027031,0.005373,0.0,0.0,0.0,0.087266,0.0,0.0,3.0,0.254243,0.358748,0.323039,0.351773,0.160078,-0.000206,-0.001311,-0.096758,0.00021,0.001551,0.0,0.0,0.0,0.0,0.0,0.0
125120,0.155128,-0.02691,0.00536,0.0,0.0,0.0,0.087266,0.0,0.0,3.0,0.255312,0.356609,0.326587,0.350088,0.158129,-0.000207,-0.001279,-0.09864,0.000225,0.001574,0.0,0.0,0.0,0.0,0.0,0.0
125140,0.154884,-0.027031,0.005366,0.0,0.0,0.0,0.087266,0.0,0.0,3.0,0.251765,0.359998,0.323608,0.351537,0.156143,-0.000207,-0.001247,-0.10042,0.000238,0.001592,0.0,0.0,0.0,0.0,0.0,0.0
125160,0.154643,-0.0269,0.005232,0.0,0.0,0.0,0.087266,0.0,0.0,3.0,0.256585,0.356224,0.32674,0.349523,0.154121,-0.000207,-0.001215,-0.102097,0.000251,0.001605,0.0,0.0,0.0,0.0,0.0,0.0
125180,0.1544,-0.026901,0.005229,0.0,0.0,0.0,0.087266,0.0,0.0,3.0,0.254785,0.362863,0.320541,0.349381,0.152068,-0.000207,-0.001182,-0.10367,0.000261,0.001614,0.0,0.0,0.0,0.0,0.0,0.0
125200,0.15428,-0.026769,0.005096,0.0,0.0,0.0,0.087266,0.0,0.0,3.0,0.250556,0.358589,0.327362,0.350351,0.149457,-0.000207,-0.00115,-0.105141,0.000271,0.001618,0.0,0.0,0.0,0.0,0.0,0.0
125220,0.154158,-0.02677,0.005095,0.0,0.0,0.0,0.087266,0.0,0.0,3.0,0.248054,0.360232,0.32595,0.351481,0.147337,-0.000206,-0.001108,-0.106835,0.000282,0.001617,0.0,0.0,0.0,0.0,0.0,0.0
125240,0.154158,-0.02677,0.005095,0.0,0.0,0.0,0.087266,0.0,0.0,3.0,0.248733,0.361431,0.326591,0.350937,0.14573,-0.000205,-0.001084,-0.107774,0.000288,0.001614,0.0,0.0,0.0,0.0,0.0,0.0
125260,0.154157,-0.026779,0.005217,0.0,0.0,0.0,0.087266,0.0,0.0,3.0,0.238912,0.365505,0.322457,0.354523,0.143021,-0.000204,-0.001043,-0.10921,0.000296,0.001604,0.0,0.0,0.0,0.0,0.0,0.0
125280,0.154037,-0.02677,0.005093,0.0,0.0,0.0,0.087266,0.0,0.0,3.0,0.246037,0.360497,0.327229,0.351271,0.140829,-0.000203,-0.00101,-0.110244,0.000301,0.001592,0.0,0.0,0.0,0.0,0.0,0.0
125300,0.153784,-0.026646,0.00508,0.0,0.0,0.0,0.087266,0.0,0.0,3.0,0.245983,0.360982,0.32671,0.351273,0.139171,-0.000202,-0.000986,-0.110952,0.000305,0.001581,0.0,0.0,0.0,0.0,0.0,0.0
125320,0.153421,-0.026516,0.004944,0.0,0.0,0.0,0.087266,0.0,0.0,3.0,0.244722,0.3595,0.329756,0.350781,0.136946,-0.0002,-0.000954,-0.111807,0.000309,0.001564,0.0,0.0,0.0,0.0,0.0,0.0
125340,0.153181,-0.026019,0.004782,0.0,0.0,0.0,0.087266,0.0,0.0,3.0,0.24885,0.356405,0.330236,0.35101,0.134704,-0.000198,-0.000923,-0.112561,0.000313,0.001544,0.0,0.0,0.0,0.0,0.0,0.0
