time_ms,roll,pitch,yaw,x,y,z,reference_roll,reference_pitch,reference_yaw,reference_throttle,throttle_1,throttle_2,throttle_3,throttle_4,roll_predicted,pitch_predicted,yaw_predicted,roll_rate_predicted,pitch_rate_predicted,yaw_rate_predicted,value1,value2,value3,value4,value5,value6
79020,-0.008299,0.001962,0.002084,0.0,0.0,0.0,0.0,0.0,0.0,3.0,0.307981,0.342186,0.276164,0.36609,1.6e-05,-0.0,0.0,-1.1e-05,-0.0,0.0,0.0,0.0,0.0,0.0,0.0,0.0
79040,-0.008055,0.001717,0.002082,0.0,0.0,0.0,0.0,0.0,0.0,3.0,0.306085,0.343027,0.278457,0.365248,1.6e-05,-0.0,0.0,-1.1e-05,-0.0,0.0,0.0,0.0,0.0,0.0,0.0,0.0
79060,-0.007933,0.001717,0.002082,0.0,0.0,0.0,0.0,0.0,0.0,3.0,0.306107,0.341065,0.278307,0.367127,1.6e-05,-0.0,0.0,-1.2e-05,-0.0,0.0,0.0,0.0,0.0,0.0,0.0,0.0
79080,-0.007933,0.001717,0.002082,0.0,0.0,0.0,0.0,0.0,0.0,3.0,0.306503,0.339939,0.277746,0.368217,1.5e-05,-0.0,0.0,-1.2e-05,-0.0,0.0,0.0,0.0,0.0,0.0,0.0,0.0
79100,-0.007933,0.001595,0.002082,0.0,0.0,0.0,0.0,0.0,0.0,3.0,0.306951,0.341115,0.277191,0.367181,1.5e-05,-0.0,0.0,-1.3e-05,-0.0,0.0,0.0,0.0,0.0,0.0,0.0,0.0
79120,-0.007811,0.001473,0.002081,0.0,0.0,0.0,0.0,0.0,0.0,3.0,0.304778,0.342423,0.279653,0.366002,1.5e-05,-0.0,0.0,-1.3e-05,-0.0,0.0,0.0,0.0,0.0,0.0,0.0,0.0
79140,-0.007812,0.00135,0.001959,0.0,0.0,0.0,0.0,0.0,0.0,3.0,0.307833,0.340333,0.281523,0.364199,1.5e-05,-0.0,0.0,-1.4e-05,-0.0,0.0,0.0,0.0,0.0,0.0,0.0,0.0
79160,-0.007812,0.001106,0.001958,0.0,0.0,0.0,0.0,0.0,0.0,3.0,0.310575,0.341319,0.276353,0.364682,1.4e-05,-0.0,0.0,-1.4e-05,-0.0,0.0,0.0,0.0,0.0,0.0,0.0,0.0
79180,-0.00769,0.000984,0.001957,0.0,0.0,0.0,0.0,0.0,0.0,3.0,0.306723,0.341308,0.277688,0.366846,1.4e-05,-0.0,0.0,-1.5e-05,-0.0,0.0,0.0,0.0,0.0,0.0,0.0,0.0
79200,-0.00769,0.000862,0.001957,0.0,0.0,0.0,0.0,0.0,0.0,3.0,0.304598,0.343361,0.279894,0.365114,1.4e-05,-0.0,0.0,-1.5e-05,-0.0,0.0,0.0,0.0,0.0,0.0,0.0,0.0
79220,-0.00769,0.000862,0.001835,0.0,0.0,0.0,0.0,0.0,0.0,3.0,0.305447,0.34163,0.280392,0.365691,1.3e-05,-0.0,0.0,-1.5e-05,-0.0,0.0,0.0,0.0,0.0,0.0,0.0,0.0
79240,-0.007812,0.000739,0.001712,0.0,0.0,0.0,0.0,0.0,0.0,3.0,0.308423,0.341838,0.278597,0.364389,1.3e-05,-0.0,0.0,-1.6e-05,-0.0,0.0,0.0,0.0,0.0,0.0,0.0,0.0
79260,-0.00769,0.000617,0.001712,0.0,0.0,0.0,0.0,0.0,0.0,3.0,0.306061,0.34305,0.278757,0.365039,1.3e-05,-0.0,0.0,-1.6e-05,-0.0,0.0,0.0,0.0,0.0,0.0,0.0,0.0
79280,-0.007813,0.000495,0.001589,0.0,0.0,0.0,0.0,0.0,0.0,3.0,0.31037,0.34227,0.282884,0.364241,1.2e-05,-0.0,0.0,-1.6e-05,-0.0,0.0,0.0,0.0,0.0,0.0,0.0,0.0
79300,-0.007813,0.00025,0.001588,0.0,0.0,0.0,0.0,0.0,0.0,3.0,0.306107,0.342262,0.279021,0.365544,1.2e-05,-0.0,0.0,-1.7e-05,0.0,0.0,0.0,0.0,0.0,0.0,0.0,0.0
79320,-0.007935,0.00025,0.001466,0.0,0.0,0.0,0.0,0.0,0.0,3.0,0.310511,0.34143,0.275085,0.365494,1.2e-05,-0.0,0.0,-1.7e-05,0.0,0.0,0.0,0.0,0.0,0.0,0.0,0.0
79340,-0.007935,0.000127,0.001343,0.0,0.0,0.0,0.0,0.0,0.0,3.0,0.309775,0.341278,0.277582,0.36452,1.1e-05,-0.0,0.0,-1.7e-05,0.0,0.0,0.0,0.0,0.0,0.0,0.0,0.0
79360,-0.007935,0.000249,0.001344,0.0,0.0,0.0,0.0,0.0,0.0,3.0,0.30781,0.340532,0.277249,0.366992,1.1e-05,-0.0,0.0,-1.8e-05,0.0,0.0,0.0,0.0,0.0,0.0,0.0,0.0
79380,-0.008057,0.000127,0.001343,0.0,0.0,0.0,0.0,0.0,0.0,3.0,0.307974,0.342403,0.276911,0.365387,1.1e-05,-0.0,0.0,-1.8e-05,0.0,-0.0,0.0,0.0,0.0,0.0,0.0,0.0
79400,-0.008057,-0.000117,0.00122,0.0,0.0,0.0,0.0,0.0,0.0,3.0,0.309477,0.342521,0.276712,0.364214,1e-05,-0.0,0.0,-1.8e-05,0.0,-0.0,0.0,0.0,0.0,0.0,0.0,0.0
79420,-0.008057,-0.000361,0.001219,0.0,0.0,0.0,0.0,0.0,0.0,3.0,0.306558,0.345054,0.274928,0.365411,1e-05,-0.0,0.0,-1.8e-05,0.0,-0.0,0.0,0.0,0.0,0.0,0.0,0.0
79440,-0.008057,-0.000606,0.001096,0.0,0.0,0.0,0.0,0.0,0.0,3.0,0.308769,0.343092,0.277516,0.363702,1e-05,-0.0,0.0,-1.9e-05,0.0,-0.0,0.0,0.0,0.0,0.0,0.0,0.0
79460,-0.00818,-0.00085,0.001095,0.0,0.0,0.0,0.0,0.0,0.0,3.0,0.309196,0.34371,0.275988,0.363836,9e-06,-0.0,0.0,-1.9e-05,0.0,-0.0,0.0,0.0,0.0,0.0,0.0,0.0
79480,-0.00818,-0.000851,0.000973,0.0,0.0,0.0,0.0,0.0,0.0,3.0,0.31161,0.341693,0.277241,0.362888,9e-06,-0.0,0.0,-1.9e-05,0.0,-0.0,0.0,0.0,0.0,0.0,0.0,0.0
79500,-0.00818,-0.000728,0.000974,0.0,0.0,0.0,0.0,0.0,0.0,3.0,0.309899,0.34166,0.275492,0.365499,8e-06,-0.0,0.0,-1.9e-05,0.0,-0.0,0.0,0.0,0.0,0.0,0.0,0.0
79520,-0.00818,-0.000728,0.000974,0.0,0.0,0.0,0.0,0.0,0.0,3.0,0.309819,0.341844,0.275323,0.365508,8e-06,-0.0,0.0,-1.9e-05,0.0,-0.0,0.0,0.0,0.0,0.0,0.0,0.0
79540,-0.00818,-0.000851,0.000973,0.0,0.0,0.0,0.0,0.0,0.0,3.0,0.310046,0.342582,0.27503,0.364848,8e-06,-0.0,0.0,-1.9e-05,0.0,-0.0,0.0,0.0,0.0,0.0,0.0,0.0
79560,-0.008058,-0.001095,0.000972,0.0,0.0,0.0,0.0,0.0,0.0,3.0,0.306022,0.344817,0.274444,0.366378,7e-06,-0.0,0.0,-2e-05,0.0,-0.0,0.0,0.0,0.0,0.0,0.0,0.0
79580,-0.00818,-0.001217,0.00085,0.0,0.0,0.0,0.0,0.0,0.0,3.0,0.314574,0.337683,0.279962,0.362238,7e-06,-0.0,0.0,-2e-05,0.0,-0.0,0.0,0.0,0.0,0.0,0.0,0.0
79600,-0.00818,-0.001339,0.000971,0.0,0.0,0.0,0.0,0.0,0.0,3.0,0.308469,0.34182,0.276072,0.366099,6e-06,-0.0,0.0,-2e-05,0.0,-0.0,0.0,0.0,0.0,0.0,0.0,0.0
79620,-0.00818,-0.001217,0.000972,0.0,0.0,0.0,0.0,0.0,0.0,3.0,0.309062,0.341053,0.275962,0.366402,6e-06,-0.0,0.0,-2e-05,0.0,-0.0,0.0,0.0,0.0,0.0,0.0,0.0
79640,-0.00818,-0.001217,0.000972,0.0,0.0,0.0,0.0,0.0,0.0,3.0,0.309139,0.34204,0.275909,0.365475,6e-06,-0.0,0.0,-2e-05,0.0,-0.0,0.0,0.0,0.0,0.0,0.0,0.0
79660,-0.008058,-0.001339,0.000971,0.0,0.0,0.0,0.0,0.0,0.0,3.0,0.307559,0.342833,0.277736,0.364756,5e-06,-0.0,0.0,-2e-05,0.0,-0.0,0.0,0.0,0.0,0.0,0.0,0.0
79680,-0.008058,-0.001584,0.000848,0.0,0.0,0.0,0.0,0.0,0.0,3.0,0.31247,0.339979,0.28263,0.359973,5e-06,-0.0,0.0,-2e-05,0.0,-0.0,0.0,0.0,0.0,0.0,0.0,0.0
79700,-0.008058,-0.00195,0.000847,0.0,0.0,0.0,0.0,0.0,0.0,3.0,0.312832,0.341098,0.281572,0.35939,5e-06,-0.0,0.0,-2e-05,0.0,-0.0,0.0,0.0,0.0,0.0,0.0,0.0
79720,-0.007936,-0.002072,0.000846,0.0,0.0,0.0,0.0,0.0,0.0,3.0,0.311262,0.33952,0.283249,0.360948,4e-06,-0.0,0.0,-2e-05,0.0,-0.0,0.0,0.0,0.0,0.0,0.0,0.0
79740,-0.007814,-0.002316,0.000968,0.0,0.0,0.0,0.0,0.0,0.0,3.0,0.305416,0.344317,0.276769,0.365742,4e-06,-0.0,0.0,-2e-05,0.0,-0.0,0.0,0.0,0.0,0.0,0.0,0.0
79760,-0.007814,-0.00256,0.000967,0.0,0.0,0.0,0.0,0.0,0.0,3.0,0.303786,0.347133,0.273876,0.366359,3e-06,-0.0,0.0,-2e-05,0.0,-0.0,0.0,0.0,0.0,0.0,0.0,0.0
79780,-0.007692,-0.002804,0.000844,0.0,0.0,0.0,0.0,0.0,0.0,3.0,0.307157,0.343264,0.279091,0.36374,3e-06,-0.0,0.0,-1.9e-05,0.0,-0.0,0.0,0.0,0.0,0.0,0.0,0.0
79800,-0.00757,-0.003049,0.000843,0.0,0.0,0.0,0.0,0.0,0.0,3.0,0.306973,0.343096,0.278513,0.364443,3e-06,-0.0,0.0,-1.9e-05,0.0,-0.0,0.0,0.0,0.0,0.0,0.0,0.0
79820,-0.007326,-0.003538,0.00072,0.0,0.0,0.0,0.0,0.0,0.0,3.0,0.308696,0.342557,0.281917,0.361173,2e-06,-0.0,0.0,-1.9e-05,0.0,-0.0,0.0,0.0,0.0,0.0,0.0,0.0
79840,-0.007326,-0.004026,0.000718,0.0,0.0,0.0,0.0,0.0,0.0,3.0,0.308177,0.345287,0.277698,0.362005,2e-06,-0.0,0.0,-1.9e-05,0.0,-0.0,0.0,0.0,0.0,0.0,0.0,0.0
79860,-0.007082,-0.004392,0.000717,0.0,0.0,0.0,0.0,0.0,0.0,3.0,0.303107,0.348761,0.274015,0.365269,1e-06,-0.0,0.0,-1.9e-05,0.0,-0.0,0.0,0.0,0.0,0.0,0.0,0.0
79880,-0.006838,-0.004759,0.000594,0.0,0.0,0.0,0.0,0.0,0.0,3.0,0.304319,0.345772,0.277498,0.364753,1e-06,-0.0,0.0,-1.9e-05,0.0,-0.0,0.0,0.0,0.0,0.0,0.0,0.0
79900,-0.006715,-0.00537,0.000348,0.0,0.0,0.0,0.0,0.0,0.0,3.0,0.312949,0.342468,0.283917,0.356306,1e-06,-0.0,0.0,-1.9e-05,0.0,-0.0,0.0,0.0,0.0,0.0,0.0,0.0
79920,-0.006471,-0.005981,0.000347,0.0,0.0,0.0,0.0,0.0,0.0,3.0,0.308023,0.346813,0.279044,0.359744,0.0,-0.0,0.0,-1.8e-05,0.0,-0.0,0.0,0.0,0.0,0.0,0.0,0.0
79940,-0.006227,-0.006469,0.000224,0.0,0.0,0.0,0.0,0.0,0.0,3.0,0.307221,0.348115,0.278281,0.359686,-0.0,-0.0,0.0,-1.8e-05,0.0,-0.0,0.0,0.0,0.0,0.0,0.0,0.0
79960,-0.00586,-0.006958,0.000102,0.0,0.0,0.0,0.0,0.0,0.0,3.0,0.307508,0.346654,0.280643,0.359179,-0.0,-0.0,0.0,-1.8e-05,0.0,-0.0,0.0,0.0,0.0,0.0,0.0,0.0
79980,-0.005493,-0.007203,-2e-05,0.0,0.0,0.0,0.0,0.0,0.0,3.0,0.306928,0.344894,0.281666,0.360588,-1e-06,-0.0,0.0,-1.8e-05,0.0,-0.0,0.0,0.0,0.0,0.0,0.0,0.0
80000,-0.00537,-0.007691,-0.000265,0.0,0.0,0.0,0.0,0.0,0.0,3.0,0.312065,0.344031,0.284071,0.355446,-1e-06,-0.0,-0.0,-1.8e-05,0.0,-0.0,0.0,0.0,0.0,0.0,0.0,0.0
80020,-0.005126,-0.007814,-0.000386,0.0,0.0,0.0,0.0,0.0,0.0,3.0,0.312639,0.341544,0.282866,0.358203,-2e-06,-0.0,-0.0,-1.7e-05,0.0,-0.0,0.0,0.0,0.0,0.0,0.0,0.0
80040,-0.004759,-0.008058,-0.000508,0.0,0.0,0.0,0.0,0.0,0.0,3.0,0.312628,0.341447,0.285612,0.356296,-2e-06,-0.0,-0.0,-1.7e-05,0.0,-0.0,0.0,0.0,0.0,0.0,0.0,0.0
80060,-0.004514,-0.008303,-0.000629,0.0,0.0,0.0,0.0,0.0,0.0,3.0,0.308963,0.343176,0.282619,0.359876,-2e-06,-0.0,-0.0,-1.7e-05,0.0,-0.0,0.0,0.0,0.0,0.0,0.0,0.0
80080,-0.004269,-0.008669,-0.000751,0.0,0.0,0.0,0.0,0.0,0.0,3.0,0.308998,0.343993,0.282418,0.359223,-3e-06,-0.0,-0.0,-1.7e-05,0.0,-0.0,0.0,0.0,0.0,0.0,0.0,0.0
80100,-0.003902,-0.009036,-0.000994,0.0,0.0,0.0,0.0,0.0,0.0,3.0,0.313167,0.339224,0.28823,0.355989,-3e-06,-0.0,-0.0,-1.6e-05,0.0,-0.0,0.0,0.0,0.0,0.0,0.0,0.0
80120,-0.003779,-0.009524,-0.001117,0.0,0.0,0.0,0.0,0.0,0.0,3.0,0.314771,0.340813,0.284915,0.355603,-3e-06,-0.0,-0.0,-1.6e-05,0.0,-0.0,0.0,0.0,0.0,0.0,0.0,0.0
80140,-0.003412,-0.00989,-0.001238,0.0,0.0,0.0,0.0,0.0,0.0,3.0,0.310926,0.341724,0.284398,0.358343,-4e-06,-0.0,-0.0,-1.6e-05,0.0,-0.0,0.0,0.0,0.0,0.0,0.0,0.0
80160,-0.003045,-0.010256,-0.001359,0.0,0.0,0.0,0.0,0.0,0.0,3.0,0.308601,0.34263,0.28445,0.359361,-4e-06,-0.0,-0.0,-1.5e-05,0.0,-0.0,0.0,0.0,0.0,0.0,0.0,0.0
80180,-0.0028,-0.010745,-0.00148,0.0,0.0,0.0,0.0,0.0,0.0,3.0,0.308967,0.344583,0.282956,0.358301,-4e-06,-0.0,-0.0,-1.5e-05,0.0,-0.0,0.0,0.0,0.0,0.0,0.0,0.0
80200,-0.002432,-0.011355,-0.001601,0.0,0.0,0.0,0.0,0.0,0.0,3.0,0.307614,0.345501,0.28466,0.357293,-4e-06,-0.0,-0.0,-1.5e-05,0.0,-0.0,0.0,0.0,0.0,0.0,0.0,0.0
80220,-0.002186,-0.012088,-0.001845,0.0,0.0,0.0,0.0,0.0,0.0,3.0,0.312953,0.342904,0.289243,0.351901,-5e-06,-0.0,-0.0,-1.4e-05,0.0,-0.0,0.0,0.0,0.0,0.0,0.0,0.0
80240,-0.001574,-0.01282,-0.001964,0.0,0.0,0.0,0.0,0.0,0.0,3.0,0.310884,0.343402,0.291156,0.351708,-5e-06,-0.0,-0.0,-1.4e-05,0.0,-0.0,0.0,0.0,0.0,0.0,0.0,0.0
80260,-0.001085,-0.013429,-0.002083,0.0,0.0,0.0,0.0,0.0,0.0,3.0,0.31133,0.343193,0.290949,0.351692,-5e-06,-0.0,-0.0,-1.4e-05,0.0,0.0,0.0,0.0,0.0,0.0,0.0,0.0
80280,-0.000718,-0.014039,-0.002081,0.0,0.0,0.0,0.0,0.0,0.0,3.0,0.306999,0.347408,0.285919,0.355028,-6e-06,-0.0,-0.0,-1.3e-05,0.0,0.0,0.0,0.0,0.0,0.0,0.0,0.0
80300,-0.00035,-0.014405,-0.0022,0.0,0.0,0.0,0.0,0.0,0.0,3.0,0.307116,0.345547,0.286724,0.356133,-6e-06,-0.0,-0.0,-1.3e-05,0.0,0.0,0.0,0.0,0.0,0.0,0.0,0.0
80320,1.7e-05,-0.014771,-0.00232,0.0,0.0,0.0,0.0,0.0,0.0,3.0,0.308756,0.345108,0.285345,0.356228,-6e-06,-0.0,-0.0,-1.2e-05,0.0,0.0,0.0,0.0,0.0,0.0,0.0,0.0
80340,0.000507,-0.015015,-0.002438,0.0,0.0,0.0,0.0,0.0,0.0,3.0,0.311016,0.342337,0.289337,0.354014,-6e-06,-0.0,-0.0,-1.2e-05,0.0,0.0,0.0,0.0,0.0,0.0,0.0,0.0
80360,0.000751,-0.015136,-0.002436,0.0,0.0,0.0,0.0,0.0,0.0,3.0,0.309771,0.34477,0.28382,0.356833,-7e-06,-0.0,-0.0,-1.2e-05,0.0,0.0,0.0,0.0,0.0,0.0,0.0,0.0
80380,0.001241,-0.015502,-0.002554,0.0,0.0,0.0,0.0,0.0,0.0,3.0,0.308626,0.345354,0.286179,0.355481,-7e-06,-0.0,-0.0,-1.1e-05,0.0,0.0,0.0,0.0,0.0,0.0,0.0,0.0
80400,0.001607,-0.015624,-0.002552,0.0,0.0,0.0,0.0,0.0,0.0,3.0,0.306773,0.346566,0.284608,0.356996,-7e-06,-0.0,-0.0,-1.1e-05,0.0,0.0,0.0,0.0,0.0,0.0,0.0,0.0
80420,0.001975,-0.015989,-0.00267,0.0,0.0,0.0,0.0,0.0,0.0,3.0,0.308764,0.346249,0.286272,0.354434,-7e-06,-0.0,-0.0,-1e-05,0.0,0.0,0.0,0.0,0.0,0.0,0.0,0.0
80440,0.002219,-0.016233,-0.002668,0.0,0.0,0.0,0.0,0.0,0.0,3.0,0.309233,0.345487,0.286074,0.354929,-7e-06,-0.0,-0.0,-1e-05,0.0,0.0,0.0,0.0,0.0,0.0,0.0,0.0
80460,0.002464,-0.016599,-0.002666,0.0,0.0,0.0,0.0,0.0,0.0,3.0,0.308648,0.345893,0.285574,0.355392,-8e-06,-0.0,-0.0,-1e-05,0.0,0.0,0.0,0.0,0.0,0.0,0.0,0.0
80480,0.00283,-0.016842,-0.002662,0.0,0.0,0.0,0.0,0.0,0.0,3.0,0.307708,0.345194,0.286585,0.35609,-8e-06,-0.0,-0.0,-9e-06,0.0,0.0,0.0,0.0,0.0,0.0,0.0,0.0
80500,0.003075,-0.017208,-0.00266,0.0,0.0,0.0,0.0,0.0,0.0,3.0,0.306657,0.348272,0.285313,0.354918,-8e-06,-0.0,-0.0,-9e-06,0.0,0.0,0.0,0.0,0.0,0.0,0.0,0.0
80520,0.003319,-0.017574,-0.002657,0.0,0.0,0.0,0.0,0.0,0.0,3.0,0.304269,0.349502,0.282853,0.357465,-8e-06,-0.0,-0.0,-8e-06,0.0,0.0,0.0,0.0,0.0,0.0,0.0,0.0
80540,0.003565,-0.017818,-0.002777,0.0,0.0,0.0,0.0,0.0,0.0,3.0,0.308534,0.346746,0.286953,0.353632,-8e-06,0.0,-0.0,-8e-06,0.0,0.0,0.0,0.0,0.0,0.0,0.0,0.0
80560,0.00381,-0.018184,-0.002774,0.0,0.0,0.0,0.0,0.0,0.0,3.0,0.308566,0.348039,0.28629,0.352838,-8e-06,0.0,-0.0,-7e-06,0.0,0.0,0.0,0.0,0.0,0.0,0.0,0.0
80580,0.004054,-0.018305,-0.002771,0.0,0.0,0.0,0.0,0.0,0.0,3.0,0.308671,0.346376,0.28745,0.353504,-9e-06,0.0,-0.0,-7e-06,0.0,0.0,0.0,0.0,0.0,0.0,0.0,0.0
80600,0.004176,-0.018549,-0.00277,0.0,0.0,0.0,0.0,0.0,0.0,3.0,0.311508,0.346952,0.288206,0.349973,-9e-06,0.0,-0.0,-7e-06,0.0,0.0,0.0,0.0,0.0,0.0,0.0,0.0
80620,0.004297,-0.018671,-0.002646,0.0,0.0,0.0,0.0,0.0,0.0,3.0,0.304795,0.350396,0.281964,0.356815,-9e-06,0.0,-0.0,-6e-06,0.0,0.0,0.0,0.0,0.0,0.0,0.0,0.0
80640,0.004421,-0.018793,-0.002767,0.0,0.0,0.0,0.0,0.0,0.0,3.0,0.30933,0.346979,0.287701,0.352175,-9e-06,0.0,-0.0,-6e-06,0.0,0.0,0.0,0.0,0.0,0.0,0.0,0.0
80660,0.004543,-0.019037,-0.002765,0.0,0.0,0.0,0.0,0.0,0.0,3.0,0.308616,0.347543,0.287953,0.352029,-9e-06,0.0,-0.0,-5e-06,0.0,0.0,0.0,0.0,0.0,0.0,0.0,0.0
80680,0.004542,-0.019159,-0.002643,0.0,0.0,0.0,0.0,0.0,0.0,3.0,0.306474,0.350115,0.283914,0.354296,-9e-06,0.0,-0.0,-5e-06,0.0,0.0,0.0,0.0,0.0,0.0,0.0,0.0
80700,0.004664,-0.019281,-0.002641,0.0,0.0,0.0,0.0,0.0,0.0,3.0,0.305815,0.349271,0.286747,0.353562,-9e-06,0.0,-0.0,-4e-06,0.0,0.0,0.0,0.0,0.0,0.0,0.0,0.0
80720,0.004665,-0.019403,-0.002641,0.0,0.0,0.0,0.0,0.0,0.0,3.0,0.307933,0.348495,0.287169,0.352255,-9e-06,0.0,-0.0,-4e-06,0.0,0.0,0.0,0.0,0.0,0.0,0.0,0.0
80740,0.004785,-0.019281,-0.002518,0.0,0.0,0.0,0.0,0.0,0.0,3.0,0.302936,0.350561,0.283856,0.356774,-9e-06,0.0,-0.0,-3e-06,0.0,0.0,0.0,0.0,0.0,0.0,0.0,0.0
80760,0.005029,-0.019281,-0.002516,0.0,0.0,0.0,0.0,0.0,0.0,3.0,0.302295,0.350447,0.285298,0.356339,-1e-05,0.0,-0.0,-3e-06,0.0,0.0,0.0,0.0,0.0,0.0,0.0,0.0
80780,0.00503,-0.019037,-0.002638,0.0,0.0,0.0,0.0,0.0,0.0,3.0,0.310504,0.343619,0.289275,0.35326,-1e-05,0.0,-0.0,-3e-06,0.0,0.0,0.0,0.0,0.0,0.0,0.0,0.0
80800,0.005395,-0.018914,-0.002513,0.0,0.0,0.0,0.0,0.0,0.0,3.0,0.303469,0.347358,0.286327,0.357639,-1e-05,0.0,-0.0,-2e-06,0.0,0.0,0.0,0.0,0.0,0.0,0.0,0.0
80820,0.005639,-0.018792,-0.002511,0.0,0.0,0.0,0.0,0.0,0.0,3.0,0.304261,0.34617,0.288588,0.356463,-1e-05,0.0,-0.0,-2e-06,0.0,0.0,0.0,0.0,0.0,0.0,0.0,0.0
80840,0.005761,-0.018792,-0.00251,0.0,0.0,0.0,0.0,0.0,0.0,3.0,0.302709,0.348463,0.288009,0.355929,-1e-05,0.0,-0.0,-1e-06,0.0,0.0,0.0,0.0,0.0,0.0,0.0,0.0
80860,0.005761,-0.018792,-0.00251,0.0,0.0,0.0,0.0,0.0,0.0,3.0,0.307513,0.346221,0.289024,0.353426,-1e-05,0.0,-0.0,-1e-06,0.0,0.0,0.0,0.0,0.0,0.0,0.0,0.0
80880,0.005639,-0.018792,-0.002511,0.0,0.0,0.0,0.0,0.0,0.0,3.0,0.309627,0.345792,0.288465,0.352506,-1e-05,0.0,-0.0,-1e-06,0.0,0.0,0.0,0.0,0.0,0.0,0.0,0.0
80900,0.005882,-0.01867,-0.002387,0.0,0.0,0.0,0.0,0.0,0.0,3.0,0.305659,0.345843,0.288931,0.355387,-1e-05,0.0,-0.0,-0.0,0.0,0.0,0.0,0.0,0.0,0.0,0.0,0.0
80920,0.00576,-0.018548,-0.002389,0.0,0.0,0.0,0.0,0.0,0.0,3.0,0.308077,0.344818,0.287501,0.355464,-1e-05,0.0,-0.0,0.0,0.0,0.0,0.0,0.0,0.0,0.0,0.0,0.0
80940,0.005882,-0.018426,-0.002388,0.0,0.0,0.0,0.0,0.0,0.0,3.0,0.307176,0.34445,0.288585,0.355745,-1e-05,0.0,-0.0,1e-06,0.0,0.0,0.0,0.0,0.0,0.0,0.0,0.0
80960,0.006004,-0.018304,-0.002387,0.0,0.0,0.0,0.0,0.0,0.0,3.0,0.307997,0.344162,0.290197,0.354126,-1e-05,0.0,-0.0,1e-06,0.0,0.0,0.0,0.0,0.0,0.0,0.0,0.0
80980,0.006247,-0.018304,-0.002263,0.0,0.0,0.0,0.0,0.0,0.0,3.0,0.302846,0.348359,0.287042,0.356641,-1e-05,0.0,-0.0,2e-06,0.0,0.0,0.0,0.0,0.0,0.0,0.0,0.0
81000,0.006491,-0.018425,-0.00226,0.0,0.0,0.0,0.0,0.0,0.0,3.0,0.304668,0.347678,0.290707,0.353063,-1e-05,0.0,-0.0,2e-06,0.0,0.0,0.0,0.0,0.0,0.0,0.0,0.0
81020,0.006613,-0.018669,-0.002258,0.0,0.0,0.0,0.0,0.0,0.0,3.0,0.305338,0.349259,0.290398,0.35119,-1e-05,0.0,-0.0,2e-06,0.0,0.0,0.0,0.0,0.0,0.0,0.0,0.0
81040,0.006735,-0.018791,-0.002257,0.0,0.0,0.0,0.0,0.0,0.0,3.0,0.305149,0.348099,0.29071,0.352253,-1e-05,0.0,-0.0,3e-06,0.0,0.0,0.0,0.0,0.0,0.0,0.0,0.0
81060,0.006858,-0.019035,-0.002255,0.0,0.0,0.0,0.0,0.0,0.0,3.0,0.305486,0.349486,0.290407,0.350835,-1e-05,0.0,-0.0,3e-06,0.0,0.0,0.0,0.0,0.0,0.0,0.0,0.0
81080,0.00698,-0.019279,-0.002253,0.0,0.0,0.0,0.0,0.0,0.0,3.0,0.307167,0.347255,0.292336,0.350149,-9e-06,0.0,-0.0,3e-06,0.0,0.0,0.0,0.0,0.0,0.0,0.0,0.0
81100,0.007101,-0.019402,-0.002129,0.0,0.0,0.0,0.0,0.0,0.0,3.0,0.30567,0.348856,0.289162,0.352262,-9e-06,0.0,-0.0,4e-06,0.0,0.0,0.0,0.0,0.0,0.0,0.0,0.0
81120,0.007222,-0.019646,-0.002005,0.0,0.0,0.0,0.0,0.0,0.0,3.0,0.300565,0.35316,0.28543,0.35495,-9e-06,0.0,-0.0,4e-06,0.0,0.0,0.0,0.0,0.0,0.0,0.0,0.0
81140,0.007222,-0.019646,-0.002005,0.0,0.0,0.0,0.0,0.0,0.0,3.0,0.304387,0.349761,0.287138,0.353954,-9e-06,0.0,-0.0,4e-06,0.0,0.0,0.0,0.0,0.0,0.0,0.0,0.0
81160,0.007222,-0.019646,-0.002005,0.0,0.0,0.0,0.0,0.0,0.0,3.0,0.30672,0.348506,0.288747,0.352055,-9e-06,0.0,-0.0,5e-06,0.0,0.0,0.0,0.0,0.0,0.0,0.0,0.0
81180,0.007222,-0.019524,-0.002005,0.0,0.0,0.0,0.0,0.0,0.0,3.0,0.307881,0.34792,0.287871,0.352333,-9e-06,0.0,0.0,5e-06,0.0,0.0,0.0,0.0,0.0,0.0,0.0,0.0
81200,0.007344,-0.019402,-0.002004,0.0,0.0,0.0,0.0,0.0,0.0,3.0,0.310038,0.345056,0.292856,0.349489,-9e-06,0.0,0.0,5e-06,0.0,0.0,0.0,0.0,0.0,0.0,0.0,0.0
81220,0.007343,-0.019402,-0.001882,0.0,0.0,0.0,0.0,0.0,0.0,3.0,0.307142,0.348709,0.287765,0.352251,-9e-06,0.0,0.0,6e-06,0.0,0.0,0.0,0.0,0.0,0.0,0.0,0.0
81240,0.007465,-0.019402,-0.001881,0.0,0.0,0.0,0.0,0.0,0.0,3.0,0.3095,0.347284,0.290846,0.349315,-9e-06,0.0,0.0,6e-06,0.0,0.0,0.0,0.0,0.0,0.0,0.0,0.0
81260,0.007586,-0.01928,-0.001758,0.0,0.0,0.0,0.0,0.0,0.0,3.0,0.305464,0.348717,0.289212,0.352531,-9e-06,0.0,0.0,6e-06,0.0,0.0,0.0,0.0,0.0,0.0,0.0,0.0
81280,0.007708,-0.019402,-0.001757,0.0,0.0,0.0,0.0,0.0,0.0,3.0,0.306938,0.349574,0.288569,0.350952,-8e-06,0.0,0.0,7e-06,0.0,0.0,0.0,0.0,0.0,0.0,0.0,0.0
81300,0.007707,-0.019281,-0.001635,0.0,0.0,0.0,0.0,0.0,0.0,3.0,0.307992,0.348001,0.286176,0.353439,-8e-06,0.0,0.0,7e-06,0.0,0.0,0.0,0.0,0.0,0.0,0.0,0.0
81320,0.007828,-0.019403,-0.001511,0.0,0.0,0.0,0.0,0.0,0.0,3.0,0.305963,0.351704,0.28431,0.352852,-8e-06,0.0,0.0,7e-06,0.0,0.0,0.0,0.0,0.0,0.0,0.0,0.0
81340,0.00795,-0.019403,-0.00151,0.0,0.0,0.0,0.0,0.0,0.0,3.0,0.307632,0.349942,0.287246,0.351014,-8e-06,0.0,0.0,7e-06,0.0,0.0,0.0,0.0,0.0,0.0,0.0,0.0
81360,0.00795,-0.019403,-0.00151,0.0,0.0,0.0,0.0,0.0,0.0,3.0,0.309905,0.347528,0.291197,0.348454,-8e-06,0.0,0.0,8e-06,0.0,0.0,0.0,0.0,0.0,0.0,0.0,0.0
81380,0.007827,-0.019648,-0.001388,0.0,0.0,0.0,0.0,0.0,0.0,3.0,0.310827,0.350036,0.287989,0.347643,-8e-06,0.0,0.0,8e-06,0.0,0.0,0.0,0.0,0.0,0.0,0.0,0.0
81400,0.007824,-0.019649,-0.001144,0.0,0.0,0.0,0.0,0.0,0.0,3.0,0.305371,0.352065,0.283458,0.353611,-8e-06,0.0,0.0,8e-06,0.0,0.0,0.0,0.0,0.0,0.0,0.0,0.0
81420,0.007824,-0.019893,-0.001143,0.0,0.0,0.0,0.0,0.0,0.0,3.0,0.309082,0.35056,0.288655,0.348091,-7e-06,0.0,0.0,8e-06,0.0,0.0,0.0,0.0,0.0,0.0,0.0,0.0
81440,0.007823,-0.019771,-0.001022,0.0,0.0,0.0,0.0,0.0,0.0,3.0,0.307369,0.350132,0.286026,0.351967,-7e-06,0.0,0.0,9e-06,0.0,0.0,0.0,0.0,0.0,0.0,0.0,0.0
81460,0.007822,-0.01965,-0.0009,0.0,0.0,0.0,0.0,0.0,0.0,3.0,0.305843,0.351474,0.283476,0.353795,-7e-06,0.0,0.0,9e-06,0.0,0.0,0.0,0.0,0.0,0.0,0.0,0.0
81480,0.007944,-0.019528,-0.000899,0.0,0.0,0.0,0.0,0.0,0.0,3.0,0.306314,0.3494,0.287649,0.352343,-7e-06,0.0,0.0,9e-06,0.0,0.0,0.0,0.0,0.0,0.0,0.0,0.0
81500,0.007943,-0.019406,-0.000778,0.0,0.0,0.0,0.0,0.0,0.0,3.0,0.305264,0.350852,0.286364,0.352739,-7e-06,0.0,0.0,9e-06,0.0,0.0,0.0,0.0,0.0,0.0,0.0,0.0
81520,0.008063,-0.019162,-0.000655,0.0,0.0,0.0,0.0,0.0,0.0,3.0,0.304812,0.350709,0.286476,0.353169,-7e-06,0.0,0.0,9e-06,-0.0,0.0,0.0,0.0,0.0,0.0,0.0,0.0
81540,0.00794,-0.018919,-0.000535,0.0,0.0,0.0,0.0,0.0,0.0,3.0,0.305004,0.350538,0.283624,0.355296,-6e-06,0.0,0.0,9e-06,-0.0,0.0,0.0,0.0,0.0,0.0,0.0,0.0
81560,0.008062,-0.018919,-0.000534,0.0,0.0,0.0,0.0,0.0,0.0,3.0,0.305757,0.350246,0.287536,0.352051,-6e-06,0.0,0.0,1e-05,-0.0,0.0,0.0,0.0,0.0,0.0,0.0,0.0
81580,0.008183,-0.018797,-0.000411,0.0,0.0,0.0,0.0,0.0,0.0,3.0,0.305053,0.35,0.287129,0.35318,-6e-06,0.0,0.0,1e-05,-0.0,-0.0,0.0,0.0,0.0,0.0,0.0,0.0
81600,0.008304,-0.01892,-0.000288,0.0,0.0,0.0,0.0,0.0,0.0,3.0,0.304021,0.352171,0.286637,0.35224,-6e-06,0.0,0.0,1e-05,-0.0,-0.0,0.0,0.0,0.0,0.0,0.0,0.0
81620,0.008303,-0.019042,-0.000165,0.0,0.0,0.0,0.0,0.0,0.0,3.0,0.30287,0.353438,0.28506,0.353092,-6e-06,0.0,0.0,1e-05,-0.0,-0.0,0.0,0.0,0.0,0.0,0.0,0.0
81640,0.008303,-0.019042,-0.000165,0.0,0.0,0.0,0.0,0.0,0.0,3.0,0.304495,0.351178,0.286911,0.352635,-5e-06,0.0,0.0,1e-05,-0.0,-0.0,0.0,0.0,0.0,0.0,0.0,0.0
81660,0.008302,-0.019165,-4.3e-05,0.0,0.0,0.0,0.0,0.0,0.0,3.0,0.303863,0.351886,0.286312,0.352897,-5e-06,0.0,0.0,1e-05,-0.0,-0.0,0.0,0.0,0.0,0.0,0.0,0.0
81680,0.008302,-0.019165,-4.3e-05,0.0,0.0,0.0,0.0,0.0,0.0,3.0,0.305973,0.349695,0.286536,0.353172,-5e-06,0.0,0.0,1e-05,-0.0,-0.0,0.0,0.0,0.0,0.0,0.0,0.0
81700,0.008423,-0.019287,8.1e-05,0.0,0.0,0.0,0.0,0.0,0.0,3.0,0.300913,0.352221,0.286762,0.354612,-5e-06,0.0,0.0,1e-05,-0.0,-0.0,0.0,0.0,0.0,0.0,0.0,0.0
81720,0.008299,-0.019166,0.000202,0.0,0.0,0.0,0.0,0.0,0.0,3.0,0.300067,0.353183,0.28221,0.357679,-5e-06,0.0,0.0,1.1e-05,-0.0,-0.0,0.0,0.0,0.0,0.0,0.0,0.0
81740,0.008421,-0.019166,0.000203,0.0,0.0,0.0,0.0,0.0,0.0,3.0,0.300935,0.351513,0.287099,0.355043,-4e-06,0.0,0.0,1.1e-05,-0.0,-0.0,0.0,0.0,0.0,0.0,0.0,0.0
81760,0.008299,-0.019044,0.000201,0.0,0.0,0.0,0.0,0.0,0.0,3.0,0.304779,0.350494,0.287136,0.352911,-4e-06,0.0,0.0,1.1e-05,-0.0,-0.0,0.0,0.0,0.0,0.0,0.0,0.0
81780,0.008298,-0.018922,0.000323,0.0,0.0,0.0,0.0,0.0,0.0,3.0,0.304343,0.350504,0.285176,0.354722,-4e-06,0.0,0.0,1.1e-05,-0.0,-0.0,0.0,0.0,0.0,0.0,0.0,0.0
81800,0.008541,-0.019045,0.000448,0.0,0.0,0.0,0.0,0.0,0.0,3.0,0.297221,0.354766,0.28469,0.35654,-4e-06,0.0,0.0,1.1e-05,-0.0,-0.0,0.0,0.0,0.0,0.0,0.0,0.0
81820,0.008297,-0.018923,0.000445,0.0,0.0,0.0,0.0,0.0,0.0,3.0,0.304541,0.352464,0.282824,0.354357,-3e-06,0.0,0.0,1.1e-05,-0.0,-0.0,0.0,0.0,0.0,0.0,0.0,0.0
81840,0.008419,-0.019045,0.000446,0.0,0.0,0.0,0.0,0.0,0.0,3.0,0.303498,0.352098,0.287871,0.351807,-3e-06,0.0,0.0,1.1e-05,-0.0,-0.0,0.0,0.0,0.0,0.0,0.0,0.0
81860,0.008175,-0.018923,0.000444,0.0,0.0,0.0,0.0,0.0,0.0,3.0,0.305751,0.351235,0.285809,0.352375,-3e-06,0.0,0.0,1.1e-05,-0.0,-0.0,0.0,0.0,0.0,0.0,0.0,0.0
81880,0.008175,-0.019045,0.000444,0.0,0.0,0.0,0.0,0.0,0.0,3.0,0.305206,0.352647,0.28634,0.351011,-3e-06,0.0,0.0,1.1e-05,-0.0,-0.0,0.0,0.0,0.0,0.0,0.0,0.0
81900,0.008174,-0.019045,0.000566,0.0,0.0,0.0,0.0,0.0,0.0,3.0,0.302293,0.355613,0.284177,0.352028,-3e-06,0.0,0.0,1.1e-05,-0.0,-0.0,0.0,0.0,0.0,0.0,0.0,0.0
81920,0.008174,-0.019045,0.000566,0.0,0.0,0.0,0.0,0.0,0.0,3.0,0.299514,0.355966,0.283069,0.354725,-2e-06,0.0,0.0,1.1e-05,-0.0,-0.0,0.0,0.0,0.0,0.0,0.0,0.0
81940,0.008296,-0.019167,0.000568,0.0,0.0,0.0,0.0,0.0,0.0,3.0,0.30244,0.354191,0.288302,0.350235,-2e-06,0.0,0.0,1.1e-05,-0.0,-0.0,0.0,0.0,0.0,0.0,0.0,0.0
81960,0.008296,-0.019167,0.000568,0.0,0.0,0.0,0.0,0.0,0.0,3.0,0.304223,0.35462,0.286961,0.349354,-2e-06,0.0,0.0,1.1e-05,-0.0,-0.0,0.0,0.0,0.0,0.0,0.0,0.0
81980,0.008418,-0.019167,0.000569,0.0,0.0,0.0,0.0,0.0,0.0,3.0,0.304043,0.354075,0.287181,0.34989,-2e-06,0.0,0.0,1.1e-05,-0.0,-0.0,0.0,0.0,0.0,0.0,0.0,0.0
82000,0.008418,-0.019167,0.000569,0.0,0.0,0.0,0.0,0.0,0.0,3.0,0.301598,0.354752,0.287259,0.351148,-2e-06,0.0,0.0,1.1e-05,-0.0,-0.0,0.0,0.0,0.0,0.0,0.0,0.0
82020,0.008296,-0.019045,0.000567,0.0,0.0,0.0,0.0,0.0,0.0,3.0,0.302071,0.354497,0.286625,0.351501,-1e-06,0.0,0.0,1.1e-05,-0.0,-0.0,0.0,0.0,0.0,0.0,0.0,0.0
82040,0.008297,-0.019045,0.000445,0.0,0.0,0.0,0.0,0.0,0.0,3.0,0.307426,0.35112,0.293291,0.34529,-1e-06,0.0,0.0,1.1e-05,-0.0,-0.0,0.0,0.0,0.0,0.0,0.0,0.0
82060,0.008175,-0.018923,0.000444,0.0,0.0,0.0,0.0,0.0,0.0,3.0,0.307793,0.351417,0.292462,0.345333,-1e-06,0.0,0.0,1e-05,-0.0,-0.0,0.0,0.0,0.0,0.0,0.0,0.0
82080,0.008175,-0.019045,0.000444,0.0,0.0,0.0,0.0,0.0,0.0,3.0,0.304634,0.353658,0.292063,0.346029,-1e-06,0.0,0.0,1e-05,-0.0,-0.0,0.0,0.0,0.0,0.0,0.0,0.0
82100,0.008174,-0.019045,0.000566,0.0,0.0,0.0,0.0,0.0,0.0,3.0,0.300625,0.355781,0.288488,0.349954,-0.0,0.0,0.0,1e-05,-0.0,-0.0,0.0,0.0,0.0,0.0,0.0,0.0
82120,0.008174,-0.019045,0.000566,0.0,0.0,0.0,0.0,0.0,0.0,3.0,0.301701,0.354728,0.289335,0.349499,-0.0,0.0,0.0,1e-05,-0.0,-0.0,0.0,0.0,0.0,0.0,0.0,0.0
82140,0.008174,-0.019289,0.000567,0.0,0.0,0.0,0.0,0.0,0.0,3.0,0.302121,0.355794,0.288986,0.348332,-0.0,0.0,0.0,1e-05,-0.0,-0.0,0.0,0.0,0.0,0.0,0.0,0.0
82160,0.008174,-0.019289,0.000567,0.0,0.0,0.0,0.0,0.0,0.0,3.0,0.302839,0.354526,0.290653,0.347745,0.0,0.0,0.0,1e-05,-0.0,-0.0,0.0,0.0,0.0,0.0,0.0,0.0
82180,0.008173,-0.01929,0.000689,0.0,0.0,0.0,0.0,0.0,0.0,3.0,0.300839,0.355327,0.287794,0.350774,0.0,0.0,0.0,1e-05,-0.0,-0.0,0.0,0.0,0.0,0.0,0.0,0.0
82200,0.008173,-0.019168,0.000689,0.0,0.0,0.0,0.0,0.0,0.0,3.0,0.301419,0.353839,0.289323,0.350642,1e-06,0.0,-0.0,1e-05,-0.0,-0.0,0.0,0.0,0.0,0.0,0.0,0.0
82220,0.00793,-0.019045,0.000564,0.0,0.0,0.0,0.0,0.0,0.0,3.0,0.30862,0.350048,0.291886,0.346477,1e-06,0.0,-0.0,1e-05,-0.0,-0.0,0.0,0.0,0.0,0.0,0.0,0.0
82240,0.007928,-0.019046,0.000686,0.0,0.0,0.0,0.0,0.0,0.0,3.0,0.303167,0.355397,0.287018,0.34939,1e-06,0.0,-0.0,9e-06,-0.0,-0.0,0.0,0.0,0.0,0.0,0.0,0.0
82260,0.008051,-0.019046,0.000687,0.0,0.0,0.0,0.0,0.0,0.0,3.0,0.304672,0.352257,0.293184,0.346543,1e-06,0.0,-0.0,9e-06,-0.0,-0.0,0.0,0.0,0.0,0.0,0.0,0.0
82280,0.008049,-0.019168,0.00081,0.0,0.0,0.0,0.0,0.0,0.0,3.0,0.301649,0.35761,0.286862,0.348483,1e-06,0.0,-0.0,9e-06,-0.0,-0.0,0.0,0.0,0.0,0.0,0.0,0.0
82300,0.008049,-0.01929,0.00081,0.0,0.0,0.0,0.0,0.0,0.0,3.0,0.302574,0.356478,0.287754,0.348205,1e-06,0.0,-0.0,9e-06,-0.0,-0.0,0.0,0.0,0.0,0.0,0.0,0.0
82320,0.008171,-0.019534,0.000812,0.0,0.0,0.0,0.0,0.0,0.0,3.0,0.302308,0.357873,0.288074,0.346731,2e-06,0.0,-0.0,9e-06,-0.0,-0.0,0.0,0.0,0.0,0.0,0.0,0.0
82340,0.008171,-0.019534,0.000812,0.0,0.0,0.0,0.0,0.0,0.0,3.0,0.303925,0.356208,0.28646,0.348356,2e-06,0.0,-0.0,9e-06,-0.0,-0.0,0.0,0.0,0.0,0.0,0.0,0.0
82360,0.008049,-0.019534,0.000811,0.0,0.0,0.0,0.0,0.0,0.0,3.0,0.308017,0.353717,0.289428,0.345174,2e-06,0.0,-0.0,9e-06,-0.0,-0.0,0.0,0.0,0.0,0.0,0.0,0.0
82380,0.008048,-0.019413,0.000933,0.0,0.0,0.0,0.0,0.0,0.0,3.0,0.300966,0.358373,0.284771,0.349841,2e-06,0.0,-0.0,8e-06,-0.0,-0.0,0.0,0.0,0.0,0.0,0.0,0.0
82400,0.008048,-0.019169,0.000932,0.0,0.0,0.0,0.0,0.0,0.0,3.0,0.301025,0.356134,0.286438,0.350831,2e-06,0.0,-0.0,8e-06,-0.0,-0.0,0.0,0.0,0.0,0.0,0.0,0.0
82420,0.007927,-0.019168,0.000809,0.0,0.0,0.0,0.0,0.0,0.0,3.0,0.307847,0.352625,0.291751,0.344612,2e-06,0.0,-0.0,8e-06,-0.0,-0.0,0.0,0.0,0.0,0.0,0.0,0.0
82440,0.008048,-0.019169,0.000932,0.0,0.0,0.0,0.0,0.0,0.0,3.0,0.301909,0.356316,0.287539,0.349083,3e-06,0.0,-0.0,8e-06,-0.0,-0.0,0.0,0.0,0.0,0.0,0.0,0.0
82460,0.008169,-0.019291,0.001056,0.0,0.0,0.0,0.0,0.0,0.0,3.0,0.297504,0.359443,0.286196,0.350453,3e-06,0.0,-0.0,8e-06,-0.0,0.0,0.0,0.0,0.0,0.0,0.0,0.0
82480,0.008169,-0.019291,0.001056,0.0,0.0,0.0,0.0,0.0,0.0,3.0,0.297311,0.358496,0.283638,0.353493,3e-06,0.0,-0.0,7e-06,-0.0,0.0,0.0,0.0,0.0,0.0,0.0,0.0
82500,0.008291,-0.019291,0.001057,0.0,0.0,0.0,0.0,0.0,0.0,3.0,0.301285,0.354802,0.287947,0.350828,3e-06,0.0,-0.0,7e-06,-0.0,0.0,0.0,0.0,0.0,0.0,0.0,0.0
82520,0.008169,-0.019047,0.001055,0.0,0.0,0.0,0.0,0.0,0.0,3.0,0.303311,0.352481,0.288818,0.350853,3e-06,0.0,-0.0,7e-06,-0.0,0.0,0.0,0.0,0.0,0.0,0.0,0.0
82540,0.008047,-0.018925,0.001053,0.0,0.0,0.0,0.0,0.0,0.0,3.0,0.303095,0.354139,0.286759,0.350926,3e-06,0.0,-0.0,7e-06,-0.0,0.0,0.0,0.0,0.0,0.0,0.0,0.0
82560,0.008046,-0.018926,0.001175,0.0,0.0,0.0,0.0,0.0,0.0,3.0,0.296543,0.359628,0.28318,0.353281,4e-06,0.0,-0.0,7e-06,-0.0,0.0,0.0,0.0,0.0,0.0,0.0,0.0
82580,0.008047,-0.018803,0.001052,0.0,0.0,0.0,0.0,0.0,0.0,3.0,0.301059,0.3548,0.289196,0.350057,4e-06,0.0,-0.0,6e-06,-0.0,0.0,0.0,0.0,0.0,0.0,0.0,0.0
82600,0.008047,-0.018925,0.001053,0.0,0.0,0.0,0.0,0.0,0.0,3.0,0.302259,0.354813,0.289769,0.348619,4e-06,0.0,-0.0,6e-06,-0.0,0.0,0.0,0.0,0.0,0.0,0.0,0.0
82620,0.00829,-0.018926,0.001177,0.0,0.0,0.0,0.0,0.0,0.0,3.0,0.298861,0.356258,0.289412,0.350184,4e-06,0.0,-0.0,6e-06,-0.0,0.0,0.0,0.0,0.0,0.0,0.0,0.0
82640,0.008412,-0.019048,0.001179,0.0,0.0,0.0,0.0,0.0,0.0,3.0,0.299765,0.356484,0.289441,0.349199,4e-06,0.0,-0.0,6e-06,-0.0,0.0,0.0,0.0,0.0,0.0,0.0,0.0
82660,0.008412,-0.019048,0.001179,0.0,0.0,0.0,0.0,0.0,0.0,3.0,0.299776,0.355765,0.28948,0.349896,4e-06,0.0,-0.0,5e-06,-0.0,0.0,0.0,0.0,0.0,0.0,0.0,0.0
82680,0.00829,-0.019048,0.001178,0.0,0.0,0.0,0.0,0.0,0.0,3.0,0.300594,0.356447,0.288614,0.3492,4e-06,0.0,-0.0,5e-06,-0.0,0.0,0.0,0.0,0.0,0.0,0.0,0.0
82700,0.00829,-0.018804,0.001177,0.0,0.0,0.0,0.0,0.0,0.0,3.0,0.299913,0.35558,0.290468,0.34921,4e-06,0.0,-0.0,5e-06,-0.0,0.0,0.0,0.0,0.0,0.0,0.0,0.0
82720,0.00829,-0.018804,0.001177,0.0,0.0,0.0,0.0,0.0,0.0,3.0,0.302835,0.354653,0.294627,0.344461,4e-06,0.0,-0.0,5e-06,-0.0,0.0,0.0,0.0,0.0,0.0,0.0,0.0
82740,0.008289,-0.018804,0.001299,0.0,0.0,0.0,0.0,0.0,0.0,3.0,0.298395,0.359447,0.289701,0.347036,5e-06,-0.0,-0.0,4e-06,-0.0,0.0,0.0,0.0,0.0,0.0,0.0,0.0
82760,0.008288,-0.018805,0.001421,0.0,0.0,0.0,0.0,0.0,0.0,3.0,0.29403,0.36133,0.284748,0.352337,5e-06,-0.0,-0.0,4e-06,-0.0,0.0,0.0,0.0,0.0,0.0,0.0,0.0
82780,0.008289,-0.019048,0.0013,0.0,0.0,0.0,0.0,0.0,0.0,3.0,0.300858,0.358129,0.29199,0.34459,5e-06,-0.0,-0.0,4e-06,-0.0,0.0,0.0,0.0,0.0,0.0,0.0,0.0
82800,0.008288,-0.018927,0.001422,0.0,0.0,0.0,0.0,0.0,0.0,3.0,0.298421,0.357933,0.289093,0.349063,5e-06,-0.0,-0.0,4e-06,-0.0,0.0,0.0,0.0,0.0,0.0,0.0,0.0
82820,0.008165,-0.018927,0.001542,0.0,0.0,0.0,0.0,0.0,0.0,3.0,0.297847,0.360257,0.285399,0.349937,5e-06,-0.0,-0.0,3e-06,-0.0,0.0,0.0,0.0,0.0,0.0,0.0,0.0
82840,0.008287,-0.018561,0.001542,0.0,0.0,0.0,0.0,0.0,0.0,3.0,0.294258,0.359036,0.28512,0.354235,5e-06,-0.0,-0.0,3e-06,-0.0,0.0,0.0,0.0,0.0,0.0,0.0,0.0
82860,0.008165,-0.018317,0.00154,0.0,0.0,0.0,0.0,0.0,0.0,3.0,0.300901,0.355377,0.286693,0.351509,5e-06,-0.0,-0.0,3e-06,-0.0,0.0,0.0,0.0,0.0,0.0,0.0,0.0
82880,0.008165,-0.018195,0.001539,0.0,0.0,0.0,0.0,0.0,0.0,3.0,0.301342,0.355288,0.289093,0.349408,5e-06,-0.0,-0.0,3e-06,-0.0,0.0,0.0,0.0,0.0,0.0,0.0,0.0
82900,0.008164,-0.018073,0.001661,0.0,0.0,0.0,0.0,0.0,0.0,3.0,0.298851,0.357778,0.286642,0.35075,5e-06,-0.0,-0.0,3e-06,-0.0,0.0,0.0,0.0,0.0,0.0,0.0,0.0
82920,0.008164,-0.018073,0.001661,0.0,0.0,0.0,0.0,0.0,0.0,3.0,0.298054,0.358315,0.285893,0.351404,5e-06,-0.0,-0.0,2e-06,-0.0,0.0,0.0,0.0,0.0,0.0,0.0,0.0
82940,0.008164,-0.018195,0.001662,0.0,0.0,0.0,0.0,0.0,0.0,3.0,0.299683,0.357748,0.287723,0.349286,5e-06,-0.0,-0.0,2e-06,-0.0,0.0,0.0,0.0,0.0,0.0,0.0,0.0
82960,0.008164,-0.018317,0.001662,0.0,0.0,0.0,0.0,0.0,0.0,3.0,0.304411,0.355696,0.290282,0.345515,5e-06,-0.0,-0.0,2e-06,-0.0,0.0,0.0,0.0,0.0,0.0,0.0,0.0
82980,0.008285,-0.018196,0.001785,0.0,0.0,0.0,0.0,0.0,0.0,3.0,0.298621,0.358293,0.286712,0.350353,5e-06,-0.0,-0.0,2e-06,-0.0,0.0,0.0,0.0,0.0,0.0,0.0,0.0
83000,0.008284,-0.018074,0.001906,0.0,0.0,0.0,0.0,0.0,0.0,3.0,0.297316,0.359836,0.284688,0.351332,5e-06,-0.0,-0.0,1e-06,-0.0,0.0,0.0,0.0,0.0,0.0,0.0,0.0
83020,0.008285,-0.017952,0.001784,0.0,0.0,0.0,0.0,0.0,0.0,3.0,0.300227,0.357271,0.287852,0.349237,5e-06,-0.0,-0.0,1e-06,-0.0,0.0,0.0,0.0,0.0,0.0,0.0,0.0
83040,0.008407,-0.01783,0.001784,0.0,0.0,0.0,0.0,0.0,0.0,3.0,0.299281,0.35797,0.287901,0.349246,5e-06,-0.0,-0.0,1e-06,-0.0,0.0,0.0,0.0,0.0,0.0,0.0,0.0
83060,0.008285,-0.017708,0.001783,0.0,0.0,0.0,0.0,0.0,0.0,3.0,0.304517,0.356249,0.289665,0.345336,5e-06,-0.0,-0.0,1e-06,-0.0,0.0,0.0,0.0,0.0,0.0,0.0,0.0
83080,0.008407,-0.017464,0.001905,0.0,0.0,0.0,0.0,0.0,0.0,3.0,0.298125,0.358841,0.286677,0.350214,5e-06,-0.0,-0.0,0.0,-0.0,0.0,0.0,0.0,0.0,0.0,0.0,0.0
83100,0.008285,-0.017342,0.001903,0.0,0.0,0.0,0.0,0.0,0.0,3.0,0.299287,0.358942,0.287272,0.348716,5e-06,-0.0,-0.0,0.0,-0.0,0.0,0.0,0.0,0.0,0.0,0.0,0.0
83120,0.008407,-0.01722,0.001904,0.0,0.0,0.0,0.0,0.0,0.0,3.0,0.298195,0.35854,0.288439,0.349121,5e-06,-0.0,-0.0,-0.0,-0.0,0.0,0.0,0.0,0.0,0.0,0.0,0.0
83140,0.008407,-0.016976,0.001903,0.0,0.0,0.0,0.0,0.0,0.0,3.0,0.299329,0.358187,0.287262,0.349472,5e-06,-0.0,-0.0,-0.0,-0.0,0.0,0.0,0.0,0.0,0.0,0.0,0.0
83160,0.008529,-0.016854,0.001903,0.0,0.0,0.0,0.0,0.0,0.0,3.0,0.300332,0.358039,0.290949,0.345945,5e-06,-0.0,-0.0,-0.0,-0.0,0.0,0.0,0.0,0.0,0.0,0.0,0.0
83180,0.008651,-0.016366,0.002024,0.0,0.0,0.0,0.0,0.0,0.0,3.0,0.296349,0.359291,0.285354,0.352162,5e-06,-0.0,-0.0,-1e-06,-0.0,0.0,0.0,0.0,0.0,0.0,0.0,0.0
83200,0.008652,-0.015999,0.001901,0.0,0.0,0.0,0.0,0.0,0.0,3.0,0.300107,0.356327,0.288473,0.349828,5e-06,-0.0,-0.0,-1e-06,-0.0,0.0,0.0,0.0,0.0,0.0,0.0,0.0
83220,0.008652,-0.015877,0.0019,0.0,0.0,0.0,0.0,0.0,0.0,3.0,0.302271,0.357353,0.287784,0.347527,5e-06,-0.0,-0.0,-1e-06,-0.0,0.0,0.0,0.0,0.0,0.0,0.0,0.0
83240,0.008775,-0.015755,0.001901,0.0,0.0,0.0,0.0,0.0,0.0,3.0,0.302363,0.355951,0.291332,0.346136,5e-06,-0.0,-0.0,-1e-06,-0.0,0.0,0.0,0.0,0.0,0.0,0.0,0.0
83260,0.008896,-0.015512,0.002022,0.0,0.0,0.0,0.0,0.0,0.0,3.0,0.291981,0.361775,0.284734,0.353478,5e-06,-0.0,-0.0,-2e-06,-0.0,0.0,0.0,0.0,0.0,0.0,0.0,0.0
83280,0.008774,-0.015146,0.00202,0.0,0.0,0.0,0.0,0.0,0.0,3.0,0.294055,0.358751,0.284088,0.355445,5e-06,-0.0,-0.0,-2e-06,-0.0,0.0,0.0,0.0,0.0,0.0,0.0,0.0
83300,0.008775,-0.014901,0.001897,0.0,0.0,0.0,0.0,0.0,0.0,3.0,0.299069,0.354701,0.291449,0.350028,5e-06,-0.0,-0.0,-2e-06,-0.0,0.0,0.0,0.0,0.0,0.0,0.0,0.0
83320,0.008776,-0.014535,0.001895,0.0,0.0,0.0,0.0,0.0,0.0,3.0,0.30068,0.352998,0.292923,0.349298,5e-06,-0.0,-0.0,-2e-06,-0.0,0.0,0.0,0.0,0.0,0.0,0.0,0.0
83340,0.008897,-0.014169,0.002017,0.0,0.0,0.0,0.0,0.0,0.0,3.0,0.290521,0.359475,0.28603,0.355981,5e-06,-0.0,-0.0,-2e-06,-0.0,0.0,0.0,0.0,0.0,0.0,0.0,0.0
83360,0.008899,-0.01368,0.001892,0.0,0.0,0.0,0.0,0.0,0.0,3.0,0.296173,0.354612,0.291719,0.352221,5e-06,-0.0,-0.0,-2e-06,-0.0,0.0,0.0,0.0,0.0,0.0,0.0,0.0
83380,0.008899,-0.013192,0.00189,0.0,0.0,0.0,0.0,0.0,0.0,3.0,0.29683,0.353294,0.292904,0.352109,5e-06,-0.0,-0.0,-3e-06,-0.0,0.0,0.0,0.0,0.0,0.0,0.0,0.0
83400,0.009021,-0.012948,0.00189,0.0,0.0,0.0,0.0,0.0,0.0,3.0,0.294082,0.357264,0.292012,0.350945,5e-06,-0.0,0.0,-3e-06,-0.0,0.0,0.0,0.0,0.0,0.0,0.0,0.0
83420,0.009022,-0.012582,0.001888,0.0,0.0,0.0,0.0,0.0,0.0,3.0,0.294489,0.357145,0.291354,0.351258,5e-06,-0.0,0.0,-3e-06,-0.0,0.0,0.0,0.0,0.0,0.0,0.0,0.0
83440,0.009022,-0.012216,0.001886,0.0,0.0,0.0,0.0,0.0,0.0,3.0,0.292274,0.357804,0.288692,0.354345,5e-06,-0.0,0.0,-3e-06,-0.0,0.0,0.0,0.0,0.0,0.0,0.0,0.0
83460,0.0089,-0.012093,0.001885,0.0,0.0,0.0,0.0,0.0,0.0,3.0,0.292725,0.359827,0.287825,0.352588,5e-06,-0.0,0.0,-3e-06,-0.0,0.0,0.0,0.0,0.0,0.0,0.0,0.0
83480,0.008779,-0.011605,0.001882,0.0,0.0,0.0,0.0,0.0,0.0,3.0,0.296214,0.35591,0.289194,0.352813,5e-06,-0.0,0.0,-4e-06,-0.0,0.0,0.0,0.0,0.0,0.0,0.0,0.0
83500,0.008779,-0.011361,0.001881,0.0,0.0,0.0,0.0,0.0,0.0,3.0,0.295897,0.35813,0.289682,0.350426,5e-06,-0.0,0.0,-4e-06,-0.0,0.0,0.0,0.0,0.0,0.0,0.0,0.0
83520,0.008657,-0.010995,0.001879,0.0,0.0,0.0,0.0,0.0,0.0,3.0,0.297347,0.357072,0.28822,0.351478,5e-06,-0.0,0.0,-4e-06,-0.0,0.0,0.0,0.0,0.0,0.0,0.0,0.0
83540,0.008657,-0.01075,0.001878,0.0,0.0,0.0,0.0,0.0,0.0,3.0,0.297146,0.3575,0.288355,0.351097,4e-06,-0.0,0.0,-4e-06,-0.0,0.0,0.0,0.0,0.0,0.0,0.0,0.0
83560,0.00878,-0.010628,0.001878,0.0,0.0,0.0,0.0,0.0,0.0,3.0,0.298345,0.357328,0.290672,0.348523,4e-06,-0.0,0.0,-4e-06,-0.0,0.0,0.0,0.0,0.0,0.0,0.0,0.0
83580,0.008658,-0.010506,0.001877,0.0,0.0,0.0,0.0,0.0,0.0,3.0,0.30189,0.356359,0.288444,0.34836,4e-06,-0.0,0.0,-4e-06,-0.0,0.0,0.0,0.0,0.0,0.0,0.0,0.0
83600,0.00878,-0.010506,0.001877,0.0,0.0,0.0,0.0,0.0,0.0,3.0,0.297788,0.358556,0.287811,0.349913,4e-06,-0.0,0.0,-4e-06,-0.0,0.0,0.0,0.0,0.0,0.0,0.0,0.0
83620,0.008536,-0.010506,0.001876,0.0,0.0,0.0,0.0,0.0,0.0,3.0,0.300042,0.359698,0.285095,0.348975,4e-06,-0.0,0.0,-5e-06,-0.0,0.0,0.0,0.0,0.0,0.0,0.0,0.0
83640,0.008413,-0.010506,0.001876,0.0,0.0,0.0,0.0,0.0,0.0,3.0,0.304194,0.355797,0.289266,0.346389,4e-06,-0.0,0.0,-5e-06,-0.0,0.0,0.0,0.0,0.0,0.0,0.0,0.0
83660,0.008413,-0.010507,0.001998,0.0,0.0,0.0,0.0,0.0,0.0,3.0,0.300497,0.358883,0.288412,0.34691,4e-06,-0.0,0.0,-5e-06,-0.0,0.0,0.0,0.0,0.0,0.0,0.0,0.0
83680,0.00829,-0.010385,0.002119,0.0,0.0,0.0,0.0,0.0,0.0,3.0,0.29665,0.361889,0.283183,0.350858,4e-06,-0.0,0.0,-5e-06,-0.0,0.0,0.0,0.0,0.0,0.0,0.0,0.0
83700,0.008412,-0.010141,0.00224,0.0,0.0,0.0,0.0,0.0,0.0,3.0,0.290133,0.362892,0.283991,0.35429,4e-06,-0.0,0.0,-5e-06,-0.0,0.0,0.0,0.0,0.0,0.0,0.0,0.0
83720,0.00829,-0.009897,0.002239,0.0,0.0,0.0,0.0,0.0,0.0,3.0,0.296446,0.358967,0.287083,0.351115,4e-06,-0.0,0.0,-5e-06,0.0,0.0,0.0,0.0,0.0,0.0,0.0,0.0
83740,0.00829,-0.009654,0.00236,0.0,0.0,0.0,0.0,0.0,0.0,3.0,0.295651,0.360053,0.285687,0.35168,4e-06,-0.0,0.0,-5e-06,0.0,0.0,0.0,0.0,0.0,0.0,0.0,0.0
83760,0.00829,-0.009409,0.002359,0.0,0.0,0.0,0.0,0.0,0.0,3.0,0.294091,0.360255,0.285863,0.352563,3e-06,-0.0,0.0,-5e-06,0.0,0.0,0.0,0.0,0.0,0.0,0.0,0.0
83780,0.008291,-0.008921,0.002357,0.0,0.0,0.0,0.0,0.0,0.0,3.0,0.294882,0.357206,0.288635,0.352971,3e-06,-0.0,0.0,-5e-06,0.0,0.0,0.0,0.0,0.0,0.0,0.0,0.0
83800,0.008047,-0.008677,0.002355,0.0,0.0,0.0,0.0,0.0,0.0,3.0,0.298026,0.355907,0.288038,0.35226,3e-06,-0.0,0.0,-5e-06,0.0,-0.0,0.0,0.0,0.0,0.0,0.0,0.0
83820,0.008047,-0.008433,0.002476,0.0,0.0,0.0,0.0,0.0,0.0,3.0,0.293712,0.359897,0.287297,0.352149,3e-06,-0.0,0.0,-5e-06,0.0,-0.0,0.0,0.0,0.0,0.0,0.0,0.0
83840,0.007803,-0.008066,0.002473,0.0,0.0,0.0,0.0,0.0,0.0,3.0,0.29565,0.358746,0.283757,0.354454,3e-06,-0.0,0.0,-6e-06,0.0,-0.0,0.0,0.0,0.0,0.0,0.0,0.0
83860,0.007804,-0.007578,0.002471,0.0,0.0,0.0,0.0,0.0,0.0,3.0,0.295152,0.356919,0.287813,0.353673,3e-06,-0.0,0.0,-6e-06,0.0,-0.0,0.0,0.0,0.0,0.0,0.0,0.0
83880,0.00756,-0.006968,0.002468,0.0,0.0,0.0,0.0,0.0,0.0,3.0,0.297007,0.355073,0.287326,0.354445,3e-06,-0.0,0.0,-6e-06,0.0,-0.0,0.0,0.0,0.0,0.0,0.0,0.0
83900,0.007317,-0.006357,0.002465,0.0,0.0,0.0,0.0,0.0,0.0,3.0,0.300538,0.354429,0.287333,0.352277,3e-06,-0.0,0.0,-6e-06,0.0,-0.0,0.0,0.0,0.0,0.0,0.0,0.0
83920,0.007317,-0.005747,0.002585,0.0,0.0,0.0,0.0,0.0,0.0,3.0,0.291121,0.359116,0.28208,0.358774,3e-06,-0.0,0.0,-6e-06,0.0,-0.0,0.0,0.0,0.0,0.0,0.0,0.0
83940,0.007074,-0.005136,0.00246,0.0,0.0,0.0,0.0,0.0,0.0,3.0,0.297554,0.354539,0.285949,0.355576,2e-06,-0.0,0.0,-6e-06,0.0,-0.0,0.0,0.0,0.0,0.0,0.0,0.0
83960,0.007075,-0.004648,0.002458,0.0,0.0,0.0,0.0,0.0,0.0,3.0,0.297157,0.354082,0.289351,0.353791,2e-06,-0.0,0.0,-6e-06,0.0,-0.0,0.0,0.0,0.0,0.0,0.0,0.0
83980,0.006954,-0.003915,0.002455,0.0,0.0,0.0,0.0,0.0,0.0,3.0,0.299919,0.350991,0.290309,0.353946,2e-06,-0.0,0.0,-6e-06,0.0,-0.0,0.0,0.0,0.0,0.0,0.0,0.0
84000,0.007076,-0.003305,0.002576,0.0,0.0,0.0,0.0,0.0,0.0,3.0,0.290881,0.357306,0.282212,0.360658,2e-06,-0.0,0.0,-6e-06,0.0,-0.0,0.0,0.0,0.0,0.0,0.0,0.0
84020,0.006955,-0.002695,0.002573,0.0,0.0,0.0,0.0,0.0,0.0,3.0,0.292144,0.356644,0.282261,0.360332,2e-06,-0.0,0.0,-6e-06,0.0,-0.0,0.0,0.0,0.0,0.0,0.0,0.0
84040,0.006956,-0.001962,0.002449,0.0,0.0,0.0,0.0,0.0,0.0,3.0,0.298034,0.351184,0.288882,0.356327,2e-06,-0.0,0.0,-6e-06,0.0,-0.0,0.0,0.0,0.0,0.0,0.0,0.0
84060,0.007079,-0.001352,0.002569,0.0,0.0,0.0,0.087266,0.0,0.0,3.0,0.431739,0.353995,0.15,0.357859,0.003679,0.0,0.000191,0.540493,0.000115,0.025108,0.0,0.0,0.0,0.0,0.0,0.0
84080,0.007324,-0.000496,0.002199,0.0,0.0,0.0,0.087266,0.0,0.0,3.0,0.347712,0.346853,0.237396,0.350694,0.012449,1e-06,0.000564,0.616906,0.000456,0.024038,0.0,0.0,0.0,0.0,0.0,0.0
84100,0.008057,0.000116,0.001587,0.0,0.0,0.0,0.087266,0.0,0.0,3.0,0.328835,0.343524,0.272339,0.349646,0.027089,7e-06,0.001138,0.528146,0.00094,0.021216,0.0,0.0,0.0,0.0,0.0,0.0
84120,0.009889,0.000482,0.001341,0.0,0.0,0.0,0.087266,0.0,0.0,3.0,0.321096,0.348055,0.278262,0.347938,0.034721,1.3e-05,0.001448,0.471919,0.001132,0.019552,0.0,0.0,0.0,0.0,0.0,0.0
84140,0.013185,0.00109,0.001336,0.0,0.0,0.0,0.087266,0.0,0.0,3.0,0.304765,0.35171,0.279864,0.357064,0.045727,2.5e-05,0.00191,0.397358,0.001324,0.016896,0.0,0.0,0.0,0.0,0.0,0.0
84160,0.01758,0.001695,0.001572,0.0,0.0,0.0,0.087266,0.0,0.0,3.0,0.294087,0.355166,0.284112,0.358985,0.05332,3.7e-05,0.002234,0.35252,0.001392,0.014882,0.0,0.0,0.0,0.0,0.0,0.0
84180,0.022831,0.00242,0.001803,0.0,0.0,0.0,0.087266,0.0,0.0,3.0,0.282937,0.35668,0.289595,0.361711,0.060095,4.9e-05,0.002518,0.317677,0.001404,0.012965,0.0,0.0,0.0,0.0,0.0,0.0
84200,0.028203,0.003146,0.001908,0.0,0.0,0.0,0.087266,0.0,0.0,3.0,0.279409,0.356303,0.29374,0.361486,0.066234,6.2e-05,0.002765,0.290472,0.001375,0.011145,0.0,0.0,0.0,0.0,0.0,0.0
84220,0.034309,0.00387,0.002008,0.0,0.0,0.0,0.087266,0.0,0.0,3.0,0.275077,0.356109,0.302148,0.358196,0.071876,7.4e-05,0.002976,0.269089,0.001315,0.009422,0.0,0.0,0.0,0.0,0.0,0.0
84240,0.040659,0.005081,0.002093,0.0,0.0,0.0,0.087266,0.0,0.0,3.0,0.270543,0.352144,0.306736,0.361511,0.077124,8.7e-05,0.003154,0.252136,0.001231,0.007795,0.0,0.0,0.0,0.0,0.0,0.0
84260,0.046765,0.00617,0.002173,0.0,0.0,0.0,0.087266,0.0,0.0,3.0,0.26922,0.352653,0.304525,0.363657,0.08206,9.9e-05,0.003299,0.238546,0.00113,0.006262,0.0,0.0,0.0,0.0,0.0,0.0
84280,0.052749,0.007261,0.002126,0.0,0.0,0.0,0.087266,0.0,0.0,3.0,0.273682,0.350354,0.308519,0.359673,0.086745,0.000111,0.003415,0.227501,0.001014,0.004823,0.0,0.0,0.0,0.0,0.0,0.0
84300,0.058859,0.008344,0.002315,0.0,0.0,0.0,0.087266,0.0,0.0,3.0,0.26625,0.352707,0.309257,0.361778,0.091224,0.000123,0.003503,0.218377,0.000889,0.003475,0.0,0.0,0.0,0.0,0.0,0.0
84320,0.064599,0.00943,0.002377,0.0,0.0,0.0,0.087266,0.0,0.0,3.0,0.268521,0.351712,0.308229,0.362075,0.095532,0.000134,0.003564,0.210695,0.000756,0.002217,0.0,0.0,0.0,0.0,0.0,0.0
84340,0.069856,0.010516,0.002436,0.0,0.0,0.0,0.087266,0.0,0.0,3.0,0.264657,0.349568,0.309485,0.365621,0.098667,0.000142,0.003594,0.205657,0.000652,0.001331,0.0,0.0,0.0,0.0,0.0,0.0
84360,0.074498,0.011724,0.002487,0.0,0.0,0.0,0.087266,0.0,0.0,3.0,0.275273,0.348599,0.306087,0.362222,0.103732,0.000155,0.003614,0.198281,0.000475,-3.9e-05,0.0,0.0,0.0,0.0,0.0,0.0
84380,0.079144,0.012931,0.002533,0.0,0.0,0.0,0.087266,0.0,0.0,3.0,0.270238,0.346916,0.309766,0.364258,0.106686,0.000162,0.003611,0.194317,0.000367,-0.000798,0.0,0.0,0.0,0.0,0.0,0.0
84400,0.08342,0.013894,0.002586,0.0,0.0,0.0,0.087266,0.0,0.0,3.0,0.26865,0.353427,0.301179,0.365893,0.111482,0.000173,0.00358,0.188252,0.000186,-0.001962,0.0,0.0,0.0,0.0,0.0,0.0
84420,0.087089,0.014625,0.002407,0.0,0.0,0.0,0.087266,0.0,0.0,3.0,0.28162,0.346793,0.307504,0.35835,0.115213,0.00018,0.003535,0.183745,4.1e-05,-0.002805,0.0,0.0,0.0,0.0,0.0,0.0
84440,0.090632,0.01535,0.002347,0.0,0.0,0.0,0.087266,0.0,0.0,3.0,0.281566,0.344615,0.310144,0.358306,0.118856,0.000187,0.003473,0.179441,-0.000101,-0.003572,0.0,0.0,0.0,0.0,0.0,0.0
84460,0.094175,0.015946,0.002412,0.0,0.0,0.0,0.087266,0.0,0.0,3.0,0.275079,0.348951,0.306625,0.36159,0.122413,0.000194,0.003397,0.175271,-0.000242,-0.004266,0.0,0.0,0.0,0.0,0.0,0.0
84480,0.097357,0.016429,0.002363,0.0,0.0,0.0,0.087266,0.0,0.0,3.0,0.274334,0.350621,0.305231,0.361614,0.125888,0.000199,0.003306,0.171179,-0.000378,-0.00489,0.0,0.0,0.0,0.0,0.0,0.0
84500,0.100411,0.016672,0.002203,0.0,0.0,0.0,0.087266,0.0,0.0,3.0,0.275761,0.34999,0.307265,0.359607,0.129281,0.000203,0.003204,0.167127,-0.00051,-0.005446,0.0,0.0,0.0,0.0,0.0,0.0
84520,0.103465,0.016788,0.002171,0.0,0.0,0.0,0.087266,0.0,0.0,3.0,0.275605,0.352903,0.30568,0.358163,0.131772,0.000206,0.00312,0.164096,-0.000606,-0.005821,0.0,0.0,0.0,0.0,0.0,0.0
84540,0.106397,0.017148,0.002126,0.0,0.0,0.0,0.087266,0.0,0.0,3.0,0.273889,0.350032,0.307964,0.360292,0.135824,0.00021,0.002968,0.15903,-0.000759,-0.006369,0.0,0.0,0.0,0.0,0.0,0.0
84560,0.109213,0.017515,0.00196,0.0,0.0,0.0,0.087266,0.0,0.0,3.0,0.275078,0.34902,0.308362,0.360124,0.138974,0.000211,0.002837,0.154949,-0.000875,-0.00674,0.0,0.0,0.0,0.0,0.0,0.0
84580,0.111778,0.018004,0.001788,0.0,0.0,0.0,0.087266,0.0,0.0,3.0,0.276963,0.345616,0.310971,0.359934,0.142042,0.000213,0.002698,0.150829,-0.000984,-0.007056,0.0,0.0,0.0,0.0,0.0,0.0
84600,0.114223,0.018365,0.001744,0.0,0.0,0.0,0.087266,0.0,0.0,3.0,0.274596,0.348347,0.308415,0.361057,0.145028,0.000213,0.002554,0.146664,-0.001086,-0.007318,0.0,0.0,0.0,0.0,0.0,0.0
84620,0.116789,0.018725,0.001699,0.0,0.0,0.0,0.087266,0.0,0.0,3.0,0.273488,0.348899,0.308936,0.360866,0.147929,0.000212,0.002404,0.142448,-0.00118,-0.007531,0.0,0.0,0.0,0.0,0.0,0.0
84640,0.11899,0.01933,0.001642,0.0,0.0,0.0,0.087266,0.0,0.0,3.0,0.273768,0.346711,0.309388,0.362388,0.150746,0.000211,0.00225,0.13818,-0.001268,-0.007696,0.0,0.0,0.0,0.0,0.0,0.0
84660,0.120947,0.019936,0.001586,0.0,0.0,0.0,0.087266,0.0,0.0,3.0,0.275218,0.347312,0.30785,0.36207,0.153478,0.000208,0.002093,0.133859,-0.001347,-0.007816,0.0,0.0,0.0,0.0,0.0,0.0
84680,0.122904,0.020663,0.001521,0.0,0.0,0.0,0.087266,0.0,0.0,3.0,0.27521,0.345445,0.308481,0.363325,0.156122,0.000205,0.001934,0.129485,-0.001419,-0.007895,0.0,0.0,0.0,0.0,0.0,0.0
84700,0.124861,0.021146,0.00147,0.0,0.0,0.0,0.087266,0.0,0.0,3.0,0.273696,0.348034,0.308852,0.361616,0.158679,0.000202,0.001773,0.12506,-0.001482,-0.007935,0.0,0.0,0.0,0.0,0.0,0.0
84720,0.126575,0.021622,0.001542,0.0,0.0,0.0,0.087266,0.0,0.0,3.0,0.270168,0.35,0.305116,0.365094,0.161146,0.000197,0.001611,0.120586,-0.001538,-0.007938,0.0,0.0,0.0,0.0,0.0,0.0
84740,0.128167,0.021984,0.001501,0.0,0.0,0.0,0.087266,0.0,0.0,3.0,0.275837,0.347254,0.306518,0.362766,0.163524,0.000192,0.00145,0.116065,-0.001586,-0.007908,0.0,0.0,0.0,0.0,0.0,0.0
84760,0.12988,0.022346,0.001459,0.0,0.0,0.0,0.087266,0.0,0.0,3.0,0.273522,0.346825,0.309033,0.362733,0.165811,0.000186,0.001289,0.1115,-0.001626,-0.007847,0.0,0.0,0.0,0.0,0.0,0.0
84780,0.131472,0.022587,0.001424,0.0,0.0,0.0,0.087266,0.0,0.0,3.0,0.272734,0.347826,0.309304,0.362102,0.168007,0.00018,0.001129,0.106896,-0.001658,-0.007756,0.0,0.0,0.0,0.0,0.0,0.0
84800,0.133063,0.022583,0.001406,0.0,0.0,0.0,0.087266,0.0,0.0,3.0,0.271327,0.347466,0.310617,0.362326,0.169593,0.000175,0.001011,0.103419,-0.001678,-0.007671,0.0,0.0,0.0,0.0,0.0,0.0
84820,0.134653,0.02271,0.001258,0.0,0.0,0.0,0.087266,0.0,0.0,3.0,0.277231,0.345003,0.314029,0.35779,0.17212,0.000165,0.000816,0.097582,-0.001701,-0.007499,0.0,0.0,0.0,0.0,0.0,0.0
84840,0.136245,0.02295,0.001223,0.0,0.0,0.0,0.087266,0.0,0.0,3.0,0.270956,0.346825,0.312193,0.361895,0.173566,0.000159,0.000702,0.094059,-0.001709,-0.00738,0.0,0.0,0.0,0.0,0.0,0.0
84860,0.137835,0.023077,0.001074,0.0,0.0,0.0,0.087266,0.0,0.0,3.0,0.274455,0.343708,0.317008,0.358444,0.175859,0.000149,0.000515,0.088155,-0.001715,-0.007156,0.0,0.0,0.0,0.0,0.0,0.0
84880,0.139418,0.023316,0.001038,0.0,0.0,0.0,0.087266,0.0,0.0,3.0,0.273551,0.343682,0.317253,0.358884,0.177586,0.00014,0.000369,0.083409,-0.001712,-0.006957,0.0,0.0,0.0,0.0,0.0,0.0
84900,0.141009,0.023678,0.000994,0.0,0.0,0.0,0.087266,0.0,0.0,3.0,0.270065,0.344305,0.315275,0.362317,0.179219,0.000131,0.000228,0.078647,-0.001703,-0.006742,0.0,0.0,0.0,0.0,0.0,0.0
84920,0.1426,0.023918,0.000957,0.0,0.0,0.0,0.087266,0.0,0.0,3.0,0.267349,0.346461,0.315439,0.361953,0.180756,0.000121,9.1e-05,0.073872,-0.001688,-0.006514,0.0,0.0,0.0,0.0,0.0,0.0
84940,0.14407,0.024402,0.000904,0.0,0.0,0.0,0.087266,0.0,0.0,3.0,0.268472,0.343102,0.317512,0.362629,0.182197,0.000111,-4.2e-05,0.06909,-0.001668,-0.006275,0.0,0.0,0.0,0.0,0.0,0.0
84960,0.14554,0.024764,0.000859,0.0,0.0,0.0,0.087266,0.0,0.0,3.0,0.265863,0.344969,0.316245,0.363653,0.183543,0.000101,-0.000169,0.064305,-0.001643,-0.006025,0.0,0.0,0.0,0.0,0.0,0.0
84980,0.146767,0.024996,0.000948,0.0,0.0,0.0,0.087266,0.0,0.0,3.0,0.263121,0.347301,0.314371,0.364777,0.184793,9.1e-05,-0.000292,0.05952,-0.001613,-0.005768,0.0,0.0,0.0,0.0,0.0,0.0
85000,0.147994,0.025115,0.000923,0.0,0.0,0.0,0.087266,0.0,0.0,3.0,0.263805,0.347032,0.316402,0.362916,0.185948,8e-05,-0.000409,0.054739,-0.001578,-0.005504,0.0,0.0,0.0,0.0,0.0,0.0
85020,0.149088,0.025121,0.000787,0.0,0.0,0.0,0.087266,0.0,0.0,3.0,0.269706,0.343312,0.320556,0.35903,0.187007,6.9e-05,-0.000521,0.049967,-0.001539,-0.005234,0.0,0.0,0.0,0.0,0.0,0.0
85040,0.150192,0.025119,0.000773,0.0,0.0,0.0,0.087266,0.0,0.0,3.0,0.262094,0.346679,0.318602,0.362502,0.18797,5.9e-05,-0.000628,0.045208,-0.001497,-0.004961,0.0,0.0,0.0,0.0,0.0,0.0
85060,0.150921,0.025004,0.000651,0.0,0.0,0.0,0.087266,0.0,0.0,3.0,0.266294,0.345642,0.318905,0.360508,0.188839,4.8e-05,-0.000729,0.040465,-0.001451,-0.004686,0.0,0.0,0.0,0.0,0.0,0.0
85080,0.151661,0.024882,0.000651,0.0,0.0,0.0,0.087266,0.0,0.0,3.0,0.261977,0.349065,0.313855,0.364264,0.189613,3.7e-05,-0.000824,0.035743,-0.001403,-0.004409,0.0,0.0,0.0,0.0,0.0,0.0
85100,0.152389,0.024767,0.00053,0.0,0.0,0.0,0.087266,0.0,0.0,3.0,0.263756,0.346654,0.317645,0.362265,0.190292,2.6e-05,-0.000914,0.031045,-0.001352,-0.004132,0.0,0.0,0.0,0.0,0.0,0.0
85120,0.152884,0.024776,0.000402,0.0,0.0,0.0,0.087266,0.0,0.0,3.0,0.267288,0.344031,0.318894,0.361381,0.190878,1.5e-05,-0.000998,0.026375,-0.001299,-0.003856,0.0,0.0,0.0,0.0,0.0,0.0
85140,0.153369,0.024784,0.000274,0.0,0.0,0.0,0.087266,0.0,0.0,3.0,0.268156,0.345146,0.318023,0.360495,0.191371,4e-06,-0.001077,0.021736,-0.001244,-0.003583,0.0,0.0,0.0,0.0,0.0,0.0
85160,0.153611,0.024914,0.00014,0.0,0.0,0.0,0.087266,0.0,0.0,3.0,0.267409,0.345152,0.316969,0.36187,0.191771,-7e-06,-0.00115,0.017133,-0.001187,-0.003312,0.0,0.0,0.0,0.0,0.0,0.0
85180,0.153853,0.024801,2.4e-05,0.0,0.0,0.0,0.087266,0.0,0.0,3.0,0.272808,0.342656,0.319014,0.358863,0.192011,-1.5e-05,-0.001201,0.013705,-0.001144,-0.003111,0.0,0.0,0.0,0.0,0.0,0.0
85200,0.154095,0.024567,-8.2e-05,0.0,0.0,0.0,0.087266,0.0,0.0,3.0,0.268784,0.346535,0.317292,0.359377,0.192297,-2.8e-05,-0.001279,0.008045,-0.001071,-0.002782,0.0,0.0,0.0,0.0,0.0,0.0
85220,0.154217,0.024445,-7.4e-05,0.0,0.0,0.0,0.087266,0.0,0.0,3.0,0.262723,0.348887,0.313992,0.363847,0.192424,-3.8e-05,-0.001336,0.003568,-0.001012,-0.002525,0.0,0.0,0.0,0.0,0.0,0.0
85240,0.154347,0.024333,-0.000188,0.0,0.0,0.0,0.087266,0.0,0.0,3.0,0.265578,0.345734,0.317908,0.361732,0.192461,-4.6e-05,-0.001375,0.000242,-0.000968,-0.002335,0.0,0.0,0.0,0.0,0.0,0.0
85260,0.15471,0.024342,-0.000314,0.0,0.0,0.0,0.087266,0.0,0.0,3.0,0.264722,0.343831,0.319972,0.36233,0.192412,-5.8e-05,-0.001434,-0.005236,-0.000893,-0.002028,0.0,0.0,0.0,0.0,0.0,0.0
85280,0.154709,0.024108,-0.000417,0.0,0.0,0.0,0.087266,0.0,0.0,3.0,0.268236,0.345163,0.318536,0.359991,0.192275,-6.8e-05,-0.001475,-0.009558,-0.000834,-0.001789,0.0,0.0,0.0,0.0,0.0,0.0
85300,0.155074,0.023985,-0.000412,0.0,0.0,0.0,0.087266,0.0,0.0,3.0,0.263524,0.346907,0.318142,0.361759,0.192052,-7.7e-05,-0.001512,-0.013821,-0.000776,-0.001558,0.0,0.0,0.0,0.0,0.0,0.0
85320,0.155196,0.023863,-0.000404,0.0,0.0,0.0,0.087266,0.0,0.0,3.0,0.261939,0.347533,0.317086,0.363066,0.191744,-8.7e-05,-0.001543,-0.018024,-0.000717,-0.001334,0.0,0.0,0.0,0.0,0.0,0.0
85340,0.155318,0.023498,-0.000377,0.0,0.0,0.0,0.087266,0.0,0.0,3.0,0.264173,0.348495,0.316488,0.36122,0.191352,-9.5e-05,-0.001571,-0.022163,-0.00066,-0.001119,0.0,0.0,0.0,0.0,0.0,0.0
85360,0.15544,0.023132,-0.00035,0.0,0.0,0.0,0.087266,0.0,0.0,3.0,0.265188,0.34881,0.315569,0.361027,0.190878,-0.000104,-0.001593,-0.026235,-0.000604,-0.000911,0.0,0.0,0.0,0.0,0.0,0.0
85380,0.155684,0.022888,-0.000334,0.0,0.0,0.0,0.087266,0.0,0.0,3.0,0.26104,0.349323,0.316867,0.36212,0.190323,-0.000112,-0.001612,-0.030239,-0.000549,-0.000712,0.0,0.0,0.0,0.0,0.0,0.0
85400,0.155683,0.022411,-0.000418,0.0,0.0,0.0,0.087266,0.0,0.0,3.0,0.265175,0.348436,0.317526,0.359749,0.189689,-0.00012,-0.001627,-0.034171,-0.000496,-0.000522,0.0,0.0,0.0,0.0,0.0,0.0
85420,0.155927,0.022167,-0.000401,0.0,0.0,0.0,0.087266,0.0,0.0,3.0,0.263682,0.347203,0.318526,0.361051,0.188976,-0.000128,-0.001637,-0.038029,-0.000444,-0.00034,0.0,0.0,0.0,0.0,0.0,0.0
85440,0.155927,0.022045,-0.000392,0.0,0.0,0.0,0.087266,0.0,0.0,3.0,0.261233,0.348741,0.317061,0.36239,0.188187,-0.000135,-0.001644,-0.04181,-0.000393,-0.000167,0.0,0.0,0.0,0.0,0.0,0.0
85460,0.156049,0.022045,-0.000393,0.0,0.0,0.0,0.087266,0.0,0.0,3.0,0.260464,0.347505,0.317976,0.36328,0.187323,-0.000142,-0.001648,-0.045513,-0.000344,-3e-06,0.0,0.0,0.0,0.0,0.0,0.0
85480,0.156049,0.022045,-0.000393,0.0,0.0,0.0,0.087266,0.0,0.0,3.0,0.256176,0.345321,0.320283,0.366043,0.186627,-0.000147,-0.001648,-0.048238,-0.000309,0.000114,0.0,0.0,0.0,0.0,0.0,0.0
85500,0.156049,0.022045,-0.000393,0.0,0.0,0.0,0.087266,0.0,0.0,3.0,0.262438,0.344797,0.319218,0.363531,0.185376,-0.000155,-0.001645,-0.052676,-0.000252,0.000299,0.0,0.0,0.0,0.0,0.0,0.0
85520,0.15617,0.022167,-0.000404,0.0,0.0,0.0,0.087266,0.0,0.0,3.0,0.260758,0.343257,0.321241,0.364316,0.184297,-0.000161,-0.001639,-0.056131,-0.000209,0.000437,0.0,0.0,0.0,0.0,0.0,0.0
85540,0.155927,0.022045,-0.000392,0.0,0.0,0.0,0.087266,0.0,0.0,3.0,0.262259,0.34377,0.319803,0.364107,0.183149,-0.000167,-0.00163,-0.0595,-0.000167,0.000566,0.0,0.0,0.0,0.0,0.0,0.0
85560,0.155927,0.02168,-0.000363,0.0,0.0,0.0,0.087266,0.0,0.0,3.0,0.263011,0.345425,0.31936,0.362458,0.181934,-0.000172,-0.001619,-0.062781,-0.000128,0.000686,0.0,0.0,0.0,0.0,0.0,0.0
85580,0.155929,0.021062,-0.000194,0.0,0.0,0.0,0.087266,0.0,0.0,3.0,0.25585,0.348665,0.319864,0.363463,0.180654,-0.000177,-0.001605,-0.065972,-9e-05,0.000799,0.0,0.0,0.0,0.0,0.0,0.0
85600,0.155563,0.020586,-0.000274,0.0,0.0,0.0,0.087266,0.0,0.0,3.0,0.266121,0.342742,0.323014,0.359832,0.179311,-0.000181,-0.001588,-0.069071,-5.4e-05,0.000902,0.0,0.0,0.0,0.0,0.0,0.0
85620,0.155564,0.019977,-0.000226,0.0,0.0,0.0,0.087266,0.0,0.0,3.0,0.258126,0.346107,0.322245,0.362451,0.177907,-0.000185,-0.00157,-0.072078,-2.1e-05,0.000998,0.0,0.0,0.0,0.0,0.0,0.0
85640,0.15532,0.019501,-0.000308,0.0,0.0,0.0,0.087266,0.0,0.0,3.0,0.261585,0.344964,0.323343,0.360401,0.176444,-0.000189,-0.00155,-0.07499,1.1e-05,0.001086,0.0,0.0,0.0,0.0,0.0,0.0
85660,0.155198,0.019258,-0.000288,0.0,0.0,0.0,0.087266,0.0,0.0,3.0,0.257617,0.344781,0.323117,0.363264,0.174923,-0.000193,-0.001528,-0.077807,4.1e-05,0.001166,0.0,0.0,0.0,0.0,0.0,0.0
85680,0.154824,0.018892,-0.000256,0.0,0.0,0.0,0.087266,0.0,0.0,3.0,0.254647,0.347505,0.319595,0.365511,0.173346,-0.000196,-0.001504,-0.080528,6.9e-05,0.001239,0.0,0.0,0.0,0.0,0.0,0.0
85700,0.154458,0.018415,-0.000336,0.0,0.0,0.0,0.087266,0.0,0.0,3.0,0.260794,0.34559,0.322597,0.360958,0.171716,-0.000199,-0.001479,-0.08315,9.5e-05,0.001305,0.0,0.0,0.0,0.0,0.0,0.0
85720,0.154093,0.018173,-0.000314,0.0,0.0,0.0,0.087266,0.0,0.0,3.0,0.257837,0.347912,0.318125,0.36441,0.170033,-0.000201,-0.001452,-0.085674,0.000119,0.001363,0.0,0.0,0.0,0.0,0.0,0.0
85740,0.153971,0.017939,-0.000416,0.0,0.0,0.0,0.087266,0.0,0.0,3.0,0.258149,0.345891,0.324669,0.360552,0.168302,-0.000203,-0.001425,-0.088099,0.000142,0.001415,0.0,0.0,0.0,0.0,0.0,0.0
85760,0.153596,0.017938,-0.000413,0.0,0.0,0.0,0.087266,0.0,0.0,3.0,0.25846,0.346489,0.321016,0.36293,0.166522,-0.000205,-0.001396,-0.090423,0.000163,0.00146,0.0,0.0,0.0,0.0,0.0,0.0
85780,0.153475,0.017695,-0.000393,0.0,0.0,0.0,0.087266,0.0,0.0,3.0,0.254957,0.346789,0.324177,0.362106,0.164697,-0.000206,-0.001366,-0.092646,0.000182,0.001499,0.0,0.0,0.0,0.0,0.0,0.0
85800,0.153231,0.017574,-0.000381,0.0,0.0,0.0,0.087266,0.0,0.0,3.0,0.256892,0.347831,0.322317,0.361526,0.162828,-0.000208,-0.001336,-0.094767,0.0002,0.001532,0.0,0.0,0.0,0.0,0.0,0.0
85820,0.153232,0.017452,-0.000372,0.0,0.0,0.0,0.087266,0.0,0.0,3.0,0.254187,0.347413,0.324469,0.361734,0.160917,-0.000209,-0.001305,-0.096786,0.000216,0.00156,0.0,0.0,0.0,0.0,0.0,0.0
85840,0.153232,0.017331,-0.000362,0.0,0.0,0.0,0.087266,0.0,0.0,3.0,0.253588,0.347352,0.324897,0.361786,0.158967,-0.000209,-0.001273,-0.098702,0.00023,0.001582,0.0,0.0,0.0,0.0,0.0,0.0
85860,0.153232,0.017209,-0.000353,0.0,0.0,0.0,0.087266,0.0,0.0,3.0,0.253974,0.346096,0.325081,0.362578,0.156979,-0.00021,-0.001241,-0.100516,0.000244,0.001598,0.0,0.0,0.0,0.0,0.0,0.0
85880,0.15311,0.017087,-0.000343,0.0,0.0,0.0,0.087266,0.0,0.0,3.0,0.255612,0.347039,0.323458,0.362087,0.154956,-0.00021,-0.001208,-0.102226,0.000256,0.00161,0.0,0.0,0.0,0.0,0.0,0.0
85900,0.153232,0.017087,-0.000344,0.0,0.0,0.0,0.087266,0.0,0.0,3.0,0.254794,0.344773,0.326662,0.361947,0.152899,-0.000209,-0.001176,-0.103832,0.000267,0.001618,0.0,0.0,0.0,0.0,0.0,0.0
85920,0.153232,0.017087,-0.000344,0.0,0.0,0.0,0.087266,0.0,0.0,3.0,0.253555,0.343901,0.326257,0.363865,0.150811,-0.000209,-0.001143,-0.105335,0.000276,0.001621,0.0,0.0,0.0,0.0,0.0,0.0
85940,0.152988,0.017209,-0.000351,0.0,0.0,0.0,0.087266,0.0,0.0,3.0,0.255872,0.34501,0.323978,0.363389,0.148694,-0.000208,-0.00111,-0.106735,0.000285,0.001619,0.0,0.0,0.0,0.0,0.0,0.0
85960,0.152988,0.017453,-0.00037,0.0,0.0,0.0,0.087266,0.0,0.0,3.0,0.258408,0.340637,0.327224,0.363068,0.146549,-0.000207,-0.001077,-0.108031,0.000292,0.001614,0.0,0.0,0.0,0.0,0.0,0.0
85980,0.152745,0.017453,-0.000368,0.0,0.0,0.0,0.087266,0.0,0.0,3.0,0.2593,0.341982,0.326212,0.362149,0.144379,-0.000206,-0.001044,-0.109223,0.000299,0.001606,0.0,0.0,0.0,0.0,0.0,0.0
86000,0.152623,0.017453,-0.000367,0.0,0.0,0.0,0.087266,0.0,0.0,3.0,0.258792,0.341266,0.327708,0.361825,0.142186,-0.000205,-0.001012,-0.110312,0.000304,0.001594,0.0,0.0,0.0,0.0,0.0,0.0
86020,0.152259,0.017323,-0.000232,0.0,0.0,0.0,0.087266,0.0,0.0,3.0,0.253389,0.344667,0.323278,0.365807,0.139973,-0.000203,-0.00098,-0.111299,0.000309,0.001579,0.0,0.0,0.0,0.0,0.0,0.0
86040,0.152006,0.016967,-0.000324,0.0,0.0,0.0,0.087266,0.0,0.0,3.0,0.258931,0.34245,0.329276,0.359248,0.13774,-0.000202,-0.000948,-0.112183,0.000313,0.001561,0.0,0.0,0.0,0.0,0.0,0.0
86060,0.151762,0.016724,-0.000303,0.0,0.0,0.0,0.087266,0.0,0.0,3.0,0.252894,0.343293,0.327894,0.363406,0.13549,-0.0002,-0.000916,-0.112964,0.000317,0.00154,0.0,0.0,0.0,0.0,0.0,0.0
86080,0.151153,0.016369,-0.000392,0.0,0.0,0.0,0.087266,0.0,0.0,3.0,0.255016,0.344688,0.326487,0.362044,0.133226,-0.000197,-0.000885,-0.113645,0.000319,0.001517,0.0,0.0,0.0,0.0,0.0,0.0
86100,0.150788,0.016248,-0.00038,0.0,0.0,0.0,0.087266,0.0,0.0,3.0,0.250794,0.343013,0.328452,0.364433,0.130948,-0.000195,-0.000854,-0.114224,0.000321,0.001492,0.0,0.0,0.0,0.0,0.0,0.0
86120,0.150047,0.016135,-0.000487,0.0,0.0,0.0,0.087266,0.0,0.0,3.0,0.25351,0.342932,0.327451,0.363755,0.12866,-0.000192,-0.000824,-0.114703,0.000323,0.001465,0.0,0.0,0.0,0.0,0.0,0.0
86140,0.149316,0.016146,-0.000603,0.0,0.0,0.0,0.087266,0.0,0.0,3.0,0.257768,0.340031,0.32823,0.363144,0.126363,-0.00019,-0.000794,-0.115082,0.000324,0.001436,0.0,0.0,0.0,0.0,0.0,0.0
86160,0.148577,0.015902,-0.000578,0.0,0.0,0.0,0.087266,0.0,0.0,3.0,0.250957,0.345907,0.324152,0.365359,0.124059,-0.000187,-0.000765,-0.115363,0.000324,0.001406,0.0,0.0,0.0,0.0,0.0,0.0
86180,0.147602,0.015669,-0.000674,0.0,0.0,0.0,0.087266,0.0,0.0,3.0,0.256672,0.34477,0.324523,0.362651,0.12175,-0.000184,-0.000736,-0.115546,0.000325,0.001374,0.0,0.0,0.0,0.0,0.0,0.0
86200,0.146741,0.015182,-0.000632,0.0,0.0,0.0,0.087266,0.0,0.0,3.0,0.258063,0.344266,0.325017,0.361833,0.120017,-0.000181,-0.000716,-0.11562,0.000324,0.001349,0.0,0.0,0.0,0.0,0.0,0.0
86220,0.145637,0.014461,-0.000692,0.0,0.0,0.0,0.087266,0.0,0.0,3.0,0.255333,0.351398,0.319389,0.361572,0.117126,-0.000177,-0.000682,-0.115622,0.000324,0.001307,0.0,0.0,0.0,0.0,0.0,0.0
86240,0.144662,0.013984,-0.000771,0.0,0.0,0.0,0.087266,0.0,0.0,3.0,0.254831,0.349072,0.321076,0.362675,0.114814,-0.000174,-0.000655,-0.115517,0.000323,0.001272,0.0,0.0,0.0,0.0,0.0,0.0
86260,0.143435,0.013515,-0.000971,0.0,0.0,0.0,0.087266,0.0,0.0,3.0,0.261738,0.347335,0.32224,0.359002,0.112505,-0.00017,-0.000629,-0.115319,0.000322,0.001236,0.0,0.0,0.0,0.0,0.0,0.0
86280,0.142451,0.013281,-0.001069,0.0,0.0,0.0,0.087266,0.0,0.0,3.0,0.260975,0.345811,0.323042,0.36025,0.110201,-0.000167,-0.000604,-0.115028,0.000321,0.0012,0.0,0.0,0.0,0.0,0.0,0.0
86300,0.141355,0.013047,-0.001166,0.0,0.0,0.0,0.087266,0.0,0.0,3.0,0.26088,0.343369,0.324193,0.361613,0.107903,-0.000163,-0.00058,-0.114646,0.000319,0.001163,0.0,0.0,0.0,0.0,0.0,0.0
86320,0.140371,0.01282,-0.001386,0.0,0.0,0.0,0.087266,0.0,0.0,3.0,0.267764,0.340285,0.327396,0.357198,0.105613,-0.000159,-0.000556,-0.114173,0.000318,0.001126,0.0,0.0,0.0,0.0,0.0,0.0
86340,0.139639,0.012708,-0.001495,0.0,0.0,0.0,0.087266,0.0,0.0,3.0,0.260273,0.341873,0.326204,0.361645,0.103334,-0.000155,-0.000534,-0.113612,0.000316,0.001089,0.0,0.0,0.0,0.0,0.0,0.0
86360,0.138777,0.012603,-0.001724,0.0,0.0,0.0,0.087266,0.0,0.0,3.0,0.267841,0.338595,0.328529,0.357715,0.101066,-0.000151,-0.000512,-0.112964,0.000314,0.001052,0.0,0.0,0.0,0.0,0.0,0.0
