time_ms,roll,pitch,yaw,x,y,z,reference_roll,reference_pitch,reference_yaw,reference_throttle,throttle_1,throttle_2,throttle_3,throttle_4,roll_predicted,pitch_predicted,yaw_predicted,roll_rate_predicted,pitch_rate_predicted,yaw_rate_predicted,value1,value2,value3,value4,value5,value6
348860,0.004887,0.002923,0.002923,0.0,0.0,0.0,0.0,0.0,0.0,3.0,0.300379,0.343931,0.296532,0.355644,-0.0,-0.0,1e-06,-0.0,-0.0,-2e-06,0.0,0.0,0.0,0.0,0.0,0.0
348880,0.004643,0.002801,0.002802,0.0,0.0,0.0,0.0,0.0,0.0,3.0,0.303115,0.340608,0.295723,0.35724,-0.0,-0.0,1e-06,-0.0,-0.0,-2e-06,0.0,0.0,0.0,0.0,0.0,0.0
348900,0.004642,0.002435,0.00268,0.0,0.0,0.0,0.0,0.0,0.0,3.0,0.30232,0.341467,0.296815,0.356219,-0.0,-0.0,1e-06,-0.0,-0.0,-2e-06,0.0,0.0,0.0,0.0,0.0,0.0
348920,0.00452,0.002436,0.002558,0.0,0.0,0.0,0.0,0.0,0.0,3.0,0.303527,0.339068,0.298133,0.356474,-0.0,-0.0,1e-06,-0.0,-0.0,-2e-06,0.0,0.0,0.0,0.0,0.0,0.0
348940,0.00452,0.002192,0.002437,0.0,0.0,0.0,0.0,0.0,0.0,3.0,0.306319,0.339553,0.300225,0.352075,-0.0,-0.0,1e-06,-0.0,-0.0,-2e-06,0.0,0.0,0.0,0.0,0.0,0.0
348960,0.004397,0.00207,0.002437,0.0,0.0,0.0,0.0,0.0,0.0,3.0,0.301288,0.343379,0.296212,0.355697,-0.0,-0.0,1e-06,-0.0,-0.0,-1e-06,0.0,0.0,0.0,0.0,0.0,0.0
348980,0.004275,0.001826,0.002316,0.0,0.0,0.0,0.0,0.0,0.0,3.0,0.299333,0.344883,0.294243,0.357334,-0.0,-0.0,1e-06,-0.0,-0.0,-1e-06,0.0,0.0,0.0,0.0,0.0,0.0
349000,0.00403,0.001583,0.002194,0.0,0.0,0.0,0.0,0.0,0.0,3.0,0.303414,0.341743,0.298292,0.353913,-0.0,-0.0,1e-06,-0.0,-0.0,-1e-06,0.0,0.0,0.0,0.0,0.0,0.0
349020,0.003908,0.001339,0.002073,0.0,0.0,0.0,0.0,0.0,0.0,3.0,0.306839,0.340095,0.300121,0.35121,-0.0,-0.0,1e-06,-0.0,-0.0,-1e-06,0.0,0.0,0.0,0.0,0.0,0.0
349040,0.003786,0.001217,0.001951,0.0,0.0,0.0,0.0,0.0,0.0,3.0,0.304258,0.341758,0.29978,0.352022,-0.0,-0.0,1e-06,-0.0,-0.0,-1e-06,0.0,0.0,0.0,0.0,0.0,0.0
349060,0.003663,0.001217,0.001829,0.0,0.0,0.0,0.0,0.0,0.0,3.0,0.3033,0.341178,0.297255,0.35536,-0.0,-0.0,1e-06,-0.0,-0.0,-1e-06,0.0,0.0,0.0,0.0,0.0,0.0
349080,0.003541,0.001218,0.001707,0.0,0.0,0.0,0.0,0.0,0.0,3.0,0.3047,0.339559,0.29814,0.35506,-0.0,-0.0,1e-06,-0.0,0.0,-1e-06,0.0,0.0,0.0,0.0,0.0,0.0
349100,0.003541,0.001096,0.001585,0.0,0.0,0.0,0.0,0.0,0.0,3.0,0.307317,0.33883,0.300433,0.351768,-0.0,-0.0,1e-06,-0.0,0.0,-1e-06,0.0,0.0,0.0,0.0,0.0,0.0
349120,0.003541,0.000974,0.001585,0.0,0.0,0.0,0.0,0.0,0.0,3.0,0.302875,0.343103,0.295857,0.354964,-0.0,-0.0,1e-06,-0.0,0.0,-1e-06,0.0,0.0,0.0,0.0,0.0,0.0
349140,0.003541,0.000974,0.001463,0.0,0.0,0.0,0.0,0.0,0.0,3.0,0.30306,0.341243,0.296504,0.356079,-0.0,-0.0,1e-06,-0.0,0.0,-1e-06,0.0,0.0,0.0,0.0,0.0,0.0
349160,0.003419,0.001096,0.001341,0.0,0.0,0.0,0.0,0.0,0.0,3.0,0.302796,0.339792,0.297041,0.357236,-0.0,-0.0,1e-06,-0.0,0.0,-1e-06,0.0,0.0,0.0,0.0,0.0,0.0
349180,0.003419,0.001097,0.001219,0.0,0.0,0.0,0.0,0.0,0.0,3.0,0.303774,0.338483,0.299778,0.355525,-0.0,-0.0,1e-06,-0.0,0.0,-1e-06,0.0,0.0,0.0,0.0,0.0,0.0
349200,0.003297,0.000853,0.00122,0.0,0.0,0.0,0.0,0.0,0.0,3.0,0.303851,0.341756,0.298675,0.35324,-0.0,-0.0,1e-06,-0.0,0.0,-1e-06,0.0,0.0,0.0,0.0,0.0,0.0
349220,0.003296,0.000608,0.00122,0.0,0.0,0.0,0.0,0.0,0.0,3.0,0.30169,0.343156,0.297256,0.35477,-0.0,-0.0,1e-06,-0.0,0.0,-1e-06,0.0,0.0,0.0,0.0,0.0,0.0
349240,0.003174,0.000242,0.001098,0.0,0.0,0.0,0.0,0.0,0.0,3.0,0.303042,0.342799,0.298216,0.353264,-0.0,-0.0,1e-06,-0.0,0.0,-1e-06,0.0,0.0,0.0,0.0,0.0,0.0
349260,0.003052,0.000121,0.000977,0.0,0.0,0.0,0.0,0.0,0.0,3.0,0.304604,0.340194,0.299328,0.353595,-0.0,-0.0,1e-06,-0.0,0.0,-1e-06,0.0,0.0,0.0,0.0,0.0,0.0
349280,0.00293,-0.000124,0.000977,0.0,0.0,0.0,0.0,0.0,0.0,3.0,0.30399,0.342277,0.296546,0.354312,-0.0,-0.0,1e-06,-0.0,0.0,-1e-06,0.0,0.0,0.0,0.0,0.0,0.0
349300,0.003052,-0.000246,0.000977,0.0,0.0,0.0,0.0,0.0,0.0,3.0,0.301279,0.342939,0.29623,0.356352,-0.0,-0.0,1e-06,-0.0,0.0,-1e-06,0.0,0.0,0.0,0.0,0.0,0.0
349320,0.00293,-0.000246,0.000977,0.0,0.0,0.0,0.0,0.0,0.0,3.0,0.302755,0.341444,0.296381,0.35409,-0.0,-0.0,1e-06,-0.0,0.0,-1e-06,0.0,0.0,0.0,0.0,0.0,0.0
349340,0.00293,-0.00049,0.000855,0.0,0.0,0.0,0.0,0.0,0.0,3.0,0.305422,0.340754,0.298465,0.35308,-0.0,-0.0,1e-06,-0.0,0.0,-1e-06,0.0,0.0,0.0,0.0,0.0,0.0
349360,0.002808,-0.00049,0.000855,0.0,0.0,0.0,0.0,0.0,0.0,3.0,0.304033,0.338967,0.299003,0.355476,-0.0,-0.0,1e-06,-0.0,0.0,-1e-06,0.0,0.0,0.0,0.0,0.0,0.0
349380,0.002808,-0.00049,0.000977,0.0,0.0,0.0,0.0,0.0,0.0,3.0,0.302507,0.340249,0.29552,0.358217,-0.0,-0.0,1e-06,-0.0,0.0,-1e-06,0.0,0.0,0.0,0.0,0.0,0.0
349400,0.002685,-0.000612,0.000978,0.0,0.0,0.0,0.0,0.0,0.0,3.0,0.303609,0.341435,0.295224,0.356449,-0.0,-0.0,1e-06,-0.0,0.0,-1e-06,0.0,0.0,0.0,0.0,0.0,0.0
349420,0.002685,-0.000612,0.000978,0.0,0.0,0.0,0.0,0.0,0.0,3.0,0.304765,0.338839,0.297616,0.356095,-0.0,-0.0,1e-06,-0.0,0.0,-1e-06,0.0,0.0,0.0,0.0,0.0,0.0
349440,0.002685,-0.000734,0.0011,0.0,0.0,0.0,0.0,0.0,0.0,3.0,0.300553,0.342867,0.297127,0.356056,-0.0,-0.0,1e-06,-0.0,0.0,-1e-06,0.0,0.0,0.0,0.0,0.0,0.0
349460,0.002563,-0.000856,0.001222,0.0,0.0,0.0,0.0,0.0,0.0,3.0,0.299664,0.345054,0.293887,0.357183,-0.0,-0.0,1e-06,-0.0,0.0,-1e-06,0.0,0.0,0.0,0.0,0.0,0.0
349480,0.002563,-0.000978,0.001222,0.0,0.0,0.0,0.0,0.0,0.0,3.0,0.301501,0.343132,0.296495,0.355542,-0.0,-0.0,1e-06,-0.0,0.0,-1e-06,0.0,0.0,0.0,0.0,0.0,0.0
349500,0.002441,-0.000978,0.001222,0.0,0.0,0.0,0.0,0.0,0.0,3.0,0.304398,0.34102,0.296136,0.355496,-0.0,-0.0,1e-06,-0.0,0.0,-1e-06,0.0,0.0,0.0,0.0,0.0,0.0
349520,0.002563,-0.000978,0.001344,0.0,0.0,0.0,0.0,0.0,0.0,3.0,0.300827,0.343164,0.296116,0.356344,-0.0,-0.0,1e-06,-0.0,0.0,-1e-06,0.0,0.0,0.0,0.0,0.0,0.0
349540,0.002319,-0.000612,0.001466,0.0,0.0,0.0,0.0,0.0,0.0,3.0,0.30282,0.340871,0.292369,0.359788,-0.0,-0.0,1e-06,-0.0,0.0,-1e-06,0.0,0.0,0.0,0.0,0.0,0.0
349560,0.002319,-0.000612,0.001588,0.0,0.0,0.0,0.0,0.0,0.0,3.0,0.299995,0.344567,0.29248,0.358459,-0.0,-0.0,1e-06,-0.0,0.0,-1e-06,0.0,0.0,0.0,0.0,0.0,0.0
349580,0.002197,-0.000368,0.001588,0.0,0.0,0.0,0.0,0.0,0.0,3.0,0.304147,0.340765,0.293979,0.357606,-0.0,-0.0,1e-06,-0.0,0.0,-1e-06,0.0,0.0,0.0,0.0,0.0,0.0
349600,0.002319,-0.000612,0.00171,0.0,0.0,0.0,0.0,0.0,0.0,3.0,0.298527,0.346287,0.291229,0.358915,-0.0,-0.0,1e-06,-0.0,0.0,-1e-06,0.0,0.0,0.0,0.0,0.0,0.0
349620,0.002319,-0.000491,0.001954,0.0,0.0,0.0,0.0,0.0,0.0,3.0,0.299721,0.345758,0.289931,0.359459,-0.0,-0.0,1e-06,0.0,0.0,-1e-06,0.0,0.0,0.0,0.0,0.0,0.0
349640,0.002319,-0.000613,0.001954,0.0,0.0,0.0,0.0,0.0,0.0,3.0,0.299891,0.345275,0.29252,0.357837,-0.0,-0.0,1e-06,0.0,0.0,-1e-06,0.0,0.0,0.0,0.0,0.0,0.0
349660,0.002319,-0.000491,0.001954,0.0,0.0,0.0,0.0,0.0,0.0,3.0,0.300795,0.342245,0.295313,0.35786,-0.0,-0.0,1e-06,0.0,0.0,-1e-06,0.0,0.0,0.0,0.0,0.0,0.0
349680,0.002197,-0.000735,0.002076,0.0,0.0,0.0,0.0,0.0,0.0,3.0,0.303259,0.346369,0.295034,0.352139,-0.0,-0.0,1e-06,0.0,0.0,-1e-06,0.0,0.0,0.0,0.0,0.0,0.0
349700,0.002197,-0.000735,0.002198,0.0,0.0,0.0,0.0,0.0,0.0,3.0,0.299497,0.344115,0.293928,0.358177,-0.0,-0.0,1e-06,0.0,0.0,-1e-06,0.0,0.0,0.0,0.0,0.0,0.0
349720,0.002197,-0.000735,0.002321,0.0,0.0,0.0,0.0,0.0,0.0,3.0,0.294781,0.34666,0.290951,0.361645,-0.0,-0.0,1e-06,0.0,0.0,-1e-06,0.0,0.0,0.0,0.0,0.0,0.0
349740,0.002197,-0.000613,0.00232,0.0,0.0,0.0,0.0,0.0,0.0,3.0,0.29627,0.34466,0.291334,0.362114,-0.0,-0.0,1e-06,0.0,0.0,-1e-06,0.0,0.0,0.0,0.0,0.0,0.0
349760,0.002318,-0.000979,0.002321,0.0,0.0,0.0,0.0,0.0,0.0,3.0,0.300519,0.343219,0.297796,0.355223,-0.0,-0.0,1e-06,0.0,0.0,-1e-06,0.0,0.0,0.0,0.0,0.0,0.0
349780,0.002318,-0.00098,0.002565,0.0,0.0,0.0,0.0,0.0,0.0,3.0,0.298011,0.344731,0.293308,0.359225,-0.0,-0.0,1e-06,0.0,0.0,-1e-06,0.0,0.0,0.0,0.0,0.0,0.0
349800,0.00244,-0.001224,0.002688,0.0,0.0,0.0,0.0,0.0,0.0,3.0,0.291816,0.349854,0.289121,0.362192,-0.0,-0.0,1e-06,0.0,0.0,-1e-06,0.0,0.0,0.0,0.0,0.0,0.0
349820,0.002318,-0.001346,0.002688,0.0,0.0,0.0,0.0,0.0,0.0,3.0,0.295703,0.347015,0.290568,0.360894,-0.0,-0.0,1e-06,0.0,0.0,-1e-06,0.0,0.0,0.0,0.0,0.0,0.0
349840,0.002195,-0.001712,0.002688,0.0,0.0,0.0,0.0,0.0,0.0,3.0,0.301211,0.344686,0.295993,0.354677,-0.0,-0.0,1e-06,0.0,0.0,-1e-06,0.0,0.0,0.0,0.0,0.0,0.0
349860,0.001951,-0.001712,0.00281,0.0,0.0,0.0,0.0,0.0,0.0,3.0,0.304234,0.342337,0.295616,0.354785,-0.0,-0.0,0.0,0.0,0.0,-1e-06,0.0,0.0,0.0,0.0,0.0,0.0
349880,0.001951,-0.001834,0.002932,0.0,0.0,0.0,0.0,0.0,0.0,3.0,0.298012,0.347387,0.291077,0.358379,-0.0,-0.0,0.0,0.0,0.0,-1e-06,0.0,0.0,0.0,0.0,0.0,0.0
349900,0.001951,-0.001834,0.002932,0.0,0.0,0.0,0.0,0.0,0.0,3.0,0.294297,0.346677,0.291687,0.361448,-0.0,-0.0,0.0,0.0,0.0,-1e-06,0.0,0.0,0.0,0.0,0.0,0.0
349920,0.002072,-0.002078,0.002932,0.0,0.0,0.0,0.0,0.0,0.0,3.0,0.29929,0.344111,0.297116,0.355879,-0.0,-0.0,0.0,0.0,0.0,-0.0,0.0,0.0,0.0,0.0,0.0,0.0
349940,0.002072,-0.001956,0.003054,0.0,0.0,0.0,0.0,0.0,0.0,3.0,0.298524,0.345471,0.293447,0.358016,-0.0,-0.0,0.0,0.0,0.0,-0.0,0.0,0.0,0.0,0.0,0.0,0.0
349960,0.002317,-0.001835,0.003177,0.0,0.0,0.0,0.0,0.0,0.0,3.0,0.294771,0.345758,0.293038,0.360945,-0.0,-0.0,0.0,0.0,0.0,-0.0,0.0,0.0,0.0,0.0,0.0,0.0
349980,0.002317,-0.001713,0.003176,0.0,0.0,0.0,0.0,0.0,0.0,3.0,0.293926,0.346568,0.291134,0.362243,-0.0,-0.0,0.0,0.0,0.0,-0.0,0.0,0.0,0.0,0.0,0.0,0.0
350000,0.002317,-0.001713,0.003176,0.0,0.0,0.0,0.0,0.0,0.0,3.0,0.298389,0.342607,0.294784,0.35981,-0.0,-0.0,0.0,0.0,0.0,-0.0,0.0,0.0,0.0,0.0,0.0,0.0
350020,0.002195,-0.00159,0.003176,0.0,0.0,0.0,0.0,0.0,0.0,3.0,0.302547,0.339946,0.298068,0.356489,-0.0,-0.0,0.0,0.0,0.0,-0.0,0.0,0.0,0.0,0.0,0.0,0.0
350040,0.002195,-0.001591,0.003298,0.0,0.0,0.0,0.0,0.0,0.0,3.0,0.296752,0.344152,0.293383,0.360686,-0.0,-0.0,0.0,0.0,0.0,-0.0,0.0,0.0,0.0,0.0,0.0,0.0
350060,0.002195,-0.001346,0.003298,0.0,0.0,0.0,0.0,0.0,0.0,3.0,0.293529,0.344612,0.291069,0.364419,-0.0,-0.0,0.0,0.0,0.0,-0.0,0.0,0.0,0.0,0.0,0.0,0.0
350080,0.002195,-0.001346,0.003298,0.0,0.0,0.0,0.0,0.0,0.0,3.0,0.295483,0.343749,0.292279,0.362858,-0.0,-0.0,0.0,0.0,0.0,-0.0,0.0,0.0,0.0,0.0,0.0,0.0
350100,0.002196,-0.001102,0.003298,0.0,0.0,0.0,0.0,0.0,0.0,3.0,0.299293,0.341088,0.295705,0.359823,-0.0,-0.0,0.0,0.0,0.0,-0.0,0.0,0.0,0.0,0.0,0.0,0.0
350120,0.002318,-0.000859,0.00342,0.0,0.0,0.0,0.0,0.0,0.0,3.0,0.295731,0.342926,0.293439,0.362568,-0.0,-0.0,0.0,0.0,0.0,-0.0,0.0,0.0,0.0,0.0,0.0,0.0
350140,0.002196,-0.000614,0.003541,0.0,0.0,0.0,0.0,0.0,0.0,3.0,0.292617,0.346515,0.288576,0.365148,-0.0,-0.0,0.0,0.0,0.0,-0.0,0.0,0.0,0.0,0.0,0.0,0.0
350160,0.002197,-0.00037,0.003541,0.0,0.0,0.0,0.0,0.0,0.0,3.0,0.294977,0.344445,0.29048,0.363923,-0.0,-0.0,0.0,0.0,0.0,-0.0,0.0,0.0,0.0,0.0,0.0,0.0
350180,0.002075,-0.00037,0.003541,0.0,0.0,0.0,0.0,0.0,0.0,3.0,0.298857,0.344355,0.293912,0.358463,-0.0,-0.0,0.0,0.0,0.0,-0.0,0.0,0.0,0.0,0.0,0.0,0.0
350200,0.002075,-0.000248,0.003663,0.0,0.0,0.0,0.0,0.0,0.0,3.0,0.296343,0.346048,0.291757,0.360434,-0.0,-0.0,0.0,0.0,0.0,-0.0,0.0,0.0,0.0,0.0,0.0,0.0
350220,0.002075,-0.000248,0.003785,0.0,0.0,0.0,0.0,0.0,0.0,3.0,0.291768,0.349159,0.288429,0.363396,-0.0,-0.0,0.0,0.0,0.0,-0.0,0.0,0.0,0.0,0.0,0.0,0.0
350240,0.002075,-0.000248,0.003785,0.0,0.0,0.0,0.0,0.0,0.0,3.0,0.293837,0.346647,0.29064,0.362602,-0.0,-0.0,0.0,0.0,0.0,-0.0,0.0,0.0,0.0,0.0,0.0,0.0
350260,0.002074,-0.000492,0.003785,0.0,0.0,0.0,0.0,0.0,0.0,3.0,0.296283,0.347723,0.293136,0.357838,-0.0,-0.0,0.0,0.0,0.0,-0.0,0.0,0.0,0.0,0.0,0.0,0.0
350280,0.002074,-0.000492,0.003907,0.0,0.0,0.0,0.0,0.0,0.0,3.0,0.295471,0.348048,0.291487,0.359399,-0.0,-0.0,0.0,0.0,0.0,-0.0,0.0,0.0,0.0,0.0,0.0,0.0
350300,0.002075,-0.00037,0.003907,0.0,0.0,0.0,0.0,0.0,0.0,3.0,0.296966,0.346444,0.292135,0.359293,-0.0,-0.0,0.0,0.0,0.0,-0.0,0.0,0.0,0.0,0.0,0.0,0.0
350320,0.002075,-0.000248,0.003907,0.0,0.0,0.0,0.0,0.0,0.0,3.0,0.296161,0.345345,0.292982,0.360317,-0.0,0.0,0.0,0.0,0.0,-0.0,0.0,0.0,0.0,0.0,0.0,0.0
350340,0.001831,-0.000126,0.003785,0.0,0.0,0.0,0.0,0.0,0.0,3.0,0.302982,0.34233,0.29571,0.355729,-0.0,0.0,0.0,0.0,0.0,-0.0,0.0,0.0,0.0,0.0,0.0,0.0
350360,0.001588,0.000363,0.003785,0.0,0.0,0.0,0.0,0.0,0.0,3.0,0.298867,0.341413,0.291492,0.363027,-0.0,0.0,0.0,0.0,0.0,-0.0,0.0,0.0,0.0,0.0,0.0,0.0
350380,0.001344,0.000608,0.003784,0.0,0.0,0.0,0.0,0.0,0.0,3.0,0.299834,0.345645,0.289121,0.360081,-0.0,0.0,0.0,0.0,0.0,-0.0,0.0,0.0,0.0,0.0,0.0,0.0
350400,0.000979,0.001097,0.003662,0.0,0.0,0.0,0.0,0.0,0.0,3.0,0.302219,0.343042,0.287929,0.36154,-0.0,0.0,0.0,0.0,0.0,-0.0,0.0,0.0,0.0,0.0,0.0,0.0
350420,0.000735,0.001464,0.003662,0.0,0.0,0.0,0.0,0.0,0.0,3.0,0.300379,0.343822,0.288609,0.36175,-0.0,0.0,0.0,0.0,0.0,-0.0,0.0,0.0,0.0,0.0,0.0,0.0
350440,0.000492,0.001952,0.00354,0.0,0.0,0.0,0.0,0.0,0.0,3.0,0.301804,0.342841,0.288393,0.361711,-0.0,0.0,0.0,0.0,0.0,-0.0,0.0,0.0,0.0,0.0,0.0,0.0
350460,0.000248,0.002075,0.003418,0.0,0.0,0.0,0.0,0.0,0.0,3.0,0.301231,0.345067,0.289224,0.359457,-0.0,0.0,0.0,0.0,0.0,-0.0,0.0,0.0,0.0,0.0,0.0,0.0
350480,4e-06,0.002319,0.003419,0.0,0.0,0.0,0.0,0.0,0.0,3.0,0.300432,0.344641,0.288734,0.360848,-0.0,0.0,0.0,0.0,0.0,-0.0,0.0,0.0,0.0,0.0,0.0,0.0
350500,-0.000118,0.002564,0.003297,0.0,0.0,0.0,0.0,0.0,0.0,3.0,0.300467,0.34365,0.290006,0.360811,-0.0,0.0,0.0,0.0,0.0,-0.0,0.0,0.0,0.0,0.0,0.0,0.0
350520,-0.000484,0.002564,0.003175,0.0,0.0,0.0,0.0,0.0,0.0,3.0,0.302263,0.34423,0.289553,0.35919,-0.0,0.0,0.0,0.0,0.0,-0.0,0.0,0.0,0.0,0.0,0.0,0.0
350540,-0.000728,0.002687,0.003053,0.0,0.0,0.0,0.0,0.0,0.0,3.0,0.303273,0.34268,0.291165,0.358642,-0.0,0.0,0.0,0.0,0.0,-0.0,0.0,0.0,0.0,0.0,0.0,0.0
350560,-0.001095,0.002565,0.003054,0.0,0.0,0.0,0.0,0.0,0.0,3.0,0.301919,0.34611,0.287758,0.359009,-0.0,0.0,0.0,0.0,0.0,-0.0,0.0,0.0,0.0,0.0,0.0,0.0
350580,-0.001217,0.002565,0.002932,0.0,0.0,0.0,0.0,0.0,0.0,3.0,0.300155,0.345542,0.288276,0.360552,-0.0,0.0,0.0,0.0,0.0,-0.0,0.0,0.0,0.0,0.0,0.0,0.0
350600,-0.001461,0.002444,0.002932,0.0,0.0,0.0,0.0,0.0,0.0,3.0,0.296535,0.349129,0.285713,0.361812,-0.0,0.0,0.0,0.0,0.0,-0.0,0.0,0.0,0.0,0.0,0.0,0.0
350620,-0.001828,0.002322,0.00281,0.0,0.0,0.0,0.0,0.0,0.0,3.0,0.307646,0.342763,0.290874,0.355241,-0.0,0.0,0.0,0.0,0.0,-0.0,0.0,0.0,0.0,0.0,0.0,0.0
350640,-0.002072,0.002444,0.002811,0.0,0.0,0.0,0.0,0.0,0.0,3.0,0.304711,0.344458,0.290115,0.356594,-0.0,0.0,0.0,0.0,0.0,-0.0,0.0,0.0,0.0,0.0,0.0,0.0
350660,-0.00256,0.002689,0.002812,0.0,0.0,0.0,0.0,0.0,0.0,3.0,0.302243,0.346537,0.283733,0.361282,-0.0,0.0,0.0,0.0,0.0,-0.0,0.0,0.0,0.0,0.0,0.0,0.0
350680,-0.003048,0.002934,0.00269,0.0,0.0,0.0,0.0,0.0,0.0,3.0,0.30191,0.345366,0.284962,0.361763,-0.0,0.0,0.0,0.0,0.0,-0.0,0.0,0.0,0.0,0.0,0.0,0.0
350700,-0.003537,0.003056,0.002447,0.0,0.0,0.0,0.0,0.0,0.0,3.0,0.311563,0.338602,0.292161,0.354942,-0.0,0.0,0.0,0.0,0.0,-0.0,0.0,0.0,0.0,0.0,0.0,0.0
350720,-0.003902,0.003301,0.00257,0.0,0.0,0.0,0.0,0.0,0.0,3.0,0.30322,0.344751,0.286026,0.36054,-0.0,0.0,0.0,0.0,0.0,-0.0,0.0,0.0,0.0,0.0,0.0,0.0
350740,-0.004268,0.003424,0.002571,0.0,0.0,0.0,0.0,0.0,0.0,3.0,0.299106,0.347314,0.281885,0.364296,-0.0,0.0,0.0,0.0,0.0,-0.0,0.0,0.0,0.0,0.0,0.0,0.0
350760,-0.004879,0.003302,0.00245,0.0,0.0,0.0,0.0,0.0,0.0,3.0,0.303525,0.346854,0.281776,0.361371,-0.0,0.0,0.0,0.0,0.0,-0.0,0.0,0.0,0.0,0.0,0.0,0.0
350780,-0.005368,0.00318,0.002328,0.0,0.0,0.0,0.0,0.0,0.0,3.0,0.307832,0.342731,0.286282,0.358553,-0.0,0.0,0.0,0.0,0.0,-0.0,0.0,0.0,0.0,0.0,0.0,0.0
350800,-0.005856,0.003058,0.002207,0.0,0.0,0.0,0.0,0.0,0.0,3.0,0.312107,0.340858,0.289725,0.354212,-0.0,0.0,0.0,0.0,0.0,-0.0,0.0,0.0,0.0,0.0,0.0,0.0
350820,-0.006345,0.002815,0.002207,0.0,0.0,0.0,0.0,0.0,0.0,3.0,0.306542,0.345507,0.283922,0.358696,-0.0,0.0,0.0,0.0,0.0,-0.0,0.0,0.0,0.0,0.0,0.0,0.0
350840,-0.006956,0.002449,0.002084,0.0,0.0,0.0,0.0,0.0,0.0,3.0,0.307473,0.346682,0.2849,0.356096,-0.0,0.0,0.0,0.0,0.0,-0.0,0.0,0.0,0.0,0.0,0.0,0.0
350860,-0.007567,0.001961,0.001961,0.0,0.0,0.0,0.0,0.0,0.0,3.0,0.311399,0.343923,0.288316,0.352942,0.0,0.0,0.0,0.0,0.0,-0.0,0.0,0.0,0.0,0.0,0.0,0.0
350880,-0.008178,0.001472,0.001837,0.0,0.0,0.0,0.0,0.0,0.0,3.0,0.311598,0.345305,0.288825,0.351041,0.0,0.0,0.0,0.0,0.0,-0.0,0.0,0.0,0.0,0.0,0.0,0.0
350900,-0.008789,0.000984,0.001714,0.0,0.0,0.0,0.0,0.0,0.0,3.0,0.312886,0.34427,0.287601,0.351885,0.0,0.0,0.0,0.0,0.0,-0.0,0.0,0.0,0.0,0.0,0.0,0.0
350920,-0.0094,0.000496,0.001589,0.0,0.0,0.0,0.0,0.0,0.0,3.0,0.313112,0.344755,0.287592,0.351226,0.0,0.0,0.0,0.0,0.0,-0.0,0.0,0.0,0.0,0.0,0.0,0.0
350940,-0.01001,-0.000115,0.001342,0.0,0.0,0.0,0.0,0.0,0.0,3.0,0.307799,0.345171,0.284093,0.35787,0.0,0.0,0.0,0.0,0.0,-0.0,0.0,0.0,0.0,0.0,0.0,0.0
350960,-0.010621,-0.00036,0.001219,0.0,0.0,0.0,0.0,0.0,0.0,3.0,0.314955,0.343106,0.286812,0.351837,0.0,0.0,0.0,0.0,0.0,-0.0,0.0,0.0,0.0,0.0,0.0,0.0
350980,-0.011231,-0.000849,0.000972,0.0,0.0,0.0,0.0,0.0,0.0,3.0,0.315571,0.343295,0.288555,0.349792,0.0,0.0,0.0,0.0,0.0,-0.0,0.0,0.0,0.0,0.0,0.0,0.0
351000,-0.01172,-0.001216,0.000847,0.0,0.0,0.0,0.0,0.0,0.0,3.0,0.315579,0.343956,0.286429,0.350761,0.0,0.0,0.0,0.0,0.0,-0.0,0.0,0.0,0.0,0.0,0.0,0.0
351020,-0.012208,-0.001461,0.000601,0.0,0.0,0.0,0.0,0.0,0.0,3.0,0.315398,0.343057,0.288227,0.350425,0.0,0.0,0.0,0.0,0.0,-0.0,0.0,0.0,0.0,0.0,0.0,0.0
351040,-0.012574,-0.00195,0.000476,0.0,0.0,0.0,0.0,0.0,0.0,3.0,0.31013,0.348387,0.284624,0.352433,0.0,0.0,0.0,0.0,0.0,-0.0,0.0,0.0,0.0,0.0,0.0,0.0
351060,-0.013062,-0.002196,0.00023,0.0,0.0,0.0,0.0,0.0,0.0,3.0,0.315375,0.342598,0.288469,0.350706,0.0,0.0,0.0,0.0,0.0,-0.0,0.0,0.0,0.0,0.0,0.0,0.0
351080,-0.013428,-0.002563,0.000105,0.0,0.0,0.0,0.0,0.0,0.0,3.0,0.312167,0.346457,0.284292,0.352851,0.0,0.0,0.0,0.0,0.0,-0.0,0.0,0.0,0.0,0.0,0.0,0.0
351100,-0.01355,-0.002564,-0.000139,0.0,0.0,0.0,0.0,0.0,0.0,3.0,0.313951,0.340623,0.290835,0.352019,0.0,0.0,0.0,0.0,0.0,-0.0,0.0,0.0,0.0,0.0,0.0,0.0
351120,-0.013916,-0.002809,-0.000264,0.0,0.0,0.0,0.0,0.0,0.0,3.0,0.312412,0.343845,0.28725,0.352965,0.0,0.0,0.0,0.0,0.0,-0.0,0.0,0.0,0.0,0.0,0.0,0.0
351140,-0.013916,-0.002688,-0.000385,0.0,0.0,0.0,0.0,0.0,0.0,3.0,0.309592,0.342702,0.286456,0.357011,0.0,0.0,0.0,0.0,0.0,-0.0,0.0,0.0,0.0,0.0,0.0,0.0
351160,-0.014038,-0.002811,-0.000508,0.0,0.0,0.0,0.0,0.0,0.0,3.0,0.310145,0.342963,0.287242,0.35572,0.0,0.0,0.0,0.0,0.0,-0.0,0.0,0.0,0.0,0.0,0.0,0.0
351180,-0.014038,-0.002813,-0.000752,0.0,0.0,0.0,0.0,0.0,0.0,3.0,0.309867,0.342721,0.289232,0.354688,0.0,0.0,0.0,0.0,0.0,-0.0,0.0,0.0,0.0,0.0,0.0,0.0
351200,-0.014037,-0.003181,-0.000999,0.0,0.0,0.0,0.0,0.0,0.0,3.0,0.3116,0.344364,0.290621,0.350577,0.0,0.0,0.0,0.0,0.0,-0.0,0.0,0.0,0.0,0.0,0.0,0.0
351220,-0.014037,-0.003549,-0.001246,0.0,0.0,0.0,0.0,0.0,0.0,3.0,0.314017,0.34244,0.293531,0.348099,0.0,0.0,0.0,0.0,0.0,-0.0,0.0,0.0,0.0,0.0,0.0,0.0
351240,-0.014158,-0.003795,-0.001492,0.0,0.0,0.0,0.0,0.0,0.0,3.0,0.316037,0.341679,0.29216,0.348159,0.0,0.0,0.0,0.0,0.0,-0.0,0.0,0.0,0.0,0.0,0.0,0.0
351260,-0.014279,-0.004041,-0.001738,0.0,0.0,0.0,0.0,0.0,0.0,3.0,0.315904,0.341186,0.294096,0.347225,0.0,0.0,0.0,0.0,0.0,-0.0,0.0,0.0,0.0,0.0,0.0,0.0
351280,-0.014401,-0.004164,-0.001861,0.0,0.0,0.0,0.0,0.0,0.0,3.0,0.312496,0.343465,0.288488,0.352323,0.0,0.0,0.0,0.0,-0.0,-0.0,0.0,0.0,0.0,0.0,0.0,0.0
351300,-0.0144,-0.004287,-0.002106,0.0,0.0,0.0,0.0,0.0,0.0,3.0,0.312508,0.342155,0.292102,0.3508,0.0,0.0,0.0,0.0,-0.0,-0.0,0.0,0.0,0.0,0.0,0.0,0.0
351320,-0.0144,-0.00441,-0.002229,0.0,0.0,0.0,0.0,0.0,0.0,3.0,0.310843,0.342796,0.290768,0.352627,0.0,0.0,0.0,0.0,-0.0,-0.0,0.0,0.0,0.0,0.0,0.0,0.0
351340,-0.014399,-0.004534,-0.002474,0.0,0.0,0.0,0.0,0.0,0.0,3.0,0.314056,0.340015,0.291206,0.352225,0.0,0.0,0.0,0.0,-0.0,-0.0,0.0,0.0,0.0,0.0,0.0,0.0
351360,-0.014398,-0.00478,-0.00272,0.0,0.0,0.0,0.0,0.0,0.0,3.0,0.316157,0.337925,0.295725,0.348859,0.0,0.0,0.0,0.0,-0.0,-0.0,0.0,0.0,0.0,0.0,0.0,0.0
351380,-0.014398,-0.004902,-0.002721,0.0,0.0,0.0,0.0,0.0,0.0,3.0,0.311093,0.342554,0.289703,0.353464,0.0,0.0,0.0,0.0,-0.0,-0.0,0.0,0.0,0.0,0.0,0.0,0.0
351400,-0.014397,-0.005026,-0.002966,0.0,0.0,0.0,0.0,0.0,0.0,3.0,0.315008,0.339334,0.29256,0.351006,0.0,0.0,0.0,0.0,-0.0,-0.0,0.0,0.0,0.0,0.0,0.0,0.0
351420,-0.014397,-0.00515,-0.003211,0.0,0.0,0.0,0.0,0.0,0.0,3.0,0.319052,0.336897,0.296276,0.346844,0.0,0.0,0.0,0.0,-0.0,-0.0,0.0,0.0,0.0,0.0,0.0,0.0
351440,-0.014518,-0.005517,-0.003336,0.0,0.0,0.0,0.0,0.0,0.0,3.0,0.313643,0.342533,0.293141,0.34864,0.0,0.0,0.0,0.0,-0.0,-0.0,0.0,0.0,0.0,0.0,0.0,0.0
351460,-0.014639,-0.005885,-0.003583,0.0,0.0,0.0,0.0,0.0,0.0,3.0,0.316849,0.341163,0.29615,0.344757,0.0,0.0,0.0,0.0,-0.0,-0.0,0.0,0.0,0.0,0.0,0.0,0.0
351480,-0.014882,-0.006009,-0.003707,0.0,0.0,0.0,0.0,0.0,0.0,3.0,0.315432,0.34238,0.289966,0.349717,0.0,0.0,0.0,0.0,-0.0,-0.0,0.0,0.0,0.0,0.0,0.0,0.0
351500,-0.015126,-0.006132,-0.003831,0.0,0.0,0.0,0.0,0.0,0.0,3.0,0.315632,0.341534,0.289565,0.350672,0.0,0.0,0.0,0.0,-0.0,-0.0,0.0,0.0,0.0,0.0,0.0,0.0
351520,-0.015125,-0.006256,-0.004076,0.0,0.0,0.0,0.0,0.0,0.0,3.0,0.318594,0.338054,0.296509,0.345947,0.0,0.0,0.0,0.0,-0.0,-0.0,0.0,0.0,0.0,0.0,0.0,0.0
351540,-0.015247,-0.006134,-0.004075,0.0,0.0,0.0,0.0,0.0,0.0,3.0,0.315628,0.342167,0.288488,0.35089,0.0,0.0,0.0,0.0,-0.0,-0.0,0.0,0.0,0.0,0.0,0.0,0.0
351560,-0.015246,-0.006501,-0.0042,0.0,0.0,0.0,0.0,0.0,0.0,3.0,0.312534,0.34552,0.288013,0.350652,0.0,0.0,0.0,0.0,-0.0,-0.0,0.0,0.0,0.0,0.0,0.0,0.0
351580,-0.015366,-0.006748,-0.004446,0.0,0.0,0.0,0.0,0.0,0.0,3.0,0.317823,0.34002,0.292173,0.348188,0.0,0.0,0.0,0.0,-0.0,-0.0,0.0,0.0,0.0,0.0,0.0,0.0
351600,-0.015488,-0.006993,-0.004571,0.0,0.0,0.0,0.0,0.0,0.0,3.0,0.320795,0.338989,0.293488,0.345488,0.0,0.0,0.0,0.0,-0.0,-0.0,0.0,0.0,0.0,0.0,0.0,0.0
351620,-0.015487,-0.007238,-0.004695,0.0,0.0,0.0,0.0,0.0,0.0,3.0,0.319567,0.340043,0.294355,0.344873,0.0,0.0,0.0,0.0,-0.0,-0.0,0.0,0.0,0.0,0.0,0.0,0.0
351640,-0.015608,-0.007361,-0.004818,0.0,0.0,0.0,0.0,0.0,0.0,3.0,0.317061,0.341113,0.291416,0.348394,0.0,0.0,0.0,0.0,-0.0,-0.0,0.0,0.0,0.0,0.0,0.0,0.0
351660,-0.015606,-0.007729,-0.005065,0.0,0.0,0.0,0.0,0.0,0.0,3.0,0.317537,0.34046,0.296013,0.344946,0.0,0.0,0.0,0.0,-0.0,-0.0,0.0,0.0,0.0,0.0,0.0,0.0
351680,-0.015849,-0.007853,-0.005189,0.0,0.0,0.0,0.0,0.0,0.0,3.0,0.321193,0.337635,0.294975,0.345251,0.0,0.0,0.0,0.0,-0.0,-0.0,0.0,0.0,0.0,0.0,0.0,0.0
351700,-0.016092,-0.008221,-0.005315,0.0,0.0,0.0,0.0,0.0,0.0,3.0,0.319382,0.342371,0.289282,0.346771,0.0,0.0,0.0,0.0,-0.0,-0.0,0.0,0.0,0.0,0.0,0.0,0.0
351720,-0.016213,-0.008344,-0.005439,0.0,0.0,0.0,0.0,0.0,0.0,3.0,0.319298,0.340578,0.290416,0.347715,0.0,0.0,0.0,0.0,-0.0,-0.0,0.0,0.0,0.0,0.0,0.0,0.0
351740,-0.016334,-0.008469,-0.005684,0.0,0.0,0.0,0.0,0.0,0.0,3.0,0.32647,0.336339,0.295094,0.341542,0.0,0.0,0.0,0.0,-0.0,-0.0,0.0,0.0,0.0,0.0,0.0,0.0
351760,-0.016212,-0.00859,-0.005685,0.0,0.0,0.0,0.0,0.0,0.0,3.0,0.320027,0.339871,0.292482,0.346124,0.0,0.0,0.0,0.0,-0.0,-0.0,0.0,0.0,0.0,0.0,0.0,0.0
351780,-0.01621,-0.008835,-0.005809,0.0,0.0,0.0,0.0,0.0,0.0,3.0,0.319031,0.342003,0.291057,0.346055,0.0,0.0,0.0,0.0,-0.0,-0.0,0.0,0.0,0.0,0.0,0.0,0.0
351800,-0.016331,-0.008959,-0.005932,0.0,0.0,0.0,0.0,0.0,0.0,3.0,0.31943,0.340693,0.290794,0.347189,0.0,0.0,0.0,0.0,-0.0,-0.0,0.0,0.0,0.0,0.0,0.0,0.0
351820,-0.016452,-0.009204,-0.006057,0.0,0.0,0.0,0.0,0.0,0.0,3.0,0.320582,0.338578,0.293503,0.346069,0.0,0.0,0.0,0.0,-0.0,-0.0,0.0,0.0,0.0,0.0,0.0,0.0
351840,-0.016451,-0.009327,-0.00618,0.0,0.0,0.0,0.0,0.0,0.0,3.0,0.323054,0.337727,0.296236,0.342432,0.0,0.0,0.0,-0.0,-0.0,-0.0,0.0,0.0,0.0,0.0,0.0,0.0
351860,-0.016573,-0.00945,-0.006182,0.0,0.0,0.0,0.0,0.0,0.0,3.0,0.319371,0.342435,0.291372,0.345074,0.0,0.0,0.0,-0.0,-0.0,-0.0,0.0,0.0,0.0,0.0,0.0,0.0
351880,-0.016572,-0.009573,-0.006305,0.0,0.0,0.0,0.0,0.0,0.0,3.0,0.318082,0.341778,0.291393,0.346859,0.0,0.0,0.0,-0.0,-0.0,-0.0,0.0,0.0,0.0,0.0,0.0,0.0
351900,-0.016692,-0.009819,-0.006552,0.0,0.0,0.0,0.0,0.0,0.0,3.0,0.325022,0.337513,0.297421,0.339828,0.0,0.0,0.0,-0.0,-0.0,-0.0,0.0,0.0,0.0,0.0,0.0,0.0
351920,-0.016814,-0.00982,-0.006552,0.0,0.0,0.0,0.0,0.0,0.0,3.0,0.323838,0.336831,0.296109,0.342688,0.0,0.0,0.0,-0.0,-0.0,-0.0,0.0,0.0,0.0,0.0,0.0,0.0
351940,-0.016815,-0.009698,-0.006551,0.0,0.0,0.0,0.0,0.0,0.0,3.0,0.319849,0.340167,0.29225,0.346179,0.0,0.0,0.0,-0.0,-0.0,-0.0,0.0,0.0,0.0,0.0,0.0,0.0
351960,-0.016815,-0.009454,-0.006549,0.0,0.0,0.0,0.0,0.0,0.0,3.0,0.317881,0.339232,0.291569,0.349372,0.0,0.0,0.0,-0.0,-0.0,-0.0,0.0,0.0,0.0,0.0,0.0,0.0
351980,-0.016936,-0.009821,-0.006675,0.0,0.0,0.0,0.0,0.0,0.0,3.0,0.322679,0.339894,0.293917,0.342533,0.0,0.0,0.0,-0.0,-0.0,-0.0,0.0,0.0,0.0,0.0,0.0,0.0
352000,-0.016813,-0.009943,-0.006675,0.0,0.0,0.0,0.0,0.0,0.0,3.0,0.324082,0.337617,0.296495,0.341374,0.0,0.0,0.0,-0.0,-0.0,-0.0,0.0,0.0,0.0,0.0,0.0,0.0
352020,-0.016934,-0.010187,-0.006678,0.0,0.0,0.0,0.0,0.0,0.0,3.0,0.321629,0.340768,0.291372,0.344675,0.0,0.0,0.0,-0.0,-0.0,-0.0,0.0,0.0,0.0,0.0,0.0,0.0
352040,-0.01669,-0.010187,-0.006677,0.0,0.0,0.0,0.0,0.0,0.0,3.0,0.316698,0.340553,0.297491,0.339075,0.0,0.0,0.0,-0.0,-0.0,-0.0,0.0,0.0,0.0,0.0,0.0,0.0
352060,-0.016569,-0.010064,-0.006675,0.0,0.0,0.0,0.0,0.0,0.0,3.0,0.318672,0.338672,0.294065,0.347242,0.0,0.0,0.0,-0.0,-0.0,-0.0,0.0,0.0,0.0,0.0,0.0,0.0
352080,-0.016811,-0.010431,-0.006679,0.0,0.0,0.0,0.0,0.0,0.0,3.0,0.321771,0.341795,0.29133,0.343562,0.0,0.0,0.0,-0.0,-0.0,-0.0,0.0,0.0,0.0,0.0,0.0,0.0
352100,-0.016812,-0.01043,-0.006557,0.0,0.0,0.0,0.0,0.0,0.0,3.0,0.32004,0.342322,0.28832,0.346977,0.0,0.0,0.0,-0.0,-0.0,-0.0,0.0,0.0,0.0,0.0,0.0,0.0
352120,-0.016934,-0.010553,-0.006559,0.0,0.0,0.0,0.0,0.0,0.0,3.0,0.320843,0.342049,0.289785,0.345379,0.0,0.0,0.0,-0.0,-0.0,-0.0,0.0,0.0,0.0,0.0,0.0,0.0
352140,-0.017056,-0.010553,-0.00656,0.0,0.0,0.0,0.0,0.0,0.0,3.0,0.32309,0.341011,0.290012,0.344177,0.0,0.0,0.0,-0.0,-0.0,-0.0,0.0,0.0,0.0,0.0,0.0,0.0
352160,-0.016934,-0.010431,-0.006558,0.0,0.0,0.0,0.0,0.0,0.0,3.0,0.325355,0.337604,0.294954,0.341462,0.0,0.0,0.0,-0.0,-0.0,-0.0,0.0,0.0,0.0,0.0,0.0,0.0
352180,-0.016934,-0.010552,-0.006437,0.0,0.0,0.0,0.0,0.0,0.0,3.0,0.320793,0.341765,0.290945,0.344789,0.0,0.0,0.0,-0.0,-0.0,-0.0,0.0,0.0,0.0,0.0,0.0,0.0
352200,-0.01669,-0.010795,-0.006438,0.0,0.0,0.0,0.0,0.0,0.0,3.0,0.317292,0.343173,0.289591,0.347601,0.0,0.0,0.0,-0.0,-0.0,-0.0,0.0,0.0,0.0,0.0,0.0,0.0
352220,-0.016567,-0.010795,-0.006437,0.0,0.0,0.0,0.0,0.0,0.0,3.0,0.319225,0.338464,0.294388,0.346692,0.0,0.0,0.0,-0.0,-0.0,-0.0,0.0,0.0,0.0,0.0,0.0,0.0
352240,-0.01669,-0.010795,-0.006438,0.0,0.0,0.0,0.0,0.0,0.0,3.0,0.323087,0.338138,0.293185,0.344474,0.0,0.0,0.0,-0.0,-0.0,-0.0,0.0,0.0,0.0,0.0,0.0,0.0
352260,-0.016446,-0.010671,-0.006313,0.0,0.0,0.0,0.0,0.0,0.0,3.0,0.316669,0.3408,0.293196,0.347642,0.0,0.0,0.0,-0.0,-0.0,-0.0,0.0,0.0,0.0,0.0,0.0,0.0
352280,-0.016569,-0.010672,-0.006314,0.0,0.0,0.0,0.0,0.0,0.0,3.0,0.319185,0.341905,0.290261,0.346639,0.0,0.0,0.0,-0.0,-0.0,-0.0,0.0,0.0,0.0,0.0,0.0,0.0
352300,-0.01669,-0.010795,-0.006438,0.0,0.0,0.0,0.0,0.0,0.0,3.0,0.326164,0.336654,0.29721,0.339775,0.0,0.0,0.0,-0.0,-0.0,-0.0,0.0,0.0,0.0,0.0,0.0,0.0
352320,-0.01669,-0.010916,-0.006317,0.0,0.0,0.0,0.0,0.0,0.0,3.0,0.322315,0.341368,0.291725,0.343173,0.0,0.0,0.0,-0.0,-0.0,-0.0,0.0,0.0,0.0,0.0,0.0,0.0
352340,-0.01669,-0.010915,-0.006195,0.0,0.0,0.0,0.0,0.0,0.0,3.0,0.320506,0.341847,0.28938,0.3462,0.0,0.0,0.0,-0.0,-0.0,-0.0,0.0,0.0,0.0,0.0,0.0,0.0
352360,-0.01669,-0.010915,-0.006195,0.0,0.0,0.0,0.0,0.0,0.0,3.0,0.322694,0.340898,0.291726,0.34329,0.0,0.0,0.0,-0.0,-0.0,-0.0,0.0,0.0,0.0,0.0,0.0,0.0
352380,-0.016568,-0.010915,-0.006194,0.0,0.0,0.0,0.0,0.0,0.0,3.0,0.322171,0.339811,0.292723,0.344045,0.0,0.0,0.0,-0.0,-0.0,-0.0,0.0,0.0,0.0,0.0,0.0,0.0
352400,-0.016569,-0.011036,-0.006073,0.0,0.0,0.0,0.0,0.0,0.0,3.0,0.32247,0.341824,0.290006,0.343945,0.0,0.0,0.0,-0.0,-0.0,-0.0,0.0,0.0,0.0,0.0,0.0,0.0
352420,-0.016448,-0.010912,-0.005949,0.0,0.0,0.0,0.0,0.0,0.0,3.0,0.320618,0.340117,0.289282,0.347865,0.0,0.0,0.0,-0.0,-0.0,-0.0,0.0,0.0,0.0,0.0,0.0,0.0
352440,-0.016326,-0.010912,-0.005948,0.0,0.0,0.0,0.0,0.0,0.0,3.0,0.323143,0.339363,0.291361,0.344679,0.0,0.0,0.0,-0.0,-0.0,-0.0,0.0,0.0,0.0,0.0,0.0,0.0
352460,-0.016203,-0.011034,-0.005949,0.0,0.0,0.0,0.0,0.0,0.0,3.0,0.324661,0.339018,0.292564,0.342655,0.0,0.0,0.0,-0.0,-0.0,-0.0,0.0,0.0,0.0,0.0,0.0,0.0
352480,-0.016082,-0.011032,-0.005826,0.0,0.0,0.0,0.0,0.0,0.0,3.0,0.321043,0.342181,0.289534,0.345265,0.0,0.0,0.0,-0.0,-0.0,-0.0,0.0,0.0,0.0,0.0,0.0,0.0
352500,-0.015716,-0.010909,-0.005823,0.0,0.0,0.0,0.0,0.0,0.0,3.0,0.320603,0.34083,0.290912,0.345909,0.0,0.0,0.0,-0.0,-0.0,-0.0,0.0,0.0,0.0,0.0,0.0,0.0
352520,-0.015594,-0.011031,-0.005823,0.0,0.0,0.0,0.0,0.0,0.0,3.0,0.321589,0.342323,0.293789,0.341222,0.0,-0.0,0.0,-0.0,-0.0,-0.0,0.0,0.0,0.0,0.0,0.0,0.0
352540,-0.015593,-0.011153,-0.005824,0.0,0.0,0.0,0.0,0.0,0.0,3.0,0.323661,0.341568,0.29186,0.34162,0.0,-0.0,0.0,-0.0,-0.0,-0.0,0.0,0.0,0.0,0.0,0.0,0.0
352560,-0.015228,-0.011029,-0.005699,0.0,0.0,0.0,0.0,0.0,0.0,3.0,0.31872,0.342205,0.292416,0.345058,0.0,-0.0,0.0,-0.0,-0.0,-0.0,0.0,0.0,0.0,0.0,0.0,0.0
352580,-0.015228,-0.011029,-0.005699,0.0,0.0,0.0,0.0,0.0,0.0,3.0,0.322105,0.341552,0.290958,0.343794,0.0,-0.0,0.0,-0.0,-0.0,-0.0,0.0,0.0,0.0,0.0,0.0,0.0
352600,-0.014984,-0.010906,-0.005697,0.0,0.0,0.0,0.0,0.0,0.0,3.0,0.321727,0.339992,0.294035,0.343217,0.0,-0.0,0.0,-0.0,-0.0,-0.0,0.0,0.0,0.0,0.0,0.0,0.0
352620,-0.014741,-0.010783,-0.005573,0.0,0.0,0.0,0.0,0.0,0.0,3.0,0.322073,0.340591,0.292548,0.343505,0.0,-0.0,0.0,-0.0,-0.0,-0.0,0.0,0.0,0.0,0.0,0.0,0.0
352640,-0.014619,-0.010782,-0.005572,0.0,0.0,0.0,0.0,0.0,0.0,3.0,0.323683,0.340776,0.292089,0.342205,0.0,-0.0,0.0,-0.0,-0.0,-0.0,0.0,0.0,0.0,0.0,0.0,0.0
352660,-0.014254,-0.010658,-0.005447,0.0,0.0,0.0,0.0,0.0,0.0,3.0,0.317304,0.342071,0.289422,0.3488,0.0,-0.0,0.0,-0.0,-0.0,-0.0,0.0,0.0,0.0,0.0,0.0,0.0
352680,-0.014131,-0.01078,-0.005448,0.0,0.0,0.0,0.0,0.0,0.0,3.0,0.321498,0.339433,0.293994,0.34401,0.0,-0.0,0.0,-0.0,-0.0,-0.0,0.0,0.0,0.0,0.0,0.0,0.0
352700,-0.01401,-0.010657,-0.005324,0.0,0.0,0.0,0.0,0.0,0.0,3.0,0.321583,0.339462,0.293168,0.344566,0.0,-0.0,0.0,-0.0,-0.0,-0.0,0.0,0.0,0.0,0.0,0.0,0.0
352720,-0.013767,-0.010655,-0.005201,0.0,0.0,0.0,0.0,0.0,0.0,3.0,0.319516,0.341403,0.294186,0.343714,0.0,-0.0,0.0,-0.0,-0.0,-0.0,0.0,0.0,0.0,0.0,0.0,0.0
352740,-0.013645,-0.010655,-0.0052,0.0,0.0,0.0,0.0,0.0,0.0,3.0,0.322648,0.34151,0.293249,0.341496,0.0,-0.0,0.0,-0.0,-0.0,-0.0,0.0,0.0,0.0,0.0,0.0,0.0
352760,-0.013522,-0.010777,-0.0052,0.0,0.0,0.0,0.0,0.0,0.0,3.0,0.325668,0.338625,0.298449,0.337243,0.0,-0.0,0.0,-0.0,-0.0,-0.0,0.0,0.0,0.0,0.0,0.0,0.0
352780,-0.013401,-0.010654,-0.005077,0.0,0.0,0.0,0.0,0.0,0.0,3.0,0.326802,0.337926,0.295213,0.339565,0.0,-0.0,0.0,-0.0,-0.0,-0.0,0.0,0.0,0.0,0.0,0.0,0.0
352800,-0.01328,-0.010531,-0.004953,0.0,0.0,0.0,0.0,0.0,0.0,3.0,0.323953,0.34119,0.289855,0.343328,0.0,-0.0,0.0,-0.0,-0.0,-0.0,0.0,0.0,0.0,0.0,0.0,0.0
352820,-0.013281,-0.010408,-0.00483,0.0,0.0,0.0,0.0,0.0,0.0,3.0,0.322553,0.342249,0.288369,0.344736,0.0,-0.0,0.0,-0.0,-0.0,-0.0,0.0,0.0,0.0,0.0,0.0,0.0
352840,-0.013281,-0.010408,-0.00483,0.0,0.0,0.0,0.0,0.0,0.0,3.0,0.32837,0.33841,0.293778,0.338769,0.0,-0.0,0.0,-0.0,-0.0,-0.0,0.0,0.0,0.0,0.0,0.0,0.0
352860,-0.013404,-0.010285,-0.004708,0.0,0.0,0.0,0.0,0.0,0.0,3.0,0.328319,0.338839,0.290845,0.340775,0.0,-0.0,0.0,-0.0,-0.0,-0.0,0.0,0.0,0.0,0.0,0.0,0.0
352880,-0.013283,-0.010405,-0.004464,0.0,0.0,0.0,0.0,0.0,0.0,3.0,0.319529,0.346754,0.284571,0.345922,0.0,-0.0,0.0,-0.0,-0.0,-0.0,0.0,0.0,0.0,0.0,0.0,0.0
352900,-0.013161,-0.010405,-0.004463,0.0,0.0,0.0,0.0,0.0,0.0,3.0,0.323136,0.343019,0.288147,0.343609,0.0,-0.0,0.0,-0.0,-0.0,-0.0,0.0,0.0,0.0,0.0,0.0,0.0
352920,-0.01304,-0.010404,-0.004341,0.0,0.0,0.0,0.0,0.0,0.0,3.0,0.323059,0.341587,0.290978,0.342866,0.0,-0.0,0.0,-0.0,-0.0,-0.0,0.0,0.0,0.0,0.0,0.0,0.0
352940,-0.013041,-0.010159,-0.004217,0.0,0.0,0.0,0.0,0.0,0.0,3.0,0.321663,0.342468,0.28896,0.344868,0.0,-0.0,0.0,-0.0,-0.0,-0.0,0.0,0.0,0.0,0.0,0.0,0.0
352960,-0.012797,-0.010036,-0.004093,0.0,0.0,0.0,0.0,0.0,0.0,3.0,0.318083,0.34517,0.286557,0.347273,0.0,-0.0,0.0,-0.0,-0.0,-0.0,0.0,0.0,0.0,0.0,0.0,0.0
352980,-0.012797,-0.010036,-0.004093,0.0,0.0,0.0,0.0,0.0,0.0,3.0,0.318659,0.345056,0.289361,0.344694,0.0,-0.0,0.0,-0.0,-0.0,-0.0,0.0,0.0,0.0,0.0,0.0,0.0
353000,-0.012676,-0.009913,-0.004091,0.0,0.0,0.0,0.0,0.0,0.0,3.0,0.322489,0.340416,0.292555,0.343291,0.0,-0.0,0.0,-0.0,-0.0,-0.0,0.0,0.0,0.0,0.0,0.0,0.0
353020,-0.012554,-0.009912,-0.003969,0.0,0.0,0.0,0.0,0.0,0.0,3.0,0.321622,0.342234,0.29272,0.342147,0.0,-0.0,0.0,-0.0,-0.0,-0.0,0.0,0.0,0.0,0.0,0.0,0.0
353040,-0.012555,-0.00979,-0.003846,0.0,0.0,0.0,0.0,0.0,0.0,3.0,0.322556,0.341674,0.289016,0.344795,0.0,-0.0,0.0,-0.0,-0.0,-0.0,0.0,0.0,0.0,0.0,0.0,0.0
353060,-0.012311,-0.009667,-0.003844,0.0,0.0,0.0,0.0,0.0,0.0,3.0,0.323081,0.340673,0.293231,0.341945,0.0,-0.0,0.0,-0.0,-0.0,-0.0,0.0,0.0,0.0,0.0,0.0,0.0
353080,-0.011946,-0.009544,-0.003719,0.0,0.0,0.0,0.0,0.0,0.0,3.0,0.321557,0.341488,0.292689,0.342976,-0.0,-0.0,0.0,-0.0,-0.0,-0.0,0.0,0.0,0.0,0.0,0.0,0.0
353100,-0.011824,-0.009543,-0.003597,0.0,0.0,0.0,0.0,0.0,0.0,3.0,0.321472,0.342788,0.291343,0.342837,-0.0,-0.0,0.0,-0.0,-0.0,-0.0,0.0,0.0,0.0,0.0,0.0,0.0
353120,-0.011459,-0.009175,-0.003471,0.0,0.0,0.0,0.0,0.0,0.0,3.0,0.316936,0.342255,0.288771,0.349447,-0.0,-0.0,0.0,-0.0,-0.0,-0.0,0.0,0.0,0.0,0.0,0.0,0.0
353140,-0.011093,-0.009053,-0.003591,0.0,0.0,0.0,0.0,0.0,0.0,3.0,0.323174,0.33789,0.296172,0.342214,-0.0,-0.0,0.0,-0.0,-0.0,-0.0,0.0,0.0,0.0,0.0,0.0,0.0
353160,-0.010727,-0.008686,-0.003587,0.0,0.0,0.0,0.0,0.0,0.0,3.0,0.325448,0.334285,0.298064,0.342058,-0.0,-0.0,0.0,-0.0,-0.0,-0.0,0.0,0.0,0.0,0.0,0.0,0.0
353180,-0.01024,-0.008441,-0.003462,0.0,0.0,0.0,0.0,0.0,0.0,3.0,0.319729,0.339455,0.295146,0.344664,-0.0,-0.0,0.0,-0.0,-0.0,-0.0,0.0,0.0,0.0,0.0,0.0,0.0
353200,-0.009875,-0.007951,-0.003336,0.0,0.0,0.0,0.0,0.0,0.0,3.0,0.317953,0.342106,0.287948,0.34933,-0.0,-0.0,0.0,-0.0,-0.0,-0.0,0.0,0.0,0.0,0.0,0.0,0.0
353220,-0.009386,-0.007829,-0.003455,0.0,0.0,0.0,0.0,0.0,0.0,3.0,0.32434,0.336837,0.299769,0.339171,-0.0,-0.0,0.0,-0.0,-0.0,-0.0,0.0,0.0,0.0,0.0,0.0,0.0
353240,-0.008899,-0.007583,-0.00333,0.0,0.0,0.0,0.0,0.0,0.0,3.0,0.321319,0.341469,0.293555,0.342514,-0.0,-0.0,0.0,-0.0,-0.0,-0.0,0.0,0.0,0.0,0.0,0.0,0.0
353260,-0.008167,-0.007338,-0.003326,0.0,0.0,0.0,0.0,0.0,0.0,3.0,0.322316,0.339237,0.297856,0.340285,-0.0,-0.0,0.0,-0.0,-0.0,-0.0,0.0,0.0,0.0,0.0,0.0,0.0
353280,-0.00768,-0.007093,-0.003202,0.0,0.0,0.0,0.0,0.0,0.0,3.0,0.317928,0.341851,0.293378,0.34535,-0.0,-0.0,0.0,-0.0,-0.0,-0.0,0.0,0.0,0.0,0.0,0.0,0.0
353300,-0.00707,-0.006603,-0.003198,0.0,0.0,0.0,0.0,0.0,0.0,3.0,0.318913,0.338365,0.296524,0.345348,-0.0,-0.0,0.0,-0.0,-0.0,-0.0,0.0,0.0,0.0,0.0,0.0,0.0
353320,-0.006582,-0.006114,-0.003194,0.0,0.0,0.0,0.0,0.0,0.0,3.0,0.320228,0.338156,0.295452,0.345234,-0.0,-0.0,0.0,-0.0,-0.0,-0.0,0.0,0.0,0.0,0.0,0.0,0.0
353340,-0.005973,-0.005747,-0.003192,0.0,0.0,0.0,0.0,0.0,0.0,3.0,0.318779,0.339333,0.293607,0.346872,-0.0,-0.0,0.0,-0.0,-0.0,-0.0,0.0,0.0,0.0,0.0,0.0,0.0
353360,-0.005118,-0.005502,-0.003188,0.0,0.0,0.0,0.0,0.0,0.0,3.0,0.316934,0.339358,0.296698,0.346006,-0.0,-0.0,0.0,-0.0,-0.0,-0.0,0.0,0.0,0.0,0.0,0.0,0.0
353380,-0.004631,-0.005257,-0.003187,0.0,0.0,0.0,0.0,0.0,0.0,3.0,0.318389,0.338112,0.297634,0.345161,-0.0,-0.0,0.0,-0.0,-0.0,-0.0,0.0,0.0,0.0,0.0,0.0,0.0
353400,-0.003899,-0.004889,-0.003062,0.0,0.0,0.0,0.0,0.0,0.0,3.0,0.316548,0.339177,0.297282,0.346052,-0.0,-0.0,0.0,-0.0,-0.0,-0.0,0.0,0.0,0.0,0.0,0.0,0.0
353420,-0.003289,-0.004522,-0.00306,0.0,0.0,0.0,0.0,0.0,0.0,3.0,0.316668,0.339997,0.298307,0.344305,-0.0,-0.0,0.0,-0.0,-0.0,-0.0,0.0,0.0,0.0,0.0,0.0,0.0
353440,-0.002557,-0.004155,-0.003058,0.0,0.0,0.0,0.0,0.0,0.0,3.0,0.313003,0.34152,0.296517,0.347495,-0.0,-0.0,0.0,-0.0,-0.0,-0.0,0.0,0.0,0.0,0.0,0.0,0.0
353460,-0.001947,-0.003909,-0.003056,0.0,0.0,0.0,0.0,0.0,0.0,3.0,0.3147,0.341058,0.2968,0.346236,-0.0,-0.0,0.0,-0.0,-0.0,-0.0,0.0,0.0,0.0,0.0,0.0,0.0
353480,-0.00146,-0.003542,-0.003055,0.0,0.0,0.0,0.0,0.0,0.0,3.0,0.318396,0.337546,0.297726,0.345628,-0.0,-0.0,0.0,-0.0,-0.0,-0.0,0.0,0.0,0.0,0.0,0.0,0.0
353500,-0.00085,-0.003175,-0.003054,0.0,0.0,0.0,0.0,0.0,0.0,3.0,0.317154,0.337894,0.299471,0.34497,-0.0,-0.0,0.0,-0.0,0.0,-0.0,0.0,0.0,0.0,0.0,0.0,0.0
353520,-0.00024,-0.002564,-0.003053,0.0,0.0,0.0,0.0,0.0,0.0,3.0,0.318076,0.33526,0.298595,0.347403,-0.0,-0.0,0.0,-0.0,0.0,-0.0,0.0,0.0,0.0,0.0,0.0,0.0
353540,0.000492,-0.002441,-0.003174,0.0,0.0,0.0,0.0,0.0,0.0,3.0,0.32176,0.33391,0.304209,0.340677,-0.0,-0.0,0.0,-0.0,0.0,-0.0,0.0,0.0,0.0,0.0,0.0,0.0
353560,0.00098,-0.002074,-0.003051,0.0,0.0,0.0,0.0,0.0,0.0,3.0,0.318475,0.336545,0.297785,0.346476,-0.0,-0.0,0.0,-0.0,0.0,-0.0,0.0,0.0,0.0,0.0,0.0,0.0
353580,0.001712,-0.001829,-0.002929,0.0,0.0,0.0,0.0,0.0,0.0,3.0,0.316339,0.339933,0.295789,0.346708,-0.0,-0.0,0.0,-0.0,0.0,-0.0,0.0,0.0,0.0,0.0,0.0,0.0
353600,0.002566,-0.001339,-0.002928,0.0,0.0,0.0,0.0,0.0,0.0,3.0,0.31268,0.339125,0.300727,0.34668,-0.0,-0.0,0.0,-0.0,0.0,-0.0,0.0,0.0,0.0,0.0,0.0,0.0
353620,0.003176,-0.001094,-0.002928,0.0,0.0,0.0,0.0,0.0,0.0,3.0,0.316804,0.338014,0.299978,0.344746,-0.0,-0.0,0.0,-0.0,0.0,-0.0,0.0,0.0,0.0,0.0,0.0,0.0
353640,0.003908,-0.000971,-0.002928,0.0,0.0,0.0,0.0,0.0,0.0,3.0,0.318746,0.33665,0.305101,0.340001,-0.0,-0.0,0.0,-0.0,0.0,-0.0,0.0,0.0,0.0,0.0,0.0,0.0
353660,0.004517,-0.00036,-0.002807,0.0,0.0,0.0,0.0,0.0,0.0,3.0,0.315102,0.338962,0.297753,0.347153,-0.0,-0.0,0.0,-0.0,0.0,-0.0,0.0,0.0,0.0,0.0,0.0,0.0
353680,0.005249,-0.000115,-0.002686,0.0,0.0,0.0,0.0,0.0,0.0,3.0,0.310879,0.343567,0.293099,0.350039,-0.0,-0.0,0.0,-0.0,0.0,-0.0,0.0,0.0,0.0,0.0,0.0,0.0
353700,0.006104,0.000252,-0.002687,0.0,0.0,0.0,0.0,0.0,0.0,3.0,0.312859,0.338225,0.300018,0.347977,-0.0,-0.0,0.0,-0.0,0.0,-0.0,0.0,0.0,0.0,0.0,0.0,0.0
353720,0.006714,0.000497,-0.002566,0.0,0.0,0.0,0.0,0.0,0.0,3.0,0.314046,0.339784,0.29794,0.347128,-0.0,-0.0,0.0,-0.0,0.0,-0.0,0.0,0.0,0.0,0.0,0.0,0.0
353740,0.007445,0.000986,-0.002568,0.0,0.0,0.0,0.0,0.0,0.0,3.0,0.313851,0.335386,0.301769,0.348397,-0.0,-0.0,0.0,-0.0,0.0,-0.0,0.0,0.0,0.0,0.0,0.0,0.0
353760,0.008056,0.001231,-0.002447,0.0,0.0,0.0,0.0,0.0,0.0,3.0,0.31002,0.341039,0.297643,0.34962,-0.0,-0.0,0.0,-0.0,0.0,-0.0,0.0,0.0,0.0,0.0,0.0,0.0
353780,0.008788,0.001476,-0.002448,0.0,0.0,0.0,0.0,0.0,0.0,3.0,0.312239,0.337146,0.304205,0.346088,-0.0,-0.0,0.0,-0.0,0.0,-0.0,0.0,0.0,0.0,0.0,0.0,0.0
353800,0.009276,0.001842,-0.002328,0.0,0.0,0.0,0.0,0.0,0.0,3.0,0.311182,0.339777,0.296407,0.350834,-0.0,-0.0,0.0,-0.0,0.0,-0.0,0.0,0.0,0.0,0.0,0.0,0.0
353820,0.009886,0.002209,-0.002331,0.0,0.0,0.0,0.0,0.0,0.0,3.0,0.312814,0.336519,0.303543,0.346747,-0.0,-0.0,0.0,-0.0,0.0,-0.0,0.0,0.0,0.0,0.0,0.0,0.0
353840,0.010373,0.002819,-0.002212,0.0,0.0,0.0,0.0,0.0,0.0,3.0,0.312169,0.335923,0.30119,0.349813,-0.0,-0.0,0.0,-0.0,0.0,-0.0,0.0,0.0,0.0,0.0,0.0,0.0
353860,0.010984,0.003063,-0.002092,0.0,0.0,0.0,0.0,0.0,0.0,3.0,0.307624,0.339941,0.299725,0.351021,-0.0,-0.0,0.0,-0.0,0.0,-0.0,0.0,0.0,0.0,0.0,0.0,0.0
353880,0.01135,0.003186,-0.002093,0.0,0.0,0.0,0.0,0.0,0.087266,3.0,0.604462,0.15,0.599488,0.15,-0.0,-0.0,0.000666,-0.0,0.0,0.118794,0.0,0.0,0.0,0.0,0.0,0.0
353900,0.011964,0.003782,0.000344,0.0,0.0,0.0,0.0,0.0,0.087266,3.0,0.366989,0.272974,0.358632,0.28917,-0.0,-0.0,0.003458,-0.0,0.0,0.160764,0.0,0.0,0.0,0.0,0.0,0.0
353920,0.012831,0.003988,0.006322,0.0,0.0,0.0,0.0,0.0,0.087266,3.0,0.285574,0.3604,0.275085,0.366432,-0.0,-0.0,0.006758,0.0,0.0,0.170104,0.0,0.0,0.0,0.0,0.0,0.0
353940,0.013335,0.004679,0.012298,0.0,0.0,0.0,0.0,0.0,0.087266,3.0,0.273421,0.364216,0.261464,0.379605,-0.0,-0.0,0.010199,0.0,0.0,0.174986,0.0,0.0,0.0,0.0,0.0,0.0
353960,0.013715,0.005013,0.016692,0.0,0.0,0.0,0.0,0.0,0.087266,3.0,0.307597,0.339627,0.297889,0.352813,-0.0,-0.0,0.013728,0.0,0.0,0.178648,0.0,0.0,0.0,0.0,0.0,0.0
353980,0.014098,0.00584,0.020102,0.0,0.0,0.0,0.0,0.0,0.087266,3.0,0.329632,0.317188,0.318602,0.336219,-0.0,-0.0,0.017323,0.0,0.0,0.181386,0.0,0.0,0.0,0.0,0.0,0.0
354000,0.014604,0.006545,0.023146,0.0,0.0,0.0,0.0,0.0,0.087266,3.0,0.32847,0.319191,0.318811,0.335293,-0.0,-0.0,0.020966,0.0,0.0,0.183269,0.0,0.0,0.0,0.0,0.0,0.0
354020,0.014991,0.007496,0.025945,0.0,0.0,0.0,0.0,0.0,0.087266,3.0,0.320896,0.322479,0.312672,0.344919,-0.0,-0.0,0.024641,0.0,0.0,0.184354,0.0,0.0,0.0,0.0,0.0,0.0
354040,0.015499,0.008079,0.028627,0.0,0.0,0.0,0.0,0.0,0.087266,3.0,0.321209,0.319981,0.317028,0.343048,-0.0,-0.0,0.028331,0.0,0.0,0.184692,0.0,0.0,0.0,0.0,0.0,0.0
354060,0.015884,0.008539,0.03155,0.0,0.0,0.0,0.0,0.0,0.087266,3.0,0.325967,0.319344,0.319415,0.337002,-0.0,-0.0,0.032024,0.0,0.0,0.184335,0.0,0.0,0.0,0.0,0.0,0.0
354080,0.016392,0.008873,0.034601,0.0,0.0,0.0,0.0,0.0,0.087266,3.0,0.319348,0.326456,0.315957,0.339706,-0.0,-0.0,0.035704,0.0,0.0,0.183331,0.0,0.0,0.0,0.0,0.0,0.0
354100,0.016776,0.009086,0.037524,0.0,0.0,0.0,0.0,0.0,0.087266,3.0,0.315026,0.330845,0.309482,0.345175,-0.0,-0.0,0.039359,0.0,0.0,0.18173,0.0,0.0,0.0,0.0,0.0,0.0
354120,0.017038,0.009302,0.040211,0.0,0.0,0.0,0.0,0.0,0.087266,3.0,0.317692,0.328587,0.310882,0.343713,-0.0,-0.0,0.042979,0.0,0.0,0.179578,0.0,0.0,0.0,0.0,0.0,0.0
354140,0.017177,0.009521,0.042892,0.0,0.0,0.0,0.0,0.0,0.087266,3.0,0.321682,0.32648,0.310498,0.342401,-0.0,-0.0,0.046551,0.0,0.0,0.176922,0.0,0.0,0.0,0.0,0.0,0.0
354160,0.017309,0.009373,0.045583,0.0,0.0,0.0,0.0,0.0,0.087266,3.0,0.317226,0.335275,0.305211,0.342634,-0.0,-0.0,0.050067,0.0,0.0,0.173805,0.0,0.0,0.0,0.0,0.0,0.0
354180,0.017323,0.009474,0.04802,0.0,0.0,0.0,0.0,0.0,0.087266,3.0,0.315929,0.333208,0.304513,0.346366,-0.0,-0.0,0.053517,0.0,0.0,0.170272,0.0,0.0,0.0,0.0,0.0,0.0
354200,0.017584,0.009693,0.05022,0.0,0.0,0.0,0.0,0.0,0.087266,3.0,0.318707,0.327796,0.312531,0.342093,-0.0,-0.0,0.056894,0.0,0.0,0.166361,0.0,0.0,0.0,0.0,0.0,0.0
354220,0.017717,0.00967,0.052413,0.0,0.0,0.0,0.0,0.0,0.087266,3.0,0.32618,0.323745,0.316099,0.335725,-0.0,-0.0,0.06019,0.0,0.0,0.162115,0.0,0.0,0.0,0.0,0.0,0.0
354240,0.018104,0.010006,0.054733,0.0,0.0,0.0,0.0,0.0,0.087266,3.0,0.318503,0.32782,0.310007,0.344465,-0.0,-0.0,0.063398,0.0,0.0,0.157569,0.0,0.0,0.0,0.0,0.0,0.0
354260,0.018731,0.010215,0.056676,0.0,0.0,0.0,0.0,0.0,0.087266,3.0,0.31231,0.328528,0.313722,0.346048,-0.0,-0.0,0.066514,0.0,0.0,0.152762,0.0,0.0,0.0,0.0,0.0,0.0
354280,0.019232,0.010305,0.05851,0.0,0.0,0.0,0.0,0.0,0.087266,3.0,0.317186,0.325991,0.317309,0.340894,-0.0,-0.0,0.069532,0.0,0.0,0.147727,0.0,0.0,0.0,0.0,0.0,0.0
354300,0.019741,0.010638,0.060452,0.0,0.0,0.0,0.0,0.0,0.087266,3.0,0.317339,0.324508,0.319012,0.340596,-0.0,-0.0,0.072447,0.0,0.0,0.142497,0.0,0.0,0.0,0.0,0.0,0.0
354320,0.020247,0.010848,0.062285,0.0,0.0,0.0,0.0,0.0,0.087266,3.0,0.314395,0.329176,0.312124,0.345011,-0.0,-0.0,0.075257,0.0,0.0,0.137105,0.0,0.0,0.0,0.0,0.0,0.0
354340,0.020755,0.011181,0.063983,0.0,0.0,0.0,0.0,0.0,0.087266,3.0,0.313696,0.326287,0.314115,0.346572,-0.0,-0.0,0.077958,0.0,0.0,0.131581,0.0,0.0,0.0,0.0,0.0,0.0
354360,0.021261,0.011393,0.065571,0.0,0.0,0.0,0.0,0.0,0.087266,3.0,0.317659,0.323351,0.317935,0.342364,-0.0,-0.0,0.080547,0.0,0.0,0.125951,0.0,0.0,0.0,0.0,0.0,0.0
354380,0.021766,0.011603,0.067148,0.0,0.0,0.0,0.0,0.0,0.087266,3.0,0.317348,0.324486,0.317294,0.34217,-0.0,-0.0,0.083024,0.0,0.0,0.120244,0.0,0.0,0.0,0.0,0.0,0.0
354400,0.022267,0.011693,0.068616,0.0,0.0,0.0,0.0,0.0,0.087266,3.0,0.315751,0.326695,0.316899,0.341898,-0.0,-0.0,0.085385,0.0,0.0,0.114484,0.0,0.0,0.0,0.0,0.0,0.0
354420,0.022771,0.011905,0.069949,0.0,0.0,0.0,0.0,0.0,0.087266,3.0,0.316702,0.322267,0.319346,0.342946,-0.0,-0.0,0.087632,0.0,0.0,0.108694,0.0,0.0,0.0,0.0,0.0,0.0
354440,0.023031,0.012124,0.071283,0.0,0.0,0.0,0.0,0.0,0.087266,3.0,0.31979,0.321284,0.319788,0.340645,-0.0,-0.0,0.089762,0.0,0.0,0.102898,0.0,0.0,0.0,0.0,0.0,0.0
354460,0.023532,0.012213,0.072629,0.0,0.0,0.0,0.0,0.0,0.087266,3.0,0.316235,0.323347,0.320344,0.341458,-0.0,-0.0,0.091777,0.0,0.0,0.097114,0.0,0.0,0.0,0.0,0.0,0.0
354480,0.023544,0.012321,0.073844,0.0,0.0,0.0,0.0,0.0,0.087266,3.0,0.319567,0.324503,0.316141,0.341177,-0.0,-0.0,0.093676,0.0,0.0,0.091364,0.0,0.0,0.0,0.0,0.0,0.0
354500,0.023673,0.012304,0.074952,0.0,0.0,0.0,0.0,0.0,0.087266,3.0,0.320654,0.325181,0.316614,0.33911,-0.0,-0.0,0.09546,0.0,0.0,0.085663,0.0,0.0,0.0,0.0,0.0,0.0
354520,0.023684,0.012412,0.076045,0.0,0.0,0.0,0.0,0.0,0.087266,3.0,0.322303,0.324859,0.314302,0.339974,-0.0,-0.0,0.097131,0.0,0.0,0.080028,0.0,0.0,0.0,0.0,0.0,0.0
354540,0.023939,0.012513,0.077015,0.0,0.0,0.0,0.0,0.0,0.087266,3.0,0.320221,0.324232,0.317274,0.339802,-0.0,-0.0,0.09869,0.0,0.0,0.074475,0.0,0.0,0.0,0.0,0.0,0.0
354560,0.02419,0.012492,0.078,0.0,0.0,0.0,0.0,0.0,0.087266,3.0,0.316659,0.327147,0.316264,0.341227,-0.0,-0.0,0.100138,0.0,0.0,0.069017,0.0,0.0,0.0,0.0,0.0,0.0
354580,0.024317,0.012477,0.07885,0.0,0.0,0.0,0.0,0.0,0.087266,3.0,0.318146,0.324191,0.318629,0.340508,-0.0,-0.0,0.101478,0.0,0.0,0.063666,0.0,0.0,0.0,0.0,0.0,0.0
354600,0.024312,0.012222,0.079705,0.0,0.0,0.0,0.0,0.0,0.087266,3.0,0.319478,0.324167,0.318302,0.339609,-0.0,-0.0,0.102712,0.0,0.0,0.058433,0.0,0.0,0.0,0.0,0.0,0.0
354620,0.024555,0.012081,0.080433,0.0,0.0,0.0,0.0,0.0,0.087266,3.0,0.320211,0.322695,0.32294,0.335995,-0.0,-0.0,0.103842,0.0,0.0,0.053329,0.0,0.0,0.0,0.0,0.0,0.0
354640,0.024668,0.0117,0.081303,0.0,0.0,0.0,0.0,0.0,0.087266,3.0,0.31597,0.328492,0.316996,0.33991,-0.0,-0.0,0.104871,0.0,0.0,0.048362,0.0,0.0,0.0,0.0,0.0,0.0
354660,0.024794,0.011686,0.082031,0.0,0.0,0.0,0.0,0.0,0.087266,3.0,0.315944,0.326049,0.319149,0.340286,-0.0,-0.0,0.105802,0.0,0.0,0.04354,0.0,0.0,0.0,0.0,0.0,0.0
354680,0.024797,0.011679,0.082639,0.0,0.0,0.0,0.0,0.0,0.087266,3.0,0.321292,0.320339,0.321577,0.338475,-0.0,-0.0,0.106638,0.0,0.0,0.03887,0.0,0.0,0.0,0.0,0.0,0.0
354700,0.024918,0.011542,0.083369,0.0,0.0,0.0,0.0,0.0,0.087266,3.0,0.316412,0.325212,0.318279,0.341444,-0.0,-0.0,0.107381,0.0,0.0,0.034357,0.0,0.0,0.0,0.0,0.0,0.0
354720,0.02504,0.011408,0.083992,0.0,0.0,0.0,0.0,0.0,0.087266,3.0,0.314965,0.325732,0.318775,0.341807,-0.0,-0.0,0.108035,0.0,0.0,0.030008,0.0,0.0,0.0,0.0,0.0,0.0
354740,0.025042,0.011402,0.084478,0.0,0.0,0.0,0.0,0.0,0.087266,3.0,0.319702,0.321609,0.322267,0.338125,-0.0,0.0,0.108604,0.0,0.0,0.025824,0.0,0.0,0.0,0.0,0.0,0.0
354760,0.025045,0.011394,0.085086,0.0,0.0,0.0,0.0,0.0,0.087266,3.0,0.319566,0.321356,0.320883,0.339776,-0.0,0.0,0.10909,0.0,0.0,0.021811,0.0,0.0,0.0,0.0,0.0,0.0
354780,0.025043,0.011266,0.085574,0.0,0.0,0.0,0.0,0.0,0.087266,3.0,0.32087,0.3227,0.319594,0.338509,-0.0,0.0,0.109497,0.0,0.0,0.017969,0.0,0.0,0.0,0.0,0.0,0.0
354800,0.025162,0.011132,0.08606,0.0,0.0,0.0,0.0,0.0,0.087266,3.0,0.319659,0.322614,0.320072,0.339269,-0.0,0.0,0.109829,0.0,0.0,0.014301,0.0,0.0,0.0,0.0,0.0,0.0
354820,0.025164,0.011126,0.086546,0.0,0.0,0.0,0.0,0.0,0.087266,3.0,0.318147,0.324125,0.320673,0.338686,-0.0,0.0,0.110088,0.0,0.0,0.010808,0.0,0.0,0.0,0.0,0.0,0.0
354840,0.025158,0.010877,0.087051,0.0,0.0,0.0,0.0,0.0,0.087266,3.0,0.31828,0.325361,0.319253,0.338711,-0.0,0.0,0.110279,0.0,0.0,0.00749,0.0,0.0,0.0,0.0,0.0,0.0
354860,0.025038,0.010877,0.087417,0.0,0.0,0.0,0.0,0.0,0.087266,3.0,0.319117,0.323499,0.319138,0.339801,-0.0,0.0,0.110405,0.0,0.0,0.004346,0.0,0.0,0.0,0.0,0.0,0.0
354880,0.025278,0.01074,0.087781,0.0,0.0,0.0,0.0,0.0,0.087266,3.0,0.317161,0.323593,0.321606,0.339222,-0.0,0.0,0.11047,0.0,0.0,0.001376,0.0,0.0,0.0,0.0,0.0,0.0
354900,0.02527,0.01049,0.08827,0.0,0.0,0.0,0.0,0.0,0.087266,3.0,0.315418,0.327372,0.320193,0.338543,-0.0,0.0,0.110476,0.0,0.0,-0.001422,0.0,0.0,0.0,0.0,0.0,0.0
354920,0.025266,0.010363,0.088636,0.0,0.0,0.0,0.0,0.0,0.087266,3.0,0.31759,0.324766,0.319393,0.339776,-0.0,0.0,0.110427,0.0,0.0,-0.00405,0.0,0.0,0.0,0.0,0.0,0.0
354940,0.025262,0.010236,0.089002,0.0,0.0,0.0,0.0,0.0,0.087266,3.0,0.31708,0.324739,0.319325,0.340328,-0.0,0.0,0.110328,0.0,0.0,-0.00651,0.0,0.0,0.0,0.0,0.0,0.0
354960,0.025386,0.010226,0.089365,0.0,0.0,0.0,0.0,0.0,0.087266,3.0,0.314673,0.324309,0.321105,0.341266,-0.0,0.0,0.11018,0.0,0.0,-0.008804,0.0,0.0,0.0,0.0,0.0,0.0
354980,0.025378,0.009978,0.089749,0.0,0.0,0.0,0.0,0.0,0.087266,3.0,0.31336,0.327971,0.320086,0.339927,-0.0,0.0,0.109988,0.0,0.0,-0.010937,0.0,0.0,0.0,0.0,0.0,0.0
355000,0.025136,0.009984,0.090115,0.0,0.0,0.0,0.0,0.0,0.087266,3.0,0.315258,0.326236,0.317705,0.342043,-0.0,0.0,0.109754,0.0,0.0,-0.012911,0.0,0.0,0.0,0.0,0.0,0.0
355020,0.024893,0.009992,0.09036,0.0,0.0,0.0,0.0,0.0,0.087266,3.0,0.320651,0.320561,0.320383,0.339973,-0.0,0.0,0.109482,0.0,0.0,-0.01473,0.0,0.0,0.0,0.0,0.0,0.0
355040,0.024884,0.009744,0.090727,0.0,0.0,0.0,0.0,0.0,0.087266,3.0,0.316937,0.326116,0.318373,0.340032,-0.0,0.0,0.109175,0.0,0.0,-0.016399,0.0,0.0,0.0,0.0,0.0,0.0
355060,0.024752,0.009501,0.091095,0.0,0.0,0.0,0.0,0.0,0.087266,3.0,0.315556,0.328617,0.316429,0.340678,-0.0,0.0,0.108835,0.0,0.0,-0.01792,0.0,0.0,0.0,0.0,0.0,0.0
355080,0.024748,0.009374,0.091461,0.0,0.0,0.0,0.0,0.0,0.087266,3.0,0.313855,0.328531,0.316182,0.342505,-0.0,0.0,0.108466,0.0,0.0,-0.0193,0.0,0.0,0.0,0.0,0.0,0.0
355100,0.024622,0.009255,0.091707,0.0,0.0,0.0,0.0,0.0,0.087266,3.0,0.318096,0.32386,0.319923,0.339677,-0.0,0.0,0.10807,0.0,0.0,-0.020543,0.0,0.0,0.0,0.0,0.0,0.0
355120,0.024612,0.009005,0.092195,0.0,0.0,0.0,0.0,0.0,0.087266,3.0,0.312116,0.329709,0.315647,0.343405,-0.0,0.0,0.107651,0.0,0.0,-0.021653,0.0,0.0,0.0,0.0,0.0,0.0
355140,0.02461,0.008879,0.092578,0.0,0.0,0.0,0.0,0.0,0.087266,3.0,0.309597,0.329973,0.316646,0.34446,-0.0,0.0,0.10721,0.0,0.0,-0.022635,0.0,0.0,0.0,0.0,0.0,0.0
355160,0.024489,0.008882,0.092822,0.0,0.0,0.0,0.0,0.0,0.087266,3.0,0.311827,0.326352,0.319252,0.343573,-0.0,0.0,0.106751,0.0,0.0,-0.023494,0.0,0.0,0.0,0.0,0.0,0.0
355180,0.024362,0.008761,0.093188,0.0,0.0,0.0,0.0,0.0,0.087266,3.0,0.314031,0.327261,0.315502,0.34415,-0.0,0.0,0.106275,0.0,0.0,-0.024236,0.0,0.0,0.0,0.0,0.0,0.0
355200,0.024358,0.008634,0.093554,0.0,0.0,0.0,0.0,0.0,0.087266,3.0,0.310847,0.329332,0.315599,0.344911,-0.0,0.0,0.105786,0.0,0.0,-0.024865,0.0,0.0,0.0,0.0,0.0,0.0
355220,0.024354,0.008508,0.09392,0.0,0.0,0.0,0.0,0.0,0.087266,3.0,0.308761,0.329325,0.316711,0.345732,-0.0,0.0,0.105284,0.0,0.0,-0.025388,0.0,0.0,0.0,0.0,0.0,0.0
355240,0.024227,0.008389,0.094165,0.0,0.0,0.0,0.0,0.0,0.087266,3.0,0.310674,0.32848,0.318424,0.343336,0.0,0.0,0.104773,0.0,0.0,-0.025808,0.0,0.0,0.0,0.0,0.0,0.0
355260,0.024228,0.008386,0.094408,0.0,0.0,0.0,0.0,0.0,0.087266,3.0,0.311599,0.325513,0.321503,0.342505,0.0,0.0,0.104255,0.0,0.0,-0.026131,0.0,0.0,0.0,0.0,0.0,0.0
355280,0.023974,0.008149,0.094776,0.0,0.0,0.0,0.0,0.0,0.087266,3.0,0.30997,0.329011,0.315977,0.345637,0.0,0.0,0.10373,0.0,0.0,-0.026362,0.0,0.0,0.0,0.0,0.0,0.0
355300,0.023725,0.008036,0.095022,0.0,0.0,0.0,0.0,0.0,0.087266,3.0,0.31448,0.325563,0.319042,0.342155,0.0,0.0,0.103202,0.0,0.0,-0.026507,0.0,0.0,0.0,0.0,0.0,0.0
355320,0.023714,0.007789,0.095268,0.0,0.0,0.0,0.0,0.0,0.087266,3.0,0.313409,0.327788,0.319812,0.340309,0.0,0.0,0.102671,0.0,0.0,-0.02657,0.0,0.0,0.0,0.0,0.0,0.0
355340,0.023595,0.007791,0.09565,0.0,0.0,0.0,0.0,0.0,0.087266,3.0,0.310214,0.328105,0.317589,0.34484,0.0,0.0,0.10214,0.0,0.0,-0.026556,0.0,0.0,0.0,0.0,0.0,0.0
355360,0.023463,0.007549,0.096018,0.0,0.0,0.0,0.0,0.0,0.087266,3.0,0.307666,0.332017,0.312573,0.347768,0.0,0.0,0.101609,0.0,0.0,-0.026471,0.0,0.0,0.0,0.0,0.0,0.0
355380,0.023336,0.00743,0.096263,0.0,0.0,0.0,0.0,0.0,0.087266,3.0,0.310113,0.330822,0.312275,0.347061,0.0,0.0,0.101081,0.0,0.0,-0.026319,0.0,0.0,0.0,0.0,0.0,0.0
355400,0.023203,0.007189,0.096509,0.0,0.0,0.0,0.0,0.0,0.087266,3.0,0.311113,0.329649,0.31509,0.344833,0.0,0.0,0.100556,0.0,0.0,-0.026105,0.0,0.0,0.0,0.0,0.0,0.0
355420,0.02307,0.006948,0.096755,0.0,0.0,0.0,0.0,0.0,0.087266,3.0,0.310963,0.330857,0.314716,0.344154,0.0,0.0,0.100036,0.0,0.0,-0.025833,0.0,0.0,0.0,0.0,0.0,0.0
355440,0.023064,0.006823,0.097,0.0,0.0,0.0,0.0,0.0,0.087266,3.0,0.306514,0.332965,0.314071,0.346544,0.0,0.0,0.099521,0.0,0.0,-0.025508,0.0,0.0,0.0,0.0,0.0,0.0
355460,0.022809,0.006588,0.097246,0.0,0.0,0.0,0.0,0.0,0.087266,3.0,0.306097,0.335153,0.311168,0.347337,0.0,0.0,0.099014,0.0,0.0,-0.025134,0.0,0.0,0.0,0.0,0.0,0.0
355480,0.022676,0.006348,0.097493,0.0,0.0,0.0,0.0,0.0,0.087266,3.0,0.30713,0.333552,0.311494,0.347706,0.0,0.0,0.098514,0.0,0.0,-0.024716,0.0,0.0,0.0,0.0,0.0,0.0
355500,0.022421,0.006113,0.097739,0.0,0.0,0.0,0.0,0.0,0.087266,3.0,0.306797,0.33364,0.311191,0.348164,0.0,0.0,0.098023,0.0,0.0,-0.024258,0.0,0.0,0.0,0.0,0.0,0.0
355520,0.022288,0.005874,0.097864,0.0,0.0,0.0,0.0,0.0,0.087266,3.0,0.310359,0.330988,0.315843,0.343553,0.0,0.0,0.097542,0.0,0.0,-0.023764,0.0,0.0,0.0,0.0,0.0,0.0
355540,0.022155,0.005632,0.098232,0.0,0.0,0.0,0.0,0.0,0.087266,3.0,0.304777,0.335671,0.311015,0.348082,0.0,0.0,0.09707,0.0,0.0,-0.023237,0.0,0.0,0.0,0.0,0.0,0.0
355560,0.022027,0.005513,0.098476,0.0,0.0,0.0,0.0,0.0,0.087266,3.0,0.302762,0.33549,0.312762,0.348423,0.0,0.0,0.09661,0.0,0.0,-0.022681,0.0,0.0,0.0,0.0,0.0,0.0
355580,0.021779,0.005401,0.098739,0.0,0.0,0.0,0.0,0.0,0.087266,3.0,0.303885,0.337034,0.307908,0.350165,0.0,0.0,0.096161,0.0,0.0,-0.0221,0.0,0.0,0.0,0.0,0.0,0.0
355600,0.021646,0.00516,0.098985,0.0,0.0,0.0,0.0,0.0,0.087266,3.0,0.303168,0.335266,0.311695,0.349219,0.0,0.0,0.095723,0.0,0.0,-0.021497,0.0,0.0,0.0,0.0,0.0,0.0
355620,0.021396,0.005048,0.099231,0.0,0.0,0.0,0.0,0.0,0.087266,3.0,0.305953,0.332927,0.312825,0.348138,0.0,0.0,0.095298,0.0,0.0,-0.020875,0.0,0.0,0.0,0.0,0.0,0.0
355640,0.021141,0.004814,0.099477,0.0,0.0,0.0,0.0,0.0,0.087266,3.0,0.305151,0.334655,0.312994,0.347028,0.0,0.0,0.094885,0.0,0.0,-0.020237,0.0,0.0,0.0,0.0,0.0,0.0
355660,0.021014,0.004694,0.099843,0.0,0.0,0.0,0.0,0.0,0.087266,3.0,0.299272,0.337252,0.308913,0.352862,0.0,0.0,0.094485,0.0,0.0,-0.019587,0.0,0.0,0.0,0.0,0.0,0.0
355680,0.020624,0.004222,0.100092,0.0,0.0,0.0,0.0,0.0,0.087266,3.0,0.301526,0.338864,0.308487,0.349867,0.0,0.0,0.094098,0.0,0.0,-0.018927,0.0,0.0,0.0,0.0,0.0,0.0
355700,0.020374,0.00411,0.100337,0.0,0.0,0.0,0.0,0.0,0.087266,3.0,0.301157,0.336887,0.309403,0.351278,0.0,0.0,0.093725,0.0,0.0,-0.01826,0.0,0.0,0.0,0.0,0.0,0.0
355720,0.019991,0.003759,0.100706,0.0,0.0,0.0,0.0,0.0,0.087266,3.0,0.300274,0.338638,0.306957,0.352377,0.0,0.0,0.093365,0.0,-0.0,-0.017588,0.0,0.0,0.0,0.0,0.0,0.0
355740,0.019601,0.003287,0.100955,0.0,0.0,0.0,0.0,0.0,0.087266,3.0,0.305685,0.337433,0.307217,0.34887,0.0,0.0,0.093018,0.0,-0.0,-0.016914,0.0,0.0,0.0,0.0,0.0,0.0
355760,0.019473,0.003168,0.101321,0.0,0.0,0.0,0.0,0.0,0.087266,3.0,0.29871,0.338415,0.306812,0.353958,0.0,0.0,0.092685,0.0,-0.0,-0.016239,0.0,0.0,0.0,0.0,0.0,0.0
355780,0.019345,0.00305,0.101565,0.0,0.0,0.0,0.0,0.0,0.087266,3.0,0.298374,0.338722,0.306955,0.353817,0.0,0.0,0.092365,0.0,-0.0,-0.015566,0.0,0.0,0.0,0.0,0.0,0.0
355800,0.019212,0.00281,0.101829,0.0,0.0,0.0,0.0,0.0,0.087266,3.0,0.297062,0.340095,0.3077,0.352939,0.0,0.0,0.092059,0.0,-0.0,-0.014896,0.0,0.0,0.0,0.0,0.0,0.0
355820,0.018956,0.002577,0.101954,0.0,0.0,0.0,0.0,0.0,0.087266,3.0,0.305935,0.334373,0.312428,0.347128,0.0,0.0,0.091766,0.0,-0.0,-0.014232,0.0,0.0,0.0,0.0,0.0,0.0
355840,0.018822,0.002336,0.10232,0.0,0.0,0.0,0.0,0.0,0.087266,3.0,0.299335,0.339375,0.307492,0.351987,0.0,0.0,0.091486,0.0,-0.0,-0.013575,0.0,0.0,0.0,0.0,0.0,0.0
355860,0.018694,0.002218,0.102564,0.0,0.0,0.0,0.0,0.0,0.087266,3.0,0.299829,0.34009,0.306516,0.351719,0.0,0.0,0.091219,0.0,-0.0,-0.012927,0.0,0.0,0.0,0.0,0.0,0.0
355880,0.01845,0.00223,0.102686,0.0,0.0,0.0,0.0,0.0,0.087266,3.0,0.302462,0.338464,0.305542,0.351943,0.0,0.0,0.090966,0.0,-0.0,-0.012288,0.0,0.0,0.0,0.0,0.0,0.0
355900,0.01856,0.001977,0.102931,0.0,0.0,0.0,0.0,0.0,0.087266,3.0,0.29928,0.340981,0.30667,0.351178,0.0,0.0,0.090725,0.0,-0.0,-0.011661,0.0,0.0,0.0,0.0,0.0,0.0
355920,0.018297,0.001622,0.103177,0.0,0.0,0.0,0.0,0.0,0.087266,3.0,0.300283,0.342373,0.303476,0.351665,0.0,0.0,0.090496,0.0,-0.0,-0.011045,0.0,0.0,0.0,0.0,0.0,0.0
355940,0.018413,0.001491,0.103421,0.0,0.0,0.0,0.0,0.0,0.087266,3.0,0.293486,0.344119,0.302331,0.356266,0.0,0.0,0.09028,0.0,-0.0,-0.010444,0.0,0.0,0.0,0.0,0.0,0.0
355960,0.018163,0.001381,0.103544,0.0,0.0,0.0,0.0,0.0,0.087266,3.0,0.29867,0.340613,0.305261,0.353183,0.0,0.0,0.090075,0.0,-0.0,-0.009856,0.0,0.0,0.0,0.0,0.0,0.0
355980,0.018163,0.001379,0.103786,0.0,0.0,0.0,0.0,0.0,0.087266,3.0,0.29424,0.343019,0.302331,0.356734,0.0,0.0,0.089882,0.0,-0.0,-0.009283,0.0,0.0,0.0,0.0,0.0,0.0
356000,0.018163,0.001378,0.103908,0.0,0.0,0.0,0.0,0.0,0.087266,3.0,0.297237,0.340478,0.30736,0.352717,0.0,0.0,0.089701,0.0,-0.0,-0.008726,0.0,0.0,0.0,0.0,0.0,0.0
356020,0.018157,0.001254,0.104151,0.0,0.0,0.0,0.0,0.0,0.087266,3.0,0.294526,0.344092,0.304918,0.353393,0.0,0.0,0.089531,0.0,-0.0,-0.008186,0.0,0.0,0.0,0.0,0.0,0.0
356040,0.018028,0.001137,0.104274,0.0,0.0,0.0,0.0,0.0,0.087266,3.0,0.293381,0.345571,0.302718,0.354641,0.0,0.0,0.089371,0.0,-0.0,-0.007662,0.0,0.0,0.0,0.0,0.0,0.0
356060,0.01803,0.001136,0.104414,0.0,0.0,0.0,0.0,0.0,0.087266,3.0,0.290984,0.346259,0.302641,0.355874,0.0,0.0,0.089221,0.0,-0.0,-0.007156,0.0,0.0,0.0,0.0,0.0,0.0
356080,0.017914,0.001263,0.104535,0.0,0.0,0.0,0.0,0.0,0.087266,3.0,0.296428,0.343012,0.304826,0.353018,0.0,0.0,0.089082,0.0,-0.0,-0.006667,0.0,0.0,0.0,0.0,0.0,0.0
356100,0.017792,0.001268,0.104656,0.0,0.0,0.0,0.0,0.0,0.087266,3.0,0.295909,0.342422,0.305119,0.353752,0.0,0.0,0.088952,0.0,-0.0,-0.006196,0.0,0.0,0.0,0.0,0.0,0.0
356120,0.01767,0.001274,0.104778,0.0,0.0,0.0,0.0,0.0,0.087266,3.0,0.29226,0.344519,0.301088,0.35781,0.0,0.0,0.088832,0.0,-0.0,-0.005743,0.0,0.0,0.0,0.0,0.0,0.0
356140,0.017542,0.001158,0.104779,0.0,0.0,0.0,0.0,0.0,0.087266,3.0,0.292517,0.344106,0.30218,0.357139,0.0,0.0,0.08872,0.0,-0.0,-0.005309,0.0,0.0,0.0,0.0,0.0,0.0
356160,0.017298,0.001171,0.10478,0.0,0.0,0.0,0.0,0.0,0.087266,3.0,0.297109,0.342203,0.304133,0.353823,0.0,0.0,0.088617,0.0,-0.0,-0.004893,0.0,0.0,0.0,0.0,0.0,0.0
356180,0.017189,0.00142,0.1049,0.0,0.0,0.0,0.0,0.0,0.087266,3.0,0.295308,0.341553,0.30336,0.356474,0.0,0.0,0.088522,0.0,-0.0,-0.004495,0.0,0.0,0.0,0.0,0.0,0.0
356200,0.017074,0.001548,0.104899,0.0,0.0,0.0,0.0,0.0,0.087266,3.0,0.29473,0.343317,0.304313,0.354473,0.0,0.0,0.088435,0.0,-0.0,-0.004115,0.0,0.0,0.0,0.0,0.0,0.0
356220,0.016843,0.001805,0.104898,0.0,0.0,0.0,0.0,0.0,0.087266,3.0,0.292183,0.343564,0.301814,0.358199,0.0,0.0,0.088356,-0.0,-0.0,-0.003753,0.0,0.0,0.0,0.0,0.0,0.0
356240,0.016714,0.001691,0.104778,0.0,0.0,0.0,0.0,0.0,0.087266,3.0,0.296459,0.342008,0.307256,0.351953,0.0,0.0,0.088283,-0.0,-0.0,-0.003409,0.0,0.0,0.0,0.0,0.0,0.0
356260,0.016349,0.001709,0.1049,0.0,0.0,0.0,0.0,0.0,0.087266,3.0,0.294491,0.345222,0.30215,0.354576,0.0,0.0,0.088217,-0.0,-0.0,-0.003083,0.0,0.0,0.0,0.0,0.0,0.0
356280,0.016105,0.001722,0.104901,0.0,0.0,0.0,0.0,0.0,0.087266,3.0,0.293864,0.344817,0.303007,0.354762,0.0,0.0,0.088158,-0.0,-0.0,-0.002775,0.0,0.0,0.0,0.0,0.0,0.0
356300,0.015745,0.001864,0.10478,0.0,0.0,0.0,0.0,0.0,0.087266,3.0,0.295889,0.342169,0.304301,0.354677,0.0,0.0,0.088105,-0.0,-0.0,-0.002484,0.0,0.0,0.0,0.0,0.0,0.0
356320,0.015385,0.002005,0.104761,0.0,0.0,0.0,0.0,0.0,0.087266,3.0,0.297829,0.342196,0.303537,0.353746,0.0,0.0,0.088057,-0.0,-0.0,-0.002209,0.0,0.0,0.0,0.0,0.0,0.0
356340,0.014897,0.00203,0.104762,0.0,0.0,0.0,0.0,0.0,0.087266,3.0,0.300009,0.342231,0.302837,0.352544,0.0,0.0,0.088015,-0.0,-0.0,-0.001951,0.0,0.0,0.0,0.0,0.0,0.0
356360,0.014532,0.002049,0.104763,0.0,0.0,0.0,0.0,0.0,0.087266,3.0,0.296239,0.344953,0.299319,0.355734,0.0,0.0,0.087978,-0.0,-0.0,-0.001709,0.0,0.0,0.0,0.0,0.0,0.0
356380,0.014038,0.001954,0.104644,0.0,0.0,0.0,0.0,0.0,0.087266,3.0,0.297085,0.342961,0.301301,0.355404,0.0,0.0,0.087945,-0.0,-0.0,-0.001483,0.0,0.0,0.0,0.0,0.0,0.0
356400,0.013415,0.001742,0.104648,0.0,0.0,0.0,0.0,0.0,0.087266,3.0,0.299718,0.344043,0.298259,0.354706,0.0,0.0,0.087917,-0.0,-0.0,-0.001273,0.0,0.0,0.0,0.0,0.0,0.0
356420,0.013056,0.001883,0.104648,0.0,0.0,0.0,0.0,0.0,0.087266,3.0,0.294583,0.344618,0.299439,0.357241,0.0,0.0,0.087893,-0.0,-0.0,-0.001077,0.0,0.0,0.0,0.0,0.0,0.0
356440,0.012447,0.001916,0.104528,0.0,0.0,0.0,0.0,0.0,0.087266,3.0,0.296308,0.344095,0.299549,0.35632,0.0,0.0,0.087873,-0.0,-0.0,-0.000895,0.0,0.0,0.0,0.0,0.0,0.0
356460,0.011831,0.001827,0.104409,0.0,0.0,0.0,0.0,0.0,0.087266,3.0,0.294055,0.345934,0.296958,0.358328,0.0,0.0,0.087857,-0.0,-0.0,-0.000728,0.0,0.0,0.0,0.0,0.0,0.0
356480,0.011324,0.001487,0.104291,0.0,0.0,0.0,0.0,0.0,0.087266,3.0,0.296301,0.345878,0.302236,0.352454,0.0,0.0,0.087843,-0.0,-0.0,-0.000573,0.0,0.0,0.0,0.0,0.0,0.0
356500,0.010586,0.001403,0.104293,0.0,0.0,0.0,0.0,0.0,0.087266,3.0,0.296892,0.346979,0.29581,0.356024,0.0,0.0,0.087833,-0.0,-0.0,-0.000466,0.0,0.0,0.0,0.0,0.0,0.0
356520,0.010079,0.001064,0.104175,0.0,0.0,0.0,0.0,0.0,0.087266,3.0,0.293641,0.348207,0.298437,0.355299,0.0,0.0,0.087825,-0.0,-0.0,-0.000303,0.0,0.0,0.0,0.0,0.0,0.0
356540,0.009213,0.000865,0.103935,0.0,0.0,0.0,0.0,0.0,0.087266,3.0,0.298903,0.345295,0.297869,0.354456,0.0,0.0,0.08782,-0.0,-0.0,-0.000186,0.0,0.0,0.0,0.0,0.0,0.0
