time_ms,roll,pitch,yaw,x,y,z,reference_roll,reference_pitch,reference_yaw,reference_throttle,throttle_1,throttle_2,throttle_3,throttle_4,roll_predicted,pitch_predicted,yaw_predicted,roll_rate_predicted,pitch_rate_predicted,yaw_rate_predicted,value1,value2,value3,value4,value5,value6
387960,-0.016973,-0.007068,0.001405,0.0,0.0,0.0,0.0,0.0,0.0,3.0,0.311766,0.35857,0.275336,0.347546,-0.0,-0.0,0.0,-0.0,-0.0,-0.0,0.0,0.0,0.0,0.0,0.0,0.0
387980,-0.016974,-0.007312,0.001403,0.0,0.0,0.0,0.0,0.0,0.0,3.0,0.312804,0.358159,0.274011,0.348031,-0.0,-0.0,0.0,-0.0,-0.0,-0.0,0.0,0.0,0.0,0.0,0.0,0.0
388000,-0.017095,-0.007557,0.001278,0.0,0.0,0.0,0.0,0.0,0.0,3.0,0.31169,0.355977,0.275111,0.350447,-0.0,-0.0,0.0,-0.0,-0.0,-0.0,0.0,0.0,0.0,0.0,0.0,0.0
388020,-0.017095,-0.007557,0.001278,0.0,0.0,0.0,0.0,0.0,0.0,3.0,0.312919,0.354684,0.275154,0.350682,-0.0,-0.0,0.0,-0.0,-0.0,-0.0,0.0,0.0,0.0,0.0,0.0,0.0
388040,-0.016973,-0.007435,0.00128,0.0,0.0,0.0,0.0,0.0,0.0,3.0,0.311853,0.356943,0.275203,0.349252,-0.0,-0.0,0.0,-0.0,-0.0,-0.0,0.0,0.0,0.0,0.0,0.0,0.0
388060,-0.016973,-0.007435,0.00128,0.0,0.0,0.0,0.0,0.0,0.0,3.0,0.312218,0.357698,0.273396,0.349453,-0.0,-0.0,0.0,-0.0,-0.0,-0.0,0.0,0.0,0.0,0.0,0.0,0.0
388080,-0.016973,-0.007313,0.001281,0.0,0.0,0.0,0.0,0.0,0.0,3.0,0.312376,0.354516,0.274126,0.352047,-0.0,-0.0,0.0,-0.0,-0.0,-0.0,0.0,0.0,0.0,0.0,0.0,0.0
388100,-0.016973,-0.007313,0.001281,0.0,0.0,0.0,0.0,0.0,0.0,3.0,0.312887,0.356346,0.273759,0.35001,-0.0,-0.0,0.0,-0.0,-0.0,-0.0,0.0,0.0,0.0,0.0,0.0,0.0
388120,-0.017095,-0.007557,0.001278,0.0,0.0,0.0,0.0,0.0,0.0,3.0,0.315833,0.356461,0.275589,0.346005,-0.0,-0.0,0.0,-0.0,-0.0,-0.0,0.0,0.0,0.0,0.0,0.0,0.0
388140,-0.017096,-0.007678,0.001399,0.0,0.0,0.0,0.0,0.0,0.0,3.0,0.311507,0.358468,0.272785,0.349702,-0.0,-0.0,0.0,-0.0,-0.0,-0.0,0.0,0.0,0.0,0.0,0.0,0.0
388160,-0.017096,-0.007677,0.001521,0.0,0.0,0.0,0.0,0.0,0.0,3.0,0.306383,0.361621,0.269882,0.35278,-0.0,-0.0,0.0,-0.0,-0.0,-0.0,0.0,0.0,0.0,0.0,0.0,0.0
388180,-0.017096,-0.007799,0.00152,0.0,0.0,0.0,0.0,0.0,0.0,3.0,0.308034,0.358747,0.270016,0.354268,-0.0,-0.0,0.0,-0.0,-0.0,-0.0,0.0,0.0,0.0,0.0,0.0,0.0
388200,-0.017096,-0.007677,0.001521,0.0,0.0,0.0,0.0,0.0,0.0,3.0,0.31198,0.357473,0.273526,0.349797,-0.0,-0.0,0.0,-0.0,-0.0,-0.0,0.0,0.0,0.0,0.0,0.0,0.0
388220,-0.016975,-0.007432,0.001646,0.0,0.0,0.0,0.0,0.0,0.0,3.0,0.311052,0.358104,0.272127,0.350928,-0.0,-0.0,0.0,-0.0,-0.0,-0.0,0.0,0.0,0.0,0.0,0.0,0.0
388240,-0.016975,-0.007309,0.001769,0.0,0.0,0.0,0.0,0.0,0.0,3.0,0.307343,0.360794,0.267981,0.354139,-0.0,-0.0,0.0,-0.0,-0.0,-0.0,0.0,0.0,0.0,0.0,0.0,0.0
388260,-0.016975,-0.007186,0.00177,0.0,0.0,0.0,0.0,0.0,0.0,3.0,0.310255,0.358478,0.274718,0.349383,-0.0,-0.0,0.0,-0.0,-0.0,-0.0,0.0,0.0,0.0,0.0,0.0,0.0
388280,-0.016976,-0.007184,0.002014,0.0,0.0,0.0,0.0,0.0,0.0,3.0,0.310268,0.358565,0.272297,0.351,-0.0,-0.0,0.0,-0.0,-0.0,-0.0,0.0,0.0,0.0,0.0,0.0,0.0
388300,-0.016854,-0.007184,0.002137,0.0,0.0,0.0,0.0,0.0,0.0,3.0,0.310543,0.357474,0.272757,0.351562,-0.0,-0.0,0.0,-0.0,-0.0,-0.0,0.0,0.0,0.0,0.0,0.0,0.0
388320,-0.016976,-0.007183,0.002136,0.0,0.0,0.0,0.0,0.0,0.0,3.0,0.310303,0.358843,0.272846,0.350298,-0.0,-0.0,0.0,-0.0,-0.0,-0.0,0.0,0.0,0.0,0.0,0.0,0.0
388340,-0.016733,-0.007305,0.002258,0.0,0.0,0.0,0.0,0.0,0.0,3.0,0.310439,0.358736,0.270949,0.351623,-0.0,-0.0,0.0,-0.0,-0.0,-0.0,0.0,0.0,0.0,0.0,0.0,0.0
388360,-0.016611,-0.007304,0.002381,0.0,0.0,0.0,0.0,0.0,0.0,3.0,0.30677,0.359028,0.272088,0.353595,-0.0,-0.0,0.0,-0.0,-0.0,-0.0,0.0,0.0,0.0,0.0,0.0,0.0
388380,-0.016489,-0.007303,0.002503,0.0,0.0,0.0,0.0,0.0,0.0,3.0,0.308238,0.357888,0.269729,0.355167,-0.0,-0.0,0.0,-0.0,-0.0,-0.0,0.0,0.0,0.0,0.0,0.0,0.0
388400,-0.01649,-0.007057,0.002749,0.0,0.0,0.0,0.0,0.0,0.0,3.0,0.310352,0.3565,0.269467,0.354989,-0.0,-0.0,0.0,-0.0,-0.0,-0.0,0.0,0.0,0.0,0.0,0.0,0.0
388420,-0.016612,-0.006813,0.002751,0.0,0.0,0.0,0.0,0.0,0.0,3.0,0.310564,0.355728,0.27031,0.355011,-0.0,-0.0,0.0,-0.0,-0.0,-0.0,0.0,0.0,0.0,0.0,0.0,0.0
388440,-0.016734,-0.006689,0.002874,0.0,0.0,0.0,0.0,0.0,0.0,3.0,0.310945,0.355234,0.268131,0.356667,-0.0,-0.0,0.0,-0.0,-0.0,-0.0,0.0,0.0,0.0,0.0,0.0,0.0
388460,-0.016734,-0.006322,0.002999,0.0,0.0,0.0,0.0,0.0,0.0,3.0,0.31091,0.354598,0.270702,0.355584,-0.0,-0.0,0.0,-0.0,-0.0,-0.0,0.0,0.0,0.0,0.0,0.0,0.0
388480,-0.016489,-0.006078,0.003002,0.0,0.0,0.0,0.0,0.0,0.0,3.0,0.310829,0.353961,0.269141,0.357345,-0.0,-0.0,0.0,-0.0,-0.0,-0.0,0.0,0.0,0.0,0.0,0.0,0.0
388500,-0.016489,-0.005711,0.003127,0.0,0.0,0.0,0.0,0.0,0.0,3.0,0.305467,0.356148,0.268287,0.360126,-0.0,-0.0,0.0,-0.0,-0.0,-0.0,0.0,0.0,0.0,0.0,0.0,0.0
388520,-0.016245,-0.005466,0.003251,0.0,0.0,0.0,0.0,0.0,0.0,3.0,0.305103,0.361493,0.265681,0.356799,-0.0,-0.0,0.0,-0.0,-0.0,-0.0,0.0,0.0,0.0,0.0,0.0,0.0
388540,-0.016122,-0.005222,0.003254,0.0,0.0,0.0,0.0,0.0,0.0,3.0,0.310687,0.356401,0.268524,0.355451,-0.0,-0.0,0.0,-0.0,-0.0,-0.0,0.0,0.0,0.0,0.0,0.0,0.0
388560,-0.016,-0.004978,0.003378,0.0,0.0,0.0,0.0,0.0,0.0,3.0,0.309171,0.358189,0.268615,0.354848,-0.0,-0.0,0.0,-0.0,-0.0,-0.0,0.0,0.0,0.0,0.0,0.0,0.0
388580,-0.015878,-0.004978,0.003378,0.0,0.0,0.0,0.0,0.0,0.0,3.0,0.309605,0.357567,0.270599,0.353758,-0.0,-0.0,0.0,-0.0,-0.0,-0.0,0.0,0.0,0.0,0.0,0.0,0.0
388600,-0.015878,-0.004977,0.003501,0.0,0.0,0.0,0.0,0.0,0.0,3.0,0.308521,0.360285,0.266282,0.354832,-0.0,-0.0,0.0,-0.0,-0.0,-0.0,0.0,0.0,0.0,0.0,0.0,0.0
388620,-0.015879,-0.00522,0.003621,0.0,0.0,0.0,0.0,0.0,0.0,3.0,0.310729,0.359035,0.26863,0.352673,-0.0,-0.0,0.0,-0.0,-0.0,-0.0,0.0,0.0,0.0,0.0,0.0,0.0
388640,-0.01588,-0.005341,0.003742,0.0,0.0,0.0,0.0,0.0,0.0,3.0,0.311083,0.360721,0.266818,0.351877,-0.0,-0.0,0.0,-0.0,-0.0,-0.0,0.0,0.0,0.0,0.0,0.0,0.0
388660,-0.016003,-0.005584,0.003862,0.0,0.0,0.0,0.0,0.0,0.0,3.0,0.309291,0.363708,0.262762,0.353011,-0.0,-0.0,0.0,-0.0,-0.0,-0.0,0.0,0.0,0.0,0.0,0.0,0.0
388680,-0.016003,-0.005705,0.003983,0.0,0.0,0.0,0.0,0.0,0.0,3.0,0.308597,0.361067,0.267049,0.353451,-0.0,-0.0,0.0,-0.0,-0.0,-0.0,0.0,0.0,0.0,0.0,0.0,0.0
388700,-0.016003,-0.005705,0.003983,0.0,0.0,0.0,0.0,0.0,0.0,3.0,0.312724,0.3606,0.264494,0.352178,-0.0,-0.0,0.0,-0.0,-0.0,-0.0,0.0,0.0,0.0,0.0,0.0,0.0
388720,-0.015881,-0.005827,0.003982,0.0,0.0,0.0,0.0,0.0,0.0,3.0,0.308923,0.359691,0.269252,0.35309,-0.0,-0.0,0.0,-0.0,-0.0,-0.0,0.0,0.0,0.0,0.0,0.0,0.0
388740,-0.015882,-0.005826,0.004104,0.0,0.0,0.0,0.0,0.0,0.0,3.0,0.306192,0.363648,0.261147,0.356686,-0.0,-0.0,0.0,-0.0,-0.0,-0.0,0.0,0.0,0.0,0.0,0.0,0.0
388760,-0.016004,-0.005826,0.004104,0.0,0.0,0.0,0.0,0.0,0.0,3.0,0.310234,0.358835,0.266673,0.354621,-0.0,-0.0,0.0,-0.0,-0.0,-0.0,0.0,0.0,0.0,0.0,0.0,0.0
388780,-0.01576,-0.005826,0.004227,0.0,0.0,0.0,0.0,0.0,0.0,3.0,0.310876,0.362318,0.263189,0.35284,-0.0,-0.0,0.0,-0.0,-0.0,-0.0,0.0,0.0,0.0,0.0,0.0,0.0
388800,-0.015882,-0.005703,0.004227,0.0,0.0,0.0,0.0,0.0,0.0,3.0,0.312399,0.359973,0.263672,0.353647,-0.0,-0.0,0.0,-0.0,-0.0,-0.0,0.0,0.0,0.0,0.0,0.0,0.0
388820,-0.016126,-0.005702,0.004349,0.0,0.0,0.0,0.0,0.0,0.0,3.0,0.308406,0.361978,0.262773,0.355524,-0.0,-0.0,0.0,-0.0,-0.0,-0.0,0.0,0.0,0.0,0.0,0.0,0.0
388840,-0.016126,-0.00558,0.004349,0.0,0.0,0.0,0.0,0.0,0.0,3.0,0.311004,0.360127,0.26475,0.353948,-0.0,-0.0,0.0,-0.0,-0.0,-0.0,0.0,0.0,0.0,0.0,0.0,0.0
388860,-0.016004,-0.005457,0.004473,0.0,0.0,0.0,0.0,0.0,0.0,3.0,0.314196,0.358515,0.269132,0.349902,-0.0,-0.0,0.0,-0.0,0.0,-0.0,0.0,0.0,0.0,0.0,0.0,0.0
388880,-0.015882,-0.005457,0.004473,0.0,0.0,0.0,0.0,0.0,0.0,3.0,0.309777,0.362081,0.265097,0.352734,-0.0,-0.0,0.0,-0.0,0.0,-0.0,0.0,0.0,0.0,0.0,0.0,0.0
388900,-0.015882,-0.005335,0.004474,0.0,0.0,0.0,0.0,0.0,0.0,3.0,0.306028,0.363484,0.264466,0.354813,-0.0,-0.0,0.0,0.0,0.0,-0.0,0.0,0.0,0.0,0.0,0.0,0.0
388920,-0.015515,-0.005092,0.004477,0.0,0.0,0.0,0.0,0.0,0.0,3.0,0.313691,0.358761,0.267252,0.351378,-0.0,-0.0,0.0,0.0,0.0,-0.0,0.0,0.0,0.0,0.0,0.0,0.0
388940,-0.015393,-0.00497,0.004478,0.0,0.0,0.0,0.0,0.0,0.0,3.0,0.309959,0.360763,0.265573,0.353622,-0.0,-0.0,0.0,0.0,0.0,-0.0,0.0,0.0,0.0,0.0,0.0,0.0
388960,-0.015271,-0.005092,0.004478,0.0,0.0,0.0,0.0,0.0,0.0,3.0,0.31073,0.361109,0.264081,0.353616,-0.0,-0.0,0.0,0.0,0.0,-0.0,0.0,0.0,0.0,0.0,0.0,0.0
388980,-0.015393,-0.005214,0.004476,0.0,0.0,0.0,0.0,0.0,0.0,3.0,0.309776,0.362982,0.265193,0.351734,-0.0,-0.0,0.0,0.0,0.0,-0.0,0.0,0.0,0.0,0.0,0.0,0.0
389000,-0.015271,-0.00546,0.004353,0.0,0.0,0.0,0.0,0.0,0.0,3.0,0.309038,0.361154,0.265803,0.353834,-0.0,-0.0,0.0,0.0,0.0,-0.0,0.0,0.0,0.0,0.0,0.0,0.0
389020,-0.015149,-0.00546,0.004353,0.0,0.0,0.0,0.0,0.0,0.0,3.0,0.311503,0.360733,0.263533,0.353716,-0.0,-0.0,0.0,0.0,0.0,-0.0,0.0,0.0,0.0,0.0,0.0,0.0
389040,-0.015027,-0.00546,0.004354,0.0,0.0,0.0,0.0,0.0,0.0,3.0,0.308291,0.360936,0.266755,0.354038,-0.0,-0.0,0.0,0.0,0.0,-0.0,0.0,0.0,0.0,0.0,0.0,0.0
389060,-0.014905,-0.005583,0.004231,0.0,0.0,0.0,0.0,0.0,0.0,3.0,0.304797,0.364071,0.262467,0.356526,-0.0,-0.0,0.0,0.0,0.0,-0.0,0.0,0.0,0.0,0.0,0.0,0.0
389080,-0.014905,-0.005705,0.00423,0.0,0.0,0.0,0.0,0.0,0.0,3.0,0.310277,0.362041,0.265172,0.352305,-0.0,-0.0,0.0,0.0,0.0,-0.0,0.0,0.0,0.0,0.0,0.0,0.0
389100,-0.014783,-0.005828,0.004229,0.0,0.0,0.0,0.0,0.0,0.0,3.0,0.310478,0.363087,0.264003,0.351833,-0.0,-0.0,0.0,0.0,0.0,-0.0,0.0,0.0,0.0,0.0,0.0,0.0
389120,-0.014783,-0.005829,0.004107,0.0,0.0,0.0,0.0,0.0,0.0,3.0,0.309834,0.361985,0.264514,0.353177,-0.0,-0.0,0.0,0.0,0.0,-0.0,0.0,0.0,0.0,0.0,0.0,0.0
389140,-0.014661,-0.005829,0.004108,0.0,0.0,0.0,0.0,0.0,0.0,3.0,0.309833,0.360785,0.265988,0.353425,-0.0,-0.0,0.0,0.0,0.0,-0.0,0.0,0.0,0.0,0.0,0.0,0.0
389160,-0.014416,-0.005585,0.00411,0.0,0.0,0.0,0.0,0.0,0.0,3.0,0.308875,0.3607,0.262847,0.356391,-0.0,-0.0,0.0,0.0,0.0,-0.0,0.0,0.0,0.0,0.0,0.0,0.0
389180,-0.014294,-0.005464,0.003989,0.0,0.0,0.0,0.0,0.0,0.0,3.0,0.309765,0.361888,0.264252,0.35351,-0.0,-0.0,0.0,0.0,0.0,-0.0,0.0,0.0,0.0,0.0,0.0,0.0
389200,-0.014172,-0.005465,0.00399,0.0,0.0,0.0,0.0,0.0,0.0,3.0,0.309628,0.362065,0.265415,0.352661,-0.0,-0.0,0.0,0.0,0.0,-0.0,0.0,0.0,0.0,0.0,0.0,0.0
389220,-0.014049,-0.005343,0.003991,0.0,0.0,0.0,0.0,0.0,0.0,3.0,0.30775,0.36011,0.266859,0.35526,-0.0,-0.0,0.0,0.0,0.0,-0.0,0.0,0.0,0.0,0.0,0.0,0.0
389240,-0.01356,-0.005101,0.003872,0.0,0.0,0.0,0.0,0.0,0.0,3.0,0.307041,0.359398,0.264638,0.358035,-0.0,-0.0,0.0,0.0,0.0,-0.0,0.0,0.0,0.0,0.0,0.0,0.0
389260,-0.013071,-0.004858,0.003753,0.0,0.0,0.0,0.0,0.0,0.0,3.0,0.312204,0.358138,0.273165,0.349175,-0.0,-0.0,0.0,0.0,0.0,-0.0,0.0,0.0,0.0,0.0,0.0,0.0
389280,-0.012704,-0.004493,0.003756,0.0,0.0,0.0,0.0,0.0,0.0,3.0,0.308341,0.357828,0.267572,0.356601,-0.0,-0.0,0.0,0.0,0.0,-0.0,0.0,0.0,0.0,0.0,0.0,0.0
389300,-0.012459,-0.00425,0.003636,0.0,0.0,0.0,0.0,0.0,0.0,3.0,0.311579,0.357555,0.27072,0.352026,-0.0,-0.0,0.0,0.0,0.0,-0.0,0.0,0.0,0.0,0.0,0.0,0.0
389320,-0.012093,-0.004007,0.003516,0.0,0.0,0.0,0.0,0.0,0.0,3.0,0.3081,0.359174,0.267032,0.355805,-0.0,-0.0,0.0,0.0,0.0,-0.0,0.0,0.0,0.0,0.0,0.0,0.0
389340,-0.011604,-0.003886,0.003518,0.0,0.0,0.0,0.0,0.0,0.0,3.0,0.307696,0.36036,0.268642,0.353841,-0.0,-0.0,0.0,0.0,0.0,-0.0,0.0,0.0,0.0,0.0,0.0,0.0
389360,-0.011238,-0.003886,0.003519,0.0,0.0,0.0,0.0,0.0,0.0,3.0,0.311422,0.356969,0.27108,0.352507,-0.0,-0.0,0.0,0.0,0.0,-0.0,0.0,0.0,0.0,0.0,0.0,0.0
389380,-0.010871,-0.003644,0.003398,0.0,0.0,0.0,0.0,0.0,0.0,3.0,0.307162,0.360848,0.269835,0.352965,-0.0,-0.0,0.0,0.0,0.0,-0.0,0.0,0.0,0.0,0.0,0.0,0.0
389400,-0.010504,-0.003279,0.003279,0.0,0.0,0.0,0.0,0.0,0.0,3.0,0.308487,0.359888,0.269351,0.353183,-0.0,-0.0,0.0,0.0,0.0,-0.0,0.0,0.0,0.0,0.0,0.0,0.0
389420,-0.010137,-0.003036,0.003159,0.0,0.0,0.0,0.0,0.0,0.0,3.0,0.313274,0.355466,0.271811,0.351947,-0.0,-0.0,0.0,0.0,0.0,-0.0,0.0,0.0,0.0,0.0,0.0,0.0
389440,-0.010015,-0.00267,0.003161,0.0,0.0,0.0,0.0,0.0,0.0,3.0,0.309271,0.359489,0.266258,0.355036,-0.0,-0.0,0.0,0.0,0.0,-0.0,0.0,0.0,0.0,0.0,0.0,0.0
389460,-0.009648,-0.002427,0.00304,0.0,0.0,0.0,0.0,0.0,0.0,3.0,0.30971,0.356528,0.271965,0.353778,-0.0,-0.0,0.0,0.0,0.0,-0.0,0.0,0.0,0.0,0.0,0.0,0.0
389480,-0.009281,-0.002183,0.003042,0.0,0.0,0.0,0.0,0.0,0.0,3.0,0.309332,0.357691,0.266349,0.356742,-0.0,-0.0,0.0,0.0,0.0,-0.0,0.0,0.0,0.0,0.0,0.0,0.0
389500,-0.009037,-0.00194,0.002921,0.0,0.0,0.0,0.0,0.0,0.0,3.0,0.310403,0.355733,0.269875,0.355438,-0.0,-0.0,0.0,0.0,0.0,-0.0,0.0,0.0,0.0,0.0,0.0,0.0
389520,-0.008792,-0.001696,0.002923,0.0,0.0,0.0,0.0,0.0,0.0,3.0,0.306553,0.359928,0.266403,0.356729,-0.0,-0.0,0.0,0.0,0.0,-0.0,0.0,0.0,0.0,0.0,0.0,0.0
389540,-0.008303,-0.001331,0.002802,0.0,0.0,0.0,0.0,0.0,0.0,3.0,0.306733,0.355962,0.271281,0.357271,-0.0,-0.0,0.0,0.0,0.0,-0.0,0.0,0.0,0.0,0.0,0.0,0.0
389560,-0.007692,-0.000844,0.002683,0.0,0.0,0.0,0.0,0.0,0.0,3.0,0.306893,0.355221,0.271739,0.357563,-0.0,-0.0,0.0,0.0,0.0,-0.0,0.0,0.0,0.0,0.0,0.0,0.0
389580,-0.007325,-0.000356,0.002685,0.0,0.0,0.0,0.0,0.0,0.0,3.0,0.302737,0.359153,0.268529,0.359158,-0.0,-0.0,0.0,0.0,0.0,-0.0,0.0,0.0,0.0,0.0,0.0,0.0
389600,-0.006836,9e-06,0.002564,0.0,0.0,0.0,0.0,0.0,0.0,3.0,0.306113,0.356641,0.272353,0.356362,-0.0,-0.0,0.0,0.0,0.0,-0.0,0.0,0.0,0.0,0.0,0.0,0.0
389620,-0.00647,0.000374,0.002443,0.0,0.0,0.0,0.0,0.0,0.0,3.0,0.307628,0.357356,0.273958,0.353279,-0.0,-0.0,0.0,0.0,0.0,-0.0,0.0,0.0,0.0,0.0,0.0,0.0
389640,-0.005981,0.000496,0.002443,0.0,0.0,0.0,0.0,0.0,0.0,3.0,0.306338,0.359992,0.270262,0.354228,-0.0,-0.0,0.0,0.0,0.0,-0.0,0.0,0.0,0.0,0.0,0.0,0.0
389660,-0.005493,0.000739,0.002322,0.0,0.0,0.0,0.0,0.0,0.0,3.0,0.307135,0.358312,0.271869,0.354174,-0.0,-0.0,0.0,0.0,0.0,-0.0,0.0,0.0,0.0,0.0,0.0,0.0
389680,-0.005004,0.001226,0.002201,0.0,0.0,0.0,0.0,0.0,0.0,3.0,0.307125,0.357077,0.272215,0.355192,-0.0,-0.0,0.0,0.0,0.0,-0.0,0.0,0.0,0.0,0.0,0.0,0.0
389700,-0.004393,0.001714,0.002201,0.0,0.0,0.0,0.0,0.0,0.0,3.0,0.301469,0.358843,0.270729,0.358993,-0.0,-0.0,0.0,0.0,0.0,-0.0,0.0,0.0,0.0,0.0,0.0,0.0
389720,-0.003782,0.002323,0.00208,0.0,0.0,0.0,0.0,0.0,0.0,3.0,0.30652,0.35663,0.272582,0.355884,-0.0,-0.0,0.0,0.0,0.0,-0.0,0.0,0.0,0.0,0.0,0.0,0.0
389740,-0.003294,0.002689,0.001836,0.0,0.0,0.0,0.0,0.0,0.0,3.0,0.306533,0.355437,0.273248,0.356604,-0.0,-0.0,0.0,0.0,0.0,-0.0,0.0,0.0,0.0,0.0,0.0,0.0
389760,-0.002683,0.003176,0.001836,0.0,0.0,0.0,0.0,0.0,0.0,3.0,0.305284,0.356291,0.273654,0.356486,-0.0,-0.0,0.0,0.0,0.0,-0.0,0.0,0.0,0.0,0.0,0.0,0.0
389780,-0.00195,0.003664,0.001713,0.0,0.0,0.0,0.0,0.0,0.0,3.0,0.304037,0.353834,0.276569,0.357896,-0.0,-0.0,0.0,0.0,0.0,-0.0,0.0,0.0,0.0,0.0,0.0,0.0
389800,-0.00134,0.00403,0.00159,0.0,0.0,0.0,0.0,0.0,0.0,3.0,0.304273,0.354633,0.27662,0.356881,-0.0,-0.0,0.0,0.0,0.0,-0.0,0.0,0.0,0.0,0.0,0.0,0.0
389820,-0.000729,0.004273,0.001467,0.0,0.0,0.0,0.0,0.0,0.0,3.0,0.303796,0.355821,0.27742,0.355516,-0.0,-0.0,0.0,0.0,0.0,-0.0,0.0,0.0,0.0,0.0,0.0,0.0
389840,-0.000241,0.004395,0.001221,0.0,0.0,0.0,0.0,0.0,0.0,3.0,0.305303,0.355091,0.27591,0.356092,-0.0,-0.0,0.0,0.0,0.0,-0.0,0.0,0.0,0.0,0.0,0.0,0.0
389860,0.000369,0.004639,0.001098,0.0,0.0,0.0,0.0,0.0,0.0,3.0,0.303485,0.354523,0.276948,0.357392,-0.0,-0.0,0.0,0.0,0.0,-0.0,0.0,0.0,0.0,0.0,0.0,0.0
389880,0.001224,0.005005,0.001096,0.0,0.0,0.0,0.0,0.0,0.0,3.0,0.301825,0.354964,0.279015,0.356818,-0.0,-0.0,0.0,0.0,0.0,-0.0,0.0,0.0,0.0,0.0,0.0,0.0
389900,0.001956,0.005248,0.000972,0.0,0.0,0.0,0.0,0.0,0.0,3.0,0.302361,0.353501,0.279962,0.357162,-0.0,-0.0,0.0,0.0,0.0,-0.0,0.0,0.0,0.0,0.0,0.0,0.0
389920,0.002566,0.005737,0.000847,0.0,0.0,0.0,0.0,0.0,0.0,3.0,0.307309,0.350226,0.282399,0.354614,-0.0,-0.0,0.0,0.0,0.0,-0.0,0.0,0.0,0.0,0.0,0.0,0.0
389940,0.003421,0.006224,0.000844,0.0,0.0,0.0,0.0,0.0,0.0,3.0,0.303537,0.353185,0.279439,0.356906,-0.0,-0.0,0.0,0.0,0.0,-0.0,0.0,0.0,0.0,0.0,0.0,0.0
389960,0.004153,0.006713,0.000719,0.0,0.0,0.0,0.0,0.0,0.0,3.0,0.299317,0.354986,0.275931,0.360934,-0.0,-0.0,0.0,0.0,0.0,-0.0,0.0,0.0,0.0,0.0,0.0,0.0
389980,0.00513,0.007445,0.000713,0.0,0.0,0.0,0.0,0.0,0.0,3.0,0.300376,0.351965,0.281047,0.359463,-0.0,-0.0,0.0,0.0,0.0,-0.0,0.0,0.0,0.0,0.0,0.0,0.0
390000,0.006107,0.008177,0.000708,0.0,0.0,0.0,0.0,0.0,0.0,3.0,0.300571,0.350489,0.279945,0.361516,-0.0,-0.0,0.0,0.0,0.0,-0.0,0.0,0.0,0.0,0.0,0.0,0.0
390020,0.006961,0.009154,0.000579,0.0,0.0,0.0,0.0,0.0,0.0,3.0,0.301684,0.347603,0.2841,0.360444,-0.0,-0.0,0.0,0.0,0.0,-0.0,0.0,0.0,0.0,0.0,0.0,0.0
390040,0.007937,0.01013,0.000448,0.0,0.0,0.0,0.0,0.0,0.0,3.0,0.300515,0.349904,0.280583,0.361671,-0.0,-0.0,0.0,0.0,0.0,-0.0,0.0,0.0,0.0,0.0,0.0,0.0
390060,0.009036,0.011107,0.000438,0.0,0.0,0.0,0.0,0.0,0.0,3.0,0.301589,0.346419,0.288316,0.358562,-0.0,-0.0,0.0,0.0,0.0,-0.0,0.0,0.0,0.0,0.0,0.0,0.0
390080,0.010257,0.012083,0.000426,0.0,0.0,0.0,0.0,0.0,0.0,3.0,0.297392,0.347489,0.284714,0.363433,-0.0,-0.0,0.0,0.0,0.0,-0.0,0.0,0.0,0.0,0.0,0.0,0.0
390100,0.011477,0.013182,0.000291,0.0,0.0,0.0,0.0,0.0,0.0,3.0,0.297773,0.347342,0.286598,0.36192,-0.0,0.0,0.0,0.0,0.0,-0.0,0.0,0.0,0.0,0.0,0.0,0.0
390120,0.012454,0.014402,0.000277,0.0,0.0,0.0,0.0,0.0,0.0,3.0,0.297061,0.346009,0.285099,0.364797,-0.0,0.0,0.0,0.0,0.0,-0.0,0.0,0.0,0.0,0.0,0.0,0.0
390140,0.013674,0.015501,0.000138,0.0,0.0,0.0,0.0,0.0,0.0,3.0,0.296802,0.346225,0.285266,0.364672,0.0,0.0,0.0,0.0,0.0,-0.0,0.0,0.0,0.0,0.0,0.0,0.0
390160,0.014774,0.016722,0.000243,0.0,0.0,0.0,0.0,0.0,0.0,3.0,0.29471,0.346607,0.286323,0.365131,0.0,0.0,0.0,0.0,0.0,-0.0,0.0,0.0,0.0,0.0,0.0,0.0
390180,0.015995,0.01782,0.000224,0.0,0.0,0.0,0.0,0.0,0.0,3.0,0.292202,0.347579,0.282676,0.368657,0.0,0.0,0.0,0.0,0.0,-0.0,0.0,0.0,0.0,0.0,0.0,0.0
390200,0.016971,0.018674,0.000208,0.0,0.0,0.0,0.0,0.0,0.0,3.0,0.294189,0.347285,0.285201,0.365688,0.0,0.0,0.0,0.0,0.0,-0.0,0.0,0.0,0.0,0.0,0.0,0.0
390220,0.017948,0.019284,0.000193,0.0,0.0,0.0,0.0,0.0,0.0,3.0,0.295699,0.347053,0.286366,0.363939,0.0,0.0,0.0,0.0,0.0,-0.0,0.0,0.0,0.0,0.0,0.0,0.0
390240,0.018802,0.020016,0.000178,0.0,0.0,0.0,0.0,0.0,0.0,3.0,0.296622,0.347662,0.285484,0.363302,0.0,0.0,0.0,0.0,0.0,-0.0,0.0,0.0,0.0,0.0,0.0,0.0
390260,0.019657,0.02026,0.000167,0.0,0.0,0.0,0.0,0.0,0.0,3.0,0.294226,0.350663,0.285436,0.362297,0.0,0.0,0.0,0.0,0.0,-0.0,0.0,0.0,0.0,0.0,0.0,0.0
390280,0.020267,0.020626,0.000157,0.0,0.0,0.0,0.0,0.0,0.0,3.0,0.29504,0.348427,0.284539,0.364452,0.0,0.0,0.0,0.0,0.0,-0.0,0.0,0.0,0.0,0.0,0.0,0.0
390300,0.020633,0.020748,0.000152,0.0,0.0,0.0,0.0,0.0,0.0,3.0,0.297349,0.349821,0.284338,0.36152,0.0,0.0,0.0,0.0,0.0,-0.0,0.0,0.0,0.0,0.0,0.0,0.0
390320,0.020876,0.020871,2.6e-05,0.0,0.0,0.0,0.0,0.0,0.0,3.0,0.298722,0.348413,0.283031,0.362743,0.0,0.0,0.0,0.0,0.0,-0.0,0.0,0.0,0.0,0.0,0.0,0.0
390340,0.02112,0.020993,2.2e-05,0.0,0.0,0.0,0.0,0.0,0.0,3.0,0.295771,0.351521,0.282329,0.362531,0.0,0.0,0.0,0.0,0.0,-0.0,0.0,0.0,0.0,0.0,0.0,0.0
390360,0.021121,0.02087,0.000146,0.0,0.0,0.0,0.0,0.0,0.0,3.0,0.294781,0.35165,0.278052,0.366136,0.0,0.0,0.0,0.0,0.0,-0.0,0.0,0.0,0.0,0.0,0.0,0.0
390380,0.020998,0.020871,2.5e-05,0.0,0.0,0.0,0.0,0.0,0.0,3.0,0.299904,0.351096,0.280837,0.360823,0.0,0.0,0.0,0.0,0.0,-0.0,0.0,0.0,0.0,0.0,0.0,0.0
390400,0.020998,0.020871,2.5e-05,0.0,0.0,0.0,0.0,0.0,0.0,3.0,0.299175,0.350072,0.281006,0.36225,0.0,0.0,0.0,0.0,0.0,-0.0,0.0,0.0,0.0,0.0,0.0,0.0
390420,0.02112,0.020871,2.4e-05,0.0,0.0,0.0,0.0,0.0,0.0,3.0,0.296204,0.350453,0.28177,0.363619,0.0,0.0,0.0,0.0,0.0,-0.0,0.0,0.0,0.0,0.0,0.0,0.0
390440,0.021244,0.021114,0.000142,0.0,0.0,0.0,0.0,0.0,0.0,3.0,0.295161,0.351776,0.277523,0.366095,0.0,0.0,0.0,0.0,0.0,-0.0,0.0,0.0,0.0,0.0,0.0,0.0
390460,0.021364,0.021115,1.9e-05,0.0,0.0,0.0,0.0,0.0,0.0,3.0,0.30133,0.347297,0.284766,0.360533,0.0,0.0,0.0,0.0,0.0,-0.0,0.0,0.0,0.0,0.0,0.0,0.0
390480,0.021486,0.021237,1.6e-05,0.0,0.0,0.0,0.0,0.0,0.0,3.0,0.297876,0.350923,0.281408,0.362152,0.0,0.0,0.0,0.0,0.0,-0.0,0.0,0.0,0.0,0.0,0.0,0.0
390500,0.02173,0.021237,1.3e-05,0.0,0.0,0.0,0.0,0.0,0.0,3.0,0.29604,0.352355,0.28167,0.361991,0.0,0.0,0.0,0.0,0.0,-0.0,0.0,0.0,0.0,0.0,0.0,0.0
390520,0.021975,0.021481,8e-06,0.0,0.0,0.0,0.0,0.0,0.0,3.0,0.293423,0.351792,0.279445,0.366052,0.0,0.0,0.0,0.0,0.0,-0.0,0.0,0.0,0.0,0.0,0.0,0.0
390540,0.022097,0.021725,4e-06,0.0,0.0,0.0,0.0,0.0,0.0,3.0,0.298736,0.349854,0.283684,0.36089,0.0,0.0,0.0,0.0,0.0,-0.0,0.0,0.0,0.0,0.0,0.0,0.0
390560,0.022342,0.021848,0.0,0.0,0.0,0.0,0.0,0.0,0.0,3.0,0.297896,0.34935,0.284017,0.361781,0.0,0.0,0.0,0.0,0.0,-0.0,0.0,0.0,0.0,0.0,0.0,0.0
390580,0.022585,0.022094,-0.000127,0.0,0.0,0.0,0.0,0.0,0.0,3.0,0.298065,0.350067,0.283708,0.361187,0.0,0.0,0.0,0.0,0.0,-0.0,0.0,0.0,0.0,0.0,0.0,0.0
390600,0.022829,0.022216,-0.000132,0.0,0.0,0.0,0.0,0.0,0.0,3.0,0.296725,0.350873,0.281345,0.363123,0.0,0.0,0.0,0.0,0.0,-0.0,0.0,0.0,0.0,0.0,0.0,0.0
390620,0.022951,0.02246,-0.000136,0.0,0.0,0.0,0.0,0.0,0.0,3.0,0.299415,0.347909,0.283612,0.362272,0.0,0.0,0.0,0.0,0.0,-0.0,0.0,0.0,0.0,0.0,0.0,0.0
390640,0.023195,0.02246,-0.000138,0.0,0.0,0.0,0.0,0.0,0.0,3.0,0.298745,0.347819,0.285924,0.361209,0.0,0.0,0.0,0.0,0.0,-0.0,0.0,0.0,0.0,0.0,0.0,0.0
390660,0.023317,0.022338,-0.000138,0.0,0.0,0.0,0.0,0.0,0.0,3.0,0.301288,0.345808,0.288257,0.359426,0.0,0.0,0.0,0.0,0.0,-0.0,0.0,0.0,0.0,0.0,0.0,0.0
390680,0.023563,0.02258,-2.2e-05,0.0,0.0,0.0,0.0,0.0,0.0,3.0,0.293995,0.349544,0.283719,0.364765,0.0,0.0,0.0,0.0,0.0,-0.0,0.0,0.0,0.0,0.0,0.0,0.0
390700,0.023807,0.022824,-2.8e-05,0.0,0.0,0.0,0.0,0.0,0.0,3.0,0.299379,0.345823,0.284989,0.363279,0.0,0.0,0.0,0.0,0.0,-0.0,0.0,0.0,0.0,0.0,0.0,0.0
390720,0.023805,0.023192,-0.000154,0.0,0.0,0.0,0.0,0.0,0.0,3.0,0.297719,0.345877,0.286026,0.363754,0.0,0.0,0.0,0.0,0.0,-0.0,0.0,0.0,0.0,0.0,0.0,0.0
390740,0.024049,0.023436,-0.00016,0.0,0.0,0.0,0.0,0.0,0.0,3.0,0.295222,0.345937,0.287507,0.364519,0.0,0.0,0.0,0.0,0.0,-0.0,0.0,0.0,0.0,0.0,0.0,0.0
390760,0.024293,0.023558,-0.000164,0.0,0.0,0.0,0.0,0.0,0.0,3.0,0.294873,0.345597,0.287832,0.364863,0.0,0.0,0.0,0.0,0.0,-0.0,0.0,0.0,0.0,0.0,0.0,0.0
390780,0.024536,0.023681,-0.000291,0.0,0.0,0.0,0.0,0.0,0.0,3.0,0.2964,0.344906,0.288918,0.363566,0.0,0.0,0.0,0.0,0.0,-0.0,0.0,0.0,0.0,0.0,0.0,0.0
390800,0.024657,0.023683,-0.000414,0.0,0.0,0.0,0.0,0.0,0.0,3.0,0.297384,0.344038,0.290761,0.36227,0.0,0.0,0.0,0.0,0.0,-0.0,0.0,0.0,0.0,0.0,0.0,0.0
390820,0.024779,0.023683,-0.000416,0.0,0.0,0.0,0.0,0.0,0.0,3.0,0.296649,0.345921,0.289116,0.36228,0.0,0.0,0.0,0.0,0.0,-0.0,0.0,0.0,0.0,0.0,0.0,0.0
390840,0.025023,0.023805,-0.00042,0.0,0.0,0.0,0.0,0.0,0.0,3.0,0.294379,0.347221,0.288895,0.362937,0.0,0.0,0.0,0.0,0.0,-0.0,0.0,0.0,0.0,0.0,0.0,0.0
390860,0.025267,0.024049,-0.000426,0.0,0.0,0.0,0.0,0.0,0.0,3.0,0.29591,0.343792,0.290072,0.364127,0.0,0.0,0.0,0.0,0.0,-0.0,0.0,0.0,0.0,0.0,0.0,0.0
390880,0.025265,0.024294,-0.000551,0.0,0.0,0.0,0.0,0.0,0.0,3.0,0.2987,0.342963,0.291124,0.361993,0.0,0.0,0.0,0.0,0.0,-0.0,0.0,0.0,0.0,0.0,0.0,0.0
390900,0.025386,0.024418,-0.000676,0.0,0.0,0.0,0.0,0.0,0.0,3.0,0.297795,0.343149,0.289912,0.363409,0.0,0.0,0.0,0.0,0.0,-0.0,0.0,0.0,0.0,0.0,0.0,0.0
390920,0.025384,0.024664,-0.000802,0.0,0.0,0.0,0.0,0.0,0.0,3.0,0.291959,0.347712,0.284685,0.367303,0.0,0.0,0.0,0.0,0.0,-0.0,0.0,0.0,0.0,0.0,0.0,0.0
390940,0.025628,0.024542,-0.000803,0.0,0.0,0.0,0.0,0.0,0.0,3.0,0.294361,0.344506,0.290564,0.364269,0.0,0.0,0.0,0.0,0.0,-0.0,0.0,0.0,0.0,0.0,0.0,0.0
390960,0.025628,0.024664,-0.000805,0.0,0.0,0.0,0.0,0.0,0.0,3.0,0.29762,0.343772,0.291461,0.361817,0.0,0.0,0.0,0.0,0.0,-0.0,0.0,0.0,0.0,0.0,0.0,0.0
390980,0.025749,0.024299,-0.000923,0.0,0.0,0.0,0.0,0.0,0.0,3.0,0.294057,0.343964,0.291964,0.363966,0.0,0.0,0.0,0.0,0.0,-0.0,0.0,0.0,0.0,0.0,0.0,0.0
391000,0.025749,0.024299,-0.000923,0.0,0.0,0.0,0.0,0.0,0.0,3.0,0.294901,0.345316,0.2895,0.363889,0.0,0.0,0.0,0.0,0.0,-0.0,0.0,0.0,0.0,0.0,0.0,0.0
391020,0.025749,0.024177,-0.000922,0.0,0.0,0.0,0.0,0.0,0.0,3.0,0.291258,0.346956,0.285855,0.367689,0.0,0.0,0.0,0.0,0.0,-0.0,0.0,0.0,0.0,0.0,0.0,0.0
391040,0.025747,0.024301,-0.001046,0.0,0.0,0.0,0.0,0.0,0.0,3.0,0.296299,0.342413,0.290406,0.364862,0.0,0.0,0.0,0.0,0.0,-0.0,0.0,0.0,0.0,0.0,0.0,0.0
391060,0.025746,0.024302,-0.001168,0.0,0.0,0.0,0.0,0.0,0.0,3.0,0.299346,0.339294,0.295417,0.361661,0.0,0.0,0.0,0.0,-0.0,-0.0,0.0,0.0,0.0,0.0,0.0,0.0
391080,0.025744,0.024426,-0.001291,0.0,0.0,0.0,0.0,0.0,0.0,3.0,0.296242,0.344729,0.289176,0.363661,0.0,0.0,0.0,0.0,-0.0,-0.0,0.0,0.0,0.0,0.0,0.0,0.0
391100,0.025744,0.024548,-0.001293,0.0,0.0,0.0,0.0,0.0,0.0,3.0,0.297297,0.342094,0.291614,0.363509,0.0,0.0,0.0,0.0,-0.0,-0.0,0.0,0.0,0.0,0.0,0.0,0.0
391120,0.025866,0.024426,-0.001293,0.0,0.0,0.0,0.0,0.0,0.0,3.0,0.294101,0.345394,0.291374,0.363037,0.0,0.0,0.0,-0.0,-0.0,-0.0,0.0,0.0,0.0,0.0,0.0,0.0
391140,0.025865,0.024305,-0.001413,0.0,0.0,0.0,0.0,0.0,0.0,3.0,0.295373,0.3463,0.289705,0.36246,0.0,0.0,0.0,-0.0,-0.0,-0.0,0.0,0.0,0.0,0.0,0.0,0.0
391160,0.026109,0.024183,-0.001415,0.0,0.0,0.0,0.0,0.0,0.0,3.0,0.292146,0.347936,0.291841,0.361756,0.0,0.0,0.0,-0.0,-0.0,-0.0,0.0,0.0,0.0,0.0,0.0,0.0
391180,0.026109,0.024305,-0.001416,0.0,0.0,0.0,0.0,0.0,0.0,3.0,0.299252,0.342085,0.29451,0.359836,0.0,0.0,0.0,-0.0,-0.0,-0.0,0.0,0.0,0.0,0.0,0.0,0.0
391200,0.026109,0.024183,-0.001415,0.0,0.0,0.0,0.0,0.0,0.0,3.0,0.2966,0.346659,0.289164,0.361586,0.0,0.0,0.0,-0.0,-0.0,-0.0,0.0,0.0,0.0,0.0,0.0,0.0
391220,0.026108,0.024307,-0.001538,0.0,0.0,0.0,0.0,0.0,0.0,3.0,0.301069,0.340314,0.294281,0.360239,0.0,0.0,0.0,-0.0,-0.0,-0.0,0.0,0.0,0.0,0.0,0.0,0.0
391240,0.02623,0.024185,-0.001538,0.0,0.0,0.0,0.0,0.0,0.0,3.0,0.297969,0.343514,0.293196,0.360489,0.0,0.0,0.0,-0.0,-0.0,-0.0,0.0,0.0,0.0,0.0,0.0,0.0
391260,0.02623,0.024063,-0.001537,0.0,0.0,0.0,0.0,0.0,0.0,3.0,0.299297,0.342758,0.291567,0.361392,0.0,0.0,0.0,-0.0,-0.0,-0.0,0.0,0.0,0.0,0.0,0.0,0.0
391280,0.02623,0.023819,-0.001533,0.0,0.0,0.0,0.0,0.0,0.0,3.0,0.300872,0.342177,0.294953,0.35814,0.0,0.0,0.0,-0.0,-0.0,-0.0,0.0,0.0,0.0,0.0,0.0,0.0
391300,0.026229,0.023576,-0.001652,0.0,0.0,0.0,0.0,0.0,0.0,3.0,0.296761,0.344802,0.291145,0.361746,0.0,0.0,0.0,-0.0,-0.0,-0.0,0.0,0.0,0.0,0.0,0.0,0.0
391320,0.02635,0.023334,-0.001773,0.0,0.0,0.0,0.0,0.0,0.0,3.0,0.299413,0.341365,0.296728,0.358683,0.0,0.0,0.0,-0.0,-0.0,-0.0,0.0,0.0,0.0,0.0,0.0,0.0
391340,0.026472,0.022846,-0.001768,0.0,0.0,0.0,0.0,0.0,0.0,3.0,0.296621,0.343797,0.295298,0.359665,0.0,0.0,0.0,-0.0,-0.0,-0.0,0.0,0.0,0.0,0.0,0.0,0.0
391360,0.026471,0.022847,-0.00189,0.0,0.0,0.0,0.0,0.0,0.0,3.0,0.294555,0.341702,0.295345,0.363155,0.0,0.0,0.0,-0.0,-0.0,-0.0,0.0,0.0,0.0,0.0,0.0,0.0
391380,0.02647,0.022727,-0.00201,0.0,0.0,0.0,0.0,0.0,0.0,3.0,0.29583,0.34059,0.296587,0.362274,0.0,0.0,0.0,-0.0,-0.0,-0.0,0.0,0.0,0.0,0.0,0.0,0.0
391400,0.026223,0.02273,-0.002252,0.0,0.0,0.0,0.0,0.0,0.0,3.0,0.297607,0.339629,0.29521,0.362847,0.0,0.0,0.0,-0.0,-0.0,-0.0,0.0,0.0,0.0,0.0,0.0,0.0
391420,0.0261,0.022487,-0.002369,0.0,0.0,0.0,0.0,0.0,0.0,3.0,0.294541,0.341539,0.295065,0.363527,0.0,0.0,0.0,-0.0,-0.0,-0.0,0.0,0.0,0.0,0.0,0.0,0.0
391440,0.025978,0.022365,-0.002366,0.0,0.0,0.0,0.0,0.0,0.0,3.0,0.294364,0.342399,0.295259,0.362719,0.0,0.0,0.0,-0.0,-0.0,-0.0,0.0,0.0,0.0,0.0,0.0,0.0
391460,0.025977,0.022001,-0.002483,0.0,0.0,0.0,0.0,0.0,0.0,3.0,0.296182,0.341406,0.297261,0.360735,0.0,0.0,0.0,-0.0,-0.0,-0.0,0.0,0.0,0.0,0.0,0.0,0.0
391480,0.025856,0.021512,-0.002476,0.0,0.0,0.0,0.0,0.0,0.0,3.0,0.294735,0.343371,0.296535,0.360561,0.0,0.0,0.0,-0.0,-0.0,-0.0,0.0,0.0,0.0,0.0,0.0,0.0
391500,0.025855,0.02127,-0.002595,0.0,0.0,0.0,0.0,0.0,0.0,3.0,0.292026,0.345538,0.291982,0.364,0.0,0.0,0.0,-0.0,-0.0,-0.0,0.0,0.0,0.0,0.0,0.0,0.0
391520,0.025855,0.021026,-0.002592,0.0,0.0,0.0,0.0,0.0,0.0,3.0,0.289829,0.34579,0.292931,0.364678,0.0,0.0,0.0,-0.0,-0.0,-0.0,0.0,0.0,0.0,0.0,0.0,0.0
391540,0.025854,0.021027,-0.002714,0.0,0.0,0.0,0.0,0.0,0.0,3.0,0.29823,0.338364,0.298239,0.361217,0.0,0.0,0.0,-0.0,-0.0,-0.0,0.0,0.0,0.0,0.0,0.0,0.0
391560,0.025975,0.020907,-0.002835,0.0,0.0,0.0,0.0,0.0,0.0,3.0,0.294576,0.340983,0.296868,0.362646,0.0,0.0,0.0,-0.0,-0.0,-0.0,0.0,0.0,0.0,0.0,0.0,0.0
391580,0.025853,0.020785,-0.002833,0.0,0.0,0.0,0.0,0.0,0.0,3.0,0.291675,0.342771,0.293581,0.365635,0.0,0.0,0.0,-0.0,-0.0,-0.0,0.0,0.0,0.0,0.0,0.0,0.0
391600,0.025731,0.020662,-0.00283,0.0,0.0,0.0,0.0,0.0,0.0,3.0,0.296233,0.339237,0.296145,0.363544,0.0,0.0,0.0,-0.0,-0.0,-0.0,0.0,0.0,0.0,0.0,0.0,0.0
391620,0.025608,0.02042,-0.002948,0.0,0.0,0.0,0.0,0.0,0.0,3.0,0.29751,0.338436,0.299119,0.361024,0.0,0.0,0.0,-0.0,-0.0,-0.0,0.0,0.0,0.0,0.0,0.0,0.0
391640,0.025363,0.020299,-0.003066,0.0,0.0,0.0,0.0,0.0,0.0,3.0,0.296798,0.338229,0.297874,0.362718,0.0,0.0,0.0,-0.0,-0.0,-0.0,0.0,0.0,0.0,0.0,0.0,0.0
391660,0.025363,0.020055,-0.003063,0.0,0.0,0.0,0.0,0.0,0.0,3.0,0.292934,0.341745,0.298036,0.362283,0.0,0.0,0.0,-0.0,-0.0,-0.0,0.0,0.0,0.0,0.0,0.0,0.0
391680,0.025241,0.020055,-0.003061,0.0,0.0,0.0,0.0,0.0,0.0,3.0,0.292785,0.342832,0.293221,0.365027,0.0,0.0,0.0,-0.0,-0.0,-0.0,0.0,0.0,0.0,0.0,0.0,0.0
391700,0.025241,0.01969,-0.003179,0.0,0.0,0.0,0.0,0.0,0.0,3.0,0.293699,0.34027,0.299577,0.361883,0.0,0.0,0.0,-0.0,-0.0,-0.0,0.0,0.0,0.0,0.0,0.0,0.0
391720,0.024996,0.019447,-0.003295,0.0,0.0,0.0,0.0,0.0,0.0,3.0,0.29764,0.340684,0.298521,0.359309,0.0,0.0,0.0,-0.0,-0.0,-0.0,0.0,0.0,0.0,0.0,0.0,0.0
391740,0.024873,0.01896,-0.00341,0.0,0.0,0.0,0.0,0.0,0.0,3.0,0.297808,0.339853,0.30352,0.355999,0.0,0.0,0.0,-0.0,-0.0,-0.0,0.0,0.0,0.0,0.0,0.0,0.0
391760,0.024752,0.018594,-0.003405,0.0,0.0,0.0,0.0,0.0,0.0,3.0,0.294957,0.341953,0.297451,0.361013,0.0,0.0,0.0,-0.0,-0.0,-0.0,0.0,0.0,0.0,0.0,0.0,0.0
391780,0.024505,0.018472,-0.003522,0.0,0.0,0.0,0.0,0.0,0.0,3.0,0.297541,0.340459,0.296978,0.360787,0.0,0.0,0.0,-0.0,-0.0,-0.0,0.0,0.0,0.0,0.0,0.0,0.0
391800,0.024383,0.018107,-0.003639,0.0,0.0,0.0,0.0,0.0,0.0,3.0,0.301366,0.336655,0.300693,0.358424,0.0,0.0,0.0,-0.0,-0.0,-0.0,0.0,0.0,0.0,0.0,0.0,0.0
391820,0.024139,0.017985,-0.003635,0.0,0.0,0.0,0.0,0.0,0.0,3.0,0.2979,0.340727,0.295242,0.361589,0.0,0.0,0.0,-0.0,-0.0,-0.0,0.0,0.0,0.0,0.0,0.0,0.0
391840,0.024139,0.017863,-0.003634,0.0,0.0,0.0,0.0,0.0,0.0,3.0,0.29286,0.343269,0.292761,0.364909,0.0,0.0,0.0,-0.0,-0.0,-0.0,0.0,0.0,0.0,0.0,0.0,0.0
391860,0.023772,0.017741,-0.003751,0.0,0.0,0.0,0.0,0.0,0.0,3.0,0.297602,0.340032,0.297385,0.360822,0.0,0.0,0.0,-0.0,-0.0,-0.0,0.0,0.0,0.0,0.0,0.0,0.0
391880,0.023527,0.01762,-0.00387,0.0,0.0,0.0,0.0,0.0,0.0,3.0,0.301616,0.334813,0.301435,0.359327,0.0,0.0,0.0,-0.0,-0.0,-0.0,0.0,0.0,0.0,0.0,0.0,0.0
391900,0.02316,0.017621,-0.003988,0.0,0.0,0.0,0.0,0.0,0.0,3.0,0.297131,0.339661,0.297058,0.361777,0.0,0.0,0.0,-0.0,-0.0,-0.0,0.0,0.0,0.0,0.0,0.0,0.0
391920,0.023038,0.017377,-0.003985,0.0,0.0,0.0,0.0,0.0,0.0,3.0,0.29574,0.338697,0.299551,0.361804,0.0,0.0,0.0,-0.0,-0.0,-0.0,0.0,0.0,0.0,0.0,0.0,0.0
391940,0.022794,0.017134,-0.004102,0.0,0.0,0.0,0.0,0.0,0.0,3.0,0.297869,0.339733,0.301133,0.35797,0.0,0.0,0.0,-0.0,-0.0,-0.0,0.0,0.0,0.0,0.0,0.0,0.0
391960,0.02255,0.016524,-0.004215,0.0,0.0,0.0,0.0,0.0,0.0,3.0,0.296881,0.341252,0.297739,0.359972,0.0,0.0,0.0,-0.0,-0.0,-0.0,0.0,0.0,0.0,0.0,0.0,0.0
391980,0.022306,0.01628,-0.00421,0.0,0.0,0.0,0.0,0.0,0.0,3.0,0.296316,0.341457,0.299563,0.358797,0.0,0.0,0.0,-0.0,-0.0,-0.0,0.0,0.0,0.0,0.0,0.0,0.0
392000,0.022062,0.015915,-0.004326,0.0,0.0,0.0,0.0,0.0,0.0,3.0,0.298765,0.338725,0.298815,0.360025,0.0,0.0,0.0,-0.0,-0.0,-0.0,0.0,0.0,0.0,0.0,0.0,0.0
392020,0.02194,0.015672,-0.004445,0.0,0.0,0.0,0.0,0.0,0.0,3.0,0.302295,0.337108,0.302605,0.355745,0.0,0.0,0.0,-0.0,-0.0,-0.0,0.0,0.0,0.0,0.0,0.0,0.0
392040,0.021696,0.01494,-0.004557,0.0,0.0,0.0,0.0,0.0,0.0,3.0,0.297183,0.341691,0.298932,0.358401,0.0,0.0,0.0,-0.0,-0.0,-0.0,0.0,0.0,0.0,0.0,0.0,0.0
392060,0.021453,0.014451,-0.00455,0.0,0.0,0.0,0.0,0.0,0.0,3.0,0.298248,0.340708,0.298889,0.358527,0.0,0.0,0.0,-0.0,-0.0,-0.0,0.0,0.0,0.0,0.0,0.0,0.0
392080,0.021209,0.014086,-0.004666,0.0,0.0,0.0,0.0,0.0,0.0,3.0,0.300331,0.339393,0.298396,0.358508,0.0,0.0,0.0,-0.0,-0.0,-0.0,0.0,0.0,0.0,0.0,0.0,0.0
392100,0.020965,0.013843,-0.004784,0.0,0.0,0.0,0.0,0.0,0.0,3.0,0.299568,0.337231,0.302102,0.358195,0.0,0.0,0.0,-0.0,-0.0,-0.0,0.0,0.0,0.0,0.0,0.0,0.0
392120,0.02072,0.0136,-0.005024,0.0,0.0,0.0,0.0,0.0,0.0,3.0,0.301526,0.336985,0.300624,0.358047,0.0,0.0,0.0,-0.0,-0.0,-0.0,0.0,0.0,0.0,0.0,0.0,0.0
392140,0.020476,0.013478,-0.005021,0.0,0.0,0.0,0.0,0.0,0.0,3.0,0.30123,0.336361,0.304783,0.355532,0.0,0.0,0.0,-0.0,-0.0,-0.0,0.0,0.0,0.0,0.0,0.0,0.0
392160,0.020354,0.013235,-0.00514,0.0,0.0,0.0,0.0,0.0,0.0,3.0,0.297549,0.339946,0.300682,0.358376,0.0,0.0,0.0,-0.0,-0.0,-0.0,0.0,0.0,0.0,0.0,0.0,0.0
392180,0.020231,0.012991,-0.005259,0.0,0.0,0.0,0.0,0.0,0.0,3.0,0.302235,0.335422,0.306567,0.35414,0.0,0.0,0.0,-0.0,-0.0,-0.0,0.0,0.0,0.0,0.0,0.0,0.0
392200,0.020109,0.01287,-0.005379,0.0,0.0,0.0,0.0,0.0,0.0,3.0,0.300496,0.338633,0.300959,0.35707,0.0,0.0,0.0,-0.0,-0.0,-0.0,0.0,0.0,0.0,0.0,0.0,0.0
392220,0.019987,0.012626,-0.005376,0.0,0.0,0.0,0.0,0.0,0.0,3.0,0.298054,0.339648,0.299638,0.35908,0.0,0.0,0.0,-0.0,-0.0,-0.0,0.0,0.0,0.0,0.0,0.0,0.0
392240,0.019866,0.012381,-0.005373,0.0,0.0,0.0,0.0,0.0,0.0,3.0,0.299984,0.339656,0.300113,0.357189,0.0,0.0,0.0,-0.0,-0.0,-0.0,0.0,0.0,0.0,0.0,0.0,0.0
392260,0.019744,0.012016,-0.00549,0.0,0.0,0.0,0.0,0.0,0.0,3.0,0.300017,0.339039,0.301801,0.3564,0.0,0.0,0.0,-0.0,-0.0,-0.0,0.0,0.0,0.0,0.0,0.0,0.0
392280,0.019377,0.012016,-0.00561,0.0,0.0,0.0,0.0,0.0,0.0,3.0,0.304093,0.335148,0.305156,0.354047,0.0,0.0,0.0,-0.0,-0.0,-0.0,0.0,0.0,0.0,0.0,0.0,0.0
392300,0.019133,0.011773,-0.005729,0.0,0.0,0.0,0.0,0.0,0.0,3.0,0.303473,0.33511,0.304127,0.355422,0.0,-0.0,0.0,-0.0,-0.0,-0.0,0.0,0.0,0.0,0.0,0.0,0.0
392320,0.018768,0.011528,-0.005724,0.0,0.0,0.0,0.0,0.0,0.0,3.0,0.29739,0.341126,0.299744,0.358134,0.0,-0.0,0.0,-0.0,-0.0,-0.0,0.0,0.0,0.0,0.0,0.0,0.0
392340,0.018647,0.011039,-0.005719,0.0,0.0,0.0,0.0,0.0,0.0,3.0,0.299048,0.338599,0.300275,0.35878,0.0,-0.0,0.0,-0.0,-0.0,-0.0,0.0,0.0,0.0,0.0,0.0,0.0
392360,0.01828,0.010794,-0.005836,0.0,0.0,0.0,0.0,0.0,0.0,3.0,0.300832,0.339763,0.302335,0.354642,-0.0,-0.0,0.0,-0.0,-0.0,-0.0,0.0,0.0,0.0,0.0,0.0,0.0
392380,0.017914,0.01055,-0.005954,0.0,0.0,0.0,0.0,0.0,0.0,3.0,0.304265,0.334327,0.30655,0.353525,-0.0,-0.0,0.0,-0.0,-0.0,-0.0,0.0,0.0,0.0,0.0,0.0,0.0
392400,0.017792,0.010306,-0.005951,0.0,0.0,0.0,0.0,0.0,0.0,3.0,0.300528,0.339201,0.30165,0.355963,-0.0,-0.0,0.0,-0.0,-0.0,-0.0,0.0,0.0,0.0,0.0,0.0,0.0
392420,0.017427,0.009939,-0.005946,0.0,0.0,0.0,0.0,0.0,0.0,3.0,0.300436,0.337285,0.301488,0.357949,-0.0,-0.0,0.0,-0.0,-0.0,-0.0,0.0,0.0,0.0,0.0,0.0,0.0
392440,0.017184,0.009572,-0.005941,0.0,0.0,0.0,0.0,0.0,0.0,3.0,0.303155,0.336173,0.303713,0.355028,-0.0,-0.0,0.0,-0.0,-0.0,-0.0,0.0,0.0,0.0,0.0,0.0,0.0
392460,0.016696,0.009327,-0.006059,0.0,0.0,0.0,0.0,0.0,0.0,3.0,0.30811,0.333019,0.307362,0.350887,-0.0,-0.0,0.0,-0.0,-0.0,-0.0,0.0,0.0,0.0,0.0,0.0,0.0
392480,0.016574,0.009084,-0.006179,0.0,0.0,0.0,0.0,0.0,0.0,3.0,0.304033,0.33419,0.307678,0.352908,-0.0,-0.0,0.0,-0.0,-0.0,-0.0,0.0,0.0,0.0,0.0,0.0,0.0
392500,0.016208,0.00896,-0.006176,0.0,0.0,0.0,0.0,0.0,0.0,3.0,0.301012,0.339378,0.302507,0.354723,-0.0,-0.0,0.0,-0.0,-0.0,-0.0,0.0,0.0,0.0,0.0,0.0,0.0
392520,0.015965,0.008594,-0.006172,0.0,0.0,0.0,0.0,0.0,0.0,3.0,0.300176,0.337121,0.303145,0.356986,-0.0,-0.0,0.0,-0.0,-0.0,-0.0,0.0,0.0,0.0,0.0,0.0,0.0
392540,0.015477,0.00847,-0.006169,0.0,0.0,0.0,0.0,0.0,0.0,3.0,0.302266,0.338428,0.301099,0.35574,-0.0,-0.0,0.0,-0.0,-0.0,-0.0,0.0,0.0,0.0,0.0,0.0,0.0
392560,0.015234,0.008226,-0.006288,0.0,0.0,0.0,0.0,0.0,0.0,3.0,0.303343,0.33773,0.300207,0.356237,-0.0,-0.0,0.0,-0.0,-0.0,-0.0,0.0,0.0,0.0,0.0,0.0,0.0
392580,0.014991,0.007859,-0.006285,0.0,0.0,0.0,0.0,0.0,0.0,3.0,0.304607,0.336681,0.302576,0.354296,-0.0,-0.0,0.0,-0.0,-0.0,-0.0,0.0,0.0,0.0,0.0,0.0,0.0
392600,0.01487,0.007614,-0.00616,0.0,0.0,0.0,0.0,0.0,0.0,3.0,0.30133,0.339378,0.299333,0.356999,-0.0,-0.0,0.0,-0.0,-0.0,-0.0,0.0,0.0,0.0,0.0,0.0,0.0
392620,0.014504,0.007491,-0.006158,0.0,0.0,0.0,0.0,0.0,0.0,3.0,0.301516,0.337652,0.302442,0.355992,-0.0,-0.0,0.0,-0.0,-0.0,-0.0,0.0,0.0,0.0,0.0,0.0,0.0
392640,0.014261,0.007246,-0.006155,0.0,0.0,0.0,0.0,0.0,0.0,3.0,0.30165,0.336579,0.302728,0.356652,-0.0,-0.0,0.0,-0.0,-0.0,-0.0,0.0,0.0,0.0,0.0,0.0,0.0
392660,0.014017,0.007123,-0.006154,0.0,0.0,0.0,0.0,0.0,0.0,3.0,0.300838,0.338828,0.301109,0.356498,-0.0,-0.0,0.0,-0.0,-0.0,-0.0,0.0,0.0,0.0,0.0,0.0,0.0
392680,0.014018,0.006878,-0.00603,0.0,0.0,0.0,0.0,0.0,0.0,3.0,0.296519,0.338814,0.304329,0.357326,-0.0,-0.0,0.0,-0.0,-0.0,-0.0,0.0,0.0,0.0,0.0,0.0,0.0
392700,0.013775,0.006633,-0.006027,0.0,0.0,0.0,0.0,0.0,0.0,3.0,0.298782,0.338485,0.303336,0.356663,-0.0,-0.0,0.0,-0.0,-0.0,-0.0,0.0,0.0,0.0,0.0,0.0,0.0
392720,0.013653,0.006511,-0.006026,0.0,0.0,0.0,0.0,0.0,0.0,3.0,0.300556,0.3389,0.304057,0.354285,-0.0,-0.0,0.0,-0.0,-0.0,-0.0,0.0,0.0,0.0,0.0,0.0,0.0
392740,0.013532,0.006387,-0.005903,0.0,0.0,0.0,0.0,0.0,0.0,3.0,0.304122,0.335056,0.305475,0.353849,-0.0,-0.0,0.0,-0.0,-0.0,-0.0,0.0,0.0,0.0,0.0,0.0,0.0
392760,0.013533,0.006021,-0.0059,0.0,0.0,0.0,0.0,0.0,0.0,3.0,0.300279,0.339722,0.303713,0.354009,-0.0,-0.0,0.0,-0.0,-0.0,-0.0,0.0,0.0,0.0,0.0,0.0,0.0
392780,0.013412,0.005654,-0.005775,0.0,0.0,0.0,0.0,0.0,0.0,3.0,0.299562,0.338717,0.300647,0.357975,-0.0,-0.0,0.0,-0.0,-0.0,-0.0,0.0,0.0,0.0,0.0,0.0,0.0
392800,0.013168,0.005653,-0.005775,0.0,0.0,0.0,0.0,0.0,0.0,3.0,0.302507,0.336643,0.302272,0.356273,-0.0,-0.0,0.0,-0.0,-0.0,-0.0,0.0,0.0,0.0,0.0,0.0,0.0
392820,0.012924,0.005408,-0.005773,0.0,0.0,0.0,0.0,0.0,0.0,3.0,0.300881,0.338601,0.304268,0.354135,-0.0,-0.0,0.0,-0.0,-0.0,-0.0,0.0,0.0,0.0,0.0,0.0,0.0
392840,0.012803,0.005164,-0.005771,0.0,0.0,0.0,0.0,0.0,0.0,3.0,0.300651,0.337991,0.30471,0.354532,-0.0,-0.0,0.0,-0.0,-0.0,-0.0,0.0,0.0,0.0,0.0,0.0,0.0
392860,0.01256,0.004796,-0.005646,0.0,0.0,0.0,0.0,0.0,0.0,3.0,0.296996,0.340005,0.303646,0.356391,-0.0,-0.0,0.0,-0.0,-0.0,-0.0,0.0,0.0,0.0,0.0,0.0,0.0
392880,0.012195,0.00455,-0.005521,0.0,0.0,0.0,0.0,0.0,0.0,3.0,0.296275,0.342396,0.299318,0.358139,-0.0,-0.0,0.0,-0.0,-0.0,-0.0,0.0,0.0,0.0,0.0,0.0,0.0
392900,0.011952,0.004061,-0.005518,0.0,0.0,0.0,0.0,0.0,0.0,3.0,0.30225,0.340256,0.302456,0.352936,-0.0,-0.0,0.0,-0.0,-0.0,-0.0,0.0,0.0,0.0,0.0,0.0,0.0
392920,0.011709,0.003694,-0.005515,0.0,0.0,0.0,0.0,0.0,0.0,3.0,0.3042,0.338353,0.30127,0.354112,-0.0,-0.0,0.0,-0.0,-0.0,-0.0,0.0,0.0,0.0,0.0,0.0,0.0
392940,0.011589,0.003084,-0.005511,0.0,0.0,0.0,0.0,0.0,0.0,3.0,0.299685,0.34193,0.30108,0.354509,-0.0,-0.0,0.0,-0.0,-0.0,-0.0,0.0,0.0,0.0,0.0,0.0,0.0
392960,0.011224,0.002594,-0.005386,0.0,0.0,0.0,0.0,0.0,0.0,3.0,0.302163,0.341939,0.29961,0.35369,-0.0,-0.0,0.0,-0.0,-0.0,-0.0,0.0,0.0,0.0,0.0,0.0,0.0
392980,0.010859,0.002104,-0.005383,0.0,0.0,0.0,0.0,0.0,0.087266,3.0,0.750912,0.15,0.751044,0.15,-0.0,-0.0,0.000222,-0.0,-0.0,0.088803,0.0,0.0,0.0,0.0,0.0,0.0
393000,0.010861,0.001972,-0.003551,0.0,0.0,0.0,0.0,0.0,0.087266,3.0,0.389872,0.215113,0.394612,0.244992,-0.0,-0.0,0.00268,-0.0,-0.0,0.155527,0.0,0.0,0.0,0.0,0.0,0.0
393020,0.010989,0.00182,0.002065,0.0,0.0,0.0,0.0,0.0,0.087266,3.0,0.283412,0.348179,0.295288,0.3653,-0.0,-0.0,0.005915,-0.0,-0.0,0.168523,0.0,0.0,0.0,0.0,0.0,0.0
393040,0.010505,0.001543,0.008293,0.0,0.0,0.0,0.0,0.0,0.087266,3.0,0.264273,0.367034,0.262882,0.38176,-0.0,-0.0,0.00933,0.0,-0.0,0.173907,0.0,0.0,0.0,0.0,0.0,0.0
393060,0.010142,0.001397,0.013299,0.0,0.0,0.0,0.0,0.0,0.087266,3.0,0.283685,0.354953,0.281499,0.368639,-0.0,-0.0,0.012839,0.0,-0.0,0.177823,0.0,0.0,0.0,0.0,0.0,0.0
393080,0.010143,0.001256,0.017084,0.0,0.0,0.0,0.0,0.0,0.087266,3.0,0.302153,0.337645,0.302892,0.355126,-0.0,-0.0,0.016419,0.0,-0.0,0.180783,0.0,0.0,0.0,0.0,0.0,0.0
393100,0.010027,0.001609,0.020015,0.0,0.0,0.0,0.0,0.0,0.087266,3.0,0.315099,0.32129,0.319137,0.345456,-0.0,-0.0,0.020052,0.0,-0.0,0.182875,0.0,0.0,0.0,0.0,0.0,0.0
393120,0.010029,0.001596,0.022578,0.0,0.0,0.0,0.0,0.0,0.087266,3.0,0.322203,0.314008,0.32821,0.337142,-0.0,-0.0,0.02372,0.0,-0.0,0.184155,0.0,0.0,0.0,0.0,0.0,0.0
393140,0.010028,0.001338,0.025264,0.0,0.0,0.0,0.0,0.0,0.087266,3.0,0.319857,0.320638,0.323067,0.338136,-0.0,-0.0,0.027408,0.0,-0.0,0.184675,0.0,0.0,0.0,0.0,0.0,0.0
393160,0.010024,0.000957,0.028316,0.0,0.0,0.0,0.0,0.0,0.087266,3.0,0.307695,0.332968,0.312201,0.347168,-0.0,-0.0,0.031101,0.0,-0.0,0.184487,0.0,0.0,0.0,0.0,0.0,0.0
393180,0.010023,0.000696,0.031617,0.0,0.0,0.0,0.0,0.0,0.087266,3.0,0.300453,0.339345,0.303291,0.354569,-0.0,-0.0,0.034786,0.0,-0.0,0.18364,0.0,0.0,0.0,0.0,0.0,0.0
393200,0.010013,7.1e-05,0.03467,0.0,0.0,0.0,0.0,0.0,0.087266,3.0,0.302493,0.338833,0.306786,0.350534,-0.0,-0.0,0.038448,0.0,-0.0,0.182183,0.0,0.0,0.0,0.0,0.0,0.0
393220,0.00976,-0.000427,0.037485,0.0,0.0,0.0,0.0,0.0,0.087266,3.0,0.307008,0.337326,0.308815,0.346503,-0.0,-0.0,0.042078,0.0,-0.0,0.180165,0.0,0.0,0.0,0.0,0.0,0.0
393240,0.0095,-0.001168,0.040294,0.0,0.0,0.0,0.0,0.0,0.087266,3.0,0.303911,0.340295,0.304798,0.349618,-0.0,-0.0,0.045663,0.0,-0.0,0.177631,0.0,0.0,0.0,0.0,0.0,0.0
393260,0.009233,-0.002153,0.043103,0.0,0.0,0.0,0.0,0.0,0.087266,3.0,0.301053,0.342827,0.302186,0.351658,-0.0,-0.0,0.049194,0.0,0.0,0.174625,0.0,0.0,0.0,0.0,0.0,0.0
393280,0.008845,-0.003011,0.045797,0.0,0.0,0.0,0.0,0.0,0.087266,3.0,0.305772,0.341594,0.302577,0.348648,-0.0,-0.0,0.052661,0.0,0.0,0.171192,0.0,0.0,0.0,0.0,0.0,0.0
393300,0.008454,-0.003867,0.048238,0.0,0.0,0.0,0.0,0.0,0.087266,3.0,0.307788,0.338955,0.305409,0.347154,-0.0,-0.0,0.056057,0.0,0.0,0.167372,0.0,0.0,0.0,0.0,0.0,0.0
393320,0.008062,-0.004722,0.050688,0.0,0.0,0.0,0.0,0.0,0.087266,3.0,0.302653,0.343732,0.305747,0.346509,-0.0,-0.0,0.059373,0.0,0.0,0.163206,0.0,0.0,0.0,0.0,0.0,0.0
393340,0.007654,-0.006065,0.05313,0.0,0.0,0.0,0.0,0.0,0.087266,3.0,0.304277,0.344684,0.304159,0.345543,-0.0,-0.0,0.062604,0.0,0.0,0.158732,0.0,0.0,0.0,0.0,0.0,0.0
393360,0.007126,-0.00728,0.055337,0.0,0.0,0.0,0.0,0.0,0.087266,3.0,0.308106,0.341462,0.307236,0.342866,-0.0,-0.0,0.065744,0.0,0.0,0.153986,0.0,0.0,0.0,0.0,0.0,0.0
393380,0.006961,-0.008505,0.057544,0.0,0.0,0.0,0.0,0.0,0.087266,3.0,0.305146,0.344038,0.307583,0.342535,-0.0,-0.0,0.068787,0.0,0.0,0.149005,0.0,0.0,0.0,0.0,0.0,0.0
393400,0.00679,-0.00985,0.05962,0.0,0.0,0.0,0.0,0.0,0.087266,3.0,0.303739,0.347651,0.300933,0.345713,-0.0,-0.0,0.071728,0.0,0.0,0.143821,0.0,0.0,0.0,0.0,0.0,0.0
393420,0.006616,-0.011196,0.061706,0.0,0.0,0.0,0.0,0.0,0.087266,3.0,0.305029,0.346097,0.306604,0.341397,-0.0,-0.0,0.074565,0.0,0.0,0.138467,0.0,0.0,0.0,0.0,0.0,0.0
393440,0.00644,-0.012541,0.063658,0.0,0.0,0.0,0.0,0.0,0.087266,3.0,0.305681,0.344337,0.306793,0.342457,-0.0,-0.0,0.077293,0.0,0.0,0.132973,0.0,0.0,0.0,0.0,0.0,0.0
393460,0.006149,-0.013637,0.065499,0.0,0.0,0.0,0.0,0.0,0.087266,3.0,0.303009,0.346425,0.305707,0.343552,-0.0,-0.0,0.079911,0.0,0.0,0.127367,0.0,0.0,0.0,0.0,0.0,0.0
393480,0.006104,-0.014618,0.067207,0.0,0.0,0.0,0.0,0.0,0.087266,3.0,0.301333,0.347632,0.304099,0.345097,-0.0,-0.0,0.082415,0.0,0.0,0.121677,0.0,0.0,0.0,0.0,0.0,0.0
393500,0.005945,-0.015351,0.068925,0.0,0.0,0.0,0.0,0.0,0.087266,3.0,0.300249,0.345171,0.30529,0.347453,-0.0,-0.0,0.084806,0.0,0.0,0.115927,0.0,0.0,0.0,0.0,0.0,0.0
393520,0.005911,-0.015965,0.070509,0.0,0.0,0.0,0.0,0.0,0.087266,3.0,0.305277,0.341159,0.309916,0.343276,-0.0,-0.0,0.087081,0.0,0.0,0.110143,0.0,0.0,0.0,0.0,0.0,0.0
393540,0.005747,-0.01682,0.071985,0.0,0.0,0.0,0.0,0.0,0.087266,3.0,0.304997,0.343752,0.306738,0.343676,-0.0,-0.0,0.08924,0.0,0.0,0.104346,0.0,0.0,0.0,0.0,0.0,0.0
393560,0.005338,-0.017664,0.073323,0.0,0.0,0.0,0.0,0.0,0.087266,3.0,0.306397,0.345606,0.304513,0.342516,-0.0,-0.0,0.091284,0.0,0.0,0.098558,0.0,0.0,0.0,0.0,0.0,0.0
393580,0.005171,-0.018518,0.074798,0.0,0.0,0.0,0.0,0.0,0.087266,3.0,0.304518,0.347605,0.304288,0.342283,-0.0,-0.0,0.093212,0.0,0.0,0.092797,0.0,0.0,0.0,0.0,0.0,0.0
393600,0.004892,-0.019121,0.076136,0.0,0.0,0.0,0.0,0.0,0.087266,3.0,0.304798,0.345219,0.303956,0.34474,-0.0,-0.0,0.095025,0.0,0.0,0.087082,0.0,0.0,0.0,0.0,0.0,0.0
393620,0.004734,-0.01973,0.077367,0.0,0.0,0.0,0.0,0.0,0.087266,3.0,0.30284,0.34811,0.30258,0.344631,-0.0,-0.0,0.096724,0.0,0.0,0.08143,0.0,0.0,0.0,0.0,0.0,0.0
393640,0.00445,-0.020455,0.078583,0.0,0.0,0.0,0.0,0.0,0.087266,3.0,0.307923,0.345311,0.304408,0.341586,-0.0,-0.0,0.098311,0.0,0.0,0.075855,0.0,0.0,0.0,0.0,0.0,0.0
393660,0.004174,-0.020935,0.079798,0.0,0.0,0.0,0.0,0.0,0.087266,3.0,0.302535,0.348109,0.303537,0.344084,-0.0,-0.0,0.099786,0.0,0.0,0.070372,0.0,0.0,0.0,0.0,0.0,0.0
393680,0.004142,-0.021426,0.080908,0.0,0.0,0.0,0.0,0.0,0.087266,3.0,0.303882,0.344669,0.306495,0.343911,-0.0,-0.0,0.101153,0.0,0.0,0.064993,0.0,0.0,0.0,0.0,0.0,0.0
393700,0.003877,-0.021662,0.082001,0.0,0.0,0.0,0.0,0.0,0.087266,3.0,0.301572,0.347014,0.302957,0.346477,-0.0,-0.0,0.102414,0.0,0.0,0.059729,0.0,0.0,0.0,0.0,0.0,0.0
393720,0.003729,-0.022026,0.082988,0.0,0.0,0.0,0.0,0.0,0.087266,3.0,0.300821,0.349159,0.302742,0.345115,-0.0,-0.0,0.103569,0.0,0.0,0.054592,0.0,0.0,0.0,0.0,0.0,0.0
393740,0.003459,-0.022383,0.083959,0.0,0.0,0.0,0.0,0.0,0.087266,3.0,0.306068,0.345882,0.303864,0.343069,-0.0,-0.0,0.104623,0.0,0.0,0.04959,0.0,0.0,0.0,0.0,0.0,0.0
393760,0.003322,-0.022501,0.084809,0.0,0.0,0.0,0.0,0.0,0.087266,3.0,0.302819,0.345054,0.30805,0.343085,-0.0,-0.0,0.105579,0.0,0.0,0.044731,0.0,0.0,0.0,0.0,0.0,0.0
393780,0.003175,-0.022864,0.085675,0.0,0.0,0.0,0.0,0.0,0.087266,3.0,0.304689,0.343999,0.30598,0.344338,-0.0,-0.0,0.106438,0.0,0.0,0.040023,0.0,0.0,0.0,0.0,0.0,0.0
393800,0.003027,-0.023225,0.086525,0.0,0.0,0.0,0.0,0.0,0.087266,3.0,0.302369,0.345477,0.30772,0.343322,-0.0,-0.0,0.107204,0.0,0.0,0.03547,0.0,0.0,0.0,0.0,0.0,0.0
393820,0.002758,-0.023581,0.087374,0.0,0.0,0.0,0.0,0.0,0.087266,3.0,0.304211,0.346086,0.30448,0.343922,-0.0,-0.0,0.10788,0.0,0.0,0.03108,0.0,0.0,0.0,0.0,0.0,0.0
393840,0.002605,-0.024066,0.088118,0.0,0.0,0.0,0.0,0.0,0.087266,3.0,0.307771,0.342006,0.308505,0.341515,-0.0,-0.0,0.10847,0.0,0.0,0.026854,0.0,0.0,0.0,0.0,0.0,0.0
393860,0.002358,-0.023933,0.088845,0.0,0.0,0.0,0.0,0.0,0.087266,3.0,0.306284,0.34248,0.306693,0.343887,-0.0,-0.0,0.108976,0.0,0.0,0.022798,0.0,0.0,0.0,0.0,0.0,0.0
393880,0.002334,-0.0243,0.089453,0.0,0.0,0.0,0.0,0.0,0.087266,3.0,0.309035,0.341405,0.307288,0.342073,-0.0,-0.0,0.109403,0.0,0.0,0.018913,0.0,0.0,0.0,0.0,0.0,0.0
393900,0.002078,-0.024411,0.090057,0.0,0.0,0.0,0.0,0.0,0.087266,3.0,0.307874,0.344089,0.305001,0.342356,-0.0,-0.0,0.109753,0.0,0.0,0.015202,0.0,0.0,0.0,0.0,0.0,0.0
393920,0.001937,-0.024651,0.09068,0.0,0.0,0.0,0.0,0.0,0.087266,3.0,0.307907,0.346518,0.303442,0.341194,-0.0,-0.0,0.11003,0.0,0.0,0.011665,0.0,0.0,0.0,0.0,0.0,0.0
393940,0.001675,-0.024884,0.091285,0.0,0.0,0.0,0.0,0.0,0.087266,3.0,0.307328,0.346686,0.303905,0.341132,-0.0,-0.0,0.110238,0.0,0.0,0.008303,0.0,0.0,0.0,0.0,0.0,0.0
393960,0.001528,-0.025245,0.091892,0.0,0.0,0.0,0.0,0.0,0.087266,3.0,0.303337,0.349855,0.304215,0.34104,-0.0,-0.0,0.11038,0.0,0.0,0.005116,0.0,0.0,0.0,0.0,0.0,0.0
393980,0.001517,-0.025367,0.092378,0.0,0.0,0.0,0.0,0.0,0.087266,3.0,0.304988,0.346692,0.30589,0.341441,-0.0,-0.0,0.110459,0.0,0.0,0.002102,0.0,0.0,0.0,0.0,0.0,0.0
394000,0.001383,-0.025483,0.092862,0.0,0.0,0.0,0.0,0.0,0.087266,3.0,0.303486,0.346468,0.306474,0.342447,-0.0,-0.0,0.11048,0.0,0.0,-0.000739,0.0,0.0,0.0,0.0,0.0,0.0
394020,0.001378,-0.025485,0.093243,0.0,0.0,0.0,0.0,0.0,0.087266,3.0,0.302427,0.346498,0.306042,0.343681,-0.0,-0.0,0.110444,0.0,0.0,-0.003409,0.0,0.0,0.0,0.0,0.0,0.0
394040,0.001244,-0.025601,0.093728,0.0,0.0,0.0,0.0,0.0,0.087266,3.0,0.304032,0.347637,0.305055,0.34201,-0.0,-0.0,0.110357,0.0,0.0,-0.00591,0.0,0.0,0.0,0.0,0.0,0.0
394060,0.001118,-0.025595,0.094091,0.0,0.0,0.0,0.0,0.0,0.087266,3.0,0.306557,0.345826,0.30736,0.339698,-0.0,-0.0,0.110221,0.0,0.0,-0.008246,0.0,0.0,0.0,0.0,0.0,0.0
394080,0.001119,-0.025473,0.094455,0.0,0.0,0.0,0.0,0.0,0.087266,3.0,0.305096,0.345241,0.306019,0.34271,-0.0,-0.0,0.11004,0.0,0.0,-0.010419,0.0,0.0,0.0,0.0,0.0,0.0
394100,0.00087,-0.025462,0.094816,0.0,0.0,0.0,0.0,0.0,0.087266,3.0,0.305301,0.346313,0.304801,0.342492,-0.0,-0.0,0.109816,0.0,0.0,-0.012432,0.0,0.0,0.0,0.0,0.0,0.0
394120,0.000622,-0.02545,0.095177,0.0,0.0,0.0,0.0,0.0,0.087266,3.0,0.308401,0.344521,0.305345,0.341167,-0.0,-0.0,0.109553,0.0,0.0,-0.01429,0.0,0.0,0.0,0.0,0.0,0.0
394140,0.000251,-0.025432,0.095537,0.0,0.0,0.0,0.0,0.0,0.087266,3.0,0.307467,0.345961,0.305562,0.340329,-0.0,-0.0,0.109254,0.0,0.0,-0.015995,0.0,0.0,0.0,0.0,0.0,0.0
394160,0.00012,-0.02555,0.095796,0.0,0.0,0.0,0.0,0.0,0.087266,3.0,0.30329,0.349913,0.30159,0.343243,-0.0,-0.0,0.108923,0.0,0.0,-0.017553,0.0,0.0,0.0,0.0,0.0,0.0
394180,-0.000134,-0.02566,0.096157,0.0,0.0,0.0,0.0,0.0,0.087266,3.0,0.305615,0.347912,0.3019,0.343054,-0.0,-0.0,0.108561,0.0,0.0,-0.018968,0.0,0.0,0.0,0.0,0.0,0.0
394200,-0.000143,-0.025782,0.0964,0.0,0.0,0.0,0.0,0.0,0.087266,3.0,0.308221,0.346524,0.306593,0.338194,-0.0,-0.0,0.108172,0.0,0.0,-0.020245,0.0,0.0,0.0,0.0,0.0,0.0
394220,-0.000274,-0.025897,0.096641,0.0,0.0,0.0,0.0,0.0,0.087266,3.0,0.308809,0.348115,0.301165,0.340704,-0.0,-0.0,0.107758,0.0,0.0,-0.021387,0.0,0.0,0.0,0.0,0.0,0.0
394240,-0.000407,-0.026013,0.097004,0.0,0.0,0.0,0.0,0.0,0.087266,3.0,0.308045,0.348414,0.302011,0.340347,-0.0,-0.0,0.107322,0.0,0.0,-0.022401,0.0,0.0,0.0,0.0,0.0,0.0
394260,-0.000526,-0.025885,0.097245,0.0,0.0,0.0,0.0,0.0,0.087266,3.0,0.303779,0.35118,0.297305,0.345076,-0.0,-0.0,0.106868,0.0,0.0,-0.023291,0.0,0.0,0.0,0.0,0.0,0.0
394280,-0.000529,-0.025885,0.097488,0.0,0.0,0.0,0.0,0.0,0.087266,3.0,0.302882,0.351344,0.298021,0.345075,-0.0,-0.0,0.106396,0.0,0.0,-0.024061,0.0,0.0,0.0,0.0,0.0,0.0
394300,-0.000654,-0.025879,0.097729,0.0,0.0,0.0,0.0,0.0,0.087266,3.0,0.305759,0.348169,0.305899,0.33925,-0.0,-0.0,0.105909,0.0,0.0,-0.024718,0.0,0.0,0.0,0.0,0.0,0.0
394320,-0.000668,-0.026124,0.097868,0.0,0.0,0.0,0.0,0.0,0.087266,3.0,0.306394,0.348798,0.30193,0.341453,-0.0,-0.0,0.105411,0.0,0.0,-0.025267,0.0,0.0,0.0,0.0,0.0,0.0
394340,-0.001029,-0.025984,0.097985,0.0,0.0,0.0,0.0,0.0,0.087266,3.0,0.301436,0.351471,0.29988,0.344623,-0.0,-0.0,0.104902,0.0,0.0,-0.025712,0.0,0.0,0.0,0.0,0.0,0.0
394360,-0.001034,-0.025984,0.098349,0.0,0.0,0.0,0.0,0.0,0.087266,3.0,0.300134,0.351424,0.296721,0.34832,-0.0,-0.0,0.104385,0.0,0.0,-0.026059,0.0,0.0,0.0,0.0,0.0,0.0
394380,-0.001151,-0.025856,0.098469,0.0,0.0,0.0,0.0,0.0,0.087266,3.0,0.299439,0.351144,0.299959,0.346543,-0.0,-0.0,0.103862,0.0,0.0,-0.026313,0.0,0.0,0.0,0.0,0.0,0.0
394400,-0.001269,-0.025727,0.098589,0.0,0.0,0.0,0.0,0.0,0.087266,3.0,0.300946,0.350272,0.300421,0.345809,-0.0,-0.0,0.103334,0.0,0.0,-0.026478,0.0,0.0,0.0,0.0,0.0,0.0
394420,-0.00127,-0.025727,0.09871,0.0,0.0,0.0,0.0,0.0,0.087266,3.0,0.303837,0.348082,0.303955,0.342659,-0.0,-0.0,0.102804,0.0,0.0,-0.026561,0.0,0.0,0.0,0.0,0.0,0.0
394440,-0.001383,-0.025477,0.098951,0.0,0.0,0.0,0.0,0.0,0.087266,3.0,0.299736,0.352382,0.298491,0.346238,-0.0,-0.0,0.102272,0.0,0.0,-0.026567,0.0,0.0,0.0,0.0,0.0,0.0
394460,-0.001501,-0.025349,0.099071,0.0,0.0,0.0,0.0,0.0,0.087266,3.0,0.300373,0.351512,0.299024,0.346166,-0.0,-0.0,0.101741,0.0,0.0,-0.026499,0.0,0.0,0.0,0.0,0.0,0.0
394480,-0.001624,-0.025343,0.099191,0.0,0.0,0.0,0.0,0.0,0.087266,3.0,0.304883,0.348264,0.303461,0.342002,0.0,0.0,0.101212,0.0,0.0,-0.026363,0.0,0.0,0.0,0.0,0.0,0.0
394500,-0.001752,-0.025459,0.099189,0.0,0.0,0.0,0.0,0.0,0.087266,3.0,0.305233,0.348813,0.302003,0.342374,0.0,0.0,0.100687,0.0,0.0,-0.026164,0.0,0.0,0.0,0.0,0.0,0.0
394520,-0.001876,-0.025452,0.099309,0.0,0.0,0.0,0.0,0.0,0.087266,3.0,0.303759,0.349201,0.30166,0.343517,0.0,0.0,0.100165,0.0,0.0,-0.025906,0.0,0.0,0.0,0.0,0.0,0.0
394540,-0.002115,-0.025318,0.099427,0.0,0.0,0.0,0.0,0.0,0.087266,3.0,0.302968,0.350419,0.299507,0.344728,0.0,0.0,0.099649,0.0,0.0,-0.025594,0.0,0.0,0.0,0.0,0.0,0.0
394560,-0.002116,-0.025318,0.099549,0.0,0.0,0.0,0.0,0.0,0.087266,3.0,0.299946,0.352399,0.2971,0.347179,0.0,0.0,0.09914,0.0,0.0,-0.025232,0.0,0.0,0.0,0.0,0.0,0.0
394580,-0.002232,-0.02519,0.099547,0.0,0.0,0.0,0.0,0.0,0.087266,3.0,0.304526,0.350653,0.30111,0.341835,0.0,0.0,0.098638,0.0,0.0,-0.024825,0.0,0.0,0.0,0.0,0.0,0.0
394600,-0.002348,-0.025062,0.099546,0.0,0.0,0.0,0.0,0.0,0.087266,3.0,0.304669,0.351536,0.298672,0.342834,0.0,0.0,0.098145,0.0,0.0,-0.024376,0.0,0.0,0.0,0.0,0.0,0.0
394620,-0.002587,-0.024928,0.099664,0.0,0.0,0.0,0.0,0.0,0.087266,3.0,0.304254,0.351386,0.299716,0.342474,0.0,0.0,0.097661,0.0,0.0,-0.023891,0.0,0.0,0.0,0.0,0.0,0.0
394640,-0.002709,-0.024922,0.099663,0.0,0.0,0.0,0.0,0.0,0.087266,3.0,0.299986,0.35493,0.295301,0.345997,0.0,0.0,0.097187,0.0,0.0,-0.023371,0.0,0.0,0.0,0.0,0.0,0.0
394660,-0.002711,-0.024921,0.099784,0.0,0.0,0.0,0.0,0.0,0.087266,3.0,0.298874,0.35452,0.296623,0.346266,0.0,0.0,0.096724,0.0,0.0,-0.022822,0.0,0.0,0.0,0.0,0.0,0.0
394680,-0.002947,-0.024788,0.09966,0.0,0.0,0.0,0.0,0.0,0.087266,3.0,0.303288,0.350749,0.300023,0.343694,0.0,0.0,0.096272,0.0,0.0,-0.022247,0.0,0.0,0.0,0.0,0.0,0.0
394700,-0.002941,-0.024666,0.09966,0.0,0.0,0.0,0.0,0.0,0.087266,3.0,0.301713,0.350238,0.300508,0.345135,0.0,0.0,0.095831,0.0,0.0,-0.021649,0.0,0.0,0.0,0.0,0.0,0.0
394720,-0.003051,-0.024416,0.099658,0.0,0.0,0.0,0.0,0.0,0.087266,3.0,0.298508,0.354001,0.296339,0.347326,0.0,0.0,0.095403,0.0,0.0,-0.021032,0.0,0.0,0.0,0.0,0.0,0.0
394740,-0.003052,-0.024415,0.09978,0.0,0.0,0.0,0.0,0.0,0.087266,3.0,0.299002,0.353896,0.295065,0.348055,0.0,0.0,0.094987,0.0,0.0,-0.020398,0.0,0.0,0.0,0.0,0.0,0.0
394760,-0.003046,-0.024294,0.09978,0.0,0.0,0.0,0.0,0.0,0.087266,3.0,0.29801,0.354579,0.296741,0.346813,0.0,0.0,0.094584,0.0,0.0,-0.019751,0.0,0.0,0.0,0.0,0.0,0.0
394780,-0.003162,-0.024166,0.099779,0.0,0.0,0.0,0.0,0.0,0.087266,3.0,0.303903,0.352727,0.297654,0.343091,0.0,0.0,0.094194,0.0,0.0,-0.019093,0.0,0.0,0.0,0.0,0.0,0.0
394800,-0.003289,-0.024282,0.099656,0.0,0.0,0.0,0.0,0.0,0.087266,3.0,0.302126,0.351469,0.299395,0.344451,0.0,0.0,0.093817,0.0,0.0,-0.018428,0.0,0.0,0.0,0.0,0.0,0.0
394820,-0.003404,-0.024154,0.099654,0.0,0.0,0.0,0.0,0.0,0.087266,3.0,0.301543,0.351793,0.300961,0.343303,0.0,0.0,0.093453,0.0,0.0,-0.017756,0.0,0.0,0.0,0.0,0.0,0.0
394840,-0.003404,-0.024154,0.099654,0.0,0.0,0.0,0.0,0.0,0.087266,3.0,0.300965,0.351655,0.300087,0.344656,0.0,0.0,0.093103,0.0,0.0,-0.017082,0.0,0.0,0.0,0.0,0.0,0.0
394860,-0.003514,-0.023904,0.099653,0.0,0.0,0.0,0.0,0.0,0.087266,3.0,0.303877,0.350367,0.301624,0.34225,0.0,0.0,0.092767,0.0,0.0,-0.016407,0.0,0.0,0.0,0.0,0.0,0.0
394880,-0.003513,-0.023904,0.099532,0.0,0.0,0.0,0.0,0.0,0.087266,3.0,0.306449,0.34903,0.302429,0.340743,0.0,0.0,0.092444,0.0,0.0,-0.015734,0.0,0.0,0.0,0.0,0.0,0.0
394900,-0.003629,-0.023776,0.09953,0.0,0.0,0.0,0.0,0.0,0.087266,3.0,0.300227,0.355027,0.297873,0.343604,0.0,0.0,0.092134,0.0,0.0,-0.015063,0.0,0.0,0.0,0.0,0.0,0.0
394920,-0.003629,-0.023776,0.09953,0.0,0.0,0.0,0.0,0.0,0.087266,3.0,0.304093,0.35345,0.296834,0.342853,0.0,0.0,0.091838,0.0,0.0,-0.014398,0.0,0.0,0.0,0.0,0.0,0.0
394940,-0.003622,-0.023654,0.09953,0.0,0.0,0.0,0.0,0.0,0.087266,3.0,0.302291,0.353292,0.29723,0.344212,0.0,0.0,0.091555,0.0,0.0,-0.013739,0.0,0.0,0.0,0.0,0.0,0.0
394960,-0.003737,-0.023526,0.099408,0.0,0.0,0.0,0.0,0.0,0.087266,3.0,0.301756,0.355853,0.297322,0.34191,0.0,0.0,0.091285,0.0,0.0,-0.013088,0.0,0.0,0.0,0.0,0.0,0.0
394980,-0.003743,-0.023648,0.099408,0.0,0.0,0.0,0.0,0.0,0.087266,3.0,0.301953,0.354622,0.295611,0.344435,0.0,0.0,0.091028,0.0,0.0,-0.012447,0.0,0.0,0.0,0.0,0.0,0.0
395000,-0.003981,-0.023514,0.099405,0.0,0.0,0.0,0.0,0.0,0.087266,3.0,0.301596,0.354346,0.298035,0.343037,0.0,0.0,0.090784,0.0,0.0,-0.011816,0.0,0.0,0.0,0.0,0.0,0.0
395020,-0.003975,-0.023392,0.099405,0.0,0.0,0.0,0.0,0.0,0.087266,3.0,0.299375,0.353782,0.296496,0.346717,0.0,0.0,0.090552,0.0,0.0,-0.011198,0.0,0.0,0.0,0.0,0.0,0.0
395040,-0.003949,-0.022905,0.099284,0.0,0.0,0.0,0.0,0.0,0.087266,3.0,0.300508,0.352879,0.299634,0.344149,0.0,0.0,0.090333,0.0,0.0,-0.010593,0.0,0.0,0.0,0.0,0.0,0.0
395060,-0.003942,-0.022783,0.099163,0.0,0.0,0.0,0.0,0.0,0.087266,3.0,0.303205,0.354805,0.294698,0.343934,0.0,0.0,0.090125,0.0,0.0,-0.010001,0.0,0.0,0.0,0.0,0.0,0.0
395080,-0.004051,-0.022533,0.099162,0.0,0.0,0.0,0.0,0.0,0.087266,3.0,0.304567,0.353634,0.298839,0.340595,0.0,0.0,0.08993,0.0,0.0,-0.009425,0.0,0.0,0.0,0.0,0.0,0.0
395100,-0.004161,-0.022284,0.099161,0.0,0.0,0.0,0.0,0.0,0.087266,3.0,0.299856,0.35618,0.295376,0.344745,0.0,0.0,0.089745,0.0,0.0,-0.008864,0.0,0.0,0.0,0.0,0.0,0.0
395120,-0.00427,-0.022034,0.099039,0.0,0.0,0.0,0.0,0.0,0.087266,3.0,0.304618,0.350901,0.299545,0.342808,0.0,0.0,0.089572,0.0,0.0,-0.008319,0.0,0.0,0.0,0.0,0.0,0.0
395140,-0.004511,-0.022023,0.098793,0.0,0.0,0.0,0.0,0.0,0.087266,3.0,0.305306,0.35223,0.302682,0.338178,0.0,0.0,0.08941,0.0,0.0,-0.007792,0.0,0.0,0.0,0.0,0.0,0.0
395160,-0.004625,-0.021894,0.098652,0.0,0.0,0.0,0.0,0.0,0.087266,3.0,0.306435,0.351938,0.300623,0.339259,0.0,0.0,0.089258,0.0,0.0,-0.007281,0.0,0.0,0.0,0.0,0.0,0.0
395180,-0.00474,-0.021766,0.09853,0.0,0.0,0.0,0.0,0.0,0.087266,3.0,0.301738,0.355417,0.295891,0.343557,0.0,0.0,0.089116,0.0,0.0,-0.006788,0.0,0.0,0.0,0.0,0.0,0.0
395200,-0.004844,-0.021394,0.098529,0.0,0.0,0.0,0.0,0.0,0.087266,3.0,0.303639,0.35486,0.294353,0.343789,0.0,0.0,0.088984,0.0,0.0,-0.006312,0.0,0.0,0.0,0.0,0.0,0.0
395220,-0.004836,-0.021273,0.098408,0.0,0.0,0.0,0.0,0.0,0.087266,3.0,0.303689,0.355468,0.297683,0.340376,0.0,0.0,0.088861,0.0,0.0,-0.005855,0.0,0.0,0.0,0.0,0.0,0.0
395240,-0.005073,-0.021139,0.098284,0.0,0.0,0.0,0.0,0.0,0.087266,3.0,0.30886,0.353393,0.297298,0.3384,0.0,0.0,0.088747,0.0,0.0,-0.005416,0.0,0.0,0.0,0.0,0.0,0.0
395260,-0.005304,-0.020884,0.098161,0.0,0.0,0.0,0.0,0.0,0.087266,3.0,0.308725,0.352327,0.297628,0.339369,0.0,0.0,0.088642,0.0,0.0,-0.004995,0.0,0.0,0.0,0.0,0.0,0.0
395280,-0.005406,-0.020512,0.098039,0.0,0.0,0.0,0.0,0.0,0.087266,3.0,0.301858,0.357056,0.294895,0.342545,0.0,0.0,0.088545,0.0,0.0,-0.004592,0.0,0.0,0.0,0.0,0.0,0.0
395300,-0.005637,-0.020257,0.097915,0.0,0.0,0.0,0.0,0.0,0.087266,3.0,0.307278,0.352256,0.299459,0.339173,0.0,0.0,0.088456,0.0,0.0,-0.004208,0.0,0.0,0.0,0.0,0.0,0.0
395320,-0.005746,-0.020008,0.097793,0.0,0.0,0.0,0.0,0.0,0.087266,3.0,0.305903,0.353399,0.300197,0.338544,0.0,0.0,0.088375,0.0,0.0,-0.003842,0.0,0.0,0.0,0.0,0.0,0.0
395340,-0.005849,-0.019636,0.097672,0.0,0.0,0.0,0.0,0.0,0.087266,3.0,0.302786,0.355668,0.293727,0.344169,0.0,0.0,0.088301,0.0,0.0,-0.003494,0.0,0.0,0.0,0.0,0.0,0.0
395360,-0.005951,-0.019265,0.09755,0.0,0.0,0.0,0.0,0.0,0.087266,3.0,0.301309,0.355953,0.295672,0.343534,0.0,0.0,0.088233,0.0,0.0,-0.003163,0.0,0.0,0.0,0.0,0.0,0.0
395380,-0.006056,-0.018893,0.09755,0.0,0.0,0.0,0.0,0.0,0.087266,3.0,0.300975,0.355019,0.295947,0.344564,0.0,0.0,0.088172,0.0,0.0,-0.00285,0.0,0.0,0.0,0.0,0.0,0.0
395400,-0.006273,-0.018394,0.097306,0.0,0.0,0.0,0.0,0.0,0.087266,3.0,0.306109,0.352416,0.296845,0.342197,0.0,0.0,0.088118,0.0,0.0,-0.002555,0.0,0.0,0.0,0.0,0.0,0.0
395420,-0.006364,-0.01778,0.097063,0.0,0.0,0.0,0.0,0.0,0.087266,3.0,0.303942,0.354085,0.296991,0.34219,0.0,0.0,0.088069,0.0,0.0,-0.002276,0.0,0.0,0.0,0.0,0.0,0.0
395440,-0.006582,-0.01728,0.096923,0.0,0.0,0.0,0.0,0.0,0.087266,3.0,0.308335,0.349915,0.298409,0.341571,0.0,0.0,0.088025,-0.0,0.0,-0.002014,0.0,0.0,0.0,0.0,0.0,0.0
395460,-0.006674,-0.016665,0.096803,0.0,0.0,0.0,0.0,0.0,0.087266,3.0,0.302626,0.352366,0.298811,0.343589,0.0,0.0,0.087987,-0.0,-0.0,-0.001768,0.0,0.0,0.0,0.0,0.0,0.0
395480,-0.006771,-0.016171,0.096682,0.0,0.0,0.0,0.0,0.0,0.087266,3.0,0.303284,0.352117,0.29763,0.344265,0.0,0.0,0.087953,-0.0,-0.0,-0.001538,0.0,0.0,0.0,0.0,0.0,0.0
395500,-0.006863,-0.015556,0.096561,0.0,0.0,0.0,0.0,0.0,0.087266,3.0,0.305487,0.351014,0.299969,0.341594,0.0,0.0,0.087924,-0.0,-0.0,-0.001324,0.0,0.0,0.0,0.0,0.0,0.0
395520,-0.007082,-0.015057,0.096439,0.0,0.0,0.0,0.0,0.0,0.087266,3.0,0.306494,0.350312,0.299212,0.342086,0.0,0.0,0.087899,-0.0,-0.0,-0.001124,0.0,0.0,0.0,0.0,0.0,0.0
395540,-0.007307,-0.01468,0.096317,0.0,0.0,0.0,0.0,0.0,0.087266,3.0,0.307024,0.350387,0.29867,0.342003,0.0,0.0,0.087878,-0.0,-0.0,-0.000939,0.0,0.0,0.0,0.0,0.0,0.0
395560,-0.007411,-0.014309,0.096196,0.0,0.0,0.0,0.0,0.0,0.087266,3.0,0.309058,0.350906,0.296613,0.341402,0.0,0.0,0.08786,-0.0,-0.0,-0.000768,0.0,0.0,0.0,0.0,0.0,0.0
395580,-0.007637,-0.013931,0.096195,0.0,0.0,0.0,0.0,0.0,0.087266,3.0,0.305495,0.354674,0.29061,0.345403,0.0,0.0,0.087846,-0.0,-0.0,-0.000611,0.0,0.0,0.0,0.0,0.0,0.0
395600,-0.00785,-0.013311,0.095953,0.0,0.0,0.0,0.0,0.0,0.087266,3.0,0.305665,0.353631,0.292168,0.345102,0.0,0.0,0.087835,-0.0,-0.0,-0.000466,0.0,0.0,0.0,0.0,0.0,0.0
395620,-0.008064,-0.01269,0.095832,0.0,0.0,0.0,0.0,0.0,0.087266,3.0,0.304313,0.353485,0.292433,0.346182,0.0,0.0,0.087827,-0.0,-0.0,-0.000334,0.0,0.0,0.0,0.0,0.0,0.0
395640,-0.008394,-0.011942,0.09571,0.0,0.0,0.0,0.0,0.0,0.087266,3.0,0.305732,0.352932,0.290877,0.346785,0.0,0.0,0.087821,-0.0,-0.0,-0.000214,0.0,0.0,0.0,0.0,0.0,0.0
395660,-0.008474,-0.011083,0.095592,0.0,0.0,0.0,0.0,0.0,0.087266,3.0,0.303174,0.352215,0.293436,0.347636,0.0,0.0,0.087818,-0.0,-0.0,-0.000106,0.0,0.0,0.0,0.0,0.0,0.0
