time_ms,roll,pitch,yaw,x,y,z,reference_roll,reference_pitch,reference_yaw,reference_throttle,throttle_1,throttle_2,throttle_3,throttle_4,roll_predicted,pitch_predicted,yaw_predicted,roll_rate_predicted,pitch_rate_predicted,yaw_rate_predicted,value1,value2,value3,value4,value5,value6
420640,0.008434,-0.008901,-0.002404,0.0,0.0,0.0,0.0,0.0,0.0,3.0,0.305414,0.347994,0.284566,0.356752,0.0,-0.0,0.000198,0.0,0.0,-0.000223,0.0,0.0,0.0,0.0,0.0,0.0
420660,0.008556,-0.008657,-0.002405,0.0,0.0,0.0,0.0,0.0,0.0,3.0,0.305614,0.347281,0.283954,0.357726,0.0,-0.0,0.000194,0.0,0.0,-0.000212,0.0,0.0,0.0,0.0,0.0,0.0
420680,0.008921,-0.008535,-0.002282,0.0,0.0,0.0,0.0,0.0,0.0,3.0,0.300022,0.350892,0.283451,0.359055,0.0,0.0,0.000189,0.0,0.0,-0.000201,0.0,0.0,0.0,0.0,0.0,0.0
420700,0.009165,-0.00829,-0.002282,0.0,0.0,0.0,0.0,0.0,0.0,3.0,0.300797,0.350067,0.283584,0.359149,0.0,0.0,0.000185,0.0,0.0,-0.000191,0.0,0.0,0.0,0.0,0.0,0.0
420720,0.009287,-0.008168,-0.002282,0.0,0.0,0.0,0.0,0.0,0.0,3.0,0.302614,0.349001,0.283047,0.359131,0.0,0.0,0.000182,0.0,0.0,-0.000182,0.0,0.0,0.0,0.0,0.0,0.0
420740,0.009531,-0.008168,-0.002281,0.0,0.0,0.0,0.0,0.0,0.0,3.0,0.302722,0.350025,0.28551,0.356254,0.0,0.0,0.000178,0.0,0.0,-0.000173,0.0,0.0,0.0,0.0,0.0,0.0
420760,0.009531,-0.008046,-0.002281,0.0,0.0,0.0,0.0,0.0,0.0,3.0,0.305376,0.349195,0.282921,0.356821,0.0,0.0,0.000175,0.0,0.0,-0.000165,0.0,0.0,0.0,0.0,0.0,0.0
420780,0.009897,-0.007923,-0.00228,0.0,0.0,0.0,0.0,0.0,0.0,3.0,0.302963,0.348968,0.285611,0.357015,0.0,0.0,0.000171,-0.0,0.0,-0.000157,0.0,0.0,0.0,0.0,0.0,0.0
420800,0.009897,-0.007801,-0.002281,0.0,0.0,0.0,0.0,0.0,0.0,3.0,0.303085,0.349862,0.283073,0.357905,0.0,0.0,0.000168,-0.0,0.0,-0.00015,0.0,0.0,0.0,0.0,0.0,0.0
420820,0.010141,-0.007679,-0.002281,0.0,0.0,0.0,0.0,0.0,0.0,3.0,0.302932,0.347936,0.285685,0.357984,0.0,0.0,0.000165,-0.0,0.0,-0.000143,0.0,0.0,0.0,0.0,0.0,0.0
420840,0.010263,-0.007679,-0.00228,0.0,0.0,0.0,0.0,0.0,0.0,3.0,0.30405,0.349841,0.28464,0.356007,0.0,0.0,0.000163,-0.0,0.0,-0.000137,0.0,0.0,0.0,0.0,0.0,0.0
420860,0.010385,-0.007435,-0.002159,0.0,0.0,0.0,0.0,0.0,0.0,3.0,0.304214,0.348606,0.283101,0.358197,0.0,0.0,0.00016,-0.0,0.0,-0.000132,0.0,0.0,0.0,0.0,0.0,0.0
420880,0.010629,-0.007435,-0.002158,0.0,0.0,0.0,0.0,0.0,0.0,3.0,0.302235,0.349091,0.28642,0.35688,0.0,0.0,0.000157,-0.0,0.0,-0.000126,0.0,0.0,0.0,0.0,0.0,0.0
420900,0.010751,-0.007435,-0.002158,0.0,0.0,0.0,0.0,0.0,0.0,3.0,0.302869,0.349121,0.285891,0.356736,0.0,0.0,0.000155,-0.0,0.0,-0.000122,0.0,0.0,0.0,0.0,0.0,0.0
420920,0.010873,-0.007312,-0.002158,0.0,0.0,0.0,0.0,0.0,0.0,3.0,0.30328,0.347733,0.285586,0.357974,0.0,0.0,0.000152,-0.0,0.0,-0.000117,0.0,0.0,0.0,0.0,0.0,0.0
420940,0.010994,-0.007313,-0.002035,0.0,0.0,0.0,0.0,0.0,0.0,3.0,0.29924,0.352583,0.280886,0.359864,0.0,0.0,0.00015,-0.0,0.0,-0.000113,0.0,0.0,0.0,0.0,0.0,0.0
420960,0.011116,-0.007069,-0.002036,0.0,0.0,0.0,0.0,0.0,0.0,3.0,0.302807,0.348159,0.28542,0.358063,0.0,0.0,0.000148,-0.0,0.0,-0.00011,0.0,0.0,0.0,0.0,0.0,0.0
420980,0.011238,-0.006947,-0.001914,0.0,0.0,0.0,0.0,0.0,0.0,3.0,0.300713,0.350866,0.282944,0.358904,0.0,0.0,0.000146,-0.0,0.0,-0.000106,0.0,0.0,0.0,0.0,0.0,0.0
421000,0.01136,-0.006947,-0.001914,0.0,0.0,0.0,0.0,0.0,0.0,3.0,0.298365,0.351949,0.281476,0.360738,0.0,0.0,0.000144,-0.0,0.0,-0.000103,0.0,0.0,0.0,0.0,0.0,0.0
421020,0.011604,-0.006946,-0.002035,0.0,0.0,0.0,0.0,0.0,0.0,3.0,0.302415,0.348343,0.28843,0.355966,0.0,0.0,0.000142,-0.0,0.0,-0.000101,0.0,0.0,0.0,0.0,0.0,0.0
421040,0.011726,-0.006703,-0.001914,0.0,0.0,0.0,0.0,0.0,0.0,3.0,0.302193,0.348558,0.285499,0.358108,0.0,0.0,0.00014,-0.0,0.0,-9.8e-05,0.0,0.0,0.0,0.0,0.0,0.0
421060,0.01197,-0.006702,-0.001913,0.0,0.0,0.0,0.0,0.0,0.0,3.0,0.302012,0.349121,0.286761,0.356778,0.0,0.0,0.000138,-0.0,0.0,-9.6e-05,0.0,0.0,0.0,0.0,0.0,0.0
421080,0.012214,-0.006581,-0.001791,0.0,0.0,0.0,0.0,0.0,0.0,3.0,0.296061,0.352172,0.282972,0.361224,0.0,0.0,0.000136,-0.0,0.0,-9.4e-05,0.0,0.0,0.0,0.0,0.0,0.0
421100,0.012458,-0.006336,-0.001914,0.0,0.0,0.0,0.0,0.0,0.0,3.0,0.301642,0.346045,0.288087,0.359048,0.0,0.0,0.000134,-0.0,0.0,-9.2e-05,0.0,0.0,0.0,0.0,0.0,0.0
421120,0.012702,-0.006335,-0.001913,0.0,0.0,0.0,0.0,0.0,0.0,3.0,0.300804,0.349222,0.288322,0.356477,0.0,0.0,0.000132,-0.0,0.0,-9.1e-05,0.0,0.0,0.0,0.0,0.0,0.0
421140,0.012824,-0.006091,-0.001914,0.0,0.0,0.0,0.0,0.0,0.0,3.0,0.305266,0.345202,0.288635,0.356544,0.0,0.0,0.00013,-0.0,0.0,-8.9e-05,0.0,0.0,0.0,0.0,0.0,0.0
421160,0.013068,-0.006092,-0.001791,0.0,0.0,0.0,0.0,0.0,0.0,3.0,0.297273,0.353144,0.282229,0.359881,0.0,0.0,0.000128,-0.0,0.0,-8.8e-05,0.0,0.0,0.0,0.0,0.0,0.0
421180,0.013312,-0.005846,-0.001914,0.0,0.0,0.0,0.0,0.0,0.0,3.0,0.301048,0.347522,0.28892,0.357483,0.0,0.0,0.000127,-0.0,0.0,-8.7e-05,0.0,0.0,0.0,0.0,0.0,0.0
421200,0.013556,-0.005724,-0.001914,0.0,0.0,0.0,0.0,0.0,0.0,3.0,0.300348,0.348474,0.28909,0.356991,0.0,0.0,0.000125,-0.0,0.0,-8.6e-05,0.0,0.0,0.0,0.0,0.0,0.0
421220,0.0138,-0.005602,-0.001915,0.0,0.0,0.0,0.0,0.0,0.0,3.0,0.300812,0.347985,0.288659,0.357417,0.0,0.0,0.000123,-0.0,0.0,-8.5e-05,0.0,0.0,0.0,0.0,0.0,0.0
421240,0.014044,-0.005479,-0.001915,0.0,0.0,0.0,0.0,0.0,0.0,3.0,0.300928,0.34775,0.288613,0.357588,0.0,0.0,0.000122,-0.0,0.0,-8.5e-05,0.0,0.0,0.0,0.0,0.0,0.0
421260,0.014288,-0.005235,-0.001916,0.0,0.0,0.0,0.0,0.0,0.0,3.0,0.29977,0.348181,0.289859,0.357153,0.0,0.0,0.00012,-0.0,0.0,-8.4e-05,0.0,0.0,0.0,0.0,0.0,0.0
421280,0.014532,-0.004991,-0.001917,0.0,0.0,0.0,0.0,0.0,0.0,3.0,0.298849,0.347897,0.288503,0.359161,0.0,0.0,0.000118,-0.0,0.0,-8.3e-05,0.0,0.0,0.0,0.0,0.0,0.0
421300,0.014776,-0.004745,-0.00204,0.0,0.0,0.0,0.0,0.0,0.0,3.0,0.300913,0.345959,0.291403,0.357223,0.0,0.0,0.000117,-0.0,0.0,-8.3e-05,0.0,0.0,0.0,0.0,0.0,0.0
421320,0.01502,-0.004501,-0.002041,0.0,0.0,0.0,0.0,0.0,0.0,3.0,0.304607,0.342999,0.293956,0.355138,0.0,0.0,0.000115,-0.0,0.0,-8.3e-05,0.0,0.0,0.0,0.0,0.0,0.0
421340,0.015386,-0.004257,-0.00192,0.0,0.0,0.0,0.0,0.0,0.0,3.0,0.296873,0.35019,0.28876,0.358293,0.0,0.0,0.000113,-0.0,0.0,-8.2e-05,0.0,0.0,0.0,0.0,0.0,0.0
421360,0.015752,-0.00389,-0.002045,0.0,0.0,0.0,0.0,0.0,0.0,3.0,0.297152,0.346257,0.291789,0.359589,0.0,0.0,0.000112,-0.0,0.0,-8.2e-05,0.0,0.0,0.0,0.0,0.0,0.0
421380,0.015996,-0.003522,-0.002169,0.0,0.0,0.0,0.0,0.0,0.0,3.0,0.300355,0.344863,0.292624,0.357784,0.0,0.0,0.00011,-0.0,0.0,-8.2e-05,0.0,0.0,0.0,0.0,0.0,0.0
421400,0.016361,-0.003156,-0.002171,0.0,0.0,0.0,0.0,0.0,0.0,3.0,0.29919,0.34632,0.291691,0.358018,0.0,0.0,0.000108,-0.0,0.0,-8.1e-05,0.0,0.0,0.0,0.0,0.0,0.0
421420,0.016849,-0.002789,-0.002174,0.0,0.0,0.0,0.0,0.0,0.0,3.0,0.297852,0.346811,0.292971,0.357621,0.0,0.0,0.000107,-0.0,0.0,-8.1e-05,0.0,0.0,0.0,0.0,0.0,0.0
421440,0.017215,-0.0023,-0.002177,0.0,0.0,0.0,0.0,0.0,0.0,3.0,0.292835,0.348832,0.289723,0.361961,0.0,0.0,0.000105,-0.0,0.0,-8.1e-05,0.0,0.0,0.0,0.0,0.0,0.0
421460,0.017581,-0.00181,-0.002425,0.0,0.0,0.0,0.0,0.0,0.0,3.0,0.299007,0.342389,0.295695,0.358835,0.0,0.0,0.000103,-0.0,0.0,-8.1e-05,0.0,0.0,0.0,0.0,0.0,0.0
421480,0.017824,-0.001321,-0.002429,0.0,0.0,0.0,0.0,0.0,0.0,3.0,0.300224,0.343402,0.295174,0.357325,0.0,0.0,0.000102,-0.0,0.0,-8.1e-05,0.0,0.0,0.0,0.0,0.0,0.0
421500,0.018312,-0.000832,-0.002434,0.0,0.0,0.0,0.0,0.0,0.0,3.0,0.298311,0.345274,0.29364,0.358223,0.0,0.0,0.0001,-0.0,0.0,-8e-05,0.0,0.0,0.0,0.0,0.0,0.0
421520,0.0188,-0.000343,-0.002438,0.0,0.0,0.0,0.0,0.0,0.0,3.0,0.294528,0.346666,0.293735,0.359741,0.0,0.0,9.9e-05,-0.0,0.0,-8e-05,0.0,0.0,0.0,0.0,0.0,0.0
421540,0.019287,0.000269,-0.002566,0.0,0.0,0.0,0.0,0.0,0.0,3.0,0.297441,0.342279,0.297005,0.359147,0.0,0.0,9.7e-05,-0.0,0.0,-8e-05,0.0,0.0,0.0,0.0,0.0,0.0
421560,0.019775,0.000759,-0.002693,0.0,0.0,0.0,0.0,0.0,0.0,3.0,0.299949,0.340722,0.302103,0.354627,0.0,0.0,9.5e-05,-0.0,0.0,-8e-05,0.0,0.0,0.0,0.0,0.0,0.0
421580,0.020262,0.001369,-0.002577,0.0,0.0,0.0,0.0,0.0,0.0,3.0,0.296165,0.344698,0.29448,0.35979,0.0,0.0,9.4e-05,-0.0,0.0,-8e-05,0.0,0.0,0.0,0.0,0.0,0.0
421600,0.020872,0.00198,-0.002584,0.0,0.0,0.0,0.0,0.0,0.0,3.0,0.290946,0.347814,0.293037,0.361871,0.0,0.0,9.2e-05,-0.0,0.0,-7.9e-05,0.0,0.0,0.0,0.0,0.0,0.0
421620,0.021359,0.002592,-0.002713,0.0,0.0,0.0,0.0,0.0,0.0,3.0,0.295297,0.343369,0.294778,0.361475,0.0,0.0,9.1e-05,-0.0,0.0,-7.9e-05,0.0,0.0,0.0,0.0,0.0,0.0
421640,0.021726,0.002959,-0.002718,0.0,0.0,0.0,0.0,0.0,0.0,3.0,0.296068,0.344058,0.296732,0.358742,0.0,0.0,8.9e-05,-0.0,0.0,-7.9e-05,0.0,0.0,0.0,0.0,0.0,0.0
421660,0.02197,0.003325,-0.002722,0.0,0.0,0.0,0.0,0.0,0.0,3.0,0.297391,0.344672,0.295565,0.358037,0.0,0.0,8.7e-05,-0.0,-0.0,-7.8e-05,0.0,0.0,0.0,0.0,0.0,0.0
421680,0.022214,0.003569,-0.002603,0.0,0.0,0.0,0.0,0.0,0.0,3.0,0.292384,0.349231,0.290766,0.361146,0.0,0.0,8.6e-05,-0.0,-0.0,-7.8e-05,0.0,0.0,0.0,0.0,0.0,0.0
421700,0.022336,0.003691,-0.002605,0.0,0.0,0.0,0.0,0.0,0.0,3.0,0.293583,0.34865,0.29145,0.360288,0.0,0.0,8.4e-05,-0.0,-0.0,-7.8e-05,0.0,0.0,0.0,0.0,0.0,0.0
421720,0.022214,0.003691,-0.002604,0.0,0.0,0.0,0.0,0.0,0.0,3.0,0.296918,0.347279,0.290683,0.359625,0.0,0.0,8.3e-05,-0.0,-0.0,-7.7e-05,0.0,0.0,0.0,0.0,0.0,0.0
421740,0.022092,0.003567,-0.002481,0.0,0.0,0.0,0.0,0.0,0.0,3.0,0.296894,0.349011,0.290551,0.358079,0.0,0.0,8.1e-05,-0.0,-0.0,-7.7e-05,0.0,0.0,0.0,0.0,0.0,0.0
421760,0.022214,0.003688,-0.00236,0.0,0.0,0.0,0.0,0.0,0.0,3.0,0.294655,0.347053,0.29284,0.359953,0.0,0.0,8e-05,-0.0,-0.0,-7.6e-05,0.0,0.0,0.0,0.0,0.0,0.0
421780,0.022214,0.003687,-0.002238,0.0,0.0,0.0,0.0,0.0,0.0,3.0,0.290015,0.350702,0.289979,0.362084,0.0,0.0,7.8e-05,-0.0,-0.0,-7.6e-05,0.0,0.0,0.0,0.0,0.0,0.0
421800,0.022214,0.003687,-0.002238,0.0,0.0,0.0,0.0,0.0,0.0,3.0,0.292985,0.347609,0.291587,0.361629,0.0,0.0,7.7e-05,-0.0,-0.0,-7.5e-05,0.0,0.0,0.0,0.0,0.0,0.0
421820,0.022215,0.003685,-0.002116,0.0,0.0,0.0,0.0,0.0,0.0,3.0,0.294495,0.346244,0.294935,0.359255,0.0,0.0,7.5e-05,-0.0,-0.0,-7.5e-05,0.0,0.0,0.0,0.0,0.0,0.0
421840,0.022215,0.003684,-0.001994,0.0,0.0,0.0,0.0,0.0,0.0,3.0,0.295669,0.345353,0.293933,0.359966,0.0,0.0,7.4e-05,-0.0,-0.0,-7.4e-05,0.0,0.0,0.0,0.0,0.0,0.0
421860,0.022093,0.00356,-0.00187,0.0,0.0,0.0,0.0,0.0,0.0,3.0,0.292309,0.350506,0.289699,0.36077,0.0,0.0,7.2e-05,-0.0,-0.0,-7.3e-05,0.0,0.0,0.0,0.0,0.0,0.0
421880,0.022093,0.00356,-0.00187,0.0,0.0,0.0,0.0,0.0,0.0,3.0,0.296495,0.344357,0.294948,0.359501,0.0,0.0,7.1e-05,-0.0,-0.0,-7.3e-05,0.0,0.0,0.0,0.0,0.0,0.0
421900,0.022094,0.003437,-0.001747,0.0,0.0,0.0,0.0,0.0,0.0,3.0,0.296078,0.346475,0.294405,0.358225,0.0,0.0,6.9e-05,-0.0,-0.0,-7.2e-05,0.0,0.0,0.0,0.0,0.0,0.0
421920,0.021972,0.003313,-0.001623,0.0,0.0,0.0,0.0,0.0,0.0,3.0,0.296951,0.347191,0.292043,0.358661,0.0,0.0,6.8e-05,-0.0,-0.0,-7.1e-05,0.0,0.0,0.0,0.0,0.0,0.0
421940,0.021972,0.003311,-0.001379,0.0,0.0,0.0,0.0,0.0,0.0,3.0,0.288925,0.352651,0.287369,0.362928,0.0,0.0,6.6e-05,-0.0,-0.0,-7e-05,0.0,0.0,0.0,0.0,0.0,0.0
421960,0.021972,0.003189,-0.001378,0.0,0.0,0.0,0.0,0.0,0.0,3.0,0.295453,0.347081,0.293535,0.35879,0.0,0.0,6.5e-05,-0.0,-0.0,-6.9e-05,0.0,0.0,0.0,0.0,0.0,0.0
421980,0.021973,0.003065,-0.001254,0.0,0.0,0.0,0.0,0.0,0.0,3.0,0.295175,0.347874,0.294301,0.357656,0.0,0.0,6.4e-05,-0.0,-0.0,-6.9e-05,0.0,0.0,0.0,0.0,0.0,0.0
422000,0.021851,0.002942,-0.001131,0.0,0.0,0.0,0.0,0.0,0.0,3.0,0.296456,0.348857,0.291574,0.357795,0.0,0.0,6.2e-05,-0.0,-0.0,-6.8e-05,0.0,0.0,0.0,0.0,0.0,0.0
422020,0.021973,0.002939,-0.000887,0.0,0.0,0.0,0.0,0.0,0.0,3.0,0.287509,0.352179,0.290349,0.362231,0.0,0.0,6.1e-05,-0.0,-0.0,-6.7e-05,0.0,0.0,0.0,0.0,0.0,0.0
422040,0.021851,0.002938,-0.000765,0.0,0.0,0.0,0.0,0.0,0.0,3.0,0.289789,0.351139,0.288507,0.362915,0.0,0.0,6e-05,-0.0,-0.0,-6.6e-05,0.0,0.0,0.0,0.0,0.0,0.0
422060,0.021728,0.002815,-0.000763,0.0,0.0,0.0,0.0,0.0,0.0,3.0,0.296667,0.347049,0.294888,0.356846,-0.0,0.0,5.8e-05,-0.0,-0.0,-6.5e-05,0.0,0.0,0.0,0.0,0.0,0.0
422080,0.021728,0.002814,-0.000641,0.0,0.0,0.0,0.0,0.0,0.0,3.0,0.29644,0.347044,0.295688,0.356408,-0.0,0.0,5.7e-05,-0.0,-0.0,-6.4e-05,0.0,0.0,0.0,0.0,0.0,0.0
422100,0.021728,0.002811,-0.000397,0.0,0.0,0.0,0.0,0.0,0.0,3.0,0.288792,0.353589,0.288327,0.361417,-0.0,0.0,5.6e-05,-0.0,-0.0,-6.3e-05,0.0,0.0,0.0,0.0,0.0,0.0
422120,0.021606,0.003056,-0.000399,0.0,0.0,0.0,0.0,0.0,0.0,3.0,0.293877,0.348548,0.291026,0.36048,-0.0,0.0,5.5e-05,-0.0,-0.0,-6.2e-05,0.0,0.0,0.0,0.0,0.0,0.0
422140,0.021606,0.003056,-0.000399,0.0,0.0,0.0,0.0,0.0,0.0,3.0,0.297404,0.346378,0.295099,0.356754,-0.0,0.0,5.3e-05,-0.0,-0.0,-6.1e-05,0.0,0.0,0.0,0.0,0.0,0.0
422160,0.021485,0.003297,-0.000157,0.0,0.0,0.0,0.0,0.0,0.0,3.0,0.294371,0.349058,0.290924,0.359691,-0.0,0.0,5.2e-05,-0.0,-0.0,-6e-05,0.0,0.0,0.0,0.0,0.0,0.0
422180,0.021607,0.003418,-3.7e-05,0.0,0.0,0.0,0.0,0.0,0.0,3.0,0.290356,0.350719,0.291836,0.360433,-0.0,0.0,5.1e-05,-0.0,-0.0,-5.9e-05,0.0,0.0,0.0,0.0,0.0,0.0
422200,0.021485,0.003539,8.4e-05,0.0,0.0,0.0,0.0,0.0,0.0,3.0,0.28914,0.352457,0.288924,0.361819,-0.0,0.0,5e-05,-0.0,-0.0,-5.8e-05,0.0,0.0,0.0,0.0,0.0,0.0
422220,0.021363,0.003539,8.4e-05,0.0,0.0,0.0,0.0,0.0,0.0,3.0,0.298842,0.345408,0.297005,0.355075,-0.0,0.0,4.9e-05,-0.0,-0.0,-5.7e-05,0.0,0.0,0.0,0.0,0.0,0.0
422240,0.021241,0.003414,0.00033,0.0,0.0,0.0,0.0,0.0,0.0,3.0,0.29224,0.352359,0.29209,0.357227,-0.0,0.0,4.7e-05,-0.0,-0.0,-5.6e-05,0.0,0.0,0.0,0.0,0.0,0.0
422260,0.021364,0.003413,0.000452,0.0,0.0,0.0,0.0,0.0,0.0,3.0,0.290175,0.352109,0.290886,0.359934,-0.0,0.0,4.6e-05,-0.0,-0.0,-5.5e-05,0.0,0.0,0.0,0.0,0.0,0.0
422280,0.021486,0.00329,0.000453,0.0,0.0,0.0,0.0,0.0,0.0,3.0,0.291197,0.350769,0.295632,0.356859,-0.0,0.0,4.5e-05,-0.0,-0.0,-5.4e-05,0.0,0.0,0.0,0.0,0.0,0.0
422300,0.021364,0.003168,0.000454,0.0,0.0,0.0,0.0,0.0,0.0,3.0,0.298719,0.347046,0.296794,0.353751,-0.0,0.0,4.4e-05,-0.0,-0.0,-5.3e-05,0.0,0.0,0.0,0.0,0.0,0.0
422320,0.021486,0.003166,0.000698,0.0,0.0,0.0,0.0,0.0,0.0,3.0,0.291837,0.350372,0.296532,0.356063,-0.0,0.0,4.3e-05,-0.0,-0.0,-5.2e-05,0.0,0.0,0.0,0.0,0.0,0.0
422340,0.021364,0.003287,0.000819,0.0,0.0,0.0,0.0,0.0,0.0,3.0,0.290989,0.351464,0.290759,0.360046,-0.0,0.0,4.2e-05,-0.0,-0.0,-5.1e-05,0.0,0.0,0.0,0.0,0.0,0.0
422360,0.021364,0.003409,0.000818,0.0,0.0,0.0,0.0,0.0,0.0,3.0,0.291562,0.34808,0.295889,0.358991,-0.0,0.0,4.1e-05,-0.0,-0.0,-5e-05,0.0,0.0,0.0,0.0,0.0,0.0
422380,0.021242,0.003531,0.000817,0.0,0.0,0.0,0.0,0.0,0.0,3.0,0.297754,0.344329,0.299498,0.355004,-0.0,0.0,4e-05,-0.0,-0.0,-4.9e-05,0.0,0.0,0.0,0.0,0.0,0.0
422400,0.021365,0.00365,0.001059,0.0,0.0,0.0,0.0,0.0,0.0,3.0,0.28856,0.350862,0.294368,0.359714,-0.0,0.0,3.9e-05,-0.0,-0.0,-4.8e-05,0.0,0.0,0.0,0.0,0.0,0.0
422420,0.021243,0.004016,0.001056,0.0,0.0,0.0,0.0,0.0,0.0,3.0,0.289908,0.349442,0.292264,0.36167,-0.0,0.0,3.8e-05,-0.0,-0.0,-4.7e-05,0.0,0.0,0.0,0.0,0.0,0.0
422440,0.021243,0.004139,0.001055,0.0,0.0,0.0,0.0,0.0,0.0,3.0,0.292048,0.345924,0.297309,0.359589,-0.0,0.0,3.7e-05,-0.0,-0.0,-4.6e-05,0.0,0.0,0.0,0.0,0.0,0.0
422460,0.021243,0.004139,0.001055,0.0,0.0,0.0,0.0,0.0,0.0,3.0,0.295387,0.344542,0.301357,0.355171,-0.0,0.0,3.6e-05,-0.0,-0.0,-4.5e-05,0.0,0.0,0.0,0.0,0.0,0.0
422480,0.021365,0.004137,0.001176,0.0,0.0,0.0,0.0,0.0,0.0,3.0,0.288179,0.350339,0.295563,0.359589,-0.0,0.0,3.5e-05,-0.0,-0.0,-4.4e-05,0.0,0.0,0.0,0.0,0.0,0.0
422500,0.021365,0.004015,0.001178,0.0,0.0,0.0,0.0,0.0,0.0,3.0,0.28424,0.353583,0.292487,0.361649,-0.0,0.0,3.5e-05,-0.0,-0.0,-4.3e-05,0.0,0.0,0.0,0.0,0.0,0.0
422520,0.021365,0.004016,0.001056,0.0,0.0,0.0,0.0,0.0,0.0,3.0,0.291492,0.347279,0.298476,0.357807,-0.0,0.0,3.4e-05,-0.0,-0.0,-4.2e-05,0.0,0.0,0.0,0.0,0.0,0.0
422540,0.021243,0.003771,0.00118,0.0,0.0,0.0,0.0,0.0,0.0,3.0,0.293511,0.348483,0.298029,0.355451,-0.0,0.0,3.3e-05,-0.0,-0.0,-4.1e-05,0.0,0.0,0.0,0.0,0.0,0.0
422560,0.021243,0.004014,0.0013,0.0,0.0,0.0,0.0,0.0,0.0,3.0,0.28898,0.350189,0.294098,0.360259,-0.0,0.0,3.2e-05,-0.0,-0.0,-4e-05,0.0,0.0,0.0,0.0,0.0,0.0
422580,0.021243,0.004136,0.001299,0.0,0.0,0.0,0.0,0.0,0.0,3.0,0.28547,0.351292,0.292213,0.363178,-0.0,0.0,3.1e-05,-0.0,-0.0,-3.9e-05,0.0,0.0,0.0,0.0,0.0,0.0
422600,0.020999,0.004381,0.001175,0.0,0.0,0.0,0.0,0.0,0.0,3.0,0.292785,0.346254,0.296942,0.359002,-0.0,0.0,3.1e-05,-0.0,-0.0,-3.8e-05,0.0,0.0,0.0,0.0,0.0,0.0
422620,0.020877,0.004502,0.001296,0.0,0.0,0.0,0.0,0.0,0.0,3.0,0.291003,0.349269,0.293085,0.360405,-0.0,0.0,3e-05,-0.0,-0.0,-3.7e-05,0.0,0.0,0.0,0.0,0.0,0.0
422640,0.020878,0.004869,0.001292,0.0,0.0,0.0,0.0,0.0,0.0,3.0,0.288441,0.348813,0.295295,0.361067,-0.0,0.0,2.9e-05,-0.0,-0.0,-3.6e-05,0.0,0.0,0.0,0.0,0.0,0.0
422660,0.020878,0.004991,0.00129,0.0,0.0,0.0,0.0,0.0,0.0,3.0,0.287551,0.348711,0.294945,0.362082,-0.0,0.0,2.8e-05,-0.0,-0.0,-3.5e-05,0.0,0.0,0.0,0.0,0.0,0.0
422680,0.020756,0.005113,0.00129,0.0,0.0,0.0,0.0,0.0,0.0,3.0,0.289495,0.346714,0.296558,0.361322,-0.0,0.0,2.8e-05,-0.0,-0.0,-3.4e-05,0.0,0.0,0.0,0.0,0.0,0.0
422700,0.020756,0.004991,0.001291,0.0,0.0,0.0,0.0,0.0,0.0,3.0,0.289033,0.348481,0.295895,0.36049,-0.0,0.0,2.7e-05,-0.0,-0.0,-3.3e-05,0.0,0.0,0.0,0.0,0.0,0.0
422720,0.020756,0.004867,0.001414,0.0,0.0,0.0,0.0,0.0,0.0,3.0,0.283307,0.352675,0.291428,0.363981,-0.0,0.0,2.6e-05,-0.0,-0.0,-3.2e-05,0.0,0.0,0.0,0.0,0.0,0.0
422740,0.020756,0.004747,0.001293,0.0,0.0,0.0,0.0,0.0,0.0,3.0,0.288804,0.348258,0.296566,0.360357,-0.0,0.0,2.6e-05,-0.0,-0.0,-3.1e-05,0.0,0.0,0.0,0.0,0.0,0.0
422760,0.020755,0.004625,0.001295,0.0,0.0,0.0,0.0,0.0,0.0,3.0,0.288789,0.348016,0.297169,0.360136,-0.0,0.0,2.5e-05,-0.0,-0.0,-3.1e-05,0.0,0.0,0.0,0.0,0.0,0.0
422780,0.020634,0.004623,0.001417,0.0,0.0,0.0,0.0,0.0,0.0,3.0,0.290409,0.348006,0.297644,0.358573,-0.0,0.0,2.4e-05,-0.0,-0.0,-3e-05,0.0,0.0,0.0,0.0,0.0,0.0
422800,0.020512,0.004744,0.001538,0.0,0.0,0.0,0.0,0.0,0.0,3.0,0.287525,0.350542,0.291973,0.362586,-0.0,0.0,2.4e-05,-0.0,-0.0,-2.9e-05,0.0,0.0,0.0,0.0,0.0,0.0
422820,0.020512,0.004988,0.001536,0.0,0.0,0.0,0.0,0.0,0.0,3.0,0.287976,0.348541,0.295815,0.361272,-0.0,0.0,2.3e-05,-0.0,-0.0,-2.8e-05,0.0,0.0,0.0,0.0,0.0,0.0
422840,0.020269,0.005231,0.001656,0.0,0.0,0.0,0.0,0.0,0.0,3.0,0.287302,0.350188,0.291616,0.363351,-0.0,0.0,2.3e-05,-0.0,-0.0,-2.8e-05,0.0,0.0,0.0,0.0,0.0,0.0
422860,0.020146,0.005232,0.001656,0.0,0.0,0.0,0.0,0.0,0.0,3.0,0.289173,0.349582,0.294194,0.360627,-0.0,0.0,2.2e-05,-0.0,-0.0,-2.7e-05,0.0,0.0,0.0,0.0,0.0,0.0
422880,0.020025,0.005354,0.001655,0.0,0.0,0.0,0.0,0.0,0.0,3.0,0.289404,0.349848,0.294168,0.36022,-0.0,0.0,2.2e-05,-0.0,-0.0,-2.6e-05,0.0,0.0,0.0,0.0,0.0,0.0
422900,0.020025,0.00523,0.001778,0.0,0.0,0.0,0.0,0.0,0.0,3.0,0.285791,0.352395,0.292547,0.361635,-0.0,-0.0,2.1e-05,-0.0,-0.0,-2.5e-05,0.0,0.0,0.0,0.0,0.0,0.0
422920,0.020025,0.00523,0.001778,0.0,0.0,0.0,0.0,0.0,0.0,3.0,0.282706,0.352934,0.291612,0.364022,-0.0,-0.0,2.1e-05,-0.0,-0.0,-2.5e-05,0.0,0.0,0.0,0.0,0.0,0.0
422940,0.020025,0.004986,0.001781,0.0,0.0,0.0,0.0,0.0,0.0,3.0,0.28805,0.350255,0.294546,0.360541,-0.0,-0.0,2e-05,-0.0,-0.0,-2.4e-05,0.0,0.0,0.0,0.0,0.0,0.0
422960,0.020025,0.004986,0.001781,0.0,0.0,0.0,0.0,0.0,0.0,3.0,0.290953,0.346975,0.297014,0.359639,-0.0,-0.0,2e-05,-0.0,-0.0,-2.3e-05,0.0,0.0,0.0,0.0,0.0,0.0
422980,0.020147,0.004984,0.002025,0.0,0.0,0.0,0.0,0.0,0.0,3.0,0.284275,0.351898,0.291252,0.364166,-0.0,-0.0,1.9e-05,-0.0,-0.0,-2.3e-05,0.0,0.0,0.0,0.0,0.0,0.0
423000,0.020025,0.005106,0.002024,0.0,0.0,0.0,0.0,0.0,0.0,3.0,0.286116,0.350232,0.29234,0.363629,-0.0,-0.0,1.9e-05,-0.0,-0.0,-2.2e-05,0.0,0.0,0.0,0.0,0.0,0.0
423020,0.019903,0.00535,0.002022,0.0,0.0,0.0,0.0,0.0,0.0,3.0,0.291671,0.344577,0.299039,0.359808,-0.0,-0.0,1.8e-05,0.0,-0.0,-2.1e-05,0.0,0.0,0.0,0.0,0.0,0.0
423040,0.01966,0.005593,0.002142,0.0,0.0,0.0,0.0,0.0,0.0,3.0,0.291714,0.34672,0.294628,0.361136,-0.0,-0.0,1.8e-05,-0.0,-0.0,-2.1e-05,0.0,0.0,0.0,0.0,0.0,0.0
423060,0.019538,0.005714,0.002263,0.0,0.0,0.0,0.0,0.0,0.0,3.0,0.285619,0.352117,0.291469,0.362832,-0.0,-0.0,1.7e-05,-0.0,-0.0,-2e-05,0.0,0.0,0.0,0.0,0.0,0.0
423080,0.019294,0.005959,0.002262,0.0,0.0,0.0,0.0,0.0,0.0,3.0,0.289225,0.349306,0.292223,0.362335,-0.0,-0.0,1.7e-05,-0.0,-0.0,-2e-05,0.0,0.0,0.0,0.0,0.0,0.0
423100,0.019294,0.005959,0.002262,0.0,0.0,0.0,0.0,0.0,0.0,3.0,0.287288,0.349191,0.296679,0.360494,-0.0,-0.0,1.7e-05,-0.0,-0.0,-1.9e-05,0.0,0.0,0.0,0.0,0.0,0.0
423120,0.019173,0.005958,0.002384,0.0,0.0,0.0,0.0,0.0,0.0,3.0,0.285953,0.351531,0.29297,0.362034,-0.0,-0.0,1.6e-05,0.0,-0.0,-1.9e-05,0.0,0.0,0.0,0.0,0.0,0.0
423140,0.019295,0.005958,0.002384,0.0,0.0,0.0,0.0,0.0,0.0,3.0,0.2842,0.3518,0.293122,0.362924,-0.0,-0.0,1.6e-05,0.0,-0.0,-1.8e-05,0.0,0.0,0.0,0.0,0.0,0.0
423160,0.019295,0.006202,0.002381,0.0,0.0,0.0,0.0,0.0,0.0,3.0,0.285024,0.348617,0.295897,0.36328,-0.0,-0.0,1.6e-05,0.0,-0.0,-1.8e-05,0.0,0.0,0.0,0.0,0.0,0.0
423180,0.019173,0.006324,0.002381,0.0,0.0,0.0,0.0,0.0,0.0,3.0,0.286923,0.348742,0.294176,0.36309,-0.0,-0.0,1.5e-05,0.0,-0.0,-1.7e-05,0.0,0.0,0.0,0.0,0.0,0.0
423200,0.019173,0.006446,0.002379,0.0,0.0,0.0,0.0,0.0,0.0,3.0,0.285148,0.349219,0.29581,0.362685,-0.0,-0.0,1.5e-05,0.0,-0.0,-1.7e-05,0.0,0.0,0.0,0.0,0.0,0.0
423220,0.019051,0.006568,0.002379,0.0,0.0,0.0,0.0,0.0,0.0,3.0,0.286441,0.349908,0.294428,0.362139,-0.0,-0.0,1.5e-05,0.0,-0.0,-1.6e-05,0.0,0.0,0.0,0.0,0.0,0.0
423240,0.019174,0.00669,0.002377,0.0,0.0,0.0,0.0,0.0,0.0,3.0,0.284411,0.34888,0.29639,0.363096,-0.0,-0.0,1.4e-05,0.0,-0.0,-1.6e-05,0.0,0.0,0.0,0.0,0.0,0.0
423260,0.019052,0.00669,0.002377,0.0,0.0,0.0,0.0,0.0,0.0,3.0,0.282303,0.35123,0.293491,0.364542,-0.0,-0.0,1.4e-05,0.0,-0.0,-1.5e-05,0.0,0.0,0.0,0.0,0.0,0.0
423280,0.018929,0.006691,0.002378,0.0,0.0,0.0,0.0,0.0,0.0,3.0,0.285275,0.348974,0.295104,0.36336,-0.0,-0.0,1.4e-05,0.0,-0.0,-1.5e-05,0.0,0.0,0.0,0.0,0.0,0.0
423300,0.018685,0.006814,0.002256,0.0,0.0,0.0,0.0,0.0,0.0,3.0,0.290969,0.344477,0.298425,0.360903,-0.0,-0.0,1.3e-05,0.0,-0.0,-1.5e-05,0.0,0.0,0.0,0.0,0.0,0.0
423320,0.018564,0.007057,0.002376,0.0,0.0,0.0,0.0,0.0,0.0,3.0,0.280226,0.350203,0.291094,0.368717,-0.0,-0.0,1.3e-05,0.0,-0.0,-1.4e-05,0.0,0.0,0.0,0.0,0.0,0.0
423340,0.018564,0.007179,0.002375,0.0,0.0,0.0,0.0,0.0,0.0,3.0,0.278909,0.350546,0.292367,0.368371,-0.0,-0.0,1.3e-05,0.0,-0.0,-1.4e-05,0.0,0.0,0.0,0.0,0.0,0.0
423360,0.018442,0.007425,0.002251,0.0,0.0,0.0,0.0,0.0,0.0,3.0,0.286748,0.344793,0.298304,0.363799,-0.0,-0.0,1.2e-05,0.0,-0.0,-1.4e-05,0.0,0.0,0.0,0.0,0.0,0.0
423380,0.018198,0.007546,0.002373,0.0,0.0,0.0,0.0,0.0,0.0,3.0,0.285243,0.348748,0.291772,0.366077,-0.0,-0.0,1.2e-05,0.0,-0.0,-1.3e-05,0.0,0.0,0.0,0.0,0.0,0.0
423400,0.018198,0.007424,0.002374,0.0,0.0,0.0,0.0,0.0,0.0,3.0,0.281907,0.350193,0.294385,0.365138,-0.0,-0.0,1.2e-05,0.0,-0.0,-1.3e-05,0.0,0.0,0.0,0.0,0.0,0.0
423420,0.018076,0.007424,0.002374,0.0,0.0,0.0,0.0,0.0,0.0,3.0,0.280803,0.351533,0.291694,0.36663,-0.0,-0.0,1.2e-05,0.0,-0.0,-1.3e-05,0.0,0.0,0.0,0.0,0.0,0.0
423440,0.018075,0.007425,0.002252,0.0,0.0,0.0,0.0,0.0,0.0,3.0,0.283875,0.346496,0.298429,0.364173,-0.0,-0.0,1.1e-05,0.0,-0.0,-1.2e-05,0.0,0.0,0.0,0.0,0.0,0.0
423460,0.017954,0.007668,0.002372,0.0,0.0,0.0,0.0,0.0,0.0,3.0,0.281131,0.348917,0.294128,0.367071,-0.0,-0.0,1.1e-05,0.0,-0.0,-1.2e-05,0.0,0.0,0.0,0.0,0.0,0.0
423480,0.01771,0.007913,0.002371,0.0,0.0,0.0,0.0,0.0,0.0,3.0,0.279921,0.349399,0.291202,0.369597,-0.0,-0.0,1.1e-05,0.0,-0.0,-1.2e-05,0.0,0.0,0.0,0.0,0.0,0.0
423500,0.017588,0.008035,0.002371,0.0,0.0,0.0,0.0,0.0,0.0,3.0,0.279274,0.34908,0.29271,0.369239,-0.0,-0.0,1.1e-05,0.0,-0.0,-1.1e-05,0.0,0.0,0.0,0.0,0.0,0.0
423520,0.017466,0.008035,0.002371,0.0,0.0,0.0,0.0,0.0,0.0,3.0,0.282268,0.348073,0.296972,0.364939,-0.0,-0.0,1e-05,0.0,-0.0,-1.1e-05,0.0,0.0,0.0,0.0,0.0,0.0
423540,0.017344,0.008036,0.00225,0.0,0.0,0.0,0.0,0.0,0.0,3.0,0.287827,0.345,0.29824,0.362872,-0.0,-0.0,1e-05,0.0,-0.0,-1.1e-05,0.0,0.0,0.0,0.0,0.0,0.0
423560,0.017466,0.008036,0.002249,0.0,0.0,0.0,0.0,0.0,0.0,3.0,0.281567,0.347531,0.298599,0.364705,-0.0,-0.0,1e-05,0.0,-0.0,-1.1e-05,0.0,0.0,0.0,0.0,0.0,0.0
423580,0.017222,0.008159,0.002249,0.0,0.0,0.0,0.0,0.0,0.0,3.0,0.284871,0.347675,0.295013,0.364943,-0.0,-0.0,1e-05,0.0,-0.0,-1e-05,0.0,0.0,0.0,0.0,0.0,0.0
423600,0.017221,0.008282,0.002126,0.0,0.0,0.0,0.0,0.0,0.0,3.0,0.285312,0.345678,0.296039,0.365723,-0.0,-0.0,1e-05,0.0,-0.0,-1e-05,0.0,0.0,0.0,0.0,0.0,0.0
423620,0.017221,0.008282,0.002126,0.0,0.0,0.0,0.0,0.0,0.0,3.0,0.282957,0.348939,0.296943,0.363657,-0.0,-0.0,9e-06,0.0,-0.0,-1e-05,0.0,0.0,0.0,0.0,0.0,0.0
423640,0.017221,0.008404,0.002125,0.0,0.0,0.0,0.0,0.0,0.0,3.0,0.282725,0.347728,0.2971,0.364845,-0.0,-0.0,9e-06,0.0,-0.0,-1e-05,0.0,0.0,0.0,0.0,0.0,0.0
423660,0.017221,0.008283,0.002004,0.0,0.0,0.0,0.0,0.0,0.0,3.0,0.283306,0.348641,0.297834,0.363012,-0.0,-0.0,9e-06,0.0,-0.0,-9e-06,0.0,0.0,0.0,0.0,0.0,0.0
423680,0.017099,0.008405,0.002003,0.0,0.0,0.0,0.0,0.0,0.0,3.0,0.283766,0.347601,0.296294,0.364835,-0.0,-0.0,9e-06,0.0,-0.0,-9e-06,0.0,0.0,0.0,0.0,0.0,0.0
423700,0.017098,0.008528,0.00188,0.0,0.0,0.0,0.0,0.0,0.0,3.0,0.285913,0.344423,0.29919,0.364068,-0.0,-0.0,9e-06,0.0,-0.0,-9e-06,0.0,0.0,0.0,0.0,0.0,0.0
423720,0.016976,0.008651,0.001758,0.0,0.0,0.0,0.0,0.0,0.0,3.0,0.288764,0.343182,0.301587,0.361292,-0.0,-0.0,9e-06,0.0,-0.0,-9e-06,0.0,0.0,0.0,0.0,0.0,0.0
423740,0.016976,0.008895,0.001756,0.0,0.0,0.0,0.0,0.0,0.0,3.0,0.282089,0.346185,0.298818,0.365429,-0.0,-0.0,8e-06,0.0,-0.0,-9e-06,0.0,0.0,0.0,0.0,0.0,0.0
423760,0.016854,0.009019,0.001633,0.0,0.0,0.0,0.0,0.0,0.0,3.0,0.283201,0.345949,0.299725,0.36417,-0.0,-0.0,8e-06,0.0,-0.0,-8e-06,0.0,0.0,0.0,0.0,0.0,0.0
423780,0.016731,0.00902,0.001511,0.0,0.0,0.0,0.0,0.0,0.0,3.0,0.287043,0.344482,0.303339,0.359955,-0.0,-0.0,8e-06,0.0,-0.0,-8e-06,0.0,0.0,0.0,0.0,0.0,0.0
423800,0.016609,0.009142,0.001511,0.0,0.0,0.0,0.0,0.0,0.0,3.0,0.285651,0.344868,0.299298,0.363759,-0.0,-0.0,8e-06,0.0,-0.0,-8e-06,0.0,0.0,0.0,0.0,0.0,0.0
423820,0.016609,0.00902,0.001512,0.0,0.0,0.0,0.0,0.0,0.0,3.0,0.280092,0.349288,0.295792,0.366204,-0.0,-0.0,8e-06,0.0,-0.0,-8e-06,0.0,0.0,0.0,0.0,0.0,0.0
423840,0.016486,0.009143,0.001389,0.0,0.0,0.0,0.0,0.0,0.0,3.0,0.283906,0.344985,0.299089,0.365057,-0.0,-0.0,8e-06,0.0,-0.0,-8e-06,0.0,0.0,0.0,0.0,0.0,0.0
423860,0.016486,0.009266,0.001266,0.0,0.0,0.0,0.0,0.0,0.0,3.0,0.284994,0.343064,0.301069,0.364539,-0.0,-0.0,7e-06,0.0,-0.0,-8e-06,0.0,0.0,0.0,0.0,0.0,0.0
423880,0.016364,0.009388,0.001266,0.0,0.0,0.0,0.0,0.0,0.0,3.0,0.282889,0.345356,0.298445,0.365921,-0.0,-0.0,7e-06,0.0,0.0,-7e-06,0.0,0.0,0.0,0.0,0.0,0.0
423900,0.016364,0.009632,0.001264,0.0,0.0,0.0,0.0,0.0,0.0,3.0,0.2831,0.344888,0.297945,0.366583,-0.0,-0.0,7e-06,0.0,0.0,-7e-06,0.0,0.0,0.0,0.0,0.0,0.0
423920,0.016364,0.009755,0.001263,0.0,0.0,0.0,0.0,0.0,0.0,3.0,0.283682,0.344115,0.297371,0.367319,-0.0,-0.0,7e-06,0.0,0.0,-7e-06,0.0,0.0,0.0,0.0,0.0,0.0
423940,0.016241,0.009634,0.001142,0.0,0.0,0.0,0.0,0.0,0.0,3.0,0.285005,0.34457,0.298611,0.365024,-0.0,-0.0,7e-06,0.0,0.0,-7e-06,0.0,0.0,0.0,0.0,0.0,0.0
423960,0.016241,0.009634,0.001142,0.0,0.0,0.0,0.0,0.0,0.0,3.0,0.28326,0.344703,0.299215,0.365678,-0.0,-0.0,7e-06,0.0,0.0,-7e-06,0.0,0.0,0.0,0.0,0.0,0.0
423980,0.01612,0.009878,0.001141,0.0,0.0,0.0,0.0,0.0,0.0,3.0,0.284069,0.342329,0.297303,0.368726,-0.0,-0.0,6e-06,0.0,0.0,-7e-06,0.0,0.0,0.0,0.0,0.0,0.0
424000,0.015998,0.01,0.001141,0.0,0.0,0.0,0.0,0.0,0.0,3.0,0.284003,0.344038,0.297153,0.367327,-0.0,-0.0,6e-06,0.0,0.0,-7e-06,0.0,0.0,0.0,0.0,0.0,0.0
424020,0.015997,0.010489,0.001015,0.0,0.0,0.0,0.0,0.0,0.0,3.0,0.282971,0.34144,0.299653,0.368533,-0.0,-0.0,6e-06,0.0,0.0,-6e-06,0.0,0.0,0.0,0.0,0.0,0.0
424040,0.015875,0.010612,0.000892,0.0,0.0,0.0,0.0,0.0,0.0,3.0,0.285006,0.34263,0.301399,0.364675,-0.0,-0.0,6e-06,0.0,0.0,-6e-06,0.0,0.0,0.0,0.0,0.0,0.0
424060,0.015752,0.010612,0.000893,0.0,0.0,0.0,0.0,0.0,0.0,3.0,0.281637,0.345477,0.30001,0.365494,-0.0,-0.0,6e-06,0.0,0.0,-6e-06,0.0,0.0,0.0,0.0,0.0,0.0
424080,0.01563,0.010612,0.000894,0.0,0.0,0.0,0.0,0.0,0.0,3.0,0.282907,0.345638,0.298488,0.365614,-0.0,-0.0,6e-06,0.0,0.0,-6e-06,0.0,0.0,0.0,0.0,0.0,0.0
424100,0.01563,0.010613,0.000772,0.0,0.0,0.0,0.0,0.0,0.0,3.0,0.283609,0.344046,0.301579,0.364222,-0.0,-0.0,6e-06,0.0,0.0,-6e-06,0.0,0.0,0.0,0.0,0.0,0.0
424120,0.015507,0.010736,0.000649,0.0,0.0,0.0,0.0,0.0,0.0,3.0,0.285871,0.344841,0.299814,0.363228,-0.0,-0.0,6e-06,0.0,0.0,-6e-06,0.0,0.0,0.0,0.0,0.0,0.0
424140,0.015506,0.010981,0.000525,0.0,0.0,0.0,0.0,0.0,0.0,3.0,0.288088,0.341892,0.303817,0.361235,-0.0,-0.0,6e-06,0.0,0.0,-6e-06,0.0,0.0,0.0,0.0,0.0,0.0
424160,0.015506,0.011105,0.000402,0.0,0.0,0.0,0.0,0.0,0.0,3.0,0.288032,0.342058,0.304439,0.360628,-0.0,-0.0,5e-06,0.0,0.0,-6e-06,0.0,0.0,0.0,0.0,0.0,0.0
424180,0.015506,0.011105,0.000402,0.0,0.0,0.0,0.0,0.0,0.0,3.0,0.286868,0.343042,0.304364,0.360623,-0.0,-0.0,5e-06,0.0,0.0,-6e-06,0.0,0.0,0.0,0.0,0.0,0.0
424200,0.015506,0.011227,0.000401,0.0,0.0,0.0,0.0,0.0,0.0,3.0,0.282785,0.34469,0.300033,0.3654,-0.0,-0.0,5e-06,0.0,0.0,-5e-06,0.0,0.0,0.0,0.0,0.0,0.0
424220,0.015383,0.01135,0.000279,0.0,0.0,0.0,0.0,0.0,0.0,3.0,0.285195,0.343485,0.299834,0.364957,-0.0,-0.0,5e-06,0.0,0.0,-5e-06,0.0,0.0,0.0,0.0,0.0,0.0
424240,0.01526,0.011717,0.000155,0.0,0.0,0.0,0.0,0.0,0.0,3.0,0.288315,0.33986,0.304262,0.362595,-0.0,-0.0,5e-06,0.0,0.0,-5e-06,0.0,0.0,0.0,0.0,0.0,0.0
424260,0.015016,0.011961,0.000154,0.0,0.0,0.0,0.0,0.0,0.0,3.0,0.289557,0.341095,0.302278,0.362105,-0.0,-0.0,5e-06,0.0,0.0,-5e-06,0.0,0.0,0.0,0.0,0.0,0.0
424280,0.014894,0.012083,0.000154,0.0,0.0,0.0,0.0,0.0,0.0,3.0,0.284824,0.344149,0.298547,0.365591,-0.0,-0.0,5e-06,0.0,0.0,-5e-06,0.0,0.0,0.0,0.0,0.0,0.0
424300,0.015016,0.012083,0.000153,0.0,0.0,0.0,0.0,0.0,0.0,3.0,0.280415,0.345449,0.302143,0.36473,-0.0,-0.0,5e-06,0.0,0.0,-5e-06,0.0,0.0,0.0,0.0,0.0,0.0
424320,0.015015,0.012206,3e-05,0.0,0.0,0.0,0.0,0.0,0.0,3.0,0.284531,0.342034,0.303248,0.364127,-0.0,-0.0,5e-06,0.0,0.0,-5e-06,0.0,0.0,0.0,0.0,0.0,0.0
424340,0.014893,0.012206,3.1e-05,0.0,0.0,0.0,0.0,0.0,0.0,3.0,0.282442,0.343208,0.30084,0.366387,-0.0,-0.0,4e-06,0.0,0.0,-5e-06,0.0,0.0,0.0,0.0,0.0,0.0
424360,0.014771,0.012207,-9e-05,0.0,0.0,0.0,0.0,0.0,0.0,3.0,0.282609,0.342634,0.301838,0.36603,-0.0,-0.0,4e-06,0.0,0.0,-5e-06,0.0,0.0,0.0,0.0,0.0,0.0
424380,0.014649,0.012329,-9e-05,0.0,0.0,0.0,0.0,0.0,0.0,3.0,0.281519,0.3423,0.301779,0.367143,0.0,-0.0,4e-06,0.0,0.0,-5e-06,0.0,0.0,0.0,0.0,0.0,0.0
424400,0.014526,0.012207,-8.9e-05,0.0,0.0,0.0,0.0,0.0,0.0,3.0,0.278411,0.346052,0.297455,0.369121,0.0,-0.0,4e-06,0.0,0.0,-4e-06,0.0,0.0,0.0,0.0,0.0,0.0
424420,0.014526,0.011964,-0.000209,0.0,0.0,0.0,0.0,0.0,0.0,3.0,0.282498,0.343532,0.30284,0.364506,0.0,-0.0,4e-06,0.0,0.0,-4e-06,0.0,0.0,0.0,0.0,0.0,0.0
424440,0.014282,0.011964,-0.000208,0.0,0.0,0.0,0.0,0.0,0.0,3.0,0.28416,0.34242,0.299559,0.36688,0.0,-0.0,4e-06,0.0,0.0,-4e-06,0.0,0.0,0.0,0.0,0.0,0.0
424460,0.01416,0.011842,-0.000206,0.0,0.0,0.0,0.0,0.0,0.0,3.0,0.282717,0.344346,0.298402,0.367006,0.0,-0.0,4e-06,0.0,0.0,-4e-06,0.0,0.0,0.0,0.0,0.0,0.0
424480,0.01416,0.011964,-0.000207,0.0,0.0,0.0,0.0,0.0,0.0,3.0,0.279697,0.343818,0.301129,0.367514,0.0,-0.0,4e-06,0.0,0.0,-4e-06,0.0,0.0,0.0,0.0,0.0,0.0
424500,0.013793,0.012209,-0.000328,0.0,0.0,0.0,0.0,0.0,0.0,3.0,0.285559,0.340953,0.300589,0.366439,0.0,-0.0,4e-06,0.0,0.0,-4e-06,0.0,0.0,0.0,0.0,0.0,0.0
424520,0.01367,0.012209,-0.000328,0.0,0.0,0.0,0.0,0.0,0.0,3.0,0.281968,0.343241,0.301875,0.365894,0.0,-0.0,4e-06,0.0,0.0,-4e-06,0.0,0.0,0.0,0.0,0.0,0.0
424540,0.013426,0.012209,-0.000326,0.0,0.0,0.0,0.0,0.0,0.0,3.0,0.28417,0.343189,0.299665,0.366088,0.0,-0.0,4e-06,0.0,0.0,-4e-06,0.0,0.0,0.0,0.0,0.0,0.0
424560,0.013426,0.012209,-0.000326,0.0,0.0,0.0,0.0,0.0,0.0,3.0,0.278797,0.345718,0.299968,0.36727,0.0,-0.0,4e-06,0.0,0.0,-4e-06,0.0,0.0,0.0,0.0,0.0,0.0
424580,0.013181,0.01221,-0.000447,0.0,0.0,0.0,0.0,0.0,0.0,3.0,0.284911,0.342646,0.300105,0.365724,0.0,-0.0,3e-06,0.0,0.0,-4e-06,0.0,0.0,0.0,0.0,0.0,0.0
424600,0.013181,0.01221,-0.000569,0.0,0.0,0.0,0.0,0.0,0.0,3.0,0.286114,0.342038,0.303048,0.363144,0.0,-0.0,3e-06,0.0,0.0,-4e-06,0.0,0.0,0.0,0.0,0.0,0.0
424620,0.013059,0.01221,-0.000568,0.0,0.0,0.0,0.0,0.0,0.0,3.0,0.284539,0.343041,0.300136,0.365601,0.0,-0.0,3e-06,0.0,0.0,-4e-06,0.0,0.0,0.0,0.0,0.0,0.0
424640,0.012936,0.012211,-0.000689,0.0,0.0,0.0,0.0,0.0,0.0,3.0,0.289532,0.339018,0.304712,0.362117,0.0,-0.0,3e-06,0.0,0.0,-4e-06,0.0,0.0,0.0,0.0,0.0,0.0
424660,0.012814,0.012089,-0.000688,0.0,0.0,0.0,0.0,0.0,0.0,3.0,0.289004,0.339919,0.303466,0.362662,0.0,-0.0,3e-06,0.0,0.0,-3e-06,0.0,0.0,0.0,0.0,0.0,0.0
424680,0.012692,0.012211,-0.000688,0.0,0.0,0.0,0.0,0.0,0.0,3.0,0.284814,0.34194,0.300391,0.36622,0.0,-0.0,3e-06,0.0,0.0,-3e-06,0.0,0.0,0.0,0.0,0.0,0.0
424700,0.012569,0.012212,-0.000809,0.0,0.0,0.0,0.0,0.0,0.0,3.0,0.286297,0.340631,0.303472,0.363973,0.0,-0.0,3e-06,0.0,0.0,-3e-06,0.0,0.0,0.0,0.0,0.0,0.0
424720,0.012568,0.012457,-0.000933,0.0,0.0,0.0,0.0,0.0,0.0,3.0,0.287037,0.337603,0.307957,0.362647,0.0,-0.0,3e-06,0.0,0.0,-3e-06,0.0,0.0,0.0,0.0,0.0,0.0
424740,0.012324,0.012457,-0.000931,0.0,0.0,0.0,0.0,0.0,0.0,3.0,0.284222,0.342907,0.301598,0.364825,0.0,-0.0,3e-06,0.0,0.0,-3e-06,0.0,0.0,0.0,0.0,0.0,0.0
424760,0.012201,0.012457,-0.001053,0.0,0.0,0.0,0.0,0.0,0.0,3.0,0.285398,0.340571,0.30489,0.363561,0.0,-0.0,3e-06,0.0,0.0,-3e-06,0.0,0.0,0.0,0.0,0.0,0.0
424780,0.012078,0.01258,-0.001175,0.0,0.0,0.0,0.0,0.0,0.0,3.0,0.288959,0.337021,0.306719,0.362763,0.0,-0.0,3e-06,0.0,0.0,-3e-06,0.0,0.0,0.0,0.0,0.0,0.0
424800,0.011833,0.012825,-0.001297,0.0,0.0,0.0,0.0,0.0,0.0,3.0,0.287108,0.337488,0.304488,0.365448,0.0,-0.0,3e-06,0.0,0.0,-3e-06,0.0,0.0,0.0,0.0,0.0,0.0
424820,0.011711,0.013069,-0.001297,0.0,0.0,0.0,0.0,0.0,0.0,3.0,0.283818,0.339707,0.302698,0.36718,0.0,-0.0,3e-06,0.0,0.0,-3e-06,0.0,0.0,0.0,0.0,0.0,0.0
424840,0.011466,0.013191,-0.001419,0.0,0.0,0.0,0.0,0.0,0.0,3.0,0.285487,0.340037,0.302229,0.366061,0.0,-0.0,3e-06,0.0,0.0,-3e-06,0.0,0.0,0.0,0.0,0.0,0.0
424860,0.011343,0.013314,-0.001541,0.0,0.0,0.0,0.0,0.0,0.0,3.0,0.286155,0.339506,0.301949,0.366281,0.0,-0.0,3e-06,0.0,0.0,-3e-06,0.0,0.0,0.0,0.0,0.0,0.0
424880,0.011098,0.013315,-0.001661,0.0,0.0,0.0,0.0,0.0,0.0,3.0,0.28678,0.338981,0.302818,0.365637,0.0,-0.0,2e-06,0.0,0.0,-3e-06,0.0,0.0,0.0,0.0,0.0,0.0
424900,0.010975,0.013437,-0.001783,0.0,0.0,0.0,0.0,0.0,0.0,3.0,0.286541,0.337847,0.303454,0.366338,0.0,-0.0,2e-06,0.0,0.0,-3e-06,0.0,0.0,0.0,0.0,0.0,0.0
424920,0.010852,0.013682,-0.001906,0.0,0.0,0.0,0.0,0.0,0.0,3.0,0.285606,0.336799,0.304682,0.366989,0.0,-0.0,2e-06,0.0,0.0,-3e-06,0.0,0.0,0.0,0.0,0.0,0.0
424940,0.010729,0.013805,-0.002027,0.0,0.0,0.0,0.0,0.0,0.0,3.0,0.285685,0.336696,0.304909,0.366847,0.0,-0.0,2e-06,0.0,0.0,-3e-06,0.0,0.0,0.0,0.0,0.0,0.0
424960,0.010606,0.013683,-0.002148,0.0,0.0,0.0,0.0,0.0,0.0,3.0,0.286226,0.338322,0.30464,0.365211,0.0,-0.0,2e-06,0.0,0.0,-3e-06,0.0,0.0,0.0,0.0,0.0,0.0
424980,0.010361,0.013561,-0.002268,0.0,0.0,0.0,0.0,0.0,0.0,3.0,0.289135,0.336645,0.306792,0.362917,0.0,-0.0,2e-06,0.0,0.0,-2e-06,0.0,0.0,0.0,0.0,0.0,0.0
425000,0.010116,0.013562,-0.002388,0.0,0.0,0.0,0.0,0.0,0.0,3.0,0.290928,0.33589,0.307953,0.361345,0.0,-0.0,2e-06,0.0,0.0,-2e-06,0.0,0.0,0.0,0.0,0.0,0.0
425020,0.010115,0.013684,-0.002511,0.0,0.0,0.0,0.0,0.0,0.0,3.0,0.290117,0.33417,0.309249,0.362453,0.0,-0.0,2e-06,0.0,0.0,-2e-06,0.0,0.0,0.0,0.0,0.0,0.0
425040,0.009993,0.013684,-0.00251,0.0,0.0,0.0,0.0,0.0,0.0,3.0,0.2864,0.338708,0.303621,0.365533,0.0,-0.0,2e-06,0.0,0.0,-2e-06,0.0,0.0,0.0,0.0,0.0,0.0
425060,0.009748,0.013929,-0.002632,0.0,0.0,0.0,0.0,0.0,0.0,3.0,0.290593,0.335498,0.302871,0.36596,0.0,-0.0,2e-06,0.0,0.0,-2e-06,0.0,0.0,0.0,0.0,0.0,0.0
425080,0.009502,0.014295,-0.002754,0.0,0.0,0.0,0.0,0.0,0.0,3.0,0.289397,0.334767,0.303408,0.367065,0.0,-0.0,2e-06,0.0,0.0,-2e-06,0.0,0.0,0.0,0.0,0.0,0.0
425100,0.009379,0.014418,-0.002876,0.0,0.0,0.0,0.0,0.0,0.0,3.0,0.290033,0.335618,0.305327,0.364345,0.0,0.0,2e-06,0.0,0.0,-2e-06,0.0,0.0,0.0,0.0,0.0,0.0
425120,0.009012,0.01454,-0.002996,0.0,0.0,0.0,0.0,0.0,0.0,3.0,0.292729,0.335036,0.307753,0.360933,0.0,0.0,2e-06,0.0,0.0,-2e-06,0.0,0.0,0.0,0.0,0.0,0.0
425140,0.008645,0.01454,-0.003115,0.0,0.0,0.0,0.0,0.0,0.0,3.0,0.294584,0.334831,0.306566,0.360672,0.0,0.0,2e-06,0.0,0.0,-2e-06,0.0,0.0,0.0,0.0,0.0,0.0
425160,0.008278,0.014662,-0.003235,0.0,0.0,0.0,0.0,0.0,0.0,3.0,0.293723,0.333842,0.30779,0.361233,0.0,0.0,2e-06,0.0,0.0,-2e-06,0.0,0.0,0.0,0.0,0.0,0.0
425180,0.007666,0.014906,-0.003354,0.0,0.0,0.0,0.0,0.0,0.0,3.0,0.296697,0.331762,0.305239,0.362876,0.0,0.0,2e-06,-0.0,0.0,-2e-06,0.0,0.0,0.0,0.0,0.0,0.0
425200,0.007177,0.015027,-0.00335,0.0,0.0,0.0,0.0,0.0,0.0,3.0,0.292024,0.336422,0.300598,0.365838,0.0,0.0,2e-06,0.0,0.0,-2e-06,0.0,0.0,0.0,0.0,0.0,0.0
425220,0.006688,0.014904,-0.003469,0.0,0.0,0.0,0.0,0.0,0.0,3.0,0.293244,0.335896,0.3015,0.364711,0.0,0.0,2e-06,-0.0,0.0,-2e-06,0.0,0.0,0.0,0.0,0.0,0.0
425240,0.006078,0.01466,-0.003585,0.0,0.0,0.0,0.0,0.0,0.0,3.0,0.293663,0.336263,0.301541,0.364039,0.0,0.0,2e-06,-0.0,0.0,-2e-06,0.0,0.0,0.0,0.0,0.0,0.0
425260,0.005589,0.014293,-0.003703,0.0,0.0,0.0,0.0,0.0,0.0,3.0,0.29634,0.334221,0.306228,0.360155,0.0,0.0,2e-06,-0.0,0.0,-2e-06,0.0,0.0,0.0,0.0,0.0,0.0
425280,0.004857,0.014048,-0.003697,0.0,0.0,0.0,0.0,0.0,0.0,3.0,0.292619,0.336316,0.301163,0.36506,0.0,0.0,2e-06,-0.0,0.0,-2e-06,0.0,0.0,0.0,0.0,0.0,0.0
425300,0.004369,0.013559,-0.003815,0.0,0.0,0.0,0.0,0.0,0.0,3.0,0.291185,0.33797,0.304695,0.361864,0.0,0.0,2e-06,-0.0,0.0,-2e-06,0.0,0.0,0.0,0.0,0.0,0.0
425320,0.003514,0.013435,-0.003931,0.0,0.0,0.0,0.0,0.0,0.0,3.0,0.298027,0.332847,0.306548,0.359839,0.0,0.0,2e-06,-0.0,0.0,-2e-06,0.0,0.0,0.0,0.0,0.0,0.0
425340,0.002905,0.01319,-0.003804,0.0,0.0,0.0,0.0,0.0,0.0,3.0,0.292376,0.337442,0.300895,0.364432,0.0,0.0,1e-06,-0.0,0.0,-2e-06,0.0,0.0,0.0,0.0,0.0,0.0
425360,0.002173,0.013066,-0.003677,0.0,0.0,0.0,0.0,0.0,0.0,3.0,0.287913,0.339826,0.296131,0.369139,0.0,0.0,1e-06,-0.0,0.0,-2e-06,0.0,0.0,0.0,0.0,0.0,0.0
425380,0.001319,0.012576,-0.003793,0.0,0.0,0.0,0.0,0.0,0.0,3.0,0.294719,0.338545,0.295083,0.366108,0.0,0.0,1e-06,-0.0,0.0,-2e-06,0.0,0.0,0.0,0.0,0.0,0.0
425400,0.000832,0.011965,-0.00379,0.0,0.0,0.0,0.0,0.0,0.0,3.0,0.294204,0.33792,0.302038,0.361742,0.0,0.0,1e-06,-0.0,0.0,-2e-06,0.0,0.0,0.0,0.0,0.0,0.0
425420,0.0001,0.011475,-0.003786,0.0,0.0,0.0,0.0,0.0,0.0,3.0,0.294726,0.33997,0.299667,0.361314,0.0,0.0,1e-06,-0.0,0.0,-2e-06,0.0,0.0,0.0,0.0,0.0,0.0
425440,-0.000265,0.011231,-0.003661,0.0,0.0,0.0,0.0,0.0,0.0,3.0,0.286773,0.341293,0.297781,0.367396,0.0,0.0,1e-06,-0.0,0.0,-1e-06,0.0,0.0,0.0,0.0,0.0,0.0
425460,-0.000875,0.010741,-0.00378,0.0,0.0,0.0,0.0,0.0,0.0,3.0,0.294505,0.338651,0.300603,0.361966,0.0,0.0,1e-06,-0.0,0.0,-1e-06,0.0,0.0,0.0,0.0,0.0,0.0
425480,-0.001362,0.010374,-0.003778,0.0,0.0,0.0,0.0,0.0,0.0,3.0,0.299359,0.335879,0.303502,0.358488,0.0,0.0,1e-06,-0.0,0.0,-1e-06,0.0,0.0,0.0,0.0,0.0,0.0
425500,-0.001849,0.010373,-0.003531,0.0,0.0,0.0,0.0,0.0,0.0,3.0,0.29249,0.338823,0.296316,0.366587,0.0,0.0,1e-06,-0.0,0.0,-1e-06,0.0,0.0,0.0,0.0,0.0,0.0
425520,-0.002338,0.01025,-0.003529,0.0,0.0,0.0,0.0,0.0,0.0,3.0,0.291087,0.340443,0.294559,0.367461,0.0,0.0,1e-06,-0.0,0.0,-1e-06,0.0,0.0,0.0,0.0,0.0,0.0
425540,-0.002947,0.009883,-0.003526,0.0,0.0,0.0,0.0,0.0,0.0,3.0,0.296533,0.339377,0.297387,0.362244,0.0,0.0,1e-06,-0.0,0.0,-1e-06,0.0,0.0,0.0,0.0,0.0,0.0
425560,-0.003435,0.009272,-0.003525,0.0,0.0,0.0,0.0,0.0,0.0,3.0,0.299058,0.339147,0.300211,0.358314,0.0,0.0,1e-06,-0.0,0.0,-1e-06,0.0,0.0,0.0,0.0,0.0,0.0
425580,-0.004044,0.009027,-0.0034,0.0,0.0,0.0,0.0,0.0,0.0,3.0,0.29441,0.339712,0.295565,0.364921,0.0,0.0,1e-06,-0.0,0.0,-1e-06,0.0,0.0,0.0,0.0,0.0,0.0
425600,-0.004409,0.008538,-0.0034,0.0,0.0,0.0,0.0,0.0,0.0,3.0,0.292607,0.339128,0.299312,0.36395,0.0,0.0,1e-06,-0.0,0.0,-1e-06,0.0,0.0,0.0,0.0,0.0,0.0
425620,-0.004897,0.008171,-0.003399,0.0,0.0,0.0,0.0,0.0,0.0,3.0,0.296565,0.336652,0.30148,0.361541,0.0,0.0,1e-06,-0.0,0.0,-1e-06,0.0,0.0,0.0,0.0,0.0,0.0
425640,-0.005384,0.00756,-0.003276,0.0,0.0,0.0,0.0,0.0,0.0,3.0,0.298172,0.339479,0.300145,0.358749,0.0,0.0,1e-06,-0.0,0.0,-1e-06,0.0,0.0,0.0,0.0,0.0,0.0
425660,-0.005749,0.007193,-0.003154,0.0,0.0,0.0,0.0,0.0,0.087266,3.0,0.595643,0.15,0.597299,0.15,0.0,0.0,0.000667,-0.0,0.0,0.118793,0.0,0.0,0.0,0.0,0.0,0.0
425680,-0.005986,0.007077,-0.001078,0.0,0.0,0.0,0.0,0.0,0.087266,3.0,0.351341,0.273583,0.360648,0.306215,0.0,0.0,0.003459,0.0,0.0,0.160763,0.0,0.0,0.0,0.0,0.0,0.0
425700,-0.005966,0.006972,0.00466,0.0,0.0,0.0,0.0,0.0,0.087266,3.0,0.269218,0.357515,0.275848,0.379581,0.0,0.0,0.006759,-0.0,0.0,0.170103,0.0,0.0,0.0,0.0,0.0,0.0
425720,-0.00631,0.006992,0.010766,0.0,0.0,0.0,0.0,0.0,0.087266,3.0,0.250482,0.367656,0.258534,0.391568,0.0,0.0,0.0102,-0.0,0.0,0.174984,0.0,0.0,0.0,0.0,0.0,0.0
425740,-0.007028,0.00689,0.015284,0.0,0.0,0.0,0.0,0.0,0.087266,3.0,0.287624,0.346096,0.285001,0.371685,0.0,0.0,0.013729,-0.0,0.0,0.178647,0.0,0.0,0.0,0.0,0.0,0.0
425760,-0.007505,0.006906,0.018581,0.0,0.0,0.0,0.0,0.0,0.087266,3.0,0.315134,0.320797,0.313831,0.350535,0.0,0.0,0.017324,-0.0,0.0,0.181384,0.0,0.0,0.0,0.0,0.0,0.0
425780,-0.007859,0.007165,0.021394,0.0,0.0,0.0,0.0,0.0,0.087266,3.0,0.31554,0.317724,0.31895,0.348426,0.0,0.0,0.020967,-0.0,0.0,0.183268,0.0,0.0,0.0,0.0,0.0,0.0
425800,-0.008338,0.007059,0.024203,0.0,0.0,0.0,0.0,0.0,0.087266,3.0,0.30773,0.327038,0.309606,0.354802,0.0,0.0,0.024642,-0.0,0.0,0.184353,0.0,0.0,0.0,0.0,0.0,0.0
425820,-0.008576,0.00683,0.026887,0.0,0.0,0.0,0.0,0.0,0.087266,3.0,0.307029,0.327414,0.310522,0.354279,0.0,0.0,0.028332,-0.0,0.0,0.184691,0.0,0.0,0.0,0.0,0.0,0.0
425840,-0.008814,0.006602,0.02982,0.0,0.0,0.0,0.0,0.0,0.087266,3.0,0.307091,0.327866,0.310797,0.353589,0.0,0.0,0.032025,-0.0,0.0,0.184334,0.0,0.0,0.0,0.0,0.0,0.0
425860,-0.009056,0.006131,0.032869,0.0,0.0,0.0,0.0,0.0,0.087266,3.0,0.303376,0.334499,0.305249,0.355154,0.0,0.0,0.035705,-0.0,0.0,0.18333,0.0,0.0,0.0,0.0,0.0,0.0
425880,-0.0093,0.00566,0.035795,0.0,0.0,0.0,0.0,0.0,0.087266,3.0,0.297663,0.33701,0.301714,0.360188,0.0,0.0,0.03936,-0.0,0.0,0.181729,0.0,0.0,0.0,0.0,0.0,0.0
425900,-0.009675,0.004825,0.03836,0.0,0.0,0.0,0.0,0.0,0.087266,3.0,0.308133,0.330781,0.310108,0.350637,0.0,0.0,0.042979,-0.0,0.0,0.179577,0.0,0.0,0.0,0.0,0.0,0.0
425920,-0.010047,0.004236,0.041163,0.0,0.0,0.0,0.0,0.0,0.087266,3.0,0.305595,0.334075,0.30671,0.352537,0.0,0.0,0.046552,-0.0,0.0,0.176921,0.0,0.0,0.0,0.0,0.0,0.0
425940,-0.010299,0.003645,0.043851,0.0,0.0,0.0,0.0,0.0,0.087266,3.0,0.302429,0.33753,0.303198,0.354765,0.0,0.0,0.050068,-0.0,0.0,0.173805,0.0,0.0,0.0,0.0,0.0,0.0
425960,-0.010683,0.00269,0.046406,0.0,0.0,0.0,0.0,0.0,0.087266,3.0,0.299637,0.341072,0.29997,0.356246,0.0,0.0,0.053518,-0.0,0.0,0.170271,0.0,0.0,0.0,0.0,0.0,0.0
425980,-0.010945,0.001854,0.048727,0.0,0.0,0.0,0.0,0.0,0.087266,3.0,0.302449,0.338108,0.304447,0.35319,0.0,0.0,0.056894,-0.0,0.0,0.166361,0.0,0.0,0.0,0.0,0.0,0.0
426000,-0.01133,0.001022,0.051038,0.0,0.0,0.0,0.0,0.0,0.087266,3.0,0.307285,0.335633,0.306583,0.349775,0.0,0.0,0.06019,-0.0,0.0,0.162114,0.0,0.0,0.0,0.0,0.0,0.0
426020,-0.011969,-4.6e-05,0.053478,0.0,0.0,0.0,0.0,0.0,0.087266,3.0,0.305395,0.341894,0.298141,0.352267,0.0,0.0,0.063399,-0.0,0.0,0.157568,0.0,0.0,0.0,0.0,0.0,0.0
426040,-0.012243,-0.001125,0.055665,0.0,0.0,0.0,0.0,0.0,0.087266,3.0,0.299991,0.343645,0.298951,0.354323,0.0,0.0,0.066515,-0.0,0.0,0.152761,0.0,0.0,0.0,0.0,0.0,0.0
426060,-0.012887,-0.002193,0.057617,0.0,0.0,0.0,0.0,0.0,0.087266,3.0,0.308213,0.33866,0.302218,0.349728,0.0,0.0,0.069532,-0.0,0.0,0.147726,0.0,0.0,0.0,0.0,0.0,0.0
426080,-0.013294,-0.003512,0.059556,0.0,0.0,0.0,0.0,0.0,0.087266,3.0,0.309026,0.338927,0.306602,0.345114,0.0,0.0,0.072448,-0.0,-0.0,0.142497,0.0,0.0,0.0,0.0,0.0,0.0
426100,-0.014075,-0.004941,0.061504,0.0,0.0,0.0,0.0,0.0,0.087266,3.0,0.307078,0.344465,0.299993,0.346855,0.0,0.0,0.075258,-0.0,-0.0,0.137105,0.0,0.0,0.0,0.0,0.0,0.0
426120,-0.014732,-0.006249,0.063441,0.0,0.0,0.0,0.0,0.0,0.087266,3.0,0.302304,0.347436,0.294681,0.352147,0.0,0.0,0.077958,-0.0,-0.0,0.13158,0.0,0.0,0.0,0.0,0.0,0.0
426140,-0.015506,-0.007311,0.065145,0.0,0.0,0.0,0.0,0.0,0.087266,3.0,0.305335,0.342006,0.299749,0.35092,0.0,0.0,0.080548,-0.0,-0.0,0.12595,0.0,0.0,0.0,0.0,0.0,0.0
426160,-0.016403,-0.008367,0.066837,0.0,0.0,0.0,0.0,0.0,0.087266,3.0,0.311312,0.339922,0.298758,0.348698,0.0,0.0,0.083024,-0.0,-0.0,0.120243,0.0,0.0,0.0,0.0,0.0,0.0
426180,-0.017061,-0.009553,0.068418,0.0,0.0,0.0,0.0,0.0,0.087266,3.0,0.310329,0.340823,0.299892,0.347744,0.0,0.0,0.085386,-0.0,-0.0,0.114483,0.0,0.0,0.0,0.0,0.0,0.0
426200,-0.01783,-0.010368,0.069988,0.0,0.0,0.0,0.0,0.0,0.087266,3.0,0.311134,0.339851,0.296639,0.35062,0.0,0.0,0.087632,-0.0,-0.0,0.108694,0.0,0.0,0.0,0.0,0.0,0.0
426220,-0.018353,-0.011069,0.071452,0.0,0.0,0.0,0.0,0.0,0.087266,3.0,0.310693,0.338835,0.299128,0.349973,0.0,0.0,0.089763,-0.0,-0.0,0.102897,0.0,0.0,0.0,0.0,0.0,0.0
426240,-0.018997,-0.011765,0.072901,0.0,0.0,0.0,0.0,0.0,0.087266,3.0,0.309605,0.340915,0.297067,0.350553,0.0,0.0,0.091777,-0.0,-0.0,0.097114,0.0,0.0,0.0,0.0,0.0,0.0
426260,-0.019764,-0.012457,0.07424,0.0,0.0,0.0,0.0,0.0,0.087266,3.0,0.313317,0.339419,0.297745,0.348275,0.0,0.0,0.093676,-0.0,-0.0,0.091363,0.0,0.0,0.0,0.0,0.0,0.0
426280,-0.020175,-0.013406,0.075566,0.0,0.0,0.0,0.0,0.0,0.087266,3.0,0.308326,0.344052,0.296577,0.348975,0.0,0.0,0.095461,-0.0,-0.0,0.085662,0.0,0.0,0.0,0.0,0.0,0.0
426300,-0.020705,-0.014229,0.076783,0.0,0.0,0.0,0.0,0.0,0.087266,3.0,0.312202,0.342783,0.299431,0.344574,0.0,0.0,0.097132,-0.0,-0.0,0.080028,0.0,0.0,0.0,0.0,0.0,0.0
426320,-0.021111,-0.015057,0.077866,0.0,0.0,0.0,0.0,0.0,0.087266,3.0,0.314197,0.340818,0.303027,0.341757,0.0,0.0,0.09869,-0.0,-0.0,0.074475,0.0,0.0,0.0,0.0,0.0,0.0
426340,-0.021637,-0.015758,0.078963,0.0,0.0,0.0,0.0,0.0,0.087266,3.0,0.314546,0.341112,0.300939,0.342912,0.0,0.0,0.100139,-0.0,-0.0,0.069016,0.0,0.0,0.0,0.0,0.0,0.0
426360,-0.021909,-0.016224,0.080049,0.0,0.0,0.0,0.0,0.0,0.087266,3.0,0.309717,0.342483,0.298329,0.347919,0.0,0.0,0.101479,-0.0,-0.0,0.063665,0.0,0.0,0.0,0.0,0.0,0.0
426380,-0.02242,-0.01656,0.081028,0.0,0.0,0.0,0.0,0.0,0.087266,3.0,0.312337,0.342369,0.2953,0.348217,0.0,0.0,0.102713,-0.0,-0.0,0.058432,0.0,0.0,0.0,0.0,0.0,0.0
426400,-0.022569,-0.017033,0.081872,0.0,0.0,0.0,0.0,0.0,0.087266,3.0,0.313173,0.338572,0.302612,0.345224,0.0,0.0,0.103843,-0.0,-0.0,0.053328,0.0,0.0,0.0,0.0,0.0,0.0
426420,-0.02284,-0.0175,0.082715,0.0,0.0,0.0,0.0,0.0,0.087266,3.0,0.315558,0.33965,0.29936,0.344768,0.0,0.0,0.104872,-0.0,-0.0,0.048361,0.0,0.0,0.0,0.0,0.0,0.0
426440,-0.022869,-0.017979,0.083576,0.0,0.0,0.0,0.0,0.0,0.087266,3.0,0.312694,0.341288,0.300147,0.34503,0.0,0.0,0.105803,-0.0,-0.0,0.043539,0.0,0.0,0.0,0.0,0.0,0.0
426460,-0.022895,-0.018458,0.0843,0.0,0.0,0.0,0.0,0.0,0.087266,3.0,0.311907,0.342123,0.301296,0.343939,0.0,0.0,0.106638,-0.0,-0.0,0.038869,0.0,0.0,0.0,0.0,0.0,0.0
426480,-0.023039,-0.01881,0.085024,0.0,0.0,0.0,0.0,0.0,0.087266,3.0,0.311429,0.340892,0.30038,0.346328,0.0,0.0,0.107382,-0.0,-0.0,0.034357,0.0,0.0,0.0,0.0,0.0,0.0
426500,-0.023061,-0.019167,0.085749,0.0,0.0,0.0,0.0,0.0,0.087266,3.0,0.30796,0.342365,0.297806,0.349945,0.0,0.0,0.108036,-0.0,-0.0,0.030007,0.0,0.0,0.0,0.0,0.0,0.0
426520,-0.023323,-0.019394,0.086367,0.0,0.0,0.0,0.0,0.0,0.087266,3.0,0.312051,0.339971,0.298915,0.347888,0.0,0.0,0.108604,-0.0,-0.0,0.025824,0.0,0.0,0.0,0.0,0.0,0.0
426540,-0.023339,-0.019631,0.086972,0.0,0.0,0.0,0.0,0.0,0.087266,3.0,0.310542,0.340476,0.299761,0.348006,0.0,0.0,0.10909,-0.0,-0.0,0.02181,0.0,0.0,0.0,0.0,0.0,0.0
426560,-0.023487,-0.020107,0.087451,0.0,0.0,0.0,0.0,0.0,0.087266,3.0,0.311873,0.342044,0.298768,0.346135,0.0,0.0,0.109498,-0.0,-0.0,0.017969,0.0,0.0,0.0,0.0,0.0,0.0
426580,-0.023385,-0.020473,0.087934,0.0,0.0,0.0,0.0,0.0,0.087266,3.0,0.309241,0.341599,0.301511,0.346587,0.0,0.0,0.109829,-0.0,-0.0,0.014301,0.0,0.0,0.0,0.0,0.0,0.0
426600,-0.023408,-0.020834,0.088432,0.0,0.0,0.0,0.0,0.0,0.087266,3.0,0.311456,0.340767,0.301468,0.345527,0.0,0.0,0.110089,-0.0,-0.0,0.010808,0.0,0.0,0.0,0.0,0.0,0.0
426620,-0.02354,-0.020944,0.088915,0.0,0.0,0.0,0.0,0.0,0.087266,3.0,0.31159,0.340366,0.299632,0.347318,0.0,0.0,0.11028,-0.0,-0.0,0.007489,0.0,0.0,0.0,0.0,0.0,0.0
426640,-0.023549,-0.021062,0.089278,0.0,0.0,0.0,0.0,0.0,0.087266,3.0,0.312319,0.340477,0.300384,0.345958,0.0,0.0,0.110406,-0.0,-0.0,0.004346,0.0,0.0,0.0,0.0,0.0,0.0
426660,-0.023675,-0.021052,0.089641,0.0,0.0,0.0,0.0,0.0,0.087266,3.0,0.312816,0.339161,0.299128,0.347837,0.0,0.0,0.11047,-0.0,-0.0,0.001375,0.0,0.0,0.0,0.0,0.0,0.0
426680,-0.023445,-0.021302,0.090006,0.0,0.0,0.0,0.0,0.0,0.087266,3.0,0.311104,0.339948,0.302324,0.345924,0.0,0.0,0.110476,-0.0,-0.0,-0.001423,0.0,0.0,0.0,0.0,0.0,0.0
426700,-0.023575,-0.021416,0.090246,0.0,0.0,0.0,0.0,0.0,0.087266,3.0,0.316289,0.336402,0.30342,0.343899,0.0,0.0,0.110428,-0.0,-0.0,-0.00405,0.0,0.0,0.0,0.0,0.0,0.0
426720,-0.023468,-0.021661,0.09061,0.0,0.0,0.0,0.0,0.0,0.087266,3.0,0.312679,0.339823,0.299938,0.346651,0.0,0.0,0.110328,-0.0,-0.0,-0.00651,0.0,0.0,0.0,0.0,0.0,0.0
426740,-0.0236,-0.021775,0.090866,0.0,0.0,0.0,0.0,0.0,0.087266,3.0,0.314024,0.340062,0.298576,0.34636,0.0,0.0,0.11018,-0.0,-0.0,-0.008805,0.0,0.0,0.0,0.0,0.0,0.0
426760,-0.023602,-0.021772,0.091109,0.0,0.0,0.0,0.0,0.0,0.087266,3.0,0.31661,0.337,0.303404,0.343044,-0.0,0.0,0.109988,-0.0,-0.0,-0.010937,0.0,0.0,0.0,0.0,0.0,0.0
426780,-0.02349,-0.021895,0.091474,0.0,0.0,0.0,0.0,0.0,0.087266,3.0,0.310976,0.341946,0.299753,0.346203,-0.0,0.0,0.109754,-0.0,-0.0,-0.012911,0.0,0.0,0.0,0.0,0.0,0.0
426800,-0.023503,-0.022136,0.091714,0.0,0.0,0.0,0.0,0.0,0.087266,3.0,0.314523,0.341472,0.300822,0.342672,-0.0,0.0,0.109482,-0.0,-0.0,-0.01473,0.0,0.0,0.0,0.0,0.0,0.0
426820,-0.023389,-0.022261,0.091957,0.0,0.0,0.0,0.0,0.0,0.087266,3.0,0.313221,0.340578,0.30171,0.343969,-0.0,0.0,0.109175,-0.0,-0.0,-0.016399,0.0,0.0,0.0,0.0,0.0,0.0
426840,-0.023636,-0.022246,0.092197,0.0,0.0,0.0,0.0,0.0,0.087266,3.0,0.315995,0.340139,0.298322,0.344753,-0.0,0.0,0.108835,-0.0,-0.0,-0.017921,0.0,0.0,0.0,0.0,0.0,0.0
426860,-0.023637,-0.022245,0.092318,0.0,0.0,0.0,0.0,0.0,0.087266,3.0,0.316566,0.339544,0.301894,0.341857,-0.0,0.0,0.108466,-0.0,-0.0,-0.019301,0.0,0.0,0.0,0.0,0.0,0.0
426880,-0.023756,-0.022114,0.092561,0.0,0.0,0.0,0.0,0.0,0.087266,3.0,0.318614,0.339438,0.298323,0.343092,-0.0,0.0,0.108071,-0.0,-0.0,-0.020543,0.0,0.0,0.0,0.0,0.0,0.0
426900,-0.023642,-0.022239,0.092804,0.0,0.0,0.0,0.0,0.0,0.087266,3.0,0.314855,0.342602,0.298107,0.343506,-0.0,0.0,0.107651,-0.0,-0.0,-0.021653,0.0,0.0,0.0,0.0,0.0,0.0
426920,-0.023522,-0.022243,0.092927,0.0,0.0,0.0,0.0,0.0,0.087266,3.0,0.314511,0.341165,0.299998,0.343675,-0.0,0.0,0.107211,-0.0,-0.0,-0.022635,0.0,0.0,0.0,0.0,0.0,0.0
426940,-0.023653,-0.022357,0.093184,0.0,0.0,0.0,0.0,0.0,0.087266,3.0,0.311025,0.346248,0.292576,0.347686,-0.0,0.0,0.106751,-0.0,-0.0,-0.023494,0.0,0.0,0.0,0.0,0.0,0.0
426960,-0.023521,-0.022118,0.09331,0.0,0.0,0.0,0.0,0.0,0.087266,3.0,0.310361,0.341362,0.297775,0.348911,-0.0,0.0,0.106276,-0.0,-0.0,-0.024236,0.0,0.0,0.0,0.0,0.0,0.0
426980,-0.023645,-0.022111,0.093429,0.0,0.0,0.0,0.0,0.0,0.087266,3.0,0.311807,0.342373,0.296311,0.347862,-0.0,0.0,0.105786,-0.0,-0.0,-0.024866,0.0,0.0,0.0,0.0,0.0,0.0
427000,-0.023535,-0.022359,0.09355,0.0,0.0,0.0,0.0,0.0,0.087266,3.0,0.312769,0.343259,0.299632,0.343435,-0.0,0.0,0.105285,-0.0,-0.0,-0.025388,0.0,0.0,0.0,0.0,0.0,0.0
427020,-0.023415,-0.022363,0.093673,0.0,0.0,0.0,0.0,0.0,0.087266,3.0,0.313065,0.34089,0.299009,0.346034,-0.0,0.0,0.104774,-0.0,-0.0,-0.025808,0.0,0.0,0.0,0.0,0.0,0.0
427040,-0.023422,-0.022483,0.093793,0.0,0.0,0.0,0.0,0.0,0.087266,3.0,0.313208,0.341256,0.299604,0.34506,-0.0,0.0,0.104255,-0.0,-0.0,-0.026131,0.0,0.0,0.0,0.0,0.0,0.0
427060,-0.023545,-0.022476,0.093913,0.0,0.0,0.0,0.0,0.0,0.087266,3.0,0.315817,0.340123,0.298867,0.344478,-0.0,0.0,0.10373,-0.0,-0.0,-0.026362,0.0,0.0,0.0,0.0,0.0,0.0
427080,-0.023548,-0.022473,0.094156,0.0,0.0,0.0,0.0,0.0,0.087266,3.0,0.310058,0.344881,0.29502,0.34793,-0.0,0.0,0.103202,-0.0,-0.0,-0.026507,0.0,0.0,0.0,0.0,0.0,0.0
427100,-0.023549,-0.022472,0.094277,0.0,0.0,0.0,0.0,0.0,0.087266,3.0,0.310067,0.346119,0.295219,0.346534,-0.0,0.0,0.102671,-0.0,-0.0,-0.02657,0.0,0.0,0.0,0.0,0.0,0.0
427120,-0.023544,-0.022348,0.0944,0.0,0.0,0.0,0.0,0.0,0.087266,3.0,0.311497,0.345336,0.293293,0.347617,-0.0,0.0,0.10214,-0.0,-0.0,-0.026556,0.0,0.0,0.0,0.0,0.0,0.0
427140,-0.023551,-0.022469,0.09452,0.0,0.0,0.0,0.0,0.0,0.087266,3.0,0.31268,0.345624,0.294004,0.345738,-0.0,0.0,0.101609,-0.0,-0.0,-0.026471,0.0,0.0,0.0,0.0,0.0,0.0
427160,-0.023662,-0.022219,0.094521,0.0,0.0,0.0,0.0,0.0,0.087266,3.0,0.316834,0.340476,0.296399,0.345244,-0.0,0.0,0.101081,-0.0,-0.0,-0.026319,0.0,0.0,0.0,0.0,0.0,0.0
427180,-0.023657,-0.022096,0.094644,0.0,0.0,0.0,0.0,0.0,0.087266,3.0,0.315475,0.341132,0.296601,0.345642,-0.0,0.0,0.100556,-0.0,-0.0,-0.026105,0.0,0.0,0.0,0.0,0.0,0.0
427200,-0.023543,-0.022222,0.094765,0.0,0.0,0.0,0.0,0.0,0.087266,3.0,0.314535,0.34238,0.297089,0.344843,-0.0,0.0,0.100036,-0.0,-0.0,-0.025833,0.0,0.0,0.0,0.0,0.0,0.0
427220,-0.02355,-0.022342,0.094885,0.0,0.0,0.0,0.0,0.0,0.087266,3.0,0.31341,0.344601,0.293178,0.346779,-0.0,0.0,0.099521,-0.0,-0.0,-0.025508,0.0,0.0,0.0,0.0,0.0,0.0
427240,-0.023677,-0.022458,0.094882,0.0,0.0,0.0,0.0,0.0,0.087266,3.0,0.320961,0.340689,0.297581,0.340319,-0.0,0.0,0.099014,-0.0,-0.0,-0.025135,0.0,0.0,0.0,0.0,0.0,0.0
427260,-0.023679,-0.022457,0.095004,0.0,0.0,0.0,0.0,0.0,0.087266,3.0,0.318927,0.341912,0.296531,0.34183,-0.0,0.0,0.098514,-0.0,-0.0,-0.024717,0.0,0.0,0.0,0.0,0.0,0.0
427280,-0.023546,-0.022217,0.09513,0.0,0.0,0.0,0.0,0.0,0.087266,3.0,0.313318,0.343977,0.295807,0.345371,-0.0,0.0,0.098023,-0.0,-0.0,-0.024258,0.0,0.0,0.0,0.0,0.0,0.0
427300,-0.023553,-0.022338,0.09525,0.0,0.0,0.0,0.0,0.0,0.087266,3.0,0.31293,0.346936,0.293165,0.344875,-0.0,-0.0,0.097542,-0.0,-0.0,-0.023764,0.0,0.0,0.0,0.0,0.0,0.0
427320,-0.023426,-0.022222,0.095253,0.0,0.0,0.0,0.0,0.0,0.087266,3.0,0.315005,0.343173,0.297414,0.343373,-0.0,-0.0,0.097071,-0.0,-0.0,-0.023237,0.0,0.0,0.0,0.0,0.0,0.0
427340,-0.023561,-0.022458,0.09537,0.0,0.0,0.0,0.0,0.0,0.087266,3.0,0.314628,0.346617,0.294447,0.342663,-0.0,-0.0,0.09661,-0.0,-0.0,-0.022681,0.0,0.0,0.0,0.0,0.0,0.0
427360,-0.023562,-0.022457,0.095491,0.0,0.0,0.0,0.0,0.0,0.087266,3.0,0.312775,0.347555,0.292116,0.345223,-0.0,-0.0,0.096161,-0.0,-0.0,-0.0221,0.0,0.0,0.0,0.0,0.0,0.0
427380,-0.023687,-0.022451,0.095628,0.0,0.0,0.0,0.0,0.0,0.087266,3.0,0.310094,0.349512,0.287977,0.348805,-0.0,-0.0,0.095723,-0.0,-0.0,-0.021497,0.0,0.0,0.0,0.0,0.0,0.0
427400,-0.023565,-0.022456,0.09563,0.0,0.0,0.0,0.0,0.0,0.087266,3.0,0.313872,0.345556,0.294127,0.344663,-0.0,-0.0,0.095298,-0.0,-0.0,-0.020875,0.0,0.0,0.0,0.0,0.0,0.0
427420,-0.02356,-0.022333,0.095753,0.0,0.0,0.0,0.0,0.0,0.087266,3.0,0.312782,0.347065,0.290706,0.346823,-0.0,-0.0,0.094885,-0.0,-0.0,-0.020238,0.0,0.0,0.0,0.0,0.0,0.0
427440,-0.023683,-0.022326,0.095873,0.0,0.0,0.0,0.0,0.0,0.087266,3.0,0.311463,0.349255,0.286572,0.348969,-0.0,-0.0,0.094485,-0.0,-0.0,-0.019588,0.0,0.0,0.0,0.0,0.0,0.0
427460,-0.023805,-0.02232,0.095871,0.0,0.0,0.0,0.0,0.0,0.087266,3.0,0.311436,0.3479,0.288317,0.349008,-0.0,-0.0,0.094098,-0.0,-0.0,-0.018928,0.0,0.0,0.0,0.0,0.0,0.0
427480,-0.023805,-0.02232,0.095871,0.0,0.0,0.0,0.0,0.0,0.087266,3.0,0.315229,0.346599,0.291397,0.344597,-0.0,-0.0,0.093725,-0.0,-0.0,-0.01826,0.0,0.0,0.0,0.0,0.0,0.0
427500,-0.023685,-0.022324,0.095994,0.0,0.0,0.0,0.0,0.0,0.087266,3.0,0.313024,0.34785,0.291263,0.345385,-0.0,-0.0,0.093365,-0.0,-0.0,-0.017588,0.0,0.0,0.0,0.0,0.0,0.0
427520,-0.023563,-0.02233,0.095996,0.0,0.0,0.0,0.0,0.0,0.087266,3.0,0.313821,0.34794,0.29124,0.344611,-0.0,-0.0,0.093018,-0.0,-0.0,-0.016914,0.0,0.0,0.0,0.0,0.0,0.0
427540,-0.023685,-0.022324,0.095994,0.0,0.0,0.0,0.0,0.0,0.087266,3.0,0.314788,0.346987,0.291149,0.344793,-0.0,-0.0,0.092685,-0.0,-0.0,-0.016239,0.0,0.0,0.0,0.0,0.0,0.0
427560,-0.023569,-0.022452,0.095994,0.0,0.0,0.0,0.0,0.0,0.087266,3.0,0.314862,0.346182,0.294361,0.342966,-0.0,-0.0,0.092365,-0.0,-0.0,-0.015566,0.0,0.0,0.0,0.0,0.0,0.0
427580,-0.02357,-0.02245,0.096116,0.0,0.0,0.0,0.0,0.0,0.087266,3.0,0.314128,0.347716,0.290142,0.345435,-0.0,-0.0,0.092059,-0.0,-0.0,-0.014896,0.0,0.0,0.0,0.0,0.0,0.0
427600,-0.02357,-0.02245,0.096116,0.0,0.0,0.0,0.0,0.0,0.087266,3.0,0.31532,0.348397,0.288375,0.345081,-0.0,-0.0,0.091766,-0.0,-0.0,-0.014232,0.0,0.0,0.0,0.0,0.0,0.0
427620,-0.023692,-0.022445,0.096114,0.0,0.0,0.0,0.0,0.0,0.087266,3.0,0.316363,0.348131,0.288161,0.344592,-0.0,-0.0,0.091486,-0.0,-0.0,-0.013575,0.0,0.0,0.0,0.0,0.0,0.0
427640,-0.023812,-0.02244,0.095991,0.0,0.0,0.0,0.0,0.0,0.087266,3.0,0.320839,0.344573,0.292848,0.340406,-0.0,-0.0,0.091219,-0.0,-0.0,-0.012927,0.0,0.0,0.0,0.0,0.0,0.0
427660,-0.02382,-0.022561,0.096111,0.0,0.0,0.0,0.0,0.0,0.087266,3.0,0.314786,0.350618,0.287655,0.343852,-0.0,-0.0,0.090966,-0.0,-0.0,-0.012288,0.0,0.0,0.0,0.0,0.0,0.0
427680,-0.023814,-0.022439,0.096112,0.0,0.0,0.0,0.0,0.0,0.087266,3.0,0.314772,0.348911,0.287729,0.345548,-0.0,-0.0,0.090725,-0.0,-0.0,-0.011661,0.0,0.0,0.0,0.0,0.0,0.0
427700,-0.023692,-0.022445,0.096114,0.0,0.0,0.0,0.0,0.0,0.087266,3.0,0.314207,0.347961,0.289185,0.34587,-0.0,-0.0,0.090496,-0.0,-0.0,-0.011046,0.0,0.0,0.0,0.0,0.0,0.0
427720,-0.02369,-0.022446,0.095993,0.0,0.0,0.0,0.0,0.0,0.087266,3.0,0.31895,0.346142,0.293749,0.339809,-0.0,-0.0,0.09028,-0.0,-0.0,-0.010444,0.0,0.0,0.0,0.0,0.0,0.0
427740,-0.023692,-0.022445,0.096114,0.0,0.0,0.0,0.0,0.0,0.087266,3.0,0.314886,0.350308,0.286315,0.345123,-0.0,-0.0,0.090075,-0.0,-0.0,-0.009856,0.0,0.0,0.0,0.0,0.0,0.0
427760,-0.023692,-0.022445,0.096114,0.0,0.0,0.0,0.0,0.0,0.087266,3.0,0.313628,0.350609,0.285398,0.346627,-0.0,-0.0,0.089883,0.0,-0.0,-0.009283,0.0,0.0,0.0,0.0,0.0,0.0
427780,-0.02369,-0.022446,0.095993,0.0,0.0,0.0,0.0,0.0,0.087266,3.0,0.314401,0.348628,0.289156,0.345047,-0.0,-0.0,0.089701,-0.0,-0.0,-0.008727,0.0,0.0,0.0,0.0,0.0,0.0
427800,-0.023805,-0.02232,0.095871,0.0,0.0,0.0,0.0,0.0,0.087266,3.0,0.319832,0.344315,0.291846,0.342401,-0.0,-0.0,0.089531,0.0,-0.0,-0.008186,0.0,0.0,0.0,0.0,0.0,0.0
427820,-0.023805,-0.02232,0.095871,0.0,0.0,0.0,0.0,0.0,0.087266,3.0,0.313814,0.349335,0.289118,0.344876,-0.0,-0.0,0.089371,0.0,-0.0,-0.007662,0.0,0.0,0.0,0.0,0.0,0.0
427840,-0.023794,-0.022076,0.095874,0.0,0.0,0.0,0.0,0.0,0.087266,3.0,0.313054,0.348011,0.288935,0.347022,-0.0,-0.0,0.089221,-0.0,-0.0,-0.007156,0.0,0.0,0.0,0.0,0.0,0.0
427860,-0.023672,-0.022082,0.095875,0.0,0.0,0.0,0.0,0.0,0.087266,3.0,0.310508,0.351473,0.286629,0.347509,-0.0,-0.0,0.089082,0.0,-0.0,-0.006667,0.0,0.0,0.0,0.0,0.0,0.0
427880,-0.023543,-0.021967,0.095757,0.0,0.0,0.0,0.0,0.0,0.087266,3.0,0.314905,0.347176,0.291124,0.344518,-0.0,-0.0,0.088952,0.0,-0.0,-0.006196,0.0,0.0,0.0,0.0,0.0,0.0
427900,-0.023413,-0.02185,0.095742,0.0,0.0,0.0,0.0,0.0,0.087266,3.0,0.313892,0.348782,0.288501,0.345851,-0.0,-0.0,0.088832,-0.0,-0.0,-0.005744,0.0,0.0,0.0,0.0,0.0,0.0
427920,-0.023268,-0.021368,0.095749,0.0,0.0,0.0,0.0,0.0,0.087266,3.0,0.312364,0.347884,0.286364,0.349721,-0.0,-0.0,0.08872,0.0,-0.0,-0.005309,0.0,0.0,0.0,0.0,0.0,0.0
427940,-0.023011,-0.021138,0.095634,0.0,0.0,0.0,0.0,0.0,0.087266,3.0,0.313196,0.347365,0.290092,0.346644,-0.0,-0.0,0.088617,0.0,-0.0,-0.004893,0.0,0.0,0.0,0.0,0.0,0.0
427960,-0.022877,-0.020901,0.095517,0.0,0.0,0.0,0.0,0.0,0.087266,3.0,0.317025,0.345516,0.294633,0.341478,-0.0,-0.0,0.088522,0.0,-0.0,-0.004495,0.0,0.0,0.0,0.0,0.0,0.0
427980,-0.022737,-0.020541,0.095522,0.0,0.0,0.0,0.0,0.0,0.087266,3.0,0.318123,0.346626,0.291465,0.34192,-0.0,-0.0,0.088435,0.0,-0.0,-0.004115,0.0,0.0,0.0,0.0,0.0,0.0
428000,-0.022343,-0.019949,0.095534,0.0,0.0,0.0,0.0,0.0,0.087266,3.0,0.311452,0.347614,0.289633,0.348261,-0.0,-0.0,0.088356,0.0,-0.0,-0.003753,0.0,0.0,0.0,0.0,0.0,0.0
428020,-0.022196,-0.019469,0.095419,0.0,0.0,0.0,0.0,0.0,0.087266,3.0,0.314917,0.346106,0.290225,0.346293,-0.0,-0.0,0.088283,0.0,-0.0,-0.00341,0.0,0.0,0.0,0.0,0.0,0.0
428040,-0.021928,-0.018994,0.095306,0.0,0.0,0.0,0.0,0.0,0.087266,3.0,0.317631,0.343592,0.293463,0.343819,-0.0,-0.0,0.088218,0.0,-0.0,-0.003084,0.0,0.0,0.0,0.0,0.0,0.0
428060,-0.021661,-0.018518,0.095314,0.0,0.0,0.0,0.0,0.0,0.087266,3.0,0.315895,0.344937,0.291908,0.345269,-0.0,-0.0,0.088158,0.0,-0.0,-0.002775,0.0,0.0,0.0,0.0,0.0,0.0
428080,-0.021278,-0.01817,0.095322,0.0,0.0,0.0,0.0,0.0,0.087266,3.0,0.312102,0.349108,0.288436,0.347132,-0.0,-0.0,0.088105,0.0,-0.0,-0.002484,0.0,0.0,0.0,0.0,0.0,0.0
428100,-0.021016,-0.017817,0.095207,0.0,0.0,0.0,0.0,0.0,0.087266,3.0,0.315632,0.347185,0.28899,0.345547,-0.0,-0.0,0.088057,0.0,-0.0,-0.002209,0.0,0.0,0.0,0.0,0.0,0.0
428120,-0.020759,-0.017586,0.09509,0.0,0.0,0.0,0.0,0.0,0.087266,3.0,0.318376,0.347123,0.291186,0.341408,-0.0,-0.0,0.088015,0.0,-0.0,-0.001951,0.0,0.0,0.0,0.0,0.0,0.0
428140,-0.020492,-0.01711,0.095098,0.0,0.0,0.0,0.0,0.0,0.087266,3.0,0.315417,0.347965,0.289597,0.344474,-0.0,-0.0,0.087978,0.0,-0.0,-0.00171,0.0,0.0,0.0,0.0,0.0,0.0
