time,roll_actual,pitch_actual,yaw_actual,roll_cmd,pitch_cmd,yaw_cmd,throttle_cmd,throttle_1,throttle_2,throttle_3,throttle_4,roll_modeled,pitch_modeled,yaw_modeled
202116,-0.003466,-0.027977,-0.342327,-0.001064,0.000000,-0.001064,0.000000,0.000000,0.000000,0.000000,0.000000,0.000000,0.000000,0.000000,0.000000,0.000000,0.000000
202136,-0.003607,-0.027878,-0.342328,0.000000,0.000000,-0.001064,0.000000,0.000000,0.000000,0.000000,0.000000,0.000000,0.000000,0.000000,0.000000,0.000000,0.000000
202156,-0.003609,-0.027878,-0.342215,-0.001064,0.001064,-0.001064,0.000000,0.000000,0.000000,0.000000,0.000000,0.000000,0.000000,0.000000,0.000000,0.000000,0.000000
202176,-0.003248,-0.027816,-0.342211,-0.001064,0.001064,-0.001064,0.000000,0.000000,0.000000,0.000000,0.000000,0.000000,0.000000,0.000000,0.000000,0.000000,0.000000
202196,-0.003107,-0.027915,-0.342210,-0.001064,0.000000,-0.001064,0.000000,0.000000,0.000000,0.000000,0.000000,0.000000,0.000000,0.000000,0.000000,0.000000,0.000000
202216,-0.003207,-0.028056,-0.342212,0.000000,-0.001064,-0.001064,0.000000,0.000000,0.000000,0.000000,0.000000,0.000000,0.000000,0.000000,0.000000,0.000000,0.000000
202236,-0.003009,-0.027774,-0.342095,0.000000,-0.001064,0.000000,0.000000,0.000000,0.000000,0.000000,0.000000,0.000000,0.000000,0.000000,0.000000,0.000000,0.000000
202256,-0.002769,-0.027733,-0.342093,-0.001064,0.000000,0.000000,0.000000,0.000000,0.000000,0.000000,0.000000,0.000000,0.000000,0.000000,0.000000,0.000000,0.000000
202276,-0.002447,-0.028172,-0.341979,0.000000,-0.002128,-0.001064,0.000000,0.000000,0.000000,0.000000,0.000000,0.000000,0.000000,0.000000,0.000000,0.000000,0.000000
202296,-0.002227,-0.028011,-0.341976,0.001064,-0.001064,0.000000,0.000000,0.000000,0.000000,0.000000,0.000000,0.000000,0.000000,0.000000,0.000000,0.000000,0.000000
202316,-0.002028,-0.027729,-0.341972,0.002128,0.000000,0.000000,0.000000,0.000000,0.000000,0.000000,0.000000,0.000000,0.000000,0.000000,0.000000,0.000000,0.000000
202336,-0.000964,-0.028164,-0.341850,0.001064,-0.001064,0.000000,0.000000,0.000000,0.000000,0.000000,0.000000,0.000000,0.000000,0.000000,0.000000,0.000000,0.000000
202356,-0.000304,-0.027679,-0.341841,0.001064,0.000000,0.000000,0.000000,0.000000,0.000000,0.000000,0.000000,0.000000,0.000000,0.000000,0.000000,0.000000,0.000000
202376,0.000718,-0.027872,-0.341656,0.002128,-0.001064,0.000000,0.000000,0.000000,0.000000,0.000000,0.000000,0.000000,0.000000,0.000000,0.000000,0.000000,0.000000
202396,0.002004,-0.028146,-0.341643,0.003193,-0.002128,0.000000,0.000000,0.000000,0.000000,0.000000,0.000000,0.000000,0.000000,0.000000,0.000000,0.000000,0.000000
202416,0.003467,-0.028018,-0.341511,0.003193,-0.001064,0.000000,0.000000,0.000000,0.000000,0.000000,0.000000,0.000000,0.000000,0.000000,0.000000,0.000000,0.000000
202436,0.005213,-0.028088,-0.341488,0.004257,-0.002128,0.000000,0.000000,0.000000,0.000000,0.000000,0.000000,0.000000,0.000000,0.000000,0.000000,0.000000,0.000000
202456,0.007177,-0.027998,-0.341348,0.004257,-0.001064,0.000000,0.000000,0.000000,0.000000,0.000000,0.000000,0.000000,0.000000,0.000000,0.000000,0.000000,0.000000
202476,0.009666,-0.028064,-0.341310,0.005321,-0.001064,0.000000,0.000000,0.000000,0.000000,0.000000,0.000000,0.000000,0.000000,0.000000,0.000000,0.000000,0.000000
202496,0.012155,-0.028130,-0.341270,0.005321,-0.001064,0.000000,0.000000,0.000000,0.000000,0.000000,0.000000,0.000000,0.000000,0.000000,0.000000,0.000000,0.000000
202516,0.015102,-0.027994,-0.341105,0.006385,0.000000,0.000000,0.000000,0.000000,0.000000,0.000000,0.000000,0.000000,0.000000,0.000000,0.000000,0.000000,0.000000
202536,0.018616,-0.028257,-0.341099,0.006385,0.000000,0.000000,0.000000,0.000000,0.000000,0.000000,0.000000,0.000000,0.000000,0.000000,0.000000,0.000000,0.000000
202556,0.022287,-0.027995,-0.341023,0.007450,0.000000,-0.001064,0.000000,0.000000,0.000000,0.000000,0.000000,0.000000,0.000000,0.000000,0.000000,0.000000,0.000000
202576,0.026020,-0.028094,-0.340939,0.008514,0.000000,-0.001064,0.000000,0.000000,0.000000,0.000000,0.000000,0.000000,0.000000,0.000000,0.000000,0.000000,0.000000
202596,0.030114,-0.028133,-0.340786,0.009578,-0.001064,-0.001064,0.000000,0.000000,0.000000,0.000000,0.000000,0.000000,0.000000,0.000000,0.000000,0.000000,0.000000
202616,0.034910,-0.027922,-0.340773,0.009578,0.000000,-0.001064,0.000000,0.000000,0.000000,0.000000,0.000000,0.000000,0.000000,0.000000,0.000000,0.000000,0.000000
202636,0.039889,-0.028054,-0.340689,0.009578,0.000000,0.000000,0.000000,0.000000,0.000000,0.000000,0.000000,0.000000,0.000000,0.000000,0.000000,0.000000,0.000000
202656,0.045009,-0.028285,-0.340586,0.010642,0.000000,0.000000,0.000000,0.000000,0.000000,0.000000,0.000000,0.000000,0.000000,0.000000,0.000000,0.000000,0.000000
202676,0.050307,-0.028113,-0.340470,0.011706,0.000000,0.000000,0.000000,0.000000,0.000000,0.000000,0.000000,0.000000,0.000000,0.000000,0.000000,0.000000,0.000000
202696,0.056074,-0.028477,-0.340487,0.010642,0.000000,0.000000,0.000000,0.000000,0.000000,0.000000,0.000000,0.000000,0.000000,0.000000,0.000000,0.000000,0.000000
202716,0.061895,-0.028461,-0.340318,0.010642,0.000000,-0.001064,0.000000,0.000000,0.000000,0.000000,0.000000,0.000000,0.000000,0.000000,0.000000,0.000000,0.000000
202736,0.067699,-0.028325,-0.340197,0.011706,0.000000,-0.001064,0.000000,0.000000,0.000000,0.000000,0.000000,0.000000,0.000000,0.000000,0.000000,0.000000,0.000000
202756,0.073546,-0.028424,-0.340166,0.013835,0.000000,0.000000,0.000000,0.000000,0.000000,0.000000,0.000000,0.000000,0.000000,0.000000,0.000000,0.000000,0.000000
202776,0.079513,-0.028501,-0.340113,0.013835,-0.001064,0.000000,0.000000,0.000000,0.000000,0.000000,0.000000,0.000000,0.000000,0.000000,0.000000,0.000000,0.000000
202796,0.086001,-0.028733,-0.340010,0.012771,-0.001064,0.000000,0.000000,0.000000,0.000000,0.000000,0.000000,0.000000,0.000000,0.000000,0.000000,0.000000,0.000000
202816,0.092094,-0.028786,-0.339974,0.011706,-0.001064,0.001064,0.000000,0.000000,0.000000,0.000000,0.000000,0.000000,0.000000,0.000000,0.000000,0.000000,0.000000
202836,0.098420,-0.028801,-0.339733,0.011706,-0.001064,0.001064,0.000000,0.000000,0.000000,0.000000,0.000000,0.000000,0.000000,0.000000,0.000000,0.000000,0.000000
202856,0.104654,-0.028951,-0.339648,0.012771,0.000000,0.000000,0.000000,0.000000,0.000000,0.000000,0.000000,0.000000,0.000000,0.000000,0.000000,0.000000,0.000000
202876,0.110506,-0.029049,-0.339456,0.012771,0.000000,0.000000,0.000000,0.000000,0.000000,0.000000,0.000000,0.000000,0.000000,0.000000,0.000000,0.000000,0.000000
202896,0.116478,-0.029117,-0.339354,0.011706,0.001064,-0.001064,0.000000,0.000000,0.000000,0.000000,0.000000,0.000000,0.000000,0.000000,0.000000,0.000000,0.000000
202916,0.122431,-0.029056,-0.339354,0.010642,0.001064,-0.001064,0.000000,0.000000,0.000000,0.000000,0.000000,0.000000,0.000000,0.000000,0.000000,0.000000,0.000000
202936,0.128164,-0.029155,-0.339346,0.011706,0.000000,0.000000,0.000000,0.000000,0.000000,0.000000,0.000000,0.000000,0.000000,0.000000,0.000000,0.000000,0.000000
202956,0.133536,-0.029323,-0.339232,0.011706,-0.001064,0.001064,0.000000,0.000000,0.000000,0.000000,0.000000,0.000000,0.000000,0.000000,0.000000,0.000000,0.000000
202976,0.139058,-0.029589,-0.339148,0.010642,-0.002128,0.001064,0.000000,0.000000,0.000000,0.000000,0.000000,0.000000,0.000000,0.000000,0.000000,0.000000,0.000000
202996,0.144170,-0.029667,-0.339143,0.009578,-0.001064,0.000000,0.000000,0.000000,0.000000,0.000000,0.000000,0.000000,0.000000,0.000000,0.000000,0.000000,0.000000
203016,0.148900,-0.029696,-0.339047,0.008514,0.000000,0.000000,0.000000,0.000000,0.000000,0.000000,0.000000,0.000000,0.000000,0.000000,0.000000,0.000000,0.000000
203036,0.153110,-0.029569,-0.338993,0.008514,0.000000,0.000000,0.000000,0.000000,0.000000,0.000000,0.000000,0.000000,0.000000,0.000000,0.000000,0.000000,0.000000
203056,0.157060,-0.029353,-0.339071,0.007450,0.000000,0.000000,0.000000,0.000000,0.000000,0.000000,0.000000,0.000000,0.000000,0.000000,0.000000,0.000000,0.000000
203076,0.160842,-0.029668,-0.338952,0.006385,0.000000,0.000000,0.000000,0.000000,0.000000,0.000000,0.000000,0.000000,0.000000,0.000000,0.000000,0.000000,0.000000
203096,0.164213,-0.029686,-0.338942,0.005321,0.000000,0.000000,0.000000,0.000000,0.000000,0.000000,0.000000,0.000000,0.000000,0.000000,0.000000,0.000000,0.000000
203116,0.166974,-0.029808,-0.338916,0.005321,0.000000,0.000000,0.000000,0.000000,0.000000,0.000000,0.000000,0.000000,0.000000,0.000000,0.000000,0.000000,0.000000
203136,0.169376,-0.029994,-0.338915,0.003193,0.000000,0.000000,0.000000,0.000000,0.000000,0.000000,0.000000,0.000000,0.000000,0.000000,0.000000,0.000000,0.000000
203156,0.171126,-0.030046,-0.338920,0.002128,-0.001064,-0.001064,0.000000,0.000000,0.000000,0.000000,0.000000,0.000000,0.000000,0.000000,0.000000,0.000000,0.000000
203176,0.172356,-0.029943,-0.338983,0.001064,-0.001064,0.000000,0.000000,0.000000,0.000000,0.000000,0.000000,0.000000,0.000000,0.000000,0.000000,0.000000,0.000000
203196,0.172986,-0.029946,-0.339097,0.000000,-0.001064,0.000000,0.000000,0.000000,0.000000,0.000000,0.000000,0.000000,0.000000,0.000000,0.000000,0.000000,0.000000
203216,0.172986,-0.029935,-0.339210,-0.002128,0.000000,0.000000,0.000000,0.000000,0.000000,0.000000,0.000000,0.000000,0.000000,0.000000,0.000000,0.000000,0.000000
203236,0.172726,-0.029858,-0.339240,-0.003193,0.000000,0.000000,0.000000,0.000000,0.000000,0.000000,0.000000,0.000000,0.000000,0.000000,0.000000,0.000000,0.000000
203256,0.171835,-0.029757,-0.339383,-0.002128,0.000000,0.000000,0.000000,0.000000,0.000000,0.000000,0.000000,0.000000,0.000000,0.000000,0.000000,0.000000,0.000000
203276,0.171096,-0.029754,-0.339566,-0.003193,0.000000,0.000000,0.000000,0.000000,0.000000,0.000000,0.000000,0.000000,0.000000,0.000000,0.000000,0.000000,0.000000
203296,0.170215,-0.029652,-0.339769,-0.003193,0.001064,0.000000,0.000000,0.000000,0.000000,0.000000,0.000000,0.000000,0.000000,0.000000,0.000000,0.000000,0.000000
203316,0.169225,-0.029703,-0.339797,-0.003193,0.000000,-0.001064,0.000000,0.000000,0.000000,0.000000,0.000000,0.000000,0.000000,0.000000,0.000000,0.000000,0.000000
203336,0.168225,-0.029612,-0.340122,-0.002128,-0.001064,-0.001064,0.000000,0.000000,0.000000,0.000000,0.000000,0.000000,0.000000,0.000000,0.000000,0.000000,0.000000
203356,0.167194,-0.029413,-0.340282,-0.002128,0.000000,-0.001064,0.000000,0.000000,0.000000,0.000000,0.000000,0.000000,0.000000,0.000000,0.000000,0.000000,0.000000
203376,0.166516,-0.029759,-0.340550,-0.003193,-0.001064,0.000000,0.000000,0.000000,0.000000,0.000000,0.000000,0.000000,0.000000,0.000000,0.000000,0.000000,0.000000
203396,0.165578,-0.030039,-0.340732,-0.003193,-0.001064,0.000000,0.000000,0.000000,0.000000,0.000000,0.000000,0.000000,0.000000,0.000000,0.000000,0.000000,0.000000
203416,0.164307,-0.029872,-0.341024,-0.003193,0.000000,0.000000,0.000000,0.000000,0.000000,0.000000,0.000000,0.000000,0.000000,0.000000,0.000000,0.000000,0.000000
203436,0.163228,-0.030044,-0.341338,-0.003193,0.000000,0.000000,0.000000,0.000000,0.000000,0.000000,0.000000,0.000000,0.000000,0.000000,0.000000,0.000000,0.000000
203456,0.162359,-0.030053,-0.341581,-0.004257,0.000000,0.000000,0.000000,0.000000,0.000000,0.000000,0.000000,0.000000,0.000000,0.000000,0.000000,0.000000,0.000000
203476,0.161239,-0.029975,-0.342025,-0.003193,0.000000,0.000000,0.000000,0.000000,0.000000,0.000000,0.000000,0.000000,0.000000,0.000000,0.000000,0.000000,0.000000
203496,0.159900,-0.030070,-0.342366,-0.002128,0.000000,0.000000,0.000000,0.000000,0.000000,0.000000,0.000000,0.000000,0.000000,0.000000,0.000000,0.000000,0.000000
203516,0.158629,-0.029895,-0.342767,-0.003193,0.000000,0.000000,0.000000,0.000000,0.000000,0.000000,0.000000,0.000000,0.000000,0.000000,0.000000,0.000000,0.000000
203536,0.157311,-0.030101,-0.343211,-0.003193,-0.001064,0.000000,0.000000,0.000000,0.000000,0.000000,0.000000,0.000000,0.000000,0.000000,0.000000,0.000000,0.000000
203556,0.155831,-0.030089,-0.343680,-0.004257,-0.001064,0.000000,0.000000,0.000000,0.000000,0.000000,0.000000,0.000000,0.000000,0.000000,0.000000,0.000000,0.000000
203576,0.153982,-0.030142,-0.344116,-0.005321,-0.001064,0.001064,0.000000,0.000000,0.000000,0.000000,0.000000,0.000000,0.000000,0.000000,0.000000,0.000000,0.000000
203596,0.152231,-0.030054,-0.344549,-0.006385,0.000000,0.001064,0.000000,0.000000,0.000000,0.000000,0.000000,0.000000,0.000000,0.000000,0.000000,0.000000,0.000000
203616,0.149981,-0.029933,-0.345025,-0.005321,0.000000,0.000000,0.000000,0.000000,0.000000,0.000000,0.000000,0.000000,0.000000,0.000000,0.000000,0.000000,0.000000
203636,0.147542,-0.030086,-0.345675,-0.006385,-0.001064,0.000000,0.000000,0.000000,0.000000,0.000000,0.000000,0.000000,0.000000,0.000000,0.000000,0.000000,0.000000
203656,0.145031,-0.029880,-0.346285,-0.006385,0.001064,0.000000,0.000000,0.000000,0.000000,0.000000,0.000000,0.000000,0.000000,0.000000,0.000000,0.000000,0.000000
203676,0.142582,-0.030036,-0.346868,-0.006385,0.000000,0.000000,0.000000,0.000000,0.000000,0.000000,0.000000,0.000000,0.000000,0.000000,0.000000,0.000000,0.000000
203696,0.139873,-0.030115,-0.347473,-0.006385,-0.001064,0.000000,0.000000,0.000000,0.000000,0.000000,0.000000,0.000000,0.000000,0.000000,0.000000,0.000000,0.000000
203716,0.136784,-0.030141,-0.348107,-0.007450,-0.002128,0.000000,0.000000,0.000000,0.000000,0.000000,0.000000,0.000000,0.000000,0.000000,0.000000,0.000000,0.000000
203736,0.133750,-0.029786,-0.348751,-0.008514,0.000000,0.001064,0.000000,0.000000,0.000000,0.000000,0.000000,0.000000,0.000000,0.000000,0.000000,0.000000,0.000000
203756,0.130583,-0.030076,-0.349369,-0.009578,-0.001064,0.001064,0.000000,0.000000,0.000000,0.000000,0.000000,0.000000,0.000000,0.000000,0.000000,0.000000,0.000000
203776,0.127070,-0.029810,-0.350035,-0.009578,0.000000,0.001064,0.000000,0.000000,0.000000,0.000000,0.000000,0.000000,0.000000,0.000000,0.000000,0.000000,0.000000
203796,0.122837,-0.029669,-0.350853,-0.008514,0.000000,0.000000,0.000000,0.000000,0.000000,0.000000,0.000000,0.000000,0.000000,0.000000,0.000000,0.000000,0.000000
203816,0.119028,-0.029817,-0.351732,-0.010642,0.000000,0.000000,0.000000,0.000000,0.000000,0.000000,0.000000,0.000000,0.000000,0.000000,0.000000,0.000000,0.000000
203836,0.114980,-0.030011,-0.352620,-0.010642,0.000000,0.001064,0.000000,0.000000,0.000000,0.000000,0.000000,0.000000,0.000000,0.000000,0.000000,0.000000,0.000000
203856,0.110648,-0.030018,-0.353414,-0.009578,0.000000,0.001064,0.000000,0.000000,0.000000,0.000000,0.000000,0.000000,0.000000,0.000000,0.000000,0.000000,0.000000
203876,0.106198,-0.030036,-0.354431,-0.009578,0.000000,0.001064,0.000000,0.000000,0.000000,0.000000,0.000000,0.000000,0.000000,0.000000,0.000000,0.000000,0.000000
203896,0.101888,-0.030162,-0.355313,-0.010642,-0.001064,0.001064,0.000000,0.000000,0.000000,0.000000,0.000000,0.000000,0.000000,0.000000,0.000000,0.000000,0.000000
203916,0.097395,-0.029946,-0.356320,-0.011706,-0.001064,0.001064,0.000000,0.000000,0.000000,0.000000,0.000000,0.000000,0.000000,0.000000,0.000000,0.000000,0.000000
203936,0.092590,-0.030047,-0.357277,-0.010642,-0.001064,0.001064,0.000000,0.000000,0.000000,0.000000,0.000000,0.000000,0.000000,0.000000,0.000000,0.000000,0.000000
203956,0.087693,-0.029669,-0.358177,-0.010642,-0.001064,0.001064,0.000000,0.000000,0.000000,0.000000,0.000000,0.000000,0.000000,0.000000,0.000000,0.000000,0.000000
203976,0.083042,-0.029247,-0.359229,-0.011706,-0.001064,0.001064,0.000000,0.000000,0.000000,0.000000,0.000000,0.000000,0.000000,0.000000,0.000000,0.000000,0.000000
203996,0.077992,-0.029395,-0.360210,-0.011706,-0.001064,0.001064,0.000000,0.000000,0.000000,0.000000,0.000000,0.000000,0.000000,0.000000,0.000000,0.000000,0.000000
204016,0.072979,-0.029050,-0.361140,-0.010642,0.000000,0.001064,0.000000,0.000000,0.000000,0.000000,0.000000,0.000000,0.000000,0.000000,0.000000,0.000000,0.000000
204036,0.067983,-0.028828,-0.361988,-0.011706,0.000000,0.001064,0.000000,0.000000,0.000000,0.000000,0.000000,0.000000,0.000000,0.000000,0.000000,0.000000,0.000000
204056,0.063057,-0.028970,-0.362877,-0.012771,0.000000,0.000000,0.000000,0.000000,0.000000,0.000000,0.000000,0.000000,0.000000,0.000000,0.000000,0.000000,0.000000
204076,0.057945,-0.028777,-0.363768,-0.012771,-0.001064,0.000000,0.000000,0.000000,0.000000,0.000000,0.000000,0.000000,0.000000,0.000000,0.000000,0.000000,0.000000
204096,0.052571,-0.028512,-0.364655,-0.011706,0.000000,0.000000,0.000000,0.000000,0.000000,0.000000,0.000000,0.000000,0.000000,0.000000,0.000000,0.000000,0.000000
204116,0.047143,-0.028633,-0.365523,-0.012771,-0.001064,0.001064,0.000000,0.000000,0.000000,0.000000,0.000000,0.000000,0.000000,0.000000,0.000000,0.000000,0.000000
204136,0.042075,-0.028690,-0.366366,-0.013835,-0.002128,0.001064,0.000000,0.000000,0.000000,0.000000,0.000000,0.000000,0.000000,0.000000,0.000000,0.000000,0.000000
204156,0.036460,-0.028480,-0.367214,-0.011706,-0.002128,0.002128,0.000000,0.000000,0.000000,0.000000,0.000000,0.000000,0.000000,0.000000,0.000000,0.000000,0.000000
204176,0.030747,-0.028419,-0.367934,-0.011706,-0.001064,0.001064,0.000000,0.000000,0.000000,0.000000,0.000000,0.000000,0.000000,0.000000,0.000000,0.000000,0.000000
204196,0.025536,-0.028390,-0.368625,-0.013835,0.000000,0.000000,0.000000,0.000000,0.000000,0.000000,0.000000,0.000000,0.000000,0.000000,0.000000,0.000000,0.000000
204216,0.020281,-0.028126,-0.369369,-0.013835,0.001064,0.000000,0.000000,0.000000,0.000000,0.000000,0.000000,0.000000,0.000000,0.000000,0.000000,0.000000,0.000000
204236,0.014929,-0.028004,-0.370146,-0.011706,0.000000,0.000000,0.000000,0.000000,0.000000,0.000000,0.000000,0.000000,0.000000,0.000000,0.000000,0.000000,0.000000
204256,0.009457,-0.027911,-0.370862,-0.010642,-0.001064,0.000000,0.000000,0.000000,0.000000,0.000000,0.000000,0.000000,0.000000,0.000000,0.000000,0.000000,0.000000
204276,0.004346,-0.027753,-0.371670,-0.011706,-0.001064,0.000000,0.000000,0.000000,0.000000,0.000000,0.000000,0.000000,0.000000,0.000000,0.000000,0.000000,0.000000
204296,-0.000482,-0.027792,-0.372350,-0.011706,-0.001064,0.001064,0.000000,0.000000,0.000000,0.000000,0.000000,0.000000,0.000000,0.000000,0.000000,0.000000,0.000000
204316,-0.005572,-0.027760,-0.373019,-0.010642,-0.002128,0.001064,0.000000,0.000000,0.000000,0.000000,0.000000,0.000000,0.000000,0.000000,0.000000,0.000000,0.000000
204336,-0.010447,-0.027566,-0.373560,-0.010642,-0.002128,0.001064,0.000000,0.000000,0.000000,0.000000,0.000000,0.000000,0.000000,0.000000,0.000000,0.000000,0.000000
204356,-0.015202,-0.027350,-0.374087,-0.011706,-0.001064,0.001064,0.000000,0.000000,0.000000,0.000000,0.000000,0.000000,0.000000,0.000000,0.000000,0.000000,0.000000
204376,-0.019767,-0.027475,-0.374717,-0.011706,-0.001064,0.000000,0.000000,0.000000,0.000000,0.000000,0.000000,0.000000,0.000000,0.000000,0.000000,0.000000,0.000000
204396,-0.024425,-0.027122,-0.375219,-0.010642,0.000000,0.000000,0.000000,0.000000,0.000000,0.000000,0.000000,0.000000,0.000000,0.000000,0.000000,0.000000,0.000000
204416,-0.028962,-0.026751,-0.375886,-0.008514,0.001064,0.000000,0.000000,0.000000,0.000000,0.000000,0.000000,0.000000,0.000000,0.000000,0.000000,0.000000,0.000000
204436,-0.032905,-0.026889,-0.376487,-0.008514,0.000000,0.000000,0.000000,0.000000,0.000000,0.000000,0.000000,0.000000,0.000000,0.000000,0.000000,0.000000,0.000000
204456,-0.036489,-0.026963,-0.377149,-0.008514,-0.001064,0.000000,0.000000,0.000000,0.000000,0.000000,0.000000,0.000000,0.000000,0.000000,0.000000,0.000000,0.000000
204476,-0.040260,-0.026701,-0.377729,-0.008514,-0.001064,0.001064,0.000000,0.000000,0.000000,0.000000,0.000000,0.000000,0.000000,0.000000,0.000000,0.000000,0.000000
204496,-0.043651,-0.026494,-0.378374,-0.008514,-0.001064,0.001064,0.000000,0.000000,0.000000,0.000000,0.000000,0.000000,0.000000,0.000000,0.000000,0.000000,0.000000
204516,-0.046899,-0.026381,-0.378838,-0.008514,-0.001064,0.001064,0.000000,0.000000,0.000000,0.000000,0.000000,0.000000,0.000000,0.000000,0.000000,0.000000,0.000000
204536,-0.050171,-0.026155,-0.379471,-0.007450,-0.001064,0.000000,0.000000,0.000000,0.000000,0.000000,0.000000,0.000000,0.000000,0.000000,0.000000,0.000000,0.000000
204556,-0.053274,-0.026145,-0.380039,-0.006385,-0.001064,0.001064,0.000000,0.000000,0.000000,0.000000,0.000000,0.000000,0.000000,0.000000,0.000000,0.000000,0.000000
204576,-0.055900,-0.026048,-0.380676,-0.005321,0.000000,0.001064,0.000000,0.000000,0.000000,0.000000,0.000000,0.000000,0.000000,0.000000,0.000000,0.000000,0.000000
204596,-0.058261,-0.026023,-0.381249,-0.005321,-0.001064,0.001064,0.000000,0.000000,0.000000,0.000000,0.000000,0.000000,0.000000,0.000000,0.000000,0.000000,0.000000
204616,-0.060362,-0.026076,-0.381895,-0.004257,-0.001064,0.001064,0.000000,0.000000,0.000000,0.000000,0.000000,0.000000,0.000000,0.000000,0.000000,0.000000,0.000000
204636,-0.062363,-0.025985,-0.382469,-0.003193,-0.002128,0.001064,0.000000,0.000000,0.000000,0.000000,0.000000,0.000000,0.000000,0.000000,0.000000,0.000000,0.000000
204656,-0.063988,-0.025945,-0.383008,-0.004257,-0.002128,0.001064,0.000000,0.000000,0.000000,0.000000,0.000000,0.000000,0.000000,0.000000,0.000000,0.000000,0.000000
204676,-0.065344,-0.025980,-0.383598,-0.005321,-0.002128,0.001064,0.000000,0.000000,0.000000,0.000000,0.000000,0.000000,0.000000,0.000000,0.000000,0.000000,0.000000
204696,-0.066603,-0.025873,-0.384185,-0.003193,-0.002128,0.001064,0.000000,0.000000,0.000000,0.000000,0.000000,0.000000,0.000000,0.000000,0.000000,0.000000,0.000000
204716,-0.067957,-0.025288,-0.384754,-0.002128,-0.001064,0.001064,0.000000,0.000000,0.000000,0.000000,0.000000,0.000000,0.000000,0.000000,0.000000,0.000000,0.000000
204736,-0.068910,-0.025497,-0.385425,-0.003193,0.000000,0.000000,0.000000,0.000000,0.000000,0.000000,0.000000,0.000000,0.000000,0.000000,0.000000,0.000000,0.000000
204756,-0.069644,-0.025539,-0.386028,-0.003193,0.000000,0.000000,0.000000,0.000000,0.000000,0.000000,0.000000,0.000000,0.000000,0.000000,0.000000,0.000000,0.000000
204776,-0.070686,-0.025272,-0.386723,-0.002128,0.001064,0.000000,0.000000,0.000000,0.000000,0.000000,0.000000,0.000000,0.000000,0.000000,0.000000,0.000000,0.000000
204796,-0.071424,-0.025317,-0.387394,-0.001064,0.000000,0.001064,0.000000,0.000000,0.000000,0.000000,0.000000,0.000000,0.000000,0.000000,0.000000,0.000000,0.000000
204816,-0.071895,-0.025433,-0.388005,-0.002128,0.000000,0.001064,0.000000,0.000000,0.000000,0.000000,0.000000,0.000000,0.000000,0.000000,0.000000,0.000000,0.000000
204836,-0.072389,-0.025429,-0.388612,-0.003193,0.000000,0.000000,0.000000,0.000000,0.000000,0.000000,0.000000,0.000000,0.000000,0.000000,0.000000,0.000000,0.000000
204856,-0.073147,-0.025354,-0.389209,-0.003193,-0.001064,0.000000,0.000000,0.000000,0.000000,0.000000,0.000000,0.000000,0.000000,0.000000,0.000000,0.000000,0.000000
204876,-0.073880,-0.025398,-0.389809,-0.002128,-0.001064,0.001064,0.000000,0.000000,0.000000,0.000000,0.000000,0.000000,0.000000,0.000000,0.000000,0.000000,0.000000
204896,-0.074640,-0.025319,-0.390294,-0.003193,-0.001064,0.001064,0.000000,0.000000,0.000000,0.000000,0.000000,0.000000,0.000000,0.000000,0.000000,0.000000,0.000000
204916,-0.075494,-0.025387,-0.390891,-0.003193,-0.001064,0.001064,0.000000,0.000000,0.000000,0.000000,0.000000,0.000000,0.000000,0.000000,0.000000,0.000000,0.000000
204936,-0.076234,-0.025431,-0.391449,-0.002128,0.000000,0.001064,0.000000,0.000000,0.000000,0.000000,0.000000,0.000000,0.000000,0.000000,0.000000,0.000000,0.000000
204956,-0.077092,-0.025492,-0.391823,-0.002128,0.000000,0.001064,0.000000,0.000000,0.000000,0.000000,0.000000,0.000000,0.000000,0.000000,0.000000,0.000000,0.000000
204976,-0.077970,-0.025431,-0.392123,-0.002128,-0.001064,0.000000,0.000000,0.000000,0.000000,0.000000,0.000000,0.000000,0.000000,0.000000,0.000000,0.000000,0.000000
204996,-0.078802,-0.025617,-0.392612,-0.002128,-0.002128,0.000000,0.000000,0.000000,0.000000,0.000000,0.000000,0.000000,0.000000,0.000000,0.000000,0.000000,0.000000
205016,-0.079707,-0.025440,-0.392976,-0.002128,-0.001064,0.000000,0.000000,0.000000,0.000000,0.000000,0.000000,0.000000,0.000000,0.000000,0.000000,0.000000,0.000000
205036,-0.080566,-0.025502,-0.393348,-0.003193,-0.001064,0.000000,0.000000,0.000000,0.000000,0.000000,0.000000,0.000000,0.000000,0.000000,0.000000,0.000000,0.000000
205056,-0.081259,-0.025776,-0.393623,-0.003193,-0.002128,0.001064,0.000000,0.000000,0.000000,0.000000,0.000000,0.000000,0.000000,0.000000,0.000000,0.000000,0.000000
205076,-0.082167,-0.025595,-0.393875,-0.003193,-0.001064,0.001064,0.000000,0.000000,0.000000,0.000000,0.000000,0.000000,0.000000,0.000000,0.000000,0.000000,0.000000
205096,-0.083313,-0.025454,-0.393939,-0.003193,0.000000,0.000000,0.000000,0.000000,0.000000,0.000000,0.000000,0.000000,0.000000,0.000000,0.000000,0.000000,0.000000
205116,-0.084293,-0.025537,-0.394196,-0.004257,0.000000,0.000000,0.000000,0.000000,0.000000,0.000000,0.000000,0.000000,0.000000,0.000000,0.000000,0.000000,0.000000
205136,-0.085441,-0.025392,-0.394148,-0.004257,0.001064,-0.001064,0.000000,0.000000,0.000000,0.000000,0.000000,0.000000,0.000000,0.000000,0.000000,0.000000,0.000000
205156,-0.086807,-0.025422,-0.394277,-0.003193,0.001064,-0.001064,0.000000,0.000000,0.000000,0.000000,0.000000,0.000000,0.000000,0.000000,0.000000,0.000000,0.000000
205176,-0.088292,-0.025475,-0.394402,-0.002128,0.000000,-0.001064,0.000000,0.000000,0.000000,0.000000,0.000000,0.000000,0.000000,0.000000,0.000000,0.000000,0.000000
205196,-0.089533,-0.025479,-0.394463,-0.004257,0.000000,-0.001064,0.000000,0.000000,0.000000,0.000000,0.000000,0.000000,0.000000,0.000000,0.000000,0.000000,0.000000
205216,-0.090781,-0.025480,-0.394482,-0.005321,-0.001064,-0.001064,0.000000,0.000000,0.000000,0.000000,0.000000,0.000000,0.000000,0.000000,0.000000,0.000000,0.000000
205236,-0.092506,-0.025582,-0.394595,-0.005321,-0.001064,-0.001064,0.000000,0.000000,0.000000,0.000000,0.000000,0.000000,0.000000,0.000000,0.000000,0.000000,0.000000
205256,-0.094278,-0.025431,-0.394405,-0.005321,-0.001064,0.000000,0.000000,0.000000,0.000000,0.000000,0.000000,0.000000,0.000000,0.000000,0.000000,0.000000,0.000000
205276,-0.096295,-0.025331,-0.394274,-0.005321,-0.001064,-0.001064,0.000000,0.000000,0.000000,0.000000,0.000000,0.000000,0.000000,0.000000,0.000000,0.000000,0.000000
205296,-0.098138,-0.025442,-0.394086,-0.005321,0.000000,-0.001064,0.000000,0.000000,0.000000,0.000000,0.000000,0.000000,0.000000,0.000000,0.000000,0.000000,0.000000
205316,-0.100014,-0.025431,-0.393851,-0.004257,0.000000,-0.001064,0.000000,0.000000,0.000000,0.000000,0.000000,0.000000,0.000000,0.000000,0.000000,0.000000,0.000000
205336,-0.102050,-0.025208,-0.393638,-0.003193,0.000000,-0.001064,0.000000,0.000000,0.000000,0.000000,0.000000,0.000000,0.000000,0.000000,0.000000,0.000000,0.000000
205356,-0.103902,-0.025315,-0.393404,-0.003193,-0.001064,-0.001064,0.000000,0.000000,0.000000,0.000000,0.000000,0.000000,0.000000,0.000000,0.000000,0.000000,0.000000
205376,-0.105628,-0.025396,-0.393104,-0.003193,-0.001064,-0.001064,0.000000,0.000000,0.000000,0.000000,0.000000,0.000000,0.000000,0.000000,0.000000,0.000000,0.000000
205396,-0.107238,-0.025447,-0.392697,-0.004257,-0.001064,-0.001064,0.000000,0.000000,0.000000,0.000000,0.000000,0.000000,0.000000,0.000000,0.000000,0.000000,0.000000
205416,-0.108950,-0.025643,-0.392360,-0.004257,-0.001064,-0.001064,0.000000,0.000000,0.000000,0.000000,0.000000,0.000000,0.000000,0.000000,0.000000,0.000000,0.000000
205436,-0.110297,-0.025764,-0.391966,-0.005321,-0.001064,-0.001064,0.000000,0.000000,0.000000,0.000000,0.000000,0.000000,0.000000,0.000000,0.000000,0.000000,0.000000
205456,-0.111904,-0.025804,-0.391376,-0.004257,-0.002128,-0.001064,0.000000,0.000000,0.000000,0.000000,0.000000,0.000000,0.000000,0.000000,0.000000,0.000000,0.000000
205476,-0.113588,-0.025487,-0.390834,-0.004257,-0.001064,-0.002128,0.000000,0.000000,0.000000,0.000000,0.000000,0.000000,0.000000,0.000000,0.000000,0.000000,0.000000
205496,-0.115108,-0.025378,-0.390197,-0.004257,0.000000,-0.002128,0.000000,0.000000,0.000000,0.000000,0.000000,0.000000,0.000000,0.000000,0.000000,0.000000,0.000000
205516,-0.116366,-0.025340,-0.389578,-0.004257,0.000000,-0.002128,0.000000,0.000000,0.000000,0.000000,0.000000,0.000000,0.000000,0.000000,0.000000,0.000000,0.000000
205536,-0.117736,-0.025323,-0.388882,-0.003193,0.000000,-0.002128,0.000000,0.000000,0.000000,0.000000,0.000000,0.000000,0.000000,0.000000,0.000000,0.000000,0.000000
205556,-0.118972,-0.025397,-0.388157,-0.002128,0.000000,-0.002128,0.000000,0.000000,0.000000,0.000000,0.000000,0.000000,0.000000,0.000000,0.000000,0.000000,0.000000
205576,-0.120109,-0.025317,-0.387249,-0.003193,0.000000,-0.002128,0.000000,0.000000,0.000000,0.000000,0.000000,0.000000,0.000000,0.000000,0.000000,0.000000,0.000000
205596,-0.120980,-0.025316,-0.386471,-0.004257,0.000000,-0.002128,0.000000,0.000000,0.000000,0.000000,0.000000,0.000000,0.000000,0.000000,0.000000,0.000000,0.000000
205616,-0.122100,-0.025357,-0.385637,-0.003193,0.000000,-0.002128,0.000000,0.000000,0.000000,0.000000,0.000000,0.000000,0.000000,0.000000,0.000000,0.000000,0.000000
205636,-0.123284,-0.025035,-0.384714,-0.001064,0.001064,-0.003193,0.000000,0.000000,0.000000,0.000000,0.000000,0.000000,0.000000,0.000000,0.000000,0.000000,0.000000
205656,-0.124134,-0.025145,-0.383829,-0.002128,0.001064,-0.003193,0.000000,0.000000,0.000000,0.000000,0.000000,0.000000,0.000000,0.000000,0.000000,0.000000,0.000000
205676,-0.124603,-0.025304,-0.382969,-0.003193,0.001064,-0.003193,0.000000,0.000000,0.000000,0.000000,0.000000,0.000000,0.000000,0.000000,0.000000,0.000000,0.000000
205696,-0.125304,-0.024877,-0.381888,-0.002128,0.001064,-0.003193,0.000000,0.000000,0.000000,0.000000,0.000000,0.000000,0.000000,0.000000,0.000000,0.000000,0.000000
205716,-0.125752,-0.025147,-0.380924,-0.001064,0.000000,-0.003193,0.000000,0.000000,0.000000,0.000000,0.000000,0.000000,0.000000,0.000000,0.000000,0.000000,0.000000
205736,-0.126127,-0.025155,-0.379950,-0.001064,0.000000,-0.003193,0.000000,0.000000,0.000000,0.000000,0.000000,0.000000,0.000000,0.000000,0.000000,0.000000,0.000000
205756,-0.126256,-0.025114,-0.378921,-0.002128,0.000000,-0.003193,0.000000,0.000000,0.000000,0.000000,0.000000,0.000000,0.000000,0.000000,0.000000,0.000000,0.000000
205776,-0.126751,-0.025144,-0.377941,-0.002128,0.000000,-0.003193,0.000000,0.000000,0.000000,0.000000,0.000000,0.000000,0.000000,0.000000,0.000000,0.000000,0.000000
205796,-0.127100,-0.025278,-0.377086,-0.001064,0.000000,-0.003193,0.000000,0.000000,0.000000,0.000000,0.000000,0.000000,0.000000,0.000000,0.000000,0.000000,0.000000
205816,-0.127448,-0.025393,-0.375941,-0.002128,0.000000,-0.003193,0.000000,0.000000,0.000000,0.000000,0.000000,0.000000,0.000000,0.000000,0.000000,0.000000,0.000000
205836,-0.127943,-0.025422,-0.374960,-0.002128,0.000000,-0.003193,0.000000,0.000000,0.000000,0.000000,0.000000,0.000000,0.000000,0.000000,0.000000,0.000000,0.000000
205856,-0.128319,-0.025428,-0.373985,-0.002128,0.000000,-0.003193,0.000000,0.000000,0.000000,0.000000,0.000000,0.000000,0.000000,0.000000,0.000000,0.000000,0.000000
205876,-0.128690,-0.025422,-0.372832,-0.002128,0.000000,-0.003193,0.000000,0.000000,0.000000,0.000000,0.000000,0.000000,0.000000,0.000000,0.000000,0.000000,0.000000
205896,-0.128994,-0.025158,-0.371736,-0.002128,0.000000,-0.003193,0.000000,0.000000,0.000000,0.000000,0.000000,0.000000,0.000000,0.000000,0.000000,0.000000,0.000000
205916,-0.129339,-0.025279,-0.370702,-0.001064,-0.001064,-0.003193,0.000000,0.000000,0.000000,0.000000,0.000000,0.000000,0.000000,0.000000,0.000000,0.000000,0.000000
205936,-0.129501,-0.025111,-0.369618,-0.001064,0.000000,-0.003193,0.000000,0.000000,0.000000,0.000000,0.000000,0.000000,0.000000,0.000000,0.000000,0.000000,0.000000
205956,-0.129633,-0.025060,-0.368476,-0.001064,0.000000,-0.003193,0.000000,0.000000,0.000000,0.000000,0.000000,0.000000,0.000000,0.000000,0.000000,0.000000,0.000000
205976,-0.129342,-0.025313,-0.367551,-0.002128,0.000000,-0.003193,0.000000,0.000000,0.000000,0.000000,0.000000,0.000000,0.000000,0.000000,0.000000,0.000000,0.000000
205996,-0.129331,-0.025359,-0.366422,-0.001064,0.000000,-0.003193,0.000000,0.000000,0.000000,0.000000,0.000000,0.000000,0.000000,0.000000,0.000000,0.000000,0.000000
206016,-0.129201,-0.025384,-0.365298,0.000000,0.000000,-0.002128,0.000000,0.000000,0.000000,0.000000,0.000000,0.000000,0.000000,0.000000,0.000000,0.000000,0.000000
206036,-0.129071,-0.025408,-0.364174,-0.001064,0.000000,-0.003193,0.000000,0.000000,0.000000,0.000000,0.000000,0.000000,0.000000,0.000000,0.000000,0.000000,0.000000
206056,-0.128726,-0.025262,-0.362942,-0.002128,0.000000,-0.003193,0.000000,0.000000,0.000000,0.000000,0.000000,0.000000,0.000000,0.000000,0.000000,0.000000,0.000000
206076,-0.128623,-0.025178,-0.361987,-0.001064,0.000000,-0.004257,0.000000,0.000000,0.000000,0.000000,0.000000,0.000000,0.000000,0.000000,0.000000,0.000000,0.000000
206096,-0.128754,-0.025127,-0.360844,0.000000,0.000000,-0.003193,0.000000,0.000000,0.000000,0.000000,0.000000,0.000000,0.000000,0.000000,0.000000,0.000000,0.000000
206116,-0.128675,-0.024915,-0.359769,-0.001064,0.000000,-0.003193,0.000000,0.000000,0.000000,0.000000,0.000000,0.000000,0.000000,0.000000,0.000000,0.000000,0.000000
206136,-0.128665,-0.024962,-0.358639,-0.001064,0.000000,-0.003193,0.000000,0.000000,0.000000,0.000000,0.000000,0.000000,0.000000,0.000000,0.000000,0.000000,0.000000
206156,-0.128392,-0.025086,-0.357527,-0.002128,0.000000,-0.003193,0.000000,0.000000,0.000000,0.000000,0.000000,0.000000,0.000000,0.000000,0.000000,0.000000,0.000000
206176,-0.128367,-0.025256,-0.356467,0.000000,0.000000,-0.003193,0.000000,0.000000,0.000000,0.000000,0.000000,0.000000,0.000000,0.000000,0.000000,0.000000,0.000000
206196,-0.127998,-0.025239,-0.355353,-0.001064,0.000000,-0.002128,0.000000,0.000000,0.000000,0.000000,0.000000,0.000000,0.000000,0.000000,0.000000,0.000000,0.000000
206216,-0.127748,-0.025244,-0.354233,-0.001064,0.000000,-0.003193,0.000000,0.000000,0.000000,0.000000,0.000000,0.000000,0.000000,0.000000,0.000000,0.000000,0.000000
206236,-0.127279,-0.025086,-0.353116,0.000000,0.000000,-0.003193,0.000000,0.000000,0.000000,0.000000,0.000000,0.000000,0.000000,0.000000,0.000000,0.000000,0.000000
206256,-0.126928,-0.024958,-0.352106,0.002128,0.001064,-0.003193,0.000000,0.000000,0.000000,0.000000,0.000000,0.000000,0.000000,0.000000,0.000000,0.000000,0.000000
206276,-0.126032,-0.025105,-0.351139,0.002128,0.000000,-0.003193,0.000000,0.000000,0.000000,0.000000,0.000000,0.000000,0.000000,0.000000,0.000000,0.000000,0.000000
206296,-0.125020,-0.025225,-0.350064,0.003193,0.000000,-0.003193,0.000000,0.000000,0.000000,0.000000,0.000000,0.000000,0.000000,0.000000,0.000000,0.000000,0.000000
206316,-0.123928,-0.025092,-0.349091,0.002128,0.000000,-0.003193,0.000000,0.000000,0.000000,0.000000,0.000000,0.000000,0.000000,0.000000,0.000000,0.000000,0.000000
206336,-0.122675,-0.025172,-0.348024,0.002128,0.001064,-0.003193,0.000000,0.000000,0.000000,0.000000,0.000000,0.000000,0.000000,0.000000,0.000000,0.000000,0.000000
206356,-0.120940,-0.025177,-0.347088,0.002128,0.000000,-0.002128,0.000000,0.000000,0.000000,0.000000,0.000000,0.000000,0.000000,0.000000,0.000000,0.000000,0.000000
206376,-0.119347,-0.025084,-0.346139,0.004257,0.000000,-0.003193,0.000000,0.000000,0.000000,0.000000,0.000000,0.000000,0.000000,0.000000,0.000000,0.000000,0.000000
206396,-0.117647,-0.024849,-0.345124,0.004257,0.000000,-0.003193,0.000000,0.000000,0.000000,0.000000,0.000000,0.000000,0.000000,0.000000,0.000000,0.000000,0.000000
206416,-0.115648,-0.024944,-0.344312,0.004257,0.000000,-0.003193,0.000000,0.000000,0.000000,0.000000,0.000000,0.000000,0.000000,0.000000,0.000000,0.000000,0.000000
206436,-0.113070,-0.024817,-0.343513,0.004257,0.000000,-0.002128,0.000000,0.000000,0.000000,0.000000,0.000000,0.000000,0.000000,0.000000,0.000000,0.000000,0.000000
206456,-0.110587,-0.024824,-0.342539,0.005321,0.000000,-0.002128,0.000000,0.000000,0.000000,0.000000,0.000000,0.000000,0.000000,0.000000,0.000000,0.000000,0.000000
206476,-0.107846,-0.024922,-0.341751,0.006385,-0.001064,-0.002128,0.000000,0.000000,0.000000,0.000000,0.000000,0.000000,0.000000,0.000000,0.000000,0.000000,0.000000
206496,-0.104781,-0.024717,-0.340896,0.005321,-0.001064,-0.002128,0.000000,0.000000,0.000000,0.000000,0.000000,0.000000,0.000000,0.000000,0.000000,0.000000,0.000000
206516,-0.101173,-0.024793,-0.340071,0.005321,-0.001064,-0.002128,0.000000,0.000000,0.000000,0.000000,0.000000,0.000000,0.000000,0.000000,0.000000,0.000000,0.000000
206536,-0.097832,-0.024796,-0.339287,0.006385,-0.001064,-0.002128,0.000000,0.000000,0.000000,0.000000,0.000000,0.000000,0.000000,0.000000,0.000000,0.000000,0.000000
206556,-0.094284,-0.024523,-0.338545,0.008514,-0.001064,-0.002128,0.000000,0.000000,0.000000,0.000000,0.000000,0.000000,0.000000,0.000000,0.000000,0.000000,0.000000
206576,-0.090460,-0.024455,-0.337876,0.008514,-0.001064,-0.001064,0.000000,0.000000,0.000000,0.000000,0.000000,0.000000,0.000000,0.000000,0.000000,0.000000,0.000000
206596,-0.086087,-0.024666,-0.337166,0.008514,-0.001064,-0.001064,0.000000,0.000000,0.000000,0.000000,0.000000,0.000000,0.000000,0.000000,0.000000,0.000000,0.000000
206616,-0.081684,-0.024377,-0.336376,0.009578,0.000000,-0.002128,0.000000,0.000000,0.000000,0.000000,0.000000,0.000000,0.000000,0.000000,0.000000,0.000000,0.000000
206636,-0.077028,-0.024800,-0.335775,0.010642,-0.001064,-0.001064,0.000000,0.000000,0.000000,0.000000,0.000000,0.000000,0.000000,0.000000,0.000000,0.000000,0.000000
206656,-0.072157,-0.025067,-0.335222,0.010642,-0.001064,-0.001064,0.000000,0.000000,0.000000,0.000000,0.000000,0.000000,0.000000,0.000000,0.000000,0.000000,0.000000
206676,-0.067148,-0.025433,-0.334549,0.010642,-0.001064,-0.002128,0.000000,0.000000,0.000000,0.000000,0.000000,0.000000,0.000000,0.000000,0.000000,0.000000,0.000000
206696,-0.062073,-0.025423,-0.333907,0.010642,-0.001064,-0.002128,0.000000,0.000000,0.000000,0.000000,0.000000,0.000000,0.000000,0.000000,0.000000,0.000000,0.000000
206716,-0.057100,-0.025562,-0.333427,0.010642,-0.001064,-0.001064,0.000000,0.000000,0.000000,0.000000,0.000000,0.000000,0.000000,0.000000,0.000000,0.000000,0.000000
206736,-0.051767,-0.025647,-0.333112,0.010642,-0.002128,0.000000,0.000000,0.000000,0.000000,0.000000,0.000000,0.000000,0.000000,0.000000,0.000000,0.000000,0.000000
206756,-0.046733,-0.025411,-0.332713,0.011706,-0.002128,0.000000,0.000000,0.000000,0.000000,0.000000,0.000000,0.000000,0.000000,0.000000,0.000000,0.000000,0.000000
206776,-0.041440,-0.025259,-0.332367,0.010642,-0.002128,-0.001064,0.000000,0.000000,0.000000,0.000000,0.000000,0.000000,0.000000,0.000000,0.000000,0.000000,0.000000
206796,-0.036184,-0.024872,-0.332230,0.010642,-0.001064,0.000000,0.000000,0.000000,0.000000,0.000000,0.000000,0.000000,0.000000,0.000000,0.000000,0.000000,0.000000
206816,-0.030748,-0.024825,-0.331975,0.010642,-0.001064,0.000000,0.000000,0.000000,0.000000,0.000000,0.000000,0.000000,0.000000,0.000000,0.000000,0.000000,0.000000
206836,-0.025650,-0.024962,-0.331935,0.011706,-0.001064,0.000000,0.000000,0.000000,0.000000,0.000000,0.000000,0.000000,0.000000,0.000000,0.000000,0.000000,0.000000
206856,-0.020572,-0.024978,-0.331881,0.011706,-0.001064,0.000000,0.000000,0.000000,0.000000,0.000000,0.000000,0.000000,0.000000,0.000000,0.000000,0.000000,0.000000
206876,-0.015333,-0.025217,-0.331990,0.010642,0.000000,0.000000,0.000000,0.000000,0.000000,0.000000,0.000000,0.000000,0.000000,0.000000,0.000000,0.000000,0.000000
206896,-0.009930,-0.025679,-0.332373,0.009578,0.000000,0.000000,0.000000,0.000000,0.000000,0.000000,0.000000,0.000000,0.000000,0.000000,0.000000,0.000000,0.000000
206916,-0.004706,-0.025795,-0.332795,0.009578,0.000000,0.001064,0.000000,0.000000,0.000000,0.000000,0.000000,0.000000,0.000000,0.000000,0.000000,0.000000,0.000000
206936,0.000115,-0.025730,-0.333152,0.009578,0.000000,0.001064,0.000000,0.000000,0.000000,0.000000,0.000000,0.000000,0.000000,0.000000,0.000000,0.000000,0.000000
206956,0.005240,-0.025981,-0.333663,0.009578,0.001064,0.001064,0.000000,0.000000,0.000000,0.000000,0.000000,0.000000,0.000000,0.000000,0.000000,0.000000,0.000000
206976,0.010325,-0.025989,-0.334221,0.008514,0.001064,0.000000,0.000000,0.000000,0.000000,0.000000,0.000000,0.000000,0.000000,0.000000,0.000000,0.000000,0.000000
206996,0.015152,-0.025914,-0.334945,0.009578,0.001064,0.000000,0.000000,0.000000,0.000000,0.000000,0.000000,0.000000,0.000000,0.000000,0.000000,0.000000,0.000000
207016,0.019918,-0.026216,-0.335598,0.010642,0.001064,0.001064,0.000000,0.000000,0.000000,0.000000,0.000000,0.000000,0.000000,0.000000,0.000000,0.000000,0.000000
207036,0.024747,-0.026875,-0.336296,0.009578,0.001064,0.001064,0.000000,0.000000,0.000000,0.000000,0.000000,0.000000,0.000000,0.000000,0.000000,0.000000,0.000000
207056,0.029395,-0.027187,-0.337040,0.007450,0.000000,0.001064,0.000000,0.000000,0.000000,0.000000,0.000000,0.000000,0.000000,0.000000,0.000000,0.000000,0.000000
207076,0.033823,-0.027660,-0.337725,0.007450,0.000000,0.001064,0.000000,0.000000,0.000000,0.000000,0.000000,0.000000,0.000000,0.000000,0.000000,0.000000,0.000000
207096,0.037871,-0.028068,-0.338523,0.007450,0.000000,0.002128,0.000000,0.000000,0.000000,0.000000,0.000000,0.000000,0.000000,0.000000,0.000000,0.000000,0.000000
207116,0.041596,-0.028036,-0.339214,0.007450,-0.001064,0.002128,0.000000,0.000000,0.000000,0.000000,0.000000,0.000000,0.000000,0.000000,0.000000,0.000000,0.000000
207136,0.045340,-0.028116,-0.339949,0.006385,-0.001064,0.002128,0.000000,0.000000,0.000000,0.000000,0.000000,0.000000,0.000000,0.000000,0.000000,0.000000,0.000000
207156,0.048564,-0.028037,-0.340758,0.006385,-0.001064,0.002128,0.000000,0.000000,0.000000,0.000000,0.000000,0.000000,0.000000,0.000000,0.000000,0.000000,0.000000
207176,0.051427,-0.028018,-0.341574,0.005321,0.000000,0.001064,0.000000,0.000000,0.000000,0.000000,0.000000,0.000000,0.000000,0.000000,0.000000,0.000000,0.000000
207196,0.054192,-0.028134,-0.342501,0.005321,0.000000,0.001064,0.000000,0.000000,0.000000,0.000000,0.000000,0.000000,0.000000,0.000000,0.000000,0.000000,0.000000
207216,0.056758,-0.028533,-0.343313,0.005321,0.000000,0.001064,0.000000,0.000000,0.000000,0.000000,0.000000,0.000000,0.000000,0.000000,0.000000,0.000000,0.000000
207236,0.058901,-0.028628,-0.344256,0.004257,0.001064,0.002128,0.000000,0.000000,0.000000,0.000000,0.000000,0.000000,0.000000,0.000000,0.000000,0.000000,0.000000
207256,0.061227,-0.029064,-0.345070,0.002128,0.001064,0.001064,0.000000,0.000000,0.000000,0.000000,0.000000,0.000000,0.000000,0.000000,0.000000,0.000000,0.000000
207276,0.062932,-0.029480,-0.346020,0.002128,0.000000,0.001064,0.000000,0.000000,0.000000,0.000000,0.000000,0.000000,0.000000,0.000000,0.000000,0.000000,0.000000
207296,0.064450,-0.029554,-0.346921,0.002128,0.000000,0.001064,0.000000,0.000000,0.000000,0.000000,0.000000,0.000000,0.000000,0.000000,0.000000,0.000000,0.000000
207316,0.065450,-0.029472,-0.347908,0.002128,0.000000,0.001064,0.000000,0.000000,0.000000,0.000000,0.000000,0.000000,0.000000,0.000000,0.000000,0.000000,0.000000
207336,0.066450,-0.029385,-0.349008,0.001064,0.000000,0.001064,0.000000,0.000000,0.000000,0.000000,0.000000,0.000000,0.000000,0.000000,0.000000,0.000000,0.000000
207356,0.067612,-0.029520,-0.349982,0.001064,0.000000,0.001064,0.000000,0.000000,0.000000,0.000000,0.000000,0.000000,0.000000,0.000000,0.000000,0.000000,0.000000
207376,0.068608,-0.029430,-0.351018,0.002128,-0.001064,0.002128,0.000000,0.000000,0.000000,0.000000,0.000000,0.000000,0.000000,0.000000,0.000000,0.000000,0.000000
207396,0.069410,-0.029627,-0.352006,0.002128,-0.001064,0.002128,0.000000,0.000000,0.000000,0.000000,0.000000,0.000000,0.000000,0.000000,0.000000,0.000000,0.000000
207416,0.070290,-0.029558,-0.353108,0.001064,-0.001064,0.002128,0.000000,0.000000,0.000000,0.000000,0.000000,0.000000,0.000000,0.000000,0.000000,0.000000,0.000000
207436,0.071213,-0.029731,-0.354090,0.000000,-0.001064,0.002128,0.000000,0.000000,0.000000,0.000000,0.000000,0.000000,0.000000,0.000000,0.000000,0.000000,0.000000
207456,0.072157,-0.030024,-0.355067,0.000000,0.000000,0.002128,0.000000,0.000000,0.000000,0.000000,0.000000,0.000000,0.000000,0.000000,0.000000,0.000000,0.000000
207476,0.072629,-0.029776,-0.356128,0.002128,0.001064,0.001064,0.000000,0.000000,0.000000,0.000000,0.000000,0.000000,0.000000,0.000000,0.000000,0.000000,0.000000
207496,0.073433,-0.029965,-0.357226,0.002128,0.001064,0.001064,0.000000,0.000000,0.000000,0.000000,0.000000,0.000000,0.000000,0.000000,0.000000,0.000000,0.000000
207516,0.074497,-0.030233,-0.358196,0.001064,0.000000,0.001064,0.000000,0.000000,0.000000,0.000000,0.000000,0.000000,0.000000,0.000000,0.000000,0.000000,0.000000
207536,0.075454,-0.029896,-0.359297,0.001064,0.000000,0.001064,0.000000,0.000000,0.000000,0.000000,0.000000,0.000000,0.000000,0.000000,0.000000,0.000000,0.000000
207556,0.076455,-0.029797,-0.360390,0.001064,0.000000,0.002128,0.000000,0.000000,0.000000,0.000000,0.000000,0.000000,0.000000,0.000000,0.000000,0.000000,0.000000
207576,0.077356,-0.029844,-0.361371,0.001064,-0.001064,0.002128,0.000000,0.000000,0.000000,0.000000,0.000000,0.000000,0.000000,0.000000,0.000000,0.000000,0.000000
207596,0.078252,-0.029890,-0.362288,0.001064,-0.001064,0.002128,0.000000,0.000000,0.000000,0.000000,0.000000,0.000000,0.000000,0.000000,0.000000,0.000000,0.000000
207616,0.079274,-0.029908,-0.363374,0.002128,-0.001064,0.002128,0.000000,0.000000,0.000000,0.000000,0.000000,0.000000,0.000000,0.000000,0.000000,0.000000,0.000000
207636,0.080056,-0.029975,-0.364360,0.002128,-0.001064,0.002128,0.000000,0.000000,0.000000,0.000000,0.000000,0.000000,0.000000,0.000000,0.000000,0.000000,0.000000
207656,0.081122,-0.030230,-0.365436,0.002128,-0.001064,0.002128,0.000000,0.000000,0.000000,0.000000,0.000000,0.000000,0.000000,0.000000,0.000000,0.000000,0.000000
207676,0.082144,-0.030250,-0.366409,0.001064,-0.001064,0.002128,0.000000,0.000000,0.000000,0.000000,0.000000,0.000000,0.000000,0.000000,0.000000,0.000000,0.000000
207696,0.083143,-0.030150,-0.367385,0.001064,0.000000,0.002128,0.000000,0.000000,0.000000,0.000000,0.000000,0.000000,0.000000,0.000000,0.000000,0.000000,0.000000
207716,0.084360,-0.029883,-0.368353,0.001064,0.000000,0.002128,0.000000,0.000000,0.000000,0.000000,0.000000,0.000000,0.000000,0.000000,0.000000,0.000000,0.000000
207736,0.085718,-0.029717,-0.369197,0.001064,0.001064,0.001064,0.000000,0.000000,0.000000,0.000000,0.000000,0.000000,0.000000,0.000000,0.000000,0.000000,0.000000
207756,0.086979,-0.029688,-0.370155,0.002128,0.000000,0.001064,0.000000,0.000000,0.000000,0.000000,0.000000,0.000000,0.000000,0.000000,0.000000,0.000000,0.000000
207776,0.088262,-0.029776,-0.371106,0.003193,0.000000,0.001064,0.000000,0.000000,0.000000,0.000000,0.000000,0.000000,0.000000,0.000000,0.000000,0.000000,0.000000
207796,0.090004,-0.029647,-0.372148,0.003193,0.001064,0.001064,0.000000,0.000000,0.000000,0.000000,0.000000,0.000000,0.000000,0.000000,0.000000,0.000000,0.000000
207816,0.091669,-0.029784,-0.373073,0.002128,0.000000,0.001064,0.000000,0.000000,0.000000,0.000000,0.000000,0.000000,0.000000,0.000000,0.000000,0.000000,0.000000
207836,0.093500,-0.030135,-0.373980,0.002128,-0.001064,0.002128,0.000000,0.000000,0.000000,0.000000,0.000000,0.000000,0.000000,0.000000,0.000000,0.000000,0.000000
207856,0.094979,-0.029926,-0.375035,0.004257,-0.001064,0.002128,0.000000,0.000000,0.000000,0.000000,0.000000,0.000000,0.000000,0.000000,0.000000,0.000000,0.000000
207876,0.096913,-0.030132,-0.376002,0.003193,-0.001064,0.002128,0.000000,0.000000,0.000000,0.000000,0.000000,0.000000,0.000000,0.000000,0.000000,0.000000,0.000000
207896,0.098938,-0.030199,-0.376788,0.003193,-0.001064,0.002128,0.000000,0.000000,0.000000,0.000000,0.000000,0.000000,0.000000,0.000000,0.000000,0.000000,0.000000
207916,0.100895,-0.029891,-0.377809,0.003193,0.000000,0.002128,0.000000,0.000000,0.000000,0.000000,0.000000,0.000000,0.000000,0.000000,0.000000,0.000000,0.000000
207936,0.102665,-0.029875,-0.378788,0.004257,0.000000,0.002128,0.000000,0.000000,0.000000,0.000000,0.000000,0.000000,0.000000,0.000000,0.000000,0.000000,0.000000
207956,0.104548,-0.029826,-0.379802,0.004257,0.000000,0.001064,0.000000,0.000000,0.000000,0.000000,0.000000,0.000000,0.000000,0.000000,0.000000,0.000000,0.000000
207976,0.106722,-0.029975,-0.380744,0.003193,0.000000,0.001064,0.000000,0.000000,0.000000,0.000000,0.000000,0.000000,0.000000,0.000000,0.000000,0.000000,0.000000
207996,0.108628,-0.030041,-0.381747,0.003193,0.000000,0.001064,0.000000,0.000000,0.000000,0.000000,0.000000,0.000000,0.000000,0.000000,0.000000,0.000000,0.000000
208016,0.110518,-0.029993,-0.382711,0.003193,0.000000,0.002128,0.000000,0.000000,0.000000,0.000000,0.000000,0.000000,0.000000,0.000000,0.000000,0.000000,0.000000
208036,0.112550,-0.030032,-0.383770,0.003193,0.000000,0.002128,0.000000,0.000000,0.000000,0.000000,0.000000,0.000000,0.000000,0.000000,0.000000,0.000000,0.000000
208056,0.114313,-0.030003,-0.384669,0.003193,0.000000,0.002128,0.000000,0.000000,0.000000,0.000000,0.000000,0.000000,0.000000,0.000000,0.000000,0.000000,0.000000
208076,0.116075,-0.029979,-0.385455,0.003193,0.000000,0.001064,0.000000,0.000000,0.000000,0.000000,0.000000,0.000000,0.000000,0.000000,0.000000,0.000000,0.000000
208096,0.117822,-0.029828,-0.386424,0.003193,0.000000,0.001064,0.000000,0.000000,0.000000,0.000000,0.000000,0.000000,0.000000,0.000000,0.000000,0.000000,0.000000
208116,0.119585,-0.029786,-0.387428,0.003193,0.000000,0.002128,0.000000,0.000000,0.000000,0.000000,0.000000,0.000000,0.000000,0.000000,0.000000,0.000000,0.000000
208136,0.121258,-0.029901,-0.388279,0.003193,-0.001064,0.002128,0.000000,0.000000,0.000000,0.000000,0.000000,0.000000,0.000000,0.000000,0.000000,0.000000,0.000000
208156,0.122805,-0.030030,-0.389178,0.003193,-0.001064,0.002128,0.000000,0.000000,0.000000,0.000000,0.000000,0.000000,0.000000,0.000000,0.000000,0.000000,0.000000
208176,0.124448,-0.030015,-0.390074,0.002128,0.000000,0.002128,0.000000,0.000000,0.000000,0.000000,0.000000,0.000000,0.000000,0.000000,0.000000,0.000000,0.000000
208196,0.125955,-0.029902,-0.391053,0.001064,0.001064,0.002128,0.000000,0.000000,0.000000,0.000000,0.000000,0.000000,0.000000,0.000000,0.000000,0.000000,0.000000
208216,0.127239,-0.029956,-0.391971,0.001064,0.000000,0.002128,0.000000,0.000000,0.000000,0.000000,0.000000,0.000000,0.000000,0.000000,0.000000,0.000000,0.000000
208236,0.128141,-0.029962,-0.392921,0.002128,0.000000,0.001064,0.000000,0.000000,0.000000,0.000000,0.000000,0.000000,0.000000,0.000000,0.000000,0.000000,0.000000
208256,0.128804,-0.030015,-0.393888,0.001064,0.000000,0.002128,0.000000,0.000000,0.000000,0.000000,0.000000,0.000000,0.000000,0.000000,0.000000,0.000000,0.000000
208276,0.129706,-0.030019,-0.394837,0.000000,0.000000,0.002128,0.000000,0.000000,0.000000,0.000000,0.000000,0.000000,0.000000,0.000000,0.000000,0.000000,0.000000
208296,0.130322,-0.029833,-0.395816,0.000000,0.000000,0.002128,0.000000,0.000000,0.000000,0.000000,0.000000,0.000000,0.000000,0.000000,0.000000,0.000000,0.000000
208316,0.130651,-0.030077,-0.396802,0.001064,-0.001064,0.002128,0.000000,0.000000,0.000000,0.000000,0.000000,0.000000,0.000000,0.000000,0.000000,0.000000,0.000000
208336,0.130764,-0.029868,-0.397823,0.000000,0.000000,0.002128,0.000000,0.000000,0.000000,0.000000,0.000000,0.000000,0.000000,0.000000,0.000000,0.000000,0.000000
208356,0.131140,-0.029729,-0.398820,-0.001064,0.000000,0.001064,0.000000,0.000000,0.000000,0.000000,0.000000,0.000000,0.000000,0.000000,0.000000,0.000000,0.000000
208376,0.131199,-0.029902,-0.399759,-0.002128,0.000000,0.001064,0.000000,0.000000,0.000000,0.000000,0.000000,0.000000,0.000000,0.000000,0.000000,0.000000,0.000000
208396,0.130764,-0.030047,-0.400922,-0.001064,-0.001064,0.001064,0.000000,0.000000,0.000000,0.000000,0.000000,0.000000,0.000000,0.000000,0.000000,0.000000,0.000000
208416,0.130367,-0.029809,-0.402025,0.000000,0.000000,0.002128,0.000000,0.000000,0.000000,0.000000,0.000000,0.000000,0.000000,0.000000,0.000000,0.000000,0.000000
208436,0.130458,-0.030102,-0.403027,-0.001064,0.000000,0.002128,0.000000,0.000000,0.000000,0.000000,0.000000,0.000000,0.000000,0.000000,0.000000,0.000000,0.000000
208456,0.130476,-0.030029,-0.404160,-0.001064,0.000000,0.002128,0.000000,0.000000,0.000000,0.000000,0.000000,0.000000,0.000000,0.000000,0.000000,0.000000,0.000000
208476,0.130350,-0.029869,-0.405198,-0.001064,0.000000,0.002128,0.000000,0.000000,0.000000,0.000000,0.000000,0.000000,0.000000,0.000000,0.000000,0.000000,0.000000
208496,0.130241,-0.029821,-0.406268,0.000000,0.000000,0.002128,0.000000,0.000000,0.000000,0.000000,0.000000,0.000000,0.000000,0.000000,0.000000,0.000000,0.000000
208516,0.130411,-0.029834,-0.407566,-0.001064,0.000000,0.002128,0.000000,0.000000,0.000000,0.000000,0.000000,0.000000,0.000000,0.000000,0.000000,0.000000,0.000000
208536,0.130301,-0.029786,-0.408635,-0.001064,0.000000,0.001064,0.000000,0.000000,0.000000,0.000000,0.000000,0.000000,0.000000,0.000000,0.000000,0.000000,0.000000
208556,0.130089,-0.029747,-0.410077,-0.001064,0.000000,0.002128,0.000000,0.000000,0.000000,0.000000,0.000000,0.000000,0.000000,0.000000,0.000000,0.000000,0.000000
208576,0.130038,-0.029930,-0.411314,-0.001064,0.000000,0.003193,0.000000,0.000000,0.000000,0.000000,0.000000,0.000000,0.000000,0.000000,0.000000,0.000000,0.000000
208596,0.129892,-0.030249,-0.412662,-0.001064,-0.001064,0.003193,0.000000,0.000000,0.000000,0.000000,0.000000,0.000000,0.000000,0.000000,0.000000,0.000000,0.000000
208616,0.129553,-0.030244,-0.413930,-0.002128,0.000000,0.002128,0.000000,0.000000,0.000000,0.000000,0.000000,0.000000,0.000000,0.000000,0.000000,0.000000,0.000000
208636,0.129213,-0.030232,-0.415307,-0.002128,0.000000,0.002128,0.000000,0.000000,0.000000,0.000000,0.000000,0.000000,0.000000,0.000000,0.000000,0.000000,0.000000
208656,0.128943,-0.029957,-0.416687,-0.002128,0.001064,0.002128,0.000000,0.000000,0.000000,0.000000,0.000000,0.000000,0.000000,0.000000,0.000000,0.000000,0.000000
208676,0.128364,-0.030013,-0.417863,-0.002128,0.000000,0.001064,0.000000,0.000000,0.000000,0.000000,0.000000,0.000000,0.000000,0.000000,0.000000,0.000000,0.000000
208696,0.127370,-0.029901,-0.419114,-0.002128,-0.002128,0.002128,0.000000,0.000000,0.000000,0.000000,0.000000,0.000000,0.000000,0.000000,0.000000,0.000000,0.000000
208716,0.126401,-0.029288,-0.420455,-0.002128,-0.001064,0.002128,0.000000,0.000000,0.000000,0.000000,0.000000,0.000000,0.000000,0.000000,0.000000,0.000000,0.000000
208736,0.125407,-0.029187,-0.421595,-0.003193,-0.001064,0.002128,0.000000,0.000000,0.000000,0.000000,0.000000,0.000000,0.000000,0.000000,0.000000,0.000000,0.000000
208756,0.124471,-0.029332,-0.422686,-0.004257,-0.001064,0.002128,0.000000,0.000000,0.000000,0.000000,0.000000,0.000000,0.000000,0.000000,0.000000,0.000000,0.000000
208776,0.123016,-0.028827,-0.423985,-0.004257,0.000000,0.002128,0.000000,0.000000,0.000000,0.000000,0.000000,0.000000,0.000000,0.000000,0.000000,0.000000,0.000000
208796,0.121544,-0.028841,-0.425048,-0.004257,0.000000,0.002128,0.000000,0.000000,0.000000,0.000000,0.000000,0.000000,0.000000,0.000000,0.000000,0.000000,0.000000
208816,0.120218,-0.028942,-0.426203,-0.004257,0.000000,0.002128,0.000000,0.000000,0.000000,0.000000,0.000000,0.000000,0.000000,0.000000,0.000000,0.000000,0.000000
208836,0.118814,-0.028695,-0.427267,-0.005321,0.000000,0.002128,0.000000,0.000000,0.000000,0.000000,0.000000,0.000000,0.000000,0.000000,0.000000,0.000000,0.000000
208856,0.116840,-0.028699,-0.428365,-0.003193,-0.001064,0.001064,0.000000,0.000000,0.000000,0.000000,0.000000,0.000000,0.000000,0.000000,0.000000,0.000000,0.000000
208876,0.114907,-0.028330,-0.429362,-0.003193,-0.001064,0.001064,0.000000,0.000000,0.000000,0.000000,0.000000,0.000000,0.000000,0.000000,0.000000,0.000000,0.000000
208896,0.113179,-0.027782,-0.430378,-0.005321,-0.001064,0.001064,0.000000,0.000000,0.000000,0.000000,0.000000,0.000000,0.000000,0.000000,0.000000,0.000000,0.000000
208916,0.111245,-0.027416,-0.431370,-0.006385,-0.001064,0.001064,0.000000,0.000000,0.000000,0.000000,0.000000,0.000000,0.000000,0.000000,0.000000,0.000000,0.000000
208936,0.108827,-0.027164,-0.432206,-0.006385,-0.001064,0.001064,0.000000,0.000000,0.000000,0.000000,0.000000,0.000000,0.000000,0.000000,0.000000,0.000000,0.000000
208956,0.106536,-0.026880,-0.433214,-0.006385,-0.001064,0.002128,0.000000,0.000000,0.000000,0.000000,0.000000,0.000000,0.000000,0.000000,0.000000,0.000000,0.000000
208976,0.103854,-0.026565,-0.434063,-0.007450,-0.001064,0.001064,0.000000,0.000000,0.000000,0.000000,0.000000,0.000000,0.000000,0.000000,0.000000,0.000000,0.000000
208996,0.100985,-0.026550,-0.434803,-0.007450,-0.001064,0.000000,0.000000,0.000000,0.000000,0.000000,0.000000,0.000000,0.000000,0.000000,0.000000,0.000000,0.000000
209016,0.097972,-0.026444,-0.435551,-0.007450,0.000000,0.000000,0.000000,0.000000,0.000000,0.000000,0.000000,0.000000,0.000000,0.000000,0.000000,0.000000,0.000000
209036,0.095045,-0.026193,-0.436214,-0.006385,0.000000,0.000000,0.000000,0.000000,0.000000,0.000000,0.000000,0.000000,0.000000,0.000000,0.000000,0.000000,0.000000
209056,0.091965,-0.026361,-0.436839,-0.006385,-0.001064,0.000000,0.000000,0.000000,0.000000,0.000000,0.000000,0.000000,0.000000,0.000000,0.000000,0.000000,0.000000
209076,0.088950,-0.026271,-0.437354,-0.007450,-0.002128,0.000000,0.000000,0.000000,0.000000,0.000000,0.000000,0.000000,0.000000,0.000000,0.000000,0.000000,0.000000
209096,0.085731,-0.025856,-0.437697,-0.007450,-0.001064,0.000000,0.000000,0.000000,0.000000,0.000000,0.000000,0.000000,0.000000,0.000000,0.000000,0.000000,0.000000
209116,0.082445,-0.025718,-0.437816,-0.008514,-0.001064,0.000000,0.000000,0.000000,0.000000,0.000000,0.000000,0.000000,0.000000,0.000000,0.000000,0.000000,0.000000
209136,0.079159,-0.025579,-0.437927,-0.009578,-0.001064,-0.001064,0.000000,0.000000,0.000000,0.000000,0.000000,0.000000,0.000000,0.000000,0.000000,0.000000,0.000000
209156,0.075550,-0.025141,-0.437870,-0.008514,-0.001064,-0.001064,0.000000,0.000000,0.000000,0.000000,0.000000,0.000000,0.000000,0.000000,0.000000,0.000000,0.000000
209176,0.071641,-0.025025,-0.437783,-0.008514,0.000000,-0.001064,0.000000,0.000000,0.000000,0.000000,0.000000,0.000000,0.000000,0.000000,0.000000,0.000000,0.000000
209196,0.068020,-0.025087,-0.437699,-0.008514,0.000000,-0.001064,0.000000,0.000000,0.000000,0.000000,0.000000,0.000000,0.000000,0.000000,0.000000,0.000000,0.000000
209216,0.064401,-0.025158,-0.437469,-0.008514,0.000000,-0.001064,0.000000,0.000000,0.000000,0.000000,0.000000,0.000000,0.000000,0.000000,0.000000,0.000000,0.000000
209236,0.060474,-0.025545,-0.437163,-0.007450,-0.001064,-0.001064,0.000000,0.000000,0.000000,0.000000,0.000000,0.000000,0.000000,0.000000,0.000000,0.000000,0.000000
209256,0.056519,-0.025814,-0.436744,-0.008514,-0.001064,-0.001064,0.000000,0.000000,0.000000,0.000000,0.000000,0.000000,0.000000,0.000000,0.000000,0.000000,0.000000
209276,0.052578,-0.025578,-0.436322,-0.010642,0.000000,-0.002128,0.000000,0.000000,0.000000,0.000000,0.000000,0.000000,0.000000,0.000000,0.000000,0.000000,0.000000
209296,0.048600,-0.025725,-0.435963,-0.011706,0.000000,-0.002128,0.000000,0.000000,0.000000,0.000000,0.000000,0.000000,0.000000,0.000000,0.000000,0.000000,0.000000
209316,0.044143,-0.025974,-0.435535,-0.009578,-0.001064,-0.002128,0.000000,0.000000,0.000000,0.000000,0.000000,0.000000,0.000000,0.000000,0.000000,0.000000,0.000000
209336,0.039553,-0.025628,-0.434996,-0.009578,-0.001064,-0.002128,0.000000,0.000000,0.000000,0.000000,0.000000,0.000000,0.000000,0.000000,0.000000,0.000000,0.000000
209356,0.035213,-0.025848,-0.434432,-0.010642,-0.001064,-0.002128,0.000000,0.000000,0.000000,0.000000,0.000000,0.000000,0.000000,0.000000,0.000000,0.000000,0.000000
209376,0.030702,-0.025852,-0.433864,-0.010642,-0.001064,-0.002128,0.000000,0.000000,0.000000,0.000000,0.000000,0.000000,0.000000,0.000000,0.000000,0.000000,0.000000
209396,0.025806,-0.025816,-0.433185,-0.010642,0.000000,-0.002128,0.000000,0.000000,0.000000,0.000000,0.000000,0.000000,0.000000,0.000000,0.000000,0.000000,0.000000
