time_ms,roll,pitch,yaw,x,y,z,reference_roll,reference_pitch,reference_yaw,reference_throttle,throttle_1,throttle_2,throttle_3,throttle_4,roll_predicted,pitch_predicted,yaw_predicted,roll_rate_predicted,pitch_rate_predicted,yaw_rate_predicted,value1,value2,value3,value4,value5,value6
561086,-0.004273,0.001708,-0.000363,0.0,0.0,0.0,0.0,0.0,0.0,3.0,0.342829,0.321592,0.308797,0.327692,-0.0,0.0,0.0,0.0,0.0,0.0,0.015393,-0.017514,0.093272,-0.013421,0.000133,0.000122
561106,-0.004395,0.00183,-0.000484,0.0,0.0,0.0,0.0,0.0,0.0,3.0,0.345357,0.3191,0.306213,0.329767,-0.0,0.0,0.0,0.0,0.0,0.0,0.015203,-0.017407,0.09315,0.017266,0.003734,0.000101
561126,-0.004395,0.00183,-0.000606,0.0,0.0,0.0,0.0,0.0,0.0,3.0,0.348012,0.320155,0.305874,0.326197,-0.0,0.0,0.0,0.0,-0.0,0.0,0.014975,-0.017495,0.093047,0.013627,0.038212,-0.003658
561146,-0.00464,0.001829,-0.000728,0.0,0.0,0.0,0.0,0.0,0.0,3.0,0.342684,0.322567,0.304669,0.330644,-0.0,0.0,0.0,0.0,-0.0,0.0,0.015063,-0.017391,0.09303,-0.021053,0.021074,6.7e-05
561166,-0.004762,0.001707,-0.000728,0.0,0.0,0.0,0.0,0.0,0.0,3.0,0.341335,0.326521,0.300651,0.331757,-0.0,0.0,0.0,0.0,-0.0,0.0,0.014837,-0.017496,0.093012,-0.003729,0.017333,-0.017042
561186,-0.004884,0.001951,-0.000728,0.0,0.0,0.0,0.0,0.0,0.0,3.0,0.342627,0.320395,0.305148,0.33236,-0.0,0.0,0.0,0.0,0.0,0.0,0.014819,-0.017285,0.092908,-1e-05,0.024725,8.4e-05
561206,-0.004762,0.001829,-0.000728,0.0,0.0,0.0,0.0,0.0,0.0,3.0,0.342924,0.322756,0.303868,0.330924,-0.0,0.0,0.0,0.0,-0.0,0.0,0.014715,-0.01727,0.092908,0.017309,0.000192,0.020958
561226,-0.00464,0.00183,-0.000606,0.0,0.0,0.0,0.0,0.0,0.0,3.0,0.341452,0.322457,0.306943,0.329997,-0.0,0.0,0.0,0.0,-0.0,0.0,0.014924,-0.017392,0.092907,-0.017253,0.021173,0.021175
561246,-0.004395,0.00183,-0.000606,0.0,0.0,0.0,0.0,0.0,0.0,3.0,0.341199,0.321458,0.309992,0.328441,-0.0,0.0,0.0,0.0,0.0,0.0,0.015152,-0.017534,0.092906,0.007341,0.025106,0.02111
561266,-0.004395,0.002074,-0.000606,0.0,0.0,0.0,0.0,0.0,0.0,3.0,0.346303,0.318855,0.3067,0.328549,-0.0,0.0,0.0,0.0,0.0,-0.0,0.015099,-0.017409,0.092925,0.034385,0.024838,0.01724
561286,-0.004517,0.001708,-0.000607,0.0,0.0,0.0,0.0,0.0,0.0,3.0,0.347702,0.321689,0.305408,0.325458,-0.0,0.0,0.0,0.0,-0.0,-0.0,0.014975,-0.017498,0.092925,-0.007339,-0.003654,0.017216
561306,-0.004884,0.00183,-0.000606,0.0,0.0,0.0,0.0,0.0,0.0,3.0,0.343818,0.324009,0.302175,0.33027,-0.0,0.0,0.0,0.0,-0.0,-0.0,0.014836,-0.017636,0.09303,-0.045733,0.021065,6.4e-05
561326,-0.004884,0.001708,-0.000606,0.0,0.0,0.0,0.0,0.0,0.0,3.0,0.341327,0.325826,0.300393,0.332669,-0.0,0.0,0.0,0.0,-0.0,-0.0,0.014593,-0.017494,0.093154,0.017112,-0.003961,-0.021109
561346,-0.00525,0.001586,-0.000484,0.0,0.0,0.0,0.0,0.0,0.0,3.0,0.342348,0.325766,0.299952,0.332049,-0.0,0.0,0.0,0.0,-0.0,-0.0,0.014469,-0.017636,0.093153,-0.003641,-0.020865,-0.000136
561366,-0.005128,0.001464,-0.000363,0.0,0.0,0.0,0.0,0.0,0.0,3.0,0.338498,0.326441,0.300485,0.334891,-0.0,0.0,0.0,0.0,-0.0,-0.0,0.014454,-0.017633,0.093257,4.8e-05,-0.000125,0.003732
561386,-0.005005,0.001464,-0.000241,0.0,0.0,0.0,0.0,0.0,0.0,3.0,0.336511,0.327315,0.3022,0.334569,-0.0,0.0,0.0,0.0,-0.0,-0.0,0.014682,-0.017757,0.093378,-0.03832,0.000162,0.003762
561406,-0.004639,0.001465,-0.000119,0.0,0.0,0.0,0.0,0.0,0.0,3.0,0.338452,0.323346,0.307794,0.331479,-0.0,0.0,0.0,0.0,-0.0,-0.0,0.01491,-0.017756,0.093395,0.007246,1e-06,-4e-06
561426,-0.004395,0.001343,-0.000119,0.0,0.0,0.0,0.0,0.0,0.0,3.0,0.340911,0.323983,0.308281,0.327854,-0.0,0.0,0.0,-0.0,-0.0,-0.0,0.01517,-0.017984,0.093394,0.024599,-0.003618,-7e-05
561446,-0.004273,0.001465,-0.000119,0.0,0.0,0.0,0.0,0.0,0.0,3.0,0.343957,0.319865,0.307404,0.329441,-0.0,0.0,0.0,-0.0,-0.0,-0.0,0.015167,-0.017896,0.093413,0.024947,0.003675,-0.003898
561466,-0.004517,0.001343,-0.000119,0.0,0.0,0.0,0.0,0.0,0.0,3.0,0.342815,0.325763,0.300986,0.33066,-0.0,0.0,0.0,0.0,-0.0,-0.0,0.01508,-0.017983,0.093518,-0.003646,0.017194,-0.000117
561486,-0.004761,0.001587,4e-06,0.0,0.0,0.0,0.0,0.0,0.0,3.0,0.342631,0.324278,0.297771,0.335068,-0.0,0.0,0.0,0.0,-0.0,-0.0,0.014712,-0.017772,0.093641,0.017443,0.003654,-0.021089
561506,-0.005249,0.001709,4e-06,0.0,0.0,0.0,0.0,0.0,0.0,3.0,0.341037,0.324981,0.297835,0.335977,-0.0,0.0,0.0,0.0,-0.0,-0.0,0.014592,-0.017509,0.093765,-0.003667,-0.000319,-0.021215
561526,-0.005127,0.001465,0.000126,0.0,0.0,0.0,0.0,0.0,0.0,3.0,0.341409,0.324883,0.299761,0.334043,-0.0,0.0,0.0,0.0,-0.0,-0.0,0.014349,-0.01753,0.093764,0.017441,-0.038104,-0.000197
561546,-0.004883,0.001466,0.000248,0.0,0.0,0.0,0.0,0.0,0.0,3.0,0.337166,0.32662,0.30083,0.335767,-0.0,0.0,0.0,0.0,-0.0,-0.0,0.014559,-0.017631,0.093867,-0.017266,-0.021023,0.003692
561566,-0.004761,0.001222,0.000369,0.0,0.0,0.0,0.0,0.0,0.0,3.0,0.337425,0.327606,0.299895,0.335357,-0.0,0.0,0.0,0.0,-0.0,-0.0,0.0147,-0.017755,0.093989,-0.00029,-0.020938,0.003682
561586,-0.004761,0.0011,0.000369,0.0,0.0,0.0,0.0,0.0,0.0,3.0,0.338276,0.324842,0.304253,0.333376,-0.0,0.0,0.0,0.0,-0.0,-0.0,0.015068,-0.017876,0.093987,-0.000378,-0.020893,0.003796
561606,-0.004517,0.001222,0.000491,0.0,0.0,0.0,0.0,0.0,0.0,3.0,0.341431,0.324376,0.303418,0.331314,-0.0,0.0,0.0,0.0,-0.0,-0.0,0.014942,-0.018122,0.094005,0.021183,0.021151,3.7e-05
561626,-0.004394,0.001466,0.000492,0.0,0.0,0.0,0.0,0.0,0.0,3.0,0.341415,0.320855,0.306425,0.332042,-0.0,0.0,0.0,0.0,-0.0,-0.0,0.015169,-0.017894,0.094005,0.024685,0.024675,-1.1e-05
561646,-0.004517,0.001344,0.000491,0.0,0.0,0.0,0.0,0.0,0.0,3.0,0.342374,0.325208,0.300109,0.332428,-0.0,0.0,0.0,0.0,-0.0,-0.0,0.014939,-0.017878,0.094129,0.021317,0.021007,-0.0211
561666,-0.004761,0.001466,0.00037,0.0,0.0,0.0,0.0,0.0,0.0,3.0,0.343845,0.324481,0.299291,0.332308,-0.0,0.0,0.0,0.0,-0.0,-0.0,0.014713,-0.017877,0.094129,0.017425,0.02105,-0.02107
561686,-0.004883,0.001588,0.00037,0.0,0.0,0.0,0.0,0.0,0.0,3.0,0.345802,0.321599,0.302226,0.330459,-0.0,0.0,0.0,0.0,-0.0,-0.0,0.014611,-0.017754,0.094025,-0.007489,0.020941,-0.00376
561706,-0.004883,0.001344,0.00037,0.0,0.0,0.0,0.0,0.0,0.0,3.0,0.338505,0.327608,0.299566,0.334545,-0.0,0.0,0.0,-0.0,-0.0,-0.0,0.014699,-0.017756,0.094111,-0.021149,-0.020925,-0.017281
561726,-0.004883,0.001344,0.000492,0.0,0.0,0.0,0.0,0.0,0.0,3.0,0.33882,0.326478,0.301809,0.333379,-0.0,0.0,0.0,-0.0,-0.0,-0.0,0.014822,-0.017858,0.094129,-0.042194,-0.024781,-0.000118
561746,-0.004639,0.001344,0.000614,0.0,0.0,0.0,0.0,0.0,0.0,3.0,0.339855,0.323747,0.304763,0.332362,-0.0,0.0,0.0,-0.0,-0.0,-0.0,0.014946,-0.017875,0.094128,-0.000314,-8.5e-05,0.020976
561766,-0.004639,0.0011,0.000613,0.0,0.0,0.0,0.0,0.0,0.0,3.0,0.342846,0.322802,0.305582,0.329426,-0.0,0.0,0.0,0.0,-0.0,-0.0,0.015084,-0.018,0.094126,-0.003936,0.000159,0.021064
561786,-0.004517,0.0011,0.000613,0.0,0.0,0.0,0.0,0.0,0.0,3.0,0.341961,0.323101,0.307084,0.328707,-0.0,0.0,0.0,0.0,-0.0,-0.0,0.01517,-0.018245,0.094125,0.003784,0.021238,0.00013
561806,-0.004639,0.001344,0.000614,0.0,0.0,0.0,0.0,0.0,0.0,3.0,0.34173,0.322237,0.305974,0.330792,-0.0,0.0,0.0,0.0,-0.0,-0.0,0.01515,-0.01812,0.094127,-0.013236,0.02095,6e-06
561826,-0.004883,0.001344,0.000614,0.0,0.0,0.0,0.0,0.0,0.0,3.0,0.345372,0.320552,0.304109,0.330249,-0.0,0.0,0.0,0.0,-0.0,-0.0,0.014818,-0.017875,0.094146,0.00029,-0.00019,-0.00389
561846,-0.005005,0.001466,0.000614,0.0,0.0,0.0,0.0,0.0,0.0,3.0,0.342132,0.325109,0.300085,0.332796,-0.0,0.0,0.0,0.0,-0.0,-0.0,0.014574,-0.017857,0.094251,0.021244,0.017125,-0.000131
561866,-0.004638,0.001466,0.000614,0.0,0.0,0.0,0.0,0.0,0.0,3.0,0.342739,0.32277,0.301377,0.333297,-0.0,0.0,0.0,0.0,-0.0,-0.0,0.014613,-0.01763,0.094251,0.034395,-0.000145,-2.7e-05
561886,-0.004516,0.001222,0.000735,0.0,0.0,0.0,0.0,0.0,0.0,3.0,0.338932,0.330242,0.298039,0.332837,-0.0,0.0,0.0,0.0,-0.0,-0.0,0.014839,-0.017964,0.094355,-0.00395,-0.007344,-0.017258
561906,-0.004394,0.001222,0.000735,0.0,0.0,0.0,0.0,0.0,0.0,3.0,0.339188,0.32548,0.303434,0.332547,-0.0,0.0,0.0,0.0,-0.0,-0.0,0.01519,-0.017979,0.094372,-0.000427,-0.003844,-0.00014
561926,-0.004394,0.000978,0.000735,0.0,0.0,0.0,0.0,0.0,0.0,3.0,0.340992,0.324514,0.303176,0.33185,-0.0,0.0,0.0,0.0,-0.0,-0.0,0.015329,-0.017979,0.094371,-0.003959,-0.024813,-5e-05
561946,-0.004394,0.000856,0.000734,0.0,0.0,0.0,0.0,0.0,0.0,3.0,0.341149,0.325118,0.303087,0.331178,-0.0,0.0,0.0,0.0,-0.0,-0.0,0.015309,-0.018224,0.094371,4.7e-05,-0.00366,-8e-06
561966,-0.004517,0.000612,0.000734,0.0,0.0,0.0,0.0,0.0,0.0,3.0,0.341169,0.323332,0.303025,0.332942,-0.0,0.0,0.0,0.0,-0.0,-0.0,0.015309,-0.01826,0.094371,-0.020931,-0.017077,-2.8e-05
561986,-0.004761,0.000734,0.000734,0.0,0.0,0.0,0.0,0.0,0.0,3.0,0.341483,0.324248,0.302644,0.332068,-0.0,0.0,0.0,0.0,-0.0,-0.0,0.015026,-0.018487,0.09437,-0.013108,0.000235,5e-06
562006,-0.004883,0.00049,0.000734,0.0,0.0,0.0,0.0,0.0,0.0,3.0,0.342219,0.323777,0.301742,0.33255,-0.0,0.0,0.0,0.0,-0.0,-0.0,0.014819,-0.018505,0.094371,0.021148,-0.017138,-4.7e-05
562026,-0.004883,0.000246,0.000855,0.0,0.0,0.0,0.0,0.0,0.0,3.0,0.341259,0.328237,0.297199,0.333137,-0.0,0.0,0.0,0.0,-0.0,-0.0,0.014591,-0.018854,0.094493,-0.00345,-0.02068,-0.000161
562046,-0.004761,0.000491,0.000978,0.0,0.0,0.0,0.0,0.0,0.0,3.0,0.337798,0.327209,0.298095,0.336898,-0.0,0.0,0.0,0.0,-0.0,-0.0,0.014699,-0.018869,0.094597,-0.000146,0.024735,0.003793
562066,-0.004639,0.000491,0.0011,0.0,0.0,0.0,0.0,0.0,0.0,3.0,0.338621,0.329392,0.296521,0.335283,-0.0,0.0,0.0,0.0,-0.0,-0.0,0.014716,-0.018834,0.094719,-0.003878,0.01723,0.003776
562086,-0.004272,0.000491,0.001344,0.0,0.0,0.0,0.0,0.0,0.0,3.0,0.336031,0.328014,0.299266,0.336897,0.0,0.0,0.0,0.0,-0.0,-0.0,0.015068,-0.018748,0.094841,0.020563,0.024784,0.003783
562106,-0.004272,0.000491,0.001466,0.0,0.0,0.0,0.0,0.0,0.0,3.0,0.339404,0.325236,0.300348,0.33525,0.0,0.0,0.0,0.0,-0.0,-0.0,0.015328,-0.018625,0.094981,-0.004032,-0.017106,-0.000191
562126,-0.003784,0.000858,0.001589,0.0,0.0,0.0,0.0,0.0,0.0,3.0,0.33811,0.32543,0.302051,0.334904,0.0,0.0,0.0,0.0,-0.0,-0.0,0.015556,-0.018606,0.095103,-0.000205,0.020888,-0.000115
562146,-0.004028,0.00098,0.001711,0.0,0.0,0.0,0.0,0.0,0.0,3.0,0.337389,0.323505,0.302369,0.337192,0.0,0.0,0.0,0.0,-0.0,-0.0,0.015904,-0.018133,0.095226,-0.038512,0.003512,0.020845
562166,-0.004028,0.00098,0.001833,0.0,0.0,0.0,0.0,0.0,0.0,3.0,0.340293,0.326928,0.30009,0.332926,0.0,0.0,0.0,0.0,-0.0,-0.0,0.015533,-0.018365,0.095347,-0.016915,0.000328,0.020959
562186,-0.004028,0.000981,0.001955,0.0,0.0,0.0,0.0,0.0,0.0,3.0,0.339682,0.326404,0.300582,0.333636,0.0,0.0,0.0,0.0,-0.0,-0.0,0.015554,-0.018363,0.095469,0.020869,0.020946,0.020983
562206,-0.004272,0.000737,0.002077,0.0,0.0,0.0,0.0,0.0,0.0,3.0,0.339749,0.329199,0.294684,0.335869,0.0,0.0,0.0,0.0,-0.0,-0.0,0.015324,-0.018363,0.095715,0.017463,-0.020906,-0.000185
562226,-0.004272,0.000371,0.002198,0.0,0.0,0.0,0.0,0.0,0.0,3.0,0.337969,0.331352,0.294877,0.335404,0.0,0.0,0.0,0.0,-0.0,-0.0,0.015184,-0.01873,0.095818,0.021214,0.000228,0.003728
562246,-0.004272,0.000371,0.002321,0.0,0.0,0.0,0.0,0.0,0.0,3.0,0.340661,0.327967,0.299211,0.33229,0.0,0.0,0.0,0.0,-0.0,-0.0,0.015185,-0.018955,0.095834,0.02108,0.017418,0.021011
562266,-0.004273,0.000127,0.00232,0.0,0.0,0.0,0.0,0.0,0.0,3.0,0.339539,0.329012,0.299811,0.331898,0.0,0.0,0.0,0.0,-0.0,-0.0,0.015309,-0.019059,0.095956,-3.4e-05,-0.007488,-4e-05
562286,-0.00415,0.000127,0.00232,0.0,0.0,0.0,0.0,0.0,0.0,3.0,0.339342,0.327559,0.301193,0.332326,0.0,0.0,0.0,0.0,-0.0,-0.0,0.015432,-0.019198,0.095956,-0.000114,-0.003734,-8e-06
562306,-0.00415,0.000249,0.002442,0.0,0.0,0.0,0.0,0.0,0.0,3.0,0.339422,0.32735,0.29558,0.337241,0.0,0.0,0.0,0.0,-0.0,-0.0,0.015344,-0.018969,0.09608,-0.007598,-0.021277,-0.02113
562326,-0.004028,0.000371,0.002443,0.0,0.0,0.0,0.0,0.0,0.0,3.0,0.33702,0.326183,0.301869,0.335438,0.0,0.0,0.0,0.0,-0.0,-0.0,0.01566,-0.018828,0.09608,-0.017516,-0.004062,-0.000137
562346,-0.00415,0.000494,0.002565,0.0,0.0,0.0,0.0,0.0,0.0,3.0,0.336475,0.328589,0.295732,0.33887,0.0,0.0,0.0,0.0,-0.0,-0.0,0.015553,-0.018744,0.096184,3.2e-05,0.003739,0.003739
562366,-0.004272,0.000738,0.002565,0.0,0.0,0.0,0.0,0.0,0.0,3.0,0.338801,0.323396,0.300423,0.337546,0.0,0.0,0.0,0.0,-0.0,-0.0,0.015535,-0.018375,0.096202,0.003893,0.003508,7e-06
562386,-0.004394,0.000616,0.002565,0.0,0.0,0.0,0.0,0.0,0.0,3.0,0.338166,0.328143,0.295995,0.337395,0.0,0.0,0.0,0.0,-0.0,-0.0,0.015308,-0.018359,0.096326,0.042233,-0.020978,-0.00017
562406,-0.004394,0.000372,0.002687,0.0,0.0,0.0,0.0,0.0,0.0,3.0,0.339805,0.329625,0.296415,0.333939,0.0,0.0,0.0,0.0,-0.0,-0.0,0.015203,-0.01871,0.096324,-0.003422,-0.003544,4.2e-05
562426,-0.004272,0.000372,0.002809,0.0,0.0,0.0,0.0,0.0,0.0,3.0,0.339763,0.326861,0.299051,0.334431,0.0,0.0,0.0,0.0,-0.0,-0.0,0.015187,-0.018868,0.096323,8e-06,0.004043,0.020985
562446,-0.004273,0.000128,0.002808,0.0,0.0,0.0,0.0,0.0,0.0,3.0,0.341505,0.325656,0.301226,0.331922,0.0,0.0,0.0,0.0,-0.0,-0.0,0.015167,-0.018972,0.096321,0.003826,0.021124,0.021107
562466,-0.004395,-0.000116,0.002808,0.0,0.0,0.0,0.0,0.0,0.0,3.0,0.344274,0.32642,0.300923,0.328526,0.0,0.0,0.0,0.0,-0.0,-0.0,0.015081,-0.019322,0.096339,0.038162,-0.003391,-0.003761
562486,-0.004273,-0.000238,0.002685,0.0,0.0,0.0,0.0,0.0,0.0,3.0,0.339399,0.330063,0.297548,0.332956,0.0,0.0,0.0,0.0,-0.0,-0.0,0.015204,-0.019565,0.096445,0.017237,-0.003693,-0.021138
562506,-0.004273,-0.00036,0.002685,0.0,0.0,0.0,0.0,0.0,0.0,3.0,0.340484,0.327384,0.299447,0.33284,0.0,0.0,0.0,0.0,-0.0,-0.0,0.015327,-0.019563,0.096321,-0.003871,-0.003886,1.5e-05
562526,-0.004395,-0.000238,0.002685,0.0,0.0,0.0,0.0,0.0,0.0,3.0,0.339877,0.328241,0.299006,0.333007,0.0,0.0,0.0,0.0,-0.0,-0.0,0.015308,-0.019686,0.096321,-0.041923,0.017296,2.9e-05
562546,-0.004639,6e-06,0.002686,0.0,0.0,0.0,0.0,0.0,0.0,3.0,0.343267,0.32273,0.303034,0.33133,0.0,0.0,0.0,0.0,-0.0,-0.0,0.015187,-0.019458,0.096217,-0.042054,-0.000137,-0.003738
562566,-0.004639,6e-06,0.002564,0.0,0.0,0.0,0.0,0.0,0.0,3.0,0.338583,0.32773,0.298474,0.335281,0.0,0.0,0.0,0.0,-0.0,-0.0,0.015065,-0.019336,0.096323,-6.1e-05,-0.000252,-0.021134
562586,-0.004761,6e-06,0.002564,0.0,0.0,0.0,0.0,0.0,0.0,3.0,0.337362,0.329452,0.294953,0.337802,0.0,0.0,0.0,0.0,-0.0,-0.0,0.014941,-0.019213,0.096305,0.000158,-0.000198,-0.01722
562606,-0.004395,0.000128,0.002564,0.0,0.0,0.0,0.0,0.0,0.0,3.0,0.338436,0.325749,0.301013,0.335166,0.0,0.0,0.0,0.0,-0.0,-0.0,0.015048,-0.019091,0.0962,0.024752,-9.5e-05,0.020999
562626,-0.004273,0.000128,0.002686,0.0,0.0,0.0,0.0,0.0,0.0,3.0,0.339679,0.324884,0.300422,0.335243,0.0,0.0,0.0,0.0,-0.0,-0.0,0.015168,-0.018988,0.0962,0.024797,0.003701,0.000139
562646,-0.004151,-0.000117,0.002564,0.0,0.0,0.0,0.0,0.0,0.0,3.0,0.340288,0.327232,0.301059,0.331788,0.0,0.0,0.0,0.0,-0.0,-0.0,0.01529,-0.019198,0.0962,0.024786,-0.003604,-5.5e-05
562666,-0.004151,-0.000117,0.002442,0.0,0.0,0.0,0.0,0.0,0.0,3.0,0.340819,0.328636,0.297906,0.332595,0.0,0.0,0.0,0.0,-0.0,-0.0,0.015325,-0.019443,0.0962,0.017216,-0.003641,-0.020981
562686,-0.004273,-0.000117,0.002319,0.0,0.0,0.0,0.0,0.0,0.0,3.0,0.342623,0.326437,0.296773,0.333846,0.0,0.0,0.0,0.0,-0.0,-0.0,0.015221,-0.019317,0.096078,0.013506,0.016956,6.1e-05
562706,-0.004395,-0.000361,0.002319,0.0,0.0,0.0,0.0,0.0,0.0,3.0,0.343415,0.326451,0.300102,0.330129,0.0,0.0,0.0,0.0,-0.0,-0.0,0.015203,-0.019424,0.095973,-0.024764,-0.028391,-0.003751
562726,-0.004761,-0.000117,0.002197,0.0,0.0,0.0,0.0,0.0,0.0,3.0,0.34102,0.327405,0.298251,0.333297,0.0,0.0,0.0,0.0,-0.0,-0.0,0.015063,-0.019563,0.095955,-0.020998,-0.003844,-0.020988
562746,-0.004761,0.000127,0.002076,0.0,0.0,0.0,0.0,0.0,0.0,3.0,0.341178,0.322153,0.301367,0.3355,0.0,0.0,0.0,0.0,-0.0,-0.0,0.014924,-0.019107,0.095853,0.003892,-0.01768,-0.003858
562766,-0.005005,5e-06,0.002076,0.0,0.0,0.0,0.0,0.0,0.0,3.0,0.338294,0.326598,0.298485,0.336656,0.0,0.0,0.0,0.0,-0.0,-0.0,0.014924,-0.018969,0.095835,-0.017129,-0.042167,-5.2e-05
562786,-0.004517,-0.000117,0.002197,0.0,0.0,0.0,0.0,0.0,0.0,3.0,0.336682,0.327096,0.297171,0.338895,0.0,-0.0,0.0,0.0,-0.0,-0.0,0.014802,-0.019006,0.095816,0.024896,-0.034452,0.003808
562806,-0.00415,0.000249,0.002198,0.0,0.0,0.0,0.0,0.0,0.0,3.0,0.339033,0.323546,0.304767,0.333397,0.0,-0.0,0.0,0.0,-0.0,-0.0,0.015275,-0.019092,0.095711,0.007285,2.6e-05,0.021086
562826,-0.004028,0.000249,0.002198,0.0,0.0,0.0,0.0,0.0,0.0,3.0,0.340911,0.323832,0.302243,0.333412,0.0,-0.0,0.0,0.0,-0.0,-0.0,0.015413,-0.01899,0.095711,0.003691,0.003682,9.2e-05
562846,-0.004028,0.000126,0.002076,0.0,0.0,0.0,0.0,0.0,0.0,3.0,0.3408,0.326153,0.300914,0.33244,0.0,-0.0,0.0,0.0,-0.0,-0.0,0.015553,-0.019095,0.095712,-0.000135,0.021083,-6e-06
562866,-0.00415,0.000248,0.001954,0.0,0.0,0.0,0.0,0.0,0.0,3.0,0.345871,0.323236,0.300179,0.330605,0.0,-0.0,0.0,0.0,-0.0,-0.0,0.015343,-0.019095,0.095607,0.013531,0.021084,-0.003689
562886,-0.004272,0.000492,0.001832,0.0,0.0,0.0,0.0,0.0,0.0,3.0,0.342815,0.323985,0.301929,0.331564,0.0,-0.0,0.0,0.0,-0.0,-0.0,0.015431,-0.018954,0.095467,-0.020965,0.0381,0.000192
562906,-0.004517,0.00037,0.001832,0.0,0.0,0.0,0.0,0.0,0.0,3.0,0.343721,0.322677,0.303317,0.330652,0.0,-0.0,-0.0,0.0,-0.0,-0.0,0.01529,-0.018709,0.095364,-0.017112,-0.003883,-0.003737
562926,-0.004516,0.000492,0.00171,0.0,0.0,0.0,0.0,0.0,0.0,3.0,0.340152,0.329028,0.29715,0.333542,0.0,-0.0,-0.0,0.0,-0.0,-0.0,0.015063,-0.018956,0.095469,0.000194,0.01735,-0.021095
562946,-0.004394,0.000614,0.001711,0.0,0.0,0.0,0.0,0.0,0.0,3.0,0.337811,0.326566,0.297569,0.337944,0.0,-0.0,-0.0,0.0,-0.0,-0.0,0.015188,-0.018622,0.09547,-0.000113,0.003502,-0.021053
562966,-0.00415,0.000248,0.00171,0.0,0.0,0.0,0.0,0.0,0.0,3.0,0.339021,0.327256,0.30122,0.332929,0.0,-0.0,-0.0,0.0,-0.0,-0.0,0.015434,-0.018711,0.095346,-0.000236,-0.024658,0.020949
562986,-0.003906,0.000247,0.00171,0.0,0.0,0.0,0.0,0.0,0.0,3.0,0.337725,0.327718,0.300772,0.334189,0.0,-0.0,-0.0,0.0,-0.0,-0.0,0.015659,-0.018974,0.095327,-0.017331,0.021175,0.004019
563006,-0.003784,0.000492,0.00171,0.0,0.0,0.0,0.0,0.0,0.0,3.0,0.34062,0.323102,0.303821,0.333028,0.0,-0.0,-0.0,0.0,-0.0,-0.0,0.015762,-0.018869,0.095223,-0.013528,0.003875,0.00012
563026,-0.003784,0.000491,0.001588,0.0,0.0,0.0,0.0,0.0,0.0,3.0,0.341199,0.324987,0.30098,0.333103,0.0,-0.0,-0.0,0.0,-0.0,-0.0,0.015798,-0.01887,0.095224,0.020861,0.024751,-7e-06
563046,-0.004028,0.000613,0.001466,0.0,0.0,0.0,0.0,0.0,0.0,3.0,0.343739,0.323167,0.30068,0.33248,0.0,-0.0,-0.0,0.0,-0.0,-0.0,0.015673,-0.018748,0.095101,0.021219,0.003801,0.000111
563066,-0.00415,0.000613,0.001344,0.0,0.0,0.0,0.0,0.0,0.0,3.0,0.344732,0.323217,0.30243,0.329848,0.0,-0.0,-0.0,0.0,-0.0,-0.0,0.015551,-0.018711,0.094998,0.0003,0.017077,-0.003698
563086,-0.004272,0.000857,0.001345,0.0,0.0,0.0,0.0,0.0,0.0,3.0,0.346005,0.321123,0.301401,0.331427,0.0,-0.0,-0.0,0.0,-0.0,-0.0,0.015325,-0.018484,0.094876,-0.024535,0.020845,-0.003678
563106,-0.004272,0.000613,0.001222,0.0,0.0,0.0,0.0,0.0,0.0,3.0,0.341076,0.329216,0.296632,0.332849,0.0,-0.0,-0.0,0.0,-0.0,-0.0,0.015205,-0.018572,0.094982,-0.003878,-0.007529,-0.021149
563126,-0.00415,0.000491,0.001222,0.0,0.0,0.0,0.0,0.0,0.0,3.0,0.338964,0.330439,0.296593,0.333844,0.0,-0.0,-0.0,0.0,-0.0,-0.0,0.015328,-0.018835,0.094981,-0.004002,-0.003622,-9.3e-05
563146,-0.003906,0.000491,0.001222,0.0,0.0,0.0,0.0,0.0,0.0,3.0,0.338156,0.326476,0.298756,0.336682,0.0,-0.0,-0.0,0.0,-0.0,-0.0,0.015555,-0.018605,0.094981,-0.000268,-0.00027,4.8e-05
563166,-0.004028,0.000369,0.001222,0.0,0.0,0.0,0.0,0.0,0.0,3.0,0.341299,0.325458,0.300766,0.332729,0.0,-0.0,-0.0,-0.0,-0.0,-0.0,0.015676,-0.01873,0.094857,-0.021141,-0.020801,0.000121
563186,-0.004028,0.000735,0.0011,0.0,0.0,0.0,0.0,0.0,0.0,3.0,0.341989,0.319563,0.305711,0.333311,0.0,-0.0,-0.0,-0.0,-0.0,-0.0,0.015762,-0.0185,0.094754,-0.013486,0.003535,-0.00372
563206,-0.00415,0.000857,0.001101,0.0,0.0,0.0,0.0,0.0,0.0,3.0,0.340644,0.323368,0.299828,0.336216,0.0,-0.0,-0.0,-0.0,-0.0,-0.0,0.015675,-0.018257,0.094737,7.6e-05,0.003625,6e-06
563226,-0.004272,0.000979,0.001101,0.0,0.0,0.0,0.0,0.0,0.0,3.0,0.341602,0.325348,0.298063,0.334852,0.0,-0.0,-0.0,-0.0,-0.0,-0.0,0.015429,-0.018241,0.094737,0.021288,3.8e-05,-1e-05
563246,-0.004272,0.000979,0.001101,0.0,0.0,0.0,0.0,0.0,0.0,3.0,0.340453,0.325795,0.296749,0.336709,0.0,-0.0,-0.0,0.0,-0.0,-0.0,0.015307,-0.018136,0.094719,0.000294,0.00374,0.003849
563266,-0.004272,0.001101,0.001101,0.0,0.0,0.0,0.0,0.0,0.0,3.0,0.343644,0.323888,0.300899,0.331694,0.0,-0.0,-0.0,0.0,-0.0,-0.0,0.015167,-0.018242,0.094614,0.003951,0.000157,0.000109
563286,-0.004028,0.000979,0.000979,0.0,0.0,0.0,0.0,0.0,0.0,3.0,0.343758,0.325052,0.30127,0.330114,0.0,-0.0,-0.0,0.0,-0.0,-0.0,0.015186,-0.018347,0.094633,0.041904,0.017165,-0.003872
563306,-0.003906,0.000979,0.000979,0.0,0.0,0.0,0.0,0.0,0.0,3.0,0.340531,0.329278,0.294423,0.335213,0.0,-0.0,-0.0,0.0,-0.0,-0.0,0.015344,-0.018346,0.094738,0.013293,-0.003809,-0.0211
563326,-0.003662,0.000856,0.000978,0.0,0.0,0.0,0.0,0.0,0.0,3.0,0.337099,0.328688,0.296391,0.337605,0.0,-0.0,-0.0,-0.0,-0.0,0.0,0.015677,-0.018241,0.09472,-0.00035,-0.000192,-0.017219
563346,-0.004028,0.000734,0.000978,0.0,0.0,0.0,0.0,0.0,0.0,3.0,0.340101,0.327569,0.298013,0.334284,0.0,-0.0,-0.0,-0.0,-0.0,0.0,0.015797,-0.018346,0.094596,-0.021177,-0.003666,0.003869
563366,-0.003906,0.0011,0.000857,0.0,0.0,0.0,0.0,0.0,0.0,3.0,0.341654,0.321924,0.303147,0.333682,0.0,-0.0,-0.0,-0.0,-0.0,-0.0,0.01578,-0.018259,0.094491,0.003824,0.024789,0.021131
563386,-0.004028,0.001589,0.000858,0.0,0.0,0.0,0.0,0.0,0.0,3.0,0.341194,0.322864,0.300455,0.335597,0.0,-0.0,-0.0,-0.0,-0.0,-0.0,0.015798,-0.017873,0.094493,5.9e-05,0.020732,0.000171
563406,-0.00415,0.001589,0.00098,0.0,0.0,0.0,0.0,0.0,0.0,3.0,0.338383,0.327271,0.293794,0.339832,0.0,-0.0,-0.0,-0.0,-0.0,-0.0,0.015551,-0.017525,0.094599,0.00031,-0.017413,0.003696
563426,-0.004272,0.001711,0.00098,0.0,0.0,0.0,0.0,0.0,0.0,3.0,0.339668,0.326062,0.299671,0.334766,0.0,-0.0,-0.0,-0.0,-0.0,-0.0,0.015516,-0.017631,0.094616,-0.034216,4.2e-05,2.9e-05
563446,-0.004028,0.001711,0.001102,0.0,0.0,0.0,0.0,0.0,0.0,3.0,0.340088,0.324895,0.299715,0.335424,0.0,-0.0,-0.0,-0.0,-0.0,-0.0,0.015414,-0.017527,0.094617,0.003783,0.003682,5e-06
563466,-0.004028,0.001345,0.000979,0.0,0.0,0.0,0.0,0.0,0.0,3.0,0.342498,0.327452,0.29965,0.330502,0.0,-0.0,-0.0,-0.0,-0.0,-0.0,0.01543,-0.017861,0.094615,0.020925,-0.003521,-6.8e-05
563486,-0.003784,0.001223,0.000979,0.0,0.0,0.0,0.0,0.0,0.0,3.0,0.340913,0.32811,0.298906,0.332153,0.0,-0.0,-0.0,-0.0,-0.0,0.0,0.015553,-0.018104,0.094615,-2.7e-05,-0.003625,-8e-06
563506,-0.003784,0.001345,0.000979,0.0,0.0,0.0,0.0,0.0,0.0,3.0,0.341356,0.325612,0.29816,0.334768,0.0,-0.0,-0.0,-0.0,-0.0,0.0,0.015694,-0.017997,0.094615,-0.004046,-0.000158,2e-06
563526,-0.003784,0.001711,0.00098,0.0,0.0,0.0,0.0,0.0,0.0,3.0,0.340618,0.324445,0.298994,0.33593,0.0,-0.0,-0.0,-0.0,-0.0,0.0,0.015798,-0.017751,0.094616,-0.021111,0.041688,9.7e-05
563546,-0.004028,0.001711,0.00098,0.0,0.0,0.0,0.0,0.0,0.0,3.0,0.345032,0.32284,0.301952,0.330318,0.0,-0.0,-0.0,-0.0,-0.0,-0.0,0.015675,-0.017614,0.094511,-0.021001,-0.003776,-0.003722
563566,-0.00415,0.001833,0.000981,0.0,0.0,0.0,0.0,0.0,0.0,3.0,0.340863,0.326193,0.296823,0.335847,0.0,-0.0,-0.0,-0.0,-0.0,-0.0,0.015572,-0.017508,0.094617,-0.003836,-0.0002,-0.021131
563586,-0.004028,0.001833,0.00098,0.0,0.0,0.0,0.0,0.0,0.0,3.0,0.340037,0.32509,0.298074,0.336687,0.0,-0.0,-0.0,-0.0,-0.0,-0.0,0.015554,-0.017263,0.094618,3.6e-05,-0.02124,-0.000176
563606,-0.004028,0.001589,0.001102,0.0,0.0,0.0,0.0,0.0,0.0,3.0,0.33668,0.331184,0.295156,0.336631,0.0,-0.0,-0.0,-0.0,-0.0,-0.0,0.015677,-0.017473,0.094721,-0.021082,-0.007528,0.003735
563626,-0.003905,0.001833,0.001102,0.0,0.0,0.0,0.0,0.0,0.0,3.0,0.339543,0.324613,0.299237,0.336654,0.0,-0.0,-0.0,-0.0,-0.0,-0.0,0.015658,-0.017404,0.094739,0.024719,-0.01721,-5.3e-05
563646,-0.003783,0.001833,0.001102,0.0,0.0,0.0,0.0,0.0,0.0,3.0,0.340924,0.324261,0.298143,0.336517,0.0,-0.0,-0.0,-0.0,0.0,0.0,0.015675,-0.017281,0.094739,0.042071,-0.017395,-7.2e-05
563666,-0.003784,0.001833,0.00098,0.0,0.0,0.0,0.0,0.0,0.0,3.0,0.340949,0.324924,0.298369,0.335667,0.0,-0.0,-0.0,-0.0,0.0,0.0,0.015797,-0.017264,0.094739,0.021061,-0.000134,-0.020996
563686,-0.003661,0.001833,0.00098,0.0,0.0,0.0,0.0,0.0,0.0,3.0,0.341338,0.325531,0.299184,0.333988,0.0,-0.0,-0.0,-0.0,0.0,0.0,0.015778,-0.017388,0.094616,0.003974,0.000157,2.1e-05
563706,-0.003783,0.002199,0.000981,0.0,0.0,0.0,0.0,0.0,0.0,3.0,0.344572,0.321829,0.29973,0.333715,0.0,-0.0,-0.0,-0.0,-0.0,0.0,0.015673,-0.017283,0.094493,7.4e-05,0.024704,0.000158
563726,-0.00415,0.002199,0.000859,0.0,0.0,0.0,0.0,0.0,0.0,3.0,0.344088,0.324269,0.297855,0.333495,0.0,-0.0,-0.0,-0.0,-0.0,0.0,0.01557,-0.017144,0.094495,-0.003772,0.020905,-2e-06
563746,-0.004272,0.002321,0.00086,0.0,0.0,0.0,0.0,0.0,0.0,3.0,0.344449,0.324083,0.297059,0.333977,0.0,-0.0,-0.0,-0.0,-0.0,-0.0,0.015344,-0.017021,0.094514,-0.007422,-3e-05,-0.003834
563766,-0.004272,0.002077,0.000859,0.0,0.0,0.0,0.0,0.0,0.0,3.0,0.340114,0.329436,0.294317,0.335573,0.0,-0.0,-0.0,-0.0,-0.0,-0.0,0.015186,-0.017126,0.094619,9.3e-05,0.017148,-0.021048
563786,-0.00415,0.002077,0.000859,0.0,0.0,0.0,0.0,0.0,0.0,3.0,0.337846,0.329117,0.294805,0.337766,0.0,-0.0,-0.0,-0.0,-0.0,-0.0,0.01531,-0.017144,0.0946,-0.000154,0.000139,0.003757
563806,-0.003906,0.001955,0.000858,0.0,0.0,0.0,0.0,0.0,0.0,3.0,0.340451,0.324627,0.301156,0.334067,0.0,-0.0,-0.0,-0.0,0.0,-0.0,0.015537,-0.017143,0.094494,0.024547,-1e-05,0.000133
563826,-0.004028,0.002077,0.000859,0.0,0.0,0.0,0.0,0.0,0.0,3.0,0.340905,0.324666,0.298584,0.335775,0.0,-0.0,-0.0,-0.0,0.0,0.0,0.015675,-0.017161,0.094495,-2.1e-05,0.003888,7e-06
563846,-0.003906,0.002199,0.000737,0.0,0.0,0.0,0.0,0.0,0.0,3.0,0.340743,0.324553,0.298636,0.336004,0.0,-0.0,-0.0,-0.0,0.0,0.0,0.015676,-0.01702,0.094495,5.6e-05,0.020864,4.1e-05
563866,-0.004028,0.002199,0.000737,0.0,0.0,0.0,0.0,0.0,0.0,3.0,0.341095,0.323217,0.300877,0.334999,0.0,-0.0,-0.0,-0.0,0.0,0.0,0.01578,-0.016917,0.094372,-0.017224,-0.01706,0.021119
563886,-0.004028,0.002565,0.000738,0.0,0.0,0.0,0.0,0.0,0.0,3.0,0.343553,0.32102,0.302457,0.333177,0.0,-0.0,-0.0,-0.0,0.0,0.0,0.015657,-0.016917,0.094249,-0.017025,0.024777,0.021288
563906,-0.004028,0.002687,0.000738,0.0,0.0,0.0,0.0,0.0,0.0,3.0,0.343829,0.320692,0.299902,0.335414,0.0,-0.0,-0.0,-0.0,0.0,0.0,0.015572,-0.016568,0.094251,-0.003813,0.007394,0.000104
563926,-0.00415,0.002321,0.000737,0.0,0.0,0.0,0.0,0.0,0.0,3.0,0.345876,0.325508,0.298503,0.329845,0.0,-0.0,-0.0,-0.0,0.0,0.0,0.015325,-0.016885,0.09427,-0.003627,-0.003516,-0.003893
563946,-0.004028,0.002443,0.000615,0.0,0.0,0.0,0.0,0.0,0.0,3.0,0.339956,0.328531,0.297794,0.333682,0.0,-0.0,-0.0,-0.0,0.0,-0.0,0.015413,-0.017128,0.094374,0.003664,0.017302,-0.021102
563966,-0.003906,0.002443,0.000615,0.0,0.0,0.0,0.0,0.0,0.0,3.0,0.3392,0.325809,0.296504,0.338165,0.0,-0.0,-0.0,-0.0,0.0,-0.0,0.015554,-0.016794,0.094375,-0.000175,0.02443,-0.021012
563986,-0.003784,0.002443,0.000615,0.0,0.0,0.0,0.0,0.0,0.0,3.0,0.341429,0.326185,0.299226,0.333223,0.0,-0.0,-0.0,-0.0,0.0,-0.0,0.015676,-0.016883,0.094251,0.020808,-0.024576,-4.6e-05
564006,-0.003784,0.002687,0.000616,0.0,0.0,0.0,0.0,0.0,0.0,3.0,0.341606,0.324641,0.29799,0.335588,0.0,-0.0,-0.0,-0.0,0.0,0.0,0.015816,-0.016776,0.094251,-0.003865,-0.000291,4e-06
564026,-0.003662,0.002565,0.000615,0.0,0.0,0.0,0.0,0.0,0.0,3.0,0.337258,0.328262,0.294987,0.339024,0.0,-0.0,-0.0,-0.0,0.0,0.0,0.015921,-0.016513,0.094357,-0.021114,-0.025153,-0.017263
564046,-0.003783,0.002687,0.000738,0.0,0.0,0.0,0.0,0.0,0.0,3.0,0.337149,0.327854,0.295511,0.339088,0.0,-0.0,-0.0,-0.0,0.0,0.0,0.016044,-0.016532,0.094356,-0.042182,-6.4e-05,0.003813
564066,-0.003906,0.002565,0.000738,0.0,0.0,0.0,0.0,0.0,0.0,3.0,0.341396,0.324601,0.297261,0.336457,0.0,-0.0,-0.0,-0.0,0.0,0.0,0.015797,-0.01641,0.094374,4.1e-05,-0.021081,-3.8e-05
564086,-0.004028,0.002443,0.00086,0.0,0.0,0.0,0.0,0.0,0.0,3.0,0.341782,0.326727,0.297359,0.333933,0.0,-0.0,-0.0,-0.0,0.0,0.0,0.015674,-0.01678,0.094374,0.000157,0.000292,0.0
564106,-0.003783,0.002687,0.000738,0.0,0.0,0.0,0.0,0.0,0.0,3.0,0.343164,0.321636,0.30105,0.334222,0.0,-0.0,-0.0,-0.0,0.0,0.0,0.015676,-0.016672,0.094392,0.041997,0.02468,-0.003897
564126,-0.003784,0.002321,0.000737,0.0,0.0,0.0,0.0,0.0,0.0,3.0,0.341182,0.326925,0.29856,0.333332,0.0,-0.0,-0.0,-0.0,0.0,0.0,0.015778,-0.016761,0.094374,0.003942,-0.024618,-5.3e-05
564146,-0.003784,0.002443,0.000737,0.0,0.0,0.0,0.0,0.0,0.0,3.0,0.341749,0.325247,0.29738,0.335379,0.0,-0.0,-0.0,-0.0,0.0,0.0,0.015655,-0.016918,0.094373,0.024925,0.003853,-2.1e-05
564166,-0.003784,0.002321,0.000737,0.0,0.0,0.0,0.0,0.0,0.0,3.0,0.341147,0.324884,0.298056,0.33577,0.0,-0.0,-0.0,-0.0,0.0,0.0,0.015798,-0.016776,0.094373,0.02094,-0.021137,-6.4e-05
564186,-0.003661,0.002443,0.000859,0.0,0.0,0.0,0.0,0.0,0.0,3.0,0.339284,0.327924,0.294747,0.33752,0.0,-0.0,-0.0,-0.0,0.0,0.0,0.015797,-0.016899,0.094497,0.000109,-1.6e-05,-0.021085
564206,-0.003661,0.002443,0.000737,0.0,0.0,0.0,0.0,0.0,0.0,3.0,0.340214,0.326164,0.297149,0.336261,0.0,-0.0,-0.0,-0.0,0.0,0.0,0.015921,-0.016758,0.094496,-0.042105,-0.003981,-8.8e-05
564226,-0.003906,0.002565,0.000738,0.0,0.0,0.0,0.0,0.0,0.0,3.0,0.339385,0.325722,0.294284,0.339899,0.0,-0.0,-0.0,-0.0,0.0,0.0,0.015798,-0.016549,0.094478,-0.021132,-0.017335,0.003883
564246,-0.004028,0.002443,0.00086,0.0,0.0,0.0,0.0,0.0,0.0,3.0,0.339117,0.326725,0.294207,0.33928,0.0,-0.0,-0.0,-0.0,0.0,0.0,0.015675,-0.01655,0.094478,-0.020943,0.003774,0.003926
564266,-0.00415,0.002443,0.00086,0.0,0.0,0.0,0.0,0.0,0.0,3.0,0.344011,0.322666,0.299189,0.333967,0.0,-0.0,-0.0,-0.0,0.0,0.0,0.015572,-0.016674,0.094372,-0.003798,-0.016882,0.021057
564286,-0.004028,0.002321,0.000859,0.0,0.0,0.0,0.0,0.0,0.0,3.0,0.340621,0.32595,0.297287,0.335936,0.0,-0.0,-0.0,-0.0,0.0,0.0,0.015554,-0.016777,0.094496,5.6e-05,0.020998,1.7e-05
564306,-0.004028,0.002321,0.000859,0.0,0.0,0.0,0.0,0.0,0.0,3.0,0.340136,0.326471,0.298802,0.33464,0.0,-0.0,-0.0,0.0,0.0,0.0,0.015658,-0.016882,0.094496,0.00374,0.017421,2.9e-05
564326,-0.003905,0.002443,0.000859,0.0,0.0,0.0,0.0,0.0,0.0,3.0,0.341626,0.32571,0.29702,0.335365,0.0,-0.0,-0.0,-0.0,0.0,0.0,0.015552,-0.0169,0.094496,0.042113,0.021087,-9e-06
564346,-0.003905,0.002565,0.00086,0.0,0.0,0.0,0.0,0.0,0.0,3.0,0.345871,0.321568,0.299924,0.332433,0.0,-0.0,-0.0,-0.0,0.0,0.0,0.01557,-0.016777,0.094391,0.038353,0.020967,0.017237
564366,-0.003783,0.002565,0.000737,0.0,0.0,0.0,0.0,0.0,0.0,3.0,0.345823,0.322621,0.299558,0.331791,0.0,-0.0,-0.0,-0.0,0.0,0.0,0.01557,-0.016779,0.094391,0.017345,7.2e-05,-0.003778
564386,-0.003906,0.002565,0.000738,0.0,0.0,0.0,0.0,0.0,0.0,3.0,0.340989,0.329151,0.293018,0.336039,0.0,-0.0,-0.0,-0.0,0.0,0.0,0.01557,-0.016882,0.094497,-0.003822,0.017152,-0.021047
564406,-0.003905,0.002687,0.00086,0.0,0.0,0.0,0.0,0.0,0.0,3.0,0.342459,0.324272,0.297166,0.335764,0.0,-0.0,-0.0,-0.0,0.0,0.0,0.015553,-0.016654,0.094374,-4.2e-05,0.020789,6.7e-05
564426,-0.00415,0.002443,0.00086,0.0,0.0,0.0,0.0,0.0,0.0,3.0,0.343531,0.324681,0.297698,0.333813,0.0,-0.0,-0.0,-0.0,0.0,0.0,0.015571,-0.016657,0.094373,-0.003905,-0.041858,-0.000127
564446,-0.004272,0.002199,0.000737,0.0,0.0,0.0,0.0,0.0,0.0,3.0,0.344724,0.324652,0.298946,0.331518,0.0,-0.0,-0.0,-0.0,0.0,0.0,0.015449,-0.017024,0.094391,-0.003697,-0.02087,-0.003929
564466,-0.004272,0.002199,0.000737,0.0,0.0,0.0,0.0,0.0,0.0,3.0,0.342205,0.324273,0.299507,0.334027,0.0,-0.0,-0.0,-0.0,0.0,0.0,0.015413,-0.017002,0.094392,-0.017091,-0.003979,-0.003833
564486,-0.004516,0.002077,0.000615,0.0,0.0,0.0,0.0,0.0,0.0,3.0,0.340767,0.325688,0.298478,0.335027,0.0,-0.0,-0.0,-0.0,0.0,0.0,0.015414,-0.017003,0.094373,-0.038198,-0.0248,-1.3e-05
564506,-0.004394,0.001955,0.000615,0.0,0.0,0.0,0.0,0.0,0.0,3.0,0.341591,0.323512,0.300069,0.334905,0.0,-0.0,-0.0,-0.0,0.0,0.0,0.015292,-0.01702,0.094251,0.003815,-0.042032,6.3e-05
564526,-0.004272,0.001954,0.000493,0.0,0.0,0.0,0.0,0.0,0.0,3.0,0.344367,0.321487,0.302443,0.331892,0.0,-0.0,-0.0,-0.0,0.0,0.0,0.015291,-0.017285,0.094146,0.024861,0.003876,-0.003747
564546,-0.004028,0.002198,0.000493,0.0,0.0,0.0,0.0,0.0,0.0,3.0,0.342241,0.323972,0.297422,0.336058,0.0,-0.0,-0.0,-0.0,0.0,0.0,0.015308,-0.017142,0.094129,0.021113,0.020858,2e-05
564566,-0.004272,0.002076,0.000493,0.0,0.0,0.0,0.0,0.0,0.0,3.0,0.342132,0.324457,0.296933,0.336119,0.0,-0.0,-0.0,-0.0,0.0,0.0,0.01543,-0.01704,0.094129,-0.021043,0.003823,3.1e-05
564586,-0.004272,0.002321,0.000493,0.0,0.0,0.0,0.0,0.0,0.0,3.0,0.34169,0.324223,0.297415,0.336387,0.0,-0.0,-0.0,-0.0,0.0,0.0,0.01529,-0.01704,0.094129,0.024838,0.003883,-1.9e-05
564606,-0.004272,0.00232,0.000371,0.0,0.0,0.0,0.0,0.0,0.0,3.0,0.345488,0.32044,0.301108,0.332881,0.0,-0.0,-0.0,-0.0,0.0,0.0,0.015308,-0.016918,0.094025,0.021103,0.003674,-0.003748
564626,-0.004272,0.002076,0.000249,0.0,0.0,0.0,0.0,0.0,0.0,3.0,0.343833,0.326676,0.295939,0.333064,0.0,-0.0,-0.0,-0.0,0.0,0.0,0.015203,-0.017128,0.094007,-0.00362,-0.003666,-0.020981
564646,-0.004273,0.001953,0.000126,0.0,0.0,0.0,0.0,0.0,0.0,3.0,0.343543,0.324246,0.299601,0.332583,0.0,-0.0,-0.0,-0.0,0.0,0.0,0.015309,-0.017268,0.093903,-0.021138,-0.020871,-0.003843
564666,-0.004395,0.001954,0.000126,0.0,0.0,0.0,0.0,0.0,0.0,3.0,0.341094,0.324532,0.296436,0.337524,0.0,-0.0,-0.0,-0.0,0.0,0.0,0.015309,-0.017161,0.093885,-0.02113,-0.038392,-0.020991
564686,-0.004395,0.001587,3e-06,0.0,0.0,0.0,0.0,0.0,0.0,3.0,0.343361,0.32391,0.297256,0.335104,0.0,-0.0,-0.0,-0.0,0.0,0.0,0.015205,-0.017285,0.093762,-0.003821,-0.059184,-0.000102
564706,-0.004517,0.001465,-0.000119,0.0,0.0,0.0,0.0,0.0,0.0,3.0,0.344031,0.32289,0.298307,0.334488,0.0,-0.0,-0.0,-0.0,0.0,0.0,0.015205,-0.017529,0.093639,-0.003841,-0.017169,0.000123
564726,-0.004395,0.001465,-0.000119,0.0,0.0,0.0,0.0,0.0,0.0,3.0,0.340878,0.325455,0.294314,0.338629,0.0,-0.0,-0.0,-0.0,0.0,0.0,0.015063,-0.017528,0.093622,0.000142,0.003765,-0.017078
564746,-0.004639,0.001586,-0.000241,0.0,0.0,0.0,0.0,0.0,0.0,3.0,0.343154,0.324046,0.295035,0.337055,0.0,-0.0,-0.0,-0.0,0.0,0.0,0.01494,-0.017529,0.093499,6.4e-05,0.02492,0.003925
564766,-0.004761,0.001586,-0.00024,0.0,0.0,0.0,0.0,0.0,0.0,3.0,0.345757,0.321129,0.301854,0.331286,0.0,-0.0,-0.0,-0.0,0.0,0.0,0.014923,-0.017654,0.093271,0.003853,0.025157,0.021298
564786,-0.004639,0.001708,-0.000362,0.0,0.0,0.0,0.0,0.0,0.0,3.0,0.348458,0.318476,0.303578,0.329409,0.0,-0.0,-0.0,-0.0,0.0,0.0,0.014819,-0.017654,0.093168,0.042112,0.024996,0.017352
564806,-0.004395,0.001708,-0.000485,0.0,0.0,0.0,0.0,0.0,0.0,3.0,0.346236,0.321878,0.301591,0.33029,0.0,-0.0,-0.0,-0.0,0.0,0.0,0.014941,-0.017617,0.093169,0.021075,0.017214,-0.003736
564826,-0.004395,0.001586,-0.000607,0.0,0.0,0.0,0.0,0.0,0.0,3.0,0.343539,0.326439,0.29785,0.331969,0.0,-0.0,-0.0,-0.0,0.0,0.0,0.015063,-0.017722,0.093151,-7.5e-05,0.013485,2.9e-05
564846,-0.004273,0.001586,-0.000607,0.0,0.0,0.0,0.0,0.0,0.0,3.0,0.341973,0.325409,0.296606,0.335648,0.0,-0.0,-0.0,-0.0,0.0,0.0,0.015205,-0.017634,0.093152,0.016957,-6.8e-05,-0.020941
564866,-0.004395,0.001708,-0.000607,0.0,0.0,0.0,0.0,0.0,0.0,3.0,0.344603,0.322413,0.297303,0.335203,0.0,-0.0,-0.0,-0.0,0.0,0.0,0.015203,-0.01753,0.093029,0.017223,-0.017236,-2.7e-05
564886,-0.004395,0.001585,-0.000729,0.0,0.0,0.0,0.0,0.0,0.0,3.0,0.342728,0.325069,0.298577,0.333519,0.0,-0.0,-0.0,-0.0,0.0,0.0,0.015308,-0.017617,0.093029,-0.02095,-0.003869,8e-06
564906,-0.004517,0.001463,-0.000729,0.0,0.0,0.0,0.0,0.0,0.0,3.0,0.340391,0.326648,0.295931,0.33664,0.0,-0.0,-0.0,-0.0,0.0,0.0,0.015309,-0.017635,0.093011,-0.042021,-0.020979,0.003875
564926,-0.004517,0.001585,-0.000729,0.0,0.0,0.0,0.0,0.0,0.0,3.0,0.343817,0.321966,0.299668,0.334423,0.0,-0.0,-0.0,-0.0,0.0,0.0,0.015187,-0.017652,0.092906,-6.2e-05,0.003755,0.000167
564946,-0.004517,0.001463,-0.000729,0.0,0.0,0.0,0.0,0.0,0.0,3.0,0.34528,0.322294,0.301316,0.331144,0.0,-0.0,-0.0,-0.0,0.0,0.0,0.015186,-0.017759,0.092783,6.4e-05,0.000158,0.021085
564966,-0.004395,0.001463,-0.000729,0.0,0.0,0.0,0.0,0.0,0.0,3.0,0.346814,0.321621,0.30122,0.330248,0.0,-0.0,-0.0,-0.0,0.0,0.0,0.015063,-0.017881,0.092802,0.021119,0.021082,-0.003725
564986,-0.004151,0.001463,-0.000852,0.0,0.0,0.0,0.0,0.0,0.0,3.0,0.344365,0.322728,0.300477,0.332424,0.0,-0.0,-0.0,-0.0,0.0,0.0,0.015167,-0.017899,0.092784,0.024788,0.003937,-5.7e-05
565006,-0.004151,0.001463,-0.000974,0.0,0.0,0.0,0.0,0.0,0.0,3.0,0.34795,0.320511,0.30127,0.330056,0.0,-0.0,-0.0,-0.0,0.0,0.0,0.015184,-0.01788,0.09268,0.041982,-3.6e-05,-0.003761
565026,-0.004273,0.001463,-0.000974,0.0,0.0,0.0,0.0,0.0,0.0,3.0,0.345588,0.323954,0.296578,0.33332,0.0,-0.0,-0.0,-0.0,0.0,0.0,0.015202,-0.01788,0.092662,0.017302,-4e-05,-1.3e-05
565046,-0.004151,0.001585,-0.000973,0.0,0.0,0.0,0.0,0.0,0.0,3.0,0.344934,0.324464,0.297053,0.333108,0.0,-0.0,-0.0,0.0,0.0,0.0,0.015203,-0.017861,0.092663,0.017191,0.017047,-0.02095
565066,-0.004273,0.001463,-0.000974,0.0,0.0,0.0,0.0,0.0,0.0,3.0,0.342716,0.325037,0.298097,0.333972,0.0,-0.0,-0.0,0.0,0.0,0.0,0.015431,-0.017739,0.092663,-0.042126,-0.003935,-0.00011
565086,-0.004396,0.001463,-0.000974,0.0,0.0,0.0,0.0,0.0,0.0,3.0,0.342532,0.324183,0.299674,0.333632,0.0,-0.0,-0.0,0.0,0.0,0.0,0.015413,-0.017739,0.092663,-0.017349,-0.003851,5e-06
565106,-0.004518,0.001218,-0.001096,0.0,0.0,0.0,0.0,0.0,0.0,3.0,0.346133,0.322561,0.30088,0.330364,0.0,-0.0,-0.0,0.0,0.0,0.0,0.015327,-0.017863,0.092539,-0.003752,-0.003689,0.02108
565126,-0.004396,0.00134,-0.001096,0.0,0.0,0.0,0.0,0.0,0.0,3.0,0.347195,0.318797,0.304117,0.329978,0.0,-0.0,-0.0,0.0,0.0,0.0,0.015309,-0.017879,0.092435,0.000107,8.3e-05,0.017376
565146,-0.004273,0.000852,-0.001219,0.0,0.0,0.0,0.0,0.0,0.0,3.0,0.34568,0.322533,0.304253,0.327871,0.0,-0.0,-0.0,0.0,0.0,0.0,0.015413,-0.01809,0.092435,-0.017202,-0.007525,-0.024739
565166,-0.004273,0.000851,-0.001463,0.0,0.0,0.0,0.0,0.0,0.0,3.0,0.347682,0.321267,0.30162,0.329305,0.0,-0.0,-0.0,0.0,0.0,0.0,0.015165,-0.01837,0.092313,0.024962,-0.020653,-0.003921
565186,-0.004395,0.000851,-0.001463,0.0,0.0,0.0,0.0,0.0,0.0,3.0,0.345233,0.324107,0.295426,0.33452,0.0,-0.0,-0.0,0.0,0.0,0.0,0.015079,-0.018368,0.092296,0.038275,0.02082,-0.020901
565206,-0.004396,0.000973,-0.001585,0.0,0.0,0.0,0.0,0.0,0.0,3.0,0.347039,0.322988,0.29664,0.332666,0.0,-0.0,-0.0,0.0,0.0,0.0,0.014956,-0.01837,0.092173,0.017458,0.000146,1.8e-05
565226,-0.004518,0.000973,-0.001707,0.0,0.0,0.0,0.0,0.0,0.0,3.0,0.346578,0.321356,0.299347,0.332389,0.0,-0.0,-0.0,0.0,0.0,0.0,0.015082,-0.018246,0.09205,-0.003925,-0.000208,-0.020816
565246,-0.004518,0.00085,-0.001829,0.0,0.0,0.0,0.0,0.0,0.0,3.0,0.346615,0.322342,0.298053,0.332523,0.0,-0.0,-0.0,0.0,0.0,0.0,0.014958,-0.018248,0.091929,-0.003715,-0.020976,-2.3e-05
565266,-0.004396,0.000973,-0.001829,0.0,0.0,0.0,0.0,0.0,0.0,3.0,0.342575,0.324384,0.298895,0.334064,0.0,-0.0,-0.0,0.0,0.0,0.0,0.015188,-0.01837,0.091929,-0.000269,2.4e-05,4.7e-05
565286,-0.004395,0.000606,-0.00183,0.0,0.0,0.0,0.0,0.0,0.0,3.0,0.343902,0.321323,0.302777,0.332242,0.0,-0.0,-0.0,0.0,0.0,0.0,0.015414,-0.018247,0.091806,-0.017312,-0.042118,7.7e-05
565306,-0.004151,0.000485,-0.00183,0.0,0.0,0.0,0.0,0.0,0.0,3.0,0.342252,0.323659,0.302462,0.331999,0.0,-0.0,-0.0,-0.0,0.0,0.0,0.015518,-0.018615,0.091806,-0.013418,-0.02078,-3.9e-05
565326,-0.004029,0.000484,-0.002075,0.0,0.0,0.0,0.0,0.0,0.0,3.0,0.345776,0.318267,0.303994,0.3321,0.0,-0.0,-0.0,-0.0,0.0,0.0,0.015516,-0.018508,0.091683,0.007611,-0.017362,-0.020902
565346,-0.004029,0.00024,-0.002197,0.0,0.0,0.0,0.0,0.0,0.0,3.0,0.345356,0.323651,0.301045,0.329988,0.0,-0.0,-0.0,-0.0,0.0,0.0,0.015533,-0.018842,0.091561,0.024839,-0.024535,-0.021005
565366,-0.003785,0.000118,-0.00232,0.0,0.0,0.0,0.0,0.0,0.0,3.0,0.34514,0.320568,0.301126,0.333109,0.0,-0.0,-0.0,-0.0,0.0,0.0,0.015675,-0.018894,0.091439,0.020988,0.007618,3.5e-05
565386,-0.003784,-5e-06,-0.002442,0.0,0.0,0.0,0.0,0.0,0.0,3.0,0.344875,0.323114,0.300591,0.331417,0.0,-0.0,-0.0,-0.0,0.0,0.0,0.015778,-0.019104,0.091297,-0.017155,0.000304,0.004001
565406,-0.003785,0.000117,-0.002564,0.0,0.0,0.0,0.0,0.0,0.0,3.0,0.350476,0.316574,0.30462,0.328098,0.0,-0.0,-0.0,-0.0,0.0,0.0,0.015674,-0.019121,0.091089,-2.8e-05,0.003881,-0.003566
565426,-0.003784,-5e-06,-0.002686,0.0,0.0,0.0,0.0,0.0,0.0,3.0,0.350199,0.318891,0.303584,0.327114,0.0,-0.0,-0.0,-0.0,0.0,0.0,0.015693,-0.019227,0.090967,-0.003889,9.9e-05,-0.003733
565446,-0.003784,-5e-06,-0.002808,0.0,0.0,0.0,0.0,0.0,0.0,3.0,0.34704,0.321702,0.299682,0.331277,0.0,-0.0,-0.0,-0.0,0.0,0.0,0.015693,-0.019225,0.09095,0.017083,-1.8e-05,-0.020977
565466,-0.003662,-0.000372,-0.002931,0.0,0.0,0.0,0.0,0.0,0.0,3.0,0.345722,0.322524,0.302264,0.329616,0.0,-0.0,-0.0,-0.0,0.0,0.0,0.01592,-0.01933,0.090828,-0.021101,-0.0038,-0.020959
565486,-0.003539,-0.000494,-0.003053,0.0,0.0,0.0,0.0,0.0,0.0,3.0,0.348358,0.319628,0.304826,0.327286,0.0,-0.0,-0.0,-0.0,0.0,0.0,0.015901,-0.019594,0.090582,0.003708,0.000319,0.000135
565506,-0.003661,-0.000616,-0.003175,0.0,0.0,0.0,0.0,0.0,0.0,3.0,0.34904,0.318193,0.303382,0.329226,0.0,-0.0,-0.0,-0.0,0.0,0.0,0.015919,-0.01961,0.09046,0.020953,-0.017051,8.2e-05
565526,-0.003661,-0.000616,-0.003298,0.0,0.0,0.0,0.0,0.0,0.0,3.0,0.350108,0.317402,0.304918,0.327439,0.0,-0.0,-0.0,-0.0,0.0,0.0,0.015919,-0.019714,0.090356,0.02114,-0.020872,-0.003765
565546,-0.003905,-0.000983,-0.00342,0.0,0.0,0.0,0.0,0.0,0.0,3.0,0.352002,0.318519,0.303285,0.325756,0.0,-0.0,-0.0,-0.0,0.0,0.0,0.015672,-0.019961,0.090234,0.021327,0.000164,-0.003725
565566,-0.004027,-0.001106,-0.003543,0.0,0.0,0.0,0.0,0.0,0.0,3.0,0.353024,0.318291,0.302401,0.325639,0.0,-0.0,-0.0,-0.0,0.0,0.0,0.015466,-0.020206,0.090111,0.034615,0.000367,-0.003716
565586,-0.004027,-0.000984,-0.003665,0.0,0.0,0.0,0.0,0.0,0.0,3.0,0.353168,0.317694,0.302576,0.3259,0.0,-0.0,-0.0,-0.0,0.0,0.0,0.015344,-0.020328,0.089988,0.01358,0.021147,-0.003682
565606,-0.00427,-0.001229,-0.003787,0.0,0.0,0.0,0.0,0.0,0.0,3.0,0.351285,0.317822,0.305227,0.325457,0.0,-0.0,-0.0,-0.0,0.0,0.0,0.015432,-0.020328,0.089866,-0.021005,-0.020934,-0.003789
565626,-0.00427,-0.001229,-0.003787,0.0,0.0,0.0,0.0,0.0,0.0,3.0,0.348269,0.321373,0.3011,0.329031,0.0,-0.0,-0.0,-0.0,0.0,0.0,0.015329,-0.020431,0.089849,-0.003851,0.017147,3.3e-05
565646,-0.004149,-0.001107,-0.003787,0.0,0.0,0.0,0.0,0.0,0.0,3.0,0.34366,0.324125,0.297885,0.334053,0.0,-0.0,-0.0,-0.0,0.0,0.0,0.015452,-0.020326,0.089954,0.017019,6.2e-05,0.003741
565666,-0.003904,-0.001106,-0.003665,0.0,0.0,0.0,0.0,0.0,0.0,3.0,0.347561,0.31875,0.303279,0.330379,0.0,-0.0,-0.0,-0.0,0.0,0.0,0.015555,-0.020222,0.089849,0.041952,0.003851,0.021161
565686,-0.003782,-0.001106,-0.003787,0.0,0.0,0.0,0.0,0.0,0.0,3.0,0.348044,0.319216,0.30525,0.327642,0.0,-0.0,-0.0,-0.0,0.0,0.0,0.015781,-0.020327,0.089848,0.003801,0.021139,0.000128
565706,-0.00366,-0.000984,-0.003787,0.0,0.0,0.0,0.0,0.0,0.0,3.0,0.350491,0.31541,0.30654,0.327444,0.0,-0.0,-0.0,0.0,0.0,0.0,0.01578,-0.020241,0.089745,0.024802,0.007746,-0.003706
565726,-0.003782,-0.000984,-0.003909,0.0,0.0,0.0,0.0,0.0,0.0,3.0,0.352546,0.318627,0.301962,0.326242,0.0,-0.0,-0.0,0.0,0.0,0.0,0.01573,-0.020328,0.089745,0.009607,0.021096,-0.003845
565746,-0.004027,-0.000862,-0.003909,0.0,0.0,0.0,0.0,0.0,0.0,3.0,0.35036,0.320191,0.299309,0.329486,0.0,-0.0,-0.0,0.0,0.0,0.0,0.015589,-0.020205,0.089727,-0.00749,-4e-05,-5e-06
565766,-0.004148,-0.001107,-0.003909,0.0,0.0,0.0,0.0,0.0,0.0,3.0,0.349314,0.320989,0.300245,0.329029,0.0,-0.0,-0.0,0.0,0.0,0.0,0.015449,-0.020206,0.089727,-0.024666,-0.021068,-5.7e-05
565786,-0.004148,-0.001107,-0.003909,0.0,0.0,0.0,0.0,0.0,0.0,3.0,0.347904,0.320753,0.302047,0.329185,0.0,-0.0,-0.0,0.0,0.0,0.0,0.015433,-0.020327,0.089727,-0.000135,2.3e-05,-0.0
565806,-0.004148,-0.001351,-0.004032,0.0,0.0,0.0,0.0,0.0,0.0,3.0,0.35179,0.318062,0.305599,0.324322,0.0,-0.0,-0.0,0.0,0.0,0.0,0.015451,-0.020432,0.089622,-0.003789,-0.024719,-0.003785
565826,-0.004026,-0.001351,-0.004154,0.0,0.0,0.0,0.0,0.0,0.0,3.0,0.346572,0.321686,0.304759,0.327282,0.0,-0.0,-0.0,0.0,0.0,0.0,0.015662,-0.020676,0.089604,-0.017387,0.017229,2.1e-05
565846,-0.004026,-0.001351,-0.004154,0.0,0.0,0.0,0.0,0.0,0.0,3.0,0.349526,0.318486,0.303607,0.328218,0.0,-0.0,-0.0,0.0,-0.0,0.0,0.015555,-0.02059,0.089482,1.9e-05,0.003816,0.000165
565866,-0.004026,-0.001229,-0.004154,0.0,0.0,0.0,0.0,0.0,0.0,3.0,0.350723,0.318385,0.305133,0.325619,0.0,-0.0,-0.0,0.0,-0.0,0.0,0.015556,-0.020695,0.089359,-0.000103,0.042098,0.021169
565886,-0.00427,-0.001352,-0.004154,0.0,0.0,0.0,0.0,0.0,0.0,3.0,0.352418,0.319337,0.302352,0.325343,0.0,-0.0,-0.0,0.0,-0.0,0.0,0.015327,-0.020697,0.089359,-0.003666,0.021136,0.000127
565906,-0.004392,-0.001352,-0.004276,0.0,0.0,0.0,0.0,0.0,0.0,3.0,0.353182,0.320328,0.302671,0.323225,0.0,-0.0,-0.0,-0.0,0.0,0.0,0.015084,-0.020924,0.089377,-0.024675,0.038347,-0.003821
565926,-0.004513,-0.001597,-0.004277,0.0,0.0,0.0,0.0,0.0,0.0,3.0,0.347288,0.322501,0.299487,0.330411,0.0,-0.0,-0.0,-0.0,0.0,0.0,0.015067,-0.020695,0.089483,-0.042023,-0.042181,-0.021216
565946,-0.00488,-0.001719,-0.004155,0.0,0.0,0.0,0.0,0.0,0.0,3.0,0.344956,0.326699,0.294387,0.333181,0.0,-0.0,-0.0,-0.0,0.0,0.0,0.014822,-0.02094,0.089587,-0.020981,-0.021007,0.003578
565966,-0.004635,-0.00184,-0.003911,0.0,0.0,0.0,0.0,0.0,0.0,3.0,0.346017,0.323019,0.301859,0.329178,0.0,-0.0,-0.0,-0.0,0.0,0.0,0.014948,-0.021043,0.089604,-0.021223,0.017115,0.021047
565986,-0.004392,-0.001717,-0.003789,0.0,0.0,0.0,0.0,0.0,0.0,3.0,0.344577,0.321982,0.30324,0.33049,0.0,-0.0,-0.0,-0.0,0.0,0.0,0.015156,-0.02108,0.089707,-0.034666,0.024887,0.003845
566006,-0.004147,-0.001717,-0.003788,0.0,0.0,0.0,0.0,0.0,0.0,3.0,0.349349,0.319074,0.306272,0.32542,0.0,-0.0,-0.0,-0.0,0.0,0.0,0.015315,-0.021042,0.089744,-0.000422,0.017253,0.017123
566026,-0.00427,-0.001717,-0.003666,0.0,0.0,0.0,0.0,0.0,0.0,3.0,0.34875,0.321001,0.301431,0.328579,0.0,-0.0,-0.0,0.0,0.0,0.0,0.015311,-0.021079,0.089848,-5.3e-05,0.003925,-1.7e-05
566046,-0.004392,-0.001717,-0.003666,0.0,0.0,0.0,0.0,0.0,0.0,3.0,0.34727,0.32199,0.301212,0.329411,0.0,-0.0,-0.0,0.0,0.0,0.0,0.015293,-0.02106,0.089971,0.003802,0.020931,-0.000109
566066,-0.004636,-0.001839,-0.003545,0.0,0.0,0.0,0.0,0.0,0.0,3.0,0.351135,0.321072,0.299157,0.327922,0.0,-0.0,-0.0,0.0,-0.0,0.0,0.01496,-0.021061,0.089969,-0.024436,4e-05,-2.2e-05
566086,-0.005124,-0.00184,-0.003545,0.0,0.0,0.0,0.0,0.0,0.0,3.0,0.350548,0.322951,0.297219,0.328432,0.0,-0.0,-0.0,0.0,-0.0,0.0,0.014594,-0.021165,0.090092,-0.00364,-0.003739,-0.00017
566106,-0.005245,-0.002328,-0.003425,0.0,0.0,0.0,0.0,0.0,0.174533,3.0,0.467269,0.15,0.433641,0.15,0.0,-0.0,-0.0,0.0,-0.0,0.008728,0.014352,-0.021411,0.090213,-0.024483,-0.024741,-0.021177
566126,-0.005247,-0.002447,-0.002204,0.0,0.0,0.0,0.0,0.0,0.174533,3.0,0.46286,0.15,0.433221,0.15,0.0,-0.0,0.000437,0.0,-0.0,0.043666,0.014441,-0.021548,0.090422,-0.038455,0.000204,0.091186
566146,-0.004886,-0.002436,0.002314,0.0,0.0,0.0,0.0,0.0,0.174533,3.0,0.435098,0.15,0.404323,0.152379,0.0,-0.0,0.001567,-0.0,-0.0,0.077655,0.014562,-0.021788,0.092893,0.003208,0.000866,0.238336
566166,-0.004774,-0.002662,0.009883,0.0,0.0,0.0,0.0,0.0,0.174533,3.0,0.384225,0.274462,0.346691,0.278628,0.0,-0.0,0.003367,-0.0,-0.0,0.110293,0.014796,-0.021857,0.099266,-0.03895,-0.027563,0.366497
566186,-0.004664,-0.002641,0.019038,0.0,0.0,0.0,0.0,0.0,0.174533,3.0,0.342662,0.325777,0.297964,0.333428,0.0,-0.0,0.00581,-0.0,-0.0,0.141531,0.014907,-0.021872,0.10798,-0.018266,-0.019907,0.446762
566206,-0.005045,-0.00286,0.027827,0.0,0.0,0.0,0.0,0.0,0.174533,3.0,0.342111,0.329064,0.290671,0.336908,0.0,-0.0,0.008866,-0.0,-0.0,0.171349,0.014807,-0.02185,0.116928,-0.067887,-0.040167,0.439157
566226,-0.005425,-0.002955,0.035884,0.0,0.0,0.0,0.0,0.0,0.174533,3.0,0.351782,0.321997,0.297274,0.327964,0.0,-0.0,0.012507,-0.0,0.0,0.199324,0.014177,-0.022207,0.12526,0.01686,0.00476,0.390318
566246,-0.005921,-0.002804,0.042721,0.0,0.0,0.0,0.0,0.0,0.174533,3.0,0.360241,0.306566,0.312643,0.319009,-0.0,-0.0,0.016687,-0.0,0.0,0.224473,0.014013,-0.021935,0.132738,-0.017701,-0.016043,0.34112
566266,-0.006054,-0.002905,0.048824,0.0,0.0,0.0,0.0,0.0,0.174533,3.0,0.366356,0.30165,0.321767,0.30697,-0.0,-0.0,0.021348,-0.0,0.0,0.246837,0.013756,-0.022123,0.139344,-0.038358,-0.00193,0.295775
566286,-0.005812,-0.002651,0.05445,0.0,0.0,0.0,0.0,0.0,0.174533,3.0,0.372401,0.288831,0.332944,0.299006,-0.0,-0.0,0.026437,-0.0,0.0,0.266538,0.013735,-0.021999,0.145095,0.006565,-0.020402,0.292546
566306,-0.005209,-0.002652,0.060066,0.0,0.0,0.0,0.0,0.0,0.174533,3.0,0.374512,0.285586,0.334997,0.296823,-0.0,-0.0,0.0319,-0.0,0.0,0.283702,0.014012,-0.021887,0.150605,-0.000536,0.004347,0.290746
566326,-0.004607,-0.002658,0.065802,0.0,0.0,0.0,0.0,0.0,0.174533,3.0,0.366261,0.295188,0.330663,0.303607,-0.0,-0.0,0.037688,-0.0,0.0,0.298453,0.014723,-0.021877,0.156354,0.024305,0.0209,0.288976
566346,-0.003647,-0.002923,0.071793,0.0,0.0,0.0,0.0,0.0,0.174533,3.0,0.357858,0.308594,0.320386,0.312111,-0.0,-0.0,0.043755,-0.0,0.0,0.310918,0.015315,-0.022131,0.162319,0.06651,0.019595,0.294338
566366,-0.002309,-0.002842,0.077662,0.0,0.0,0.0,0.0,0.0,0.174533,3.0,0.354229,0.308196,0.320493,0.31668,-0.0,-0.0,0.050053,-0.0,0.0,0.32122,0.016411,-0.022033,0.168187,0.087247,0.018148,0.29211
566386,-0.001225,-0.003003,0.083408,0.0,0.0,0.0,0.0,0.0,0.174533,3.0,0.350434,0.311981,0.316611,0.321252,-0.0,0.0,0.056543,-0.0,0.0,0.32948,0.017626,-0.02197,0.174053,0.064739,-0.019513,0.271422
566406,-0.000257,-0.003043,0.088788,0.0,0.0,0.0,0.0,0.0,0.174533,3.0,0.347987,0.313431,0.317528,0.321691,-0.0,0.0,0.063183,-0.0,0.0,0.335821,0.018797,-0.022137,0.179676,0.052212,0.001738,0.271422
566426,0.000954,-0.0031,0.094167,0.0,0.0,0.0,0.0,0.0,0.174533,3.0,0.348884,0.312097,0.321653,0.317857,-0.0,0.0,0.069936,-0.0,0.0,0.340359,0.020006,-0.022296,0.184949,0.031037,-0.001339,0.267858
566446,0.002299,-0.002925,0.099181,0.0,0.0,0.0,0.0,0.0,0.174533,3.0,0.350105,0.308662,0.323644,0.31776,-0.0,0.0,0.076767,-0.0,0.0,0.343211,0.021081,-0.022243,0.190101,0.055976,0.000796,0.263987
566466,0.003139,-0.003097,0.104071,0.0,0.0,0.0,0.0,0.0,0.174533,3.0,0.35054,0.310178,0.321739,0.317749,-0.0,0.0,0.083643,-0.0,0.0,0.34449,0.022195,-0.022164,0.195131,0.030004,-0.023014,0.239347
566486,0.003843,-0.00351,0.10896,0.0,0.0,0.0,0.0,0.0,0.174533,3.0,0.346748,0.317577,0.312907,0.323515,-0.0,0.0,0.090534,-0.0,0.0,0.344308,0.022947,-0.022334,0.200125,0.021412,-0.043551,0.242975
566506,0.004573,-0.00344,0.113847,0.0,0.0,0.0,0.0,0.0,0.174533,3.0,0.341055,0.318779,0.311478,0.3298,-0.0,0.0,0.097411,-0.0,0.0,0.342771,0.023897,-0.022429,0.204993,0.02654,-0.015506,0.250289
566526,0.005166,-0.003608,0.118611,0.0,0.0,0.0,0.0,0.0,0.174533,3.0,0.344262,0.319008,0.31373,0.324043,-0.0,0.0,0.104247,-0.0,0.0,0.339986,0.024607,-0.022692,0.209656,0.006656,-0.000853,0.246005
566546,0.005753,-0.003901,0.123034,0.0,0.0,0.0,0.0,0.0,0.174533,3.0,0.347781,0.317897,0.313908,0.321096,-0.0,0.0,0.111019,-0.0,0.0,0.336052,0.024947,-0.022971,0.214194,0.026576,-0.022989,0.221527
566566,0.005965,-0.004294,0.127191,0.0,0.0,0.0,0.0,0.0,0.174533,3.0,0.348934,0.320527,0.309318,0.321604,-0.0,0.0,0.117704,-0.0,0.0,0.331068,0.025194,-0.023348,0.218632,0.040984,-0.006747,0.193694
566586,0.006184,-0.004566,0.131347,0.0,0.0,0.0,0.0,0.0,0.174533,3.0,0.344355,0.323892,0.30686,0.32558,-0.0,0.0,0.124283,-0.0,0.0,0.325129,0.025659,-0.023634,0.22291,-0.023297,-0.023682,0.193642
566606,0.006401,-0.004839,0.135502,0.0,0.0,0.0,0.0,0.0,0.174533,3.0,0.341537,0.325399,0.303744,0.329914,-0.0,0.0,0.130735,-0.0,0.0,0.318327,0.025885,-0.023801,0.227049,-0.023166,-0.020114,0.200924
566626,0.006366,-0.005217,0.139413,0.0,0.0,0.0,0.0,0.0,0.174533,3.0,0.344064,0.324777,0.304868,0.326838,-0.0,0.0,0.137046,-0.0,0.0,0.310748,0.025971,-0.024189,0.230959,-0.002194,-0.021269,0.201179
566646,0.006582,-0.00549,0.143229,0.0,0.0,0.0,0.0,0.0,0.174533,3.0,0.343806,0.322932,0.307907,0.326155,-0.0,0.0,0.1432,-0.0,0.0,0.302476,0.026171,-0.02446,0.234807,-0.019319,-0.02011,0.190017
566666,0.006816,-0.00552,0.146897,0.0,0.0,0.0,0.0,0.0,0.174533,3.0,0.341102,0.32583,0.30389,0.329816,-0.0,0.0,0.149184,-0.0,0.0,0.293593,0.026263,-0.024743,0.238578,0.00337,0.003194,0.172934
566686,0.007031,-0.005793,0.150324,0.0,0.0,0.0,0.0,0.0,0.174533,3.0,0.34319,0.326554,0.303964,0.326825,-0.0,0.0,0.154986,-0.0,0.0,0.284174,0.026376,-0.024974,0.242142,0.04088,-0.007282,0.169268
566706,0.007499,-0.005964,0.153629,0.0,0.0,0.0,0.0,0.0,0.174533,3.0,0.340833,0.326805,0.304126,0.328922,-0.0,0.0,0.160596,-0.0,0.0,0.274293,0.026703,-0.02515,0.245568,0.024119,-0.002282,0.148617
566726,0.007734,-0.005995,0.156693,0.0,0.0,0.0,0.0,0.0,0.174533,3.0,0.341488,0.326457,0.304897,0.327884,-0.0,0.0,0.166005,-0.0,0.0,0.264019,0.027051,-0.025293,0.248755,0.025247,0.01476,0.147723
566746,0.008099,-0.005914,0.159755,0.0,0.0,0.0,0.0,0.0,0.174533,3.0,0.341148,0.323811,0.305338,0.330446,-0.0,0.0,0.171207,-0.0,0.0,0.253418,0.027442,-0.025126,0.251834,0.018765,-0.019392,0.144133
566766,0.008578,-0.005965,0.162577,0.0,0.0,0.0,0.0,0.0,0.174533,3.0,0.338874,0.324274,0.30765,0.330272,-0.0,0.0,0.176194,-0.0,0.0,0.242552,0.028038,-0.025044,0.25477,0.00284,-0.001104,0.144982
566786,0.008975,-0.005521,0.165396,0.0,0.0,0.0,0.0,0.0,0.174533,3.0,0.337172,0.323482,0.307247,0.333148,-0.0,0.0,0.180962,-0.0,0.0,0.23148,0.028515,-0.024888,0.25759,0.009062,0.027166,0.14494
566806,0.009738,-0.005108,0.168094,0.0,0.0,0.0,0.0,0.0,0.174533,3.0,0.339113,0.319883,0.312887,0.329459,-0.0,0.0,0.185508,-0.0,0.0,0.220256,0.029148,-0.024586,0.260185,0.029896,0.025211,0.161927
566826,0.010513,-0.004574,0.17052,0.0,0.0,0.0,0.0,0.0,0.174533,3.0,0.342655,0.318291,0.313397,0.326785,-0.0,0.0,0.189828,-0.0,0.0,0.208933,0.029676,-0.024257,0.262754,0.048825,0.040748,0.141818
566846,0.01127,-0.004284,0.172737,0.0,0.0,0.0,0.0,0.0,0.174533,3.0,0.340103,0.319228,0.313148,0.328813,-0.0,0.0,0.193921,-0.0,0.0,0.197559,0.030434,-0.023722,0.26521,0.050739,0.019528,0.095378
566866,0.01218,-0.003641,0.17492,0.0,0.0,0.0,0.0,0.0,0.174533,3.0,0.338526,0.3201,0.312188,0.330508,-0.0,0.0,0.197787,0.0,0.0,0.186179,0.031201,-0.023311,0.267422,0.033565,0.063104,0.096079
566886,0.01286,-0.002857,0.177013,0.0,0.0,0.0,0.0,0.0,0.174533,3.0,0.338107,0.318565,0.309825,0.334547,-0.0,0.0,0.201426,0.0,0.0,0.174834,0.031906,-0.022421,0.269608,0.068282,0.021421,0.100742
566906,0.013265,-0.002416,0.178957,0.0,0.0,0.0,0.0,0.0,0.174533,3.0,0.340302,0.320263,0.310117,0.330418,-0.0,0.0,0.204838,-0.0,0.0,0.163565,0.032575,-0.021969,0.271576,0.022216,0.017981,0.096551
566926,0.014059,-0.001765,0.18081,0.0,0.0,0.0,0.0,0.0,0.174533,3.0,0.33875,0.31604,0.314731,0.331761,-0.0,0.0,0.208025,-0.0,0.0,0.152405,0.033363,-0.021209,0.2734,0.005214,0.022986,0.095599
566946,0.014489,-0.00108,0.182391,0.0,0.0,0.0,0.0,0.0,0.174533,3.0,0.340813,0.313132,0.317438,0.329794,-0.0,0.0,0.21099,-0.0,0.0,0.141388,0.034014,-0.020564,0.275117,-0.0113,0.028492,0.097585
566966,0.01492,-0.000396,0.183972,0.0,0.0,0.0,0.0,0.0,0.174533,3.0,0.340769,0.315082,0.315616,0.329737,-0.0,0.0,0.213736,-0.0,0.0,0.130544,0.034453,-0.019986,0.276727,0.005523,0.023197,0.093056
566986,0.015439,-8.7e-05,0.185435,0.0,0.0,0.0,0.0,0.0,0.174533,3.0,0.339521,0.315141,0.31502,0.331538,-0.0,0.0,0.216267,-0.0,0.0,0.1199,0.034864,-0.019318,0.278312,0.007916,0.005752,0.071563
567006,0.015838,0.000233,0.186779,0.0,0.0,0.0,0.0,0.0,0.174533,3.0,0.343185,0.313984,0.316566,0.32732,-0.0,0.0,0.218587,-0.0,0.0,0.109481,0.035127,-0.019111,0.279674,0.030865,0.025134,0.067671
567026,0.016237,0.000553,0.188003,0.0,0.0,0.0,0.0,0.0,0.174533,3.0,0.343086,0.314702,0.314632,0.328585,-0.0,0.0,0.2207,-0.0,0.0,0.099308,0.035422,-0.018782,0.281018,0.068918,0.021666,0.046961
567046,0.016614,0.000631,0.189109,0.0,0.0,0.0,0.0,0.0,0.174533,3.0,0.342026,0.317209,0.314243,0.327694,-0.0,0.0,0.222611,-0.0,0.0,0.089401,0.035954,-0.01856,0.282242,0.04154,-0.004466,0.047292
567066,0.017112,0.000697,0.190214,0.0,0.0,0.0,0.0,0.0,0.174533,3.0,0.342082,0.317527,0.314152,0.327415,-0.0,0.0,0.224326,-0.0,0.0,0.079778,0.03633,-0.018483,0.283348,0.020689,-0.002491,0.047516
567086,0.017356,0.000666,0.191202,0.0,0.0,0.0,0.0,0.0,0.174533,3.0,0.343129,0.317394,0.315027,0.325594,-0.0,0.0,0.225852,-0.0,0.0,0.070453,0.036695,-0.018527,0.284329,-0.000326,-0.000386,0.048791
567106,0.017599,0.000635,0.192071,0.0,0.0,0.0,0.0,0.0,0.174533,3.0,0.341487,0.316653,0.316932,0.326237,-0.0,0.0,0.227193,-0.0,0.0,0.061439,0.037196,-0.01846,0.285285,-0.000381,-0.000498,0.053705
567126,0.01823,0.000811,0.192901,0.0,0.0,0.0,0.0,0.0,0.174533,3.0,0.340907,0.316967,0.317763,0.32575,-0.0,0.0,0.228356,-0.0,0.0,0.052747,0.037542,-0.018501,0.286152,0.026369,0.018126,0.047551
567146,0.018607,0.000891,0.193649,0.0,0.0,0.0,0.0,0.0,0.174533,3.0,0.342766,0.313605,0.320092,0.324716,-0.0,0.0,0.229347,-0.0,0.0,0.044386,0.03805,-0.01833,0.286916,0.00579,0.023813,0.043937
567166,0.019008,0.001213,0.194394,0.0,0.0,0.0,0.0,0.0,0.174533,3.0,0.341363,0.315059,0.319389,0.325518,-0.0,0.0,0.230174,-0.0,0.0,0.036364,0.038407,-0.018249,0.28761,0.032565,0.042386,0.047382
567186,0.019529,0.001524,0.194984,0.0,0.0,0.0,0.0,0.0,0.174533,3.0,0.344517,0.311809,0.320492,0.32414,-0.0,0.0,0.230843,-0.0,-0.0,0.028685,0.038703,-0.017915,0.288253,0.04986,0.040533,0.043586
567206,0.019809,0.001859,0.195611,0.0,0.0,0.0,0.0,0.0,0.174533,3.0,0.343676,0.312439,0.320898,0.324052,-0.0,0.0,0.231362,-0.0,-0.0,0.021354,0.039227,-0.017586,0.288843,0.005742,0.019922,0.05017
567226,0.020221,0.002304,0.196081,0.0,0.0,0.0,0.0,0.0,0.174533,3.0,0.344098,0.311486,0.318718,0.326627,-0.0,0.0,0.231736,-0.0,0.0,0.014373,0.039413,-0.017136,0.289469,0.023105,0.022014,0.023448
567246,0.020635,0.002748,0.196705,0.0,0.0,0.0,0.0,0.0,0.174533,3.0,0.340376,0.315377,0.317616,0.327972,-0.0,0.0,0.231973,-0.0,0.0,0.007743,0.039939,-0.016809,0.290059,0.001804,0.020382,0.029654
567266,0.021035,0.003071,0.197176,0.0,0.0,0.0,0.0,0.0,0.174533,3.0,0.340354,0.313506,0.320542,0.326941,-0.0,0.0,0.23208,-0.0,-0.0,0.001464,0.040457,-0.016373,0.290563,0.00532,0.019842,0.023595
567286,0.021304,0.003283,0.197803,0.0,0.0,0.0,0.0,0.0,0.174533,3.0,0.336967,0.317991,0.315819,0.330737,-0.0,0.0,0.232065,-0.0,0.0,-0.004465,0.040875,-0.016054,0.291135,0.022551,0.018243,0.027114
567306,0.021681,0.003363,0.198276,0.0,0.0,0.0,0.0,0.0,0.174533,3.0,0.339531,0.317064,0.31729,0.327566,-0.0,0.0,0.231933,0.0,0.0,-0.010048,0.04113,-0.015964,0.291662,0.022868,0.018512,0.023419
567326,0.021936,0.003456,0.19863,0.0,0.0,0.0,0.0,0.0,0.174533,3.0,0.340366,0.313381,0.321252,0.326353,-0.0,0.0,0.231692,0.0,-0.0,-0.015288,0.041481,-0.015775,0.292013,0.009864,0.023547,0.023614
567346,0.021926,0.003331,0.199025,0.0,0.0,0.0,0.0,0.0,0.174533,3.0,0.342999,0.315671,0.319372,0.323188,-0.0,0.0,0.231349,0.0,-0.0,-0.02019,0.041488,-0.015869,0.292389,0.024579,-0.00626,0.026245
567366,0.022059,0.003438,0.199261,0.0,0.0,0.0,0.0,0.0,0.174533,3.0,0.345186,0.312296,0.320682,0.322759,-0.0,0.0,0.23091,0.0,-0.0,-0.024758,0.041506,-0.015889,0.292662,0.023096,0.018536,0.019905
567386,0.022302,0.003412,0.199378,0.0,0.0,0.0,0.0,0.0,0.174533,3.0,0.342699,0.312757,0.323203,0.322515,-0.0,0.0,0.230383,0.0,-0.0,-0.029,0.041869,-0.015787,0.292896,-0.017672,-0.002114,-1e-05
567406,0.022169,0.003301,0.199499,0.0,0.0,0.0,0.0,0.0,0.174533,3.0,0.343318,0.315239,0.317576,0.325013,-0.0,0.0,0.229773,0.0,0.0,-0.032922,0.041782,-0.015781,0.293136,-0.006313,-0.024301,3.3e-05
567426,0.022302,0.003409,0.199616,0.0,0.0,0.0,0.0,0.0,0.174533,3.0,0.342206,0.31395,0.32018,0.324903,-0.0,0.0,0.229087,0.0,-0.0,-0.036531,0.041887,-0.015791,0.293254,0.001588,0.016971,-0.000286
567446,0.022278,0.003163,0.199857,0.0,0.0,0.0,0.0,0.0,0.174533,3.0,0.341564,0.315004,0.319844,0.324912,-0.0,0.0,0.228331,0.0,-0.0,-0.039837,0.042006,-0.015826,0.293372,-0.02304,-0.018864,0.020719
567466,0.022521,0.003138,0.199974,0.0,0.0,0.0,0.0,0.0,0.174533,3.0,0.34021,0.313947,0.321907,0.325338,-0.0,0.0,0.227511,0.0,-0.0,-0.042847,0.042078,-0.015974,0.293472,0.007852,0.002863,0.024078
567486,0.022632,0.003004,0.200011,0.0,0.0,0.0,0.0,0.0,0.174533,3.0,0.344848,0.31005,0.325312,0.32062,-0.0,0.0,0.226634,0.0,-0.0,-0.04557,0.042204,-0.016111,0.293508,0.025228,0.001323,0.02281
567506,0.022741,0.00287,0.200012,0.0,0.0,0.0,0.0,0.0,0.174533,3.0,0.341733,0.315756,0.321285,0.322583,-0.0,0.0,0.225703,0.0,-0.0,-0.048016,0.042306,-0.016332,0.293648,0.024356,-0.006036,-0.000168
567526,0.022729,0.002749,0.200013,0.0,0.0,0.0,0.0,0.0,0.174533,3.0,0.345032,0.312607,0.320201,0.323106,-0.0,0.0,0.224726,0.0,-0.0,-0.050195,0.042217,-0.016339,0.293667,0.015194,-0.02256,-0.003637
567546,0.022582,0.002518,0.19998,0.0,0.0,0.0,0.0,0.0,0.174533,3.0,0.340318,0.317784,0.315482,0.327772,-0.0,0.0,0.223708,0.0,0.0,-0.052116,0.042206,-0.016462,0.293752,-0.0267,-0.018176,-0.016419
