time_ms,roll,pitch,yaw,reference_roll,reference_pitch,reference_yaw,reference_throttle,throttle_1,throttle_2,throttle_3,throttle_4,roll_predicted,pitch_predicted,yaw_predicted,roll_rate_predicted,pitch_rate_predicted,yaw_rate_predicted,value1,value2,value3,value4,value5,value6
195348,-0.073591,-0.013675,-0.043762,-0.086281,-0.0,-0.0,3.0,0.3261,0.330224,0.3261,0.321904,,,,,,,-0.07297,-0.015549,-0.037589,-0.104893,-5.1e-05,-0.000403
195368,-0.075562,-0.013512,-0.04157,0.0,-0.0,-0.0,3.0,0.3261,0.279101,0.3261,0.365302,,,,,,,-0.075406,-0.015549,-0.037596,-0.046629,-3.5e-05,-0.000183
195388,-0.077773,-0.013471,-0.039383,0.0,-0.0,-0.0,3.0,0.3261,0.265946,0.3261,0.373955,,,,,,,-0.077893,-0.01555,-0.037598,-0.02031,-3.2e-05,1.1e-05
195408,-0.079502,-0.013417,-0.037201,0.0,-0.0,-0.0,3.0,0.3261,0.263022,0.3261,0.375762,,,,,,,-0.080076,-0.015551,-0.037596,-0.026032,-2.8e-05,0.000229
195428,-0.080743,-0.012994,-0.035239,0.0,-0.0,-0.0,3.0,0.3261,0.271833,0.3261,0.370191,,,,,,,-0.081457,-0.015552,-0.03759,-0.043127,-1e-05,0.000436
195448,-0.080879,-0.012668,-0.033151,0.0,-0.0,-0.0,3.0,0.3261,0.285203,0.3261,0.360983,,,,,,,-0.082012,-0.015552,-0.037579,-0.014169,2.2e-05,0.000643
195468,-0.0798,-0.012212,-0.031305,0.0,-0.0,-0.0,3.0,0.3261,0.302741,0.3261,0.347381,,,,,,,-0.081374,-0.015551,-0.037565,0.020617,5.6e-05,0.000838
195488,-0.077617,-0.011741,-0.029449,0.0,-0.0,-0.0,3.0,0.3261,0.317853,0.3261,0.334074,,,,,,,-0.079624,-0.01555,-0.037547,0.094103,0.000103,0.001022
195508,-0.074458,-0.011262,-0.027591,0.0,-0.0,-0.0,3.0,0.3261,0.32891,0.3261,0.323257,,,,,,,-0.077011,-0.015547,-0.037525,0.166637,0.000138,0.001205
195528,-0.070557,-0.011035,-0.026101,0.0,-0.0,-0.0,3.0,0.3261,0.338204,0.3261,0.313354,,,,,,,-0.073525,-0.015544,-0.037499,0.194275,0.000186,0.001376
195548,-0.066534,-0.010944,-0.024864,0.0,-0.0,-0.0,3.0,0.3261,0.343424,0.3261,0.307425,,,,,,,-0.06966,-0.01554,-0.037471,0.201025,0.000194,0.001498
195568,-0.062632,-0.010751,-0.02411,0.0,-0.0,-0.0,3.0,0.3261,0.345507,0.3261,0.304981,,,,,,,-0.065618,-0.015535,-0.03744,0.23921,0.000226,0.00157
195588,-0.05909,-0.01071,-0.024093,0.0,-0.0,-0.0,3.0,0.3261,0.338974,0.3261,0.312496,,,,,,,-0.062013,-0.015531,-0.037409,0.228268,0.00023,0.001581
195608,-0.056277,-0.010694,-0.024688,0.0,-0.0,-0.0,3.0,0.3261,0.332843,0.3261,0.319163,,,,,,,-0.058916,-0.015526,-0.037377,0.178771,0.000244,0.001543
195628,-0.054559,-0.010947,-0.025787,0.0,-0.0,-0.0,3.0,0.3261,0.326184,0.3261,0.326016,,,,,,,-0.056563,-0.015521,-0.037347,0.071038,0.000219,0.001443
195648,-0.053941,-0.011091,-0.026886,0.0,-0.0,-0.0,3.0,0.3261,0.319107,0.3261,0.332895,,,,,,,-0.055191,-0.015517,-0.037319,-0.015853,0.000204,0.001342
195668,-0.054419,-0.011371,-0.027992,0.0,-0.0,-0.0,3.0,0.3261,0.30734,0.3261,0.343498,,,,,,,-0.055001,-0.015513,-0.037293,-0.046635,0.000177,0.001229
195688,-0.055141,-0.011897,-0.028989,0.0,-0.0,-0.0,3.0,0.3261,0.300712,0.3261,0.34905,,,,,,,-0.055447,-0.015509,-0.037269,-0.052815,0.000148,0.001128
195708,-0.056107,-0.012301,-0.029857,0.0,-0.0,-0.0,3.0,0.3261,0.299598,0.3261,0.349956,,,,,,,-0.056197,-0.015507,-0.037247,-0.089272,0.000107,0.001027
195728,-0.056957,-0.012215,-0.030711,0.0,-0.0,-0.0,3.0,0.3261,0.304448,0.3261,0.345955,,,,,,,-0.056984,-0.015505,-0.037228,-0.099204,9.1e-05,0.000939
195748,-0.05732,-0.012361,-0.031331,0.0,-0.0,-0.0,3.0,0.3261,0.306556,0.3261,0.34417,,,,,,,-0.057728,-0.015504,-0.03721,-0.012559,6.4e-05,0.000851
195768,-0.057198,-0.012132,-0.031934,0.0,-0.0,-0.0,3.0,0.3261,0.306569,0.3261,0.344159,,,,,,,-0.058079,-0.015502,-0.037193,0.068361,7.5e-05,0.000789
195788,-0.05634,-0.01201,-0.032409,0.0,-0.0,-0.0,3.0,0.3261,0.30508,0.3261,0.345423,,,,,,,-0.058045,-0.015501,-0.037178,0.124583,9.8e-05,0.000739
195808,-0.054997,-0.011877,-0.032766,0.0,-0.0,-0.0,3.0,0.3261,0.31162,0.3261,0.339755,,,,,,,-0.057088,-0.015499,-0.037163,0.106879,0.000123,0.000702
195828,-0.053285,-0.011981,-0.033129,0.0,-0.0,-0.0,3.0,0.3261,0.315306,0.3261,0.33643,,,,,,,-0.055746,-0.015496,-0.037149,0.128264,0.000112,0.000676
195848,-0.051693,-0.01208,-0.033242,0.0,-0.0,-0.0,3.0,0.3261,0.317886,0.3261,0.334043,,,,,,,-0.053884,-0.015494,-0.037136,0.081758,0.000102,0.000663
195868,-0.04998,-0.012297,-0.033242,0.0,-0.0,-0.0,3.0,0.3261,0.324283,0.3261,0.327904,,,,,,,-0.051828,-0.015492,-0.037123,0.065469,8e-05,0.00065
195888,-0.048024,-0.012509,-0.033239,0.0,-0.0,-0.0,3.0,0.3261,0.330611,0.3261,0.321503,,,,,,,-0.049665,-0.015491,-0.03711,0.051803,3.4e-05,0.000649
195908,-0.046305,-0.012966,-0.033115,0.0,-0.0,-0.0,3.0,0.3261,0.33619,0.3261,0.315568,,,,,,,-0.047532,-0.01549,-0.037097,0.022506,-1.1e-05,0.000659
195928,-0.044717,-0.013179,-0.03287,0.0,-0.0,-0.0,3.0,0.3261,0.332573,0.3261,0.319448,,,,,,,-0.046058,-0.01549,-0.037083,0.063305,-3.2e-05,0.000671
195948,-0.043618,-0.013278,-0.032623,0.0,-0.0,-0.0,3.0,0.3261,0.32585,0.3261,0.32635,,,,,,,-0.044922,-0.01549,-0.037069,0.07729,-3e-05,0.000695
195968,-0.043012,-0.013141,-0.032374,0.0,-0.0,-0.0,3.0,0.3261,0.315834,0.3261,0.335945,,,,,,,-0.044379,-0.01549,-0.037055,0.087129,9e-06,0.000731
195988,-0.042652,-0.012883,-0.032001,0.0,-0.0,-0.0,3.0,0.3261,0.312325,0.3261,0.339127,,,,,,,-0.043864,-0.015489,-0.03704,0.039158,5.9e-05,0.000779
196008,-0.042781,-0.012631,-0.031508,0.0,-0.0,-0.0,3.0,0.3261,0.306619,0.3261,0.344116,,,,,,,-0.043845,-0.015488,-0.037025,-0.00713,9.6e-05,0.000815
196028,-0.043036,-0.012139,-0.031133,0.0,-0.0,-0.0,3.0,0.3261,0.308296,0.3261,0.342672,,,,,,,-0.043865,-0.015487,-0.037009,-0.025659,0.000132,0.000839
196048,-0.043405,-0.012134,-0.030646,0.0,-0.0,-0.0,3.0,0.3261,0.310904,0.3261,0.34039,,,,,,,-0.043886,-0.015485,-0.036992,-0.042967,0.000121,0.000873
196068,-0.043406,-0.012003,-0.030272,0.0,-0.0,-0.0,3.0,0.3261,0.31133,0.3261,0.340013,,,,,,,-0.043994,-0.015483,-0.036974,-0.0031,9.7e-05,0.000908
196088,-0.043164,-0.011994,-0.030027,0.0,-0.0,-0.0,3.0,0.3261,0.313523,0.3261,0.33805,,,,,,,-0.04389,-0.015482,-0.036955,0.020997,7.4e-05,0.000943
196108,-0.042311,-0.011976,-0.029779,0.0,-0.0,-0.0,3.0,0.3261,0.317891,0.3261,0.334038,,,,,,,-0.043576,-0.01548,-0.036936,0.05112,5e-05,0.000965
196128,-0.041703,-0.011963,-0.029533,0.0,-0.0,-0.0,3.0,0.3261,0.314625,0.3261,0.337052,,,,,,,-0.043193,-0.015478,-0.036916,0.089129,6.4e-05,0.000988
196148,-0.040971,-0.01195,-0.029407,0.0,-0.0,-0.0,3.0,0.3261,0.311454,0.3261,0.339903,,,,,,,-0.042663,-0.015476,-0.036896,0.101777,8.9e-05,0.001011
196168,-0.04012,-0.01181,-0.029157,0.0,-0.0,-0.0,3.0,0.3261,0.313685,0.3261,0.337905,,,,,,,-0.041816,-0.015474,-0.036876,0.01882,0.000127,0.001034
196188,-0.039514,-0.011555,-0.029027,0.0,-0.0,-0.0,3.0,0.3261,0.316278,0.3261,0.335536,,,,,,,-0.040985,-0.015471,-0.036855,0.000896,0.000164,0.001045
196208,-0.039029,-0.011421,-0.028779,0.0,-0.0,-0.0,3.0,0.3261,0.319826,0.3261,0.332215,,,,,,,-0.040016,-0.015467,-0.036834,-0.039712,0.000177,0.001056
196228,-0.038539,-0.011414,-0.028772,0.0,-0.0,-0.0,3.0,0.3261,0.321014,0.3261,0.331081,,,,,,,-0.039286,-0.015464,-0.036813,0.002313,0.000179,0.001079
196248,-0.037926,-0.011647,-0.028652,0.0,-0.0,-0.0,3.0,0.3261,0.323387,0.3261,0.328783,,,,,,,-0.038586,-0.01546,-0.036791,0.008538,0.000155,0.001077
196268,-0.037194,-0.011637,-0.028648,0.0,-0.0,-0.0,3.0,0.3261,0.324528,0.3261,0.327662,,,,,,,-0.038005,-0.015457,-0.03677,0.013844,0.000144,0.001075
196288,-0.036579,-0.011875,-0.028772,0.0,-0.0,-0.0,3.0,0.3261,0.322796,0.3261,0.32936,,,,,,,-0.037511,-0.015455,-0.036748,0.013358,0.00012,0.001072
196308,-0.036336,-0.011751,-0.028891,0.0,-0.0,-0.0,3.0,0.3261,0.316337,0.3261,0.335482,,,,,,,-0.037348,-0.015452,-0.036727,0.047438,0.000144,0.001059
196328,-0.035849,-0.011625,-0.029008,0.0,-0.0,-0.0,3.0,0.3261,0.317313,0.3261,0.334577,,,,,,,-0.036984,-0.015449,-0.036706,0.047399,0.000168,0.001033
196348,-0.03573,-0.011381,-0.029125,0.0,-0.0,-0.0,3.0,0.3261,0.313032,0.3261,0.338493,,,,,,,-0.036838,-0.015446,-0.036686,0.022279,0.00018,0.001019
196368,-0.035367,-0.011134,-0.029241,0.0,-0.0,-0.0,3.0,0.3261,0.314576,0.3261,0.337096,,,,,,,-0.036596,-0.015443,-0.036666,0.043674,0.00018,0.001005
196388,-0.035123,-0.01113,-0.02924,0.0,-0.0,-0.0,3.0,0.3261,0.312064,0.3261,0.33936,,,,,,,-0.036319,-0.015439,-0.036646,0.017256,0.00018,0.000991
196408,-0.034879,-0.011127,-0.029239,0.0,-0.0,-0.0,3.0,0.3261,0.312227,0.3261,0.339215,,,,,,,-0.036074,-0.015436,-0.036626,0.01727,0.000168,0.001001
196428,-0.03451,-0.011363,-0.02912,0.0,-0.0,-0.0,3.0,0.3261,0.314497,0.3261,0.337168,,,,,,,-0.035727,-0.015433,-0.036605,0.021043,0.000144,0.001011
196448,-0.034142,-0.01148,-0.02912,0.0,-0.0,-0.0,3.0,0.3261,0.315384,0.3261,0.336359,,,,,,,-0.035225,-0.015429,-0.036585,-0.001542,0.00012,0.00102
196468,-0.033651,-0.011715,-0.029,0.0,-0.0,-0.0,3.0,0.3261,0.317975,0.3261,0.33396,,,,,,,-0.034771,-0.015426,-0.036565,-0.016398,0.00012,0.001019
196488,-0.033161,-0.01183,-0.029,0.0,-0.0,-0.0,3.0,0.3261,0.320951,0.3261,0.331142,,,,,,,-0.03418,-0.015424,-0.036544,0.007916,0.000108,0.001017
196508,-0.032791,-0.012069,-0.029002,0.0,-0.0,-0.0,3.0,0.3261,0.320218,0.3261,0.331842,,,,,,,-0.033693,-0.015421,-0.036524,0.028802,0.000109,0.001015
196528,-0.032184,-0.011819,-0.029118,0.0,-0.0,-0.0,3.0,0.3261,0.317646,0.3261,0.334267,,,,,,,-0.033295,-0.015418,-0.036504,0.043306,0.000146,0.001014
196548,-0.031573,-0.01181,-0.029115,0.0,-0.0,-0.0,3.0,0.3261,0.317958,0.3261,0.333975,,,,,,,-0.032821,-0.015415,-0.036484,0.024235,0.000171,0.001012
196568,-0.031208,-0.011562,-0.029226,0.0,-0.0,-0.0,3.0,0.3261,0.319989,0.3261,0.33206,,,,,,,-0.032224,-0.015412,-0.036464,-0.014821,0.000171,0.000998
196588,-0.03109,-0.011316,-0.029221,0.0,-0.0,-0.0,3.0,0.3261,0.317367,0.3261,0.334527,,,,,,,-0.031959,-0.01541,-0.036444,0.002733,0.000171,0.000997
196608,-0.030723,-0.011312,-0.029342,0.0,-0.0,-0.0,3.0,0.3261,0.318952,0.3261,0.333041,,,,,,,-0.031595,-0.015406,-0.036424,0.003061,0.000183,0.000971
196628,-0.030601,-0.011311,-0.029341,0.0,-0.0,-0.0,3.0,0.3261,0.31983,0.3261,0.332211,,,,,,,-0.031241,-0.015403,-0.036405,-0.036016,0.00017,0.000957
196648,-0.030355,-0.011429,-0.029342,0.0,-0.0,-0.0,3.0,0.3261,0.319975,0.3261,0.332073,,,,,,,-0.031133,-0.0154,-0.036386,-0.011875,0.000134,0.000954
196668,-0.030108,-0.01155,-0.029465,0.0,-0.0,-0.0,3.0,0.3261,0.317014,0.3261,0.334855,,,,,,,-0.03111,-0.015398,-0.036367,0.067983,0.00011,0.00094
196688,-0.02986,-0.011792,-0.029589,0.0,-0.0,-0.0,3.0,0.3261,0.312304,0.3261,0.339146,,,,,,,-0.031076,-0.015395,-0.036348,0.083127,9.8e-05,0.000938
196708,-0.02949,-0.012031,-0.029591,0.0,-0.0,-0.0,3.0,0.3261,0.310733,0.3261,0.340542,,,,,,,-0.030934,-0.015393,-0.036329,0.059291,8.5e-05,0.000936
196728,-0.029245,-0.012029,-0.029712,0.0,-0.0,-0.0,3.0,0.3261,0.311619,0.3261,0.339757,,,,,,,-0.030707,-0.015391,-0.03631,0.020329,9.7e-05,0.000934
196748,-0.028882,-0.0119,-0.029586,0.0,-0.0,-0.0,3.0,0.3261,0.313148,0.3261,0.338389,,,,,,,-0.030329,-0.015389,-0.036291,-0.002753,0.000109,0.000933
196768,-0.028641,-0.011652,-0.029582,0.0,-0.0,-0.0,3.0,0.3261,0.316548,0.3261,0.335287,,,,,,,-0.029726,-0.015386,-0.036273,-0.02294,0.000134,0.000932
196788,-0.028519,-0.01165,-0.029581,0.0,-0.0,-0.0,3.0,0.3261,0.317167,0.3261,0.334713,,,,,,,-0.029225,-0.015383,-0.036254,-0.024977,0.000135,0.000918
196808,-0.02791,-0.011521,-0.029698,0.0,-0.0,-0.0,3.0,0.3261,0.32443,0.3261,0.327759,,,,,,,-0.028551,-0.015381,-0.036236,0.005756,0.000136,0.000916
196828,-0.027298,-0.011634,-0.029697,0.0,-0.0,-0.0,3.0,0.3261,0.328355,0.3261,0.323824,,,,,,,-0.027734,-0.015378,-0.036217,-0.008571,0.000136,0.000915
196848,-0.026442,-0.011744,-0.029695,0.0,-0.0,-0.0,3.0,0.3261,0.328002,0.3261,0.324184,,,,,,,-0.027272,-0.015375,-0.036199,0.037878,0.000125,0.000913
196868,-0.025708,-0.011855,-0.029693,0.0,-0.0,-0.0,3.0,0.3261,0.323505,0.3261,0.328668,,,,,,,-0.026882,-0.015372,-0.036181,0.075152,0.000126,0.000924
196888,-0.024975,-0.011844,-0.029689,0.0,-0.0,-0.0,3.0,0.3261,0.319189,0.3261,0.332818,,,,,,,-0.026477,-0.01537,-0.036163,0.110042,0.000126,0.000922
196908,-0.02461,-0.011838,-0.029565,0.0,-0.0,-0.0,3.0,0.3261,0.314554,0.3261,0.337117,,,,,,,-0.026071,-0.015367,-0.036144,0.061068,0.00015,0.000909
196928,-0.024124,-0.011708,-0.029561,0.0,-0.0,-0.0,3.0,0.3261,0.316406,0.3261,0.335418,,,,,,,-0.025582,-0.015365,-0.036126,0.01937,0.000151,0.000907
196948,-0.023882,-0.011462,-0.029679,0.0,-0.0,-0.0,3.0,0.3261,0.316703,0.3261,0.335143,,,,,,,-0.025077,-0.015363,-0.036108,0.016966,0.000139,0.000893
196968,-0.023636,-0.011582,-0.029801,0.0,-0.0,-0.0,3.0,0.3261,0.320361,0.3261,0.331705,,,,,,,-0.024486,-0.01536,-0.03609,0.000341,0.000115,0.000879
196988,-0.023145,-0.011698,-0.029922,0.0,-0.0,-0.0,3.0,0.3261,0.321097,0.3261,0.331001,,,,,,,-0.024136,-0.015358,-0.036072,0.0245,9.1e-05,0.000877
197008,-0.022532,-0.011813,-0.030043,0.0,-0.0,-0.0,3.0,0.3261,0.32233,0.3261,0.329812,,,,,,,-0.023667,-0.015356,-0.036055,0.007446,7.9e-05,0.000863
197028,-0.022162,-0.012053,-0.030166,0.0,-0.0,-0.0,3.0,0.3261,0.321629,0.3261,0.33049,,,,,,,-0.023315,-0.015354,-0.036037,0.030851,6.7e-05,0.000862
197048,-0.021916,-0.012171,-0.030166,0.0,-0.0,-0.0,3.0,0.3261,0.317664,0.3261,0.33425,,,,,,,-0.023021,-0.015352,-0.03602,0.042852,8e-05,0.00086
197068,-0.021546,-0.01241,-0.030166,0.0,-0.0,-0.0,3.0,0.3261,0.31539,0.3261,0.336353,,,,,,,-0.022746,-0.015349,-0.036003,0.037067,0.000104,0.000847
197088,-0.021183,-0.012162,-0.030284,0.0,-0.0,-0.0,3.0,0.3261,0.318047,0.3261,0.333893,,,,,,,-0.022274,-0.015347,-0.035986,-0.023223,0.000128,0.000845
197108,-0.02094,-0.012036,-0.030281,0.0,-0.0,-0.0,3.0,0.3261,0.32165,0.3261,0.330469,,,,,,,-0.021817,-0.015346,-0.03597,-0.03841,0.000129,0.000832
197128,-0.020701,-0.011667,-0.030398,0.0,-0.0,-0.0,3.0,0.3261,0.32252,0.3261,0.329628,,,,,,,-0.02145,-0.015344,-0.035953,0.003043,0.000129,0.000818
197148,-0.020455,-0.011786,-0.030398,0.0,-0.0,-0.0,3.0,0.3261,0.323451,0.3261,0.32872,,,,,,,-0.021097,-0.015342,-0.035937,0.00589,0.000117,0.000804
197168,-0.019965,-0.011779,-0.030512,0.0,-0.0,-0.0,3.0,0.3261,0.320824,0.3261,0.331263,,,,,,,-0.020955,-0.01534,-0.035921,0.044596,9.3e-05,0.000803
197188,-0.019475,-0.011894,-0.030511,0.0,-0.0,-0.0,3.0,0.3261,0.321523,0.3261,0.330592,,,,,,,-0.020604,-0.015338,-0.035905,0.048079,6.9e-05,0.000789
197208,-0.019228,-0.012013,-0.030633,0.0,-0.0,-0.0,3.0,0.3261,0.316644,0.3261,0.335198,,,,,,,-0.020443,-0.015336,-0.035889,0.041777,5.7e-05,0.000788
197228,-0.01886,-0.01213,-0.030632,0.0,-0.0,-0.0,3.0,0.3261,0.316991,0.3261,0.334876,,,,,,,-0.0202,-0.015334,-0.035873,0.041608,6.9e-05,0.000786
197248,-0.018492,-0.012246,-0.030631,0.0,-0.0,-0.0,3.0,0.3261,0.3192,0.3261,0.332808,,,,,,,-0.019718,-0.015333,-0.035857,0.021858,7e-05,0.000785
197268,-0.01825,-0.01212,-0.030629,0.0,-0.0,-0.0,3.0,0.3261,0.318258,0.3261,0.333694,,,,,,,-0.019336,-0.015331,-0.035842,-0.001975,8.2e-05,0.000784
197288,-0.017882,-0.012237,-0.030628,0.0,-0.0,-0.0,3.0,0.3261,0.320033,0.3261,0.332018,,,,,,,-0.018988,-0.015329,-0.035826,0.000934,9.5e-05,0.000782
197308,-0.01764,-0.012111,-0.030625,0.0,-0.0,-0.0,3.0,0.3261,0.322451,0.3261,0.329694,,,,,,,-0.018516,-0.015327,-0.03581,-0.017475,0.000107,0.000793
197328,-0.017397,-0.011985,-0.030623,0.0,-0.0,-0.0,3.0,0.3261,0.323031,0.3261,0.329131,,,,,,,-0.018154,-0.015325,-0.035795,-0.016786,0.000108,0.000792
197348,-0.017156,-0.011859,-0.030499,0.0,-0.0,-0.0,3.0,0.3261,0.321817,0.3261,0.330309,,,,,,,-0.017891,-0.015324,-0.035779,0.021434,0.000108,0.000803
197368,-0.01667,-0.011728,-0.030373,0.0,-0.0,-0.0,3.0,0.3261,0.326009,0.3261,0.326191,,,,,,,-0.017457,-0.015321,-0.035763,0.009657,0.000121,0.000802
197388,-0.016427,-0.011723,-0.03025,0.0,-0.0,-0.0,3.0,0.3261,0.324224,0.3261,0.327962,,,,,,,-0.017206,-0.015319,-0.035747,0.00866,0.000109,0.0008
197408,-0.016063,-0.011596,-0.030247,0.0,-0.0,-0.0,3.0,0.3261,0.322089,0.3261,0.330045,,,,,,,-0.017069,-0.015317,-0.035731,0.068521,0.000109,0.000799
197428,-0.015572,-0.011712,-0.030367,0.0,-0.0,-0.0,3.0,0.3261,0.317424,0.3261,0.334474,,,,,,,-0.016895,-0.015315,-0.035715,0.101161,0.00011,0.000797
197448,-0.015082,-0.011825,-0.030244,0.0,-0.0,-0.0,3.0,0.3261,0.315581,0.3261,0.336178,,,,,,,-0.016647,-0.015312,-0.035699,0.058923,0.000109,0.000796
197468,-0.014838,-0.011822,-0.030242,0.0,-0.0,-0.0,3.0,0.3261,0.317629,0.3261,0.334283,,,,,,,-0.016313,-0.01531,-0.035683,-0.019101,0.000121,0.000806
197488,-0.01484,-0.0117,-0.030242,0.0,-0.0,-0.0,3.0,0.3261,0.316522,0.3261,0.335311,,,,,,,-0.016023,-0.015308,-0.035667,0.014735,0.00011,0.000817
197508,-0.014965,-0.011579,-0.030119,0.0,-0.0,-0.0,3.0,0.3261,0.315302,0.3261,0.336433,,,,,,,-0.015755,-0.015305,-0.03565,-0.010853,0.000134,0.000828
197528,-0.014599,-0.011572,-0.029995,0.0,-0.0,-0.0,3.0,0.3261,0.322651,0.3261,0.329501,,,,,,,-0.015325,-0.015303,-0.035634,-0.042496,0.000134,0.000826
197548,-0.014479,-0.011448,-0.029994,0.0,-0.0,-0.0,3.0,0.3261,0.326892,0.3261,0.325306,,,,,,,-0.014887,-0.0153,-0.035617,-0.075771,0.000147,0.000825
197568,-0.014111,-0.011565,-0.029993,0.0,-0.0,-0.0,3.0,0.3261,0.32683,0.3261,0.325368,,,,,,,-0.01478,-0.015297,-0.035601,0.010108,0.000135,0.000836
197588,-0.013747,-0.011437,-0.02999,0.0,-0.0,-0.0,3.0,0.3261,0.325678,0.3261,0.326521,,,,,,,-0.014534,-0.015294,-0.035584,0.051214,0.000148,0.000822
197608,-0.013256,-0.011674,-0.029867,0.0,-0.0,-0.0,3.0,0.3261,0.324358,0.3261,0.32783,,,,,,,-0.014286,-0.015291,-0.035568,0.050911,0.000135,0.000821
197628,-0.012769,-0.011544,-0.029864,0.0,-0.0,-0.0,3.0,0.3261,0.318714,0.3261,0.333266,,,,,,,-0.014245,-0.015289,-0.035551,0.064316,0.000148,0.000819
197648,-0.012526,-0.011419,-0.029984,0.0,-0.0,-0.0,3.0,0.3261,0.31661,0.3261,0.335229,,,,,,,-0.013967,-0.015286,-0.035535,0.058113,0.00016,0.000818
197668,-0.01253,-0.011175,-0.029982,0.0,-0.0,-0.0,3.0,0.3261,0.313331,0.3261,0.338224,,,,,,,-0.013811,-0.015283,-0.035518,0.010755,0.000159,0.000816
197688,-0.012652,-0.011177,-0.029983,0.0,-0.0,-0.0,3.0,0.3261,0.318788,0.3261,0.333196,,,,,,,-0.013483,-0.01528,-0.035502,-0.04505,0.000159,0.000814
197708,-0.012774,-0.011179,-0.029983,0.0,-0.0,-0.0,3.0,0.3261,0.320152,0.3261,0.331904,,,,,,,-0.013367,-0.015277,-0.035486,-0.043516,0.000147,0.0008
197728,-0.012772,-0.011301,-0.029984,0.0,-0.0,-0.0,3.0,0.3261,0.320188,0.3261,0.331871,,,,,,,-0.013369,-0.015273,-0.03547,-0.022386,0.000147,0.000799
197748,-0.012648,-0.011421,-0.029984,0.0,-0.0,-0.0,3.0,0.3261,0.32342,0.3261,0.32875,,,,,,,-0.013298,-0.01527,-0.035454,-0.013452,0.000134,0.00081
197769,-0.012522,-0.011664,-0.030107,0.0,-0.0,-0.0,3.0,0.3261,0.321297,0.3261,0.330809,,,,,,,-0.01326,-0.015267,-0.035433,-0.019636,0.000122,0.000795
197788,-0.012397,-0.011906,-0.029986,0.0,-0.0,-0.0,3.0,0.3261,0.316156,0.3261,0.335649,,,,,,,-0.013486,-0.015264,-0.035421,0.039192,0.000134,0.000806
197808,-0.012155,-0.01178,-0.029984,0.0,-0.0,-0.0,3.0,0.3261,0.317156,0.3261,0.334723,,,,,,,-0.013361,-0.015262,-0.035405,0.03832,0.000146,0.000805
197829,-0.012034,-0.011656,-0.029983,0.0,-0.0,-0.0,3.0,0.3261,0.318748,0.3261,0.333234,,,,,,,-0.012999,-0.015259,-0.035385,0.018953,0.000122,0.000803
197848,-0.012034,-0.011656,-0.029983,0.0,-0.0,-0.0,3.0,0.3261,0.322339,0.3261,0.329803,,,,,,,-0.012796,-0.015257,-0.035373,-0.036422,0.000133,0.000789
197868,-0.012159,-0.011415,-0.030104,0.0,-0.0,-0.0,3.0,0.3261,0.319583,0.3261,0.332445,,,,,,,-0.012765,-0.015254,-0.035354,-0.0421,0.000145,0.000788
197888,-0.011915,-0.011412,-0.030224,0.0,-0.0,-0.0,3.0,0.3261,0.318325,0.3261,0.333632,,,,,,,-0.012866,-0.015253,-0.035342,0.03806,0.000121,0.000774
197908,-0.011793,-0.01141,-0.030224,0.0,-0.0,-0.0,3.0,0.3261,0.319677,0.3261,0.332356,,,,,,,-0.012775,-0.01525,-0.035326,0.023309,9.7e-05,0.000773
197928,-0.011666,-0.011653,-0.030347,0.0,-0.0,-0.0,3.0,0.3261,0.321903,0.3261,0.330225,,,,,,,-0.012659,-0.015247,-0.035307,0.023845,0.000121,0.000759
197949,-0.011664,-0.011775,-0.030347,0.0,-0.0,-0.0,3.0,0.3261,0.319597,0.3261,0.332432,,,,,,,-0.012652,-0.015245,-0.035292,0.022907,0.000108,0.000757
197968,-0.011416,-0.012015,-0.030347,0.0,-0.0,-0.0,3.0,0.3261,0.319589,0.3261,0.332439,,,,,,,-0.012529,-0.015243,-0.035276,0.044138,8.4e-05,0.000756
197988,-0.011416,-0.012015,-0.030347,0.0,-0.0,-0.0,3.0,0.3261,0.318226,0.3261,0.333725,,,,,,,-0.01238,-0.015241,-0.035265,-0.023053,9.6e-05,0.000754
198008,-0.011294,-0.012013,-0.030347,0.0,-0.0,-0.0,3.0,0.3261,0.323349,0.3261,0.32882,,,,,,,-0.012054,-0.015239,-0.03525,-0.016784,0.000121,0.000753
198028,-0.011418,-0.011893,-0.030347,0.0,-0.0,-0.0,3.0,0.3261,0.320204,0.3261,0.331855,,,,,,,-0.012033,-0.015237,-0.035235,-0.020563,0.00012,0.000764
198049,-0.011056,-0.011644,-0.030343,0.0,-0.0,-0.0,3.0,0.3261,0.319814,0.3261,0.332226,,,,,,,-0.011898,-0.015234,-0.035216,-0.001884,0.00012,0.00075
198069,-0.010934,-0.011642,-0.030343,0.0,-0.0,-0.0,3.0,0.3261,0.321095,0.3261,0.331003,,,,,,,-0.011668,-0.015232,-0.035201,-0.020222,0.00012,0.000748
198088,-0.010814,-0.011517,-0.030219,0.0,-0.0,-0.0,3.0,0.3261,0.321491,0.3261,0.330623,,,,,,,-0.011549,-0.01523,-0.035186,-0.020124,0.000133,0.000759
198108,-0.010688,-0.01176,-0.03022,0.0,-0.0,-0.0,3.0,0.3261,0.320239,0.3261,0.331822,,,,,,,-0.011543,-0.015227,-0.035171,0.000269,0.000108,0.000758
198128,-0.010447,-0.011512,-0.030339,0.0,-0.0,-0.0,3.0,0.3261,0.32228,0.3261,0.32986,,,,,,,-0.01145,-0.015226,-0.03516,0.047112,0.000108,0.000732
198148,-0.010323,-0.011633,-0.030339,0.0,-0.0,-0.0,3.0,0.3261,0.318176,0.3261,0.333771,,,,,,,-0.011416,-0.015224,-0.035145,0.062229,9.6e-05,0.000731
198168,-0.009955,-0.01175,-0.03046,0.0,-0.0,-0.0,3.0,0.3261,0.324479,0.3261,0.327711,,,,,,,-0.01098,-0.015221,-0.035127,0.029444,0.000109,0.000729
198189,-0.009587,-0.011866,-0.030459,0.0,-0.0,-0.0,3.0,0.3261,0.320989,0.3261,0.331105,,,,,,,-0.010948,-0.015219,-0.035112,0.086459,9.7e-05,0.000728
198208,-0.009342,-0.011863,-0.030579,0.0,-0.0,-0.0,3.0,0.3261,0.319119,0.3261,0.332884,,,,,,,-0.010682,-0.015216,-0.035097,0.082867,9.7e-05,0.000714
198228,-0.009342,-0.011863,-0.030579,0.0,-0.0,-0.0,3.0,0.3261,0.318208,0.3261,0.333741,,,,,,,-0.010435,-0.015214,-0.035083,0.040869,9.7e-05,0.000713
198248,-0.009098,-0.011859,-0.030456,0.0,-0.0,-0.0,3.0,0.3261,0.320431,0.3261,0.331639,,,,,,,-0.00995,-0.015212,-0.035069,-0.000262,9.7e-05,0.000724
198269,-0.008734,-0.011731,-0.030453,0.0,-0.0,-0.0,3.0,0.3261,0.319177,0.3261,0.332829,,,,,,,-0.009554,-0.01521,-0.035054,-0.005676,0.000109,0.000723
198288,-0.008368,-0.011726,-0.030451,0.0,-0.0,-0.0,3.0,0.3261,0.319743,0.3261,0.332293,,,,,,,-0.009175,-0.015208,-0.03504,-0.007875,0.00011,0.000721
198308,-0.007882,-0.011596,-0.030448,0.0,-0.0,-0.0,3.0,0.3261,0.326912,0.3261,0.325286,,,,,,,-0.008498,-0.015206,-0.035025,-0.040277,0.000122,0.00072
198328,-0.007514,-0.011712,-0.030325,0.0,-0.0,-0.0,3.0,0.3261,0.328962,0.3261,0.323203,,,,,,,-0.008047,-0.015203,-0.035011,-0.054522,0.000111,0.000731
198348,-0.007026,-0.011705,-0.030322,0.0,-0.0,-0.0,3.0,0.3261,0.328315,0.3261,0.323864,,,,,,,-0.007939,-0.015201,-0.034997,0.010317,0.000111,0.00073
198369,-0.006661,-0.011578,-0.030441,0.0,-0.0,-0.0,3.0,0.3261,0.327511,0.3261,0.324681,,,,,,,-0.007693,-0.015199,-0.034982,0.03047,0.000124,0.000717
198388,-0.006539,-0.011576,-0.030441,0.0,-0.0,-0.0,3.0,0.3261,0.321703,0.3261,0.330419,,,,,,,-0.007787,-0.015196,-0.034968,0.067312,0.000123,0.000715
198408,-0.006417,-0.011574,-0.03044,0.0,-0.0,-0.0,3.0,0.3261,0.318467,0.3261,0.333498,,,,,,,-0.007753,-0.015194,-0.034953,0.082177,0.000123,0.000714
198428,-0.006657,-0.011822,-0.030442,0.0,-0.0,-0.0,3.0,0.3261,0.313409,0.3261,0.338153,,,,,,,-0.007697,-0.015192,-0.034939,0.031673,9.8e-05,0.000712
198448,-0.006781,-0.011702,-0.030442,0.0,-0.0,-0.0,3.0,0.3261,0.316431,0.3261,0.335395,,,,,,,-0.007593,-0.01519,-0.034925,-0.007016,0.00011,0.000711
198468,-0.006779,-0.011824,-0.030565,0.0,-0.0,-0.0,3.0,0.3261,0.319493,0.3261,0.33253,,,,,,,-0.007354,-0.015188,-0.034911,-0.047316,9.8e-05,0.000697
198488,-0.006533,-0.011942,-0.030564,0.0,-0.0,-0.0,3.0,0.3261,0.321073,0.3261,0.331024,,,,,,,-0.007237,-0.015186,-0.034897,-0.025423,8.6e-05,0.000696
198508,-0.006288,-0.011939,-0.030563,0.0,-0.0,-0.0,3.0,0.3261,0.32574,0.3261,0.32646,,,,,,,-0.007048,-0.015184,-0.034883,-0.015917,8.6e-05,0.000695
198528,-0.006042,-0.012057,-0.030562,0.0,-0.0,-0.0,3.0,0.3261,0.329075,0.3261,0.323088,,,,,,,-0.006853,-0.015182,-0.034869,-0.007178,7.4e-05,0.000693
198548,-0.005923,-0.011933,-0.030438,0.0,-0.0,-0.0,3.0,0.3261,0.323245,0.3261,0.328922,,,,,,,-0.006936,-0.01518,-0.034855,0.027286,8.6e-05,0.000704
198568,-0.005558,-0.011805,-0.030558,0.0,-0.0,-0.0,3.0,0.3261,0.320819,0.3261,0.331268,,,,,,,-0.0069,-0.015178,-0.034841,0.083291,9.9e-05,0.000691
198588,-0.005562,-0.011561,-0.030557,0.0,-0.0,-0.0,3.0,0.3261,0.318841,0.3261,0.333146,,,,,,,-0.006636,-0.015176,-0.034827,0.037538,0.000123,0.00069
198608,-0.00556,-0.011683,-0.030558,0.0,-0.0,-0.0,3.0,0.3261,0.320841,0.3261,0.331246,,,,,,,-0.006406,-0.015175,-0.034814,-0.00123,0.000111,0.000688
198628,-0.005193,-0.011678,-0.030678,0.0,-0.0,-0.0,3.0,0.3261,0.323307,0.3261,0.328861,,,,,,,-0.006041,-0.015173,-0.0348,-0.000825,0.000111,0.000675
198648,-0.004945,-0.011919,-0.030677,0.0,-0.0,-0.0,3.0,0.3261,0.322835,0.3261,0.329321,,,,,,,-0.005781,-0.015171,-0.034786,-0.003006,8.7e-05,0.000674
198668,-0.004819,-0.012161,-0.030677,0.0,-0.0,-0.0,3.0,0.3261,0.323474,0.3261,0.328698,,,,,,,-0.005675,-0.01517,-0.034773,0.000401,6.2e-05,0.000672
198688,-0.004695,-0.012281,-0.030676,0.0,-0.0,-0.0,3.0,0.3261,0.32569,0.3261,0.32651,,,,,,,-0.005468,-0.015168,-0.034759,-0.013624,5e-05,0.000671
198708,-0.004571,-0.012401,-0.030676,0.0,-0.0,-0.0,3.0,0.3261,0.322074,0.3261,0.33006,,,,,,,-0.005573,-0.015166,-0.034746,0.02523,3.8e-05,0.00067
198728,-0.004577,-0.012035,-0.030675,0.0,-0.0,-0.0,3.0,0.3261,0.318153,0.3261,0.333793,,,,,,,-0.005661,-0.015164,-0.034732,0.039176,7.4e-05,0.000668
198748,-0.004577,-0.012035,-0.030675,0.0,-0.0,-0.0,3.0,0.3261,0.31884,0.3261,0.333148,,,,,,,-0.005524,-0.015163,-0.034719,0.015847,7.4e-05,0.000667
198768,-0.004705,-0.011671,-0.030675,0.0,-0.0,-0.0,3.0,0.3261,0.319844,0.3261,0.332198,,,,,,,-0.005416,-0.015161,-0.034706,-0.024154,0.00011,0.000666
198788,-0.004581,-0.011791,-0.030674,0.0,-0.0,-0.0,3.0,0.3261,0.324286,0.3261,0.3279,,,,,,,-0.005205,-0.01516,-0.034693,-0.038933,9.8e-05,0.000664
198808,-0.004214,-0.011786,-0.030794,0.0,-0.0,-0.0,3.0,0.3261,0.327233,0.3261,0.324962,,,,,,,-0.004978,-0.015158,-0.03468,-0.015113,9.9e-05,0.000651
198828,-0.004089,-0.011906,-0.030916,0.0,-0.0,-0.0,3.0,0.3261,0.32301,0.3261,0.329151,,,,,,,-0.005061,-0.015157,-0.034666,0.020133,8.7e-05,0.000638
198848,-0.003965,-0.012026,-0.030915,0.0,-0.0,-0.0,3.0,0.3261,0.324148,0.3261,0.328037,,,,,,,-0.004956,-0.015156,-0.034654,0.023437,7.4e-05,0.000636
198868,-0.003961,-0.01227,-0.030916,0.0,-0.0,-0.0,3.0,0.3261,0.322235,0.3261,0.329904,,,,,,,-0.004953,-0.015154,-0.034641,0.023605,5e-05,0.000635
198888,-0.003963,-0.012148,-0.031038,0.0,-0.0,-0.0,3.0,0.3261,0.321371,0.3261,0.330738,,,,,,,-0.004954,-0.015152,-0.034628,0.02361,6.2e-05,0.000622
198908,-0.003963,-0.012148,-0.031038,0.0,-0.0,-0.0,3.0,0.3261,0.318449,0.3261,0.333515,,,,,,,-0.004922,-0.015151,-0.034616,0.018026,6.2e-05,0.00062
198928,-0.003965,-0.012026,-0.030915,0.0,-0.0,-0.0,3.0,0.3261,0.318778,0.3261,0.333205,,,,,,,-0.004787,-0.015149,-0.034603,-0.005456,7.4e-05,0.000631
198948,-0.003966,-0.012026,-0.030793,0.0,-0.0,-0.0,3.0,0.3261,0.318971,0.3261,0.333024,,,,,,,-0.004789,-0.015147,-0.03459,-0.005237,7.4e-05,0.000642
198968,-0.003848,-0.01178,-0.030792,0.0,-0.0,-0.0,3.0,0.3261,0.324651,0.3261,0.32754,,,,,,,-0.004461,-0.015146,-0.034578,-0.040756,9.8e-05,0.000641
198988,-0.003848,-0.01178,-0.03067,0.0,-0.0,-0.0,3.0,0.3261,0.32377,0.3261,0.328408,,,,,,,-0.004473,-0.015144,-0.034565,-0.038811,9.8e-05,0.000652
199008,-0.003606,-0.011654,-0.030669,0.0,-0.0,-0.0,3.0,0.3261,0.325885,0.3261,0.326316,,,,,,,-0.004356,-0.015143,-0.034552,-0.017482,0.00011,0.000651
199028,-0.003482,-0.011774,-0.030668,0.0,-0.0,-0.0,3.0,0.3261,0.324434,0.3261,0.327755,,,,,,,-0.004351,-0.015141,-0.034539,0.002756,9.8e-05,0.00065
199048,-0.003482,-0.011774,-0.030668,0.0,-0.0,-0.0,3.0,0.3261,0.32603,0.3261,0.32617,,,,,,,-0.004249,-0.015139,-0.034526,-0.014593,9.8e-05,0.000648
199068,-0.003236,-0.011892,-0.030667,0.0,-0.0,-0.0,3.0,0.3261,0.326794,0.3261,0.325405,,,,,,,-0.004139,-0.015137,-0.034513,0.008614,8.6e-05,0.000647
199088,-0.002991,-0.011889,-0.030788,0.0,-0.0,-0.0,3.0,0.3261,0.323842,0.3261,0.328338,,,,,,,-0.004121,-0.015135,-0.0345,0.047136,8.6e-05,0.000634
199108,-0.002866,-0.012131,-0.030787,0.0,-0.0,-0.0,3.0,0.3261,0.320088,0.3261,0.331966,,,,,,,-0.004069,-0.015133,-0.034487,0.059601,6.2e-05,0.000633
199128,-0.002867,-0.012009,-0.030787,0.0,-0.0,-0.0,3.0,0.3261,0.320685,0.3261,0.331396,,,,,,,-0.003829,-0.015132,-0.034475,0.01842,7.4e-05,0.000631
199148,-0.00299,-0.012011,-0.030788,0.0,-0.0,-0.0,3.0,0.3261,0.320777,0.3261,0.331308,,,,,,,-0.003719,-0.01513,-0.034462,-0.021089,7.3e-05,0.00063
199168,-0.002747,-0.011885,-0.030786,0.0,-0.0,-0.0,3.0,0.3261,0.320867,0.3261,0.331222,,,,,,,-0.003583,-0.015129,-0.034449,-0.002964,8.6e-05,0.000629
199188,-0.002506,-0.011759,-0.030663,0.0,-0.0,-0.0,3.0,0.3261,0.321865,0.3261,0.330262,,,,,,,-0.003327,-0.015127,-0.034437,-0.005484,9.8e-05,0.00064
199208,-0.002261,-0.011756,-0.030783,0.0,-0.0,-0.0,3.0,0.3261,0.325418,0.3261,0.326781,,,,,,,-0.002981,-0.015125,-0.034424,-0.022671,9.8e-05,0.000627
199228,-0.002017,-0.011752,-0.030782,0.0,-0.0,-0.0,3.0,0.3261,0.329719,0.3261,0.322426,,,,,,,-0.002678,-0.015124,-0.034412,-0.032498,9.9e-05,0.000626
199248,-0.001648,-0.011868,-0.030902,0.0,-0.0,-0.0,3.0,0.3261,0.330708,0.3261,0.321403,,,,,,,-0.00245,-0.015122,-0.034399,-0.008552,8.7e-05,0.000612
199268,-0.001158,-0.011983,-0.030899,0.0,-0.0,-0.0,3.0,0.3261,0.327207,0.3261,0.324989,,,,,,,-0.002414,-0.01512,-0.034387,0.06864,7.5e-05,0.000611
199288,-0.000912,-0.012101,-0.030898,0.0,-0.0,-0.0,3.0,0.3261,0.322163,0.3261,0.329974,,,,,,,-0.002378,-0.015119,-0.034375,0.104258,6.3e-05,0.00061
199308,-0.001035,-0.012103,-0.030776,0.0,-0.0,-0.0,3.0,0.3261,0.321733,0.3261,0.330389,,,,,,,-0.002131,-0.015117,-0.034362,0.041406,6.3e-05,0.000621
199328,-0.000915,-0.011979,-0.030775,0.0,-0.0,-0.0,3.0,0.3261,0.321505,0.3261,0.330609,,,,,,,-0.001886,-0.015115,-0.03435,0.020074,7.5e-05,0.00062
199348,-0.000915,-0.011979,-0.030775,0.0,-0.0,-0.0,3.0,0.3261,0.320341,0.3261,0.331724,,,,,,,-0.00161,-0.015114,-0.034337,-0.02684,7.5e-05,0.000619
199368,-0.000673,-0.011853,-0.030652,0.0,-0.0,-0.0,3.0,0.3261,0.322944,0.3261,0.329215,,,,,,,-0.001373,-0.015112,-0.034325,-0.026044,8.7e-05,0.00063
199388,-0.000307,-0.011848,-0.03065,0.0,-0.0,-0.0,3.0,0.3261,0.32597,0.3261,0.326231,,,,,,,-0.001014,-0.015111,-0.034312,-0.024938,8.8e-05,0.000629
199408,-6.3e-05,-0.011844,-0.030648,0.0,-0.0,-0.0,3.0,0.3261,0.329711,0.3261,0.322434,,,,,,,-0.000697,-0.015109,-0.0343,-0.03722,8.8e-05,0.000628
199428,0.000428,-0.011958,-0.030767,0.0,-0.0,-0.0,3.0,0.3261,0.334153,0.3261,0.317768,,,,,,,-0.000396,-0.015107,-0.034288,-0.00473,7.6e-05,0.000615
199448,0.000796,-0.012075,-0.030765,0.0,-0.0,-0.0,3.0,0.3261,0.331819,0.3261,0.320242,,,,,,,-0.000267,-0.015106,-0.034275,0.035932,6.5e-05,0.000614
199468,0.00116,-0.011947,-0.030641,0.0,-0.0,-0.0,3.0,0.3261,0.322841,0.3261,0.329316,,,,,,,-0.000302,-0.015104,-0.034263,0.103594,7.7e-05,0.000625
199488,0.001282,-0.011945,-0.03064,0.0,-0.0,-0.0,3.0,0.3261,0.321435,0.3261,0.330676,,,,,,,-4e-05,-0.015103,-0.034251,0.079722,7.7e-05,0.000624
199508,0.001156,-0.011703,-0.030641,0.0,-0.0,-0.0,3.0,0.3261,0.319513,0.3261,0.332512,,,,,,,0.000222,-0.015101,-0.034238,0.013747,0.000101,0.000622
199528,0.00128,-0.011823,-0.03064,0.0,-0.0,-0.0,3.0,0.3261,0.324743,0.3261,0.32745,,,,,,,0.000812,-0.015099,-0.034226,-0.065561,8.9e-05,0.000621
199548,0.001524,-0.011819,-0.030639,0.0,-0.0,-0.0,3.0,0.3261,0.325793,0.3261,0.326407,,,,,,,0.001053,-0.015098,-0.034213,-0.065047,8.9e-05,0.00062
199568,0.002014,-0.011934,-0.030636,0.0,-0.0,-0.0,3.0,0.3261,0.329282,0.3261,0.322876,,,,,,,0.001288,-0.015096,-0.034201,-0.021551,7.8e-05,0.000619
199588,0.00226,-0.012052,-0.030634,0.0,-0.0,-0.0,3.0,0.3261,0.330978,0.3261,0.321121,,,,,,,0.0015,-0.015094,-0.034189,-0.01572,6.6e-05,0.000618
199608,0.002507,-0.012171,-0.030755,0.0,-0.0,-0.0,3.0,0.3261,0.33222,0.3261,0.319821,,,,,,,0.001566,-0.015093,-0.034176,0.015151,5.4e-05,0.000605
199628,0.002629,-0.012169,-0.030754,0.0,-0.0,-0.0,3.0,0.3261,0.326771,0.3261,0.325427,,,,,,,0.001483,-0.015092,-0.034164,0.049893,5.4e-05,0.000604
199648,0.002628,-0.012046,-0.030876,0.0,-0.0,-0.0,3.0,0.3261,0.319221,0.3261,0.332788,,,,,,,0.001187,-0.015091,-0.034153,0.100036,6.6e-05,0.00059
199668,0.002504,-0.011926,-0.030877,0.0,-0.0,-0.0,3.0,0.3261,0.319602,0.3261,0.332428,,,,,,,0.001324,-0.015089,-0.034141,0.055563,7.8e-05,0.000589
199688,0.00226,-0.01193,-0.030878,0.0,-0.0,-0.0,3.0,0.3261,0.321699,0.3261,0.330422,,,,,,,0.001553,-0.015088,-0.034129,-0.025,7.7e-05,0.000588
199708,0.002384,-0.01205,-0.030878,0.0,-0.0,-0.0,3.0,0.3261,0.32258,0.3261,0.32957,,,,,,,0.001688,-0.015087,-0.034117,-0.026823,6.5e-05,0.000587
199728,0.002506,-0.012048,-0.030877,0.0,-0.0,-0.0,3.0,0.3261,0.323951,0.3261,0.328231,,,,,,,0.001807,-0.015085,-0.034105,-0.026372,6.5e-05,0.000586
199748,0.002752,-0.012167,-0.030875,0.0,-0.0,-0.0,3.0,0.3261,0.328283,0.3261,0.323898,,,,,,,0.002014,-0.015084,-0.034094,-0.019576,5.3e-05,0.000584
199768,0.002751,-0.012167,-0.030753,0.0,-0.0,-0.0,3.0,0.3261,0.328633,0.3261,0.323541,,,,,,,0.002121,-0.015083,-0.034082,-0.037905,5.3e-05,0.000596
199788,0.003119,-0.012283,-0.030751,0.0,-0.0,-0.0,3.0,0.3261,0.32992,0.3261,0.322218,,,,,,,0.002224,-0.015082,-0.03407,0.007188,4.1e-05,0.000595
199808,0.00324,-0.012159,-0.030872,0.0,-0.0,-0.0,3.0,0.3261,0.327409,0.3261,0.324784,,,,,,,0.002229,-0.015081,-0.034059,0.026991,5.4e-05,0.000581
199828,0.003239,-0.012037,-0.030994,0.0,-0.0,-0.0,3.0,0.3261,0.326189,0.3261,0.326011,,,,,,,0.002246,-0.01508,-0.034047,0.023742,6.6e-05,0.000568
199848,0.003361,-0.012035,-0.030994,0.0,-0.0,-0.0,3.0,0.3261,0.324155,0.3261,0.32803,,,,,,,0.002268,-0.015079,-0.034036,0.040795,6.6e-05,0.000567
199868,0.003241,-0.012159,-0.030994,0.0,-0.0,-0.0,3.0,0.3261,0.32296,0.3261,0.3292,,,,,,,0.002272,-0.015078,-0.034024,0.019658,5.3e-05,0.000566
199888,0.003241,-0.012159,-0.030994,0.0,-0.0,-0.0,3.0,0.3261,0.323096,0.3261,0.329068,,,,,,,0.002284,-0.015077,-0.034013,0.017633,5.3e-05,0.000565
199908,0.003121,-0.012283,-0.030995,0.0,-0.0,-0.0,3.0,0.3261,0.321777,0.3261,0.330347,,,,,,,0.002289,-0.015075,-0.034001,-0.003696,4.1e-05,0.000563
199928,0.003119,-0.012161,-0.030995,0.0,-0.0,-0.0,3.0,0.3261,0.323282,0.3261,0.328886,,,,,,,0.002283,-0.015074,-0.03399,-0.002959,5.3e-05,0.000562
199948,0.002996,-0.012163,-0.030874,0.0,-0.0,-0.0,3.0,0.3261,0.323995,0.3261,0.328187,,,,,,,0.002419,-0.015073,-0.033979,-0.046985,5.2e-05,0.000573
199968,0.003118,-0.012161,-0.030873,0.0,-0.0,-0.0,3.0,0.3261,0.328861,0.3261,0.323307,,,,,,,0.002486,-0.015072,-0.033968,-0.037648,5.3e-05,0.000572
199988,0.003363,-0.012157,-0.030993,0.0,-0.0,-0.0,3.0,0.3261,0.332185,0.3261,0.319857,,,,,,,0.002697,-0.015071,-0.033956,-0.03175,5.3e-05,0.000559
200008,0.003487,-0.012277,-0.030992,0.0,-0.0,-0.0,3.0,0.3261,0.327128,0.3261,0.325068,,,,,,,0.002477,-0.01507,-0.033945,0.026683,4.1e-05,0.000558
200028,0.00373,-0.012151,-0.031113,0.0,-0.0,-0.0,3.0,0.3261,0.325779,0.3261,0.326421,,,,,,,0.002509,-0.015069,-0.033934,0.062629,5.3e-05,0.000545
200048,0.00361,-0.012275,-0.031114,0.0,-0.0,-0.0,3.0,0.3261,0.324329,0.3261,0.327858,,,,,,,0.002499,-0.015068,-0.033923,0.043873,4.1e-05,0.000544
200068,0.003486,-0.012155,-0.031115,0.0,-0.0,-0.0,3.0,0.3261,0.32318,0.3261,0.328985,,,,,,,0.002517,-0.015067,-0.033912,0.019717,5.3e-05,0.000542
200088,0.003365,-0.012279,-0.030993,0.0,-0.0,-0.0,3.0,0.3261,0.320594,0.3261,0.331483,,,,,,,0.00255,-0.015066,-0.033901,-0.006618,4e-05,0.000553
200108,0.003365,-0.012279,-0.030993,0.0,-0.0,-0.0,3.0,0.3261,0.319846,0.3261,0.332196,,,,,,,0.002442,-0.015066,-0.03389,0.011792,4e-05,0.000552
200128,0.003241,-0.012159,-0.030994,0.0,-0.0,-0.0,3.0,0.3261,0.32425,0.3261,0.327936,,,,,,,0.002665,-0.015065,-0.033879,-0.047175,5.2e-05,0.000551
200148,0.003119,-0.012161,-0.030995,0.0,-0.0,-0.0,3.0,0.3261,0.328308,0.3261,0.323872,,,,,,,0.002733,-0.015064,-0.033868,-0.079498,5.2e-05,0.00055
200168,0.003485,-0.012155,-0.030993,0.0,-0.0,-0.0,3.0,0.3261,0.330966,0.3261,0.321134,,,,,,,0.002699,-0.015063,-0.033857,-0.01133,5.2e-05,0.000549
200188,0.003607,-0.012153,-0.030992,0.0,-0.0,-0.0,3.0,0.3261,0.32672,0.3261,0.325479,,,,,,,0.002488,-0.015062,-0.033846,0.045204,5.2e-05,0.000548
200208,0.003485,-0.012155,-0.030993,0.0,-0.0,-0.0,3.0,0.3261,0.325347,0.3261,0.326851,,,,,,,0.002371,-0.01506,-0.033835,0.044447,5.2e-05,0.000547
200228,0.003483,-0.012033,-0.030993,0.0,-0.0,-0.0,3.0,0.3261,0.324057,0.3261,0.328127,,,,,,,0.002375,-0.015059,-0.033824,0.043367,6.4e-05,0.000546
200248,0.003241,-0.012159,-0.030994,0.0,-0.0,-0.0,3.0,0.3261,0.321118,0.3261,0.330981,,,,,,,0.002276,-0.015058,-0.033813,0.019054,5.1e-05,0.000545
200268,0.003239,-0.012037,-0.030994,0.0,-0.0,-0.0,3.0,0.3261,0.322501,0.3261,0.329646,,,,,,,0.002424,-0.015057,-0.033802,-0.006488,6.3e-05,0.000543
200288,0.003119,-0.012161,-0.030995,0.0,-0.0,-0.0,3.0,0.3261,0.321385,0.3261,0.330724,,,,,,,0.002439,-0.015056,-0.033792,-0.029582,5.1e-05,0.000542
200308,0.003117,-0.012039,-0.030995,0.0,-0.0,-0.0,3.0,0.3261,0.325743,0.3261,0.326457,,,,,,,0.002522,-0.015055,-0.033781,-0.044051,6.3e-05,0.000541
200328,0.003241,-0.012159,-0.030994,0.0,-0.0,-0.0,3.0,0.3261,0.330582,0.3261,0.321533,,,,,,,0.002725,-0.015054,-0.03377,-0.057407,5.1e-05,0.00054
200348,0.003243,-0.012281,-0.030994,0.0,-0.0,-0.0,3.0,0.3261,0.328713,0.3261,0.323459,,,,,,,0.002457,-0.015053,-0.033759,-0.011433,3.9e-05,0.000539
200368,0.003363,-0.012157,-0.030993,0.0,-0.0,-0.0,3.0,0.3261,0.327324,0.3261,0.32487,,,,,,,0.00235,-0.015051,-0.033748,0.027252,5.1e-05,0.000538
200388,0.003242,-0.012281,-0.030872,0.0,-0.0,-0.0,3.0,0.3261,0.322274,0.3261,0.329866,,,,,,,0.002023,-0.01505,-0.033737,0.062179,3.8e-05,0.000549
200408,0.002995,-0.012041,-0.030996,0.0,-0.0,-0.0,3.0,0.3261,0.321063,0.3261,0.331034,,,,,,,0.001919,-0.01505,-0.033726,0.037791,6.2e-05,0.000536
200428,0.00263,-0.012168,-0.030998,0.0,-0.0,-0.0,3.0,0.3261,0.32065,0.3261,0.331429,,,,,,,0.001926,-0.015049,-0.033716,-0.025401,4.9e-05,0.000534
200448,0.002506,-0.012048,-0.030999,0.0,-0.0,-0.0,3.0,0.3261,0.323695,0.3261,0.328482,,,,,,,0.001908,-0.015048,-0.033705,-0.043322,6.1e-05,0.000533
200468,0.002633,-0.01229,-0.03112,0.0,-0.0,-0.0,3.0,0.3261,0.32211,0.3261,0.330025,,,,,,,0.00183,-0.015047,-0.033694,-0.008632,3.7e-05,0.00052
200488,0.002511,-0.012292,-0.031121,0.0,-0.0,-0.0,3.0,0.3261,0.323812,0.3261,0.328367,,,,,,,0.00181,-0.015046,-0.033684,-0.025913,3.7e-05,0.000519
200508,0.002513,-0.012414,-0.03112,0.0,-0.0,-0.0,3.0,0.3261,0.329237,0.3261,0.322922,,,,,,,0.001862,-0.015045,-0.033673,-0.034348,2.5e-05,0.000518
200528,0.00251,-0.012292,-0.030999,0.0,-0.0,-0.0,3.0,0.3261,0.329444,0.3261,0.322709,,,,,,,0.001847,-0.015044,-0.033663,-0.032292,3.7e-05,0.000529
200548,0.002632,-0.01229,-0.030998,0.0,-0.0,-0.0,3.0,0.3261,0.3233,0.3261,0.328868,,,,,,,0.001534,-0.015043,-0.033653,0.041666,3.7e-05,0.000528
200568,0.00263,-0.012168,-0.030998,0.0,-0.0,-0.0,3.0,0.3261,0.323415,0.3261,0.328756,,,,,,,0.001549,-0.015043,-0.033642,0.038895,4.9e-05,0.000527
200588,0.002262,-0.012052,-0.031,0.0,-0.0,-0.0,3.0,0.3261,0.323323,0.3261,0.328846,,,,,,,0.001537,-0.015042,-0.033632,-0.021801,6e-05,0.000526
200608,0.002383,-0.011928,-0.031122,0.0,-0.0,-0.0,3.0,0.3261,0.325245,0.3261,0.326952,,,,,,,0.001521,-0.015041,-0.033621,0.001627,7.3e-05,0.000513
200628,0.002385,-0.01205,-0.031122,0.0,-0.0,-0.0,3.0,0.3261,0.322313,0.3261,0.329829,,,,,,,0.001436,-0.01504,-0.033611,0.016337,6e-05,0.000512
200648,0.002387,-0.012172,-0.031121,0.0,-0.0,-0.0,3.0,0.3261,0.321571,0.3261,0.330546,,,,,,,0.001325,-0.015039,-0.033601,0.035442,4.8e-05,0.000511
200668,0.002269,-0.012418,-0.031122,0.0,-0.0,-0.0,3.0,0.3261,0.323302,0.3261,0.328866,,,,,,,0.001432,-0.015038,-0.03359,-0.002834,2.3e-05,0.00051
200688,0.002024,-0.012422,-0.031002,0.0,-0.0,-0.0,3.0,0.3261,0.323257,0.3261,0.328911,,,,,,,0.001291,-0.015037,-0.03358,-0.020494,2.3e-05,0.000521
200708,0.002024,-0.012422,-0.031002,0.0,-0.0,-0.0,3.0,0.3261,0.325758,0.3261,0.326442,,,,,,,0.00141,-0.015036,-0.03357,-0.040754,2.3e-05,0.000519
200728,0.002019,-0.012178,-0.03088,0.0,-0.0,-0.0,3.0,0.3261,0.324052,0.3261,0.328131,,,,,,,0.001166,-0.015036,-0.033559,0.000117,4.7e-05,0.000531
200748,0.001895,-0.012058,-0.030881,0.0,-0.0,-0.0,3.0,0.3261,0.323151,0.3261,0.329014,,,,,,,0.001058,-0.015035,-0.033549,-0.002658,5.9e-05,0.000529
200768,0.001651,-0.012062,-0.030882,0.0,-0.0,-0.0,3.0,0.3261,0.325097,0.3261,0.327099,,,,,,,0.000906,-0.015034,-0.033538,-0.018313,5.9e-05,0.000528
200788,0.001528,-0.011941,-0.031005,0.0,-0.0,-0.0,3.0,0.3261,0.324259,0.3261,0.327928,,,,,,,0.000662,-0.015033,-0.033528,0.002224,7.1e-05,0.000515
200808,0.001284,-0.011945,-0.031006,0.0,-0.0,-0.0,3.0,0.3261,0.322537,0.3261,0.329612,,,,,,,0.000426,-0.015032,-0.033518,0.000873,7e-05,0.000514
200828,0.001161,-0.011947,-0.030885,0.0,-0.0,-0.0,3.0,0.3261,0.321615,0.3261,0.330503,,,,,,,0.000194,-0.015031,-0.033507,0.01935,7e-05,0.000525
200848,0.000921,-0.012195,-0.030886,0.0,-0.0,-0.0,3.0,0.3261,0.318821,0.3261,0.333165,,,,,,,-3e-06,-0.015029,-0.033497,0.011889,4.5e-05,0.000524
200868,0.000675,-0.012077,-0.030888,0.0,-0.0,-0.0,3.0,0.3261,0.321188,0.3261,0.330914,,,,,,,-2.5e-05,-0.015028,-0.033486,-0.02622,5.7e-05,0.000522
200888,0.000435,-0.012324,-0.030889,0.0,-0.0,-0.0,3.0,0.3261,0.323515,0.3261,0.328658,,,,,,,-5.5e-05,-0.015027,-0.033476,-0.061816,3.2e-05,0.000521
200908,0.000675,-0.012077,-0.030888,0.0,-0.0,-0.0,3.0,0.3261,0.326492,0.3261,0.325707,,,,,,,-7.9e-05,-0.015025,-0.033465,-0.016828,5.6e-05,0.00052
200928,0.000674,-0.012077,-0.030766,0.0,-0.0,-0.0,3.0,0.3261,0.323136,0.3261,0.329028,,,,,,,-0.000291,-0.015024,-0.033455,0.018981,5.6e-05,0.000532
200948,0.00055,-0.011956,-0.030767,0.0,-0.0,-0.0,3.0,0.3261,0.324871,0.3261,0.327324,,,,,,,-0.000446,-0.015023,-0.033444,0.024319,6.8e-05,0.00053
200968,0.000424,-0.011714,-0.030767,0.0,-0.0,-0.0,3.0,0.3261,0.325231,0.3261,0.326966,,,,,,,-0.000455,-0.015022,-0.033433,0.004585,9.2e-05,0.000529
200988,0.000182,-0.01184,-0.030769,0.0,-0.0,-0.0,3.0,0.3261,0.322095,0.3261,0.330039,,,,,,,-0.000679,-0.01502,-0.033423,0.001409,7.9e-05,0.000528
201008,0.00018,-0.011718,-0.030769,0.0,-0.0,-0.0,3.0,0.3261,0.31899,0.3261,0.333006,,,,,,,-0.000873,-0.015019,-0.033412,0.033932,9.2e-05,0.000527
201028,-6e-05,-0.011966,-0.03077,0.0,-0.0,-0.0,3.0,0.3261,0.31708,0.3261,0.334793,,,,,,,-0.000964,-0.015018,-0.033402,0.008489,6.7e-05,0.000526
201048,-0.000304,-0.01197,-0.030772,0.0,-0.0,-0.0,3.0,0.3261,0.322792,0.3261,0.329363,,,,,,,-0.000895,-0.015016,-0.033391,-0.04475,6.6e-05,0.000525
201068,-0.000302,-0.012092,-0.030772,0.0,-0.0,-0.0,3.0,0.3261,0.326463,0.3261,0.325737,,,,,,,-0.00081,-0.015015,-0.03338,-0.058828,5.4e-05,0.000524
201088,-0.000179,-0.012212,-0.030649,0.0,-0.0,-0.0,3.0,0.3261,0.32708,0.3261,0.325117,,,,,,,-0.000951,-0.015014,-0.03337,-0.013828,4.2e-05,0.000535
201108,-5.7e-05,-0.01221,-0.030648,0.0,-0.0,-0.0,3.0,0.3261,0.325718,0.3261,0.326482,,,,,,,-0.00106,-0.015012,-0.033359,0.025611,4.2e-05,0.000534
201128,-6.2e-05,-0.011966,-0.030526,0.0,-0.0,-0.0,3.0,0.3261,0.32348,0.3261,0.328693,,,,,,,-0.001163,-0.015011,-0.033348,0.042258,6.6e-05,0.000545
201148,-0.000187,-0.011724,-0.030527,0.0,-0.0,-0.0,3.0,0.3261,0.322277,0.3261,0.329864,,,,,,,-0.00116,-0.015009,-0.033338,0.020317,9e-05,0.000544
201168,-6.5e-05,-0.011722,-0.030648,0.0,-0.0,-0.0,3.0,0.3261,0.323377,0.3261,0.328793,,,,,,,-0.001036,-0.015008,-0.033327,0.020098,9e-05,0.000531
201188,5.8e-05,-0.01172,-0.03077,0.0,-0.0,-0.0,3.0,0.3261,0.324952,0.3261,0.327243,,,,,,,-0.000789,-0.015007,-0.033317,-0.000966,9e-05,0.000517
201208,0.000182,-0.01184,-0.030769,0.0,-0.0,-0.0,3.0,0.3261,0.32406,0.3261,0.328123,,,,,,,-0.000648,-0.015006,-0.033306,-0.003919,7.8e-05,0.000516
201228,0.000553,-0.012078,-0.030889,0.0,-0.0,-0.0,3.0,0.3261,0.328991,0.3261,0.323175,,,,,,,-0.000319,-0.015005,-0.033296,0.003201,5.4e-05,0.000503
201248,0.000435,-0.012324,-0.030889,0.0,-0.0,-0.0,3.0,0.3261,0.325937,0.3261,0.326263,,,,,,,-0.000315,-0.015004,-0.033286,-0.017678,2.9e-05,0.000502
201268,0.000679,-0.012321,-0.030888,0.0,-0.0,-0.0,3.0,0.3261,0.32819,0.3261,0.323992,,,,,,,-0.000215,-0.015002,-0.033275,0.006979,3e-05,0.000501
201288,0.000556,-0.012323,-0.030767,0.0,-0.0,-0.0,3.0,0.3261,0.319581,0.3261,0.332447,,,,,,,-0.000527,-0.015001,-0.033265,0.039001,2.9e-05,0.000513
201308,0.000431,-0.012203,-0.030645,0.0,-0.0,-0.0,3.0,0.3261,0.320789,0.3261,0.331297,,,,,,,-0.000654,-0.015,-0.033255,0.039504,4.1e-05,0.000524
201328,5.9e-05,-0.011842,-0.030648,0.0,-0.0,-0.0,3.0,0.3261,0.320003,0.3261,0.332047,,,,,,,-0.000638,-0.014999,-0.033244,-0.026553,7.7e-05,0.000522
201348,-6.5e-05,-0.011722,-0.030648,0.0,-0.0,-0.0,3.0,0.3261,0.323095,0.3261,0.329068,,,,,,,-0.00067,-0.014997,-0.033234,-0.042089,8.9e-05,0.000521
201368,5.6e-05,-0.011598,-0.030648,0.0,-0.0,-0.0,3.0,0.3261,0.326606,0.3261,0.325593,,,,,,,-0.000565,-0.014996,-0.033224,-0.03953,0.000101,0.00052
201388,0.000302,-0.011716,-0.030646,0.0,-0.0,-0.0,3.0,0.3261,0.324173,0.3261,0.328012,,,,,,,-0.000654,-0.014995,-0.033213,0.017428,8.9e-05,0.000519
201408,0.000426,-0.011836,-0.030767,0.0,-0.0,-0.0,3.0,0.3261,0.325762,0.3261,0.326438,,,,,,,-0.000549,-0.014994,-0.033203,0.020781,7.7e-05,0.000506
201428,0.000428,-0.011958,-0.030767,0.0,-0.0,-0.0,3.0,0.3261,0.326756,0.3261,0.325442,,,,,,,-0.000457,-0.014992,-0.033193,0.005441,6.5e-05,0.000505
201448,0.00031,-0.012204,-0.030768,0.0,-0.0,-0.0,3.0,0.3261,0.322355,0.3261,0.329787,,,,,,,-0.000679,-0.01499,-0.033182,0.023175,4e-05,0.000504
201468,0.000308,-0.012082,-0.030768,0.0,-0.0,-0.0,3.0,0.3261,0.320787,0.3261,0.331299,,,,,,,-0.000775,-0.014989,-0.033172,0.039104,5.2e-05,0.000503
201488,-5.7e-05,-0.01221,-0.030648,0.0,-0.0,-0.0,3.0,0.3261,0.317934,0.3261,0.333997,,,,,,,-0.000862,-0.014988,-0.033162,-0.008373,3.9e-05,0.000514
201508,-6.3e-05,-0.011844,-0.030648,0.0,-0.0,-0.0,3.0,0.3261,0.323952,0.3261,0.32823,,,,,,,-0.000795,-0.014986,-0.033152,-0.020482,7.6e-05,0.000513
201528,-6.5e-05,-0.011722,-0.030648,0.0,-0.0,-0.0,3.0,0.3261,0.32337,0.3261,0.3288,,,,,,,-0.000781,-0.014985,-0.033142,-0.023253,8.8e-05,0.000512
201548,5.6e-05,-0.011598,-0.030648,0.0,-0.0,-0.0,3.0,0.3261,0.325385,0.3261,0.326813,,,,,,,-0.000799,-0.014984,-0.033131,0.00035,0.0001,0.000511
201568,0.0003,-0.011594,-0.030646,0.0,-0.0,-0.0,3.0,0.3261,0.326113,0.3261,0.326087,,,,,,,-0.000676,-0.014982,-0.033121,0.020918,0.0001,0.00051
201588,0.00018,-0.011718,-0.030647,0.0,-0.0,-0.0,3.0,0.3261,0.32514,0.3261,0.327057,,,,,,,-0.000687,-0.01498,-0.033111,0.002347,8.8e-05,0.000509
201608,0.00018,-0.011718,-0.030647,0.0,-0.0,-0.0,3.0,0.3261,0.325497,0.3261,0.326702,,,,,,,-0.000688,-0.014979,-0.033101,0.002488,8.8e-05,0.000508
201628,6.1e-05,-0.011964,-0.030648,0.0,-0.0,-0.0,3.0,0.3261,0.322775,0.3261,0.32938,,,,,,,-0.000788,-0.014977,-0.033091,-0.000608,6.3e-05,0.000507
201648,6.1e-05,-0.011964,-0.030648,0.0,-0.0,-0.0,3.0,0.3261,0.322496,0.3261,0.329651,,,,,,,-0.000912,-0.014976,-0.03308,0.020447,6.3e-05,0.000506
201668,-5.9e-05,-0.012088,-0.030648,0.0,-0.0,-0.0,3.0,0.3261,0.321267,0.3261,0.330838,,,,,,,-0.001022,-0.014974,-0.03307,0.018607,5e-05,0.000505
201688,-6.1e-05,-0.011966,-0.030648,0.0,-0.0,-0.0,3.0,0.3261,0.32184,0.3261,0.330286,,,,,,,-0.001022,-0.014973,-0.03306,0.018399,6.2e-05,0.000504
201708,-0.000307,-0.011848,-0.03065,0.0,-0.0,-0.0,3.0,0.3261,0.323202,0.3261,0.328964,,,,,,,-0.001055,-0.014971,-0.03305,-0.017845,7.4e-05,0.000503
201728,-0.000311,-0.011603,-0.03065,0.0,-0.0,-0.0,3.0,0.3261,0.325462,0.3261,0.326737,,,,,,,-0.000935,-0.01497,-0.03304,-0.038857,9.8e-05,0.000502
201748,-0.000189,-0.011602,-0.030527,0.0,-0.0,-0.0,3.0,0.3261,0.321734,0.3261,0.330388,,,,,,,-0.001007,-0.014968,-0.03303,-0.005981,9.8e-05,0.000513
201768,5.4e-05,-0.011476,-0.030648,0.0,-0.0,-0.0,3.0,0.3261,0.323536,0.3261,0.328637,,,,,,,-0.000888,-0.014966,-0.03302,0.014958,0.00011,0.0005
201788,-0.000189,-0.011602,-0.030649,0.0,-0.0,-0.0,3.0,0.3261,0.326125,0.3261,0.326075,,,,,,,-0.000672,-0.014965,-0.03301,-0.062828,9.8e-05,0.000499
201808,-6.4e-05,-0.011722,-0.03077,0.0,-0.0,-0.0,3.0,0.3261,0.329221,0.3261,0.322939,,,,,,,-0.000722,-0.014963,-0.033,-0.03303,8.6e-05,0.000486
201828,6.4e-05,-0.012086,-0.03077,0.0,-0.0,-0.0,3.0,0.3261,0.326565,0.3261,0.325635,,,,,,,-0.000824,-0.014962,-0.03299,0.005923,4.9e-05,0.000485
201848,6.4e-05,-0.012086,-0.03077,0.0,-0.0,-0.0,3.0,0.3261,0.324866,0.3261,0.327328,,,,,,,-0.00107,-0.01496,-0.03298,0.047777,4.9e-05,0.000484
201868,6.6e-05,-0.012208,-0.03077,0.0,-0.0,-0.0,3.0,0.3261,0.323373,0.3261,0.328796,,,,,,,-0.001036,-0.014959,-0.032971,0.042336,3.7e-05,0.000483
201888,-5.9e-05,-0.012088,-0.030648,0.0,-0.0,-0.0,3.0,0.3261,0.321087,0.3261,0.331011,,,,,,,-0.001033,-0.014957,-0.032961,0.02061,4.8e-05,0.000494
201908,-6.1e-05,-0.011966,-0.030648,0.0,-0.0,-0.0,3.0,0.3261,0.320528,0.3261,0.331546,,,,,,,-0.001016,-0.014956,-0.032951,0.017412,6e-05,0.000493
201928,-0.000185,-0.011846,-0.030649,0.0,-0.0,-0.0,3.0,0.3261,0.320273,0.3261,0.33179,,,,,,,-0.000865,-0.014955,-0.032941,-0.029573,7.2e-05,0.000492
201948,-0.000185,-0.011846,-0.030649,0.0,-0.0,-0.0,3.0,0.3261,0.321627,0.3261,0.330492,,,,,,,-0.00088,-0.014954,-0.032932,-0.027004,7.2e-05,0.000491
201968,-6.2e-05,-0.011844,-0.03077,0.0,-0.0,-0.0,3.0,0.3261,0.327331,0.3261,0.324863,,,,,,,-0.000673,-0.014953,-0.032922,-0.04123,7.2e-05,0.000478
201988,-6e-05,-0.011966,-0.03077,0.0,-0.0,-0.0,3.0,0.3261,0.328111,0.3261,0.324073,,,,,,,-0.000689,-0.014952,-0.032912,-0.03814,6e-05,0.000477
202008,0.000188,-0.012206,-0.030769,0.0,-0.0,-0.0,3.0,0.3261,0.328436,0.3261,0.323741,,,,,,,-0.00084,-0.014951,-0.032903,0.0298,3.6e-05,0.000476
202028,0.000188,-0.012206,-0.030769,0.0,-0.0,-0.0,3.0,0.3261,0.324817,0.3261,0.327377,,,,,,,-0.000941,-0.01495,-0.032893,0.046903,3.6e-05,0.000475
202048,0.00019,-0.012328,-0.030769,0.0,-0.0,-0.0,3.0,0.3261,0.320656,0.3261,0.331424,,,,,,,-0.00115,-0.014949,-0.032884,0.082843,2.4e-05,0.000474
202068,-5.8e-05,-0.012088,-0.03077,0.0,-0.0,-0.0,3.0,0.3261,0.317265,0.3261,0.334622,,,,,,,-0.001102,-0.014948,-0.032874,0.032346,4.7e-05,0.000473
202088,-0.000302,-0.012092,-0.030772,0.0,-0.0,-0.0,3.0,0.3261,0.319064,0.3261,0.332937,,,,,,,-0.000995,-0.014947,-0.032865,-0.0274,4.7e-05,0.000472
202108,-0.000182,-0.011968,-0.030771,0.0,-0.0,-0.0,3.0,0.3261,0.323756,0.3261,0.328421,,,,,,,-0.000774,-0.014946,-0.032855,-0.044535,5.9e-05,0.000471
202128,-0.000182,-0.011968,-0.030771,0.0,-0.0,-0.0,3.0,0.3261,0.323594,0.3261,0.32858,,,,,,,-0.00076,-0.014945,-0.032846,-0.046838,5.9e-05,0.00047
202148,-6e-05,-0.011966,-0.03077,0.0,-0.0,-0.0,3.0,0.3261,0.327745,0.3261,0.324445,,,,,,,-0.000675,-0.014944,-0.032837,-0.040456,5.9e-05,0.000469
202168,-5.8e-05,-0.012088,-0.03077,0.0,-0.0,-0.0,3.0,0.3261,0.329552,0.3261,0.322598,,,,,,,-0.000722,-0.014943,-0.032827,-0.03214,4.7e-05,0.000468
202188,6.6e-05,-0.012208,-0.03077,0.0,-0.0,-0.0,3.0,0.3261,0.327871,0.3261,0.324316,,,,,,,-0.000841,-0.014942,-0.032818,0.009227,3.5e-05,0.000468
202208,6.6e-05,-0.012208,-0.03077,0.0,-0.0,-0.0,3.0,0.3261,0.322933,0.3261,0.329226,,,,,,,-0.001046,-0.014942,-0.032809,0.044056,3.5e-05,0.000467
202228,6.4e-05,-0.012086,-0.03077,0.0,-0.0,-0.0,3.0,0.3261,0.321777,0.3261,0.330347,,,,,,,-0.001154,-0.01494,-0.032799,0.061992,4.7e-05,0.000466
202248,-0.000181,-0.011968,-0.030893,0.0,-0.0,-0.0,3.0,0.3261,0.319125,0.3261,0.332879,,,,,,,-0.001117,-0.01494,-0.03279,0.01391,5.9e-05,0.000452
202268,-0.000302,-0.012092,-0.030894,0.0,-0.0,-0.0,3.0,0.3261,0.322381,0.3261,0.329763,,,,,,,-0.001031,-0.014938,-0.032781,-0.021087,4.6e-05,0.000451
202288,-0.000302,-0.012092,-0.030772,0.0,-0.0,-0.0,3.0,0.3261,0.321912,0.3261,0.330217,,,,,,,-0.001015,-0.014938,-0.032772,-0.023936,4.6e-05,0.000463
202308,-0.000302,-0.012092,-0.030772,0.0,-0.0,-0.0,3.0,0.3261,0.3225,0.3261,0.329647,,,,,,,-0.001017,-0.014937,-0.032762,-0.023512,4.6e-05,0.000462
202328,-6e-05,-0.011966,-0.03077,0.0,-0.0,-0.0,3.0,0.3261,0.324699,0.3261,0.327493,,,,,,,-0.000899,-0.014936,-0.032753,-0.002509,5.8e-05,0.000461
202348,-0.000182,-0.011968,-0.030771,0.0,-0.0,-0.0,3.0,0.3261,0.32579,0.3261,0.32641,,,,,,,-0.000794,-0.014934,-0.032744,-0.041029,5.8e-05,0.00046
202368,6.2e-05,-0.011964,-0.03077,0.0,-0.0,-0.0,3.0,0.3261,0.328794,0.3261,0.323376,,,,,,,-0.000707,-0.014933,-0.032735,-0.014229,5.8e-05,0.000459
202388,0.000185,-0.011962,-0.030891,0.0,-0.0,-0.0,3.0,0.3261,0.327463,0.3261,0.324729,,,,,,,-0.000704,-0.014932,-0.032726,0.006191,5.8e-05,0.000446
202408,0.000307,-0.01196,-0.03089,0.0,-0.0,-0.0,3.0,0.3261,0.324992,0.3261,0.327203,,,,,,,-0.000808,-0.014931,-0.032717,0.044562,5.9e-05,0.000445
202428,0.000307,-0.01196,-0.03089,0.0,-0.0,-0.0,3.0,0.3261,0.323415,0.3261,0.328756,,,,,,,-0.00079,-0.01493,-0.032708,0.041464,5.8e-05,0.000444
202448,0.000185,-0.011962,-0.030891,0.0,-0.0,-0.0,3.0,0.3261,0.321226,0.3261,0.330877,,,,,,,-0.000906,-0.014929,-0.032699,0.04041,5.8e-05,0.000444
202468,6.5e-05,-0.012086,-0.030892,0.0,-0.0,-0.0,3.0,0.3261,0.322416,0.3261,0.329729,,,,,,,-0.000786,-0.014928,-0.03269,-0.000365,4.6e-05,0.000443
202488,6.4e-05,-0.012086,-0.03077,0.0,-0.0,-0.0,3.0,0.3261,0.318955,0.3261,0.333039,,,,,,,-0.000872,-0.014927,-0.032681,0.014099,4.5e-05,0.000454
202508,-6e-05,-0.011966,-0.03077,0.0,-0.0,-0.0,3.0,0.3261,0.320234,0.3261,0.331826,,,,,,,-0.00074,-0.014926,-0.032672,-0.029648,5.7e-05,0.000453
202528,-6.2e-05,-0.011844,-0.03077,0.0,-0.0,-0.0,3.0,0.3261,0.323715,0.3261,0.328462,,,,,,,-0.000639,-0.014925,-0.032663,-0.047085,7e-05,0.000452
202548,6e-05,-0.011842,-0.03077,0.0,-0.0,-0.0,3.0,0.3261,0.329908,0.3261,0.322232,,,,,,,-0.000466,-0.014923,-0.032654,-0.055661,7e-05,0.000451
202568,0.000307,-0.01196,-0.03089,0.0,-0.0,-0.0,3.0,0.3261,0.331591,0.3261,0.320481,,,,,,,-0.000361,-0.014922,-0.032645,-0.031412,5.8e-05,0.000438
202588,0.000551,-0.011956,-0.030889,0.0,-0.0,-0.0,3.0,0.3261,0.329473,0.3261,0.322679,,,,,,,-0.00048,-0.014921,-0.032637,0.030398,5.8e-05,0.000437
202608,0.000676,-0.012077,-0.03101,0.0,-0.0,-0.0,3.0,0.3261,0.325732,0.3261,0.326467,,,,,,,-0.000579,-0.01492,-0.032628,0.068456,4.6e-05,0.000424
202628,0.000673,-0.011955,-0.030888,0.0,-0.0,-0.0,3.0,0.3261,0.322026,0.3261,0.330106,,,,,,,-0.000541,-0.014919,-0.032619,0.061446,5.8e-05,0.000436
202648,0.000555,-0.012201,-0.030889,0.0,-0.0,-0.0,3.0,0.3261,0.320987,0.3261,0.331107,,,,,,,-0.0004,-0.014918,-0.032611,0.017179,3.3e-05,0.000435
202668,0.000553,-0.012078,-0.030889,0.0,-0.0,-0.0,3.0,0.3261,0.320779,0.3261,0.331306,,,,,,,-0.000264,-0.014917,-0.032602,-0.006276,4.5e-05,0.000434
202688,0.000555,-0.012201,-0.031011,0.0,-0.0,-0.0,3.0,0.3261,0.323192,0.3261,0.328974,,,,,,,-2.2e-05,-0.014916,-0.032593,-0.047044,3.3e-05,0.000421
202708,0.000676,-0.012077,-0.03101,0.0,-0.0,-0.0,3.0,0.3261,0.326732,0.3261,0.325466,,,,,,,0.0002,-0.014915,-0.032585,-0.064238,4.5e-05,0.00042
202728,0.000798,-0.012075,-0.031009,0.0,-0.0,-0.0,3.0,0.3261,0.329446,0.3261,0.322707,,,,,,,0.000287,-0.014915,-0.032576,-0.058178,4.5e-05,0.000419
202748,0.001044,-0.012193,-0.031008,0.0,-0.0,-0.0,3.0,0.3261,0.330551,0.3261,0.321566,,,,,,,0.000256,-0.014914,-0.032568,-0.010997,3.4e-05,0.000419
202768,0.001166,-0.012191,-0.031007,0.0,-0.0,-0.0,3.0,0.3261,0.328059,0.3261,0.324126,,,,,,,0.000136,-0.014913,-0.03256,0.030224,3.4e-05,0.000418
202788,0.001166,-0.012191,-0.031007,0.0,-0.0,-0.0,3.0,0.3261,0.323756,0.3261,0.328422,,,,,,,-7e-05,-0.014912,-0.032551,0.065158,3.4e-05,0.000417
202808,0.00092,-0.012073,-0.031009,0.0,-0.0,-0.0,3.0,0.3261,0.318413,0.3261,0.333548,,,,,,,-0.000275,-0.014911,-0.032543,0.058112,4.5e-05,0.000416
202828,0.000673,-0.011955,-0.030888,0.0,-0.0,-0.0,3.0,0.3261,0.319372,0.3261,0.332645,,,,,,,-0.000274,-0.01491,-0.032534,0.015966,5.7e-05,0.000427
202848,0.000553,-0.012078,-0.030889,0.0,-0.0,-0.0,3.0,0.3261,0.320749,0.3261,0.331335,,,,,,,-0.00014,-0.014909,-0.032526,-0.027426,4.5e-05,0.000426
202868,0.000677,-0.012199,-0.03101,0.0,-0.0,-0.0,3.0,0.3261,0.322884,0.3261,0.329274,,,,,,,-2.1e-05,-0.014909,-0.032517,-0.026319,3.2e-05,0.000413
202888,0.000798,-0.012075,-0.031009,0.0,-0.0,-0.0,3.0,0.3261,0.325742,0.3261,0.326458,,,,,,,7.8e-05,-0.014908,-0.032509,-0.022739,4.5e-05,0.000413
202908,0.000797,-0.012075,-0.030887,0.0,-0.0,-0.0,3.0,0.3261,0.32808,0.3261,0.324104,,,,,,,0.000166,-0.014907,-0.032501,-0.037847,4.5e-05,0.000424
202928,0.001043,-0.012193,-0.030886,0.0,-0.0,-0.0,3.0,0.3261,0.330184,0.3261,0.321946,,,,,,,0.000253,-0.014906,-0.032492,-0.010736,3.3e-05,0.000423
202948,0.001163,-0.012069,-0.030885,0.0,-0.0,-0.0,3.0,0.3261,0.327323,0.3261,0.324871,,,,,,,0.000151,-0.014905,-0.032484,0.027045,4.5e-05,0.000423
202968,0.001161,-0.011947,-0.030885,0.0,-0.0,-0.0,3.0,0.3261,0.325029,0.3261,0.327167,,,,,,,0.000185,-0.014904,-0.032476,0.020975,5.7e-05,0.000422
202988,0.001039,-0.011949,-0.030886,0.0,-0.0,-0.0,3.0,0.3261,0.322708,0.3261,0.329445,,,,,,,6.9e-05,-0.014903,-0.032467,0.019893,5.7e-05,0.000421
203008,0.001039,-0.011949,-0.030886,0.0,-0.0,-0.0,3.0,0.3261,0.324059,0.3261,0.328124,,,,,,,0.000191,-0.014902,-0.032459,-0.000794,5.7e-05,0.00042
203028,0.000921,-0.012195,-0.030886,0.0,-0.0,-0.0,3.0,0.3261,0.321642,0.3261,0.330477,,,,,,,9e-05,-0.014901,-0.03245,-0.003793,3.2e-05,0.000419
203048,0.000921,-0.012195,-0.030886,0.0,-0.0,-0.0,3.0,0.3261,0.322797,0.3261,0.329359,,,,,,,8.5e-05,-0.014901,-0.032442,-0.002996,3.2e-05,0.000418
203068,0.000677,-0.012199,-0.030888,0.0,-0.0,-0.0,3.0,0.3261,0.320654,0.3261,0.331425,,,,,,,-1.8e-05,-0.0149,-0.032433,-0.027081,3.2e-05,0.000417
203088,0.000799,-0.012197,-0.030887,0.0,-0.0,-0.0,3.0,0.3261,0.325719,0.3261,0.326481,,,,,,,6.4e-05,-0.014899,-0.032425,-0.020088,3.2e-05,0.000416
203108,0.000798,-0.012197,-0.030765,0.0,-0.0,-0.0,3.0,0.3261,0.325386,0.3261,0.326813,,,,,,,6.4e-05,-0.014898,-0.032417,-0.020172,3.2e-05,0.000428
203128,0.000921,-0.012195,-0.030886,0.0,-0.0,-0.0,3.0,0.3261,0.328134,0.3261,0.324049,,,,,,,0.000166,-0.014898,-0.032409,-0.01669,3.2e-05,0.000415
203148,0.001041,-0.012071,-0.030886,0.0,-0.0,-0.0,3.0,0.3261,0.327796,0.3261,0.324392,,,,,,,0.000153,-0.014897,-0.0324,0.00601,4.4e-05,0.000414
203168,0.001044,-0.012193,-0.031008,0.0,-0.0,-0.0,3.0,0.3261,0.325403,0.3261,0.326796,,,,,,,5.1e-05,-0.014896,-0.032392,0.023735,3.2e-05,0.000401
203188,0.00092,-0.012073,-0.031131,0.0,-0.0,-0.0,3.0,0.3261,0.324167,0.3261,0.328018,,,,,,,-6.7e-05,-0.014896,-0.032384,0.022831,4.4e-05,0.000388
203208,0.000802,-0.012319,-0.031131,0.0,-0.0,-0.0,3.0,0.3261,0.322757,0.3261,0.329398,,,,,,,-0.000184,-0.014895,-0.032376,0.022725,1.9e-05,0.000387
203228,0.000558,-0.012323,-0.031133,0.0,-0.0,-0.0,3.0,0.3261,0.319024,0.3261,0.332974,,,,,,,-0.000392,-0.014895,-0.032368,0.016423,1.9e-05,0.000386
203248,0.000436,-0.012324,-0.031133,0.0,-0.0,-0.0,3.0,0.3261,0.318549,0.3261,0.333421,,,,,,,-0.000483,-0.014895,-0.032361,0.0112,1.8e-05,0.000385
203268,7.3e-05,-0.012452,-0.031258,0.0,-0.0,-0.0,3.0,0.3261,0.321048,0.3261,0.331048,,,,,,,-0.000504,-0.014894,-0.032353,-0.047129,6e-06,0.000372
203288,0.000195,-0.01245,-0.031257,0.0,-0.0,-0.0,3.0,0.3261,0.326449,0.3261,0.325751,,,,,,,-0.000423,-0.014894,-0.032346,-0.040159,6e-06,0.000372
203308,7.4e-05,-0.012574,-0.031258,0.0,-0.0,-0.0,3.0,0.3261,0.32686,0.3261,0.325338,,,,,,,-0.000437,-0.014894,-0.032338,-0.058128,-7e-06,0.000371
203328,0.000317,-0.012448,-0.031256,0.0,-0.0,-0.0,3.0,0.3261,0.325927,0.3261,0.326273,,,,,,,-0.00068,-0.014894,-0.032331,0.024523,6e-06,0.00037
203348,0.000315,-0.012326,-0.031256,0.0,-0.0,-0.0,3.0,0.3261,0.326636,0.3261,0.325563,,,,,,,-0.000696,-0.014893,-0.032323,0.026843,1.8e-05,0.000369
203368,6.8e-05,-0.012208,-0.031136,0.0,-0.0,-0.0,3.0,0.3261,0.321749,0.3261,0.330374,,,,,,,-0.001039,-0.014893,-0.032316,0.043185,3e-05,0.000381
203388,-0.000174,-0.012334,-0.031137,0.0,-0.0,-0.0,3.0,0.3261,0.318228,0.3261,0.333723,,,,,,,-0.001245,-0.014893,-0.032308,0.037076,1.7e-05,0.00038
203408,-0.000663,-0.012342,-0.03114,0.0,-0.0,-0.0,3.0,0.3261,0.31626,0.3261,0.335553,,,,,,,-0.001469,-0.014893,-0.032301,-0.008009,1.7e-05,0.000379
