time_ms,roll,pitch,yaw,reference_roll,reference_pitch,reference_yaw,reference_throttle,throttle_1,throttle_2,throttle_3,throttle_4,roll_predicted,pitch_predicted,yaw_predicted,roll_rate_predicted,pitch_rate_predicted,yaw_rate_predicted,value1,value2,value3,value4,value5,value6
70326,0.001083,-0.00388,-0.544587,-0.0,-0.0,-0.0,3.0,0.337758,0.314921,0.313847,0.336782,-0.0,-0.0,-0.0,-0.0,-0.0,-0.0,-0.007106,-0.001554,-0.404952,-0.001985,-8.1e-05,-0.00815
70346,0.000815,-0.003828,-0.544588,-0.0,-0.0,-0.0,3.0,0.337108,0.314777,0.314563,0.336913,-0.0,-0.0,-0.0,0.0,-0.0,-0.0,-0.007146,-0.001556,-0.405115,-0.002601,-9.6e-05,-0.008134
70366,0.000933,-0.003795,-0.544587,0.000968,-0.0,-0.0,3.0,0.335254,0.314491,0.316584,0.337174,3e-06,-0.0,-0.0,0.001116,-0.0,-0.0,-0.0072,-0.001558,-0.405277,-0.002758,-7.2e-05,-0.008118
70386,0.000848,-0.003946,-0.544688,0.002794,-0.0,-0.0,3.0,0.335042,0.314096,0.316812,0.337532,4.2e-05,-0.0,-0.0,0.004404,-0.0,-0.0,-0.007227,-0.001559,-0.40544,-0.002387,-7.2e-05,-0.008101
70406,0.000881,-0.004063,-0.544782,0.004112,-0.0,-0.0,3.0,0.33389,0.313529,0.31805,0.338045,0.000156,-0.0,-0.0,0.00803,0.0,-0.0,-0.007282,-0.001561,-0.405602,-0.002786,-8.7e-05,-0.008095
70426,0.000849,-0.003946,-0.544782,0.006934,-0.0,-0.0,3.0,0.337593,0.31262,0.321417,0.338847,0.000339,-0.0,-0.0,0.012397,0.0,-0.0,-0.007338,-0.001564,-0.405764,-0.002474,-7.5e-05,-0.008088
70446,0.000849,-0.003946,-0.544782,0.007974,-0.0,-0.0,3.0,0.331318,0.312324,0.320766,0.339128,0.000619,-0.0,-0.0,0.0163,-0.0,-0.0,-0.00739,-0.001566,-0.405925,-0.000858,-9.8e-05,-0.008082
70466,0.000901,-0.003678,-0.544882,0.009192,-0.0,-0.0,3.0,0.331092,0.312081,0.321002,0.339345,0.000957,-0.0,-0.0,0.018063,-0.0,-0.0,-0.007414,-0.001569,-0.406087,0.001526,-0.000106,-0.008076
70486,0.001018,-0.003645,-0.544983,0.011769,-0.0,-0.0,3.0,0.333845,0.311356,0.318097,0.33999,0.001332,-0.0,-0.0,0.021403,0.0,-0.0,-0.007407,-0.001571,-0.406248,-0.000181,-0.000109,-0.00807
70506,0.000967,-0.003913,-0.545278,0.013601,-0.0,-0.0,3.0,0.336614,0.310713,0.315104,0.340559,0.00179,-0.0,-0.0,0.02579,-0.0,-0.0,-0.007411,-0.001573,-0.40641,-0.000374,-0.000147,-0.008073
70526,0.001203,-0.003847,-0.545478,0.015394,-0.0,-0.0,3.0,0.336747,0.31022,0.314959,0.340994,0.002328,-0.0,-0.0,0.029021,-0.0,-0.0,-0.00742,-0.001576,-0.406571,0.006171,-0.000134,-0.008077
70546,0.001471,-0.003898,-0.545773,0.017202,-0.0,-0.0,3.0,0.337724,0.309716,0.313884,0.341436,0.002925,-0.0,-0.0,0.03185,-0.0,-0.0,-0.00737,-0.001578,-0.406732,0.00505,-0.000122,-0.008091
70566,0.001505,-0.004016,-0.545974,0.018996,-0.0,-0.0,3.0,0.33812,0.309129,0.313447,0.341949,0.00358,-0.0,-0.0,0.034696,0.0,-0.0,-0.007308,-0.00158,-0.406894,0.002607,-0.000125,-0.008095
70586,0.001505,-0.004016,-0.546269,0.02018,-0.0,-0.0,3.0,0.338545,0.308712,0.312975,0.342312,0.004289,-0.0,-0.0,0.036796,-0.0,-0.0,-0.007245,-0.001582,-0.407056,0.000588,-0.00014,-0.008098
70606,0.001623,-0.003982,-0.546469,0.021501,-0.0,-0.0,3.0,0.337093,0.308411,0.31458,0.342573,0.005032,-0.0,-0.0,0.03821,-0.0,-0.0,-0.007171,-0.001585,-0.407218,0.001198,-0.000136,-0.008102
70626,0.001976,-0.003883,-0.546663,0.023834,-0.0,-0.0,3.0,0.336838,0.307956,0.314859,0.342967,0.005808,-0.0,-0.0,0.040943,-0.0,-0.0,-0.007063,-0.001587,-0.40738,0.002934,-0.00013,-0.008115
70646,0.002179,-0.0037,-0.546863,0.024816,-0.0,-0.0,3.0,0.336892,0.308021,0.314801,0.342911,0.006647,-0.0,-0.0,0.043418,-0.0,-0.0,-0.006894,-0.001589,-0.407542,0.008204,-0.000101,-0.008119
70666,0.00248,-0.003869,-0.547157,0.02635,-0.0,-0.0,3.0,0.337649,0.307623,0.313967,0.343254,0.007521,-0.0,-0.0,0.044682,0.0,-0.0,-0.006695,-0.001591,-0.407705,0.01031,-9.1e-05,-0.008132
70686,0.002899,-0.004004,-0.547357,0.028907,-0.0,-0.0,3.0,0.337466,0.306959,0.314169,0.343825,0.008427,-0.0,-0.0,0.047631,-0.0,-0.0,-0.006465,-0.001592,-0.407867,0.012437,-9.3e-05,-0.008136
70706,0.003135,-0.003938,-0.547651,0.03068,-0.0,-0.0,3.0,0.335851,0.306583,0.315936,0.344146,0.009403,-0.0,-0.0,0.051078,-0.0,-0.0,-0.006195,-0.001594,-0.40803,0.014028,-9.4e-05,-0.008139
70726,0.003436,-0.004106,-0.547851,0.032393,-0.0,-0.0,3.0,0.335593,0.306063,0.316216,0.34459,0.010439,-0.0,-0.0,0.053257,-0.0,-0.0,-0.005921,-0.001596,-0.408193,0.015559,-9.6e-05,-0.008142
70746,0.004024,-0.003941,-0.548144,0.033252,-0.0,-0.0,3.0,0.335985,0.30589,0.315791,0.344737,0.011511,-0.0,-0.0,0.054103,-0.0,-0.0,-0.00563,-0.001599,-0.408356,0.017307,-0.000109,-0.008155
70766,0.004646,-0.003893,-0.548436,0.035042,-0.0,-0.0,3.0,0.335429,0.305648,0.316395,0.344942,0.012593,-0.0,-0.0,0.055051,-0.0,-0.0,-0.005283,-0.0016,-0.408519,0.020588,-9.2e-05,-0.008159
70786,0.0053,-0.003962,-0.548634,0.03709,-0.0,-0.0,3.0,0.335554,0.305267,0.316258,0.345266,0.013707,-0.0,-0.0,0.057546,-0.0,-0.0,-0.004887,-0.001602,-0.408682,0.025276,-8.4e-05,-0.008172
70806,0.00624,-0.003696,-0.548924,0.037987,-0.0,-0.0,3.0,0.332765,0.305337,0.319245,0.345206,0.014871,-0.0,-0.0,0.059067,-0.0,-0.0,-0.004413,-0.001604,-0.408846,0.027984,-5.2e-05,-0.008185
70826,0.007129,-0.003699,-0.54912,0.040069,-0.0,-0.0,3.0,0.332992,0.305175,0.319004,0.345343,0.016054,-0.0,-0.0,0.060262,-0.0,-0.0,-0.003843,-0.001605,-0.40901,0.027072,-5.1e-05,-0.008188
70846,0.007835,-0.003499,-0.549411,0.041087,-0.0,-0.0,3.0,0.32929,0.305323,0.322867,0.345218,0.01727,-0.0,-0.0,0.061647,-0.0,-0.0,-0.003217,-0.001607,-0.409174,0.031819,-3.6e-05,-0.008211
70866,0.008842,-0.003468,-0.549699,0.043386,-0.0,-0.0,3.0,0.330447,0.305291,0.321673,0.345245,0.018506,-0.0,-0.0,0.063298,-0.0,-0.0,-0.002501,-0.001609,-0.409338,0.037848,-4.1e-05,-0.008223
70886,0.010149,-0.003606,-0.549889,0.044165,-0.0,-0.0,3.0,0.333769,0.305725,0.318178,0.344878,0.019785,-0.0,-0.0,0.064621,-0.0,-0.0,-0.00169,-0.00161,-0.409503,0.043933,-8.1e-05,-0.008225
70906,0.011575,-0.00371,-0.550172,0.045741,-0.0,-0.0,3.0,0.335158,0.306017,0.316687,0.344629,0.021075,-0.0,-0.0,0.064986,-0.0,-0.0,-0.000772,-0.001612,-0.409667,0.052915,-0.0001,-0.008237
70926,0.013236,-0.003747,-0.550451,0.04731,-0.0,-0.0,3.0,0.334716,0.306323,0.317164,0.344368,0.022379,-0.0,-0.0,0.066203,-0.0,-0.0,0.000273,-0.001614,-0.409832,0.059251,-9.5e-05,-0.008239
70946,0.015013,-0.00375,-0.550632,0.049004,-0.0,-0.0,3.0,0.333748,0.306542,0.318201,0.344182,0.02371,-0.0,-0.0,0.067723,-0.0,-0.0,0.001432,-0.001616,-0.409997,0.063594,-7.8e-05,-0.008241
70966,0.016842,-0.003486,-0.55071,0.05006,-0.0,-0.0,3.0,0.333207,0.307194,0.318776,0.343623,0.025071,-0.0,-0.0,0.068516,-0.0,-0.0,0.002724,-0.001617,-0.410162,0.069761,-6.7e-05,-0.008242
70986,0.01862,-0.00349,-0.550881,0.051976,-0.0,-0.0,3.0,0.333843,0.307527,0.318099,0.343337,0.026441,-0.0,-0.0,0.069415,-0.0,-0.0,0.004152,-0.001619,-0.410327,0.07455,-6.7e-05,-0.008243
71006,0.0206,-0.003309,-0.551148,0.052712,-0.0,-0.0,3.0,0.333372,0.308315,0.318601,0.342656,0.027835,-0.0,-0.0,0.070019,-0.0,-0.0,0.005699,-0.00162,-0.410491,0.079311,-6.4e-05,-0.008253
71026,0.022647,-0.003361,-0.55141,0.053957,-0.0,-0.0,3.0,0.335952,0.309064,0.315827,0.342005,0.02923,-0.0,-0.0,0.069784,-0.0,-0.0,0.007371,-0.001621,-0.410656,0.086002,-6.6e-05,-0.008253
71046,0.024725,-0.003531,-0.551573,0.056076,-0.0,-0.0,3.0,0.336481,0.30923,0.31525,0.341861,0.030628,-0.0,-0.0,0.071113,-0.0,-0.0,0.009135,-0.001623,-0.410822,0.088261,-7.4e-05,-0.008263
71066,0.026855,-0.003431,-0.551928,0.057491,-0.0,-0.0,3.0,0.334111,0.309634,0.317813,0.341508,0.032062,-0.0,-0.0,0.072852,-0.0,-0.0,0.010963,-0.001624,-0.410987,0.093984,-6.1e-05,-0.008282
71086,0.029019,-0.003448,-0.552178,0.058861,-0.0,-0.0,3.0,0.33477,0.310034,0.317106,0.341157,0.033521,-0.0,-0.0,0.073489,-0.0,-0.0,0.012877,-0.001625,-0.411153,0.095795,-6.6e-05,-0.008291
71106,0.030797,-0.003446,-0.552534,0.059538,-0.0,-0.0,3.0,0.336245,0.310482,0.315508,0.340763,0.034989,-0.0,-0.0,0.073076,-0.0,-0.0,0.014831,-0.001627,-0.411319,0.097517,-8.2e-05,-0.008309
71126,0.032695,-0.00341,-0.55298,0.061049,-0.0,-0.0,3.0,0.336578,0.310745,0.315144,0.340531,0.036443,-0.0,-0.0,0.072882,-0.0,-0.0,0.016814,-0.001628,-0.411485,0.099982,-8.3e-05,-0.008327
71146,0.034741,-0.003457,-0.553323,0.06223,-0.0,-0.0,3.0,0.338743,0.310776,0.312754,0.340504,0.037902,-0.0,-0.0,0.07345,-0.0,-0.0,0.018789,-0.00163,-0.411652,0.097755,-9.5e-05,-0.008335
71166,0.03652,-0.003452,-0.553672,0.063321,-0.0,-0.0,3.0,0.338616,0.310718,0.312895,0.340555,0.03937,-0.0,-0.0,0.073559,-0.0,-0.0,0.020727,-0.001631,-0.411818,0.096718,-7.9e-05,-0.008353
71186,0.038448,-0.003531,-0.554013,0.06398,-0.0,-0.0,3.0,0.33955,0.310659,0.311851,0.340607,0.040837,-0.0,-0.0,0.072908,-0.0,-0.0,0.022611,-0.001632,-0.411986,0.096416,-6.3e-05,-0.008371
71206,0.040193,-0.003408,-0.554359,0.066002,-0.0,-0.0,3.0,0.338299,0.310221,0.313247,0.340993,0.042289,-0.0,-0.0,0.07333,-0.0,-0.0,0.02448,-0.001632,-0.412153,0.091092,-4.6e-05,-0.008399
71226,0.041704,-0.003353,-0.554609,0.066854,-0.0,-0.0,3.0,0.337692,0.31013,0.31392,0.341073,0.043763,-0.0,-0.0,0.074167,-0.0,-0.0,0.026293,-0.001633,-0.412321,0.088565,-3.7e-05,-0.008417
71246,0.042979,-0.003363,-0.554964,0.068016,-0.0,-0.0,3.0,0.335547,0.30988,0.316266,0.341292,0.045242,-0.0,-0.0,0.073871,-0.0,-0.0,0.028059,-0.001633,-0.41249,0.083019,-2.3e-05,-0.008426
71266,0.04417,-0.003523,-0.555319,0.069162,-0.0,-0.0,3.0,0.3372,0.309573,0.314462,0.341561,0.046715,-0.0,-0.0,0.073747,-0.0,-0.0,0.029738,-0.001634,-0.412658,0.078408,-4.7e-05,-0.008444
71286,0.045446,-0.003534,-0.555573,0.070264,-0.0,-0.0,3.0,0.335761,0.3092,0.316034,0.341887,0.048187,-0.0,-0.0,0.073719,-0.0,-0.0,0.031319,-0.001635,-0.412827,0.07469,-6e-05,-0.008462
71306,0.04657,-0.003461,-0.55583,0.070912,-0.0,-0.0,3.0,0.335029,0.308987,0.316827,0.342073,0.049657,-0.0,-0.0,0.07311,-0.0,-0.0,0.03282,-0.001636,-0.412996,0.074325,-4.2e-05,-0.00846
71326,0.047928,-0.003324,-0.555885,0.072357,-0.0,-0.0,3.0,0.334142,0.308412,0.31778,0.342572,0.051112,-0.0,-0.0,0.072841,-0.0,-0.0,0.03424,-0.001637,-0.413166,0.073514,-2.9e-05,-0.008458
71346,0.049254,-0.003066,-0.556135,0.073433,-0.0,-0.0,3.0,0.332058,0.308105,0.319991,0.342839,0.052569,-0.0,-0.0,0.073182,-0.0,-0.0,0.035629,-0.001638,-0.413335,0.068994,2e-06,-0.008467
71366,0.050462,-0.002841,-0.556389,0.073433,-0.0,-0.0,3.0,0.332782,0.308222,0.319227,0.342737,0.054027,-0.0,-0.0,0.071852,-0.0,-0.0,0.036974,-0.001638,-0.413504,0.067595,1.3e-05,-0.008466
71386,0.051771,-0.002968,-0.556634,0.075108,-0.0,-0.0,3.0,0.334177,0.307811,0.317742,0.343092,0.055449,-0.0,-0.0,0.07101,-0.0,-0.0,0.038283,-0.001638,-0.413673,0.065953,-3e-06,-0.008464
71406,0.053078,-0.003099,-0.556682,0.07582,-0.0,-0.0,3.0,0.334397,0.307801,0.317507,0.343101,0.056871,-0.0,-0.0,0.071286,-0.0,-0.0,0.039575,-0.001639,-0.413843,0.066183,-1.6e-05,-0.008472
71426,0.05427,-0.003259,-0.556929,0.076717,-0.0,-0.0,3.0,0.33578,0.307742,0.316013,0.343152,0.058291,-0.0,-0.0,0.070696,-0.0,-0.0,0.04086,-0.001639,-0.414012,0.064932,-3.2e-05,-0.008469
71446,0.055932,-0.003287,-0.557057,0.077574,-0.0,-0.0,3.0,0.334358,0.307767,0.317548,0.34313,0.059698,-0.0,-0.0,0.070053,-0.0,-0.0,0.042123,-0.00164,-0.414182,0.068759,-3.8e-05,-0.008476
71466,0.057409,-0.003111,-0.557293,0.078398,-0.0,-0.0,3.0,0.332945,0.308017,0.319055,0.342914,0.061092,-0.0,-0.0,0.069443,-0.0,-0.0,0.043461,-0.001641,-0.414351,0.068564,-1.2e-05,-0.008464
71486,0.059118,-0.002871,-0.557323,0.078923,-0.0,-0.0,3.0,0.331699,0.308572,0.320368,0.342434,0.062474,-0.0,-0.0,0.068485,-0.0,-0.0,0.044854,-0.001641,-0.414521,0.069699,5e-06,-0.00847
71506,0.060712,-0.002661,-0.557552,0.079379,-0.0,-0.0,3.0,0.329704,0.309232,0.322441,0.341859,0.063832,-0.0,-0.0,0.067093,-0.0,-0.0,0.04632,-0.001641,-0.41469,0.073053,3e-05,-0.008476
71526,0.06254,-0.002382,-0.557769,0.08051,-0.0,-0.0,3.0,0.331057,0.309935,0.321039,0.341244,0.065164,-0.0,-0.0,0.066449,-0.0,-0.0,0.047879,-0.001641,-0.41486,0.079709,2.6e-05,-0.008479
71546,0.064742,-0.002505,-0.558056,0.081059,-0.0,-0.0,3.0,0.336223,0.31079,0.315532,0.340491,0.066491,-0.0,-0.0,0.066064,-0.0,-0.0,0.049537,-0.001641,-0.415029,0.085931,-2e-06,-0.008482
71566,0.066821,-0.002657,-0.558349,0.081695,-0.0,-0.0,3.0,0.336971,0.311564,0.314714,0.339805,0.067803,-0.0,-0.0,0.065037,-0.0,-0.0,0.051296,-0.001641,-0.415199,0.091969,-1.4e-05,-0.008493
71586,0.06932,-0.002945,-0.558517,0.082473,-0.0,-0.0,3.0,0.337493,0.312341,0.31414,0.339113,0.069095,-0.0,-0.0,0.064203,-0.0,-0.0,0.05315,-0.00164,-0.415369,0.099868,-1.9e-05,-0.008494
71606,0.071908,-0.003081,-0.558773,0.082894,-0.0,-0.0,3.0,0.337949,0.313239,0.313636,0.338307,0.070372,-0.0,-0.0,0.063246,-0.0,-0.0,0.055127,-0.001641,-0.415539,0.102877,-3.1e-05,-0.008495
71626,0.074306,-0.003017,-0.558942,0.08345,-0.0,-0.0,3.0,0.33674,0.31416,0.314966,0.337475,0.071626,-0.0,-0.0,0.062028,-0.0,-0.0,0.057213,-0.001641,-0.415709,0.105594,-2.8e-05,-0.008515
71646,0.07647,-0.003019,-0.559118,0.083966,-0.0,-0.0,3.0,0.336803,0.31505,0.314898,0.336664,0.072858,-0.0,-0.0,0.060951,-0.0,-0.0,0.059384,-0.001641,-0.415879,0.108692,-2.1e-05,-0.008514
71666,0.078873,-0.002953,-0.559375,0.08445,-0.0,-0.0,3.0,0.337511,0.315769,0.31412,0.336005,0.074068,-0.0,-0.0,0.059869,-0.0,-0.0,0.061604,-0.001642,-0.416049,0.10838,-3.3e-05,-0.008514
71686,0.081003,-0.002837,-0.559548,0.084747,-0.0,-0.0,3.0,0.337941,0.316615,0.313645,0.335225,0.075255,-0.0,-0.0,0.058551,-0.0,-0.0,0.063867,-0.001642,-0.416219,0.109835,-1.5e-05,-0.008523
71706,0.0832,-0.002954,-0.55971,0.085101,-0.0,-0.0,3.0,0.338528,0.317226,0.312994,0.334658,0.076414,-0.0,-0.0,0.057101,-0.0,-0.0,0.066126,-0.001641,-0.41639,0.113336,-5e-06,-0.008521
71726,0.085486,-0.002919,-0.559962,0.085479,-0.0,-0.0,3.0,0.336366,0.317743,0.315376,0.334176,0.077545,-0.0,-0.0,0.055808,-0.0,-0.0,0.068396,-0.001641,-0.41656,0.111498,7e-06,-0.00853
71746,0.087448,-0.003098,-0.56023,0.085977,-0.0,-0.0,3.0,0.336604,0.318054,0.315116,0.333886,0.078652,-0.0,-0.0,0.054756,-0.0,-0.0,0.07063,-0.001641,-0.416731,0.108914,4e-06,-0.00854
71766,0.089266,-0.003197,-0.560503,0.086177,-0.0,-0.0,3.0,0.336089,0.318323,0.315678,0.333633,0.079738,-0.0,-0.0,0.053533,-0.0,-0.0,0.072804,-0.001641,-0.416901,0.107633,-1.1e-05,-0.008539
71786,0.091244,-0.002995,-0.560672,0.086511,-0.0,-0.0,3.0,0.334165,0.318677,0.317755,0.3333,0.080797,-0.0,-0.0,0.052106,-0.0,-0.0,0.074931,-0.001642,-0.417072,0.108201,-1e-05,-0.008546
71806,0.093056,-0.003094,-0.560843,0.086734,-0.0,-0.0,3.0,0.333679,0.31896,0.318274,0.333034,0.081829,-0.0,-0.0,0.050753,-0.0,-0.0,0.077021,-0.001642,-0.417243,0.103514,3e-06,-0.008538
71826,0.094802,-0.002964,-0.560923,0.086831,-0.0,-0.0,3.0,0.334608,0.318803,0.31728,0.333182,0.082833,-0.0,-0.0,0.049205,-0.0,-0.0,0.078982,-0.001642,-0.417414,0.097831,-3e-06,-0.008529
71846,0.096665,-0.0028,-0.560992,0.086995,-0.0,-0.0,3.0,0.334068,0.318974,0.317859,0.333021,0.083804,-0.0,-0.0,0.04761,-0.0,-0.0,0.080865,-0.001642,-0.417584,0.097094,2.5e-05,-0.00852
71866,0.09826,-0.002586,-0.561079,0.087081,-0.0,-0.0,3.0,0.333086,0.319029,0.318905,0.33297,0.084745,-0.0,-0.0,0.046076,-0.0,-0.0,0.082697,-0.001641,-0.417755,0.090666,4e-05,-0.008513
71886,0.099654,-0.002557,-0.561176,0.087173,-0.0,-0.0,3.0,0.333085,0.319138,0.318906,0.332866,0.085654,-0.0,-0.0,0.044522,-0.0,-0.0,0.08445,-0.001641,-0.417925,0.084143,4e-05,-0.008516
71906,0.101047,-0.002522,-0.56137,0.087257,-0.0,-0.0,3.0,0.331549,0.319357,0.320525,0.332659,0.086533,-0.0,-0.0,0.043004,-0.0,-0.0,0.086138,-0.001641,-0.418095,0.080118,4.3e-05,-0.008519
71926,0.102475,-0.00261,-0.561458,0.087266,-0.0,-0.0,3.0,0.334739,0.319727,0.317139,0.332309,0.087382,-0.0,-0.0,0.041444,-0.0,-0.0,0.087781,-0.00164,-0.418266,0.078112,1.1e-05,-0.00851
71946,0.103868,-0.002574,-0.561649,0.087253,-0.0,-0.0,3.0,0.335417,0.320235,0.316407,0.331826,0.088198,-0.0,-0.0,0.039814,-0.0,-0.0,0.089393,-0.00164,-0.418436,0.077661,-6e-06,-0.0085
71966,0.105179,-0.002695,-0.561743,0.087184,-0.0,-0.0,3.0,0.337169,0.320528,0.314496,0.331546,0.088982,-0.0,-0.0,0.038144,-0.0,-0.0,0.090958,-0.00164,-0.418606,0.076909,1e-06,-0.008501
71986,0.106841,-0.002714,-0.56181,0.087085,-0.0,-0.0,3.0,0.337828,0.32091,0.313769,0.33118,0.089733,-0.0,-0.0,0.036436,-0.0,-0.0,0.092485,-0.001639,-0.418776,0.077188,-5e-06,-0.008482
72006,0.108504,-0.002733,-0.561876,0.086945,-0.0,-0.0,3.0,0.33928,0.321547,0.312155,0.330569,0.090449,-0.0,-0.0,0.034704,-0.0,-0.0,0.09403,-0.001639,-0.418945,0.076729,1e-06,-0.008473
72026,0.109932,-0.002819,-0.561956,0.086749,-0.0,-0.0,3.0,0.337401,0.322151,0.314241,0.329985,0.09113,-0.0,-0.0,0.03292,-0.0,-0.0,0.095575,-0.001638,-0.419115,0.077871,1.1e-05,-0.008463
72046,0.111477,-0.002871,-0.562027,0.086645,-0.0,-0.0,3.0,0.33571,0.32276,0.316089,0.329395,0.091776,-0.0,-0.0,0.031234,-0.0,-0.0,0.097125,-0.001638,-0.419284,0.078911,2.2e-05,-0.008463
72066,0.113298,-0.00297,-0.562168,0.086333,-0.0,-0.0,3.0,0.336245,0.323639,0.315507,0.328536,0.092389,-0.0,-0.0,0.029486,-0.0,-0.0,0.098705,-0.001638,-0.419453,0.082104,1.2e-05,-0.00845
72086,0.115026,-0.003215,-0.562313,0.086101,-0.0,-0.0,3.0,0.335954,0.324209,0.315824,0.327977,0.092965,-0.0,-0.0,0.027629,-0.0,-0.0,0.100298,-0.001638,-0.419622,0.081915,-5e-06,-0.00844
72106,0.117006,-0.003013,-0.562347,0.085893,-0.0,-0.0,3.0,0.332223,0.324898,0.319818,0.327296,0.093505,-0.0,-0.0,0.02595,-0.0,-0.0,0.101896,-0.001638,-0.419791,0.085615,1.2e-05,-0.008437
72126,0.118517,-0.002947,-0.562415,0.08546,-0.0,-0.0,3.0,0.331473,0.32563,0.320605,0.32657,0.094012,-0.0,-0.0,0.024126,-0.0,-0.0,0.103554,-0.001638,-0.41996,0.079936,2.4e-05,-0.008439
72146,0.120229,-0.002696,-0.562469,0.085066,-0.0,-0.0,3.0,0.33169,0.326295,0.320378,0.325906,0.09448,-0.0,-0.0,0.022111,-0.0,-0.0,0.105179,-0.001638,-0.420129,0.079304,7e-06,-0.008428
72166,0.121711,-0.002504,-0.562735,0.084632,-0.0,-0.0,3.0,0.330744,0.32734,0.321365,0.324854,0.094909,-0.0,-0.0,0.020164,-0.0,-0.0,0.106856,-0.001639,-0.420297,0.081816,2.5e-05,-0.008424
72186,0.123104,-0.002464,-0.562907,0.084167,-0.0,-0.0,3.0,0.335449,0.328136,0.316372,0.324047,0.095298,-0.0,-0.0,0.018233,-0.0,-0.0,0.10854,-0.001638,-0.420466,0.080945,-4e-06,-0.008422
72206,0.124917,-0.002562,-0.562937,0.083886,-0.0,-0.0,3.0,0.338217,0.32887,0.313339,0.323299,0.09565,-0.0,-0.0,0.016538,-0.0,-0.0,0.110194,-0.001638,-0.420634,0.083102,-1.3e-05,-0.008418
72226,0.126331,-0.003031,-0.562991,0.083365,-0.0,-0.0,3.0,0.340232,0.329507,0.311084,0.322644,0.09597,-0.0,-0.0,0.014853,-0.0,-0.0,0.111843,-0.001637,-0.420802,0.083289,-1.4e-05,-0.008405
72246,0.127916,-0.003188,-0.563232,0.082831,-0.0,-0.0,3.0,0.339262,0.329941,0.312174,0.322197,0.096254,-0.0,-0.0,0.0129,-0.0,-0.0,0.113435,-0.001637,-0.42097,0.081119,-2.2e-05,-0.008414
72266,0.129191,-0.00318,-0.563407,0.082029,-0.0,-0.0,3.0,0.336927,0.330367,0.314762,0.321756,0.096498,-0.0,-0.0,0.01066,-0.0,-0.0,0.114977,-0.001637,-0.421138,0.074881,-2e-06,-0.008398
72286,0.129932,-0.003083,-0.563536,0.081615,-0.0,-0.0,3.0,0.334658,0.330384,0.317226,0.321738,0.096696,-0.0,-0.0,0.008645,-0.0,-0.0,0.116399,-0.001638,-0.421306,0.067193,1.1e-05,-0.008393
72306,0.130517,-0.002912,-0.563485,0.080755,-0.0,-0.0,3.0,0.332873,0.330481,0.319131,0.321638,0.096857,-0.0,-0.0,0.006696,-0.0,-0.0,0.117679,-0.001638,-0.421474,0.060295,9e-06,-0.008388
72326,0.130956,-0.002649,-0.563646,0.080402,-0.0,-0.0,3.0,0.330633,0.330173,0.321481,0.321958,0.096976,-0.0,-0.0,0.004859,-0.0,-0.0,0.118796,-0.001638,-0.421642,0.047861,2.9e-05,-0.00839
72346,0.130837,-0.002675,-0.563756,0.079665,-0.0,-0.0,3.0,0.3336,0.329795,0.318358,0.322348,0.097064,-0.0,-0.0,0.003227,-0.0,-0.0,0.119698,-0.001638,-0.42181,0.038039,1e-05,-0.00838
72366,0.130753,-0.002819,-0.563859,0.078898,-0.0,-0.0,3.0,0.335644,0.329217,0.316162,0.322943,0.097115,-0.0,-0.0,0.001174,-0.0,-0.0,0.120364,-0.001638,-0.421977,0.026197,-8e-06,-0.008375
72386,0.1304,-0.002914,-0.563988,0.077934,-0.0,-0.0,3.0,0.335858,0.328871,0.315929,0.323297,0.097124,-0.0,-0.0,-0.001137,-0.0,-0.0,0.120837,-0.001638,-0.422145,0.01606,-3e-06,-0.008371
72406,0.129779,-0.00296,-0.564144,0.077302,-0.0,-0.0,3.0,0.33657,0.328363,0.315152,0.323816,0.097086,-0.0,-0.0,-0.003181,-0.0,-0.0,0.12111,-0.001638,-0.422312,0.00591,-1.5e-05,-0.008368
72426,0.129507,-0.002896,-0.564369,0.076221,-0.0,-0.0,3.0,0.336107,0.328222,0.315658,0.32396,0.097011,-0.0,-0.0,-0.005226,-0.0,-0.0,0.121211,-0.001638,-0.422479,0.000854,-1e-05,-0.008364
72446,0.129196,-0.003106,-0.564589,0.075559,-0.0,-0.0,3.0,0.336382,0.32829,0.315358,0.32389,0.096891,-0.0,-0.0,-0.00727,-0.0,-0.0,0.121223,-0.001638,-0.422647,-0.00087,-1.2e-05,-0.008378
72466,0.129194,-0.003098,-0.564688,0.074602,-0.0,-0.0,3.0,0.33709,0.328355,0.314582,0.323824,0.096735,-0.0,-0.0,-0.009102,-0.0,-0.0,0.121145,-0.001638,-0.422814,-0.000956,-2.6e-05,-0.008371
72486,0.129274,-0.002939,-0.564783,0.073495,-0.0,-0.0,3.0,0.336048,0.328752,0.315722,0.323419,0.096539,-0.0,-0.0,-0.011365,-0.0,-0.0,0.121052,-0.001638,-0.422982,0.001411,-1e-05,-0.008364
72506,0.129431,-0.003012,-0.564962,0.072997,-0.0,-0.0,3.0,0.33745,0.32913,0.314187,0.323032,0.096298,-0.0,-0.0,-0.013089,-0.0,-0.0,0.120996,-0.001638,-0.423149,0.000658,-1.2e-05,-0.008368
72526,0.12958,-0.003087,-0.565045,0.071969,-0.0,-0.0,3.0,0.335706,0.329628,0.316094,0.322519,0.096029,-0.0,-0.0,-0.014553,-0.0,-0.0,0.120954,-0.001639,-0.423316,-0.002458,-7e-06,-0.008364
72546,0.129544,-0.002963,-0.56515,0.070917,-0.0,-0.0,3.0,0.334487,0.33047,0.31741,0.32165,0.095725,-0.0,-0.0,-0.016653,-0.0,-0.0,0.120962,-0.001639,-0.423483,-0.000993,-3e-06,-0.008356
72566,0.129316,-0.003022,-0.565366,0.069598,-0.0,-0.0,3.0,0.334919,0.331104,0.316945,0.32099,0.095377,-0.0,-0.0,-0.019114,-0.0,-0.0,0.120986,-0.001639,-0.423651,-0.002951,-5e-06,-0.00835
72586,0.129346,-0.003123,-0.565557,0.068988,-0.0,-0.0,3.0,0.33678,0.331644,0.314923,0.320426,0.09498,-0.0,-0.0,-0.020928,-0.0,-0.0,0.120996,-0.001639,-0.423818,-0.000482,-2.4e-05,-0.008351
72606,0.129193,-0.003033,-0.565673,0.067378,-0.0,-0.0,3.0,0.335951,0.332424,0.315828,0.319606,0.094553,-0.0,-0.0,-0.022896,-0.0,-0.0,0.121026,-0.00164,-0.423985,0.000682,-2e-05,-0.008343
72626,0.129115,-0.003175,-0.565872,0.066603,-0.0,-0.0,3.0,0.336069,0.332653,0.315699,0.319364,0.094079,-0.0,-0.0,-0.025089,-0.0,-0.0,0.121012,-0.00164,-0.424152,0.000915,-1.8e-05,-0.008356
72646,0.129194,-0.003008,-0.566066,0.065075,-0.0,-0.0,3.0,0.333663,0.333189,0.318291,0.318796,0.093567,-0.0,-0.0,-0.02711,-0.0,-0.0,0.120978,-0.00164,-0.424319,0.00087,-5e-06,-0.008359
72666,0.129158,-0.002884,-0.566172,0.064369,-0.0,-0.0,3.0,0.334716,0.333521,0.317164,0.318442,0.09301,-0.0,-0.0,-0.028937,-0.0,-0.0,0.120934,-0.001641,-0.424486,-0.000155,-8e-06,-0.008354
72686,0.12893,-0.002943,-0.566388,0.063116,-0.0,-0.0,3.0,0.333811,0.333809,0.318134,0.318135,0.092425,-0.0,-0.0,-0.030382,-0.0,-0.0,0.120862,-0.001641,-0.424653,-0.006062,-9e-06,-0.008351
72706,0.128659,-0.002887,-0.566513,0.061813,-0.0,-0.0,3.0,0.336383,0.334244,0.315358,0.31767,0.091805,-0.0,-0.0,-0.032458,-0.0,-0.0,0.120747,-0.001641,-0.42482,-0.007132,-2.6e-05,-0.008356
72726,0.128341,-0.003099,-0.566636,0.060291,-0.0,-0.0,3.0,0.339576,0.334786,0.311822,0.317089,0.091142,-0.0,-0.0,-0.034884,-0.0,-0.0,0.120604,-0.001641,-0.424987,-0.007909,-4.5e-05,-0.00834
72746,0.128176,-0.003401,-0.566643,0.059487,-0.0,-0.0,3.0,0.338718,0.335108,0.312782,0.316741,0.09043,-0.0,-0.0,-0.036597,-0.0,-0.0,0.120433,-0.001642,-0.425154,-0.007638,-3.7e-05,-0.008325
72766,0.128107,-0.003167,-0.566656,0.057921,-0.0,-0.0,3.0,0.335855,0.335745,0.315932,0.316052,0.089692,-0.0,-0.0,-0.038176,-0.0,-0.0,0.120263,-0.001642,-0.42532,-0.007875,-1.6e-05,-0.008321
72786,0.127639,-0.003305,-0.566696,0.056841,-0.0,-0.0,3.0,0.334353,0.336059,0.317554,0.31571,0.088916,-0.0,-0.0,-0.040102,-0.0,-0.0,0.120081,-0.001643,-0.425487,-0.012742,-5e-06,-0.008319
72806,0.127452,-0.003098,-0.566817,0.055061,-0.0,-0.0,3.0,0.332432,0.336633,0.319597,0.315083,0.088103,-0.0,-0.0,-0.04226,-0.0,-0.0,0.119848,-0.001643,-0.425653,-0.012744,-1.2e-05,-0.008305
72826,0.126948,-0.00311,-0.566962,0.054187,-0.0,-0.0,3.0,0.332379,0.337163,0.319653,0.314503,0.087244,-0.0,-0.0,-0.04408,-0.0,-0.0,0.119635,-0.001644,-0.425819,-0.014648,-2.2e-05,-0.008301
72846,0.126327,-0.003158,-0.567117,0.052736,-0.0,-0.0,3.0,0.335408,0.337596,0.316417,0.314026,0.086357,-0.0,-0.0,-0.045386,-0.0,-0.0,0.119381,-0.001645,-0.425985,-0.017131,-4.6e-05,-0.008298
72866,0.125818,-0.00318,-0.567066,0.051283,-0.0,-0.0,3.0,0.336265,0.338009,0.315486,0.31357,0.085439,-0.0,-0.0,-0.04731,-0.0,-0.0,0.119061,-0.001646,-0.426151,-0.015958,-5.3e-05,-0.008283
72886,0.125501,-0.0034,-0.567089,0.049765,-0.0,-0.0,3.0,0.337576,0.338385,0.314048,0.313153,0.084481,-0.0,-0.0,-0.04937,-0.0,-0.0,0.118703,-0.001646,-0.426316,-0.016424,-5.2e-05,-0.00826
72906,0.12508,-0.003262,-0.56723,0.048858,-0.0,-0.0,3.0,0.335149,0.338603,0.316697,0.31291,0.083483,-0.0,-0.0,-0.050661,-0.0,-0.0,0.118317,-0.001647,-0.426481,-0.018963,-3e-05,-0.008259
72926,0.124544,-0.003165,-0.567281,0.04764,-0.0,-0.0,3.0,0.334851,0.338778,0.317019,0.312715,0.082467,-0.0,-0.0,-0.051459,-0.0,-0.0,0.117877,-0.001648,-0.426646,-0.021873,-2.3e-05,-0.008249
72946,0.123538,-0.003199,-0.56747,0.045108,-0.0,-0.0,3.0,0.335158,0.339217,0.316687,0.312224,0.081429,-0.0,-0.0,-0.054158,-0.0,-0.0,0.117385,-0.001648,-0.426811,-0.028863,-2.7e-05,-0.008242
72966,0.122678,-0.003324,-0.567447,0.043628,-0.0,-0.0,3.0,0.336292,0.339378,0.315457,0.312044,0.080322,-0.0,-0.0,-0.057316,-0.0,-0.0,0.116798,-0.001649,-0.426976,-0.033747,-5.4e-05,-0.008233
72986,0.121672,-0.003358,-0.567634,0.042543,-0.0,-0.0,3.0,0.336741,0.339591,0.314965,0.311805,0.079167,-0.0,-0.0,-0.058475,-0.0,-0.0,0.116146,-0.00165,-0.427141,-0.035392,-5.1e-05,-0.008233
73006,0.12062,-0.003667,-0.56772,0.040825,-0.0,-0.0,3.0,0.33842,0.339817,0.313114,0.311551,0.077995,-0.0,-0.0,-0.059596,-0.0,-0.0,0.115428,-0.001651,-0.427305,-0.038823,-6.6e-05,-0.008225
73026,0.119574,-0.003593,-0.567716,0.039189,-0.0,-0.0,3.0,0.334387,0.339879,0.317517,0.311481,0.076792,-0.0,-0.0,-0.061578,-0.0,-0.0,0.11461,-0.001652,-0.42747,-0.042421,-4.6e-05,-0.008219
73046,0.118266,-0.003462,-0.567931,0.037541,-0.0,-0.0,3.0,0.333234,0.339959,0.318747,0.311392,0.07555,-0.0,-0.0,-0.06351,-0.0,-0.0,0.113717,-0.001653,-0.427634,-0.047602,-4.6e-05,-0.008214
73066,0.116566,-0.003319,-0.568082,0.036711,-0.0,-0.0,3.0,0.333799,0.339599,0.318147,0.311797,0.074272,-0.0,-0.0,-0.06432,-0.0,-0.0,0.112712,-0.001655,-0.427798,-0.056156,-5.4e-05,-0.008211
73086,0.114901,-0.003299,-0.568125,0.035553,-0.0,-0.0,3.0,0.335439,0.339359,0.316383,0.312066,0.072989,-0.0,-0.0,-0.064424,-0.0,-0.0,0.111565,-0.001656,-0.427963,-0.060614,-7.1e-05,-0.008217
73106,0.113159,-0.003423,-0.568366,0.034056,-0.0,-0.0,3.0,0.337102,0.339277,0.314569,0.312158,0.071698,-0.0,-0.0,-0.065379,-0.0,-0.0,0.110318,-0.001657,-0.428127,-0.066306,-6.9e-05,-0.008204
73126,0.111328,-0.0037,-0.568511,0.032059,-0.0,-0.0,3.0,0.339042,0.338997,0.31242,0.312471,0.070381,-0.0,-0.0,-0.067453,-0.0,-0.0,0.108915,-0.001658,-0.428291,-0.072622,-8.5e-05,-0.008203
73146,0.109311,-0.003777,-0.568674,0.029735,-0.0,-0.0,3.0,0.337887,0.338793,0.313704,0.312698,0.069017,-0.0,-0.0,-0.070395,-0.0,-0.0,0.107368,-0.001659,-0.428455,-0.077802,-7.8e-05,-0.008203
73166,0.107033,-0.003805,-0.568952,0.028411,-0.0,-0.0,3.0,0.336334,0.337987,0.31541,0.313593,0.067593,-0.0,-0.0,-0.072371,-0.0,-0.0,0.105654,-0.001661,-0.428619,-0.087656,-7.3e-05,-0.008206
73186,0.104481,-0.003792,-0.569053,0.026266,-0.0,-0.0,3.0,0.335761,0.33759,0.316035,0.314032,0.066142,-0.0,-0.0,-0.073842,-0.0,-0.0,0.103792,-0.001663,-0.428783,-0.099819,-8.9e-05,-0.008211
73206,0.101536,-0.003762,-0.569179,0.024485,-0.0,-0.0,3.0,0.335711,0.3371,0.316088,0.314572,0.064653,-0.0,-0.0,-0.075864,-0.0,-0.0,0.101766,-0.001665,-0.428947,-0.108613,-9.1e-05,-0.008214
73226,0.098598,-0.00373,-0.569396,0.022719,-0.0,-0.0,3.0,0.334734,0.336525,0.317144,0.315202,0.063127,-0.0,-0.0,-0.077503,-0.0,-0.0,0.099569,-0.001666,-0.429111,-0.119181,-7.6e-05,-0.008211
73246,0.095778,-0.003669,-0.5695,0.021831,-0.0,-0.0,3.0,0.335234,0.335702,0.316605,0.316098,0.061573,-0.0,-0.0,-0.077945,-0.0,-0.0,0.09719,-0.001668,-0.429276,-0.124757,-8.1e-05,-0.008214
73266,0.092571,-0.003589,-0.569724,0.019275,-0.0,-0.0,3.0,0.33353,0.335333,0.318434,0.316498,0.060016,-0.0,-0.0,-0.079211,-0.0,-0.0,0.094675,-0.001669,-0.42944,-0.129875,-5.1e-05,-0.008218
73286,0.089516,-0.003592,-0.569929,0.017533,-0.0,-0.0,3.0,0.334246,0.33458,0.317668,0.31731,0.058415,-0.0,-0.0,-0.081662,-0.0,-0.0,0.092007,-0.001671,-0.429604,-0.136278,-6.7e-05,-0.008213
73306,0.086309,-0.003512,-0.570138,0.016624,-0.0,-0.0,3.0,0.334663,0.333693,0.31722,0.318259,0.056777,-0.0,-0.0,-0.082128,-0.0,-0.0,0.089207,-0.001672,-0.429768,-0.142976,-7.3e-05,-0.008228
73326,0.082869,-0.003502,-0.570353,0.014992,-0.0,-0.0,3.0,0.335853,0.333041,0.315935,0.318953,0.05514,-0.0,-0.0,-0.082088,-0.0,-0.0,0.086299,-0.001674,-0.429933,-0.150252,-7.2e-05,-0.008233
73346,0.079267,-0.003794,-0.570661,0.012411,-0.0,-0.0,3.0,0.335677,0.332335,0.31416,0.319338,0.053493,-0.0,-0.0,-0.084187,-0.0,-0.0,0.083272,-0.001675,-0.430097,-0.154948,-9.5e-05,-0.008227
73366,0.075945,-0.003754,-0.570754,0.011322,-0.0,-0.0,3.0,0.337778,0.331984,0.313825,0.320068,0.051794,-0.0,-0.0,-0.085869,-0.0,-0.0,0.080144,-0.001677,-0.430262,-0.159214,-9.4e-05,-0.00823
73386,0.072387,-0.003778,-0.570949,0.009494,-0.0,-0.0,3.0,0.33706,0.331442,0.314616,0.320637,0.050079,-0.0,-0.0,-0.086286,-0.0,-0.0,0.076923,-0.001678,-0.430426,-0.15948,-7.4e-05,-0.008222
73406,0.069298,-0.00367,-0.571014,0.007657,-0.0,-0.0,3.0,0.335863,0.330829,0.315924,0.321276,0.048349,-0.0,-0.0,-0.087466,-0.0,-0.0,0.073625,-0.00168,-0.430591,-0.161434,-7.3e-05,-0.008224
73426,0.065824,-0.003547,-0.571091,0.005658,-0.0,-0.0,3.0,0.333705,0.330466,0.318247,0.321654,0.046593,-0.0,-0.0,-0.089042,-0.0,-0.0,0.070317,-0.001681,-0.430755,-0.167826,-4.4e-05,-0.008218
73446,0.062233,-0.003459,-0.571164,0.004182,-0.0,-0.0,3.0,0.33484,0.329834,0.31703,0.322307,0.044806,-0.0,-0.0,-0.090086,-0.0,-0.0,0.066942,-0.001682,-0.43092,-0.175104,-5.7e-05,-0.00821
73466,0.058524,-0.003401,-0.57133,0.002493,-0.0,-0.0,3.0,0.335184,0.329613,0.316659,0.322535,0.043004,-0.0,-0.0,-0.090616,-0.0,-0.0,0.063539,-0.001684,-0.431084,-0.17562,-5.6e-05,-0.008209
73486,0.054733,-0.003499,-0.57139,0.00051,-0.0,-0.0,3.0,0.337221,0.329448,0.314439,0.322705,0.04119,-0.0,-0.0,-0.091728,-0.0,-0.0,0.060117,-0.001685,-0.431248,-0.175392,-6.7e-05,-0.008197
73506,0.051245,-0.003762,-0.571426,-0.00046,-0.0,-0.0,3.0,0.338167,0.328961,0.313394,0.323205,0.039351,-0.0,-0.0,-0.092096,-0.0,-0.0,0.056662,-0.001686,-0.431412,-0.172593,-8.7e-05,-0.008193
73526,0.048043,-0.003686,-0.571545,-0.002745,-0.0,-0.0,3.0,0.336137,0.3289,0.315626,0.323268,0.037514,-0.0,-0.0,-0.092643,-0.0,-0.0,0.053203,-0.001687,-0.431576,-0.167535,-7.6e-05,-0.008179
73546,0.044838,-0.003614,-0.571459,-0.004849,-0.0,-0.0,3.0,0.334474,0.328635,0.317424,0.323539,0.035652,-0.0,-0.0,-0.094591,-0.0,-0.0,0.049766,-0.001689,-0.431739,-0.168046,-6.3e-05,-0.008165
73566,0.041667,-0.003655,-0.571463,-0.006691,-0.0,-0.0,3.0,0.335444,0.328308,0.316377,0.323872,0.033752,-0.0,-0.0,-0.096063,-0.0,-0.0,0.046328,-0.00169,-0.431902,-0.169158,-7.7e-05,-0.00816
73586,0.038044,-0.003449,-0.571572,-0.008522,-0.0,-0.0,3.0,0.334863,0.328051,0.317006,0.324133,0.031828,-0.0,-0.0,-0.096922,-0.0,-0.0,0.042916,-0.001692,-0.432065,-0.173193,-7.2e-05,-0.008136
73606,0.034254,-0.003545,-0.571576,-0.009671,-0.0,-0.0,3.0,0.338487,0.327507,0.313039,0.324685,0.02989,-0.0,-0.0,-0.096939,-0.0,-0.0,0.039475,-0.001693,-0.432228,-0.17589,-9e-05,-0.008119
73626,0.030499,-0.003758,-0.571666,-0.010757,-0.0,-0.0,3.0,0.339049,0.327006,0.312412,0.325191,0.027959,-0.0,-0.0,-0.096097,-0.0,-0.0,0.036008,-0.001695,-0.43239,-0.175477,-8.9e-05,-0.008112
73646,0.026861,-0.003937,-0.571646,-0.013023,-0.0,-0.0,3.0,0.338178,0.3267,0.313382,0.325499,0.026043,-0.0,-0.0,-0.096609,-0.0,-0.0,0.032504,-0.001696,-0.432552,-0.176666,-8e-05,-0.008094
73666,0.023223,-0.004116,-0.571714,-0.015377,-0.0,-0.0,3.0,0.336755,0.326155,0.314951,0.326046,0.024101,-0.0,-0.0,-0.098814,-0.0,-0.0,0.028935,-0.001697,-0.432714,-0.180132,-7.8e-05,-0.008075
73686,0.01933,-0.003862,-0.571582,-0.016822,-0.0,-0.0,3.0,0.332336,0.325277,0.319698,0.326921,0.022115,-0.0,-0.0,-0.099964,-0.0,-0.0,0.025293,-0.001699,-0.432875,-0.183089,-6.4e-05,-0.008056
73706,0.015204,-0.003675,-0.571637,-0.018892,-0.0,-0.0,3.0,0.332734,0.324583,0.319278,0.327607,0.020119,-0.0,-0.0,-0.100391,-0.0,-0.0,0.021593,-0.001701,-0.433037,-0.187976,-6.8e-05,-0.008055
73726,0.010843,-0.003557,-0.571682,-0.019786,-0.0,-0.0,3.0,0.334257,0.32332,0.317656,0.328849,0.018111,-0.0,-0.0,-0.100223,-0.0,-0.0,0.017788,-0.001703,-0.433198,-0.194145,-9.1e-05,-0.008044
73746,0.006399,-0.003591,-0.571615,-0.021576,-0.0,-0.0,3.0,0.335455,0.322402,0.316366,0.329742,0.016116,-0.0,-0.0,-0.099782,-0.0,-0.0,0.013882,-0.001705,-0.433358,-0.199889,-9.1e-05,-0.008031
73766,0.001838,-0.003659,-0.571632,-0.023347,-0.0,-0.0,3.0,0.33856,0.321221,0.312958,0.330883,0.014121,-0.0,-0.0,-0.100428,-0.0,-0.0,0.009846,-0.001706,-0.433518,-0.208194,-0.000113,-0.007998
73786,-0.002839,-0.003761,-0.571634,-0.024475,-0.0,-0.0,3.0,0.339687,0.31975,0.311698,0.332286,0.012112,-0.0,-0.0,-0.100423,-0.0,-0.0,0.005656,-0.001708,-0.433678,-0.212116,-0.000104,-0.007982
73806,-0.007785,-0.003815,-0.571619,-0.02591,-0.0,-0.0,3.0,0.339561,0.318153,0.311839,0.333793,0.010112,-0.0,-0.0,-0.099813,-0.0,-0.0,0.001324,-0.001709,-0.433837,-0.21825,-7.9e-05,-0.007965
73826,-0.012732,-0.003869,-0.571684,-0.02889,-0.0,-0.0,3.0,0.339075,0.316908,0.312384,0.334953,0.008117,-0.0,-0.0,-0.101376,-0.0,-0.0,-0.003165,-0.00171,-0.433997,-0.22656,-7.6e-05,-0.007937
73846,-0.017865,-0.003723,-0.571631,-0.029902,-0.0,-0.0,3.0,0.334189,0.315208,0.317729,0.336519,0.006076,-0.0,-0.0,-0.102681,-0.0,-0.0,-0.007784,-0.001712,-0.434155,-0.234521,-3.8e-05,-0.007926
73866,-0.023231,-0.003646,-0.571555,-0.031189,-0.0,-0.0,3.0,0.331472,0.313398,0.320605,0.338164,0.004032,-0.0,-0.0,-0.101656,-0.0,-0.0,-0.012547,-0.001713,-0.434314,-0.244815,-2.2e-05,-0.007912
73886,-0.028516,-0.003417,-0.571556,-0.033253,-0.0,-0.0,3.0,0.330875,0.312014,0.321229,0.339405,0.002007,-0.0,-0.0,-0.101672,-0.0,-0.0,-0.017452,-0.001714,-0.434472,-0.249056,-2.3e-05,-0.007897
73906,-0.033952,-0.003107,-0.571532,-0.034963,-0.0,-0.0,3.0,0.331184,0.310609,0.320906,0.340651,-3e-05,-0.0,-0.0,-0.10259,0.0,-0.0,-0.022445,-0.001715,-0.43463,-0.253689,-2.7e-05,-0.00789
73926,-0.03932,-0.003031,-0.57149,-0.036657,-0.0,-0.0,3.0,0.332908,0.309065,0.319094,0.342005,-0.002082,-0.0,-0.0,-0.103002,-0.0,-0.0,-0.027543,-0.001716,-0.434788,-0.256907,-3.1e-05,-0.007871
73946,-0.044568,-0.002919,-0.571332,-0.038355,-0.0,-0.0,3.0,0.334129,0.307632,0.317794,0.343247,-0.004139,-0.0,-0.0,-0.103197,0.0,-0.0,-0.032706,-0.001717,-0.434945,-0.259202,-3.5e-05,-0.00784
73966,-0.049703,-0.002771,-0.571157,-0.039755,-0.0,-0.0,3.0,0.335044,0.306328,0.31681,0.344364,-0.0062,-0.0,-0.0,-0.103077,0.0,-0.0,-0.037892,-0.001717,-0.435101,-0.260099,-2.3e-05,-0.007807
73986,-0.054768,-0.00286,-0.571067,-0.041318,-0.0,-0.0,3.0,0.337875,0.305407,0.313718,0.345147,-0.008256,-0.0,-0.0,-0.102803,0.0,-0.0,-0.043055,-0.001717,-0.435257,-0.258751,-3.2e-05,-0.007782
74006,-0.059684,-0.003034,-0.571064,-0.042147,-0.0,-0.0,3.0,0.339442,0.304396,0.311973,0.345999,-0.010305,-0.0,-0.0,-0.101905,0.0,-0.0,-0.048173,-0.001717,-0.435412,-0.254373,-4.6e-05,-0.007748
74026,-0.064363,-0.003137,-0.570955,-0.044579,-0.0,-0.0,3.0,0.341751,0.30404,0.309356,0.346298,-0.012333,-0.0,-0.0,-0.101995,0.0,-0.0,-0.053215,-0.001718,-0.435567,-0.247841,-5.2e-05,-0.007713
74046,-0.068555,-0.003601,-0.570762,-0.045525,-0.0,-0.0,3.0,0.342208,0.303266,0.308832,0.346945,-0.014378,-0.0,-0.0,-0.102394,0.0,-0.0,-0.058159,-0.001718,-0.435721,-0.240561,-6.7e-05,-0.007687
74066,-0.072533,-0.003494,-0.570559,-0.047148,-0.0,-0.0,3.0,0.338926,0.303,0.312549,0.347166,-0.016416,-0.0,-0.0,-0.101729,0.0,-0.0,-0.062943,-0.001719,-0.435875,-0.233218,-5.2e-05,-0.00765
74086,-0.076241,-0.003439,-0.570458,-0.048693,-0.0,-0.0,3.0,0.337012,0.302952,0.314669,0.347206,-0.018446,-0.0,-0.0,-0.101621,0.0,-0.0,-0.067541,-0.001719,-0.436027,-0.225222,-2.9e-05,-0.007613
74106,-0.079717,-0.003311,-0.570261,-0.050216,-0.0,-0.0,3.0,0.335261,0.303253,0.316576,0.346955,-0.020475,-0.0,-0.0,-0.101587,0.0,-0.0,-0.071909,-0.00172,-0.43618,-0.216681,-1.2e-05,-0.007587
74126,-0.082988,-0.002995,-0.569966,-0.052001,-0.0,-0.0,3.0,0.333006,0.303963,0.318989,0.346362,-0.022503,-0.0,-0.0,-0.101764,0.0,-0.0,-0.076026,-0.00172,-0.436331,-0.203132,1.1e-05,-0.007553
74146,-0.085964,-0.002853,-0.569979,-0.053182,-0.0,-0.0,3.0,0.335526,0.304453,0.316289,0.345951,-0.024536,-0.0,-0.0,-0.101537,0.0,-0.0,-0.079894,-0.00172,-0.436482,-0.188347,6e-06,-0.007531
74166,-0.088481,-0.002957,-0.56992,-0.054698,-0.0,-0.0,3.0,0.337082,0.305306,0.314592,0.345233,-0.026558,-0.0,-0.0,-0.100929,0.0,-0.0,-0.083498,-0.00172,-0.436633,-0.16872,6e-06,-0.007512
74186,-0.090524,-0.002927,-0.569887,-0.056068,-0.0,-0.0,3.0,0.337449,0.306105,0.314189,0.344555,-0.028571,-0.0,-0.0,-0.100573,0.0,-0.0,-0.086804,-0.00172,-0.436783,-0.153161,5e-06,-0.007493
74206,-0.092352,-0.00321,-0.56987,-0.05697,-0.0,-0.0,3.0,0.33806,0.306636,0.313513,0.344101,-0.030575,-0.0,-0.0,-0.099592,0.0,-0.0,-0.089839,-0.001719,-0.436933,-0.142899,2e-06,-0.007473
74226,-0.094216,-0.003376,-0.569846,-0.058637,-0.0,-0.0,3.0,0.337304,0.307419,0.314348,0.343429,-0.032555,-0.0,-0.0,-0.098888,0.0,-0.0,-0.092635,-0.001719,-0.437082,-0.130149,-1.5e-05,-0.007466
74246,-0.096031,-0.003274,-0.569818,-0.059999,-0.0,-0.0,3.0,0.335716,0.308072,0.316084,0.342867,-0.03453,-0.0,-0.0,-0.098844,0.0,-0.0,-0.09519,-0.00172,-0.437231,-0.121646,-8e-06,-0.007447
74266,-0.09781,-0.003295,-0.56989,-0.060668,-0.0,-0.0,3.0,0.335913,0.308532,0.31587,0.342468,-0.036499,-0.0,-0.0,-0.09767,0.0,-0.0,-0.097542,-0.00172,-0.43738,-0.112175,-6e-06,-0.007421
74286,-0.09942,-0.003006,-0.56977,-0.061975,-0.0,-0.0,3.0,0.335655,0.309121,0.31615,0.341956,-0.038437,-0.0,-0.0,-0.096264,0.0,-0.0,-0.099716,-0.00172,-0.437528,-0.102023,2e-06,-0.007405
74306,-0.100699,-0.003,-0.569776,-0.062691,-0.0,-0.0,3.0,0.334234,0.309472,0.317681,0.34165,-0.040353,-0.0,-0.0,-0.095084,0.0,-0.0,-0.101721,-0.00172,-0.437676,-0.095118,3.5e-05,-0.007389
74326,-0.101976,-0.003001,-0.569879,-0.063763,-0.0,-0.0,3.0,0.333911,0.309838,0.318027,0.34133,-0.042241,-0.0,-0.0,-0.093726,0.0,-0.0,-0.103578,-0.00172,-0.437824,-0.088704,3.1e-05,-0.007374
74346,-0.103322,-0.002768,-0.56997,-0.065766,-0.0,-0.0,3.0,0.33132,0.310354,0.320764,0.340876,-0.044109,-0.0,-0.0,-0.093848,0.0,-0.0,-0.105307,-0.001719,-0.437972,-0.085044,5.1e-05,-0.007377
74366,-0.105218,-0.002824,-0.570025,-0.066829,-0.0,-0.0,3.0,0.333236,0.310284,0.318746,0.340938,-0.045988,-0.0,-0.0,-0.094109,0.0,-0.0,-0.106965,-0.001719,-0.43812,-0.08472,4e-05,-0.00738
74386,-0.10696,-0.002969,-0.570189,-0.067721,-0.0,-0.0,3.0,0.333622,0.309939,0.318335,0.341241,-0.04786,-0.0,-0.0,-0.092877,0.0,-0.0,-0.10863,-0.001719,-0.438267,-0.083266,6e-06,-0.007374
74406,-0.108808,-0.002758,-0.570237,-0.068916,-0.0,-0.0,3.0,0.333321,0.309432,0.318656,0.341685,-0.049705,-0.0,-0.0,-0.091661,0.0,-0.0,-0.110317,-0.001719,-0.438415,-0.086126,0.0,-0.007364
74426,-0.11071,-0.002817,-0.570382,-0.070029,-0.0,-0.0,3.0,0.333775,0.308841,0.318172,0.3422,-0.05153,-0.0,-0.0,-0.090941,0.0,-0.0,-0.112061,-0.001719,-0.438562,-0.087046,9e-06,-0.007364
74446,-0.112675,-0.002641,-0.570415,-0.071138,-0.0,-0.0,3.0,0.333701,0.307966,0.318251,0.342958,-0.053341,-0.0,-0.0,-0.090198,0.0,-0.0,-0.113882,-0.001719,-0.438709,-0.089001,2.7e-05,-0.007353
74466,-0.114908,-0.002416,-0.570422,-0.071693,-0.0,-0.0,3.0,0.333101,0.306772,0.318889,0.343985,-0.055134,-0.0,-0.0,-0.08876,0.0,-0.0,-0.115778,-0.001718,-0.438856,-0.095765,5.7e-05,-0.007348
74486,-0.117348,-0.002381,-0.570511,-0.073074,-0.0,-0.0,3.0,0.334948,0.30582,0.316914,0.344797,-0.056895,-0.0,-0.0,-0.08761,0.0,-0.0,-0.117775,-0.001717,-0.439003,-0.101238,4.9e-05,-0.007333
74506,-0.119931,-0.002261,-0.570482,-0.073074,-0.0,-0.0,3.0,0.334012,0.304399,0.317919,0.345997,-0.058639,-0.0,-0.0,-0.085978,0.0,-0.0,-0.119864,-0.001716,-0.43915,-0.108086,6.1e-05,-0.007325
74526,-0.122838,-0.002364,-0.570524,-0.075083,-0.0,-0.0,3.0,0.335168,0.303563,0.316676,0.346697,-0.060341,-0.0,-0.0,-0.085037,0.0,-0.0,-0.122053,-0.001715,-0.439296,-0.117881,5.1e-05,-0.007315
74546,-0.125593,-0.002549,-0.570575,-0.075651,-0.0,-0.0,3.0,0.33474,0.302135,0.317138,0.347883,-0.062043,-0.0,-0.0,-0.084912,0.0,-0.0,-0.124393,-0.001714,-0.439442,-0.125108,2.8e-05,-0.007314
74566,-0.128604,-0.002303,-0.570586,-0.076868,-0.0,-0.0,3.0,0.335429,0.301051,0.316394,0.348773,-0.06373,-0.0,-0.0,-0.083848,0.0,-0.0,-0.126846,-0.001714,-0.439589,-0.126426,2.8e-05,-0.007296
74586,-0.131269,-0.002336,-0.570532,-0.077374,-0.0,-0.0,3.0,0.336457,0.29965,0.315276,0.349914,-0.065397,-0.0,-0.0,-0.08254,0.0,-0.0,-0.1294,-0.001713,-0.439734,-0.128554,3.7e-05,-0.007275
74606,-0.133932,-0.001979,-0.570462,-0.078206,-0.0,-0.0,3.0,0.335874,0.298412,0.315912,0.350911,-0.067033,-0.0,-0.0,-0.080923,0.0,-0.0,-0.132017,-0.001712,-0.439879,-0.13026,5.6e-05,-0.007263
74626,-0.136674,-0.001782,-0.570482,-0.079007,-0.0,-0.0,3.0,0.336086,0.297355,0.315681,0.351755,-0.068641,-0.0,-0.0,-0.079711,0.0,-0.0,-0.134657,-0.00171,-0.440024,-0.133755,8.5e-05,-0.007239
74646,-0.139347,-0.001819,-0.570509,-0.07985,-0.0,-0.0,3.0,0.337002,0.296449,0.314679,0.352473,-0.070225,-0.0,-0.0,-0.07863,0.0,-0.0,-0.137328,-0.001708,-0.440169,-0.134147,9.3e-05,-0.007218
74666,-0.141856,-0.001553,-0.570539,-0.08049,-0.0,-0.0,3.0,0.337663,0.295731,0.313952,0.353039,-0.071787,-0.0,-0.0,-0.077354,0.0,-0.0,-0.13998,-0.001705,-0.440313,-0.131729,0.000108,-0.007207
74686,-0.144376,-0.001682,-0.570674,-0.081182,-0.0,-0.0,3.0,0.339771,0.295079,0.311603,0.353549,-0.073321,-0.0,-0.0,-0.075901,0.0,-0.0,-0.142594,-0.001703,-0.440457,-0.128877,9.9e-05,-0.007197
74706,-0.146385,-0.001787,-0.570759,-0.081846,-0.0,-0.0,3.0,0.339202,0.294457,0.312241,0.354034,-0.074828,-0.0,-0.0,-0.07453,0.0,-0.0,-0.145173,-0.0017,-0.440601,-0.12168,9.9e-05,-0.007201
74726,-0.147973,-0.001632,-0.570878,-0.082186,-0.0,-0.0,3.0,0.336153,0.294186,0.315608,0.354245,-0.076306,-0.0,-0.0,-0.072826,0.0,-0.0,-0.147613,-0.001698,-0.440745,-0.115659,0.000128,-0.007184
74746,-0.149518,-0.001591,-0.570906,-0.082991,-0.0,-0.0,3.0,0.336502,0.29437,0.315227,0.354102,-0.077747,-0.0,-0.0,-0.071298,0.0,-0.0,-0.149878,-0.001695,-0.440889,-0.111172,0.000132,-0.007187
74766,-0.151056,-0.001177,-0.571118,-0.083536,-0.0,-0.0,3.0,0.333371,0.294641,0.318603,0.353892,-0.079164,-0.0,-0.0,-0.070116,0.0,-0.0,-0.151969,-0.001692,-0.441033,-0.103145,0.000161,-0.007195
74786,-0.152437,-0.000834,-0.57115,-0.084052,-0.0,-0.0,3.0,0.333143,0.295003,0.318845,0.353609,-0.080554,-0.0,-0.0,-0.068645,0.0,-0.0,-0.153882,-0.001689,-0.441176,-0.093785,0.000186,-0.007196
74806,-0.153478,-0.000781,-0.571327,-0.084292,-0.0,-0.0,3.0,0.337173,0.295354,0.314491,0.353334,-0.081913,-0.0,-0.0,-0.066792,0.0,-0.0,-0.155615,-0.001685,-0.44132,-0.081834,0.000172,-0.007192
74826,-0.154254,-0.000767,-0.571435,-0.084781,-0.0,-0.0,3.0,0.336797,0.296043,0.314904,0.352794,-0.083234,-0.0,-0.0,-0.064967,0.0,-0.0,-0.157134,-0.001681,-0.441464,-0.068503,0.00018,-0.007191
74846,-0.154573,-0.001009,-0.571701,-0.085126,-0.0,-0.0,3.0,0.338542,0.296511,0.312978,0.352425,-0.08452,-0.0,-0.0,-0.063381,0.0,-0.0,-0.158456,-0.001677,-0.441608,-0.056743,0.000164,-0.007191
74866,-0.154652,-0.001169,-0.571795,-0.085607,-0.0,-0.0,3.0,0.337926,0.29712,0.313661,0.351942,-0.085775,-0.0,-0.0,-0.061856,0.0,-0.0,-0.159562,-0.001673,-0.441751,-0.048584,0.00016,-0.007191
74886,-0.154725,-0.000956,-0.572075,-0.085886,-0.0,-0.0,3.0,0.335997,0.297756,0.315778,0.351435,-0.087,-0.0,-0.0,-0.060276,0.0,-0.0,-0.160465,-0.00167,-0.441895,-0.037288,0.000182,-0.007195
74906,-0.154841,-0.000991,-0.572063,-0.086094,-0.0,-0.0,3.0,0.337511,0.298348,0.31412,0.350963,-0.088192,-0.0,-0.0,-0.058413,0.0,-0.0,-0.161163,-0.001666,-0.442039,-0.027247,0.000169,-0.007191
74926,-0.154789,-0.000741,-0.572256,-0.086461,-0.0,-0.0,3.0,0.334319,0.29899,0.31759,0.350447,-0.089345,-0.0,-0.0,-0.056692,0.0,-0.0,-0.161673,-0.001662,-0.442183,-0.021148,0.00019,-0.007195
74946,-0.154795,-0.000753,-0.572452,-0.08669,-0.0,-0.0,3.0,0.336429,0.29943,0.315307,0.350092,-0.090467,-0.0,-0.0,-0.055104,0.0,-0.0,-0.16204,-0.001658,-0.442327,-0.017822,0.000185,-0.007199
74966,-0.154755,-0.000888,-0.572657,-0.08688,-0.0,-0.0,3.0,0.33684,0.299548,0.314858,0.349996,-0.091556,-0.0,-0.0,-0.053357,0.0,-0.0,-0.162333,-0.001654,-0.442471,-0.013743,0.000183,-0.007204
74986,-0.154752,-0.000897,-0.572755,-0.087034,-0.0,-0.0,3.0,0.334888,0.299633,0.316979,0.349927,-0.092609,-0.0,-0.0,-0.051545,0.0,-0.0,-0.162551,-0.00165,-0.442615,-0.009737,0.000197,-0.007209
75006,-0.15484,-0.00106,-0.572947,-0.087107,-0.0,-0.0,3.0,0.337049,0.2996,0.314628,0.349954,-0.093626,-0.0,-0.0,-0.049672,0.0,-0.0,-0.162707,-0.001646,-0.442759,-0.008218,0.000168,-0.007205
75026,-0.154986,-0.000996,-0.573124,-0.087181,-0.0,-0.0,3.0,0.335847,0.299362,0.315941,0.350146,-0.094605,-0.0,-0.0,-0.047772,0.0,-0.0,-0.162846,-0.001643,-0.442903,-0.005888,0.000154,-0.007221
75046,-0.155109,-0.001042,-0.573307,-0.087252,-0.0,-0.0,3.0,0.335674,0.299113,0.316129,0.350347,-0.095546,-0.0,-0.0,-0.045939,0.0,-0.0,-0.162966,-0.00164,-0.443047,-0.005774,0.000149,-0.007225
75066,-0.155069,-0.001177,-0.573512,-0.087265,-0.0,-0.0,3.0,0.336632,0.298805,0.315085,0.350596,-0.096451,-0.0,-0.0,-0.044105,0.0,-0.0,-0.163079,-0.001636,-0.443191,-0.007497,0.00014,-0.007228
75086,-0.155145,-0.000956,-0.573693,-0.087257,-0.0,-0.0,3.0,0.336385,0.298452,0.315355,0.350879,-0.097319,-0.0,-0.0,-0.042231,0.0,-0.0,-0.163205,-0.001633,-0.443336,-0.00621,0.000151,-0.007222
75106,-0.15541,-0.000917,-0.573759,-0.08719,-0.0,-0.0,3.0,0.338545,0.298015,0.312974,0.351229,-0.09815,-0.0,-0.0,-0.040321,0.0,-0.0,-0.163331,-0.00163,-0.44348,-0.004933,0.000161,-0.007217
75126,-0.155533,-0.000964,-0.573943,-0.087094,-0.0,-0.0,3.0,0.337416,0.297485,0.314225,0.351652,-0.098942,-0.0,-0.0,-0.038375,0.0,-0.0,-0.163471,-0.001626,-0.443624,-0.005646,0.000179,-0.007219
75146,-0.155527,-0.000982,-0.574139,-0.086959,-0.0,-0.0,3.0,0.337963,0.297097,0.313621,0.35196,-0.099695,-0.0,-0.0,-0.036418,0.0,-0.0,-0.16361,-0.001622,-0.443768,-0.0053,0.000175,-0.007214
75166,-0.155732,-0.00118,-0.574319,-0.08678,-0.0,-0.0,3.0,0.337392,0.29673,0.314251,0.352251,-0.100409,-0.0,-0.0,-0.034434,0.0,-0.0,-0.163722,-0.001618,-0.443913,-0.008597,0.000162,-0.007225
75186,-0.155846,-0.001224,-0.574405,-0.086677,-0.0,-0.0,3.0,0.335026,0.296443,0.316829,0.352478,-0.101084,-0.0,-0.0,-0.032551,0.0,-0.0,-0.163844,-0.001615,-0.444057,-0.008492,0.000157,-0.007219
75206,-0.15607,-0.00093,-0.574664,-0.086488,-0.0,-0.0,3.0,0.334418,0.296193,0.317484,0.352675,-0.101722,-0.0,-0.0,-0.030734,0.0,-0.0,-0.163943,-0.001612,-0.444202,-0.009257,0.000163,-0.007232
75226,-0.156452,-0.000927,-0.574718,-0.086092,-0.0,-0.0,3.0,0.33636,0.295623,0.315382,0.353123,-0.102322,-0.0,-0.0,-0.028632,0.0,-0.0,-0.164074,-0.001608,-0.444346,-0.005833,0.000165,-0.007229
75246,-0.156412,-0.000671,-0.574911,-0.085815,-0.0,-0.0,3.0,0.336569,0.295124,0.315154,0.353515,-0.102879,-0.0,-0.0,-0.026462,0.0,-0.0,-0.164212,-0.001604,-0.444491,-0.004516,0.000175,-0.007233
75266,-0.156327,-0.000528,-0.575014,-0.085621,-0.0,-0.0,3.0,0.336899,0.294824,0.314793,0.353749,-0.103394,-0.0,-0.0,-0.024629,0.0,-0.0,-0.164326,-0.0016,-0.444636,-0.003828,0.000196,-0.007237
75286,-0.15617,-0.000628,-0.57523,-0.085123,-0.0,-0.0,3.0,0.337537,0.294463,0.31409,0.35403,-0.103874,-0.0,-0.0,-0.022648,0.0,-0.0,-0.164411,-0.001596,-0.44478,-0.002718,0.000194,-0.007252
75306,-0.156022,-0.000731,-0.575544,-0.084702,-0.0,-0.0,3.0,0.336143,0.294094,0.315619,0.354317,-0.104311,-0.0,-0.0,-0.020412,0.0,-0.0,-0.164472,-0.001592,-0.444925,-0.00026,0.000196,-0.007248
75326,-0.155868,-0.000822,-0.575662,-0.08424,-0.0,-0.0,3.0,0.339092,0.293857,0.312364,0.3545,-0.104704,-0.0,-0.0,-0.018287,0.0,-0.0,-0.164479,-0.001588,-0.44507,0.000826,0.000171,-0.007245
75346,-0.155865,-0.000831,-0.575761,-0.083739,-0.0,-0.0,3.0,0.338751,0.293598,0.312745,0.354701,-0.105055,-0.0,-0.0,-0.016189,0.0,-0.0,-0.164448,-0.001584,-0.445215,0.002518,0.000162,-0.007243
75366,-0.155673,-0.000657,-0.575974,-0.08348,-0.0,-0.0,3.0,0.337457,0.293338,0.31418,0.354902,-0.105365,-0.0,-0.0,-0.014387,0.0,-0.0,-0.164396,-0.00158,-0.445359,0.00443,0.000179,-0.007249
75386,-0.155402,-0.000713,-0.576104,-0.083084,-0.0,-0.0,3.0,0.338082,0.292983,0.313489,0.355175,-0.105642,-0.0,-0.0,-0.01279,0.0,-0.0,-0.164317,-0.001576,-0.445504,0.002907,0.000189,-0.007244
75406,-0.155201,-0.000535,-0.576219,-0.082185,-0.0,-0.0,3.0,0.335824,0.292434,0.315965,0.355596,-0.105885,-0.0,-0.0,-0.010487,0.0,-0.0,-0.164226,-0.001571,-0.445649,0.000755,0.000211,-0.007238
75426,-0.155502,-0.000381,-0.576277,-0.081626,-0.0,-0.0,3.0,0.3331,0.292035,0.318891,0.355901,-0.106076,-0.0,-0.0,-0.007977,0.0,-0.0,-0.164126,-0.001567,-0.445794,0.001535,0.00024,-0.007244
75446,-0.155625,-0.000428,-0.576461,-0.081201,-0.0,-0.0,3.0,0.335576,0.291627,0.316235,0.356212,-0.106222,-0.0,-0.0,-0.006179,0.0,-0.0,-0.164036,-0.001562,-0.445939,0.003403,0.000206,-0.007252
75466,-0.155351,-0.000493,-0.57669,-0.080291,-0.0,-0.0,3.0,0.336509,0.29106,0.31522,0.356643,-0.106334,-0.0,-0.0,-0.004139,0.0,-0.0,-0.163951,-0.001558,-0.446084,0.004854,0.000184,-0.00726
75486,-0.15525,-0.000863,-0.577007,-0.07956,-0.0,-0.0,3.0,0.337788,0.29046,0.313813,0.357096,-0.106399,-0.0,-0.0,-0.001697,0.0,-0.0,-0.163864,-0.001554,-0.446229,0.006131,0.000163,-0.007268
75506,-0.15506,-0.00107,-0.577132,-0.078784,-0.0,-0.0,3.0,0.337281,0.289772,0.314373,0.357614,-0.106418,-0.0,-0.0,0.000516,0.0,-0.0,-0.163786,-0.001551,-0.446374,0.005583,0.00015,-0.007264
75526,-0.154708,-0.000975,-0.577267,-0.077976,-0.0,-0.0,3.0,0.335703,0.289057,0.316097,0.358149,-0.106394,-0.0,-0.0,0.002662,0.0,-0.0,-0.163714,-0.001548,-0.446519,0.004156,0.00016,-0.007259
75546,-0.154702,-0.000993,-0.577463,-0.077502,-0.0,-0.0,3.0,0.335706,0.288786,0.316094,0.358351,-0.106327,-0.0,-0.0,0.004406,0.0,-0.0,-0.163609,-0.001544,-0.446664,0.005947,0.000166,-0.007256
75566,-0.154475,-0.000935,-0.577684,-0.076935,-0.0,-0.0,3.0,0.334278,0.288365,0.317634,0.358664,-0.10623,-0.0,-0.0,0.005785,0.0,-0.0,-0.16349,-0.001541,-0.44681,0.00905,0.000174,-0.007275
75586,-0.154123,-0.000839,-0.577818,-0.075577,-0.0,-0.0,3.0,0.333197,0.288034,0.318788,0.358909,-0.106103,-0.0,-0.0,0.008157,0.0,-0.0,-0.163296,-0.001537,-0.446955,0.009144,0.000191,-0.007272
75606,-0.153427,-0.00104,-0.578195,-0.075056,-0.0,-0.0,3.0,0.333655,0.288029,0.3183,0.358913,-0.10592,-0.0,-0.0,0.010543,0.0,-0.0,-0.163053,-0.001534,-0.447101,0.011633,0.000176,-0.007282
75626,-0.152652,-0.001081,-0.578478,-0.073667,-0.0,-0.0,3.0,0.334552,0.287902,0.31734,0.359007,-0.105698,-0.0,-0.0,0.012743,0.0,-0.0,-0.162728,-0.00153,-0.447246,0.019847,0.000164,-0.007298
75646,-0.15176,-0.001087,-0.578773,-0.072718,-0.0,-0.0,3.0,0.332662,0.287989,0.319354,0.358943,-0.105425,-0.0,-0.0,0.015335,0.0,-0.0,-0.162284,-0.001527,-0.447393,0.025475,0.000175,-0.007312
75666,-0.150834,-0.001209,-0.579074,-0.071688,-0.0,-0.0,3.0,0.333392,0.287967,0.31858,0.358959,-0.105104,-0.0,-0.0,0.01748,0.0,-0.0,-0.161746,-0.001524,-0.447539,0.030774,0.000162,-0.007327
75686,-0.149861,-0.001063,-0.579372,-0.070629,-0.0,-0.0,3.0,0.332336,0.288127,0.319698,0.35884,-0.104742,-0.0,-0.0,0.019583,0.0,-0.0,-0.161098,-0.001521,-0.447686,0.037324,0.000167,-0.007354
75706,-0.148465,-0.001053,-0.579817,-0.070099,-0.0,-0.0,3.0,0.331895,0.288565,0.320163,0.358515,-0.104338,-0.0,-0.0,0.021089,0.0,-0.0,-0.160331,-0.001518,-0.447833,0.042204,0.000173,-0.007371
75726,-0.147037,-0.00115,-0.580169,-0.068769,-0.0,-0.0,3.0,0.333973,0.288827,0.317961,0.35832,-0.103909,-0.0,-0.0,0.022807,0.0,-0.0,-0.159434,-0.001515,-0.447981,0.047861,0.00016,-0.00739
75746,-0.14549,-0.001221,-0.58063,-0.067922,-0.0,-0.0,3.0,0.333746,0.289289,0.318203,0.357975,-0.103437,-0.0,-0.0,0.024934,0.0,-0.0,-0.158419,-0.001512,-0.448129,0.056241,0.000168,-0.007422
75766,-0.143793,-0.001364,-0.581009,-0.066514,-0.0,-0.0,3.0,0.335017,0.289576,0.316839,0.357761,-0.102927,-0.0,-0.0,0.027088,0.0,-0.0,-0.157272,-0.001508,-0.448278,0.065441,0.000157,-0.007437
75786,-0.141774,-0.001282,-0.581314,-0.065338,-0.0,-0.0,3.0,0.334492,0.290133,0.317405,0.357343,-0.102369,-0.0,-0.0,0.029489,0.0,-0.0,-0.155961,-0.001505,-0.448426,0.071814,0.000157,-0.00746
75806,-0.13972,-0.001316,-0.581622,-0.064491,-0.0,-0.0,3.0,0.334313,0.290894,0.317597,0.356768,-0.101768,-0.0,-0.0,0.03117,0.0,-0.0,-0.154487,-0.001502,-0.448576,0.077671,0.000162,-0.007474
75826,-0.137671,-0.00136,-0.582124,-0.062816,-0.0,-0.0,3.0,0.33238,0.291432,0.319652,0.35636,-0.101135,-0.0,-0.0,0.033264,0.0,-0.0,-0.152858,-0.0015,-0.448726,0.082926,0.000169,-0.007509
75846,-0.135418,-0.001207,-0.582441,-0.062145,-0.0,-0.0,3.0,0.332355,0.292458,0.319678,0.355578,-0.100453,-0.0,-0.0,0.035218,0.0,-0.0,-0.151082,-0.001497,-0.448876,0.089824,0.000171,-0.007546
75866,-0.133253,-0.001214,-0.582947,-0.060835,-0.0,-0.0,3.0,0.333912,0.293084,0.318025,0.355097,-0.099743,-0.0,-0.0,0.036613,0.0,-0.0,-0.149183,-0.001493,-0.449027,0.097208,0.000166,-0.007564
75886,-0.130778,-0.001374,-0.583286,-0.059503,-0.0,-0.0,3.0,0.33582,0.293692,0.31597,0.354628,-0.098999,-0.0,-0.0,0.038684,0.0,-0.0,-0.147176,-0.00149,-0.449179,0.107283,0.000145,-0.007596
75906,-0.128068,-0.00147,-0.583739,-0.057862,-0.0,-0.0,3.0,0.334821,0.294018,0.317051,0.354376,-0.098211,-0.0,-0.0,0.041202,0.0,-0.0,-0.145059,-0.001488,-0.449331,0.113174,0.000143,-0.007624
75926,-0.125213,-0.001649,-0.584301,-0.056757,-0.0,-0.0,3.0,0.336705,0.294576,0.315005,0.353942,-0.097372,-0.0,-0.0,0.043322,0.0,-0.0,-0.142835,-0.001485,-0.449484,0.116624,0.000127,-0.007652
75946,-0.122506,-0.001737,-0.584644,-0.056757,-0.0,-0.0,3.0,0.336308,0.295526,0.315439,0.3532,-0.0965,-0.0,-0.0,0.043367,0.0,-0.0,-0.140509,-0.001482,-0.449637,0.120244,0.000114,-0.00767
75966,-0.119803,-0.001833,-0.585179,-0.054905,-0.0,-0.0,3.0,0.336301,0.296002,0.315447,0.352826,-0.095638,-0.0,-0.0,0.044121,0.0,-0.0,-0.138071,-0.00148,-0.44979,0.123865,0.000104,-0.007708
75986,-0.117093,-0.001925,-0.585608,-0.052726,-0.0,-0.0,3.0,0.335849,0.29627,0.315939,0.352615,-0.094736,-0.0,-0.0,0.047719,0.0,-0.0,-0.135557,-0.001478,-0.449945,0.126535,9.5e-05,-0.007736
76006,-0.114308,-0.001868,-0.586136,-0.05163,-0.0,-0.0,3.0,0.335802,0.296886,0.31599,0.352128,-0.093759,-0.0,-0.0,0.050502,0.0,-0.0,-0.132979,-0.001476,-0.4501,0.130921,0.000104,-0.007765
76026,-0.111367,-0.001881,-0.586474,-0.049926,-0.0,-0.0,3.0,0.336525,0.297216,0.315202,0.351866,-0.092741,-0.0,-0.0,0.052158,0.0,-0.0,-0.13034,-0.001474,-0.450255,0.134596,0.000114,-0.007792
76046,-0.10838,-0.001626,-0.586805,-0.048403,-0.0,-0.0,3.0,0.335887,0.297694,0.315898,0.351485,-0.091686,-0.0,-0.0,0.054225,0.0,-0.0,-0.127629,-0.001472,-0.450411,0.135679,0.00012,-0.007818
76066,-0.105479,-0.00153,-0.587322,-0.046863,-0.0,-0.0,3.0,0.333328,0.298199,0.318648,0.351082,-0.09059,-0.0,-0.0,0.056226,0.0,-0.0,-0.124859,-0.001469,-0.450568,0.138548,0.000145,-0.007845
76086,-0.102772,-0.001613,-0.587626,-0.045279,-0.0,-0.0,3.0,0.335633,0.298399,0.316173,0.350922,-0.089454,-0.0,-0.0,0.058175,0.0,-0.0,-0.122057,-0.001467,-0.450725,0.139371,0.000128,-0.007871
76106,-0.099835,-0.001632,-0.588136,-0.043978,-0.0,-0.0,3.0,0.336479,0.298846,0.315253,0.350562,-0.088281,-0.0,-0.0,0.059776,0.0,-0.0,-0.119233,-0.001464,-0.450883,0.141853,0.000103,-0.007898
76126,-0.096894,-0.001642,-0.588444,-0.04275,-0.0,-0.0,3.0,0.33682,0.299364,0.314879,0.350145,-0.087079,-0.0,-0.0,0.06088,0.0,-0.0,-0.116371,-0.001462,-0.451041,0.142923,0.000101,-0.007913
76146,-0.093999,-0.001921,-0.588746,-0.04093,-0.0,-0.0,3.0,0.337853,0.299437,0.313742,0.350086,-0.085855,-0.0,-0.0,0.062541,0.0,-0.0,-0.113513,-0.00146,-0.451199,0.144532,8.9e-05,-0.007928
76166,-0.09083,-0.001861,-0.589155,-0.039391,-0.0,-0.0,3.0,0.336531,0.299602,0.315195,0.349953,-0.084592,-0.0,-0.0,0.064623,0.0,-0.0,-0.110651,-0.001458,-0.451358,0.147129,9.1e-05,-0.007952
76186,-0.088007,-0.001905,-0.589435,-0.037931,-0.0,-0.0,3.0,0.337191,0.299728,0.314472,0.34985,-0.08329,-0.0,-0.0,0.066178,0.0,-0.0,-0.107764,-0.001456,-0.451517,0.144182,9.4e-05,-0.007963
76206,-0.085225,-0.001829,-0.589708,-0.036159,-0.0,-0.0,3.0,0.335282,0.299717,0.316553,0.34986,-0.081959,-0.0,-0.0,0.067829,0.0,-0.0,-0.104903,-0.001454,-0.451676,0.142638,0.000113,-0.007984
76226,-0.082437,-0.001755,-0.589973,-0.034498,-0.0,-0.0,3.0,0.334255,0.299899,0.317659,0.349711,-0.080592,-0.0,-0.0,0.069727,0.0,-0.0,-0.102034,-0.001452,-0.451836,0.141537,0.00012,-0.007995
76246,-0.079699,-0.001951,-0.590333,-0.032788,-0.0,-0.0,3.0,0.33686,0.300079,0.314836,0.349566,-0.079188,-0.0,-0.0,0.071495,0.0,-0.0,-0.099164,-0.00145,-0.451996,0.138143,9.7e-05,-0.008014
76266,-0.076924,-0.002268,-0.590789,-0.031938,-0.0,-0.0,3.0,0.337782,0.30049,0.31382,0.349231,-0.077752,-0.0,-0.0,0.072214,0.0,-0.0,-0.096326,-0.001448,-0.452157,0.139334,5.7e-05,-0.008035
76286,-0.074336,-0.002376,-0.590931,-0.029785,-0.0,-0.0,3.0,0.336093,0.30031,0.315673,0.349378,-0.076308,-0.0,-0.0,0.073329,0.0,-0.0,-0.09351,-0.001447,-0.452317,0.139434,5.3e-05,-0.008045
76306,-0.071516,-0.002419,-0.591276,-0.028247,-0.0,-0.0,3.0,0.335601,0.30038,0.316208,0.349321,-0.074828,-0.0,-0.0,0.075379,0.0,-0.0,-0.090722,-0.001446,-0.452478,0.139853,4.9e-05,-0.008063
76326,-0.068733,-0.002343,-0.591613,-0.026119,-0.0,-0.0,3.0,0.335863,0.300354,0.315923,0.349342,-0.073312,-0.0,-0.0,0.077361,0.0,-0.0,-0.087933,-0.001445,-0.45264,0.138661,4.1e-05,-0.008071
76346,-0.066218,-0.002222,-0.591929,-0.024724,-0.0,-0.0,3.0,0.334751,0.300375,0.317126,0.349325,-0.071754,-0.0,-0.0,0.078966,0.0,-0.0,-0.085179,-0.001444,-0.452801,0.13857,6e-05,-0.008088
76366,-0.063399,-0.002263,-0.592258,-0.022773,-0.0,-0.0,3.0,0.336277,0.300328,0.315472,0.349363,-0.07017,-0.0,-0.0,0.080265,0.0,-0.0,-0.08244,-0.001443,-0.452963,0.136484,4.9e-05,-0.008103
76386,-0.060576,-0.002301,-0.59248,-0.022773,-0.0,-0.0,3.0,0.337269,0.301084,0.314386,0.348746,-0.068561,-0.0,-0.0,0.079932,0.0,-0.0,-0.079706,-0.001442,-0.453125,0.137697,4.5e-05,-0.008109
76406,-0.05784,-0.002497,-0.592993,-0.020038,-0.0,-0.0,3.0,0.337408,0.300968,0.314233,0.348841,-0.066974,-0.0,-0.0,0.080395,0.0,-0.0,-0.076961,-0.001441,-0.453288,0.140317,4.4e-05,-0.008135
76426,-0.054867,-0.002619,-0.593407,-0.018248,-0.0,-0.0,3.0,0.337168,0.300972,0.314497,0.348838,-0.065348,-0.0,-0.0,0.083212,0.0,-0.0,-0.074219,-0.00144,-0.453451,0.139759,3.6e-05,-0.008169
76446,-0.052047,-0.002659,-0.593809,-0.016436,-0.0,-0.0,3.0,0.335351,0.301176,0.316479,0.348671,-0.063673,-0.0,-0.0,0.084976,0.0,-0.0,-0.071451,-0.00144,-0.453614,0.138396,4e-05,-0.008193
76466,-0.049262,-0.002582,-0.594202,-0.014633,-0.0,-0.0,3.0,0.334165,0.30138,0.317755,0.348504,-0.061968,-0.0,-0.0,0.086259,0.0,-0.0,-0.068669,-0.001439,-0.453778,0.136838,4.4e-05,-0.008215
76486,-0.04648,-0.002504,-0.59469,-0.012572,-0.0,-0.0,3.0,0.333869,0.301724,0.318072,0.348221,-0.060236,-0.0,-0.0,0.087851,0.0,-0.0,-0.065868,-0.001439,-0.453943,0.140738,3.6e-05,-0.008249
76506,-0.043579,-0.002389,-0.595074,-0.012572,-0.0,-0.0,3.0,0.332999,0.302781,0.318997,0.347347,-0.058476,-0.0,-0.0,0.087408,0.0,-0.0,-0.063012,-0.001438,-0.454108,0.141356,4.7e-05,-0.008281
76526,-0.040491,-0.002474,-0.595658,-0.010353,-0.0,-0.0,3.0,0.335295,0.303204,0.316539,0.346996,-0.056743,-0.0,-0.0,0.086923,0.0,-0.0,-0.060123,-0.001438,-0.454274,0.146145,3.1e-05,-0.008314
76546,-0.037204,-0.002365,-0.596041,-0.0075,-0.0,-0.0,3.0,0.335059,0.303427,0.316794,0.346811,-0.054992,-0.0,-0.0,0.09002,0.0,-0.0,-0.057182,-0.001437,-0.45444,0.152945,3.3e-05,-0.008336
76566,-0.033731,-0.002454,-0.596523,-0.006129,-0.0,-0.0,3.0,0.335247,0.304111,0.316592,0.346239,-0.053171,-0.0,-0.0,0.09238,0.0,-0.0,-0.054165,-0.001436,-0.454607,0.156626,4.4e-05,-0.008357
76586,-0.030409,-0.00246,-0.59689,-0.004044,-0.0,-0.0,3.0,0.334947,0.304643,0.316915,0.345792,-0.051323,-0.0,-0.0,0.093198,0.0,-0.0,-0.051071,-0.001436,-0.454775,0.158127,4e-05,-0.008387
76606,-0.026819,-0.00251,-0.597356,-0.002198,-0.0,-0.0,3.0,0.335197,0.305338,0.316645,0.345205,-0.049454,-0.0,-0.0,0.094452,0.0,-0.0,-0.047917,-0.001435,-0.454943,0.164096,3.5e-05,-0.008426
