time_ms,roll,pitch,yaw,roll_rate,pitch_rate,yaw_rate,reference_roll,reference_pitch,reference_yaw,reference_throttle,throttle_1,throttle_2,throttle_3,throttle_4,roll_predicted,pitch_predicted,yaw_predicted,roll_rate_predicted,pitch_rate_predicted,yaw_rate_predicted
311498,-0.010819,0.012572,-0.069294,-0.001077,-0.001076,-0.001053,0.0,-0.0,-0.0,2.0,0.282024,0.28072,0.282024,0.283319,,,,,,
311518,-0.01094,0.012569,-0.069171,-0.001077,-0.001076,-0.001053,6e-05,-0.0,-0.0,2.0,0.282024,0.280631,0.282024,0.283408,,,,,,
311538,-0.010822,0.012695,-0.069171,0.0,0.0,0.0,0.005666,-0.0,-0.0,2.0,0.282024,0.279547,0.282024,0.284471,,,,,,
311558,-0.010821,0.012696,-0.06905,-1.4e-05,-1.2e-05,-0.001064,0.007529,-0.0,-0.0,2.0,0.282024,0.278619,0.282024,0.285371,,,,,,
311578,-0.010577,0.012705,-0.06893,-1.4e-05,-1.1e-05,-0.001064,0.011871,-0.0,-0.0,2.0,0.282024,0.276564,0.282024,0.287336,,,,,,
311598,-0.010328,0.012592,-0.06881,-1.3e-05,-1.1e-05,-0.001064,0.011871,-0.0,-0.0,2.0,0.282024,0.27669,0.282024,0.287217,,,,,,
311618,-0.010449,0.012588,-0.068688,-1.3e-05,-1.1e-05,-0.001064,0.018505,-0.0,-0.0,2.0,0.282024,0.273254,0.282024,0.290418,,,,,,
311638,-0.010326,0.012593,-0.068567,-0.001077,-0.001075,-0.001053,0.021709,-0.0,-0.0,2.0,0.282024,0.269951,0.282024,0.293396,,,,,,
311658,-0.010448,0.012589,-0.068566,-0.001077,-0.001075,-0.001053,0.024343,-0.0,-0.0,2.0,0.282024,0.270256,0.282024,0.293125,,,,,,
311678,-0.010452,0.012712,-0.068444,0.0,-0.001064,1.1e-05,0.027177,-0.0,-0.0,2.0,0.282024,0.268748,0.282024,0.294457,,,,,,
311698,-0.010333,0.012838,-0.068322,-1.4e-05,-0.001075,-0.001053,0.030978,-0.0,-0.0,2.0,0.282024,0.266801,0.282024,0.296148,,,,,,
311718,-0.010206,0.012721,-0.068202,-1.4e-05,-1.1e-05,-0.001064,0.034507,-0.0,-0.0,2.0,0.282024,0.264983,0.282024,0.297698,,,,,,
311738,-0.009962,0.01273,-0.068204,0.0,0.0,0.0,0.038115,-0.0,-0.0,2.0,0.282024,0.263168,0.282024,0.29922,,,,,,
311758,-0.009717,0.012739,-0.068084,-1.3e-05,-0.001075,-0.001054,0.038115,-0.0,-0.0,2.0,0.282024,0.263323,0.282024,0.299091,,,,,,
311778,-0.009351,0.012751,-0.068086,-1.3e-05,-0.001074,-0.001054,0.0435,-0.0,-0.0,2.0,0.282024,0.260559,0.282024,0.301361,,,,,,
311798,-0.00911,0.012881,-0.067953,0.001051,-0.001074,-0.001055,0.047505,-0.0,-0.0,2.0,0.282024,0.260303,0.282024,0.301569,,,,,,
311818,-0.008504,0.013024,-0.067957,0.00105,-9e-06,-0.001064,0.049237,-0.0,-0.0,2.0,0.282024,0.257869,0.282024,0.303514,,,,,,
311838,-0.007775,0.013172,-0.067719,0.00105,-0.001072,-0.001056,0.053399,-0.0,-0.0,2.0,0.282024,0.25777,0.282024,0.303592,,,,,,
311858,-0.006798,0.013206,-0.067604,0.002114,-0.001071,-0.001057,0.054923,-0.0,-0.0,2.0,0.282024,0.259303,0.282024,0.302373,,,,,,
311878,-0.005695,0.013121,-0.06749,0.003179,-6e-06,-0.001064,0.057885,-0.0,-0.0,2.0,0.282024,0.258269,0.282024,0.303197,,,,,,
311898,-0.003861,0.013061,-0.067503,0.003179,-4e-06,-0.001064,0.060599,-0.0,-0.0,2.0,0.282024,0.259637,0.282024,0.302105,,,,,,
311918,-0.0019,0.012883,-0.067395,0.004257,0.0,0.0,0.06347,-0.0,-0.0,2.0,0.282024,0.260954,0.282024,0.30104,,,,,,
311938,0.000176,0.012953,-0.067165,0.005307,-0.001064,-0.001065,0.06347,-0.0,-0.0,2.0,0.282024,0.263859,0.282024,0.298644,,,,,,
311958,0.00286,0.013043,-0.06706,0.006371,-0.001061,-0.001067,0.067921,-0.0,-0.0,2.0,0.282024,0.262902,0.282024,0.29944,,,,,,
311978,0.005915,0.013023,-0.067078,0.006371,-0.001058,-0.001071,0.069069,-0.0,-0.0,2.0,0.282024,0.265731,0.282024,0.297064,,,,,,
311998,0.009575,0.013145,-0.066978,0.00745,0.0,0.0,0.07115,-0.0,-0.0,2.0,0.282024,0.268298,0.282024,0.29485,,,,,,
312018,0.013476,0.013397,-0.066879,0.008514,0.0,0.0,0.073982,-0.0,-0.0,2.0,0.282024,0.270586,0.282024,0.292831,,,,,,
312038,0.017756,0.013295,-0.06679,0.009564,-0.001045,-0.001083,0.075874,-0.0,-0.0,2.0,0.282024,0.273523,0.282024,0.290172,,,,,,
312058,0.022278,0.013201,-0.06681,0.010628,2.4e-05,-0.001064,0.077623,-0.0,-0.0,2.0,0.282024,0.27494,0.282024,0.288861,,,,,,
312078,0.027416,0.013006,-0.06684,0.010642,0.0,0.0,0.07845,-0.0,-0.0,2.0,0.282024,0.278794,0.282024,0.285202,,,,,,
312098,0.03267,0.012934,-0.066735,0.010642,0.0,0.0,0.080295,-0.0,-0.0,2.0,0.282024,0.282089,0.282024,0.28196,,,,,,
312118,0.038167,0.012992,-0.066643,0.011692,-0.001023,-0.001104,0.081451,-0.0,-0.0,2.0,0.282024,0.284203,0.282024,0.27982,,,,,,
312138,0.043784,0.013055,-0.06667,0.012756,-0.001017,-0.00111,0.082629,-0.0,-0.0,2.0,0.282024,0.286365,0.282024,0.277585,,,,,,
312158,0.049649,0.013008,-0.066813,0.011706,-0.001063,-5.3e-05,0.083561,-0.0,-0.0,2.0,0.282024,0.288717,0.282024,0.275094,,,,,,
312178,0.055628,0.013206,-0.066838,0.012771,0.0,0.0,0.084841,-0.0,-0.0,2.0,0.282024,0.292474,0.282024,0.270985,,,,,,
312198,0.061494,0.013275,-0.066747,0.012756,-0.000997,-0.001128,0.085413,-0.0,-0.0,2.0,0.282024,0.294904,0.282024,0.268237,,,,,,
312218,0.067237,0.01322,-0.066758,0.011677,-0.000919,-0.002195,0.086094,-0.0,-0.0,2.0,0.282024,0.295715,0.282024,0.267303,,,,,,
312238,0.073105,0.013174,-0.0669,0.011706,0.0,0.0,0.086622,-0.0,-0.0,2.0,0.282024,0.298168,0.282024,0.264427,,,,,,
312258,0.078615,0.012981,-0.066668,0.010642,0.0,0.0,0.087006,-0.0,-0.0,2.0,0.282024,0.300476,0.282024,0.261646,,,,,,
312278,0.083994,0.012903,-0.066426,0.010627,-0.000971,-0.00115,0.087143,-0.0,-0.0,2.0,0.282024,0.301306,0.282024,0.260627,,,,,,
312298,0.089006,0.012946,-0.066441,0.010614,-0.000871,-0.002215,0.087263,-0.0,-0.0,2.0,0.282024,0.303498,0.282024,0.257889,,,,,,
312318,0.093779,0.012852,-0.066327,0.009563,-0.00096,-0.001159,0.087229,-0.0,-0.0,2.0,0.282024,0.304182,0.282024,0.25702,,,,,,
312338,0.098302,0.012989,-0.066101,0.008512,-0.001059,-0.000104,0.087144,-0.0,-0.0,2.0,0.282024,0.304739,0.282024,0.256308,,,,,,
312358,0.102328,0.013222,-0.065748,0.007434,-0.00095,-0.001167,0.086597,-0.0,-0.0,2.0,0.282024,0.30672,0.282024,0.253733,,,,,,
312378,0.105749,0.013313,-0.065388,0.006356,-0.000834,-0.002229,0.08603,-0.0,-0.0,2.0,0.282024,0.30558,0.282024,0.255222,,,,,,
312398,0.108814,0.013277,-0.065156,0.005291,-0.000827,-0.002232,0.085332,-0.0,-0.0,2.0,0.282024,0.305804,0.282024,0.254931,,,,,,
312418,0.11139,0.013095,-0.064784,0.004243,0.000118,-0.001058,0.084908,-0.0,-0.0,2.0,0.282024,0.305673,0.282024,0.255101,,,,,,
312438,0.113104,0.012993,-0.064165,0.003179,0.00012,-0.001058,0.083976,-0.0,-0.0,2.0,0.282024,0.305367,0.282024,0.255498,,,,,,
312458,0.114333,0.013004,-0.063687,0.001035,-0.000814,-0.002236,0.083167,-0.0,-0.0,2.0,0.282024,0.304814,0.282024,0.256211,,,,,,
312478,0.115072,0.012877,-0.063192,-2.9e-05,-0.000813,-0.002237,0.081832,-0.0,-0.0,2.0,0.282024,0.302836,0.282024,0.258723,,,,,,
312498,0.115194,0.012975,-0.062712,-0.00108,-0.000935,-0.00118,0.080147,-0.0,-0.0,2.0,0.282024,0.302174,0.282024,0.259552,,,,,,
312518,0.11483,0.01305,-0.062112,-0.002144,-0.000935,-0.001179,0.07878,-0.0,-0.0,2.0,0.282024,0.301131,0.282024,0.260843,,,,,,
312538,0.113845,0.013236,-0.061631,-0.003222,-0.000816,-0.002236,0.077527,-0.0,-0.0,2.0,0.282024,0.299772,0.282024,0.262501,,,,,,
312558,0.112742,0.013297,-0.061142,-0.003222,-0.000818,-0.002235,0.07547,-0.0,-0.0,2.0,0.282024,0.30022,0.282024,0.261957,,,,,,
312578,0.111285,0.013219,-0.060537,-0.003207,0.000118,-0.001058,0.073494,-0.0,-0.0,2.0,0.282024,0.300453,0.282024,0.261674,,,,,,
312598,0.109817,0.013271,-0.060049,-0.004271,0.000117,-0.001058,0.072446,-0.0,-0.0,2.0,0.282024,0.298779,0.282024,0.263697,,,,,,
312618,0.108356,0.013079,-0.059547,-0.004285,0.00023,-0.002116,0.07031,-0.0,-0.0,2.0,0.282024,0.299067,0.282024,0.263351,,,,,,
312638,0.106648,0.013003,-0.059052,-0.003206,0.000113,-0.001058,0.068689,-0.0,-0.0,2.0,0.282024,0.299047,0.282024,0.263375,,,,,,
312658,0.104939,0.012927,-0.058557,-0.004272,-0.000947,-0.00117,0.066084,-0.0,-0.0,2.0,0.282024,0.29945,0.282024,0.262891,,,,,,
312678,0.103358,0.012863,-0.058194,-0.004272,-0.000949,-0.001168,0.064443,-0.0,-0.0,2.0,0.282024,0.299477,0.282024,0.262859,,,,,,
312698,0.101765,0.013037,-0.05771,-0.004272,-0.000951,-0.001167,0.060743,-0.0,-0.0,2.0,0.282024,0.300423,0.282024,0.26171,,,,,,
312718,0.09993,0.013088,-0.057342,-0.004286,-0.000847,-0.002224,0.058788,-0.0,-0.0,2.0,0.282024,0.300477,0.282024,0.261645,,,,,,
312738,0.098336,0.013263,-0.056858,-0.004272,-0.000955,-0.001164,0.0557,-0.0,-0.0,2.0,0.282024,0.301145,0.282024,0.260825,,,,,,
312758,0.09675,0.013195,-0.056361,-0.004272,-0.000956,-0.001162,0.052653,-0.0,-0.0,2.0,0.282024,0.301777,0.282024,0.260045,,,,,,
312778,0.094922,0.013243,-0.055881,-0.004286,-0.000858,-0.00222,0.049678,-0.0,-0.0,2.0,0.282024,0.302288,0.282024,0.25941,,,,,,
312798,0.093091,0.013176,-0.055505,-0.004272,-0.000961,-0.001159,0.048161,-0.0,-0.0,2.0,0.282024,0.302168,0.282024,0.25956,,,,,,
312818,0.091261,0.013104,-0.055008,-0.004271,9.7e-05,-0.00106,0.046152,-0.0,-0.0,2.0,0.282024,0.302249,0.282024,0.259458,,,,,,
312838,0.089187,0.013026,-0.05451,-0.005335,9.5e-05,-0.00106,0.042855,-0.0,-0.0,2.0,0.282024,0.301305,0.282024,0.260628,,,,,,
312858,0.087236,0.012946,-0.05389,-0.00535,-0.000875,-0.002213,0.037861,-0.0,-0.0,2.0,0.282024,0.302658,0.282024,0.258947,,,,,,
312878,0.084915,0.012986,-0.053397,-0.00535,-0.00088,-0.002211,0.035042,-0.0,-0.0,2.0,0.282024,0.30288,0.282024,0.258668,,,,,,
312898,0.08259,0.013149,-0.052909,-0.005336,-0.000973,-0.001148,0.032566,-0.0,-0.0,2.0,0.282024,0.301498,0.282024,0.26039,,,,,,
312918,0.080031,0.01318,-0.052302,-0.0064,-0.000976,-0.001146,0.028223,-0.0,-0.0,2.0,0.282024,0.302273,0.282024,0.259428,,,,,,
312938,0.077467,0.013213,-0.051684,-0.006414,-0.000896,-0.002205,0.024602,-0.0,-0.0,2.0,0.282024,0.302742,0.282024,0.258842,,,,,,
312958,0.074412,0.013356,-0.05107,-0.007479,-0.000903,-0.002202,0.02105,-0.0,-0.0,2.0,0.282024,0.301496,0.282024,0.260393,,,,,,
312978,0.071234,0.013376,-0.05044,-0.007479,-0.00091,-0.002199,0.019264,-0.0,-0.0,2.0,0.282024,0.299395,0.282024,0.262958,,,,,,
312998,0.06782,0.013271,-0.049814,-0.008529,-0.00099,-0.001134,0.015774,-0.0,-0.0,2.0,0.282024,0.299448,0.282024,0.262893,,,,,,
313018,0.064037,0.013276,-0.049068,-0.008542,0.000136,-0.002124,0.012503,-0.0,-0.0,2.0,0.282024,0.299198,0.282024,0.263194,,,,,,
313038,0.060011,0.013279,-0.04832,-0.009607,-0.000935,-0.002189,0.008244,-0.0,-0.0,2.0,0.282024,0.29781,0.282024,0.264851,,,,,,
313058,0.055865,0.01316,-0.047568,-0.010671,-0.000944,-0.002185,0.004629,-0.0,-0.0,2.0,0.282024,0.29757,0.282024,0.265135,,,,,,
313078,0.051228,0.013158,-0.046937,-0.010671,-0.000954,-0.00218,0.002062,-0.0,-0.0,2.0,0.282024,0.295117,0.282024,0.267992,,,,,,
313098,0.046464,0.013394,-0.046066,-0.011736,-0.000964,-0.002176,-0.002584,-0.0,-0.0,2.0,0.282024,0.293539,0.282024,0.269789,,,,,,
313118,0.041337,0.013506,-0.04531,-0.011736,-0.000975,-0.002171,-0.00629,-0.0,-0.0,2.0,0.282024,0.29288,0.282024,0.270531,,,,,,
313138,0.036087,0.013619,-0.044551,-0.0128,-0.000987,-0.002166,-0.010073,-0.0,-0.0,2.0,0.282024,0.292197,0.282024,0.271294,,,,,,
313158,0.030475,0.013604,-0.043664,-0.0128,-0.000999,-0.00216,-0.011927,-0.0,-0.0,2.0,0.282024,0.288882,0.282024,0.274918,,,,,,
313178,0.024865,0.013473,-0.042895,-0.012799,5.3e-05,-0.002128,-0.017024,-0.0,-0.0,2.0,0.282024,0.288638,0.282024,0.275179,,,,,,
313198,0.018885,0.013582,-0.042003,-0.013864,-0.001024,-0.002148,-0.020011,-0.0,-0.0,2.0,0.282024,0.285632,0.282024,0.278349,,,,,,
313218,0.012908,0.013574,-0.041114,-0.013864,2.7e-05,-0.002128,-0.022331,-0.0,-0.0,2.0,0.282024,0.283864,0.282024,0.280167,,,,,,
313238,0.006807,0.013568,-0.040459,-0.013864,-0.00105,-0.002136,-0.025714,-0.0,-0.0,2.0,0.282024,0.282539,0.282024,0.281508,,,,,,
313258,0.000586,0.013565,-0.039565,-0.013864,-0.001063,-0.002129,-0.030121,-0.0,-0.0,2.0,0.282024,0.28165,0.282024,0.282398,,,,,,
313278,-0.005762,0.013807,-0.038789,-0.013864,-0.001076,-0.002122,-0.033942,-0.0,-0.0,2.0,0.282024,0.280404,0.282024,0.283631,,,,,,
313298,-0.011986,0.013935,-0.03801,-0.013865,-2.6e-05,-0.002129,-0.035694,-0.0,-0.0,2.0,0.282024,0.27818,0.282024,0.285794,,,,,,
313318,-0.018454,0.014062,-0.037226,-0.013865,-0.001103,-0.002109,-0.039199,-0.0,-0.0,2.0,0.282024,0.276692,0.282024,0.287215,,,,,,
313338,-0.024799,0.014074,-0.036449,-0.013865,-5.3e-05,-0.002128,-0.041756,-0.0,-0.0,2.0,0.282024,0.274773,0.282024,0.289017,,,,,,
313358,-0.031025,0.014213,-0.035791,-0.013865,-6.6e-05,-0.002128,-0.044535,-0.0,-0.0,2.0,0.282024,0.273009,0.282024,0.290642,,,,,,
313378,-0.037368,0.014233,-0.035002,-0.013865,-0.001143,-0.002087,-0.048218,-0.0,-0.0,2.0,0.282024,0.271638,0.282024,0.291887,,,,,,
313398,-0.043591,0.014261,-0.034219,-0.013865,-9.3e-05,-0.002127,-0.049783,-0.0,-0.0,2.0,0.282024,0.26921,0.282024,0.294051,,,,,,
313418,-0.049814,0.014292,-0.033434,-0.013865,-0.000106,-0.002126,-0.054765,-0.0,-0.0,2.0,0.282024,0.268558,0.282024,0.294624,,,,,,
313438,-0.055799,0.014452,-0.032773,-0.013849,-0.001122,-0.001003,-0.056488,-0.0,-0.0,2.0,0.282024,0.266301,0.282024,0.296577,,,,,,
313458,-0.061901,0.014619,-0.03186,-0.012801,-0.001194,-0.002059,-0.059249,-0.0,-0.0,2.0,0.282024,0.266279,0.282024,0.296596,,,,,,
313478,-0.067757,0.014669,-0.031072,-0.012802,-0.000144,-0.002124,-0.061896,-0.0,-0.0,2.0,0.282024,0.264531,0.282024,0.29808,,,,,,
313498,-0.073252,0.01473,-0.030292,-0.012802,-0.000156,-0.002123,-0.06445,-0.0,-0.0,2.0,0.282024,0.262996,0.282024,0.299363,,,,,,
313518,-0.07874,0.014672,-0.02951,-0.011738,-0.000167,-0.002122,-0.066239,-0.0,-0.0,2.0,0.282024,0.262752,0.282024,0.299565,,,,,,
313538,-0.083747,0.014748,-0.028732,-0.010657,-0.00115,-0.000972,-0.068038,-0.0,-0.0,2.0,0.282024,0.26097,0.282024,0.301027,,,,,,
313558,-0.088631,0.014834,-0.027832,-0.010688,-0.001343,-0.003086,-0.070782,-0.0,-0.0,2.0,0.282024,0.261632,0.282024,0.300487,,,,,,
313578,-0.093024,0.01492,-0.027176,-0.010674,-0.000198,-0.002119,-0.073264,-0.0,-0.0,2.0,0.282024,0.26239,0.282024,0.299864,,,,,,
313598,-0.097421,0.015015,-0.026401,-0.009594,-0.000104,-0.001059,-0.073264,-0.0,-0.0,2.0,0.282024,0.25998,0.282024,0.301829,,,,,,
313618,-0.101446,0.015123,-0.025503,-0.008544,-0.001274,-0.00201,-0.076126,-0.0,-0.0,2.0,0.282024,0.261153,0.282024,0.300878,,,,,,
313638,-0.105232,0.01511,-0.02474,-0.00856,-0.001394,-0.003064,-0.078223,-0.0,-0.0,2.0,0.282024,0.260224,0.282024,0.301632,,,,,,
313658,-0.108769,0.015096,-0.024097,-0.007482,-0.000231,-0.002116,-0.07977,-0.0,-0.0,2.0,0.282024,0.260971,0.282024,0.301026,,,,,,
313678,-0.111948,0.015218,-0.023333,-0.007466,-0.000119,-0.001058,-0.081226,-0.0,-0.0,2.0,0.282024,0.259998,0.282024,0.301815,,,,,,
313698,-0.114875,0.015352,-0.022445,-0.006416,-0.001301,-0.001993,-0.082502,-0.0,-0.0,2.0,0.282024,0.260906,0.282024,0.301079,,,,,,
313718,-0.11768,0.015353,-0.021809,-0.005352,-0.001307,-0.001989,-0.083246,-0.0,-0.0,2.0,0.282024,0.259766,0.282024,0.302002,,,,,,
313738,-0.120249,0.01536,-0.02118,-0.006418,-0.000255,-0.002113,-0.084101,-0.0,-0.0,2.0,0.282024,0.258844,0.282024,0.30274,,,,,,
313758,-0.122567,0.015371,-0.020549,-0.006402,-0.00013,-0.001056,-0.084969,-0.0,-0.0,2.0,0.282024,0.259844,0.282024,0.301939,,,,,,
313778,-0.124885,0.015519,-0.019667,-0.005354,-0.000265,-0.002112,-0.085941,-0.0,-0.0,2.0,0.282024,0.25907,0.282024,0.302559,,,,,,
313798,-0.127203,0.015533,-0.019036,-0.004288,-0.001326,-0.001976,-0.086376,-0.0,-0.0,2.0,0.282024,0.258046,0.282024,0.303374,,,,,,
313818,-0.129277,0.015421,-0.018538,-0.005352,-0.00133,-0.001974,-0.086864,-0.0,-0.0,2.0,0.282024,0.257187,0.282024,0.304052,,,,,,
313838,-0.130986,0.015443,-0.017913,-0.005335,-0.001194,-0.000916,-0.087144,-0.0,-0.0,2.0,0.282024,0.258233,0.282024,0.303226,,,,,,
313858,-0.133061,0.015714,-0.017147,-0.004273,-0.000141,-0.001055,-0.087261,-0.0,-0.0,2.0,0.282024,0.257112,0.282024,0.30411,,,,,,
313878,-0.135014,0.015858,-0.016512,-0.00429,-0.000286,-0.002109,-0.087262,-0.0,-0.0,2.0,0.282024,0.256012,0.282024,0.304969,,,,,,
313898,-0.136601,0.015755,-0.016019,-0.004288,-0.001344,-0.001964,-0.087064,-0.0,-0.0,2.0,0.282024,0.255025,0.282024,0.305732,,,,,,
313918,-0.138311,0.015773,-0.015516,-0.004274,-0.000147,-0.001054,-0.087064,-0.0,-0.0,2.0,0.282024,0.25405,0.282024,0.306478,,,,,,
313938,-0.139898,0.015802,-0.014893,-0.004274,-0.000148,-0.001054,-0.086321,-0.0,-0.0,2.0,0.282024,0.252682,0.282024,0.307515,,,,,,
313958,-0.141476,0.015961,-0.014137,-0.004291,-0.0003,-0.002107,-0.086015,-0.0,-0.0,2.0,0.282024,0.2535,0.282024,0.306897,,,,,,
313978,-0.143065,0.015974,-0.013758,-0.003226,-0.000303,-0.002107,-0.085102,-0.0,-0.0,2.0,0.282024,0.252089,0.282024,0.30796,,,,,,
313998,-0.14453,0.015754,-0.013275,-0.003209,-0.000153,-0.001053,-0.084484,-0.0,-0.0,2.0,0.282024,0.248941,0.282024,0.310281,,,,,,
314018,-0.145874,0.015779,-0.012777,-0.004274,-0.000155,-0.001053,-0.083472,-0.0,-0.0,2.0,0.282024,0.249496,0.282024,0.309877,,,,,,
314038,-0.146975,0.015937,-0.01215,-0.003226,-0.000312,-0.002106,-0.082324,-0.0,-0.0,2.0,0.282024,0.250081,0.282024,0.309449,,,,,,
314058,-0.148068,0.015956,-0.011774,-0.002162,-0.000314,-0.002105,-0.081034,-0.0,-0.0,2.0,0.282024,0.248684,0.282024,0.310468,,,,,,
314078,-0.148925,0.015856,-0.011411,-0.002159,-0.001368,-0.001947,-0.079581,-0.0,-0.0,2.0,0.282024,0.247345,0.282024,0.311432,,,,,,
314098,-0.149408,0.015767,-0.010928,-0.002143,-0.001211,-0.000894,-0.079581,-0.0,-0.0,2.0,0.282024,0.247057,0.282024,0.311638,,,,,,
314118,-0.149769,0.015679,-0.010446,-0.001081,-0.000159,-0.001052,-0.076521,-0.0,-0.0,2.0,0.282024,0.24695,0.282024,0.311715,,,,,,
314138,-0.149888,0.015706,-0.01008,-0.001097,-0.000318,-0.002105,-0.075337,-0.0,-0.0,2.0,0.282024,0.24617,0.282024,0.312269,,,,,,
314158,-0.149886,0.015602,-0.009846,-1.6e-05,-0.000159,-0.001052,-0.073416,-0.0,-0.0,2.0,0.282024,0.247026,0.282024,0.31166,,,,,,
314178,-0.149639,0.015631,-0.009483,0.001048,-0.000159,-0.001052,-0.070622,-0.0,-0.0,2.0,0.282024,0.247474,0.282024,0.31134,,,,,,
314198,-0.149271,0.015661,-0.009121,0.00105,-0.001211,-0.000894,-0.069311,-0.0,-0.0,2.0,0.282024,0.244934,0.282024,0.313139,,,,,,
314218,-0.148773,0.015559,-0.00889,-1.4e-05,-0.00121,-0.000895,-0.06696,-0.0,-0.0,2.0,0.282024,0.243805,0.282024,0.313925,,,,,,
314238,-0.148407,0.015702,-0.008641,-1.4e-05,-0.00121,-0.000895,-0.064542,-0.0,-0.0,2.0,0.282024,0.242551,0.282024,0.314788,,,,,,
314258,-0.148161,0.015721,-0.008399,-1.7e-05,-0.000157,-0.001053,-0.061745,-0.0,-0.0,2.0,0.282024,0.240977,0.282024,0.315858,,,,,,
314278,-0.147916,0.015741,-0.008158,-0.001081,-0.000157,-0.001053,-0.060324,-0.0,-0.0,2.0,0.282024,0.24025,0.282024,0.316346,,,,,,
314298,-0.147794,0.015872,-0.008029,-1.7e-05,-0.000157,-0.001053,-0.057223,-0.0,-0.0,2.0,0.282024,0.238383,0.282024,0.317585,,,,,,
314318,-0.147791,0.015768,-0.007794,-1.4e-05,-0.001209,-0.000896,-0.054843,-0.0,-0.0,2.0,0.282024,0.236877,0.282024,0.31857,,,,,,
314338,-0.147668,0.015656,-0.007683,-1.4e-05,-0.001209,-0.000896,-0.050962,-0.0,-0.0,2.0,0.282024,0.234497,0.282024,0.320096,,,,,,
314358,-0.147302,0.015667,-0.007564,2e-06,-0.001053,0.000156,-0.049233,-0.0,-0.0,2.0,0.282024,0.233575,0.282024,0.32068,,,,,,
314378,-0.147048,0.015686,-0.007322,-1.7e-05,-0.000156,-0.001053,-0.046148,-0.0,-0.0,2.0,0.282024,0.231719,0.282024,0.321836,,,,,,
314398,-0.146439,0.01582,-0.007197,-1.7e-05,-0.000155,-0.001053,-0.04297,-0.0,-0.0,2.0,0.282024,0.2322,0.282024,0.321538,,,,,,
314418,-0.14583,0.015823,-0.007202,0.001048,-0.000155,-0.001053,-0.039731,-0.0,-0.0,2.0,0.282024,0.2305,0.282024,0.322585,,,,,,
314438,-0.144967,0.015714,-0.007096,0.002112,-0.000154,-0.001053,-0.037594,-0.0,-0.0,2.0,0.282024,0.231806,0.282024,0.321782,,,,,,
314458,-0.143993,0.015719,-0.007105,0.002114,-0.001206,-0.000901,-0.034255,-0.0,-0.0,2.0,0.282024,0.230274,0.282024,0.322724,,,,,,
314478,-0.142523,0.015604,-0.007126,0.003179,-0.001205,-0.000902,-0.031138,-0.0,-0.0,2.0,0.282024,0.229173,0.282024,0.323391,,,,,,
314498,-0.140932,0.015612,-0.007139,0.003195,-0.001054,0.00015,-0.028004,-0.0,-0.0,2.0,0.282024,0.230308,0.282024,0.322703,,,,,,
314518,-0.139096,0.015498,-0.007163,0.003195,-0.001054,0.000148,-0.023222,-0.0,-0.0,2.0,0.282024,0.228332,0.282024,0.323896,,,,,,
314538,-0.137017,0.015508,-0.007181,0.004241,-0.000145,-0.001054,-0.019313,-0.0,-0.0,2.0,0.282024,0.22932,0.282024,0.323302,,,,,,
314558,-0.134688,0.01551,-0.007321,0.005321,0.0,0.0,-0.017526,-0.0,-0.0,2.0,0.282024,0.231874,0.282024,0.321741,,,,,,
314578,-0.132123,0.015515,-0.007465,0.005305,-0.00014,-0.001055,-0.013913,-0.0,-0.0,2.0,0.282024,0.23122,0.282024,0.322144,,,,,,
314598,-0.129185,0.015391,-0.00774,0.006385,0.0,0.0,-0.010281,-0.0,-0.0,2.0,0.282024,0.232934,0.282024,0.321081,,,,,,
314618,-0.12601,0.015278,-0.007897,0.007452,-0.001056,0.000134,-0.008377,-0.0,-0.0,2.0,0.282024,0.233762,0.282024,0.320562,,,,,,
314638,-0.122585,0.015158,-0.008176,0.007452,-0.001056,0.00013,-0.00456,-0.0,-0.0,2.0,0.282024,0.23564,0.282024,0.319367,,,,,,
314658,-0.118794,0.014918,-0.008465,0.007451,-0.001057,0.000126,-0.001128,-0.0,-0.0,2.0,0.282024,0.235867,0.282024,0.319222,,,,,,
314678,-0.114639,0.014919,-0.008864,0.008516,-0.001057,0.000122,0.004331,-0.0,-0.0,2.0,0.282024,0.237141,0.282024,0.318398,,,,,,
314698,-0.110605,0.014805,-0.009146,0.008514,0.0,0.0,0.007008,-0.0,-0.0,2.0,0.282024,0.240073,0.282024,0.316464,,,,,,
314718,-0.106085,0.014932,-0.009541,0.009578,0.0,0.0,0.011175,-0.0,-0.0,2.0,0.282024,0.240293,0.282024,0.316317,,,,,,
314738,-0.101443,0.014933,-0.010066,0.010642,0.0,0.0,0.014792,-0.0,-0.0,2.0,0.282024,0.242995,0.282024,0.314483,,,,,,
314758,-0.096435,0.014694,-0.010606,0.010642,0.0,0.0,0.018415,-0.0,-0.0,2.0,0.282024,0.243841,0.282024,0.3139,,,,,,
314778,-0.091183,0.014582,-0.011141,0.011723,-0.000963,0.001157,0.02206,-0.0,-0.0,2.0,0.282024,0.244787,0.282024,0.313242,,,,,,
314798,-0.085688,0.014468,-0.011799,0.011724,-0.00203,0.001243,0.024849,-0.0,-0.0,2.0,0.282024,0.248409,0.282024,0.310667,,,,,,
314818,-0.07995,0.014481,-0.012453,0.011723,-0.000976,0.001146,0.024849,-0.0,-0.0,2.0,0.282024,0.251767,0.282024,0.308201,,,,,,
314838,-0.073846,0.0145,-0.01311,0.012787,-0.000983,0.00114,0.030704,-0.0,-0.0,2.0,0.282024,0.253811,0.282024,0.306661,,,,,,
314858,-0.067625,0.014398,-0.013897,0.012786,7.2e-05,0.001062,0.033904,-0.0,-0.0,2.0,0.282024,0.257392,0.282024,0.30389,,,,,,
314878,-0.061278,0.014423,-0.014677,0.01385,6.5e-05,0.001062,0.038109,-0.0,-0.0,2.0,0.282024,0.258591,0.282024,0.302942,,,,,,
314898,-0.05469,0.014329,-0.015586,0.014915,-0.001004,0.001121,0.04147,-0.0,-0.0,2.0,0.282024,0.260377,0.282024,0.301509,,,,,,
314918,-0.047977,0.014119,-0.016496,0.013851,-0.001012,0.001114,0.044758,-0.0,-0.0,2.0,0.282024,0.262255,0.282024,0.299975,,,,,,
314938,-0.041024,0.014161,-0.017403,0.013851,-0.00102,0.001107,0.046329,-0.0,-0.0,2.0,0.282024,0.265164,0.282024,0.297545,,,,,,
314958,-0.033949,0.014211,-0.01831,0.014914,3.6e-05,0.001064,0.049785,-0.0,-0.0,2.0,0.282024,0.270565,0.282024,0.29285,,,,,,
314978,-0.026751,0.014144,-0.019219,0.015978,2.8e-05,0.001064,0.052675,-0.0,-0.0,2.0,0.282024,0.272794,0.282024,0.290839,,,,,,
314998,-0.019311,0.014086,-0.020253,0.015978,2.1e-05,0.001064,0.055453,-0.0,-0.0,2.0,0.282024,0.275201,0.282024,0.288618,,,,,,
315018,-0.01199,0.013911,-0.021282,0.015978,1.3e-05,0.001064,0.057746,-0.0,-0.0,2.0,0.282024,0.277714,0.282024,0.286242,,,,,,
315038,-0.004429,0.013868,-0.022435,0.015993,9e-06,0.002129,0.061166,-0.0,-0.0,2.0,0.282024,0.278135,0.282024,0.285837,,,,,,
315058,0.003134,0.013832,-0.023464,0.014929,-0.001071,0.002125,0.06353,-0.0,-0.0,2.0,0.282024,0.282362,0.282024,0.281685,,,,,,
315078,0.010332,0.013677,-0.024488,0.015992,-0.001086,0.002118,0.064792,-0.0,-0.0,2.0,0.282024,0.285224,0.282024,0.278771,,,,,,
315098,0.017529,0.013652,-0.025514,0.014913,-0.001083,0.001046,0.06721,-0.0,-0.0,2.0,0.282024,0.285936,0.282024,0.278033,,,,,,
315118,0.024605,0.013511,-0.026658,0.013849,-2.6e-05,0.001064,0.0695,-0.0,-0.0,2.0,0.282024,0.286672,0.282024,0.277264,,,,,,
315138,0.031434,0.013495,-0.027794,0.013864,-6.7e-05,0.002128,0.072069,-0.0,-0.0,2.0,0.282024,0.290259,0.282024,0.273428,,,,,,
315158,0.038024,0.01348,-0.028692,0.013863,-0.001144,0.002087,0.072069,-0.0,-0.0,2.0,0.282024,0.29178,0.282024,0.271756,,,,,,
315178,0.044369,0.013347,-0.029702,0.012771,0.0,0.0,0.07582,-0.0,-0.0,2.0,0.282024,0.291452,0.282024,0.27212,,,,,,
315198,0.050589,0.013343,-0.030833,0.012799,-0.000108,0.002126,0.077192,-0.0,-0.0,2.0,0.282024,0.293728,0.282024,0.269577,,,,,,
315218,0.05657,0.013095,-0.031831,0.011734,-0.00012,0.002125,0.079001,-0.0,-0.0,2.0,0.282024,0.29413,0.282024,0.26912,,,,,,
315238,0.062185,0.013087,-0.032716,0.010656,-6.6e-05,0.001062,0.08044,-0.0,-0.0,2.0,0.282024,0.29603,0.282024,0.266938,,,,,,
315258,0.067552,0.013083,-0.033715,0.010656,-7.2e-05,0.001062,0.08179,-0.0,-0.0,2.0,0.282024,0.296378,0.282024,0.266533,,,,,,
315278,0.072559,0.012953,-0.03459,0.009606,-0.000154,0.002123,0.083027,-0.0,-0.0,2.0,0.282024,0.296593,0.282024,0.266282,,,,,,
315298,0.077199,0.012943,-0.035466,0.008528,-8.2e-05,0.001061,0.083584,-0.0,-0.0,2.0,0.282024,0.298429,0.282024,0.264116,,,,,,
315318,0.081466,0.013051,-0.036339,0.008528,-8.7e-05,0.001061,0.084727,-0.0,-0.0,2.0,0.282024,0.298349,0.282024,0.26421,,,,,,
315338,0.085252,0.01315,-0.037094,0.007464,-9.1e-05,0.00106,0.085591,-0.0,-0.0,2.0,0.282024,0.298179,0.282024,0.264414,,,,,,
315358,0.088667,0.013127,-0.037957,0.006399,-9.4e-05,0.00106,0.086192,-0.0,-0.0,2.0,0.282024,0.297959,0.282024,0.264674,,,,,,
315378,0.091595,0.013098,-0.038818,0.005335,-9.7e-05,0.00106,0.086615,-0.0,-0.0,2.0,0.282024,0.299092,0.282024,0.263322,,,,,,
315398,0.094156,0.013176,-0.039439,0.004271,-0.0001,0.00106,0.086852,-0.0,-0.0,2.0,0.282024,0.297136,0.282024,0.265647,,,,,,
315418,0.096355,0.013015,-0.040292,0.003206,-0.000102,0.001059,0.087193,-0.0,-0.0,2.0,0.282024,0.296498,0.282024,0.266393,,,,,,
315438,0.097942,0.01296,-0.041027,0.002142,-0.000104,0.001059,0.087265,-0.0,-0.0,2.0,0.282024,0.297188,0.282024,0.265584,,,,,,
315458,0.099159,0.012893,-0.041631,0.002142,-0.000105,0.001059,0.087237,-0.0,-0.0,2.0,0.282024,0.296232,0.282024,0.266703,,,,,,
315478,0.100136,0.012943,-0.042249,0.001078,-0.000106,0.001059,0.087052,-0.0,-0.0,2.0,0.282024,0.295272,0.282024,0.267814,,,,,,
315498,0.100743,0.012865,-0.042853,0.0,0.0,0.0,0.086682,-0.0,-0.0,2.0,0.282024,0.295721,0.282024,0.267296,,,,,,
315518,0.100988,0.012907,-0.043592,1.4e-05,-0.000107,0.001059,0.086276,-0.0,-0.0,2.0,0.282024,0.294503,0.282024,0.268695,,,,,,
315538,0.100862,0.012929,-0.044079,-0.001051,-0.000107,0.001059,0.085691,-0.0,-0.0,2.0,0.282024,0.29319,0.282024,0.270182,,,,,,
315558,0.100614,0.012955,-0.044687,-0.001066,-0.001059,-0.000107,0.085256,-0.0,-0.0,2.0,0.282024,0.293255,0.282024,0.270109,,,,,,
315578,0.100368,0.012858,-0.04529,-0.001064,0.0,0.0,0.083775,-0.0,-0.0,2.0,0.282024,0.293849,0.282024,0.269439,,,,,,
315598,0.099876,0.012878,-0.045899,-0.001051,-0.000106,0.001059,0.083113,-0.0,-0.0,2.0,0.282024,0.293927,0.282024,0.26935,,,,,,
315618,0.099504,0.012765,-0.046249,-0.001052,-0.001165,0.000953,0.08188,-0.0,-0.0,2.0,0.282024,0.294303,0.282024,0.268923,,,,,,
315638,0.099254,0.012906,-0.046742,-0.001064,0.0,0.0,0.080534,-0.0,-0.0,2.0,0.282024,0.29481,0.282024,0.268344,,,,,,
315658,0.099006,0.012924,-0.047229,-0.001066,-0.001059,-0.000105,0.079046,-0.0,-0.0,2.0,0.282024,0.29538,0.282024,0.267689,,,,,,
315678,0.099012,0.012828,-0.047719,0.0,0.0,0.0,0.078058,-0.0,-0.0,2.0,0.282024,0.295855,0.282024,0.267141,,,,,,
315698,0.099008,0.012852,-0.048206,1.4e-05,-0.000105,0.001059,0.07637,-0.0,-0.0,2.0,0.282024,0.298106,0.282024,0.2645,,,,,,
315718,0.099127,0.012873,-0.048571,0.0,0.0,0.0,0.073664,-0.0,-0.0,2.0,0.282024,0.299383,0.282024,0.262972,,,,,,
315738,0.099249,0.012772,-0.04893,0.0,0.0,0.0,0.072014,-0.0,-0.0,2.0,0.282024,0.300179,0.282024,0.262007,,,,,,
315758,0.099248,0.012674,-0.049411,-0.001064,0.0,0.0,0.070134,-0.0,-0.0,2.0,0.282024,0.30104,0.282024,0.260955,,,,,,
315778,0.099128,0.012561,-0.049649,-0.001051,-0.000105,0.001059,0.068684,-0.0,-0.0,2.0,0.282024,0.300139,0.282024,0.262057,,,,,,
315798,0.09876,0.012564,-0.049892,-0.001066,-0.001059,-0.000105,0.065973,-0.0,-0.0,2.0,0.282024,0.301186,0.282024,0.260775,,,,,,
315818,0.098514,0.012576,-0.050257,-0.001066,-0.001059,-0.000105,0.063511,-0.0,-0.0,2.0,0.282024,0.302173,0.282024,0.259553,,,,,,
315838,0.09802,0.012704,-0.050629,-0.001066,-0.001059,-0.000104,0.062238,-0.0,-0.0,2.0,0.282024,0.301052,0.282024,0.26094,,,,,,
315858,0.097528,0.012826,-0.050878,-0.00213,-0.001059,-0.000104,0.060097,-0.0,-0.0,2.0,0.282024,0.301804,0.282024,0.260011,,,,,,
315878,0.096912,0.01281,-0.050868,-0.00213,-0.001059,-0.000103,0.055202,-0.0,-0.0,2.0,0.282024,0.303665,0.282024,0.257678,,,,,,
315898,0.096176,0.012926,-0.051118,-0.002142,0.000102,-0.001059,0.053262,-0.0,-0.0,2.0,0.282024,0.304216,0.282024,0.256977,,,,,,
315918,0.0952,0.012907,-0.051239,-0.00213,-0.001059,-0.000101,0.050925,-0.0,-0.0,2.0,0.282024,0.303361,0.282024,0.258063,,,,,,
315938,0.094099,0.012763,-0.051345,-0.003193,0.0,0.0,0.049199,-0.0,-0.0,2.0,0.282024,0.303637,0.282024,0.257713,,,,,,
315958,0.092879,0.012738,-0.051467,-0.003193,0.0,0.0,0.045033,-0.0,-0.0,2.0,0.282024,0.304933,0.282024,0.256058,,,,,,
315978,0.091168,0.012689,-0.051335,-0.00427,9.7e-05,-0.00106,0.041805,-0.0,-0.0,2.0,0.282024,0.304131,0.282024,0.257086,,,,,,
315998,0.089579,0.012777,-0.051461,-0.00427,9.5e-05,-0.00106,0.038502,-0.0,-0.0,2.0,0.282024,0.304903,0.282024,0.256097,,,,,,
316018,0.087745,0.012731,-0.05145,-0.005322,-0.00106,-9.3e-05,0.035156,-0.0,-0.0,2.0,0.282024,0.304118,0.282024,0.257102,,,,,,
316038,0.085425,0.012667,-0.051317,-0.005322,-0.00106,-9.1e-05,0.031853,-0.0,-0.0,2.0,0.282024,0.304532,0.282024,0.256573,,,,,,
316058,0.082975,0.012849,-0.051316,-0.0064,-0.000972,-0.001149,0.028852,-0.0,-0.0,2.0,0.282024,0.303319,0.282024,0.258116,,,,,,
316078,0.080285,0.012898,-0.051186,-0.007464,-0.000975,-0.001146,0.02539,-0.0,-0.0,2.0,0.282024,0.30366,0.282024,0.257684,,,,,,
316098,0.077105,0.013057,-0.05106,-0.007463,8.2e-05,-0.001061,0.020846,-0.0,-0.0,2.0,0.282024,0.302822,0.282024,0.258741,,,,,,
316118,0.073808,0.01297,-0.050924,-0.008528,7.8e-05,-0.001061,0.01854,-0.0,-0.0,2.0,0.282024,0.300895,0.282024,0.261133,,,,,,
316138,0.070266,0.012995,-0.050668,-0.009592,7.5e-05,-0.001062,0.01442,-0.0,-0.0,2.0,0.282024,0.301153,0.282024,0.260815,,,,,,
316158,0.066236,0.013008,-0.050411,-0.009592,7e-05,-0.001062,0.012086,-0.0,-0.0,2.0,0.282024,0.29891,0.282024,0.26354,,,,,,
316178,0.061965,0.012895,-0.050148,-0.009593,-0.000996,-0.001128,0.007947,-0.0,-0.0,2.0,0.282024,0.297356,0.282024,0.265387,,,,,,
316198,0.057448,0.012895,-0.049764,-0.011721,-0.001001,-0.001124,0.005141,-0.0,-0.0,2.0,0.282024,0.296575,0.282024,0.266304,,,,,,
316218,0.052439,0.012883,-0.049369,-0.011721,-0.001007,-0.001119,0.001964,-0.0,-0.0,2.0,0.282024,0.29422,0.282024,0.269017,,,,,,
316238,0.047065,0.012988,-0.048982,-0.01172,5e-05,-0.001063,-0.001988,-0.0,-0.0,2.0,0.282024,0.293563,0.282024,0.269763,,,,,,
316258,0.041568,0.013094,-0.048714,-0.013849,-0.001019,-0.001108,-0.006665,-0.0,-0.0,2.0,0.282024,0.291646,0.282024,0.271905,,,,,,
316278,0.035709,0.013066,-0.048196,-0.013849,-0.001026,-0.001102,-0.009465,-0.0,-0.0,2.0,0.282024,0.290212,0.282024,0.273479,,,,,,
316298,0.029604,0.013157,-0.047675,-0.013849,-0.001032,-0.001095,-0.013624,-0.0,-0.0,2.0,0.282024,0.287708,0.282024,0.276171,,,,,,
316318,0.023133,0.013244,-0.04728,-0.014914,-0.001039,-0.001089,-0.017245,-0.0,-0.0,2.0,0.282024,0.284777,0.282024,0.279232,,,,,,
316338,0.016665,0.01321,-0.04675,-0.014913,-0.001046,-0.001082,-0.019061,-0.0,-0.0,2.0,0.282024,0.282515,0.282024,0.281532,,,,,,
316358,0.00983,0.01317,-0.046215,-0.014913,-0.001054,-0.001075,-0.022642,-0.0,-0.0,2.0,0.282024,0.280896,0.282024,0.283146,,,,,,
316378,0.002872,0.013253,-0.045685,-0.015992,-0.001058,-0.002132,-0.024455,-0.0,-0.0,2.0,0.282024,0.276686,0.282024,0.28722,,,,,,
316398,-0.004087,0.013339,-0.045273,-0.015992,-0.001073,-0.002124,-0.027639,-0.0,-0.0,2.0,0.282024,0.274797,0.282024,0.288995,,,,,,
316418,-0.011046,0.013428,-0.044735,-0.014913,-0.001076,-0.001053,-0.033504,-0.0,-0.0,2.0,0.282024,0.274239,0.282024,0.289512,,,,,,
316438,-0.018126,0.013519,-0.044078,-0.015978,-0.001083,-0.001045,-0.036325,-0.0,-0.0,2.0,0.282024,0.272028,0.282024,0.291535,,,,,,
316458,-0.024965,0.013739,-0.043532,-0.015992,-0.001117,-0.002101,-0.038783,-0.0,-0.0,2.0,0.282024,0.271491,0.282024,0.292019,,,,,,
316478,-0.0318,0.013719,-0.042993,-0.014928,-0.001131,-0.002094,-0.04262,-0.0,-0.0,2.0,0.282024,0.269932,0.282024,0.293413,,,,,,
316498,-0.038638,0.013824,-0.042449,-0.014913,-0.001105,-0.001022,-0.045786,-0.0,-0.0,2.0,0.282024,0.267979,0.282024,0.295129,,,,,,
316518,-0.045229,0.013815,-0.041907,-0.014929,-9.6e-05,-0.002126,-0.048943,-0.0,-0.0,2.0,0.282024,0.266181,0.282024,0.29668,,,,,,
316538,-0.051578,0.013937,-0.041361,-0.01385,-5.5e-05,-0.001063,-0.051337,-0.0,-0.0,2.0,0.282024,0.265805,0.282024,0.297001,,,,,,
316558,-0.057925,0.013939,-0.040815,-0.013849,-0.001124,-0.001001,-0.054327,-0.0,-0.0,2.0,0.282024,0.264028,0.282024,0.298502,,,,,,
316578,-0.064031,0.013949,-0.040277,-0.012799,-0.001198,-0.002056,-0.056757,-0.0,-0.0,2.0,0.282024,0.262008,0.282024,0.300179,,,,,,
316598,-0.069768,0.01397,-0.039734,-0.012784,-0.001136,-0.000988,-0.058611,-0.0,-0.0,2.0,0.282024,0.261712,0.282024,0.300421,,,,,,
316618,-0.075269,0.014242,-0.039189,-0.011722,-8e-05,-0.001061,-0.062118,-0.0,-0.0,2.0,0.282024,0.2624,0.282024,0.299855,,,,,,
316638,-0.080638,0.01428,-0.038523,-0.011736,-0.001232,-0.002036,-0.064008,-0.0,-0.0,2.0,0.282024,0.26052,0.282024,0.301393,,,,,,
316658,-0.085525,0.014326,-0.03799,-0.010671,-0.001242,-0.00203,-0.066634,-0.0,-0.0,2.0,0.282024,0.259242,0.282024,0.302422,,,,,,
316678,-0.090171,0.0145,-0.037453,-0.010658,-9.6e-05,-0.00106,-0.068949,-0.0,-0.0,2.0,0.282024,0.259804,0.282024,0.301971,,,,,,
316698,-0.094441,0.01444,-0.036923,-0.009593,-0.0001,-0.00106,-0.071154,-0.0,-0.0,2.0,0.282024,0.260488,0.282024,0.301419,,,,,,
316718,-0.098473,0.014387,-0.036402,-0.008528,-0.001164,-0.000955,-0.072204,-0.0,-0.0,2.0,0.282024,0.260637,0.282024,0.301298,,,,,,
316738,-0.102133,0.014342,-0.035878,-0.007478,-0.001276,-0.002009,-0.073405,-0.0,-0.0,2.0,0.282024,0.259276,0.282024,0.302395,,,,,,
316758,-0.105552,0.014418,-0.035472,-0.008544,-0.000224,-0.002117,-0.075363,-0.0,-0.0,2.0,0.282024,0.25849,0.282024,0.303022,,,,,,
316778,-0.108485,0.014269,-0.034969,-0.007465,-0.000115,-0.001058,-0.077077,-0.0,-0.0,2.0,0.282024,0.259648,0.282024,0.302097,,,,,,
316798,-0.111539,0.014483,-0.034438,-0.006399,-0.001176,-0.000939,-0.0794,-0.0,-0.0,2.0,0.282024,0.261037,0.282024,0.300973,,,,,,
316818,-0.114351,0.014697,-0.034031,-0.00535,-0.0013,-0.001993,-0.080169,-0.0,-0.0,2.0,0.282024,0.259938,0.282024,0.301863,,,,,,
316838,-0.116795,0.014789,-0.033757,-0.006415,-0.001305,-0.00199,-0.082086,-0.0,-0.0,2.0,0.282024,0.259643,0.282024,0.3021,,,,,,
316858,-0.118995,0.014893,-0.033363,-0.006401,-0.000126,-0.001057,-0.083286,-0.0,-0.0,2.0,0.282024,0.260938,0.282024,0.301054,,,,,,
316878,-0.121193,0.014876,-0.032976,-0.004273,-0.000129,-0.001057,-0.084314,-0.0,-0.0,2.0,0.282024,0.260239,0.282024,0.30162,,,,,,
316898,-0.123269,0.014863,-0.032591,-0.004286,-0.001318,-0.001982,-0.084774,-0.0,-0.0,2.0,0.282024,0.25935,0.282024,0.302336,,,,,,
316918,-0.125344,0.01472,-0.032335,-0.00427,-0.001189,-0.000923,-0.085836,-0.0,-0.0,2.0,0.282024,0.260636,0.282024,0.301299,,,,,,
316938,-0.127175,0.014582,-0.032082,-0.005337,-0.000135,-0.001056,-0.086281,-0.0,-0.0,2.0,0.282024,0.259898,0.282024,0.301895,,,,,,
316958,-0.129008,0.014574,-0.0317,-0.004257,0.0,0.0,-0.086805,-0.0,-0.0,2.0,0.282024,0.259147,0.282024,0.302498,,,,,,
316978,-0.130967,0.014801,-0.031422,-0.00427,-0.001194,-0.000916,-0.08708,-0.0,-0.0,2.0,0.282024,0.258186,0.282024,0.303264,,,,,,
316998,-0.132802,0.014908,-0.031153,-0.004271,-0.001196,-0.000914,-0.087226,-0.0,-0.0,2.0,0.282024,0.257268,0.282024,0.303988,,,,,,
317018,-0.134516,0.015009,-0.031007,-0.004271,-0.001197,-0.000912,-0.08726,-0.0,-0.0,2.0,0.282024,0.25635,0.282024,0.304706,,,,,,
317038,-0.136106,0.015,-0.030749,-0.004257,0.0,0.0,-0.08714,-0.0,-0.0,2.0,0.282024,0.255351,0.282024,0.305481,,,,,,
317058,-0.137696,0.01499,-0.03049,-0.003208,-0.000146,-0.001054,-0.086855,-0.0,-0.0,2.0,0.282024,0.256129,0.282024,0.304878,,,,,,
317078,-0.139286,0.014981,-0.030232,-0.003222,-0.001349,-0.00196,-0.086382,-0.0,-0.0,2.0,0.282024,0.254992,0.282024,0.305757,,,,,,
317098,-0.140623,0.014837,-0.030223,-0.003206,-0.001203,-0.000905,-0.086382,-0.0,-0.0,2.0,0.282024,0.252363,0.282024,0.307755,,,,,,
317118,-0.14197,0.014832,-0.029968,-0.003193,0.0,0.0,-0.085117,-0.0,-0.0,2.0,0.282024,0.252756,0.282024,0.307459,,,,,,
317138,-0.143196,0.014952,-0.029706,-0.003193,0.0,0.0,-0.084648,-0.0,-0.0,2.0,0.282024,0.251747,0.282024,0.308215,,,,,,
317158,-0.144171,0.015066,-0.029563,-0.003206,-0.001206,-0.0009,-0.083744,-0.0,-0.0,2.0,0.282024,0.250658,0.282024,0.309023,,,,,,
317178,-0.145154,0.015051,-0.029555,-0.002142,-0.001207,-0.000899,-0.082265,-0.0,-0.0,2.0,0.282024,0.251175,0.282024,0.308641,,,,,,
317198,-0.146005,0.015046,-0.029423,-0.001062,-0.001053,0.000155,-0.081506,-0.0,-0.0,2.0,0.282024,0.250235,0.282024,0.309335,,,,,,
317218,-0.1465,0.015048,-0.0293,-0.002126,-0.001053,0.000155,-0.080109,-0.0,-0.0,2.0,0.282024,0.249091,0.282024,0.310172,,,,,,
317238,-0.146866,0.015172,-0.029165,-0.002144,-0.000156,-0.001053,-0.07851,-0.0,-0.0,2.0,0.282024,0.249876,0.282024,0.309599,,,,,,
317258,-0.14711,0.015168,-0.029161,-1.6e-05,-0.000156,-0.001053,-0.076472,-0.0,-0.0,2.0,0.282024,0.250471,0.282024,0.309161,,,,,,
317278,-0.14711,0.015168,-0.029161,-1.6e-05,-0.000156,-0.001053,-0.074789,-0.0,-0.0,2.0,0.282024,0.249518,0.282024,0.309861,,,,,,
317298,-0.146863,0.014929,-0.029182,2e-06,-0.001053,0.000156,-0.073596,-0.0,-0.0,2.0,0.282024,0.248957,0.282024,0.31027,,,,,,
317318,-0.146619,0.014933,-0.029186,2e-06,-0.001053,0.000155,-0.071922,-0.0,-0.0,2.0,0.282024,0.248082,0.282024,0.310903,,,,,,
317338,-0.146376,0.014937,-0.029189,-1.3e-05,-0.001208,-0.000898,-0.069327,-0.0,-0.0,2.0,0.282024,0.246711,0.282024,0.311885,,,,,,
317358,-0.146002,0.014942,-0.029188,-0.001062,-0.001053,0.000155,-0.067267,-0.0,-0.0,2.0,0.282024,0.245704,0.282024,0.312598,,,,,,
317378,-0.145882,0.015066,-0.029181,0.0,0.0,0.0,-0.064811,-0.0,-0.0,2.0,0.282024,0.244263,0.282024,0.313607,,,,,,
317398,-0.145882,0.015066,-0.029181,-1.6e-05,-0.000155,-0.001053,-0.062286,-0.0,-0.0,2.0,0.282024,0.242756,0.282024,0.314648,,,,,,
317418,-0.145761,0.015059,-0.029304,-1.6e-05,-0.000155,-0.001053,-0.059656,-0.0,-0.0,2.0,0.282024,0.241206,0.282024,0.315703,,,,,,
317438,-0.14564,0.015052,-0.029427,0.0,0.0,0.0,-0.05811,-0.0,-0.0,2.0,0.282024,0.238248,0.282024,0.317674,,,,,,
317458,-0.145518,0.015054,-0.029429,0.0,0.0,0.0,-0.056261,-0.0,-0.0,2.0,0.282024,0.239237,0.282024,0.317021,,,,,,
317478,-0.145154,0.015051,-0.029555,0.0,0.0,0.0,-0.052652,-0.0,-0.0,2.0,0.282024,0.237158,0.282024,0.318387,,,,,,
317498,-0.144789,0.015048,-0.029682,0.001064,0.0,0.0,-0.048284,-0.0,-0.0,2.0,0.282024,0.236709,0.282024,0.318678,,,,,,
317518,-0.144301,0.014926,-0.029819,0.001067,-0.001053,0.000153,-0.046092,-0.0,-0.0,2.0,0.282024,0.23565,0.282024,0.319361,,,,,,
317538,-0.143441,0.014931,-0.029946,0.002131,-0.001053,0.000152,-0.042533,-0.0,-0.0,2.0,0.282024,0.233912,0.282024,0.320467,,,,,,
317558,-0.142458,0.014807,-0.030205,0.002133,-0.002107,0.000302,-0.039127,-0.0,-0.0,2.0,0.282024,0.232325,0.282024,0.321461,,,,,,
317578,-0.141243,0.014941,-0.030334,0.002131,-0.001054,0.00015,-0.037472,-0.0,-0.0,2.0,0.282024,0.23419,0.282024,0.320291,,,,,,
317598,-0.139776,0.015078,-0.030461,0.003193,0.0,0.0,-0.034025,-0.0,-0.0,2.0,0.282024,0.235043,0.282024,0.319749,,,,,,
317618,-0.137944,0.015083,-0.030844,0.004257,0.0,0.0,-0.031804,-0.0,-0.0,2.0,0.282024,0.236908,0.282024,0.318549,,,,,,
317638,-0.135745,0.015103,-0.03111,0.004257,0.0,0.0,-0.02778,-0.0,-0.0,2.0,0.282024,0.237848,0.282024,0.317937,,,,,,
317658,-0.133421,0.014874,-0.031516,0.006385,0.0,0.0,-0.023534,-0.0,-0.0,2.0,0.282024,0.236626,0.282024,0.318732,,,,,,
317678,-0.130603,0.014653,-0.031921,0.006387,-0.001055,0.000139,-0.020426,-0.0,-0.0,2.0,0.282024,0.236441,0.282024,0.318852,,,,,,
317698,-0.127419,0.014433,-0.032452,0.006403,-0.00092,0.001191,-0.017905,-0.0,-0.0,2.0,0.282024,0.238977,0.282024,0.317193,,,,,,
317718,-0.124124,0.014338,-0.032982,0.007467,-0.000924,0.001188,-0.013436,-0.0,-0.0,2.0,0.282024,0.240277,0.282024,0.316328,,,,,,
317738,-0.120335,0.014375,-0.033504,0.00745,0.0,0.0,-0.009618,-0.0,-0.0,2.0,0.282024,0.240258,0.282024,0.31634,,,,,,
317758,-0.116182,0.014413,-0.034151,0.008529,0.000123,0.001057,-0.005849,-0.0,-0.0,2.0,0.282024,0.241888,0.282024,0.31524,,,,,,
317778,-0.112028,0.014461,-0.034676,0.009578,0.0,0.0,-0.003006,-0.0,-0.0,2.0,0.282024,0.247349,0.282024,0.311429,,,,,,
317798,-0.107384,0.014262,-0.035463,0.010657,0.000114,0.001058,-0.003006,-0.0,-0.0,2.0,0.282024,0.248148,0.282024,0.310855,,,,,,
317818,-0.102255,0.014199,-0.036248,0.010659,-0.00095,0.001167,0.004372,-0.0,-0.0,2.0,0.282024,0.248769,0.282024,0.310406,,,,,,
317838,-0.096999,0.013891,-0.037167,0.011723,-0.000956,0.001162,0.00762,-0.0,-0.0,2.0,0.282024,0.251872,0.282024,0.308122,,,,,,
317858,-0.09126,0.013847,-0.037956,0.011722,-0.000963,0.001157,0.011639,-0.0,-0.0,2.0,0.282024,0.252863,0.282024,0.307378,,,,,,
317878,-0.0854,0.013798,-0.038987,0.011721,9.1e-05,0.00106,0.014712,-0.0,-0.0,2.0,0.282024,0.256332,0.282024,0.30472,,,,,,
317898,-0.079296,0.013766,-0.039898,0.013848,0.001145,0.000977,0.018342,-0.0,-0.0,2.0,0.282024,0.259559,0.282024,0.302168,,,,,,
317918,-0.072949,0.013734,-0.041053,0.014914,7.8e-05,0.001061,0.021951,-0.0,-0.0,2.0,0.282024,0.26107,0.282024,0.300946,,,,,,
317938,-0.066237,0.0136,-0.042099,0.014914,7e-05,0.001062,0.023724,-0.0,-0.0,2.0,0.282024,0.263784,0.282024,0.298706,,,,,,
317958,-0.059153,0.013353,-0.043263,0.014928,0.000126,0.002125,0.027413,-0.0,-0.0,2.0,0.282024,0.267341,0.282024,0.295682,,,,,,
317978,-0.052076,0.013234,-0.044549,0.014927,0.000111,0.002126,0.030899,-0.0,-0.0,2.0,0.282024,0.269257,0.282024,0.29401,,,,,,
317998,-0.044629,0.013134,-0.045705,0.014928,-0.000968,0.002174,0.033786,-0.0,-0.0,2.0,0.282024,0.273333,0.282024,0.290346,,,,,,
318018,-0.037064,0.013042,-0.046988,0.015992,-0.000985,0.002167,0.036152,-0.0,-0.0,2.0,0.282024,0.277643,0.282024,0.286309,,,,,,
318038,-0.029743,0.012952,-0.048386,0.017056,-0.001,0.002159,0.040827,-0.0,-0.0,2.0,0.282024,0.277316,0.282024,0.286622,,,,,,
318058,-0.021936,0.012884,-0.049793,0.015991,-0.001017,0.002151,0.043578,-0.0,-0.0,2.0,0.282024,0.279838,0.282024,0.284186,,,,,,
318078,-0.013884,0.012832,-0.051196,0.016004,4.4e-05,0.003193,0.046723,-0.0,-0.0,2.0,0.282024,0.282256,0.282024,0.281792,,,,,,
318098,-0.00632,0.012778,-0.052592,0.017055,1.3e-05,0.002129,0.049906,-0.0,-0.0,2.0,0.282024,0.285981,0.282024,0.277986,,,,,,
318118,0.001365,0.012737,-0.054104,0.01599,-0.001067,0.002127,0.052898,-0.0,-0.0,2.0,0.282024,0.28665,0.282024,0.277287,,,,,,
318138,0.008931,0.012582,-0.055611,0.01599,-1.9e-05,0.002129,0.054589,-0.0,-0.0,2.0,0.282024,0.289464,0.282024,0.274291,,,,,,
318158,0.016375,0.012436,-0.057242,0.014939,-5.2e-05,0.003192,0.054589,-0.0,-0.0,2.0,0.282024,0.29295,0.282024,0.270453,,,,,,
318178,0.023699,0.012294,-0.058624,0.014938,-7.6e-05,0.003192,0.060107,-0.0,-0.0,2.0,0.282024,0.292235,0.282024,0.271251,,,,,,
318198,0.030657,0.012154,-0.060119,0.013861,-6.5e-05,0.002128,0.062463,-0.0,-0.0,2.0,0.282024,0.294369,0.282024,0.268848,,,,,,
318218,0.037373,0.011896,-0.061728,0.01386,-8e-05,0.002127,0.065818,-0.0,-0.0,2.0,0.282024,0.294415,0.282024,0.268796,,,,,,
318238,0.043967,0.011764,-0.063223,0.012808,-0.00014,0.00319,0.067069,-0.0,-0.0,2.0,0.282024,0.295355,0.282024,0.267719,,,,,,
318258,0.050194,0.011627,-0.064577,0.012808,-0.00016,0.003189,0.069423,-0.0,-0.0,2.0,0.282024,0.297107,0.282024,0.265681,,,,,,
318278,0.056295,0.011624,-0.066186,0.012795,-0.00012,0.002125,0.071622,-0.0,-0.0,2.0,0.282024,0.298876,0.282024,0.263582,,,,,,
318298,0.061915,0.011488,-0.067664,0.011731,-0.000132,0.002125,0.073721,-0.0,-0.0,2.0,0.282024,0.298992,0.282024,0.263442,,,,,,
318318,0.067538,0.011238,-0.069134,0.010678,-0.000215,0.003186,0.074986,-0.0,-0.0,2.0,0.282024,0.300949,0.282024,0.261066,,,,,,
318338,0.072788,0.011227,-0.070608,0.010678,-0.000232,0.003184,0.076368,-0.0,-0.0,2.0,0.282024,0.301187,0.282024,0.260774,,,,,,
318358,0.077673,0.011207,-0.071957,0.009602,-0.000165,0.002122,0.078654,-0.0,-0.0,2.0,0.282024,0.300874,0.282024,0.261159,,,,,,
318378,0.082317,0.011072,-0.073542,0.008537,-0.000175,0.002121,0.080059,-0.0,-0.0,2.0,0.282024,0.300863,0.282024,0.261172,,,,,,
318398,0.086714,0.011052,-0.075007,0.008549,-0.000277,0.003181,0.08079,-0.0,-0.0,2.0,0.282024,0.302496,0.282024,0.25915,,,,,,
318418,0.090501,0.010887,-0.07633,0.007484,-0.000289,0.00318,0.082636,-0.0,-0.0,2.0,0.282024,0.301876,0.282024,0.259922,,,,,,
318438,0.0943,0.010601,-0.077537,0.006397,-0.0001,0.00106,0.083775,-0.0,-0.0,2.0,0.282024,0.303056,0.282024,0.258447,,,,,,
318458,0.097738,0.010183,-0.078737,0.006396,-0.000104,0.001059,0.084738,-0.0,-0.0,2.0,0.282024,0.302691,0.282024,0.258905,,,,,,
318478,0.100809,0.009736,-0.079557,0.006397,0.000952,0.001166,0.08556,-0.0,-0.0,2.0,0.282024,0.303671,0.282024,0.257671,,,,,,
318498,0.103649,0.009142,-0.080019,0.005332,0.000948,0.001169,0.085966,-0.0,-0.0,2.0,0.282024,0.303274,0.282024,0.258172,,,,,,
318518,0.106247,0.008397,-0.080094,0.004249,0.001171,-0.000945,0.086517,-0.0,-0.0,2.0,0.282024,0.303851,0.282024,0.257442,,,,,,
318538,0.108349,0.007871,-0.080062,0.004249,0.001173,-0.000943,0.086897,-0.0,-0.0,2.0,0.282024,0.30347,0.282024,0.257925,,,,,,
318558,0.110451,0.007338,-0.079907,0.003185,0.000117,-0.001058,0.087122,-0.0,-0.0,2.0,0.282024,0.302851,0.282024,0.258705,,,,,,
318578,0.112178,0.006898,-0.079503,0.002121,0.000119,-0.001058,0.087266,-0.0,-0.0,2.0,0.282024,0.303542,0.282024,0.257834,,,,,,
318598,0.113531,0.006816,-0.079257,0.002121,0.000121,-0.001057,0.087249,-0.0,-0.0,2.0,0.282024,0.302688,0.282024,0.25891,,,,,,
318618,0.114511,0.006719,-0.079,0.00105,0.000243,-0.002115,0.08707,-0.0,-0.0,2.0,0.282024,0.301735,0.282024,0.260096,,,,,,
318638,0.115376,0.006624,-0.078879,0.001056,-0.000935,-0.00118,0.086744,-0.0,-0.0,2.0,0.282024,0.302267,0.282024,0.259436,,,,,,
318658,0.115864,0.006636,-0.078754,-1e-06,-0.001057,-0.000123,0.086264,-0.0,-0.0,2.0,0.282024,0.301238,0.282024,0.260711,,,,,,
318678,0.115981,0.006755,-0.078638,-8e-06,-0.000934,-0.00118,0.085927,-0.0,-0.0,2.0,0.282024,0.30143,0.282024,0.260474,,,,,,
318698,0.116099,0.006875,-0.078523,-0.001072,-0.000934,-0.00118,0.085109,-0.0,-0.0,2.0,0.282024,0.300373,0.282024,0.261772,,,,,,
318718,0.115856,0.006865,-0.078525,-0.001072,-0.000934,-0.00118,0.084119,-0.0,-0.0,2.0,0.282024,0.300773,0.282024,0.261283,,,,,,
318738,0.115607,0.006978,-0.078534,-0.001064,0.0,0.0,0.083203,-0.0,-0.0,2.0,0.282024,0.301016,0.282024,0.260985,,,,,,
318758,0.11549,0.006851,-0.078528,-0.001064,0.0,0.0,0.081756,-0.0,-0.0,2.0,0.282024,0.301601,0.282024,0.260263,,,,,,
318778,0.115118,0.006836,-0.078516,-0.001071,0.000122,-0.001057,0.080354,-0.0,-0.0,2.0,0.282024,0.302069,0.282024,0.259682,,,,,,
318798,0.114874,0.006834,-0.07864,-0.001065,-0.001057,-0.000122,0.078823,-0.0,-0.0,2.0,0.282024,0.302641,0.282024,0.258969,,,,,,
318818,0.114751,0.006836,-0.078762,-0.001065,-0.001057,-0.000122,0.078018,-0.0,-0.0,2.0,0.282024,0.302942,0.282024,0.25859,,,,,,
318838,0.114629,0.006838,-0.078885,-0.001065,-0.001057,-0.000122,0.07587,-0.0,-0.0,2.0,0.282024,0.303838,0.282024,0.257459,,,,,,
318858,0.114506,0.00684,-0.079007,0.0,0.0,0.0,0.07488,-0.0,-0.0,2.0,0.282024,0.305669,0.282024,0.255107,,,,,,
318878,0.114506,0.00684,-0.079007,0.0,0.0,0.0,0.072623,-0.0,-0.0,2.0,0.282024,0.305212,0.282024,0.255699,,,,,,
318898,0.114506,0.006847,-0.079128,-0.001065,-0.001057,-0.000122,0.071602,-0.0,-0.0,2.0,0.282024,0.30566,0.282024,0.255119,,,,,,
318918,0.114383,0.00685,-0.079251,-0.001064,0.0,0.0,0.0678,-0.0,-0.0,2.0,0.282024,0.307264,0.282024,0.253015,,,,,,
318938,0.11414,0.00684,-0.079253,-0.001071,0.000121,-0.001057,0.066522,-0.0,-0.0,2.0,0.282024,0.307712,0.282024,0.252419,,,,,,
318958,0.114017,0.006842,-0.079375,-0.001064,0.0,0.0,0.063972,-0.0,-0.0,2.0,0.282024,0.308763,0.282024,0.25101,,,,,,
318978,0.113773,0.006839,-0.079498,-0.001064,0.0,0.0,0.06142,-0.0,-0.0,2.0,0.282024,0.309755,0.282024,0.249663,,,,,,
318998,0.113534,0.006708,-0.079493,-0.001065,-0.001057,-0.000121,0.058727,-0.0,-0.0,2.0,0.282024,0.310798,0.282024,0.248227,,,,,,
319018,0.113163,0.006822,-0.079624,-0.002129,-0.001057,-0.00012,0.056899,-0.0,-0.0,2.0,0.282024,0.310018,0.282024,0.249302,,,,,,
319038,0.112675,0.00681,-0.07975,-0.002129,-0.001057,-0.00012,0.054125,-0.0,-0.0,2.0,0.282024,0.310998,0.282024,0.24795,,,,,,
319058,0.11181,0.006904,-0.07987,-0.002129,-0.001058,-0.000119,0.051297,-0.0,-0.0,2.0,0.282024,0.311835,0.282024,0.246781,,,,,,
319078,0.110947,0.007121,-0.080012,-0.003194,-0.001058,-0.000118,0.047352,-0.0,-0.0,2.0,0.282024,0.311742,0.282024,0.246912,,,,,,
319098,0.109723,0.007072,-0.080006,-0.003193,-0.001058,-0.000117,0.045275,-0.0,-0.0,2.0,0.282024,0.312104,0.282024,0.246403,,,,,,
319118,0.108129,0.007259,-0.080152,-0.004258,-0.001058,-0.000115,0.04138,-0.0,-0.0,2.0,0.282024,0.311669,0.282024,0.247013,,,,,,
319138,0.106412,0.007312,-0.080156,-0.00533,-0.000945,-0.001171,0.038005,-0.0,-0.0,2.0,0.282024,0.310979,0.282024,0.247976,,,,,,
319158,0.104447,0.007478,-0.080168,-0.00533,-0.000947,-0.001169,0.034496,-0.0,-0.0,2.0,0.282024,0.311638,0.282024,0.247057,,,,,,
319178,0.102001,0.007496,-0.080054,-0.005322,-0.001059,-0.000108,0.031928,-0.0,-0.0,2.0,0.282024,0.31168,0.282024,0.246999,,,,,,
319198,0.0993,0.007748,-0.079954,-0.006394,0.000106,-0.001059,0.031928,-0.0,-0.0,2.0,0.282024,0.309426,0.282024,0.250111,,,,,,
319218,0.096366,0.007748,-0.079841,-0.007459,-0.000957,-0.001162,0.025459,-0.0,-0.0,2.0,0.282024,0.309211,0.282024,0.250404,,,,,,
319238,0.092813,0.007839,-0.0796,-0.008522,9.9e-05,-0.00106,0.023283,-0.0,-0.0,2.0,0.282024,0.308617,0.282024,0.251207,,,,,,
319258,0.089023,0.007917,-0.079251,-0.009586,9.5e-05,-0.00106,0.019927,-0.0,-0.0,2.0,0.282024,0.30556,0.282024,0.255249,,,,,,
319278,0.084987,0.007869,-0.079004,-0.009587,-0.00097,-0.001151,0.015475,-0.0,-0.0,2.0,0.282024,0.305742,0.282024,0.255012,,,,,,
319298,0.080469,0.007804,-0.07877,-0.010651,-0.000975,-0.001146,0.011716,-0.0,-0.0,2.0,0.282024,0.303961,0.282024,0.257303,,,,,,
319318,0.075577,0.007842,-0.078405,-0.011715,8e-05,-0.001061,0.008029,-0.0,-0.0,2.0,0.282024,0.301965,0.282024,0.259811,,,,,,
319338,0.070567,0.007755,-0.078033,-0.01278,-0.000987,-0.001137,0.004361,-0.0,-0.0,2.0,0.282024,0.299889,0.282024,0.262359,,,,,,
319358,0.064952,0.007647,-0.077673,-0.012779,-0.000993,-0.001131,0.002342,-0.0,-0.0,2.0,0.282024,0.298267,0.282024,0.264308,,,,,,
319378,0.05908,0.007775,-0.077305,-0.013843,6.3e-05,-0.001062,-0.000481,-0.0,-0.0,2.0,0.282024,0.295373,0.282024,0.267697,,,,,,
319398,0.05322,0.007666,-0.07706,-0.013843,5.7e-05,-0.001063,-0.004593,-0.0,-0.0,2.0,0.282024,0.29457,0.282024,0.268619,,,,,,
319418,0.046865,0.007657,-0.076679,-0.013843,5e-05,-0.001063,-0.006858,-0.0,-0.0,2.0,0.282024,0.292677,0.282024,0.270758,,,,,,
319438,0.040387,0.007768,-0.076311,-0.014907,4.3e-05,-0.001063,-0.012995,-0.0,-0.0,2.0,0.282024,0.290977,0.282024,0.272642,,,,,,
319458,0.033791,0.007755,-0.075935,-0.014907,3.6e-05,-0.001064,-0.012995,-0.0,-0.0,2.0,0.282024,0.288671,0.282024,0.275144,,,,,,
319478,0.027195,0.007745,-0.075553,-0.014908,-0.001035,-0.001093,-0.019386,-0.0,-0.0,2.0,0.282024,0.287762,0.282024,0.276113,,,,,,
319498,0.020477,0.007731,-0.075045,-0.014907,2.2e-05,-0.001064,-0.023138,-0.0,-0.0,2.0,0.282024,0.286345,0.282024,0.277606,,,,,,
319518,0.013755,0.007843,-0.074776,-0.014907,1.5e-05,-0.001064,-0.026676,-0.0,-0.0,2.0,0.282024,0.284812,0.282024,0.279196,,,,,,
319538,0.007043,0.007713,-0.074271,-0.014907,-0.001057,-0.001072,-0.028403,-0.0,-0.0,2.0,0.282024,0.282387,0.282024,0.28166,,,,,,
319558,8.2e-05,0.007699,-0.073882,-0.014916,0.0,-0.002129,-0.031934,-0.0,-0.0,2.0,0.282024,0.281542,0.282024,0.282505,,,,,,
319578,-0.00664,0.007818,-0.07361,-0.014907,-7e-06,-0.001064,-0.03532,-0.0,-0.0,2.0,0.282024,0.279048,0.282024,0.284956,,,,,,
319598,-0.013353,0.007695,-0.073213,-0.014907,-0.001078,-0.00105,-0.038209,-0.0,-0.0,2.0,0.282024,0.277135,0.282024,0.286795,,,,,,
319618,-0.02007,0.007696,-0.07281,-0.014916,-4.3e-05,-0.002128,-0.040086,-0.0,-0.0,2.0,0.282024,0.275553,0.282024,0.288289,,,,,,
319638,-0.02667,0.007827,-0.072414,-0.014907,-0.001092,-0.001035,-0.045134,-0.0,-0.0,2.0,0.282024,0.27388,0.282024,0.289843,,,,,,
319658,-0.033145,0.00784,-0.072138,-0.013843,-0.001099,-0.001028,-0.04727,-0.0,-0.0,2.0,0.282024,0.27336,0.282024,0.290321,,,,,,
319678,-0.039373,0.007865,-0.071724,-0.013843,-0.001105,-0.001022,-0.050315,-0.0,-0.0,2.0,0.282024,0.272541,0.282024,0.291069,,,,,,
319698,-0.045486,0.008017,-0.071439,-0.013843,-4.8e-05,-0.001063,-0.053293,-0.0,-0.0,2.0,0.282024,0.270091,0.282024,0.293272,,,,,,
319718,-0.051598,0.008051,-0.071044,-0.012779,-0.001118,-0.001008,-0.056216,-0.0,-0.0,2.0,0.282024,0.270148,0.282024,0.293221,,,,,,
319738,-0.057219,0.008101,-0.070757,-0.012779,-0.001123,-0.001002,-0.059417,-0.0,-0.0,2.0,0.282024,0.268881,0.282024,0.29434,,,,,,
319758,-0.062722,0.008278,-0.070464,-0.011715,-6.7e-05,-0.001062,-0.059417,-0.0,-0.0,2.0,0.282024,0.265966,0.282024,0.296863,,,,,,
319778,-0.067981,0.00847,-0.070048,-0.011715,-0.001134,-0.00099,-0.063716,-0.0,-0.0,2.0,0.282024,0.267211,0.282024,0.295795,,,,,,
319798,-0.073122,0.008668,-0.069643,-0.011715,-0.001139,-0.000984,-0.065869,-0.0,-0.0,2.0,0.282024,0.267375,0.282024,0.295653,,,,,,
319818,-0.078011,0.008749,-0.06935,-0.010651,-0.001144,-0.000978,-0.067532,-0.0,-0.0,2.0,0.282024,0.266246,0.282024,0.296624,,,,,,
319838,-0.082665,0.008967,-0.068943,-0.010651,-0.001148,-0.000973,-0.070395,-0.0,-0.0,2.0,0.282024,0.264697,0.282024,0.29794,,,,,,
319858,-0.086943,0.009077,-0.06853,-0.009587,-0.001153,-0.000968,-0.072568,-0.0,-0.0,2.0,0.282024,0.265859,0.282024,0.296955,,,,,,
319878,-0.091226,0.00931,-0.068109,-0.008523,-0.001157,-0.000963,-0.074542,-0.0,-0.0,2.0,0.282024,0.264607,0.282024,0.298016,,,,,,
319898,-0.095144,0.009436,-0.067709,-0.008533,-0.001262,-0.002018,-0.07596,-0.0,-0.0,2.0,0.282024,0.264509,0.282024,0.298098,,,,,,
319918,-0.098817,0.009693,-0.067291,-0.008533,-0.001269,-0.002013,-0.077294,-0.0,-0.0,2.0,0.282024,0.263263,0.282024,0.297203,,,,,,
319938,-0.10212,0.009842,-0.066883,-0.007459,-0.001167,-0.00095,-0.079181,-0.0,-0.0,2.0,0.282024,0.26428,0.282024,0.298291,,,,,,
319958,-0.105551,0.009995,-0.066362,-0.006395,-0.00117,-0.000946,-0.080125,-0.0,-0.0,2.0,0.282024,0.262916,0.282024,0.299429,,,,,,
319978,-0.108488,0.010166,-0.065834,-0.006406,-0.001288,-0.002001,-0.081372,-0.0,-0.0,2.0,0.282024,0.261996,0.282024,0.300189,,,,,,
319998,-0.111307,0.010457,-0.065421,-0.006406,-0.001294,-0.001997,-0.083086,-0.0,-0.0,2.0,0.282024,0.263205,0.282024,0.299189,,,,,,
320018,-0.113879,0.010636,-0.065018,-0.006384,-0.001057,0.000121,-0.084132,-0.0,-0.0,2.0,0.282024,0.262624,0.282024,0.299671,,,,,,
320038,-0.116457,0.011073,-0.064356,-0.005331,-0.001181,-0.000933,-0.085041,-0.0,-0.0,2.0,0.282024,0.263246,0.282024,0.299155,,,,,,
320058,-0.118667,0.011394,-0.063827,-0.005342,-0.002365,-0.001862,-0.08579,-0.0,-0.0,2.0,0.282024,0.262449,0.282024,0.299816,,,,,,
320078,-0.120755,0.011714,-0.06342,-0.005344,-0.001313,-0.001985,-0.086168,-0.0,-0.0,2.0,0.282024,0.261535,0.282024,0.300567,,,,,,
320098,-0.122724,0.012167,-0.062885,-0.005332,-0.001186,-0.000926,-0.086664,-0.0,-0.0,2.0,0.282024,0.262779,0.282024,0.299542,,,,,,
320118,-0.124571,0.012633,-0.06223,-0.004269,-0.001188,-0.000924,-0.087015,-0.0,-0.0,2.0,0.282024,0.261894,0.282024,0.300273,,,,,,
320138,-0.12654,0.013088,-0.061693,-0.003217,-0.00238,-0.001843,-0.087209,-0.0,-0.0,2.0,0.282024,0.260717,0.282024,0.301233,,,,,,
320158,-0.128262,0.013422,-0.061288,-0.004283,-0.001328,-0.001975,-0.087264,-0.0,-0.0,2.0,0.282024,0.260095,0.282024,0.301737,,,,,,
320178,-0.129732,0.013764,-0.060875,-0.00427,-0.001193,-0.000918,-0.087157,-0.0,-0.0,2.0,0.282024,0.260947,0.282024,0.301046,,,,,,
320198,-0.131456,0.014237,-0.060218,-0.00427,-0.001195,-0.000916,-0.086891,-0.0,-0.0,2.0,0.282024,0.257988,0.282024,0.30342,,,,,,
320218,-0.133173,0.014468,-0.059576,-0.003221,-0.001337,-0.001969,-0.086476,-0.0,-0.0,2.0,0.282024,0.256885,0.282024,0.304288,,,,,,
320238,-0.13464,0.014447,-0.059196,-0.003221,-0.00134,-0.001967,-0.085904,-0.0,-0.0,2.0,0.282024,0.255722,0.282024,0.305194,,,,,,
320258,-0.135848,0.014199,-0.058706,-0.003208,-0.000144,-0.001055,-0.085431,-0.0,-0.0,2.0,0.282024,0.256574,0.282024,0.304531,,,,,,
320278,-0.137067,0.014082,-0.058096,-0.003208,-0.000145,-0.001054,-0.084858,-0.0,-0.0,2.0,0.282024,0.255498,0.282024,0.305367,,,,,,
320298,-0.138281,0.014086,-0.057467,-0.002158,-0.000293,-0.002108,-0.083531,-0.0,-0.0,2.0,0.282024,0.254053,0.282024,0.306476,,,,,,
320318,-0.139258,0.01397,-0.056983,-0.002156,-0.001349,-0.00196,-0.082599,-0.0,-0.0,2.0,0.282024,0.254735,0.282024,0.305955,,,,,,
320338,-0.139986,0.013973,-0.056606,-0.002141,-0.001202,-0.000905,-0.081089,-0.0,-0.0,2.0,0.282024,0.25359,0.282024,0.306829,,,,,,
320358,-0.140473,0.014123,-0.055982,-0.002143,-0.000149,-0.001054,-0.080134,-0.0,-0.0,2.0,0.282024,0.25456,0.282024,0.306089,,,,,,
320378,-0.141086,0.014392,-0.055346,-0.001095,-0.000299,-0.002108,-0.078314,-0.0,-0.0,2.0,0.282024,0.253167,0.282024,0.307149,,,,,,
320398,-0.141455,0.014659,-0.054837,-0.001095,-0.0003,-0.002107,-0.077456,-0.0,-0.0,2.0,0.282024,0.252389,0.282024,0.307735,,,,,,
320418,-0.141574,0.014681,-0.05447,-2.9e-05,-0.001354,-0.001957,-0.075632,-0.0,-0.0,2.0,0.282024,0.25129,0.282024,0.308554,,,,,,
320438,-0.141447,0.014598,-0.053994,-1.3e-05,-0.001204,-0.000904,-0.074427,-0.0,-0.0,2.0,0.282024,0.250627,0.282024,0.309046,,,,,,
320458,-0.141201,0.014639,-0.053512,-1.5e-05,-0.00015,-0.001054,-0.072566,-0.0,-0.0,2.0,0.282024,0.251537,0.282024,0.308372,,,,,,
320478,-0.141073,0.014556,-0.053036,-3.1e-05,-0.000299,-0.002108,-0.069643,-0.0,-0.0,2.0,0.282024,0.24998,0.282024,0.309522,,,,,,
320498,-0.140828,0.014588,-0.052676,-3.1e-05,-0.000299,-0.002108,-0.067731,-0.0,-0.0,2.0,0.282024,0.249035,0.282024,0.310213,,,,,,
320518,-0.140449,0.014502,-0.052316,-1.5e-05,-0.000149,-0.001054,-0.064494,-0.0,-0.0,2.0,0.282024,0.247237,0.282024,0.31151,,,,,,
320538,-0.140324,0.01454,-0.051832,-1.5e-05,-0.000149,-0.001054,-0.062927,-0.0,-0.0,2.0,0.282024,0.246376,0.282024,0.312123,,,,,,
320558,-0.140201,0.014569,-0.051469,-1.3e-05,-0.001202,-0.000905,-0.060311,-0.0,-0.0,2.0,0.282024,0.244976,0.282024,0.313109,,,,,,
320578,-0.140081,0.014711,-0.051219,-1.6e-05,-0.000149,-0.001054,-0.057601,-0.0,-0.0,2.0,0.282024,0.243403,0.282024,0.314203,,,,,,
320598,-0.139957,0.01474,-0.050856,-1.6e-05,-0.000148,-0.001054,-0.054779,-0.0,-0.0,2.0,0.282024,0.241674,0.282024,0.315386,,,,,,
320618,-0.1397,0.01465,-0.050495,-1.3e-05,-0.001202,-0.000906,-0.05286,-0.0,-0.0,2.0,0.282024,0.240685,0.282024,0.316054,,,,,,
320638,-0.139333,0.014677,-0.050257,-1.3e-05,-0.001202,-0.000906,-0.049624,-0.0,-0.0,2.0,0.282024,0.238919,0.282024,0.317232,,,,,,
320658,-0.13872,0.014589,-0.050032,0.001051,-0.001201,-0.000907,-0.046748,-0.0,-0.0,2.0,0.282024,0.239421,0.282024,0.316899,,,,,,
320678,-0.138101,0.014621,-0.04979,0.001049,-0.000147,-0.001054,-0.04415,-0.0,-0.0,2.0,0.282024,0.238222,0.282024,0.317691,,,,,,
320698,-0.137247,0.014669,-0.049439,0.001049,-0.000146,-0.001054,-0.039911,-0.0,-0.0,2.0,0.282024,0.238125,0.282024,0.317755,,,,,,
320718,-0.136266,0.014832,-0.049193,0.002113,-0.000145,-0.001054,-0.037939,-0.0,-0.0,2.0,0.282024,0.237427,0.282024,0.318212,,,,,,
320738,-0.135169,0.014878,-0.048968,0.003177,-0.000143,-0.001055,-0.034546,-0.0,-0.0,2.0,0.282024,0.236037,0.282024,0.319113,,,,,,
320758,-0.133699,0.014924,-0.04886,0.003179,-0.001197,-0.000913,-0.031055,-0.0,-0.0,2.0,0.282024,0.234732,0.282024,0.319947,,,,,,
320778,-0.131985,0.014984,-0.048635,0.003195,-0.001055,0.00014,-0.027565,-0.0,-0.0,2.0,0.282024,0.235635,0.282024,0.319371,,,,,,
320798,-0.130027,0.015049,-0.048413,0.004243,-0.001193,-0.000917,-0.025362,-0.0,-0.0,2.0,0.282024,0.235397,0.282024,0.319523,,,,,,
320818,-0.127815,0.014999,-0.048193,0.003161,-0.000271,-0.002111,-0.020231,-0.0,-0.0,2.0,0.282024,0.235634,0.282024,0.319371,,,,,,
320838,-0.125124,0.014953,-0.048111,0.005305,-0.000133,-0.001056,-0.01816,-0.0,-0.0,2.0,0.282024,0.237908,0.282024,0.317897,,,,,,
