time_ms,roll,pitch,yaw,reference_roll,reference_pitch,reference_yaw,reference_throttle,throttle_1,throttle_2,throttle_3,throttle_4,roll_predicted,pitch_predicted,yaw_predicted,roll_rate_predicted,pitch_rate_predicted,yaw_rate_predicted,value1,value2,value3,value4,value5,value6
175408,0.006753,-0.011996,-0.026696,0.0,-0.0,-0.0,3.0,0.3261,0.329714,0.3261,0.322431,,,,,,,0.005795,-0.014659,-0.023395,-0.003069,2.8e-05,-5.5e-05
175428,0.006754,-0.012118,-0.026574,0.0,-0.0,-0.0,3.0,0.3261,0.329066,0.3261,0.323098,,,,,,,0.00581,-0.014658,-0.023396,-0.005476,1.5e-05,-5.5e-05
175448,0.006754,-0.012118,-0.026574,0.0,-0.0,-0.0,3.0,0.3261,0.330627,0.3261,0.321486,,,,,,,0.005914,-0.014658,-0.023397,-0.023458,2.7e-05,-5.5e-05
175468,0.006631,-0.01212,-0.026453,0.0,-0.0,-0.0,3.0,0.3261,0.332744,0.3261,0.319268,,,,,,,0.006005,-0.014657,-0.023398,-0.038606,1.5e-05,-5.5e-05
175488,0.006629,-0.011998,-0.026453,0.0,-0.0,-0.0,3.0,0.3261,0.33379,0.3261,0.318156,,,,,,,0.005988,-0.014657,-0.023399,-0.014792,1.5e-05,-5.5e-05
175508,0.006631,-0.01212,-0.026453,0.0,-0.0,-0.0,3.0,0.3261,0.331513,0.3261,0.320562,,,,,,,0.005899,-0.014657,-0.0234,0.021319,3e-06,-5.4e-05
175528,0.006876,-0.012117,-0.026573,0.0,-0.0,-0.0,3.0,0.3261,0.329661,0.3261,0.322486,,,,,,,0.005794,-0.014657,-0.023401,0.039185,3e-06,-5.4e-05
175548,0.006998,-0.012115,-0.026572,0.0,-0.0,-0.0,3.0,0.3261,0.330941,0.3261,0.32116,,,,,,,0.005884,-0.014656,-0.023402,0.002667,1.5e-05,-4.2e-05
175568,0.006876,-0.012117,-0.026573,0.0,-0.0,-0.0,3.0,0.3261,0.330012,0.3261,0.322124,,,,,,,0.0059,-0.014656,-0.023403,-0.000262,2.7e-05,-4.2e-05
175588,0.006751,-0.011997,-0.026452,0.0,-0.0,-0.0,3.0,0.3261,0.328226,0.3261,0.323956,,,,,,,0.005811,-0.014655,-0.023404,0.014364,3.9e-05,-3e-05
175608,0.006628,-0.011999,-0.026331,0.0,-0.0,-0.0,3.0,0.3261,0.329949,0.3261,0.322188,,,,,,,0.00593,-0.014655,-0.023405,-0.005963,5.2e-05,-4.2e-05
175628,0.006625,-0.011755,-0.026332,0.0,-0.0,-0.0,3.0,0.3261,0.330852,0.3261,0.321253,,,,,,,0.005915,-0.014654,-0.023406,-0.023891,3.9e-05,-4.2e-05
175648,0.006504,-0.011756,-0.026455,0.0,-0.0,-0.0,3.0,0.3261,0.335051,0.3261,0.316802,,,,,,,0.006104,-0.014653,-0.023406,-0.055829,2.7e-05,-4.2e-05
175668,0.006506,-0.011878,-0.026454,0.0,-0.0,-0.0,3.0,0.3261,0.333862,0.3261,0.318079,,,,,,,0.005849,-0.014653,-0.023407,-0.011816,2e-06,-4.2e-05
175688,0.006509,-0.012122,-0.026453,0.0,-0.0,-0.0,3.0,0.3261,0.33229,0.3261,0.319747,,,,,,,0.005757,-0.014652,-0.023408,0.045387,3e-06,-4.1e-05
175708,0.006632,-0.01212,-0.026575,0.0,-0.0,-0.0,3.0,0.3261,0.33012,0.3261,0.322012,,,,,,,0.005651,-0.014652,-0.023409,0.042327,1.5e-05,-4.2e-05
175728,0.006631,-0.01212,-0.026453,0.0,-0.0,-0.0,3.0,0.3261,0.328238,0.3261,0.323944,,,,,,,0.005547,-0.014651,-0.02341,0.017764,3.9e-05,-2.9e-05
175748,0.006631,-0.01212,-0.026453,0.0,-0.0,-0.0,3.0,0.3261,0.32891,0.3261,0.323257,,,,,,,0.005548,-0.01465,-0.02341,-0.00364,6.3e-05,-4.2e-05
175768,0.006506,-0.011878,-0.026454,0.0,-0.0,-0.0,3.0,0.3261,0.328663,0.3261,0.32351,,,,,,,0.005567,-0.014649,-0.023411,-0.027843,7.5e-05,-5.4e-05
175788,0.006257,-0.011515,-0.026457,0.0,-0.0,-0.0,3.0,0.3261,0.329457,0.3261,0.322696,,,,,,,0.005566,-0.014649,-0.023412,-0.027565,7.5e-05,-5.4e-05
175808,0.006014,-0.01164,-0.026458,0.0,-0.0,-0.0,3.0,0.3261,0.331105,0.3261,0.320989,,,,,,,0.005548,-0.014648,-0.023413,-0.044509,3.8e-05,-5.4e-05
175828,0.006138,-0.01176,-0.026579,0.0,-0.0,-0.0,3.0,0.3261,0.333625,0.3261,0.318332,,,,,,,0.00551,-0.014647,-0.023414,-0.037408,1.3e-05,-5.4e-05
175848,0.006018,-0.011884,-0.026579,0.0,-0.0,-0.0,3.0,0.3261,0.334572,0.3261,0.317319,,,,,,,0.005481,-0.014646,-0.023415,-0.01106,-1.1e-05,-5.3e-05
175868,0.006021,-0.012128,-0.026579,0.0,-0.0,-0.0,3.0,0.3261,0.332193,0.3261,0.319849,,,,,,,0.005251,-0.014646,-0.023416,0.027578,1e-06,-4.1e-05
175888,0.006267,-0.012247,-0.026577,0.0,-0.0,-0.0,3.0,0.3261,0.328731,0.3261,0.32344,,,,,,,0.005059,-0.014645,-0.023417,0.059732,2.6e-05,-4.1e-05
175908,0.006265,-0.012125,-0.026455,0.0,-0.0,-0.0,3.0,0.3261,0.32895,0.3261,0.323216,,,,,,,0.005184,-0.014645,-0.023418,-0.003633,5e-05,-5.3e-05
175928,0.006261,-0.011881,-0.026456,0.0,-0.0,-0.0,3.0,0.3261,0.32977,0.3261,0.322374,,,,,,,0.005168,-0.014644,-0.023419,-0.021945,6.2e-05,-5.3e-05
175948,0.006016,-0.011762,-0.02658,0.0,-0.0,-0.0,3.0,0.3261,0.331262,0.3261,0.320825,,,,,,,0.005289,-0.014643,-0.02342,-0.042157,4.9e-05,-5.3e-05
175968,0.006015,-0.01164,-0.02658,0.0,-0.0,-0.0,3.0,0.3261,0.330613,0.3261,0.321501,,,,,,,0.005183,-0.014643,-0.023421,0.017616,3.7e-05,-5.3e-05
175988,0.00602,-0.012006,-0.026579,0.0,-0.0,-0.0,3.0,0.3261,0.331361,0.3261,0.320722,,,,,,,0.005304,-0.014642,-0.023422,-0.002353,1.3e-05,-5.3e-05
176008,0.006142,-0.012004,-0.026578,0.0,-0.0,-0.0,3.0,0.3261,0.332238,0.3261,0.319802,,,,,,,0.005271,-0.014641,-0.023423,0.003261,1.3e-05,-5.3e-05
176028,0.006143,-0.012127,-0.026578,0.0,-0.0,-0.0,3.0,0.3261,0.333474,0.3261,0.318493,,,,,,,0.005374,-0.014641,-0.023424,-0.01413,1e-06,-4e-05
176048,0.006021,-0.012128,-0.026579,0.0,-0.0,-0.0,3.0,0.3261,0.330047,0.3261,0.322087,,,,,,,0.005166,-0.01464,-0.023425,0.020827,2.5e-05,-5.3e-05
176068,0.005899,-0.01213,-0.026579,0.0,-0.0,-0.0,3.0,0.3261,0.329167,0.3261,0.322994,,,,,,,0.005062,-0.01464,-0.023426,0.01757,3.7e-05,-5.3e-05
176088,0.005896,-0.011886,-0.02658,0.0,-0.0,-0.0,3.0,0.3261,0.32896,0.3261,0.323206,,,,,,,0.004939,-0.014639,-0.023427,-0.003264,4.9e-05,-6.5e-05
176108,0.005775,-0.011887,-0.026703,0.0,-0.0,-0.0,3.0,0.3261,0.330946,0.3261,0.321154,,,,,,,0.004908,-0.014638,-0.023429,-0.018486,3.6e-05,-6.5e-05
176128,0.005653,-0.011889,-0.026704,0.0,-0.0,-0.0,3.0,0.3261,0.330255,0.3261,0.321873,,,,,,,0.004803,-0.014638,-0.02343,-0.021175,2.4e-05,-6.5e-05
176148,0.005411,-0.012014,-0.026827,0.0,-0.0,-0.0,3.0,0.3261,0.327939,0.3261,0.324248,,,,,,,0.004594,-0.014637,-0.023431,-0.006151,1.2e-05,-6.5e-05
176168,0.005289,-0.012015,-0.026828,0.0,-0.0,-0.0,3.0,0.3261,0.330204,0.3261,0.321925,,,,,,,0.004574,-0.014637,-0.023432,0.01811,1.2e-05,-6.4e-05
176188,0.00529,-0.012137,-0.026827,0.0,-0.0,-0.0,3.0,0.3261,0.332146,0.3261,0.319898,,,,,,,0.004677,-0.014637,-0.023434,-0.040869,1.1e-05,-6.4e-05
176208,0.00529,-0.012138,-0.026705,0.0,-0.0,-0.0,3.0,0.3261,0.333725,0.3261,0.318225,,,,,,,0.004645,-0.014636,-0.023435,-0.035129,-1e-06,-6.4e-05
176228,0.005288,-0.012016,-0.026705,0.0,-0.0,-0.0,3.0,0.3261,0.334501,0.3261,0.317395,,,,,,,0.004628,-0.014636,-0.023437,-0.011616,1.2e-05,-7.6e-05
176248,0.005168,-0.012139,-0.026706,0.0,-0.0,-0.0,3.0,0.3261,0.331108,0.3261,0.320985,,,,,,,0.00442,-0.014636,-0.023438,0.023689,1.1e-05,-7.6e-05
176268,0.00529,-0.012138,-0.026705,0.0,-0.0,-0.0,3.0,0.3261,0.330248,0.3261,0.32188,,,,,,,0.004314,-0.014635,-0.02344,0.041832,1.1e-05,-7.6e-05
176288,0.00529,-0.012138,-0.026705,0.0,-0.0,-0.0,3.0,0.3261,0.32878,0.3261,0.32339,,,,,,,0.004196,-0.014635,-0.023441,0.019844,2.3e-05,-6.4e-05
176308,0.005288,-0.012016,-0.026705,0.0,-0.0,-0.0,3.0,0.3261,0.329464,0.3261,0.322688,,,,,,,0.004194,-0.014635,-0.023442,-0.000475,2.3e-05,-6.4e-05
176328,0.004923,-0.012142,-0.026707,0.0,-0.0,-0.0,3.0,0.3261,0.326982,0.3261,0.325216,,,,,,,0.004122,-0.014634,-0.023443,-0.009271,2.3e-05,-5.1e-05
176348,0.004803,-0.012266,-0.026708,0.0,-0.0,-0.0,3.0,0.3261,0.329309,0.3261,0.322848,,,,,,,0.0041,-0.014634,-0.023444,-0.026349,2.3e-05,-5.1e-05
176368,0.004557,-0.012148,-0.026588,0.0,-0.0,-0.0,3.0,0.3261,0.332432,0.3261,0.319597,,,,,,,0.004191,-0.014634,-0.023446,-0.083054,2.2e-05,-6.4e-05
176388,0.004312,-0.012029,-0.026712,0.0,-0.0,-0.0,3.0,0.3261,0.332927,0.3261,0.319074,,,,,,,0.003914,-0.014634,-0.023447,-0.056413,1e-05,-6.4e-05
176408,0.004068,-0.012032,-0.026835,0.0,-0.0,-0.0,3.0,0.3261,0.332815,0.3261,0.319193,,,,,,,0.003672,-0.014634,-0.023448,-0.014538,-1.4e-05,-7.6e-05
176428,0.004192,-0.012152,-0.026834,0.0,-0.0,-0.0,3.0,0.3261,0.331677,0.3261,0.320391,,,,,,,0.003442,-0.014634,-0.02345,0.024246,-2e-06,-7.5e-05
176448,0.004071,-0.012276,-0.026835,0.0,-0.0,-0.0,3.0,0.3261,0.327194,0.3261,0.325001,,,,,,,0.003116,-0.014633,-0.023451,0.038387,-1.5e-05,-7.5e-05
176468,0.004071,-0.012276,-0.026835,0.0,-0.0,-0.0,3.0,0.3261,0.326447,0.3261,0.325753,,,,,,,0.002872,-0.014633,-0.023453,0.038185,-3e-06,-7.5e-05
176488,0.004073,-0.012398,-0.026834,0.0,-0.0,-0.0,3.0,0.3261,0.329066,0.3261,0.323097,,,,,,,0.002974,-0.014633,-0.023454,-0.020854,-3e-06,-6.3e-05
176508,0.004071,-0.012276,-0.026713,0.0,-0.0,-0.0,3.0,0.3261,0.328932,0.3261,0.323235,,,,,,,0.002991,-0.014633,-0.023455,-0.045206,2.1e-05,-5.1e-05
176528,0.003824,-0.012157,-0.026592,0.0,-0.0,-0.0,3.0,0.3261,0.330403,0.3261,0.321719,,,,,,,0.003111,-0.014633,-0.023457,-0.024302,3.3e-05,-6.3e-05
176548,0.003821,-0.011913,-0.026593,0.0,-0.0,-0.0,3.0,0.3261,0.331817,0.3261,0.320244,,,,,,,0.00323,-0.014633,-0.023458,-0.023719,3.4e-05,-6.3e-05
176568,0.003819,-0.011791,-0.026593,0.0,-0.0,-0.0,3.0,0.3261,0.334737,0.3261,0.317141,,,,,,,0.003437,-0.014633,-0.023459,-0.017155,2.2e-05,-6.3e-05
176588,0.003944,-0.011911,-0.026714,0.0,-0.0,-0.0,3.0,0.3261,0.333934,0.3261,0.318002,,,,,,,0.003287,-0.014632,-0.02346,-0.011716,-3e-06,-6.2e-05
176608,0.003823,-0.012035,-0.026715,0.0,-0.0,-0.0,3.0,0.3261,0.331306,0.3261,0.320779,,,,,,,0.003062,-0.014632,-0.023461,0.026595,-3e-06,-6.2e-05
176628,0.003705,-0.012281,-0.026715,0.0,-0.0,-0.0,3.0,0.3261,0.325508,0.3261,0.326691,,,,,,,0.002643,-0.014632,-0.023462,0.077305,-1.5e-05,-6.2e-05
176648,0.003828,-0.012401,-0.026714,0.0,-0.0,-0.0,3.0,0.3261,0.326716,0.3261,0.325483,,,,,,,0.002638,-0.014631,-0.023464,0.01508,9e-06,-5e-05
176668,0.003706,-0.012403,-0.026715,0.0,-0.0,-0.0,3.0,0.3261,0.328147,0.3261,0.324036,,,,,,,0.00261,-0.014631,-0.023465,-0.042716,2e-05,-5e-05
176688,0.003458,-0.012162,-0.026595,0.0,-0.0,-0.0,3.0,0.3261,0.331917,0.3261,0.320139,,,,,,,0.002848,-0.014631,-0.023466,-0.041998,4.5e-05,-6.2e-05
176708,0.003333,-0.01192,-0.026596,0.0,-0.0,-0.0,3.0,0.3261,0.329948,0.3261,0.32219,,,,,,,0.002759,-0.014631,-0.023467,-0.005841,3.3e-05,-6.2e-05
176728,0.003452,-0.011674,-0.026717,0.0,-0.0,-0.0,3.0,0.3261,0.332483,0.3261,0.319544,,,,,,,0.002844,-0.014631,-0.023468,-0.020393,3.3e-05,-6.2e-05
176748,0.003576,-0.011794,-0.026716,0.0,-0.0,-0.0,3.0,0.3261,0.333633,0.3261,0.318323,,,,,,,0.002799,-0.01463,-0.023469,-0.032811,8e-06,-6.2e-05
176768,0.003579,-0.012038,-0.026716,0.0,-0.0,-0.0,3.0,0.3261,0.332059,0.3261,0.31999,,,,,,,0.002694,-0.01463,-0.023471,0.026864,-4e-06,-6.2e-05
176788,0.003337,-0.012164,-0.026717,0.0,-0.0,-0.0,3.0,0.3261,0.326615,0.3261,0.325584,,,,,,,0.002381,-0.014629,-0.023472,0.059234,-4e-06,-6.2e-05
176808,0.003584,-0.012405,-0.026715,0.0,-0.0,-0.0,3.0,0.3261,0.327633,0.3261,0.324557,,,,,,,0.002389,-0.014629,-0.023473,0.036391,2e-05,-4.9e-05
176828,0.003583,-0.012405,-0.026593,0.0,-0.0,-0.0,3.0,0.3261,0.327943,0.3261,0.324244,,,,,,,0.002516,-0.014628,-0.023474,-0.027059,3.2e-05,-4.9e-05
176848,0.003334,-0.012042,-0.026473,0.0,-0.0,-0.0,3.0,0.3261,0.330513,0.3261,0.321605,,,,,,,0.002604,-0.014628,-0.023475,-0.021444,4.4e-05,-4.9e-05
176868,0.00333,-0.011798,-0.026474,0.0,-0.0,-0.0,3.0,0.3261,0.330714,0.3261,0.321396,,,,,,,0.002617,-0.014628,-0.023476,-0.002909,4.5e-05,-4.9e-05
176888,0.003329,-0.011676,-0.026596,0.0,-0.0,-0.0,3.0,0.3261,0.331048,0.3261,0.321048,,,,,,,0.002603,-0.014627,-0.023477,-0.000415,4.5e-05,-4.9e-05
176908,0.003329,-0.011676,-0.026596,0.0,-0.0,-0.0,3.0,0.3261,0.331705,0.3261,0.320361,,,,,,,0.002587,-0.014627,-0.023478,0.002459,3.2e-05,-4.9e-05
176928,0.003209,-0.011799,-0.026597,0.0,-0.0,-0.0,3.0,0.3261,0.328438,0.3261,0.323739,,,,,,,0.002376,-0.014626,-0.023479,0.017834,2e-05,-4.9e-05
176948,0.003332,-0.01192,-0.026474,0.0,-0.0,-0.0,3.0,0.3261,0.330065,0.3261,0.322069,,,,,,,0.002357,-0.014625,-0.02348,0.021327,8e-06,-3.7e-05
176968,0.003335,-0.012164,-0.026473,0.0,-0.0,-0.0,3.0,0.3261,0.331276,0.3261,0.320811,,,,,,,0.002461,-0.014624,-0.02348,-0.017229,7e-06,-3.7e-05
176988,0.003215,-0.012288,-0.026474,0.0,-0.0,-0.0,3.0,0.3261,0.330855,0.3261,0.32125,,,,,,,0.002477,-0.014624,-0.023481,0.000551,2e-05,-3.6e-05
177008,0.003213,-0.012166,-0.026474,0.0,-0.0,-0.0,3.0,0.3261,0.330021,0.3261,0.322114,,,,,,,0.002357,-0.014624,-0.023482,0.041437,3.2e-05,-3.6e-05
177028,0.003456,-0.01204,-0.026473,0.0,-0.0,-0.0,3.0,0.3261,0.33103,0.3261,0.321067,,,,,,,0.002476,-0.014623,-0.023482,0.021022,4.4e-05,-3.6e-05
177048,0.003576,-0.011917,-0.026472,0.0,-0.0,-0.0,3.0,0.3261,0.330391,0.3261,0.321731,,,,,,,0.002468,-0.014623,-0.023483,0.001945,3.2e-05,-3.6e-05
177068,0.003452,-0.011674,-0.026595,0.0,-0.0,-0.0,3.0,0.3261,0.329646,0.3261,0.322501,,,,,,,0.002483,-0.014622,-0.023484,0.019866,4.4e-05,-4.8e-05
177088,0.003455,-0.011918,-0.026595,0.0,-0.0,-0.0,3.0,0.3261,0.327025,0.3261,0.325172,,,,,,,0.00241,-0.014621,-0.023485,0.032521,3.2e-05,-4.8e-05
177108,0.003334,-0.012042,-0.026595,0.0,-0.0,-0.0,3.0,0.3261,0.327995,0.3261,0.32419,,,,,,,0.00253,-0.014621,-0.023486,-0.029215,1.9e-05,-4.8e-05
177128,0.003334,-0.012042,-0.026595,0.0,-0.0,-0.0,3.0,0.3261,0.333173,0.3261,0.318813,,,,,,,0.002704,-0.01462,-0.023487,-0.079485,1.9e-05,-4.8e-05
177148,0.003089,-0.011923,-0.026597,0.0,-0.0,-0.0,3.0,0.3261,0.334065,0.3261,0.317862,,,,,,,0.002689,-0.01462,-0.023488,-0.035296,1.9e-05,-4.8e-05
177168,0.002969,-0.012047,-0.02672,0.0,-0.0,-0.0,3.0,0.3261,0.33198,0.3261,0.320073,,,,,,,0.002462,-0.014619,-0.023489,0.02421,1.9e-05,-6e-05
177188,0.003213,-0.012043,-0.026718,0.0,-0.0,-0.0,3.0,0.3261,0.32989,0.3261,0.322249,,,,,,,0.002235,-0.014619,-0.02349,0.0628,1.9e-05,-6e-05
177208,0.003334,-0.011919,-0.02684,0.0,-0.0,-0.0,3.0,0.3261,0.330345,0.3261,0.321779,,,,,,,0.002208,-0.014618,-0.023491,0.025638,3.1e-05,-6e-05
177228,0.003333,-0.011797,-0.02684,0.0,-0.0,-0.0,3.0,0.3261,0.328779,0.3261,0.323391,,,,,,,0.002103,-0.014617,-0.023493,0.02244,4.3e-05,-6e-05
177248,0.003089,-0.011923,-0.026719,0.0,-0.0,-0.0,3.0,0.3261,0.325806,0.3261,0.326394,,,,,,,0.002047,-0.014617,-0.023494,0.011074,4.3e-05,-6e-05
177268,0.002967,-0.011925,-0.02672,0.0,-0.0,-0.0,3.0,0.3261,0.326991,0.3261,0.325206,,,,,,,0.002042,-0.014616,-0.023495,-0.008926,4.3e-05,-6e-05
177288,0.002722,-0.011806,-0.026722,0.0,-0.0,-0.0,3.0,0.3261,0.329464,0.3261,0.322689,,,,,,,0.002144,-0.014615,-0.023496,-0.046903,4.2e-05,-6e-05
177308,0.002477,-0.011809,-0.026723,0.0,-0.0,-0.0,3.0,0.3261,0.33183,0.3261,0.320231,,,,,,,0.002109,-0.014614,-0.023498,-0.040961,4.2e-05,-6e-05
177328,0.002233,-0.011812,-0.026724,0.0,-0.0,-0.0,3.0,0.3261,0.33145,0.3261,0.320628,,,,,,,0.00185,-0.014614,-0.023499,-0.017344,3e-05,-6e-05
177348,0.002233,-0.011812,-0.026724,0.0,-0.0,-0.0,3.0,0.3261,0.330651,0.3261,0.321462,,,,,,,0.001471,-0.014613,-0.0235,0.026557,3e-05,-7.2e-05
177368,0.00199,-0.011815,-0.026848,0.0,-0.0,-0.0,3.0,0.3261,0.32782,0.3261,0.324368,,,,,,,0.001126,-0.014612,-0.023501,0.02278,2.9e-05,-6e-05
177388,0.001625,-0.011942,-0.026728,0.0,-0.0,-0.0,3.0,0.3261,0.322943,0.3261,0.329217,,,,,,,0.00057,-0.014611,-0.023502,0.034238,2.8e-05,-6e-05
177408,0.001258,-0.011947,-0.02673,0.0,-0.0,-0.0,3.0,0.3261,0.322467,0.3261,0.329679,,,,,,,0.000216,-0.01461,-0.023504,-0.009739,4e-05,-6e-05
177428,0.000646,-0.011834,-0.026612,0.0,-0.0,-0.0,3.0,0.3261,0.324395,0.3261,0.327793,,,,,,,-4.6e-05,-0.01461,-0.023505,-0.069401,5.1e-05,-4.8e-05
177448,-0.00021,-0.011723,-0.026617,0.0,-0.0,-0.0,3.0,0.3261,0.325627,0.3261,0.326573,,,,,,,-0.000418,-0.014609,-0.023506,-0.089734,7.5e-05,-3.6e-05
177468,-0.000701,-0.011607,-0.026498,0.0,-0.0,-0.0,3.0,0.3261,0.32695,0.3261,0.325247,,,,,,,-0.00091,-0.014608,-0.023507,-0.026781,7.4e-05,-3.6e-05
177488,-0.001069,-0.01149,-0.026378,0.0,-0.0,-0.0,3.0,0.3261,0.329917,0.3261,0.322221,,,,,,,-0.001207,-0.014607,-0.023507,-0.038305,6.2e-05,-3.6e-05
177508,-0.001069,-0.01149,-0.0265,0.0,-0.0,-0.0,3.0,0.3261,0.329857,0.3261,0.322284,,,,,,,-0.001724,-0.014606,-0.023508,-0.012323,4.9e-05,-3.6e-05
177528,-0.001189,-0.011614,-0.026501,0.0,-0.0,-0.0,3.0,0.3261,0.328134,0.3261,0.324049,,,,,,,-0.002069,-0.014604,-0.023509,0.04651,4.9e-05,-3.6e-05
177548,-0.001189,-0.011614,-0.026501,0.0,-0.0,-0.0,3.0,0.3261,0.32254,0.3261,0.329608,,,,,,,-0.002489,-0.014603,-0.023509,0.076192,4.8e-05,-3.6e-05
177568,-0.001187,-0.011736,-0.026501,0.0,-0.0,-0.0,3.0,0.3261,0.323,0.3261,0.329161,,,,,,,-0.002475,-0.014602,-0.02351,0.011296,6e-05,-3.6e-05
177588,-0.001433,-0.011617,-0.026502,0.0,-0.0,-0.0,3.0,0.3261,0.324888,0.3261,0.327306,,,,,,,-0.002509,-0.0146,-0.023511,-0.025047,8.4e-05,-3.6e-05
177608,-0.001799,-0.011622,-0.026504,0.0,-0.0,-0.0,3.0,0.3261,0.327752,0.3261,0.324437,,,,,,,-0.002394,-0.014599,-0.023511,-0.044271,7.1e-05,-3.6e-05
177628,-0.001925,-0.011379,-0.026504,0.0,-0.0,-0.0,3.0,0.3261,0.327493,0.3261,0.3247,,,,,,,-0.002504,-0.014598,-0.023512,-0.026198,9.6e-05,-2.4e-05
177648,-0.002046,-0.011503,-0.026383,0.0,-0.0,-0.0,3.0,0.3261,0.331087,0.3261,0.321008,,,,,,,-0.002432,-0.014596,-0.023513,-0.037862,7.1e-05,-2.4e-05
177668,-0.002048,-0.011381,-0.026261,0.0,-0.0,-0.0,3.0,0.3261,0.331634,0.3261,0.320436,,,,,,,-0.002585,-0.014595,-0.023513,-0.032702,7.1e-05,-1.2e-05
177688,-0.002046,-0.011503,-0.026261,0.0,-0.0,-0.0,3.0,0.3261,0.329686,0.3261,0.32246,,,,,,,-0.002809,-0.014593,-0.023514,0.026438,5.9e-05,-1.2e-05
177708,-0.00217,-0.011382,-0.026262,0.0,-0.0,-0.0,3.0,0.3261,0.326383,0.3261,0.325817,,,,,,,-0.003016,-0.014592,-0.023514,0.02016,5.8e-05,-1.2e-05
177728,-0.00217,-0.011382,-0.026262,0.0,-0.0,-0.0,3.0,0.3261,0.325441,0.3261,0.326757,,,,,,,-0.003262,-0.01459,-0.023514,0.019893,8.2e-05,-2.4e-05
177748,-0.002292,-0.011384,-0.026262,0.0,-0.0,-0.0,3.0,0.3261,0.32652,0.3261,0.325679,,,,,,,-0.003264,-0.014589,-0.023515,0.020386,8.2e-05,-2.4e-05
177768,-0.002292,-0.011384,-0.026385,0.0,-0.0,-0.0,3.0,0.3261,0.324779,0.3261,0.327414,,,,,,,-0.003355,-0.014587,-0.023515,0.014919,8.2e-05,-2.4e-05
177788,-0.00241,-0.01163,-0.026386,0.0,-0.0,-0.0,3.0,0.3261,0.325025,0.3261,0.32717,,,,,,,-0.003356,-0.014585,-0.023515,-0.026734,9.3e-05,-1.2e-05
177808,-0.002656,-0.011511,-0.026387,0.0,-0.0,-0.0,3.0,0.3261,0.325569,0.3261,0.326631,,,,,,,-0.003491,-0.014584,-0.023516,-0.024598,9.3e-05,-1.2e-05
177828,-0.003023,-0.011516,-0.026267,0.0,-0.0,-0.0,3.0,0.3261,0.32667,0.3261,0.325529,,,,,,,-0.003631,-0.014582,-0.023516,-0.021494,9.3e-05,-1.2e-05
177848,-0.00327,-0.011275,-0.026268,0.0,-0.0,-0.0,3.0,0.3261,0.325526,0.3261,0.326673,,,,,,,-0.003842,-0.014581,-0.023516,-0.006134,8e-05,-1.2e-05
177868,-0.003392,-0.011276,-0.026268,0.0,-0.0,-0.0,3.0,0.3261,0.327183,0.3261,0.325012,,,,,,,-0.003998,-0.014579,-0.023517,-0.04156,6.7e-05,-1.2e-05
177888,-0.003759,-0.011281,-0.02627,0.0,-0.0,-0.0,3.0,0.3261,0.327913,0.3261,0.324273,,,,,,,-0.00427,-0.014578,-0.023517,-0.036361,5.5e-05,-2.5e-05
177908,-0.003999,-0.011528,-0.026272,0.0,-0.0,-0.0,3.0,0.3261,0.327347,0.3261,0.324847,,,,,,,-0.00464,-0.014576,-0.023517,0.006042,4.2e-05,-2.5e-05
177928,-0.004241,-0.011654,-0.026396,0.0,-0.0,-0.0,3.0,0.3261,0.322676,0.3261,0.329476,,,,,,,-0.00506,-0.014575,-0.023518,0.035917,4.2e-05,-2.5e-05
177948,-0.004484,-0.011779,-0.026398,0.0,-0.0,-0.0,3.0,0.3261,0.322017,0.3261,0.330115,,,,,,,-0.005441,-0.014574,-0.023518,0.01733,5.3e-05,-1.3e-05
177968,-0.004728,-0.011782,-0.026399,0.0,-0.0,-0.0,3.0,0.3261,0.324304,0.3261,0.327883,,,,,,,-0.005583,-0.014572,-0.023518,-0.041952,6.5e-05,-1.3e-05
177988,-0.005218,-0.011667,-0.026401,0.0,-0.0,-0.0,3.0,0.3261,0.321198,0.3261,0.330905,,,,,,,-0.006034,-0.014571,-0.023519,-0.027826,7.6e-05,-1e-06
178008,-0.005464,-0.011548,-0.02628,0.0,-0.0,-0.0,3.0,0.3261,0.323961,0.3261,0.328221,,,,,,,-0.006162,-0.01457,-0.023519,-0.006268,8.8e-05,-1.3e-05
178028,-0.005708,-0.011551,-0.026282,0.0,-0.0,-0.0,3.0,0.3261,0.325976,0.3261,0.326224,,,,,,,-0.006178,-0.014569,-0.023519,-0.045095,8.8e-05,-1.3e-05
178048,-0.005712,-0.011307,-0.026281,0.0,-0.0,-0.0,3.0,0.3261,0.327733,0.3261,0.324457,,,,,,,-0.006334,-0.014568,-0.02352,-0.038873,7.5e-05,-2.6e-05
178068,-0.005712,-0.011307,-0.026281,0.0,-0.0,-0.0,3.0,0.3261,0.328639,0.3261,0.323534,,,,,,,-0.006333,-0.014567,-0.02352,0.003391,3.9e-05,-2.5e-05
178088,-0.005708,-0.011551,-0.026404,0.0,-0.0,-0.0,3.0,0.3261,0.327588,0.3261,0.324604,,,,,,,-0.006469,-0.014566,-0.023521,0.026846,2.7e-05,-2.5e-05
178108,-0.005582,-0.011794,-0.026404,0.0,-0.0,-0.0,3.0,0.3261,0.32615,0.3261,0.326051,,,,,,,-0.006574,-0.014565,-0.023521,0.044633,2.6e-05,-2.5e-05
178128,-0.005581,-0.011916,-0.026404,0.0,-0.0,-0.0,3.0,0.3261,0.32226,0.3261,0.32988,,,,,,,-0.006782,-0.014563,-0.023521,0.038212,3.8e-05,-2.6e-05
178148,-0.005703,-0.011917,-0.026405,0.0,-0.0,-0.0,3.0,0.3261,0.321237,0.3261,0.330867,,,,,,,-0.006888,-0.014562,-0.023522,0.01459,3.8e-05,-2.6e-05
178168,-0.005826,-0.011797,-0.026405,0.0,-0.0,-0.0,3.0,0.3261,0.321779,0.3261,0.330345,,,,,,,-0.006875,-0.014561,-0.023522,-0.029727,6.2e-05,-1.3e-05
178188,-0.006316,-0.011681,-0.026408,0.0,-0.0,-0.0,3.0,0.3261,0.323421,0.3261,0.32875,,,,,,,-0.006892,-0.01456,-0.023523,-0.047869,7.4e-05,-1.3e-05
178208,-0.006563,-0.011562,-0.026287,0.0,-0.0,-0.0,3.0,0.3261,0.327084,0.3261,0.325112,,,,,,,-0.00693,-0.014559,-0.023523,-0.041273,7.4e-05,-2.6e-05
178228,-0.006808,-0.011443,-0.02641,0.0,-0.0,-0.0,3.0,0.3261,0.327802,0.3261,0.324386,,,,,,,-0.007068,-0.014558,-0.023524,-0.05927,7.3e-05,-2.6e-05
178248,-0.006687,-0.01132,-0.026408,0.0,-0.0,-0.0,3.0,0.3261,0.328827,0.3261,0.323342,,,,,,,-0.007342,-0.014557,-0.023524,0.008894,4.9e-05,-3.8e-05
178268,-0.006807,-0.011444,-0.026532,0.0,-0.0,-0.0,3.0,0.3261,0.327657,0.3261,0.324533,,,,,,,-0.007461,-0.014556,-0.023525,0.029277,3.7e-05,-2.6e-05
178288,-0.00668,-0.011808,-0.026532,0.0,-0.0,-0.0,3.0,0.3261,0.322179,0.3261,0.329959,,,,,,,-0.007894,-0.014555,-0.023525,0.08268,1.2e-05,-2.6e-05
178308,-0.006556,-0.011929,-0.026532,0.0,-0.0,-0.0,3.0,0.3261,0.32127,0.3261,0.330835,,,,,,,-0.007864,-0.014554,-0.023526,0.035641,2.4e-05,-2.6e-05
178328,-0.006681,-0.011808,-0.02641,0.0,-0.0,-0.0,3.0,0.3261,0.321586,0.3261,0.330531,,,,,,,-0.007878,-0.014553,-0.023527,-0.024878,4.8e-05,-2.6e-05
178348,-0.006803,-0.01181,-0.026411,0.0,-0.0,-0.0,3.0,0.3261,0.325241,0.3261,0.326956,,,,,,,-0.007643,-0.014552,-0.023527,-0.044267,6e-05,-2.6e-05
178368,-0.007172,-0.011571,-0.026534,0.0,-0.0,-0.0,3.0,0.3261,0.324597,0.3261,0.327594,,,,,,,-0.007627,-0.014551,-0.023528,-0.026276,6e-05,-2.5e-05
178388,-0.007049,-0.011691,-0.026412,0.0,-0.0,-0.0,3.0,0.3261,0.328057,0.3261,0.324128,,,,,,,-0.007546,-0.01455,-0.023528,-0.019564,7.2e-05,-2.5e-05
178408,-0.00693,-0.011445,-0.02641,0.0,-0.0,-0.0,3.0,0.3261,0.330031,0.3261,0.322104,,,,,,,-0.007468,-0.014549,-0.023529,-0.053078,6e-05,-3.8e-05
178428,-0.006927,-0.011689,-0.026411,0.0,-0.0,-0.0,3.0,0.3261,0.3293,0.3261,0.322857,,,,,,,-0.007603,-0.014548,-0.02353,-0.009024,4.7e-05,-3.7e-05
178448,-0.006928,-0.011567,-0.026411,0.0,-0.0,-0.0,3.0,0.3261,0.323768,0.3261,0.32841,,,,,,,-0.007896,-0.014547,-0.02353,0.061978,2.3e-05,-2.5e-05
178468,-0.006803,-0.01181,-0.026411,0.0,-0.0,-0.0,3.0,0.3261,0.32317,0.3261,0.328995,,,,,,,-0.007883,-0.014546,-0.023531,0.038537,3.5e-05,-2.5e-05
178488,-0.006681,-0.011808,-0.02641,0.0,-0.0,-0.0,3.0,0.3261,0.322742,0.3261,0.329412,,,,,,,-0.007879,-0.014546,-0.023531,-0.003495,3.5e-05,-3.7e-05
178508,-0.006802,-0.01181,-0.026533,0.0,-0.0,-0.0,3.0,0.3261,0.323801,0.3261,0.328378,,,,,,,-0.007762,-0.014545,-0.023532,-0.023771,4.7e-05,-3.7e-05
178528,-0.007046,-0.011813,-0.026534,0.0,-0.0,-0.0,3.0,0.3261,0.324672,0.3261,0.32752,,,,,,,-0.007778,-0.014544,-0.023533,-0.020987,4.7e-05,-3.7e-05
178548,-0.007048,-0.011691,-0.026534,0.0,-0.0,-0.0,3.0,0.3261,0.325142,0.3261,0.327055,,,,,,,-0.007768,-0.014543,-0.023533,-0.023129,5.9e-05,-2.5e-05
178568,-0.007168,-0.011815,-0.026535,0.0,-0.0,-0.0,3.0,0.3261,0.323552,0.3261,0.328622,,,,,,,-0.00787,-0.014542,-0.023534,0.015378,4.7e-05,-2.5e-05
178588,-0.007169,-0.011814,-0.026413,0.0,-0.0,-0.0,3.0,0.3261,0.326186,0.3261,0.326015,,,,,,,-0.00778,-0.014541,-0.023535,0.000371,3.4e-05,-2.5e-05
178608,-0.007049,-0.011691,-0.026412,0.0,-0.0,-0.0,3.0,0.3261,0.327139,0.3261,0.325057,,,,,,,-0.007813,-0.014541,-0.023535,-0.035544,3.4e-05,-2.5e-05
178628,-0.007049,-0.011691,-0.026412,0.0,-0.0,-0.0,3.0,0.3261,0.325765,0.3261,0.326435,,,,,,,-0.007912,-0.01454,-0.023536,0.002511,2.2e-05,-3.7e-05
178648,-0.007048,-0.011691,-0.026534,0.0,-0.0,-0.0,3.0,0.3261,0.325113,0.3261,0.327084,,,,,,,-0.0079,-0.014539,-0.023537,0.041609,3.4e-05,-3.7e-05
178668,-0.007048,-0.011691,-0.026534,0.0,-0.0,-0.0,3.0,0.3261,0.322705,0.3261,0.329448,,,,,,,-0.008003,-0.014538,-0.023537,0.038651,2.2e-05,-3.7e-05
178688,-0.006802,-0.01181,-0.026533,0.0,-0.0,-0.0,3.0,0.3261,0.322971,0.3261,0.329189,,,,,,,-0.008007,-0.014538,-0.023538,0.018027,4.6e-05,-3.7e-05
178708,-0.006923,-0.011934,-0.026534,0.0,-0.0,-0.0,3.0,0.3261,0.322766,0.3261,0.329389,,,,,,,-0.008018,-0.014537,-0.023538,-0.000529,3.4e-05,-3.7e-05
178728,-0.007045,-0.011935,-0.026535,0.0,-0.0,-0.0,3.0,0.3261,0.322949,0.3261,0.32921,,,,,,,-0.008005,-0.014536,-0.023539,-0.003238,4.6e-05,-2.5e-05
178748,-0.007167,-0.011936,-0.026413,0.0,-0.0,-0.0,3.0,0.3261,0.322252,0.3261,0.329888,,,,,,,-0.007974,-0.014535,-0.02354,-0.008534,4.6e-05,-2.4e-05
178768,-0.007167,-0.011936,-0.026413,0.0,-0.0,-0.0,3.0,0.3261,0.324358,0.3261,0.32783,,,,,,,-0.007869,-0.014535,-0.02354,-0.026414,4.6e-05,-2.4e-05
178788,-0.007293,-0.011694,-0.026413,0.0,-0.0,-0.0,3.0,0.3261,0.328695,0.3261,0.323477,,,,,,,-0.007692,-0.014534,-0.023541,-0.056351,4.6e-05,-2.4e-05
178808,-0.007293,-0.011694,-0.026413,0.0,-0.0,-0.0,3.0,0.3261,0.328057,0.3261,0.324127,,,,,,,-0.007813,-0.014533,-0.023541,-0.014374,2.1e-05,-3.7e-05
178828,-0.007416,-0.011574,-0.026535,0.0,-0.0,-0.0,3.0,0.3261,0.325817,0.3261,0.326383,,,,,,,-0.008053,-0.014533,-0.023542,0.026243,3.3e-05,-3.6e-05
178848,-0.007289,-0.011939,-0.026536,0.0,-0.0,-0.0,3.0,0.3261,0.323361,0.3261,0.328808,,,,,,,-0.008264,-0.014532,-0.023543,0.04179,9e-06,-3.7e-05
178868,-0.007168,-0.011815,-0.026535,0.0,-0.0,-0.0,3.0,0.3261,0.320553,0.3261,0.331522,,,,,,,-0.008487,-0.014531,-0.023543,0.058701,2.1e-05,-3.6e-05
178888,-0.007289,-0.011939,-0.026536,0.0,-0.0,-0.0,3.0,0.3261,0.320484,0.3261,0.331588,,,,,,,-0.008486,-0.014531,-0.023544,-0.003709,2e-05,-3.7e-05
178908,-0.007534,-0.01182,-0.026537,0.0,-0.0,-0.0,3.0,0.3261,0.320001,0.3261,0.332048,,,,,,,-0.008594,-0.01453,-0.023545,-0.027534,4.4e-05,-3.7e-05
178928,-0.007901,-0.011825,-0.026539,0.0,-0.0,-0.0,3.0,0.3261,0.322941,0.3261,0.329219,,,,,,,-0.00848,-0.014529,-0.023546,-0.047284,5.6e-05,-3.6e-05
178948,-0.008024,-0.011704,-0.026539,0.0,-0.0,-0.0,3.0,0.3261,0.324979,0.3261,0.327217,,,,,,,-0.0085,-0.014528,-0.023546,-0.043794,5.6e-05,-3.6e-05
178968,-0.008028,-0.01146,-0.026538,0.0,-0.0,-0.0,3.0,0.3261,0.328481,0.3261,0.323695,,,,,,,-0.008428,-0.014528,-0.023547,-0.055925,5.6e-05,-3.6e-05
178988,-0.008026,-0.011582,-0.026539,0.0,-0.0,-0.0,3.0,0.3261,0.328019,0.3261,0.324166,,,,,,,-0.008564,-0.014527,-0.023548,-0.032483,4.4e-05,-3.6e-05
179008,-0.008024,-0.011704,-0.026539,0.0,-0.0,-0.0,3.0,0.3261,0.326185,0.3261,0.326015,,,,,,,-0.008803,-0.014526,-0.023549,0.029241,3.2e-05,-3.6e-05
179028,-0.008021,-0.011948,-0.02654,0.0,-0.0,-0.0,3.0,0.3261,0.321233,0.3261,0.330871,,,,,,,-0.009115,-0.014525,-0.023549,0.061685,1.9e-05,-3.6e-05
179048,-0.008021,-0.011948,-0.02654,0.0,-0.0,-0.0,3.0,0.3261,0.317785,0.3261,0.334137,,,,,,,-0.009307,-0.014524,-0.02355,0.052743,1.9e-05,-3.6e-05
179068,-0.008143,-0.01195,-0.026541,0.0,-0.0,-0.0,3.0,0.3261,0.318956,0.3261,0.333038,,,,,,,-0.009325,-0.014524,-0.023551,-0.027556,3e-05,-3.6e-05
179088,-0.008389,-0.011831,-0.026542,0.0,-0.0,-0.0,3.0,0.3261,0.321251,0.3261,0.330854,,,,,,,-0.009345,-0.014523,-0.023551,-0.045131,4.2e-05,-3.6e-05
179108,-0.008877,-0.011837,-0.026545,0.0,-0.0,-0.0,3.0,0.3261,0.320498,0.3261,0.331575,,,,,,,-0.009435,-0.014523,-0.023552,-0.029578,3e-05,-3.6e-05
179128,-0.00888,-0.011593,-0.026543,0.0,-0.0,-0.0,3.0,0.3261,0.325012,0.3261,0.327183,,,,,,,-0.009357,-0.014522,-0.023553,-0.022531,5.5e-05,-3.6e-05
179148,-0.008879,-0.011715,-0.026544,0.0,-0.0,-0.0,3.0,0.3261,0.325343,0.3261,0.326855,,,,,,,-0.009373,-0.014521,-0.023554,-0.040356,4.2e-05,-3.6e-05
179168,-0.008635,-0.011712,-0.026543,0.0,-0.0,-0.0,3.0,0.3261,0.327495,0.3261,0.324697,,,,,,,-0.009421,-0.01452,-0.023554,0.009567,4.2e-05,-3.6e-05
179188,-0.008635,-0.011712,-0.026543,0.0,-0.0,-0.0,3.0,0.3261,0.326154,0.3261,0.326046,,,,,,,-0.009415,-0.014519,-0.023555,0.008713,3e-05,-3.6e-05
179208,-0.008635,-0.011712,-0.026543,0.0,-0.0,-0.0,3.0,0.3261,0.320371,0.3261,0.331696,,,,,,,-0.009712,-0.014518,-0.023556,0.058555,5.4e-05,-3.6e-05
179228,-0.008635,-0.011712,-0.026543,0.0,-0.0,-0.0,3.0,0.3261,0.320673,0.3261,0.331408,,,,,,,-0.00971,-0.014517,-0.023557,0.037808,4.2e-05,-3.6e-05
179248,-0.008635,-0.011712,-0.026543,0.0,-0.0,-0.0,3.0,0.3261,0.321482,0.3261,0.330631,,,,,,,-0.009727,-0.014517,-0.023557,0.01991,4.2e-05,-3.6e-05
179268,-0.008635,-0.011712,-0.026543,0.0,-0.0,-0.0,3.0,0.3261,0.321798,0.3261,0.330327,,,,,,,-0.009726,-0.014516,-0.023558,-0.000788,2.9e-05,-3.6e-05
179288,-0.008758,-0.011592,-0.026543,0.0,-0.0,-0.0,3.0,0.3261,0.321455,0.3261,0.330658,,,,,,,-0.009712,-0.014515,-0.023559,-0.003338,4.1e-05,-3.6e-05
179308,-0.008879,-0.011715,-0.026544,0.0,-0.0,-0.0,3.0,0.3261,0.320209,0.3261,0.33185,,,,,,,-0.009819,-0.014514,-0.023559,0.01473,4.1e-05,-3.6e-05
179328,-0.008879,-0.011715,-0.026544,0.0,-0.0,-0.0,3.0,0.3261,0.321982,0.3261,0.330149,,,,,,,-0.009701,-0.014513,-0.02356,-0.005364,4.1e-05,-3.6e-05
179348,-0.008879,-0.011715,-0.026544,0.0,-0.0,-0.0,3.0,0.3261,0.323954,0.3261,0.328227,,,,,,,-0.009615,-0.014512,-0.023561,-0.041004,5.3e-05,-2.3e-05
179368,-0.009001,-0.011717,-0.026545,0.0,-0.0,-0.0,3.0,0.3261,0.326405,0.3261,0.325795,,,,,,,-0.009526,-0.014511,-0.023561,-0.05607,5.3e-05,-3.5e-05
179388,-0.009124,-0.011597,-0.026545,0.0,-0.0,-0.0,3.0,0.3261,0.325257,0.3261,0.326941,,,,,,,-0.009633,-0.01451,-0.023562,0.003495,6.5e-05,-3.5e-05
179408,-0.009001,-0.011717,-0.026545,0.0,-0.0,-0.0,3.0,0.3261,0.324356,0.3261,0.327832,,,,,,,-0.009752,-0.014509,-0.023563,0.044793,5.3e-05,-3.5e-05
179428,-0.008757,-0.011714,-0.026543,0.0,-0.0,-0.0,3.0,0.3261,0.321996,0.3261,0.330135,,,,,,,-0.009854,-0.014508,-0.023564,0.041464,5.3e-05,-4.7e-05
179448,-0.008513,-0.011711,-0.026542,0.0,-0.0,-0.0,3.0,0.3261,0.323655,0.3261,0.328521,,,,,,,-0.009759,-0.014508,-0.023564,0.025488,4.1e-05,-3.5e-05
179468,-0.008635,-0.011712,-0.026543,0.0,-0.0,-0.0,3.0,0.3261,0.320115,0.3261,0.33194,,,,,,,-0.009843,-0.014507,-0.023565,0.018878,4.1e-05,-3.5e-05
179488,-0.008758,-0.011592,-0.026543,0.0,-0.0,-0.0,3.0,0.3261,0.319093,0.3261,0.332908,,,,,,,-0.009799,-0.014506,-0.023566,0.011261,4.1e-05,-3.5e-05
179508,-0.009001,-0.011717,-0.026545,0.0,-0.0,-0.0,3.0,0.3261,0.318686,0.3261,0.333292,,,,,,,-0.009787,-0.014505,-0.023566,-0.032323,4e-05,-3.5e-05
179528,-0.009124,-0.011597,-0.026545,0.0,-0.0,-0.0,3.0,0.3261,0.323115,0.3261,0.329049,,,,,,,-0.009719,-0.014504,-0.023567,-0.04371,4e-05,-3.5e-05
179548,-0.009122,-0.011719,-0.026667,0.0,-0.0,-0.0,3.0,0.3261,0.327675,0.3261,0.324515,,,,,,,-0.009531,-0.014503,-0.023568,-0.054625,2.8e-05,-3.5e-05
179568,-0.009122,-0.011719,-0.026667,0.0,-0.0,-0.0,3.0,0.3261,0.325067,0.3261,0.327129,,,,,,,-0.009769,-0.014502,-0.023569,0.006433,4e-05,-3.5e-05
179588,-0.008999,-0.011839,-0.026545,0.0,-0.0,-0.0,3.0,0.3261,0.325269,0.3261,0.326928,,,,,,,-0.009771,-0.014501,-0.023569,0.047941,5.3e-05,-3.4e-05
179608,-0.008635,-0.011712,-0.026543,0.0,-0.0,-0.0,3.0,0.3261,0.32189,0.3261,0.330238,,,,,,,-0.009856,-0.0145,-0.02357,0.061987,6.5e-05,-2.2e-05
179628,-0.008271,-0.011585,-0.026418,0.0,-0.0,-0.0,3.0,0.3261,0.324263,0.3261,0.327924,,,,,,,-0.009506,-0.014499,-0.023571,0.023009,7.7e-05,-2.2e-05
179648,-0.008153,-0.011339,-0.026294,0.0,-0.0,-0.0,3.0,0.3261,0.322246,0.3261,0.329893,,,,,,,-0.009363,-0.014498,-0.023571,-0.001331,7.7e-05,-2.2e-05
179668,-0.008032,-0.011215,-0.026293,0.0,-0.0,-0.0,3.0,0.3261,0.323046,0.3261,0.329116,,,,,,,-0.009107,-0.014497,-0.023571,0.017314,7.7e-05,-2.2e-05
179688,-0.007909,-0.011335,-0.026293,0.0,-0.0,-0.0,3.0,0.3261,0.323908,0.3261,0.328272,,,,,,,-0.008729,-0.014496,-0.023572,-0.005042,5.3e-05,-9e-06
179708,-0.007542,-0.011331,-0.026291,0.0,-0.0,-0.0,3.0,0.3261,0.326513,0.3261,0.325687,,,,,,,-0.008401,-0.014494,-0.023572,0.001517,5.3e-05,-9e-06
179728,-0.007417,-0.011573,-0.026291,0.0,-0.0,-0.0,3.0,0.3261,0.32688,0.3261,0.325318,,,,,,,-0.008186,-0.014493,-0.023572,-0.013867,2.9e-05,3e-06
179748,-0.007296,-0.011571,-0.026169,0.0,-0.0,-0.0,3.0,0.3261,0.327291,0.3261,0.324903,,,,,,,-0.008081,-0.014492,-0.023572,0.009601,4.1e-05,3e-06
179768,-0.007169,-0.011936,-0.026169,0.0,-0.0,-0.0,3.0,0.3261,0.322646,0.3261,0.329506,,,,,,,-0.008136,-0.014491,-0.023572,0.060264,4.2e-05,1.5e-05
179788,-0.007048,-0.011812,-0.026168,0.0,-0.0,-0.0,3.0,0.3261,0.320675,0.3261,0.331406,,,,,,,-0.008117,-0.01449,-0.023572,0.035681,6.6e-05,1.5e-05
179808,-0.007052,-0.011568,-0.026167,0.0,-0.0,-0.0,3.0,0.3261,0.322444,0.3261,0.329701,,,,,,,-0.008026,-0.014489,-0.023572,-0.021715,9e-05,3e-06
179828,-0.007418,-0.011573,-0.026169,0.0,-0.0,-0.0,3.0,0.3261,0.321709,0.3261,0.330413,,,,,,,-0.008145,-0.014487,-0.023572,-0.042696,7.7e-05,-9e-06
179848,-0.007666,-0.01121,-0.026291,0.0,-0.0,-0.0,3.0,0.3261,0.321328,0.3261,0.33078,,,,,,,-0.00837,-0.014486,-0.023572,-0.003907,6.5e-05,-2.1e-05
179868,-0.007908,-0.011336,-0.026415,0.0,-0.0,-0.0,3.0,0.3261,0.321738,0.3261,0.330385,,,,,,,-0.008495,-0.014485,-0.023572,-0.003182,5.2e-05,-2.1e-05
179888,-0.007783,-0.011457,-0.026537,0.0,-0.0,-0.0,3.0,0.3261,0.323335,0.3261,0.328834,,,,,,,-0.008649,-0.014484,-0.023573,-0.017776,2.7e-05,-3.4e-05
179908,-0.007658,-0.011699,-0.026537,0.0,-0.0,-0.0,3.0,0.3261,0.32386,0.3261,0.328319,,,,,,,-0.008651,-0.014483,-0.023573,0.003527,1.5e-05,-3.4e-05
179928,-0.007779,-0.011823,-0.026538,0.0,-0.0,-0.0,3.0,0.3261,0.322455,0.3261,0.329691,,,,,,,-0.008632,-0.014483,-0.023574,0.000625,3e-06,-3.4e-05
179948,-0.007655,-0.011943,-0.026538,0.0,-0.0,-0.0,3.0,0.3261,0.323977,0.3261,0.328204,,,,,,,-0.008517,-0.014482,-0.023574,0.022024,2.8e-05,-3.3e-05
179968,-0.007655,-0.011943,-0.026538,0.0,-0.0,-0.0,3.0,0.3261,0.323173,0.3261,0.328992,,,,,,,-0.008379,-0.014481,-0.023575,-0.002095,5.2e-05,-3.3e-05
179988,-0.007534,-0.01182,-0.026537,0.0,-0.0,-0.0,3.0,0.3261,0.324445,0.3261,0.327744,,,,,,,-0.008274,-0.01448,-0.023576,-0.020203,6.4e-05,-3.3e-05
180008,-0.007538,-0.011576,-0.026536,0.0,-0.0,-0.0,3.0,0.3261,0.326077,0.3261,0.326123,,,,,,,-0.008182,-0.014479,-0.023577,-0.015321,7.6e-05,-3.3e-05
180028,-0.00754,-0.011453,-0.026414,0.0,-0.0,-0.0,3.0,0.3261,0.324595,0.3261,0.327596,,,,,,,-0.0083,-0.014478,-0.023577,0.005126,6.4e-05,-3.3e-05
180048,-0.007418,-0.011451,-0.026413,0.0,-0.0,-0.0,3.0,0.3261,0.320899,0.3261,0.331191,,,,,,,-0.008491,-0.014478,-0.023578,0.058331,6.4e-05,-3.3e-05
180068,-0.00742,-0.011329,-0.026412,0.0,-0.0,-0.0,3.0,0.3261,0.319742,0.3261,0.332295,,,,,,,-0.008472,-0.014477,-0.023578,0.055475,4e-05,-2.1e-05
180088,-0.007174,-0.011448,-0.026412,0.0,-0.0,-0.0,3.0,0.3261,0.322322,0.3261,0.32982,,,,,,,-0.008251,-0.014476,-0.023579,-0.002632,2.7e-05,-2.1e-05
180108,-0.007052,-0.011447,-0.026411,0.0,-0.0,-0.0,3.0,0.3261,0.32461,0.3261,0.327582,,,,,,,-0.008039,-0.014475,-0.023579,-0.017722,2.7e-05,-3.3e-05
180128,-0.00717,-0.011693,-0.026535,0.0,-0.0,-0.0,3.0,0.3261,0.325697,0.3261,0.326503,,,,,,,-0.007804,-0.014473,-0.02358,0.004215,4e-05,-3.3e-05
180148,-0.006926,-0.01169,-0.026533,0.0,-0.0,-0.0,3.0,0.3261,0.324332,0.3261,0.327855,,,,,,,-0.007789,-0.014472,-0.02358,0.043112,4e-05,-2e-05
180168,-0.006558,-0.011807,-0.026531,0.0,-0.0,-0.0,3.0,0.3261,0.32307,0.3261,0.329093,,,,,,,-0.00765,-0.014471,-0.023581,0.018898,6.4e-05,-2e-05
180188,-0.006436,-0.011805,-0.026531,0.0,-0.0,-0.0,3.0,0.3261,0.323369,0.3261,0.3288,,,,,,,-0.007553,-0.01447,-0.023581,0.002444,6.4e-05,-2e-05
180208,-0.006438,-0.011683,-0.026408,0.0,-0.0,-0.0,3.0,0.3261,0.325553,0.3261,0.326647,,,,,,,-0.007324,-0.014469,-0.023582,0.005018,6.4e-05,-2e-05
180228,-0.006316,-0.011681,-0.026408,0.0,-0.0,-0.0,3.0,0.3261,0.322854,0.3261,0.329303,,,,,,,-0.007274,-0.014468,-0.023582,0.017437,6.5e-05,-3.2e-05
180248,-0.006193,-0.01168,-0.026529,0.0,-0.0,-0.0,3.0,0.3261,0.322387,0.3261,0.329757,,,,,,,-0.007132,-0.014468,-0.023583,0.014621,4e-05,-4.4e-05
180268,-0.006073,-0.011556,-0.026528,0.0,-0.0,-0.0,3.0,0.3261,0.326303,0.3261,0.325898,,,,,,,-0.006817,-0.014467,-0.023584,-0.017645,1.6e-05,-4.4e-05
180288,-0.005947,-0.011799,-0.02665,0.0,-0.0,-0.0,3.0,0.3261,0.32673,0.3261,0.325469,,,,,,,-0.006709,-0.014467,-0.023585,-0.014209,-2.1e-05,-5.6e-05
180308,-0.005701,-0.011918,-0.026771,0.0,-0.0,-0.0,3.0,0.3261,0.325214,0.3261,0.326983,,,,,,,-0.006694,-0.014467,-0.023585,0.045204,-8e-06,-5.6e-05
180328,-0.005697,-0.012162,-0.026772,0.0,-0.0,-0.0,3.0,0.3261,0.321941,0.3261,0.330189,,,,,,,-0.006661,-0.014466,-0.023586,0.039657,-2e-05,-4.3e-05
180348,-0.005575,-0.012161,-0.026771,0.0,-0.0,-0.0,3.0,0.3261,0.322098,0.3261,0.330036,,,,,,,-0.006679,-0.014466,-0.023587,0.021156,1.6e-05,-4.3e-05
180368,-0.005576,-0.01216,-0.026649,0.0,-0.0,-0.0,3.0,0.3261,0.322347,0.3261,0.329796,,,,,,,-0.006542,-0.014465,-0.023588,-0.023557,4e-05,-3.1e-05
180388,-0.0057,-0.01204,-0.026649,0.0,-0.0,-0.0,3.0,0.3261,0.321754,0.3261,0.33037,,,,,,,-0.006676,-0.014465,-0.023589,-0.021847,5.2e-05,-3.1e-05
180408,-0.005827,-0.011675,-0.026649,0.0,-0.0,-0.0,3.0,0.3261,0.323431,0.3261,0.32874,,,,,,,-0.006541,-0.014465,-0.02359,-0.024177,6.5e-05,-4.3e-05
180428,-0.005949,-0.011677,-0.02665,0.087266,-0.0,-0.0,3.0,0.3261,0.276372,0.3261,0.36717,,,,,,,-0.006539,-0.014464,-0.023591,-0.003088,4e-05,-5.5e-05
180448,-0.005705,-0.011552,-0.02677,0.087266,-0.0,-0.0,3.0,0.3261,0.278464,0.3261,0.365741,,,,,,,-0.006436,-0.014464,-0.023592,0.000282,4.1e-05,-6.7e-05
180468,-0.005216,-0.011668,-0.026768,0.087266,-0.0,-0.0,3.0,0.3261,0.282084,0.3261,0.363216,,,,,,,-0.006254,-0.014463,-0.023593,0.012041,-8e-06,-6.7e-05
180488,-0.004238,-0.011655,-0.026884,0.087266,-0.0,-0.0,3.0,0.3261,0.281993,0.3261,0.36328,,,,,,,-0.005874,-0.014463,-0.023594,0.113396,5e-06,-6.6e-05
180508,-0.002038,-0.011869,-0.026872,0.087266,-0.0,-0.0,3.0,0.3261,0.28825,0.3261,0.358749,,,,,,,-0.004541,-0.014462,-0.023595,0.177529,-5e-06,-6.5e-05
180528,0.001504,-0.011944,-0.026973,0.087266,-0.0,-0.0,3.0,0.3261,0.298518,0.3261,0.350826,,,,,,,-0.001866,-0.014461,-0.023597,0.200296,-1e-06,-7.6e-05
180548,0.0059,-0.011884,-0.02719,0.087266,-0.0,-0.0,3.0,0.3261,0.312197,0.3261,0.339242,,,,,,,0.002088,-0.014461,-0.023598,0.192043,1.7e-05,-8.5e-05
180568,0.011397,-0.011929,-0.027526,0.087266,-0.0,-0.0,3.0,0.3261,0.328281,0.3261,0.3239,,,,,,,0.007394,-0.01446,-0.0236,0.22461,1.2e-05,-0.000119
180588,0.01787,-0.011958,-0.02785,0.087266,-0.0,-0.0,3.0,0.3261,0.339254,0.3261,0.312183,,,,,,,0.013596,-0.01446,-0.023603,0.291922,-3e-06,-0.000151
180608,0.025202,-0.012216,-0.028289,0.087266,-0.0,-0.0,3.0,0.3261,0.349877,0.3261,0.299695,,,,,,,0.020621,-0.01446,-0.023606,0.365062,-2.9e-05,-0.000194
180628,0.032776,-0.012219,-0.028849,0.087266,-0.0,-0.0,3.0,0.3261,0.357259,0.3261,0.290245,,,,,,,0.028144,-0.014461,-0.023611,0.35325,-2.9e-05,-0.00025
180648,0.040477,-0.012585,-0.029275,0.087266,-0.0,-0.0,3.0,0.3261,0.36045,0.3261,0.285937,,,,,,,0.035583,-0.014461,-0.023616,0.356216,-6.6e-05,-0.000292
180668,0.047442,-0.012713,-0.029708,0.087266,-0.0,-0.0,3.0,0.3261,0.358089,0.3261,0.289137,,,,,,,0.042728,-0.014462,-0.023622,0.366558,-6.7e-05,-0.000323
180688,0.053556,-0.012981,-0.029903,0.087266,-0.0,-0.0,3.0,0.3261,0.355028,0.3261,0.293174,,,,,,,0.049382,-0.014463,-0.023629,0.314835,-5.6e-05,-0.000354
180708,0.058806,-0.012896,-0.029986,0.087266,-0.0,-0.0,3.0,0.3261,0.351207,0.3261,0.298043,,,,,,,0.055163,-0.014464,-0.023636,0.245271,-4.7e-05,-0.000374
180728,0.062715,-0.012832,-0.030079,0.087266,-0.0,-0.0,3.0,0.3261,0.34569,0.3261,0.304764,,,,,,,0.059836,-0.014465,-0.023644,0.15726,-4e-05,-0.000383
180748,0.065523,-0.012667,-0.030064,0.087266,-0.0,-0.0,3.0,0.3261,0.339201,0.3261,0.312242,,,,,,,0.063301,-0.014467,-0.023651,0.107603,-4.7e-05,-0.000379
180768,0.067108,-0.012646,-0.029928,0.087266,-0.0,-0.0,3.0,0.3261,0.33202,0.3261,0.320031,,,,,,,0.065667,-0.014468,-0.023659,0.058677,-5.7e-05,-0.000364
180788,0.06784,-0.012635,-0.029921,0.087266,-0.0,-0.0,3.0,0.3261,0.322383,0.3261,0.329761,,,,,,,0.066841,-0.01447,-0.023666,0.046039,-6.7e-05,-0.000362
180808,0.067964,-0.012755,-0.029916,0.087266,-0.0,-0.0,3.0,0.3261,0.315124,0.3261,0.336597,,,,,,,0.067245,-0.014471,-0.023673,-0.022864,-6.7e-05,-0.000361
180828,0.06784,-0.012635,-0.029921,0.087266,-0.0,-0.0,3.0,0.3261,0.314124,0.3261,0.337507,,,,,,,0.067214,-0.014472,-0.02368,-0.059442,-5.5e-05,-0.000361
180848,0.067473,-0.012515,-0.030051,0.087266,-0.0,-0.0,3.0,0.3261,0.312863,0.3261,0.338645,,,,,,,0.066972,-0.014473,-0.023688,-0.038802,-5.5e-05,-0.000373
180868,0.067476,-0.012632,-0.030168,0.087266,-0.0,-0.0,3.0,0.3261,0.311887,0.3261,0.339518,,,,,,,0.066607,-0.014474,-0.023695,0.044465,-6.6e-05,-0.000384
180888,0.068334,-0.012859,-0.030274,0.087266,-0.0,-0.0,3.0,0.3261,0.314324,0.3261,0.337326,,,,,,,0.066864,-0.014475,-0.023703,0.084199,-7.7e-05,-0.000394
180908,0.069682,-0.012956,-0.030386,0.087266,-0.0,-0.0,3.0,0.3261,0.319437,0.3261,0.332583,,,,,,,0.067805,-0.014477,-0.023711,0.049763,-8.8e-05,-0.000405
180928,0.07127,-0.013053,-0.030367,0.087266,-0.0,-0.0,3.0,0.3261,0.325072,0.3261,0.327125,,,,,,,0.069238,-0.014478,-0.023719,0.054807,-7.3e-05,-0.000404
180948,0.073346,-0.012898,-0.030357,0.087266,-0.0,-0.0,3.0,0.3261,0.329092,0.3261,0.323071,,,,,,,0.071214,-0.01448,-0.023727,0.092934,-6.9e-05,-0.000401
180968,0.076035,-0.012852,-0.03046,0.087266,-0.0,-0.0,3.0,0.3261,0.337345,0.3261,0.314302,,,,,,,0.073992,-0.014481,-0.023735,0.097368,-5.3e-05,-0.000398
180988,0.079211,-0.012802,-0.030436,0.087266,-0.0,-0.0,3.0,0.3261,0.344986,0.3261,0.305597,,,,,,,0.077101,-0.014483,-0.023743,0.088531,-5.9e-05,-0.000407
181008,0.082752,-0.012619,-0.030535,0.087266,-0.0,-0.0,3.0,0.3261,0.352895,0.3261,0.295914,,,,,,,0.080556,-0.014484,-0.023751,0.104121,-4.1e-05,-0.000417
181028,0.086295,-0.012552,-0.03075,0.087266,-0.0,-0.0,3.0,0.3261,0.353273,0.3261,0.295433,,,,,,,0.083867,-0.014485,-0.02376,0.185663,-5.8e-05,-0.000436
181048,0.089718,-0.012608,-0.030961,0.087266,-0.0,-0.0,3.0,0.3261,0.34922,0.3261,0.300503,,,,,,,0.086979,-0.014486,-0.023769,0.258886,-5.1e-05,-0.000457
181068,0.093024,-0.012666,-0.031178,0.087266,-0.0,-0.0,3.0,0.3261,0.345063,0.3261,0.305506,,,,,,,0.089972,-0.014488,-0.023778,0.270025,-6.9e-05,-0.000477
181088,0.095837,-0.01273,-0.031394,0.087266,-0.0,-0.0,3.0,0.3261,0.34075,0.3261,0.310497,,,,,,,0.092857,-0.014489,-0.023787,0.174608,-7.7e-05,-0.000485
181108,0.097796,-0.012814,-0.031495,0.087266,-0.0,-0.0,3.0,0.3261,0.34123,0.3261,0.309951,,,,,,,0.095546,-0.01449,-0.023797,0.070776,-7.3e-05,-0.000495
181128,0.099137,-0.012792,-0.031482,0.087266,-0.0,-0.0,3.0,0.3261,0.341045,0.3261,0.310162,,,,,,,0.097626,-0.014492,-0.023807,-0.012267,-7e-05,-0.000505
181148,0.099745,-0.01266,-0.031481,0.087266,-0.0,-0.0,3.0,0.3261,0.338312,0.3261,0.313233,,,,,,,0.098998,-0.014493,-0.023817,-0.018069,-5.5e-05,-0.000503
181168,0.100237,-0.01253,-0.031488,0.087266,-0.0,-0.0,3.0,0.3261,0.336831,0.3261,0.314867,,,,,,,0.099722,-0.014494,-0.023827,0.005465,-6.6e-05,-0.000502
181188,0.100238,-0.012658,-0.03136,0.087266,-0.0,-0.0,3.0,0.3261,0.337658,0.3261,0.313957,,,,,,,0.100147,-0.014496,-0.023837,-0.04628,-6.6e-05,-0.000488
181208,0.100242,-0.012902,-0.031348,0.087266,-0.0,-0.0,3.0,0.3261,0.3306,0.3261,0.321515,,,,,,,0.099565,-0.014497,-0.023847,0.012209,-0.000103,-0.000486
181228,0.099994,-0.013027,-0.031339,0.087266,-0.0,-0.0,3.0,0.3261,0.324732,0.3261,0.327461,,,,,,,0.099008,-0.014498,-0.023857,0.044434,-9.1e-05,-0.000486
181248,0.099628,-0.013034,-0.031343,0.087266,-0.0,-0.0,3.0,0.3261,0.320108,0.3261,0.331946,,,,,,,0.098449,-0.0145,-0.023866,0.05503,-8e-05,-0.000473
181268,0.099506,-0.013042,-0.031222,0.087266,-0.0,-0.0,3.0,0.3261,0.320952,0.3261,0.33114,,,,,,,0.09822,-0.014501,-0.023876,0.010313,-5.7e-05,-0.000474
181288,0.099504,-0.01292,-0.031228,0.087266,-0.0,-0.0,3.0,0.3261,0.326662,0.3261,0.325537,,,,,,,0.098428,-0.014503,-0.023886,-0.025167,-4.4e-05,-0.000486
181308,0.099622,-0.012674,-0.031239,0.087266,-0.0,-0.0,3.0,0.3261,0.330552,0.3261,0.321565,,,,,,,0.098772,-0.014505,-0.023895,-0.020788,-6.7e-05,-0.000483
181328,0.10036,-0.012656,-0.031359,0.087266,-0.0,-0.0,3.0,0.3261,0.334427,0.3261,0.317474,,,,,,,0.099377,-0.014506,-0.023905,0.022738,-7.8e-05,-0.000481
181348,0.101342,-0.012999,-0.031452,0.087266,-0.0,-0.0,3.0,0.3261,0.338329,0.3261,0.313215,,,,,,,0.100318,-0.014508,-0.023914,0.029346,-0.000101,-0.000478
181368,0.102811,-0.012969,-0.031564,0.087266,-0.0,-0.0,3.0,0.3261,0.341815,0.3261,0.309283,,,,,,,0.101364,-0.014509,-0.023924,0.059958,-9.8e-05,-0.000489
181388,0.104034,-0.013193,-0.031539,0.087266,-0.0,-0.0,3.0,0.3261,0.34204,0.3261,0.309024,,,,,,,0.102593,-0.014511,-0.023934,0.058685,-0.000107,-0.000498
181408,0.105382,-0.013164,-0.031652,0.087266,-0.0,-0.0,3.0,0.3261,0.34004,0.3261,0.3113,,,,,,,0.10359,-0.014513,-0.023944,0.117717,-8e-05,-0.000509
181428,0.106602,-0.013137,-0.031761,0.087266,-0.0,-0.0,3.0,0.3261,0.339125,0.3261,0.312327,,,,,,,0.104852,-0.014515,-0.023954,0.089459,-6.5e-05,-0.00052
181448,0.107582,-0.012993,-0.031884,0.087266,-0.0,-0.0,3.0,0.3261,0.336573,0.3261,0.31515,,,,,,,0.105865,-0.014516,-0.023965,0.084074,-6.2e-05,-0.000531
181468,0.108188,-0.012738,-0.031891,0.087266,-0.0,-0.0,3.0,0.3261,0.338296,0.3261,0.313251,,,,,,,0.106951,-0.014518,-0.023975,0.024174,-7.3e-05,-0.000528
181488,0.108555,-0.012854,-0.03188,0.087266,-0.0,-0.0,3.0,0.3261,0.336707,0.3261,0.315003,,,,,,,0.107575,-0.01452,-0.023986,-0.019604,-8.5e-05,-0.000526
181508,0.108554,-0.012861,-0.031758,0.087266,-0.0,-0.0,3.0,0.3261,0.335148,0.3261,0.316698,,,,,,,0.107823,-0.014521,-0.023996,-0.02046,-8.5e-05,-0.000513
181528,0.108192,-0.013117,-0.031627,0.087266,-0.0,-0.0,3.0,0.3261,0.334037,0.3261,0.317892,,,,,,,0.107824,-0.014523,-0.024006,0.000791,-0.000109,-0.000498
181548,0.10807,-0.013119,-0.031629,0.087266,-0.0,-0.0,3.0,0.3261,0.33139,0.3261,0.320691,,,,,,,0.107477,-0.014525,-0.024016,0.01786,-9.8e-05,-0.000486
181568,0.107826,-0.01313,-0.031509,0.087266,-0.0,-0.0,3.0,0.3261,0.331905,0.3261,0.320151,,,,,,,0.107204,-0.014527,-0.024026,-0.039016,-0.000111,-0.000485
181588,0.107581,-0.013141,-0.03139,0.087266,-0.0,-0.0,3.0,0.3261,0.3334,0.3261,0.318571,,,,,,,0.106943,-0.014529,-0.024036,-0.015352,-0.000111,-0.000484
181608,0.107461,-0.013265,-0.031385,0.087266,-0.0,-0.0,3.0,0.3261,0.3311,0.3261,0.320995,,,,,,,0.106608,-0.014531,-0.024045,0.041635,-0.000111,-0.000483
181628,0.107827,-0.013252,-0.031503,0.087266,-0.0,-0.0,3.0,0.3261,0.332253,0.3261,0.319786,,,,,,,0.106603,-0.014533,-0.024055,0.042082,-9.8e-05,-0.000483
181648,0.108439,-0.013357,-0.031611,0.087266,-0.0,-0.0,3.0,0.3261,0.334752,0.3261,0.317125,,,,,,,0.106953,-0.014535,-0.024065,0.023765,-8.6e-05,-0.000482
181668,0.108805,-0.013351,-0.031607,0.087266,-0.0,-0.0,3.0,0.3261,0.337156,0.3261,0.314511,,,,,,,0.107548,-0.014537,-0.024074,0.00594,-9.6e-05,-0.000492
181688,0.109174,-0.013095,-0.031744,0.087266,-0.0,-0.0,3.0,0.3261,0.335221,0.3261,0.31662,,,,,,,0.107968,-0.014539,-0.024084,0.038268,-9.4e-05,-0.000503
181708,0.109786,-0.0132,-0.031853,0.087266,-0.0,-0.0,3.0,0.3261,0.337372,0.3261,0.314273,,,,,,,0.108715,-0.014541,-0.024094,0.016104,-9.2e-05,-0.000514
181728,0.110518,-0.01318,-0.031967,0.087266,-0.0,-0.0,3.0,0.3261,0.342883,0.3261,0.308053,,,,,,,0.109625,-0.014544,-0.024105,-0.013415,-0.000114,-0.000535
181748,0.111129,-0.013156,-0.032203,0.087266,-0.0,-0.0,3.0,0.3261,0.343697,0.3261,0.307109,,,,,,,0.110338,-0.014546,-0.024115,-0.009787,-0.000124,-0.000545
181768,0.111379,-0.013153,-0.032207,0.087266,-0.0,-0.0,3.0,0.3261,0.341556,0.3261,0.309579,,,,,,,0.110714,-0.014548,-0.024126,0.010673,-0.000135,-0.000543
181788,0.111993,-0.013386,-0.032186,0.087266,-0.0,-0.0,3.0,0.3261,0.339178,0.3261,0.312269,,,,,,,0.110852,-0.01455,-0.024137,0.069435,-0.00011,-0.000543
181808,0.112116,-0.013506,-0.032178,0.087266,-0.0,-0.0,3.0,0.3261,0.334722,0.3261,0.317157,,,,,,,0.110882,-0.014552,-0.024148,0.063986,-9.7e-05,-0.000542
181828,0.112114,-0.013384,-0.032185,0.087266,-0.0,-0.0,3.0,0.3261,0.331081,0.3261,0.321014,,,,,,,0.110812,-0.014554,-0.024159,0.034332,-9.8e-05,-0.000541
181848,0.111748,-0.013397,-0.032067,0.087266,-0.0,-0.0,3.0,0.3261,0.330399,0.3261,0.321723,,,,,,,0.110695,-0.014557,-0.024169,-0.028207,-0.000123,-0.000527
181868,0.111131,-0.013414,-0.031946,0.087266,-0.0,-0.0,3.0,0.3261,0.33152,0.3261,0.320556,,,,,,,0.110585,-0.014559,-0.02418,-0.072932,-0.000123,-0.000526
181888,0.110644,-0.013422,-0.031952,0.087266,-0.0,-0.0,3.0,0.3261,0.332975,0.3261,0.319023,,,,,,,0.110329,-0.014562,-0.02419,-0.070999,-0.000124,-0.000513
181908,0.110399,-0.013297,-0.032083,0.087266,-0.0,-0.0,3.0,0.3261,0.33847,0.3261,0.313058,,,,,,,0.110255,-0.014565,-0.024201,-0.057978,-0.000136,-0.000511
181928,0.110523,-0.013417,-0.032075,0.087266,-0.0,-0.0,3.0,0.3261,0.340149,0.3261,0.311177,,,,,,,0.1101,-0.014567,-0.024211,-0.0106,-0.000135,-0.000522
181948,0.11089,-0.013533,-0.032064,0.087266,-0.0,-0.0,3.0,0.3261,0.33847,0.3261,0.313058,,,,,,,0.109848,-0.01457,-0.024222,0.053315,-0.000147,-0.000521
181968,0.111015,-0.013646,-0.032178,0.087266,-0.0,-0.0,3.0,0.3261,0.333506,0.3261,0.318459,,,,,,,0.109662,-0.014572,-0.024232,0.085002,-0.000146,-0.000532
181988,0.111139,-0.013766,-0.03217,0.087266,-0.0,-0.0,3.0,0.3261,0.330384,0.3261,0.321739,,,,,,,0.109594,-0.014575,-0.024243,0.075769,-0.000146,-0.000531
182008,0.111392,-0.013877,-0.032288,0.087266,-0.0,-0.0,3.0,0.3261,0.331737,0.3261,0.320328,,,,,,,0.109851,-0.014578,-0.024253,0.032234,-0.000145,-0.000542
182028,0.111271,-0.013872,-0.032411,0.087266,-0.0,-0.0,3.0,0.3261,0.336723,0.3261,0.314985,,,,,,,0.110432,-0.014581,-0.024264,-0.066492,-0.000144,-0.000553
182048,0.111269,-0.013744,-0.03254,0.087266,-0.0,-0.0,3.0,0.3261,0.340034,0.3261,0.311307,,,,,,,0.110772,-0.014584,-0.024275,-0.06087,-0.000142,-0.000564
182068,0.111268,-0.013615,-0.032668,0.087266,-0.0,-0.0,3.0,0.3261,0.341572,0.3261,0.309561,,,,,,,0.111,-0.014588,-0.024287,-0.016588,-0.00014,-0.000575
182088,0.111758,-0.013722,-0.032778,0.087266,-0.0,-0.0,3.0,0.3261,0.342421,0.3261,0.308586,,,,,,,0.111094,-0.014591,-0.024298,0.009832,-0.000163,-0.000584
182108,0.112005,-0.013832,-0.03289,0.087266,-0.0,-0.0,3.0,0.3261,0.342057,0.3261,0.309005,,,,,,,0.111192,-0.014594,-0.02431,0.014392,-0.000174,-0.000594
182128,0.112007,-0.013947,-0.033005,0.087266,-0.0,-0.0,3.0,0.3261,0.333665,0.3261,0.318289,,,,,,,0.110796,-0.014597,-0.024322,0.061576,-0.000198,-0.000604
182148,0.112012,-0.014184,-0.033113,0.087266,-0.0,-0.0,3.0,0.3261,0.333262,0.3261,0.318718,,,,,,,0.110828,-0.014601,-0.024334,0.056293,-0.000197,-0.000615
182168,0.112139,-0.014419,-0.03322,0.087266,-0.0,-0.0,3.0,0.3261,0.334136,0.3261,0.317786,,,,,,,0.110949,-0.014605,-0.024346,-0.005932,-0.000184,-0.000627
182188,0.112014,-0.01417,-0.033357,0.087266,-0.0,-0.0,3.0,0.3261,0.336662,0.3261,0.315053,,,,,,,0.111174,-0.014609,-0.024359,-0.044408,-0.000171,-0.000638
182208,0.112136,-0.014168,-0.033355,0.087266,-0.0,-0.0,3.0,0.3261,0.339688,0.3261,0.311696,,,,,,,0.111399,-0.014612,-0.024372,-0.020184,-0.000182,-0.000636
182228,0.112256,-0.014037,-0.033482,0.087266,-0.0,-0.0,3.0,0.3261,0.339818,0.3261,0.31155,,,,,,,0.111509,-0.014617,-0.024384,-0.017726,-0.000193,-0.000646
182248,0.112502,-0.014155,-0.033473,0.087266,-0.0,-0.0,3.0,0.3261,0.341146,0.3261,0.310047,,,,,,,0.111753,-0.014621,-0.024397,0.003426,-0.000204,-0.000644
182268,0.112746,-0.01415,-0.03347,0.087266,-0.0,-0.0,3.0,0.3261,0.340172,0.3261,0.311151,,,,,,,0.111877,-0.014625,-0.02441,0.045969,-0.000215,-0.000642
182288,0.112996,-0.014147,-0.033473,0.087266,-0.0,-0.0,3.0,0.3261,0.340232,0.3261,0.311083,,,,,,,0.112122,-0.014628,-0.024423,0.024754,-0.000202,-0.000641
182308,0.113243,-0.014393,-0.033335,0.087266,-0.0,-0.0,3.0,0.3261,0.340132,0.3261,0.311196,,,,,,,0.11223,-0.014632,-0.024436,0.027027,-0.000202,-0.00064
182328,0.113241,-0.014271,-0.033341,0.087266,-0.0,-0.0,3.0,0.3261,0.339174,0.3261,0.312272,,,,,,,0.11237,-0.014636,-0.024449,0.023711,-0.000189,-0.000639
182348,0.113243,-0.014393,-0.033335,0.087266,-0.0,-0.0,3.0,0.3261,0.33484,0.3261,0.31703,,,,,,,0.11218,-0.01464,-0.024461,0.035373,-0.000202,-0.000625
182368,0.112997,-0.014275,-0.033344,0.087266,-0.0,-0.0,3.0,0.3261,0.335241,0.3261,0.316598,,,,,,,0.112181,-0.014644,-0.024474,-0.006616,-0.000189,-0.000625
182388,0.112999,-0.014397,-0.033337,0.087266,-0.0,-0.0,3.0,0.3261,0.33787,0.3261,0.313723,,,,,,,0.112137,-0.014648,-0.024486,-0.020614,-0.000201,-0.000622
182408,0.112869,-0.014277,-0.03334,0.087266,-0.0,-0.0,3.0,0.3261,0.336297,0.3261,0.315451,,,,,,,0.111898,-0.014652,-0.024499,-0.021823,-0.000189,-0.000622
182428,0.112501,-0.014162,-0.033351,0.087266,-0.0,-0.0,3.0,0.3261,0.334622,0.3261,0.317265,,,,,,,0.111686,-0.014656,-0.024511,-0.006295,-0.000202,-0.000608
182448,0.112379,-0.014171,-0.033231,0.087266,-0.0,-0.0,3.0,0.3261,0.336844,0.3261,0.314853,,,,,,,0.111681,-0.01466,-0.024523,-0.005871,-0.000189,-0.000608
182468,0.112377,-0.014049,-0.033237,0.087266,-0.0,-0.0,3.0,0.3261,0.340187,0.3261,0.311134,,,,,,,0.111751,-0.014664,-0.024535,-0.038446,-0.000189,-0.000607
182488,0.112255,-0.014051,-0.033239,0.087266,-0.0,-0.0,3.0,0.3261,0.34169,0.3261,0.309426,,,,,,,0.11172,-0.014668,-0.024548,-0.032502,-0.0002,-0.000617
182508,0.112257,-0.014173,-0.033232,0.087266,-0.0,-0.0,3.0,0.3261,0.339348,0.3261,0.312077,,,,,,,0.111507,-0.014672,-0.02456,0.045383,-0.000212,-0.000615
182528,0.112509,-0.014649,-0.033324,0.087266,-0.0,-0.0,3.0,0.3261,0.337067,0.3261,0.314608,,,,,,,0.11142,-0.014675,-0.024572,0.060095,-0.000212,-0.000601
182548,0.112507,-0.014527,-0.03333,0.087266,-0.0,-0.0,3.0,0.3261,0.336649,0.3261,0.315066,,,,,,,0.111411,-0.01468,-0.024584,0.019934,-0.000199,-0.000613
182568,0.112507,-0.014527,-0.03333,0.087266,-0.0,-0.0,3.0,0.3261,0.336096,0.3261,0.31567,,,,,,,0.111289,-0.014684,-0.024596,-0.001202,-0.000187,-0.000613
182588,0.112257,-0.014166,-0.033354,0.087266,-0.0,-0.0,3.0,0.3261,0.334148,0.3261,0.317773,,,,,,,0.111219,-0.014688,-0.024608,-0.03084,-0.000187,-0.000612
182608,0.11189,-0.014051,-0.033365,0.087266,-0.0,-0.0,3.0,0.3261,0.337446,0.3261,0.314192,,,,,,,0.111319,-0.014692,-0.024621,-0.048117,-0.000174,-0.000611
182628,0.111645,-0.013926,-0.033496,0.087266,-0.0,-0.0,3.0,0.3261,0.33787,0.3261,0.313723,,,,,,,0.111193,-0.014696,-0.024633,-0.046929,-0.000186,-0.000622
182648,0.111405,-0.014175,-0.033486,0.087266,-0.0,-0.0,3.0,0.3261,0.341077,0.3261,0.310125,,,,,,,0.11114,-0.014699,-0.024645,-0.058199,-0.000198,-0.00062
182668,0.111163,-0.014301,-0.033482,0.087266,-0.0,-0.0,3.0,0.3261,0.343295,0.3261,0.307575,,,,,,,0.110971,-0.014703,-0.024658,-0.028707,-0.000222,-0.000618
182688,0.11129,-0.014536,-0.033589,0.087266,-0.0,-0.0,3.0,0.3261,0.34021,0.3261,0.311108,,,,,,,0.110506,-0.014707,-0.02467,0.050885,-0.000233,-0.000628
182708,0.111415,-0.014648,-0.033702,0.087266,-0.0,-0.0,3.0,0.3261,0.335829,0.3261,0.31596,,,,,,,0.110197,-0.014712,-0.024683,0.082396,-0.00022,-0.00064
182728,0.111415,-0.014642,-0.033824,0.087266,-0.0,-0.0,3.0,0.3261,0.333868,0.3261,0.318073,,,,,,,0.110114,-0.014716,-0.024696,0.055419,-0.000232,-0.000638
182748,0.111296,-0.014759,-0.033941,0.087266,-0.0,-0.0,3.0,0.3261,0.332792,0.3261,0.319217,,,,,,,0.110011,-0.014721,-0.024709,0.0106,-0.000219,-0.000662
182768,0.111176,-0.014747,-0.034186,0.087266,-0.0,-0.0,3.0,0.3261,0.337924,0.3261,0.313664,,,,,,,0.110353,-0.014725,-0.024722,-0.088799,-0.000217,-0.000685
182788,0.110808,-0.014497,-0.034447,0.087266,-0.0,-0.0,3.0,0.3261,0.34078,0.3261,0.310463,,,,,,,0.11044,-0.01473,-0.024736,-0.061627,-0.000228,-0.000695
182808,0.110807,-0.014368,-0.034576,0.087266,-0.0,-0.0,3.0,0.3261,0.341843,0.3261,0.309251,,,,,,,0.110436,-0.014734,-0.02475,-0.019443,-0.000213,-0.000719
182828,0.111051,-0.014357,-0.034695,0.087266,-0.0,-0.0,3.0,0.3261,0.343655,0.3261,0.307157,,,,,,,0.110526,-0.014739,-0.024764,-0.013966,-0.000212,-0.000729
182848,0.1113,-0.014589,-0.0348,0.087266,-0.0,-0.0,3.0,0.3261,0.344114,0.3261,0.306622,,,,,,,0.110485,-0.014743,-0.024779,0.014755,-0.000235,-0.000738
182868,0.111303,-0.014704,-0.034915,0.087266,-0.0,-0.0,3.0,0.3261,0.337786,0.3261,0.313816,,,,,,,0.110193,-0.014747,-0.024794,0.065088,-0.000258,-0.000748
182888,0.111308,-0.014941,-0.035023,0.087266,-0.0,-0.0,3.0,0.3261,0.333653,0.3261,0.318302,,,,,,,0.110016,-0.014752,-0.024809,0.053421,-0.000245,-0.000759
182908,0.11131,-0.015063,-0.035017,0.087266,-0.0,-0.0,3.0,0.3261,0.335924,0.3261,0.315857,,,,,,,0.110122,-0.014757,-0.024824,-0.006418,-0.000233,-0.000759
182928,0.111063,-0.014817,-0.035155,0.087266,-0.0,-0.0,3.0,0.3261,0.336327,0.3261,0.315419,,,,,,,0.110124,-0.014762,-0.024839,-0.048807,-0.000208,-0.000771
182948,0.110818,-0.014693,-0.035287,0.087266,-0.0,-0.0,3.0,0.3261,0.340623,0.3261,0.31064,,,,,,,0.110344,-0.014767,-0.024855,-0.064618,-0.000231,-0.00078
182968,0.110815,-0.014571,-0.035293,0.087266,-0.0,-0.0,3.0,0.3261,0.34339,0.3261,0.307465,,,,,,,0.11043,-0.014771,-0.02487,-0.037758,-0.00023,-0.000778
182988,0.110939,-0.014691,-0.035285,0.087266,-0.0,-0.0,3.0,0.3261,0.341976,0.3261,0.309098,,,,,,,0.110313,-0.014776,-0.024886,0.003739,-0.000254,-0.000775
183008,0.111061,-0.014689,-0.035284,0.087266,-0.0,-0.0,3.0,0.3261,0.341969,0.3261,0.309106,,,,,,,0.110295,-0.014781,-0.024901,0.006331,-0.000241,-0.000774
183028,0.110939,-0.014698,-0.035163,0.087266,-0.0,-0.0,3.0,0.3261,0.339968,0.3261,0.311381,,,,,,,0.110193,-0.014785,-0.024917,0.003252,-0.000254,-0.00076
183048,0.111063,-0.014817,-0.035155,0.087266,-0.0,-0.0,3.0,0.3261,0.339896,0.3261,0.311462,,,,,,,0.110069,-0.01479,-0.024932,0.044324,-0.000229,-0.00076
183068,0.111061,-0.014695,-0.035162,0.087266,-0.0,-0.0,3.0,0.3261,0.33726,0.3261,0.314396,,,,,,,0.109985,-0.014795,-0.024947,0.017132,-0.000229,-0.000759
183088,0.110817,-0.0147,-0.035165,0.087266,-0.0,-0.0,3.0,0.3261,0.337884,0.3261,0.313708,,,,,,,0.109982,-0.014799,-0.024962,0.017555,-0.000228,-0.000757
183108,0.110817,-0.0147,-0.035165,0.087266,-0.0,-0.0,3.0,0.3261,0.337894,0.3261,0.313696,,,,,,,0.10986,-0.014804,-0.024978,0.017539,-0.000228,-0.000756
183128,0.110819,-0.014822,-0.035158,0.087266,-0.0,-0.0,3.0,0.3261,0.338953,0.3261,0.31252,,,,,,,0.109844,-0.014808,-0.024993,-0.021046,-0.000228,-0.000755
183148,0.110449,-0.014585,-0.035176,0.087266,-0.0,-0.0,3.0,0.3261,0.340141,0.3261,0.311186,,,,,,,0.109828,-0.014813,-0.025007,-0.039544,-0.000216,-0.000742
183168,0.110202,-0.014475,-0.035064,0.087266,-0.0,-0.0,3.0,0.3261,0.337324,0.3261,0.314326,,,,,,,0.109509,-0.014818,-0.025022,0.014424,-0.000217,-0.000728
183188,0.110193,-0.014359,-0.034942,0.087266,-0.0,-0.0,3.0,0.3261,0.339356,0.3261,0.312069,,,,,,,0.109489,-0.014822,-0.025037,-0.025079,-0.000204,-0.000727
183208,0.11007,-0.014368,-0.034822,0.087266,-0.0,-0.0,3.0,0.3261,0.34122,0.3261,0.309963,,,,,,,0.109455,-0.014826,-0.025052,-0.060335,-0.000217,-0.000725
183228,0.109828,-0.014501,-0.034696,0.087266,-0.0,-0.0,3.0,0.3261,0.34196,0.3261,0.309117,,,,,,,0.109309,-0.01483,-0.025066,-0.014463,-0.000229,-0.000711
183248,0.109464,-0.01463,-0.034694,0.087266,-0.0,-0.0,3.0,0.3261,0.337254,0.3261,0.314403,,,,,,,0.108872,-0.014834,-0.02508,0.038985,-0.000229,-0.000697
183268,0.109466,-0.014758,-0.034566,0.087266,-0.0,-0.0,3.0,0.3261,0.338119,0.3261,0.313447,,,,,,,0.108606,-0.014838,-0.025094,0.062674,-0.000205,-0.000685
183288,0.10946,-0.014528,-0.034335,0.087266,-0.0,-0.0,3.0,0.3261,0.335244,0.3261,0.316595,,,,,,,0.108264,-0.014843,-0.025108,0.036911,-0.000182,-0.000673
183308,0.109091,-0.014419,-0.034225,0.087266,-0.0,-0.0,3.0,0.3261,0.334637,0.3261,0.317249,,,,,,,0.10802,-0.014846,-0.025121,-0.025434,-0.000184,-0.000649
183328,0.108599,-0.014191,-0.034122,0.087266,-0.0,-0.0,3.0,0.3261,0.333668,0.3261,0.318286,,,,,,,0.107686,-0.01485,-0.025134,-0.031081,-0.000185,-0.000635
183348,0.107984,-0.01433,-0.033994,0.087266,-0.0,-0.0,3.0,0.3261,0.333798,0.3261,0.318147,,,,,,,0.107462,-0.014854,-0.025146,-0.056394,-0.000186,-0.000622
183368,0.107618,-0.014343,-0.033877,0.087266,-0.0,-0.0,3.0,0.3261,0.33715,0.3261,0.314518,,,,,,,0.107165,-0.014858,-0.025159,-0.068085,-0.000187,-0.000609
