time_ms,roll,pitch,yaw,roll_rate,pitch_rate,yaw_rate,reference_roll,reference_pitch,reference_yaw,reference_throttle,throttle_1,throttle_2,throttle_3,throttle_4,roll_predicted,pitch_predicted,yaw_predicted,roll_rate_predicted,pitch_rate_predicted,yaw_rate_predicted
39620,-0.001229,-0.016855,-0.013563,-0.001064,-0.001064,1e-06,-0.0,-0.0,-0.0,3.0,0.3261,0.324188,0.3261,0.327997,,,,,,
39640,-0.001474,-0.016734,-0.013565,0.0,0.0,0.0,0.0,-0.0,-0.0,3.0,0.3261,0.328411,0.3261,0.323767,,,,,,
39660,-0.001354,-0.016489,-0.013441,1.8e-05,0.001063,-0.001066,0.0,-0.0,-0.0,3.0,0.3261,0.328495,0.3261,0.323681,,,,,,
39680,-0.00111,-0.016488,-0.013439,1.8e-05,-1e-06,-0.001064,0.0,-0.0,-0.0,3.0,0.3261,0.324227,0.3261,0.327959,,,,,,
39700,-0.00111,-0.016488,-0.013439,1.8e-05,-1e-06,-0.001064,0.0,-0.0,-0.0,3.0,0.3261,0.324207,0.3261,0.327979,,,,,,
39720,-0.00111,-0.016488,-0.013439,-0.001047,-0.001065,-0.001063,0.0,-0.0,-0.0,3.0,0.3261,0.324111,0.3261,0.328073,,,,,,
39740,-0.000987,-0.016609,-0.013438,-0.001047,-0.001065,-0.001063,0.0,-0.0,-0.0,3.0,0.3261,0.324205,0.3261,0.327981,,,,,,
39760,-0.001109,-0.016732,-0.013318,-0.001064,-0.002128,2e-06,0.0,-0.0,-0.0,3.0,0.3261,0.324067,0.3261,0.328116,,,,,,
39780,-0.001109,-0.016732,-0.013318,-0.001064,-0.002128,2e-06,0.0,-0.0,-0.0,3.0,0.3261,0.328585,0.3261,0.32359,,,,,,
39800,-0.001477,-0.016612,-0.013198,-0.0,-0.001064,2e-06,0.0,-0.0,-0.0,3.0,0.3261,0.328224,0.3261,0.323957,,,,,,
39820,-0.001478,-0.016612,-0.013076,1.8e-05,-2e-06,-0.001064,0.0,-0.0,-0.0,3.0,0.3261,0.328196,0.3261,0.323986,,,,,,
39840,-0.001479,-0.01649,-0.013076,1.8e-05,0.001063,-0.001066,0.0,-0.0,-0.0,3.0,0.3261,0.328171,0.3261,0.324011,,,,,,
39860,-0.001236,-0.016366,-0.013074,1.7e-05,0.001063,-0.001066,0.0,-0.0,-0.0,3.0,0.3261,0.323898,0.3261,0.328282,,,,,,
39880,-0.001236,-0.016366,-0.013074,-0.001047,-1e-06,-0.001064,0.0,-0.0,-0.0,3.0,0.3261,0.323876,0.3261,0.328304,,,,,,
39900,-0.001234,-0.01661,-0.013074,-0.001047,-0.001066,-0.001063,0.0,-0.0,-0.0,3.0,0.3261,0.323777,0.3261,0.328401,,,,,,
39920,-0.001233,-0.016732,-0.013074,-0.001046,-0.001066,-0.001063,0.0,-0.0,-0.0,3.0,0.3261,0.323751,0.3261,0.328427,,,,,,
39940,-0.001233,-0.016732,-0.013074,-0.001064,-0.002128,3e-06,0.0,-0.0,-0.0,3.0,0.3261,0.328199,0.3261,0.323983,,,,,,
39960,-0.001233,-0.016854,-0.013074,-0.001064,-0.002128,3e-06,0.0,-0.0,-0.0,3.0,0.3261,0.328247,0.3261,0.323934,,,,,,
39980,-0.001233,-0.016854,-0.013074,-0.0,-0.001064,1e-06,0.0,-0.0,-0.0,3.0,0.3261,0.328223,0.3261,0.323959,,,,,,
40000,-0.001356,-0.016733,-0.013075,1.8e-05,-1e-06,-0.001064,0.0,-0.0,-0.0,3.0,0.3261,0.328088,0.3261,0.324096,,,,,,
40020,-0.001355,-0.016611,-0.013197,1.8e-05,0.001063,-0.001066,0.0,-0.0,-0.0,3.0,0.3261,0.323512,0.3261,0.328661,,,,,,
40040,-0.001234,-0.016488,-0.013196,1.8e-05,0.001063,-0.001066,0.0,-0.0,-0.0,3.0,0.3261,0.323603,0.3261,0.328572,,,,,,
40060,-0.001354,-0.016611,-0.013319,-0.001064,0.0,0.0,0.0,-0.0,-0.0,3.0,0.3261,0.323468,0.3261,0.328704,,,,,,
40080,-0.001109,-0.016732,-0.013318,-0.001064,-0.001064,1e-06,0.0,-0.0,-0.0,3.0,0.3261,0.323671,0.3261,0.328505,,,,,,
40100,-0.001109,-0.016854,-0.013318,-0.001064,-0.002128,2e-06,0.0,-0.0,-0.0,3.0,0.3261,0.328123,0.3261,0.32406,,,,,,
40120,-0.001108,-0.016854,-0.01344,-0.001064,-0.002128,2e-06,0.0,-0.0,-0.0,3.0,0.3261,0.328098,0.3261,0.324086,,,,,,
40140,-0.001108,-0.016854,-0.01344,-0.0,-0.002128,2e-06,0.0,-0.0,-0.0,3.0,0.3261,0.328148,0.3261,0.324034,,,,,,
40160,-0.001352,-0.016855,-0.013442,-0.0,-0.001064,1e-06,0.0,-0.0,-0.0,3.0,0.3261,0.327903,0.3261,0.324284,,,,,,
40180,-0.001475,-0.016612,-0.013443,1.8e-05,0.001063,-0.001066,0.0,-0.0,-0.0,3.0,0.3261,0.323285,0.3261,0.328883,,,,,,
40200,-0.001475,-0.016612,-0.013443,1.8e-05,0.001063,-0.001066,0.0,-0.0,-0.0,3.0,0.3261,0.323187,0.3261,0.328978,,,,,,
40220,-0.001231,-0.01661,-0.013441,-0.001047,0.001063,-0.001066,0.0,-0.0,-0.0,3.0,0.3261,0.318821,0.3261,0.333165,,,,,,
40240,-0.00123,-0.016733,-0.013441,-0.001064,-0.001064,1e-06,0.0,-0.0,-0.0,3.0,0.3261,0.323443,0.3261,0.328729,,,,,,
40260,-0.00123,-0.016733,-0.013441,-0.001064,-0.001064,1e-06,0.0,-0.0,-0.0,3.0,0.3261,0.327896,0.3261,0.324291,,,,,,
40280,-0.000986,-0.016975,-0.013317,-0.001046,-0.001065,-0.001063,0.0,-0.0,-0.0,3.0,0.3261,0.328019,0.3261,0.324166,,,,,,
40300,-0.000987,-0.016853,-0.013317,1.8e-05,-0.001065,-0.001063,0.0,-0.0,-0.0,3.0,0.3261,0.327995,0.3261,0.32419,,,,,,
40320,-0.00111,-0.016854,-0.013196,-0.0,-0.001064,1e-06,0.0,-0.0,-0.0,3.0,0.3261,0.327938,0.3261,0.324248,,,,,,
40340,-0.001354,-0.016855,-0.013198,0.0,0.0,0.0,0.0,-0.0,-0.0,3.0,0.3261,0.327697,0.3261,0.324493,,,,,,
40360,-0.001355,-0.016855,-0.013075,0.0,0.0,0.0,0.0,-0.0,-0.0,3.0,0.3261,0.323191,0.3261,0.328975,,,,,,
40380,-0.001357,-0.016733,-0.012953,1.8e-05,0.001063,-0.001066,0.0,-0.0,-0.0,3.0,0.3261,0.32309,0.3261,0.329073,,,,,,
40400,-0.001111,-0.016976,-0.012951,-0.001046,-1e-06,-0.001064,0.0,-0.0,-0.0,3.0,0.3261,0.323372,0.3261,0.328798,,,,,,
40420,-0.001112,-0.016976,-0.012829,-0.001046,-0.001065,-0.001063,0.0,-0.0,-0.0,3.0,0.3261,0.323348,0.3261,0.328822,,,,,,
40440,-0.000991,-0.016975,-0.012706,-0.001046,-0.001065,-0.001063,0.0,-0.0,-0.0,3.0,0.3261,0.327918,0.3261,0.324269,,,,,,
40460,-0.00087,-0.016974,-0.012583,-0.001046,-0.001065,-0.001063,0.0,-0.0,-0.0,3.0,0.3261,0.327932,0.3261,0.324255,,,,,,
40480,-0.000871,-0.016974,-0.012461,1.8e-05,-0.001065,-0.001063,0.0,-0.0,-0.0,3.0,0.3261,0.327912,0.3261,0.324275,,,,,,
40500,-0.001115,-0.016975,-0.012463,-0.0,-0.001064,1e-06,0.0,-0.0,-0.0,3.0,0.3261,0.327669,0.3261,0.324521,,,,,,
40520,-0.001239,-0.016854,-0.012342,-0.001064,-0.001064,1e-06,0.0,-0.0,-0.0,3.0,0.3261,0.323123,0.3261,0.329041,,,,,,
40540,-0.001361,-0.016977,-0.012221,-0.001064,0.0,0.0,0.0,-0.0,-0.0,3.0,0.3261,0.322985,0.3261,0.329175,,,,,,
40560,-0.001242,-0.016732,-0.012098,1.8e-05,-1e-06,-0.001064,0.0,-0.0,-0.0,3.0,0.3261,0.32756,0.3261,0.324632,,,,,,
40580,-0.001241,-0.016854,-0.012098,1.8e-05,0.001063,-0.001066,0.0,-0.0,-0.0,3.0,0.3261,0.327536,0.3261,0.324655,,,,,,
40600,-0.000998,-0.01673,-0.012096,1.8e-05,-1e-06,-0.001064,0.0,-0.0,-0.0,3.0,0.3261,0.327737,0.3261,0.324452,,,,,,
40620,-0.000874,-0.016852,-0.012217,1.8e-05,-1e-06,-0.001064,0.0,-0.0,-0.0,3.0,0.3261,0.327758,0.3261,0.324431,,,,,,
40640,-0.000751,-0.016851,-0.012338,-0.001064,-0.001064,1e-06,0.0,-0.0,-0.0,3.0,0.3261,0.323372,0.3261,0.328797,,,,,,
40660,-0.00075,-0.016973,-0.012338,-0.001064,-0.001064,1e-06,0.0,-0.0,-0.0,3.0,0.3261,0.323358,0.3261,0.328812,,,,,,
40680,-0.000872,-0.016852,-0.012461,-0.001064,-0.001064,1e-06,0.0,-0.0,-0.0,3.0,0.3261,0.323226,0.3261,0.328941,,,,,,
40700,-0.001238,-0.016854,-0.012464,-0.001064,-0.001064,1e-06,0.0,-0.0,-0.0,3.0,0.3261,0.32743,0.3261,0.324763,,,,,,
40720,-0.001239,-0.016854,-0.012342,-0.0,-0.001064,1e-06,0.0,-0.0,-0.0,3.0,0.3261,0.327406,0.3261,0.324787,,,,,,
40740,-0.000995,-0.01673,-0.01234,1.8e-05,-1e-06,-0.001064,0.0,-0.0,-0.0,3.0,0.3261,0.327608,0.3261,0.324583,,,,,,
40760,-0.000873,-0.01673,-0.012339,1.8e-05,0.001063,-0.001065,0.0,-0.0,-0.0,3.0,0.3261,0.327702,0.3261,0.324487,,,,,,
40780,-0.000751,-0.016729,-0.012338,1.8e-05,-1e-06,-0.001064,0.0,-0.0,-0.0,3.0,0.3261,0.323319,0.3261,0.32885,,,,,,
40800,-0.000751,-0.016851,-0.012338,-0.001046,-1e-06,-0.001064,0.0,-0.0,-0.0,3.0,0.3261,0.323229,0.3261,0.328938,,,,,,
40820,-0.00075,-0.016973,-0.012338,-0.001046,-0.001065,-0.001064,0.0,-0.0,-0.0,3.0,0.3261,0.323214,0.3261,0.328952,,,,,,
40840,-0.000873,-0.016974,-0.012217,-0.001064,-0.001064,1e-06,0.0,-0.0,-0.0,3.0,0.3261,0.323081,0.3261,0.329082,,,,,,
40860,-0.000874,-0.016852,-0.012217,-0.001064,-0.002128,2e-06,0.0,-0.0,-0.0,3.0,0.3261,0.327623,0.3261,0.324567,,,,,,
40880,-0.001119,-0.016853,-0.012097,-0.0,-0.001064,1e-06,0.0,-0.0,-0.0,3.0,0.3261,0.327378,0.3261,0.324815,,,,,,
40900,-0.000997,-0.016852,-0.012096,0.001064,0.0,0.0,0.0,-0.0,-0.0,3.0,0.3261,0.32747,0.3261,0.324723,,,,,,
40920,-0.000875,-0.01673,-0.012095,1.8e-05,-1e-06,-0.001064,0.0,-0.0,-0.0,3.0,0.3261,0.327568,0.3261,0.324624,,,,,,
40940,-0.000753,-0.016729,-0.012094,1.8e-05,-1e-06,-0.001064,0.0,-0.0,-0.0,3.0,0.3261,0.323106,0.3261,0.329058,,,,,,
40960,-0.000508,-0.016849,-0.012214,-0.001046,-1e-06,-0.001064,0.0,-0.0,-0.0,3.0,0.3261,0.318753,0.3261,0.333229,,,,,,
40980,-0.00063,-0.01685,-0.012215,-0.001064,-0.001064,1e-06,0.0,-0.0,-0.0,3.0,0.3261,0.323196,0.3261,0.32897,,,,,,
41000,-0.000629,-0.016972,-0.012215,-0.002128,-0.001064,1e-06,0.0,-0.0,-0.0,3.0,0.3261,0.327668,0.3261,0.324522,,,,,,
41020,-0.00063,-0.01685,-0.012215,-0.001064,-0.001064,1e-06,0.0,-0.0,-0.0,3.0,0.3261,0.327651,0.3261,0.324539,,,,,,
41040,-0.000752,-0.016851,-0.012216,-0.0,-0.001064,1e-06,0.0,-0.0,-0.0,3.0,0.3261,0.327598,0.3261,0.324593,,,,,,
41060,-0.000875,-0.01673,-0.012095,0.001064,-0.001064,1e-06,0.0,-0.0,-0.0,3.0,0.3261,0.32747,0.3261,0.324723,,,,,,
41080,-0.000876,-0.016607,-0.012095,0.001082,-1e-06,-0.001064,0.0,-0.0,-0.0,3.0,0.3261,0.327458,0.3261,0.324735,,,,,,
41100,-0.000755,-0.016485,-0.012094,1.8e-05,-1e-06,-0.001064,0.0,-0.0,-0.0,3.0,0.3261,0.323069,0.3261,0.329094,,,,,,
41120,-0.000633,-0.016606,-0.011971,-0.001047,-1e-06,-0.001064,0.0,-0.0,-0.0,3.0,0.3261,0.318521,0.3261,0.333448,,,,,,
41140,-0.000633,-0.016484,-0.012093,-0.002128,-0.001064,1e-06,0.0,-0.0,-0.0,3.0,0.3261,0.318585,0.3261,0.333388,,,,,,
41160,-0.000754,-0.016607,-0.012094,-0.002128,-0.001064,1e-06,0.0,-0.0,-0.0,3.0,0.3261,0.323027,0.3261,0.329135,,,,,,
41180,-0.000632,-0.016606,-0.012093,-0.001047,-0.001065,-0.001064,0.0,-0.0,-0.0,3.0,0.3261,0.327535,0.3261,0.324657,,,,,,
41200,-0.000754,-0.016607,-0.012094,1.8e-05,-0.001065,-0.001064,0.0,-0.0,-0.0,3.0,0.3261,0.331815,0.3261,0.320246,,,,,,
41220,-0.000753,-0.016607,-0.012216,-0.0,-0.001064,1e-06,0.0,-0.0,-0.0,3.0,0.3261,0.331802,0.3261,0.32026,,,,,,
41240,-0.000875,-0.016608,-0.012217,0.0,0.0,0.0,0.0,-0.0,-0.0,3.0,0.3261,0.327344,0.3261,0.32485,,,,,,
41260,-0.000876,-0.016607,-0.012095,0.0,0.0,0.0,0.0,-0.0,-0.0,3.0,0.3261,0.322841,0.3261,0.329316,,,,,,
41280,-0.000755,-0.016485,-0.012094,1.8e-05,-1e-06,-0.001064,0.0,-0.0,-0.0,3.0,0.3261,0.318287,0.3261,0.333667,,,,,,
41300,-0.000632,-0.016606,-0.012093,-0.001047,-1e-06,-0.001064,0.0,-0.0,-0.0,3.0,0.3261,0.323042,0.3261,0.32912,,,,,,
41320,-0.000632,-0.016606,-0.012093,-0.001047,-0.001065,-0.001064,0.0,-0.0,-0.0,3.0,0.3261,0.323027,0.3261,0.329135,,,,,,
41340,-0.000509,-0.016727,-0.012092,-0.001046,-0.001065,-0.001064,0.0,-0.0,-0.0,3.0,0.3261,0.327612,0.3261,0.324579,,,,,,
41360,-0.000511,-0.016605,-0.01197,-0.001047,-1e-06,-0.001064,0.0,-0.0,-0.0,3.0,0.3261,0.327524,0.3261,0.324668,,,,,,
41380,-0.000389,-0.016482,-0.012091,1.8e-05,-0.0,-0.001064,0.0,-0.0,-0.0,3.0,0.3261,0.327626,0.3261,0.324565,,,,,,
41400,-0.000511,-0.016483,-0.012092,0.0,0.0,0.0,0.0,-0.0,-0.0,3.0,0.3261,0.327506,0.3261,0.324686,,,,,,
41420,-0.000511,-0.016361,-0.012092,0.0,0.0,0.0,0.0,-0.0,-0.0,3.0,0.3261,0.327498,0.3261,0.324694,,,,,,
41440,-0.000755,-0.016485,-0.012094,-0.0,-0.001064,1e-06,0.0,-0.0,-0.0,3.0,0.3261,0.322848,0.3261,0.329309,,,,,,
41460,-0.000635,-0.016362,-0.01197,0.0,0.0,0.0,0.0,-0.0,-0.0,3.0,0.3261,0.322949,0.3261,0.32921,,,,,,
41480,-0.000634,-0.016484,-0.011971,1.8e-05,-1e-06,-0.001064,0.0,-0.0,-0.0,3.0,0.3261,0.32294,0.3261,0.32922,,,,,,
41500,-0.000634,-0.016484,-0.011971,1.8e-05,-1e-06,-0.001064,0.0,-0.0,-0.0,3.0,0.3261,0.322928,0.3261,0.329231,,,,,,
41520,-0.000511,-0.016483,-0.012092,-0.001047,-1e-06,-0.001064,0.0,-0.0,-0.0,3.0,0.3261,0.323033,0.3261,0.329129,,,,,,
41540,-0.000267,-0.016482,-0.01209,-0.001047,-0.0,-0.001064,0.0,-0.0,-0.0,3.0,0.3261,0.327662,0.3261,0.324529,,,,,,
41560,-0.000144,-0.016603,-0.012089,-0.001047,-0.0,-0.001064,0.0,-0.0,-0.0,3.0,0.3261,0.327767,0.3261,0.324422,,,,,,
41580,-0.000144,-0.016603,-0.012089,-0.001064,-0.001064,0.0,0.0,-0.0,-0.0,3.0,0.3261,0.327761,0.3261,0.324428,,,,,,
41600,-0.000387,-0.016727,-0.012091,-0.001064,-0.001064,0.0,0.0,-0.0,-0.0,3.0,0.3261,0.327533,0.3261,0.324659,,,,,,
41620,-0.000509,-0.016727,-0.012092,-0.0,-0.001064,1e-06,0.0,-0.0,-0.0,3.0,0.3261,0.327489,0.3261,0.324704,,,,,,
41640,-0.000389,-0.016605,-0.011969,1.8e-05,-0.0,-0.001064,0.0,-0.0,-0.0,3.0,0.3261,0.327592,0.3261,0.324599,,,,,,
41660,-0.000389,-0.016605,-0.011969,1.8e-05,-0.0,-0.001064,0.0,-0.0,-0.0,3.0,0.3261,0.323099,0.3261,0.329065,,,,,,
41680,-0.000389,-0.016605,-0.011969,1.8e-05,-0.0,-0.001064,0.0,-0.0,-0.0,3.0,0.3261,0.323018,0.3261,0.329143,,,,,,
41700,-0.000144,-0.016603,-0.012089,-0.001047,-0.0,-0.001064,0.0,-0.0,-0.0,3.0,0.3261,0.323243,0.3261,0.328924,,,,,,
41720,-2.2e-05,-0.016602,-0.012088,-0.001064,-0.001064,0.0,0.0,-0.0,-0.0,3.0,0.3261,0.323353,0.3261,0.328816,,,,,,
41740,0.000222,-0.016601,-0.012086,-0.001047,0.0,-0.001064,0.0,-0.0,-0.0,3.0,0.3261,0.328056,0.3261,0.324128,,,,,,
41760,-2.3e-05,-0.016602,-0.011966,-0.001047,-0.001064,-0.001064,0.0,-0.0,-0.0,3.0,0.3261,0.327831,0.3261,0.324357,,,,,,
41780,-0.000145,-0.016603,-0.011967,-0.0,-0.001064,0.0,0.0,-0.0,-0.0,3.0,0.3261,0.327791,0.3261,0.324398,,,,,,
41800,-0.000267,-0.016604,-0.011968,-0.0,-0.001064,0.0,0.0,-0.0,-0.0,3.0,0.3261,0.327677,0.3261,0.324513,,,,,,
41820,-0.000268,-0.016482,-0.011968,0.001064,-0.001064,0.0,0.0,-0.0,-0.0,3.0,0.3261,0.327674,0.3261,0.324516,,,,,,
41840,-0.000146,-0.016359,-0.011967,1.7e-05,-0.0,-0.001064,0.0,-0.0,-0.0,3.0,0.3261,0.323226,0.3261,0.32894,,,,,,
41860,-2.3e-05,-0.016602,-0.011966,1.8e-05,-0.0,-0.001064,0.0,-0.0,-0.0,3.0,0.3261,0.323342,0.3261,0.328827,,,,,,
41880,0.000343,-0.0166,-0.011962,-0.001064,-0.001064,-0.0,0.0,-0.0,-0.0,3.0,0.3261,0.323683,0.3261,0.328493,,,,,,
41900,0.000466,-0.016721,-0.011961,-0.001064,-0.001064,-0.0,0.0,-0.0,-0.0,3.0,0.3261,0.328349,0.3261,0.32383,,,,,,
41920,0.000587,-0.016721,-0.011838,-0.001064,-0.001064,-1e-06,0.0,-0.0,-0.0,3.0,0.3261,0.328464,0.3261,0.323713,,,,,,
41940,0.000465,-0.016722,-0.011839,1.8e-05,-0.001064,-0.001065,0.0,-0.0,-0.0,3.0,0.3261,0.33268,0.3261,0.319335,,,,,,
41960,0.00022,-0.016601,-0.011841,1.8e-05,0.0,-0.001064,0.0,-0.0,-0.0,3.0,0.3261,0.32807,0.3261,0.324114,,,,,,
41980,0.00022,-0.016479,-0.011841,0.001064,0.0,0.0,0.0,-0.0,-0.0,3.0,0.3261,0.328152,0.3261,0.324031,,,,,,
42000,0.00022,-0.016479,-0.011841,0.0,0.0,0.0,0.0,-0.0,-0.0,3.0,0.3261,0.323611,0.3261,0.328564,,,,,,
42020,0.000587,-0.016599,-0.011838,0.0,0.0,0.0,0.0,-0.0,-0.0,3.0,0.3261,0.319404,0.3261,0.332615,,,,,,
42040,0.000709,-0.016598,-0.011837,-0.001064,-0.001064,-1e-06,0.0,-0.0,-0.0,3.0,0.3261,0.324086,0.3261,0.328098,,,,,,
42060,0.000831,-0.016719,-0.011836,-0.001064,-0.001064,-1e-06,0.0,-0.0,-0.0,3.0,0.3261,0.324287,0.3261,0.3279,,,,,,
42080,0.000954,-0.016841,-0.011835,-0.001064,-0.001064,-1e-06,0.0,-0.0,-0.0,3.0,0.3261,0.328876,0.3261,0.323292,,,,,,
42100,0.000831,-0.016597,-0.011836,-0.001047,-0.001063,-0.001065,0.0,-0.0,-0.0,3.0,0.3261,0.328702,0.3261,0.32347,,,,,,
42120,0.000587,-0.016599,-0.011838,1.8e-05,-0.001064,-0.001065,0.0,-0.0,-0.0,3.0,0.3261,0.328492,0.3261,0.323684,,,,,,
42140,0.000465,-0.016477,-0.011961,0.0,0.0,0.0,0.0,-0.0,-0.0,3.0,0.3261,0.328395,0.3261,0.323784,,,,,,
42160,0.000588,-0.016599,-0.01196,0.0,0.0,0.0,0.0,-0.0,-0.0,3.0,0.3261,0.328521,0.3261,0.323655,,,,,,
42180,0.000708,-0.016476,-0.011837,0.0,0.0,0.0,0.0,-0.0,-0.0,3.0,0.3261,0.324178,0.3261,0.328007,,,,,,
42200,0.000831,-0.016597,-0.011836,-0.001064,0.0,0.0,0.0,-0.0,-0.0,3.0,0.3261,0.324384,0.3261,0.327804,,,,,,
42220,0.000953,-0.016597,-0.011835,-0.001064,-0.001064,-1e-06,0.0,-0.0,-0.0,3.0,0.3261,0.324513,0.3261,0.327677,,,,,,
42240,0.001076,-0.016718,-0.011834,-0.001046,-0.001063,-0.001066,0.0,-0.0,-0.0,3.0,0.3261,0.324644,0.3261,0.327548,,,,,,
42260,0.000953,-0.016719,-0.011835,-0.001046,-0.001063,-0.001065,0.0,-0.0,-0.0,3.0,0.3261,0.324547,0.3261,0.327643,,,,,,
42280,0.000831,-0.016597,-0.011836,-0.001047,-0.001063,-0.001065,0.0,-0.0,-0.0,3.0,0.3261,0.328839,0.3261,0.32333,,,,,,
42300,0.000831,-0.016719,-0.011836,-0.001046,-0.001063,-0.001065,0.0,-0.0,-0.0,3.0,0.3261,0.328855,0.3261,0.323314,,,,,,
42320,0.00071,-0.01672,-0.011959,0.0,-0.001064,-1e-06,0.0,-0.0,-0.0,3.0,0.3261,0.328758,0.3261,0.323412,,,,,,
42340,0.000709,-0.01672,-0.011837,0.0,-0.001064,-1e-06,0.0,-0.0,-0.0,3.0,0.3261,0.328846,0.3261,0.323323,,,,,,
42360,0.000709,-0.016598,-0.011837,1.8e-05,1e-06,-0.001064,0.0,-0.0,-0.0,3.0,0.3261,0.32886,0.3261,0.323308,,,,,,
42380,0.000708,-0.016598,-0.011715,1.8e-05,1e-06,-0.001064,0.0,-0.0,-0.0,3.0,0.3261,0.32441,0.3261,0.327779,,,,,,
42400,0.000708,-0.016476,-0.011837,1.8e-05,1e-06,-0.001064,0.0,-0.0,-0.0,3.0,0.3261,0.324425,0.3261,0.327764,,,,,,
42420,0.000586,-0.016477,-0.011838,-0.001047,1e-06,-0.001064,0.0,-0.0,-0.0,3.0,0.3261,0.324326,0.3261,0.327861,,,,,,
42440,0.000708,-0.016476,-0.011837,-0.001047,1e-06,-0.001064,0.0,-0.0,-0.0,3.0,0.3261,0.324377,0.3261,0.327811,,,,,,
42460,0.000831,-0.016719,-0.011836,-0.001046,-0.001063,-0.001065,0.0,-0.0,-0.0,3.0,0.3261,0.324505,0.3261,0.327685,,,,,,
42480,0.000831,-0.016719,-0.011836,-0.001064,-0.001064,-1e-06,0.0,-0.0,-0.0,3.0,0.3261,0.328978,0.3261,0.323188,,,,,,
42500,0.000709,-0.01672,-0.011837,-0.001064,-0.001064,-1e-06,0.0,-0.0,-0.0,3.0,0.3261,0.328954,0.3261,0.323212,,,,,,
42520,0.000587,-0.016721,-0.011838,0.0,-0.001064,-1e-06,0.0,-0.0,-0.0,3.0,0.3261,0.328856,0.3261,0.323313,,,,,,
42540,0.000709,-0.016598,-0.011837,1.8e-05,1e-06,-0.001064,0.0,-0.0,-0.0,3.0,0.3261,0.328979,0.3261,0.323186,,,,,,
42560,0.000585,-0.016477,-0.011716,1.8e-05,0.001065,-0.001064,0.0,-0.0,-0.0,3.0,0.3261,0.324343,0.3261,0.327844,,,,,,
42580,0.000708,-0.016476,-0.011837,1.8e-05,1e-06,-0.001064,0.0,-0.0,-0.0,3.0,0.3261,0.324472,0.3261,0.327718,,,,,,
42600,0.00083,-0.016475,-0.011836,-0.001047,1e-06,-0.001064,0.0,-0.0,-0.0,3.0,0.3261,0.324601,0.3261,0.32759,,,,,,
42620,0.000831,-0.016597,-0.011836,-0.001064,-0.001064,-1e-06,0.0,-0.0,-0.0,3.0,0.3261,0.324617,0.3261,0.327574,,,,,,
42640,0.001075,-0.016596,-0.011834,-0.001064,-0.001064,-1e-06,0.0,-0.0,-0.0,3.0,0.3261,0.329313,0.3261,0.322844,,,,,,
42660,0.000953,-0.016597,-0.011835,-0.001064,-0.001064,-1e-06,0.0,-0.0,-0.0,3.0,0.3261,0.329218,0.3261,0.322941,,,,,,
42680,0.000831,-0.016597,-0.011836,0.0,-0.001064,-1e-06,0.0,-0.0,-0.0,3.0,0.3261,0.329194,0.3261,0.322966,,,,,,
42700,0.000587,-0.016599,-0.011838,0.0,-0.001064,-1e-06,0.0,-0.0,-0.0,3.0,0.3261,0.328989,0.3261,0.323177,,,,,,
42720,0.000464,-0.016477,-0.011839,1.8e-05,0.0,-0.001064,0.0,-0.0,-0.0,3.0,0.3261,0.324429,0.3261,0.32776,,,,,,
42740,0.000586,-0.016477,-0.011838,1.8e-05,1e-06,-0.001064,0.0,-0.0,-0.0,3.0,0.3261,0.32448,0.3261,0.327709,,,,,,
42760,0.00083,-0.016475,-0.011836,1.8e-05,1e-06,-0.001064,0.0,-0.0,-0.0,3.0,0.3261,0.32472,0.3261,0.327472,,,,,,
42780,0.00083,-0.016475,-0.011836,-0.001064,0.0,0.0,0.0,-0.0,-0.0,3.0,0.3261,0.324734,0.3261,0.327458,,,,,,
42800,0.001075,-0.016596,-0.011834,-0.001064,-0.001064,-1e-06,0.0,-0.0,-0.0,3.0,0.3261,0.329429,0.3261,0.322724,,,,,,
42820,0.001076,-0.016718,-0.011834,-0.001064,-0.001064,-1e-06,0.0,-0.0,-0.0,3.0,0.3261,0.329447,0.3261,0.322706,,,,,,
42840,0.000953,-0.016719,-0.011835,0.0,-0.001064,-1e-06,0.0,-0.0,-0.0,3.0,0.3261,0.329426,0.3261,0.322728,,,,,,
42860,0.000587,-0.016599,-0.011838,0.0,-0.001064,-1e-06,0.0,-0.0,-0.0,3.0,0.3261,0.329108,0.3261,0.323054,,,,,,
42880,0.000342,-0.0166,-0.01184,1.8e-05,0.0,-0.001064,0.0,-0.0,-0.0,3.0,0.3261,0.324437,0.3261,0.327752,,,,,,
42900,0.000341,-0.016356,-0.01184,1.7e-05,0.001065,-0.001064,0.0,-0.0,-0.0,3.0,0.3261,0.324373,0.3261,0.327815,,,,,,
42920,0.000586,-0.016477,-0.011838,1.8e-05,1e-06,-0.001064,0.0,-0.0,-0.0,3.0,0.3261,0.324796,0.3261,0.327397,,,,,,
42940,0.00083,-0.016475,-0.011836,-0.001047,1e-06,-0.001064,0.0,-0.0,-0.0,3.0,0.3261,0.324925,0.3261,0.32727,,,,,,
42960,0.001076,-0.016718,-0.011834,-0.001064,-0.001064,-1e-06,0.0,-0.0,-0.0,3.0,0.3261,0.329616,0.3261,0.322532,,,,,,
42980,0.00132,-0.016839,-0.011832,-0.001046,-0.001063,-0.001066,0.0,-0.0,-0.0,3.0,0.3261,0.329782,0.3261,0.322361,,,,,,
43000,0.001076,-0.016718,-0.011834,-0.001046,-0.001063,-0.001066,0.0,-0.0,-0.0,3.0,0.3261,0.329578,0.3261,0.322572,,,,,,
43020,0.000709,-0.01672,-0.011837,0.0,-0.001064,-1e-06,0.0,-0.0,-0.0,3.0,0.3261,0.324763,0.3261,0.32743,,,,,,
43040,0.000342,-0.0166,-0.01184,0.0,0.0,0.0,0.0,-0.0,-0.0,3.0,0.3261,0.329016,0.3261,0.323148,,,,,,
43060,0.000342,-0.016478,-0.01184,0.0,0.0,0.0,0.0,-0.0,-0.0,3.0,0.3261,0.324568,0.3261,0.327623,,,,,,
43080,0.000463,-0.016477,-0.011717,1.8e-05,0.001065,-0.001064,0.0,-0.0,-0.0,3.0,0.3261,0.324917,0.3261,0.327278,,,,,,
43100,0.000831,-0.016597,-0.011836,-0.001047,1e-06,-0.001064,0.0,-0.0,-0.0,3.0,0.3261,0.329603,0.3261,0.322546,,,,,,
43120,0.000953,-0.016719,-0.011835,-0.001064,-0.001064,-1e-06,0.0,-0.0,-0.0,3.0,0.3261,0.329655,0.3261,0.322492,,,,,,
43140,0.001076,-0.01684,-0.011834,-0.001046,-0.001063,-0.001066,0.0,-0.0,-0.0,3.0,0.3261,0.32975,0.3261,0.322394,,,,,,
43160,0.000954,-0.016841,-0.011835,-0.001046,-0.001063,-0.001065,0.0,-0.0,-0.0,3.0,0.3261,0.329581,0.3261,0.322568,,,,,,
43180,0.000831,-0.016719,-0.011836,1.8e-05,-0.001063,-0.001065,0.0,-0.0,-0.0,3.0,0.3261,0.329485,0.3261,0.322667,,,,,,
43200,0.000588,-0.016843,-0.011838,0.0,-0.001064,-1e-06,0.0,-0.0,-0.0,3.0,0.3261,0.329278,0.3261,0.32288,,,,,,
43220,0.000465,-0.016722,-0.011839,0.0,0.0,0.0,0.0,-0.0,-0.0,3.0,0.3261,0.329252,0.3261,0.322907,,,,,,
43240,0.000342,-0.016722,-0.011718,0.0,0.0,0.0,0.0,-0.0,-0.0,3.0,0.3261,0.329152,0.3261,0.32301,,,,,,
43260,0.000708,-0.016598,-0.011715,1.8e-05,0.001065,-0.001064,0.0,-0.0,-0.0,3.0,0.3261,0.325041,0.3261,0.327155,,,,,,
43280,0.000952,-0.016719,-0.011713,1.8e-05,1e-06,-0.001064,0.0,-0.0,-0.0,3.0,0.3261,0.329544,0.3261,0.322606,,,,,,
43300,0.00083,-0.016597,-0.011714,-0.001047,1e-06,-0.001064,0.0,-0.0,-0.0,3.0,0.3261,0.32956,0.3261,0.322589,,,,,,
43320,0.000708,-0.01672,-0.011715,-0.001046,-0.001063,-0.001065,0.0,-0.0,-0.0,3.0,0.3261,0.325015,0.3261,0.327181,,,,,,
43340,0.000587,-0.016721,-0.011838,-0.001046,-0.001064,-0.001065,0.0,-0.0,-0.0,3.0,0.3261,0.324916,0.3261,0.327279,,,,,,
43360,0.00071,-0.016842,-0.011837,-0.001064,-0.002128,-2e-06,0.0,-0.0,-0.0,3.0,0.3261,0.32504,0.3261,0.327156,,,,,,
43380,0.000711,-0.016964,-0.011837,0.0,-0.001064,-1e-06,0.0,-0.0,-0.0,3.0,0.3261,0.329503,0.3261,0.322649,,,,,,
43400,0.00071,-0.016842,-0.011837,0.0,0.0,0.0,0.0,-0.0,-0.0,3.0,0.3261,0.329588,0.3261,0.322561,,,,,,
43420,0.000831,-0.016841,-0.011714,0.0,0.0,0.0,0.0,-0.0,-0.0,3.0,0.3261,0.329708,0.3261,0.322437,,,,,,
43440,0.000952,-0.016597,-0.011713,1.8e-05,0.001065,-0.001063,0.0,-0.0,-0.0,3.0,0.3261,0.329841,0.3261,0.3223,,,,,,
43460,0.000951,-0.016475,-0.011713,1.8e-05,1e-06,-0.001064,0.0,-0.0,-0.0,3.0,0.3261,0.325415,0.3261,0.326783,,,,,,
43480,0.000708,-0.016476,-0.011837,-0.001047,1e-06,-0.001064,0.0,-0.0,-0.0,3.0,0.3261,0.32521,0.3261,0.326987,,,,,,
43500,0.000587,-0.016721,-0.011838,-0.001046,-0.001064,-0.001065,0.0,-0.0,-0.0,3.0,0.3261,0.325259,0.3261,0.326938,,,,,,
43520,0.000589,-0.016965,-0.011838,-0.001046,-0.001064,-0.001065,0.0,-0.0,-0.0,3.0,0.3261,0.325234,0.3261,0.326963,,,,,,
43540,0.000834,-0.017086,-0.011836,-0.001064,-0.002128,-2e-06,0.0,-0.0,-0.0,3.0,0.3261,0.329693,0.3261,0.322453,,,,,,
43560,0.000956,-0.017085,-0.011835,-0.001082,-0.002129,0.001062,0.0,-0.0,-0.0,3.0,0.3261,0.329594,0.3261,0.322555,,,,,,
43580,0.000953,-0.016841,-0.011713,0.0,0.0,0.0,0.0,-0.0,-0.0,3.0,0.3261,0.32983,0.3261,0.322311,,,,,,
43600,0.00083,-0.016719,-0.011714,1.8e-05,0.001065,-0.001063,0.0,-0.0,-0.0,3.0,0.3261,0.325519,0.3261,0.32668,,,,,,
43620,0.000952,-0.016597,-0.011713,1.8e-05,0.001065,-0.001063,0.0,-0.0,-0.0,3.0,0.3261,0.325464,0.3261,0.326734,,,,,,
43640,0.000709,-0.016598,-0.011837,1.8e-05,0.001065,-0.001064,0.0,-0.0,-0.0,3.0,0.3261,0.325264,0.3261,0.326933,,,,,,
43660,0.000709,-0.01672,-0.011837,0.0,0.0,0.0,0.0,-0.0,-0.0,3.0,0.3261,0.325281,0.3261,0.326917,,,,,,
43680,0.000711,-0.016964,-0.011837,-0.001064,-0.001064,-1e-06,0.0,-0.0,-0.0,3.0,0.3261,0.325297,0.3261,0.326901,,,,,,
43700,0.000956,-0.017207,-0.011835,-0.001064,-0.002128,-2e-06,0.0,-0.0,-0.0,3.0,0.3261,0.329939,0.3261,0.3222,,,,,,
43720,0.000956,-0.017207,-0.011835,-0.001064,-0.002128,-2e-06,0.0,-0.0,-0.0,3.0,0.3261,0.330067,0.3261,0.322067,,,,,,
43740,0.001077,-0.017084,-0.011712,0.0,-0.002128,-2e-06,0.0,-0.0,-0.0,3.0,0.3261,0.329743,0.3261,0.322401,,,,,,
43760,0.000831,-0.016841,-0.011714,1.8e-05,1e-06,-0.001064,0.0,-0.0,-0.0,3.0,0.3261,0.329985,0.3261,0.322151,,,,,,
43780,0.000708,-0.01672,-0.011715,-0.001046,0.001065,-0.001064,0.0,-0.0,-0.0,3.0,0.3261,0.325596,0.3261,0.326604,,,,,,
43800,0.000708,-0.01672,-0.011715,1.8e-05,0.002129,-0.001063,0.0,-0.0,-0.0,3.0,0.3261,0.325467,0.3261,0.326732,,,,,,
43820,0.00071,-0.016842,-0.011837,1.8e-05,0.001065,-0.001064,0.0,-0.0,-0.0,3.0,0.3261,0.325406,0.3261,0.326793,,,,,,
43840,0.000833,-0.016963,-0.011836,-0.001046,-0.001063,-0.001065,0.0,-0.0,-0.0,3.0,0.3261,0.325533,0.3261,0.326666,,,,,,
43860,0.000712,-0.017086,-0.011837,-0.001064,-0.002128,-2e-06,0.0,-0.0,-0.0,3.0,0.3261,0.330062,0.3261,0.322072,,,,,,
43880,0.000956,-0.017207,-0.011835,-0.001064,-0.002128,-2e-06,0.0,-0.0,-0.0,3.0,0.3261,0.329961,0.3261,0.322177,,,,,,
43900,0.000956,-0.017207,-0.011835,0.0,-0.002128,-2e-06,0.0,-0.0,-0.0,3.0,0.3261,0.330201,0.3261,0.321928,,,,,,
43920,0.00071,-0.016964,-0.011715,1.8e-05,1e-06,-0.001064,0.0,-0.0,-0.0,3.0,0.3261,0.325433,0.3261,0.326765,,,,,,
43940,0.000343,-0.016844,-0.011718,-0.001046,0.001065,-0.001064,0.0,-0.0,-0.0,3.0,0.3261,0.325561,0.3261,0.326638,,,,,,
43960,0.000464,-0.016722,-0.011717,-0.001046,0.001065,-0.001064,0.0,-0.0,-0.0,3.0,0.3261,0.325351,0.3261,0.326847,,,,,,
43980,0.000464,-0.016722,-0.011717,1.8e-05,0.001065,-0.001064,0.0,-0.0,-0.0,3.0,0.3261,0.329842,0.3261,0.3223,,,,,,
44000,0.000709,-0.016842,-0.011715,0.0,-0.001064,-1e-06,0.0,-0.0,-0.0,3.0,0.3261,0.329851,0.3261,0.32229,,,,,,
44020,0.000831,-0.016841,-0.011714,1.8e-05,-0.002128,-0.001066,0.0,-0.0,-0.0,3.0,0.3261,0.329974,0.3261,0.322163,,,,,,
44040,0.000834,-0.017086,-0.011836,1.8e-05,-0.002128,-0.001066,0.0,-0.0,-0.0,3.0,0.3261,0.330102,0.3261,0.32203,,,,,,
44060,0.000956,-0.017085,-0.011835,0.0,-0.002128,-2e-06,0.0,-0.0,-0.0,3.0,0.3261,0.325747,0.3261,0.326453,,,,,,
44080,0.000832,-0.016964,-0.011714,-0.001064,-0.001064,-1e-06,0.0,-0.0,-0.0,3.0,0.3261,0.325652,0.3261,0.326547,,,,,,
44100,0.000709,-0.016842,-0.011715,-0.001064,0.0,0.0,0.0,-0.0,-0.0,3.0,0.3261,0.325671,0.3261,0.326529,,,,,,
44120,0.000586,-0.016721,-0.011716,-0.001046,0.001065,-0.001064,0.0,-0.0,-0.0,3.0,0.3261,0.33001,0.3261,0.322125,,,,,,
44140,0.000464,-0.016722,-0.011717,-0.001064,0.001064,0.0,0.0,-0.0,-0.0,3.0,0.3261,0.330022,0.3261,0.322113,,,,,,
44160,0.000586,-0.016599,-0.011716,0.0,0.0,0.0,0.0,-0.0,-0.0,3.0,0.3261,0.330069,0.3261,0.322065,,,,,,
44180,0.000953,-0.016719,-0.011835,1.8e-05,-0.001063,-0.001065,0.0,-0.0,-0.0,3.0,0.3261,0.330194,0.3261,0.321936,,,,,,
44200,0.000953,-0.016719,-0.011835,1.8e-05,-0.002127,-0.001066,0.0,-0.0,-0.0,3.0,0.3261,0.325885,0.3261,0.326315,,,,,,
44220,0.000955,-0.016963,-0.011835,0.0,-0.002128,-2e-06,0.0,-0.0,-0.0,3.0,0.3261,0.326017,0.3261,0.326184,,,,,,
44240,0.000834,-0.017086,-0.011836,-0.001064,-0.002128,-2e-06,0.0,-0.0,-0.0,3.0,0.3261,0.326036,0.3261,0.326165,,,,,,
44260,0.000833,-0.016963,-0.011836,-0.001064,-0.001064,-1e-06,0.0,-0.0,-0.0,3.0,0.3261,0.325788,0.3261,0.326412,,,,,,
44280,0.000711,-0.016964,-0.011837,-0.001064,0.0,0.0,0.0,-0.0,-0.0,3.0,0.3261,0.330017,0.3261,0.322118,,,,,,
44300,0.000465,-0.016722,-0.011839,-0.001064,0.001064,0.0,0.0,-0.0,-0.0,3.0,0.3261,0.330028,0.3261,0.322107,,,,,,
44320,0.000465,-0.016722,-0.011839,-0.0,0.001064,0.0,0.0,-0.0,-0.0,3.0,0.3261,0.329963,0.3261,0.322174,,,,,,
44340,0.000709,-0.016598,-0.011837,1.8e-05,0.001065,-0.001064,0.0,-0.0,-0.0,3.0,0.3261,0.330086,0.3261,0.322047,,,,,,
44360,0.000831,-0.016719,-0.011836,1.8e-05,1e-06,-0.001064,0.0,-0.0,-0.0,3.0,0.3261,0.325774,0.3261,0.326426,,,,,,
44380,0.00071,-0.01672,-0.011959,1.8e-05,-0.002128,-0.001066,0.0,-0.0,-0.0,3.0,0.3261,0.326015,0.3261,0.326185,,,,,,
44400,0.000589,-0.016843,-0.01196,-0.001064,-0.002128,-1e-06,0.0,-0.0,-0.0,3.0,0.3261,0.321398,0.3261,0.330713,,,,,,
44420,0.00059,-0.017087,-0.01196,-0.001064,-0.002128,-1e-06,0.0,-0.0,-0.0,3.0,0.3261,0.325777,0.3261,0.326423,,,,,,
44440,0.000468,-0.016966,-0.011961,-0.001064,-0.001064,-0.0,0.0,-0.0,-0.0,3.0,0.3261,0.330001,0.3261,0.322135,,,,,,
44460,0.000468,-0.016966,-0.011961,-0.001064,0.0,0.0,0.0,-0.0,-0.0,3.0,0.3261,0.329898,0.3261,0.322242,,,,,,
44480,0.000465,-0.016722,-0.011839,-0.001046,0.001065,-0.001064,0.0,-0.0,-0.0,3.0,0.3261,0.334304,0.3261,0.317606,,,,,,
44500,0.000464,-0.016599,-0.011839,1.8e-05,0.001065,-0.001064,0.0,-0.0,-0.0,3.0,0.3261,0.330061,0.3261,0.322073,,,,,,
44520,0.000464,-0.016599,-0.011839,1.8e-05,0.0,-0.001064,0.0,-0.0,-0.0,3.0,0.3261,0.325746,0.3261,0.326454,,,,,,
44540,0.000587,-0.016599,-0.011838,1.8e-05,-0.001064,-0.001065,0.0,-0.0,-0.0,3.0,0.3261,0.321351,0.3261,0.330757,,,,,,
44560,0.000589,-0.016965,-0.011838,0.0,-0.002128,-1e-06,0.0,-0.0,-0.0,3.0,0.3261,0.321442,0.3261,0.33067,,,,,,
44580,0.000467,-0.017088,-0.011839,-0.001064,-0.002128,-1e-06,0.0,-0.0,-0.0,3.0,0.3261,0.325854,0.3261,0.326346,,,,,,
44600,0.000345,-0.017211,-0.011718,-0.002128,-0.002128,-1e-06,0.0,-0.0,-0.0,3.0,0.3261,0.330297,0.3261,0.321829,,,,,,
44620,0.000467,-0.01721,-0.011717,-0.001064,-0.001064,-0.0,0.0,-0.0,-0.0,3.0,0.3261,0.329969,0.3261,0.322168,,,,,,
44640,0.000588,-0.017087,-0.011716,-0.001046,1e-06,-0.001064,0.087266,-0.0,-0.0,3.0,0.3261,0.23645,0.3261,0.390411,,,,,,
44660,0.000466,-0.016844,-0.011839,1.8e-05,0.001065,-0.001064,0.087266,-0.0,-0.0,3.0,0.3261,0.226244,0.3261,0.395246,,,,,,
44680,0.001196,-0.016717,-0.011589,0.004292,0.001067,-0.002127,0.087266,-0.0,-0.0,3.0,0.3261,0.232206,0.3261,0.392472,,,,,,
44700,0.003758,-0.016703,-0.011446,0.009596,0.001068,-0.00106,0.087266,-0.0,-0.0,3.0,0.3261,0.259789,0.3261,0.377713,,,,,,
44720,0.008644,-0.017041,-0.011527,0.013835,0.0,0.0,0.087266,-0.0,-0.0,3.0,0.3261,0.290975,0.3261,0.356707,,,,,,
44740,0.01634,-0.017359,-0.011823,0.018074,-0.001081,0.001047,0.087266,-0.0,-0.0,3.0,0.3261,0.325185,0.3261,0.327012,,,,,,
44760,0.026114,-0.017534,-0.012467,0.022312,-0.001119,0.0021,0.087266,-0.0,-0.0,3.0,0.3261,0.353053,0.3261,0.295713,,,,,,
44780,0.037842,-0.017683,-0.013333,0.025505,-0.001144,0.002087,0.087266,-0.0,-0.0,3.0,0.3261,0.372414,0.3261,0.268387,,,,,,
44800,0.050431,-0.017812,-0.014312,0.026568,-0.000107,0.002126,0.087266,-0.0,-0.0,3.0,0.3261,0.388141,0.3261,0.240957,,,,,,
44820,0.063143,-0.017924,-0.015285,0.026566,0.000928,0.002192,0.087266,-0.0,-0.0,3.0,0.3261,0.39695,0.3261,0.222427,,,,,,
44840,0.075119,-0.017915,-0.016019,0.024455,0.002043,0.001221,0.087266,-0.0,-0.0,3.0,0.3261,0.39883,0.3261,0.218062,,,,,,
44860,0.086002,-0.01816,-0.01651,0.020199,0.000969,0.001152,0.087266,-0.0,-0.0,3.0,0.3261,0.393159,0.3261,0.230757,,,,,,
44880,0.095051,-0.018542,-0.016885,0.013835,0.0,0.0,0.087266,-0.0,-0.0,3.0,0.3261,0.382075,0.3261,0.25225,,,,,,
44900,0.10105,-0.018955,-0.017167,0.00745,0.0,0.0,0.087266,-0.0,-0.0,3.0,0.3261,0.368671,0.3261,0.274136,,,,,,
44920,0.103985,-0.019036,-0.017373,0.001066,-0.001058,-0.00011,0.087266,-0.0,-0.0,3.0,0.3261,0.348337,0.3261,0.301582,,,,,,
44940,0.104476,-0.019012,-0.017733,-0.003191,-0.001058,-0.000111,0.087266,-0.0,-0.0,3.0,0.3261,0.332606,0.3261,0.319413,,,,,,
44960,0.102894,-0.01901,-0.018118,-0.006383,-0.001059,-0.000109,0.087266,-0.0,-0.0,3.0,0.3261,0.30904,0.3261,0.342026,,,,,,
44980,0.100087,-0.018898,-0.01852,-0.00745,0.0,0.0,0.087266,-0.0,-0.0,3.0,0.3261,0.296758,0.3261,0.352229,,,,,,
45000,0.096908,-0.018656,-0.019172,-0.006405,-0.000103,0.001059,0.087266,-0.0,-0.0,3.0,0.3261,0.293657,0.3261,0.354655,,,,,,
45020,0.094224,-0.018534,-0.019815,-0.005341,-0.0001,0.00106,0.087266,-0.0,-0.0,3.0,0.3261,0.295943,0.3261,0.352872,,,,,,
45040,0.092403,-0.01877,-0.020435,-0.002148,-9.8e-05,0.00106,0.087266,-0.0,-0.0,3.0,0.3261,0.304323,0.3261,0.346061,,,,,,
45060,0.091922,-0.018869,-0.021045,0.001046,-0.001157,0.000962,0.087266,-0.0,-0.0,3.0,0.3261,0.313334,0.3261,0.338221,,,,,,
45080,0.092906,-0.019068,-0.021754,0.005305,-0.002218,0.000862,0.087266,-0.0,-0.0,3.0,0.3261,0.327557,0.3261,0.324635,,,,,,
45100,0.095237,-0.019255,-0.022328,0.006369,-0.00222,0.000857,0.087266,-0.0,-0.0,3.0,0.3261,0.34246,0.3261,0.308542,,,,,,
45120,0.098423,-0.019418,-0.023134,0.007431,-0.001164,0.000955,0.087266,-0.0,-0.0,3.0,0.3261,0.353496,0.3261,0.295148,,,,,,
45140,0.102221,-0.019333,-0.023826,0.007429,-0.000109,0.001059,0.087266,-0.0,-0.0,3.0,0.3261,0.364449,0.3261,0.280329,,,,,,
45160,0.106266,-0.019357,-0.02463,0.006363,0.000945,0.001171,0.087266,-0.0,-0.0,3.0,0.3261,0.367601,0.3261,0.275733,,,,,,
45180,0.109816,-0.019513,-0.025306,0.005298,0.000941,0.001175,0.087266,-0.0,-0.0,3.0,0.3261,0.370701,0.3261,0.271051,,,,,,
45200,0.112396,-0.019566,-0.025883,0.00317,0.000938,0.001177,0.087266,-0.0,-0.0,3.0,0.3261,0.365862,0.3261,0.278289,,,,,,
45220,0.113996,-0.019752,-0.026462,0.002108,-0.000121,0.001058,0.087266,-0.0,-0.0,3.0,0.3261,0.352145,0.3261,0.296864,,,,,,
45240,0.114492,-0.019954,-0.027051,-0.001064,0.0,0.0,0.087266,-0.0,-0.0,3.0,0.3261,0.345056,0.3261,0.305514,,,,,,
45260,0.114011,-0.020055,-0.027538,-0.002128,0.0,0.0,0.087266,-0.0,-0.0,3.0,0.3261,0.337015,0.3261,0.314665,,,,,,
45280,0.112667,-0.020054,-0.027917,-0.004255,-0.001057,-0.00012,0.087266,-0.0,-0.0,3.0,0.3261,0.32772,0.3261,0.32447,,,,,,
45300,0.110956,-0.019938,-0.028308,-0.005316,-0.002115,-0.000236,0.087266,-0.0,-0.0,3.0,0.3261,0.326717,0.3261,0.325482,,,,,,
45320,0.109133,-0.020069,-0.028693,-0.005338,-0.002232,0.000826,0.087266,-0.0,-0.0,3.0,0.3261,0.329809,0.3261,0.322333,,,,,,
45340,0.107423,-0.019947,-0.029206,-0.004276,-0.001172,0.000944,0.087266,-0.0,-0.0,3.0,0.3261,0.328551,0.3261,0.323624,,,,,,
45360,0.106199,-0.019824,-0.029589,-0.003214,-0.000113,0.001058,0.087266,-0.0,-0.0,3.0,0.3261,0.332088,0.3261,0.319959,,,,,,
45380,0.105469,-0.019695,-0.029972,-0.001066,0.001058,0.000112,0.087266,-0.0,-0.0,3.0,0.3261,0.335924,0.3261,0.315857,,,,,,
45400,0.105231,-0.019802,-0.030334,0.001062,0.001058,0.000112,0.087266,-0.0,-0.0,3.0,0.3261,0.340236,0.3261,0.311079,,,,,,
45420,0.105725,-0.020018,-0.03068,0.002128,0.0,0.0,0.087266,-0.0,-0.0,3.0,0.3261,0.341093,0.3261,0.310107,,,,,,
45440,0.106835,-0.020096,-0.031151,0.002131,-0.001058,-0.000114,0.087266,-0.0,-0.0,3.0,0.3261,0.342277,0.3261,0.308752,,,,,,
45460,0.107939,-0.020301,-0.031488,0.001047,-0.002231,0.000829,0.087266,-0.0,-0.0,3.0,0.3261,0.347612,0.3261,0.302462,,,,,,
45480,0.108682,-0.020391,-0.031842,2e-06,-0.001058,-0.000115,0.087266,-0.0,-0.0,3.0,0.3261,0.352932,0.3261,0.295867,,,,,,
45500,0.109419,-0.02048,-0.03219,-0.001084,-0.001174,0.000942,0.087266,-0.0,-0.0,3.0,0.3261,0.349562,0.3261,0.300083,,,,,,
45520,0.109541,-0.020342,-0.032439,-0.001064,0.0,0.0,0.087266,-0.0,-0.0,3.0,0.3261,0.345854,0.3261,0.304569,,,,,,
45540,0.109176,-0.020342,-0.032566,-0.001064,0.0,0.0,0.087266,-0.0,-0.0,3.0,0.3261,0.341993,0.3261,0.309079,,,,,,
45560,0.108567,-0.020218,-0.032825,-0.001064,0.0,0.0,0.087266,-0.0,-0.0,3.0,0.3261,0.337951,0.3261,0.313634,,,,,,
45580,0.107838,-0.020218,-0.033079,-0.001043,0.000115,-0.001058,0.087266,-0.0,-0.0,3.0,0.3261,0.333649,0.3261,0.318306,,,,,,
45600,0.107225,-0.020215,-0.033326,-0.001067,0.001058,0.000114,0.087266,-0.0,-0.0,3.0,0.3261,0.333579,0.3261,0.318381,,,,,,
45620,0.10698,-0.020091,-0.033458,-0.001064,0.0,0.0,0.087266,-0.0,-0.0,3.0,0.3261,0.337808,0.3261,0.313792,,,,,,
45640,0.106618,-0.020213,-0.033579,-0.002126,-0.001058,-0.000113,0.087266,-0.0,-0.0,3.0,0.3261,0.341962,0.3261,0.309114,,,,,,
45660,0.10626,-0.020573,-0.033808,-0.002124,-0.002116,-0.000226,0.087266,-0.0,-0.0,3.0,0.3261,0.34188,0.3261,0.309209,,,,,,
45680,0.106263,-0.020688,-0.033924,-0.001062,-0.001058,-0.000113,0.087266,-0.0,-0.0,3.0,0.3261,0.346066,0.3261,0.304316,,,,,,
45700,0.106143,-0.020684,-0.034047,0.0,0.0,0.0,0.087266,-0.0,-0.0,3.0,0.3261,0.346297,0.3261,0.304042,,,,,,
45720,0.106021,-0.020551,-0.034299,-2e-06,0.001058,0.000113,0.087266,-0.0,-0.0,3.0,0.3261,0.342709,0.3261,0.308254,,,,,,
45740,0.106017,-0.020173,-0.034562,1.9e-05,0.001171,-0.000946,0.087266,-0.0,-0.0,3.0,0.3261,0.343088,0.3261,0.307816,,,,,,
45760,0.10602,-0.020288,-0.034678,0.0,0.0,0.0,0.087266,-0.0,-0.0,3.0,0.3261,0.343822,0.3261,0.306962,,,,,,
45780,0.106145,-0.020273,-0.03492,-0.001062,-0.001058,-0.000113,0.087266,-0.0,-0.0,3.0,0.3261,0.344154,0.3261,0.306575,,,,,,
45800,0.105904,-0.020393,-0.035039,-0.002126,-0.001058,-0.000113,0.087266,-0.0,-0.0,3.0,0.3261,0.344171,0.3261,0.306554,,,,,,
45820,0.105418,-0.020396,-0.035168,-0.002126,-0.001058,-0.000112,0.087266,-0.0,-0.0,3.0,0.3261,0.344061,0.3261,0.306683,,,,,,
45840,0.104935,-0.020642,-0.035284,-0.002126,-0.001058,-0.000111,0.087266,-0.0,-0.0,3.0,0.3261,0.343675,0.3261,0.307133,,,,,,
45860,0.104319,-0.020525,-0.035415,-0.00104,-0.000948,-0.00117,0.087266,-0.0,-0.0,3.0,0.3261,0.34346,0.3261,0.307384,,,,,,
45880,0.10371,-0.02053,-0.035546,-0.001062,-0.001059,-0.00011,0.087266,-0.0,-0.0,3.0,0.3261,0.343344,0.3261,0.307519,,,,,,
45900,0.103222,-0.020412,-0.035681,-0.001064,0.0,0.0,0.087266,-0.0,-0.0,3.0,0.3261,0.343229,0.3261,0.307652,,,,,,
45920,0.102855,-0.020291,-0.035815,-0.001066,0.001059,0.000109,0.087266,-0.0,-0.0,3.0,0.3261,0.343398,0.3261,0.307456,,,,,,
45940,0.102609,-0.020173,-0.035825,0.0,0.0,0.0,0.087266,-0.0,-0.0,3.0,0.3261,0.34349,0.3261,0.307349,,,,,,
45960,0.102487,-0.020176,-0.035827,2.4e-05,-0.00095,-0.001168,0.087266,-0.0,-0.0,3.0,0.3261,0.343445,0.3261,0.307402,,,,,,
45980,0.102369,-0.020294,-0.035944,4e-06,-0.002117,-0.000218,0.087266,-0.0,-0.0,3.0,0.3261,0.343603,0.3261,0.307218,,,,,,
46000,0.102368,-0.0203,-0.035822,2.6e-05,-0.002009,-0.001276,0.087266,-0.0,-0.0,3.0,0.3261,0.347892,0.3261,0.302123,,,,,,
46020,0.102126,-0.020427,-0.03582,-0.00104,-0.00095,-0.001167,0.087266,-0.0,-0.0,3.0,0.3261,0.348238,0.3261,0.301704,,,,,,
46040,0.102126,-0.020427,-0.03582,-0.00104,-0.00095,-0.001167,0.087266,-0.0,-0.0,3.0,0.3261,0.348425,0.3261,0.301476,,,,,,
46060,0.102125,-0.020433,-0.035698,-0.00104,-0.00095,-0.001167,0.087266,-0.0,-0.0,3.0,0.3261,0.348452,0.3261,0.301442,,,,,,
46080,0.101872,-0.020321,-0.035579,-0.001062,-0.001059,-0.000108,0.087266,-0.0,-0.0,3.0,0.3261,0.348606,0.3261,0.301255,,,,,,
46100,0.101622,-0.020088,-0.035473,-0.001043,0.000108,-0.001059,0.087266,-0.0,-0.0,3.0,0.3261,0.344643,0.3261,0.306,,,,,,
46120,0.101497,-0.019975,-0.035359,-0.001043,0.000108,-0.001059,0.087266,-0.0,-0.0,3.0,0.3261,0.344898,0.3261,0.305701,,,,,,
46140,0.101248,-0.019876,-0.035003,-0.001043,0.000108,-0.001059,0.087266,-0.0,-0.0,3.0,0.3261,0.340655,0.3261,0.310605,,,,,,
46160,0.10076,-0.02002,-0.034761,-0.001022,0.000214,-0.002118,0.087266,-0.0,-0.0,3.0,0.3261,0.340688,0.3261,0.310567,,,,,,
46180,0.100396,-0.020155,-0.034638,-0.002103,-0.002011,-0.001272,0.087266,-0.0,-0.0,3.0,0.3261,0.340638,0.3261,0.310624,,,,,,
46200,0.100144,-0.020299,-0.034264,-0.002105,-0.000952,-0.001166,0.087266,-0.0,-0.0,3.0,0.3261,0.344823,0.3261,0.305789,,,,,,
46220,0.099897,-0.020322,-0.033902,-0.003169,-0.000953,-0.001165,0.087266,-0.0,-0.0,3.0,0.3261,0.344603,0.3261,0.306048,,,,,,
46240,0.09928,-0.020107,-0.033557,-0.002105,-0.000954,-0.001165,0.087266,-0.0,-0.0,3.0,0.3261,0.344318,0.3261,0.306382,,,,,,
46260,0.098789,-0.020134,-0.033198,-0.002105,-0.000954,-0.001164,0.087266,-0.0,-0.0,3.0,0.3261,0.344094,0.3261,0.306645,,,,,,
46280,0.098289,-0.020044,-0.032718,-0.001041,-0.000955,-0.001164,0.087266,-0.0,-0.0,3.0,0.3261,0.343787,0.3261,0.307003,,,,,,
46300,0.097797,-0.020077,-0.032237,4.3e-05,0.000208,-0.002119,0.087266,-0.0,-0.0,3.0,0.3261,0.339574,0.3261,0.311824,,,,,,
46320,0.097672,-0.020097,-0.031873,4.3e-05,0.000208,-0.002119,0.087266,-0.0,-0.0,3.0,0.3261,0.339765,0.3261,0.31161,,,,,,
46340,0.097421,-0.020003,-0.031395,4.2e-05,0.000207,-0.002119,0.087266,-0.0,-0.0,3.0,0.3261,0.343947,0.3261,0.306816,,,,,,
46360,0.097419,-0.020149,-0.030901,-0.001019,-0.000852,-0.002222,0.087266,-0.0,-0.0,3.0,0.3261,0.344109,0.3261,0.306626,,,,,,
46380,0.097414,-0.020173,-0.030414,-0.002103,-0.002015,-0.001266,0.087266,-0.0,-0.0,3.0,0.3261,0.348278,0.3261,0.301655,,,,,,
46400,0.097289,-0.020321,-0.029922,-0.002103,-0.002015,-0.001266,0.087266,-0.0,-0.0,3.0,0.3261,0.348137,0.3261,0.301826,,,,,,
46420,0.09691,-0.020233,-0.029318,-0.001041,-0.000956,-0.001162,0.087266,-0.0,-0.0,3.0,0.3261,0.347893,0.3261,0.302122,,,,,,
46440,0.096413,-0.020027,-0.028727,4.2e-05,0.000205,-0.002119,0.087266,-0.0,-0.0,3.0,0.3261,0.343622,0.3261,0.307196,,,,,,
46460,0.096041,-0.019934,-0.02825,4e-05,0.001263,-0.002017,0.087266,-0.0,-0.0,3.0,0.3261,0.343602,0.3261,0.307219,,,,,,
46480,0.095671,-0.019963,-0.027767,4.2e-05,0.000203,-0.002119,0.087266,-0.0,-0.0,3.0,0.3261,0.339557,0.3261,0.311843,,,,,,
46500,0.095423,-0.020118,-0.027155,4.3e-05,0.000203,-0.002119,0.087266,-0.0,-0.0,3.0,0.3261,0.33949,0.3261,0.311919,,,,,,
46520,0.095418,-0.020142,-0.026667,-0.001022,0.000203,-0.002119,0.087266,-0.0,-0.0,3.0,0.3261,0.34371,0.3261,0.307093,,,,,,
46540,0.095163,-0.020173,-0.026056,-0.002105,-0.000958,-0.001161,0.087266,-0.0,-0.0,3.0,0.3261,0.343637,0.3261,0.307178,,,,,,
46560,0.094912,-0.020212,-0.025328,-0.002082,-0.001917,-0.002321,0.087266,-0.0,-0.0,3.0,0.3261,0.34344,0.3261,0.307407,,,,,,
46580,0.09454,-0.020118,-0.024851,-0.001018,-0.001918,-0.00232,0.087266,-0.0,-0.0,3.0,0.3261,0.34314,0.3261,0.307755,,,,,,
46600,0.094044,-0.01991,-0.024259,-0.00102,-0.00086,-0.002219,0.087266,-0.0,-0.0,3.0,0.3261,0.342848,0.3261,0.308093,,,,,,
46620,0.093549,-0.019823,-0.023661,-0.001024,0.001258,-0.00202,0.087266,-0.0,-0.0,3.0,0.3261,0.338547,0.3261,0.312972,,,,,,
46640,0.093169,-0.019612,-0.023064,-0.001025,0.001258,-0.002021,0.087266,-0.0,-0.0,3.0,0.3261,0.33847,0.3261,0.313058,,,,,,
46660,0.093043,-0.019763,-0.02245,-0.001024,0.001257,-0.002021,0.087266,-0.0,-0.0,3.0,0.3261,0.338366,0.3261,0.313174,,,,,,
46680,0.092793,-0.019795,-0.021843,-0.00102,-0.000862,-0.002218,0.087266,-0.0,-0.0,3.0,0.3261,0.342657,0.3261,0.308314,,,,,,
46700,0.092667,-0.019947,-0.021229,-0.001039,-0.002021,-0.001257,0.087266,-0.0,-0.0,3.0,0.3261,0.342532,0.3261,0.308458,,,,,,
46720,0.09266,-0.019981,-0.020498,-0.00102,-0.000863,-0.002218,0.087266,-0.0,-0.0,3.0,0.3261,0.346671,0.3261,0.303594,,,,,,
46740,0.092533,-0.020005,-0.020011,-0.001041,-0.000961,-0.001158,0.087266,-0.0,-0.0,3.0,0.3261,0.346449,0.3261,0.30386,,,,,,
46760,0.092529,-0.020027,-0.019524,-0.00102,-0.000863,-0.002218,0.087266,-0.0,-0.0,3.0,0.3261,0.346353,0.3261,0.303974,,,,,,
46780,0.092281,-0.01992,-0.019288,-0.001041,-0.000962,-0.001158,0.087266,-0.0,-0.0,3.0,0.3261,0.342179,0.3261,0.308865,,,,,,
46800,0.092036,-0.020055,-0.019042,-0.001041,-0.000962,-0.001158,0.087266,-0.0,-0.0,3.0,0.3261,0.342057,0.3261,0.309005,,,,,,
46820,0.091539,-0.019821,-0.018934,-0.001043,9.7e-05,-0.00106,0.087266,-0.0,-0.0,3.0,0.3261,0.342034,0.3261,0.309031,,,,,,
46840,0.091415,-0.019706,-0.018819,-0.001064,0.0,0.0,0.087266,-0.0,-0.0,3.0,0.3261,0.341909,0.3261,0.309175,,,,,,
46860,0.091292,-0.019586,-0.018826,0.0,0.0,0.0,0.087266,-0.0,-0.0,3.0,0.3261,0.34169,0.3261,0.309426,,,,,,
46880,0.091171,-0.019709,-0.018822,2.3e-05,-0.000963,-0.001157,0.087266,-0.0,-0.0,3.0,0.3261,0.341644,0.3261,0.309478,,,,,,
46900,0.091174,-0.019825,-0.018938,2.5e-05,-0.002023,-0.001254,0.087266,-0.0,-0.0,3.0,0.3261,0.341812,0.3261,0.309286,,,,,,
46920,0.091177,-0.020064,-0.019049,-0.001041,-0.000963,-0.001157,0.087266,-0.0,-0.0,3.0,0.3261,0.346049,0.3261,0.304337,,,,,,
46940,0.091423,-0.020177,-0.019162,-0.002126,-0.00106,-9.7e-05,0.087266,-0.0,-0.0,3.0,0.3261,0.346228,0.3261,0.304123,,,,,,
46960,0.091422,-0.020055,-0.019168,-0.002128,0.0,0.0,0.087266,-0.0,-0.0,3.0,0.3261,0.346094,0.3261,0.304283,,,,,,
46980,0.091179,-0.020052,-0.019293,-0.001062,-0.00106,-9.7e-05,0.087266,-0.0,-0.0,3.0,0.3261,0.346046,0.3261,0.30434,,,,,,
47000,0.090933,-0.019811,-0.019307,-0.001062,-0.00106,-9.7e-05,0.087266,-0.0,-0.0,3.0,0.3261,0.341762,0.3261,0.309344,,,,,,
47020,0.090689,-0.019814,-0.01931,2.1e-05,9.6e-05,-0.00106,0.087266,-0.0,-0.0,3.0,0.3261,0.341722,0.3261,0.309389,,,,,,
47040,0.090447,-0.019811,-0.019435,1.9e-05,0.001156,-0.000964,0.087266,-0.0,-0.0,3.0,0.3261,0.341574,0.3261,0.309559,,,,,,
47060,0.090325,-0.019812,-0.019436,2.1e-05,9.6e-05,-0.00106,0.087266,-0.0,-0.0,3.0,0.3261,0.341634,0.3261,0.30949,,,,,,
47080,0.090203,-0.019814,-0.019438,-0.001041,-0.000964,-0.001156,0.087266,-0.0,-0.0,3.0,0.3261,0.341691,0.3261,0.309425,,,,,,
47100,0.090206,-0.020052,-0.019549,-0.001039,-0.002024,-0.001252,0.087266,-0.0,-0.0,3.0,0.3261,0.341737,0.3261,0.309372,,,,,,
47120,0.090207,-0.020174,-0.019543,-0.002127,-0.00106,-9.6e-05,0.087266,-0.0,-0.0,3.0,0.3261,0.34582,0.3261,0.304609,,,,,,
47140,0.090084,-0.020181,-0.019423,-0.002127,-0.00106,-9.6e-05,0.087266,-0.0,-0.0,3.0,0.3261,0.345565,0.3261,0.304912,,,,,,
47160,0.089717,-0.020063,-0.019433,-0.001064,0.0,0.0,0.087266,-0.0,-0.0,3.0,0.3261,0.345411,0.3261,0.305094,,,,,,
47180,0.089349,-0.019951,-0.019321,2.1e-05,9.5e-05,-0.00106,0.087266,-0.0,-0.0,3.0,0.3261,0.340993,0.3261,0.310221,,,,,,
47200,0.088977,-0.019832,-0.019327,2.1e-05,9.5e-05,-0.00106,0.087266,-0.0,-0.0,3.0,0.3261,0.336753,0.3261,0.314953,,,,,,
47220,0.088612,-0.01983,-0.019453,2.1e-05,9.4e-05,-0.00106,0.087266,-0.0,-0.0,3.0,0.3261,0.336489,0.3261,0.315242,,,,,,
47240,0.08849,-0.019832,-0.019455,2.1e-05,9.4e-05,-0.00106,0.087266,-0.0,-0.0,3.0,0.3261,0.340662,0.3261,0.310596,,,,,,
47260,0.088492,-0.020075,-0.019444,-0.001064,0.0,0.0,0.087266,-0.0,-0.0,3.0,0.3261,0.340658,0.3261,0.310601,,,,,,
47280,0.08837,-0.020077,-0.019446,-0.002127,-0.00106,-9.4e-05,0.087266,-0.0,-0.0,3.0,0.3261,0.344568,0.3261,0.306089,,,,,,
47300,0.088249,-0.020078,-0.019447,-0.001062,-0.00106,-9.4e-05,0.087266,-0.0,-0.0,3.0,0.3261,0.344356,0.3261,0.306338,,,,,,
47320,0.088249,-0.020078,-0.019447,-0.001062,-0.00106,-9.4e-05,0.087266,-0.0,-0.0,3.0,0.3261,0.34416,0.3261,0.306567,,,,,,
47340,0.088003,-0.019959,-0.019455,2.1e-05,9.4e-05,-0.00106,0.087266,-0.0,-0.0,3.0,0.3261,0.343884,0.3261,0.30689,,,,,,
47360,0.08776,-0.019962,-0.019458,-2e-06,0.00106,9.3e-05,0.087266,-0.0,-0.0,3.0,0.3261,0.340011,0.3261,0.311333,,,,,,
47380,0.087758,-0.019712,-0.019591,1.9e-05,0.001153,-0.000967,0.087266,-0.0,-0.0,3.0,0.3261,0.340153,0.3261,0.311173,,,,,,
47400,0.088127,-0.019952,-0.019576,2.1e-05,9.4e-05,-0.00106,0.087266,-0.0,-0.0,3.0,0.3261,0.340383,0.3261,0.310913,,,,,,
47420,0.088372,-0.020071,-0.019567,-0.001062,-0.00106,-9.4e-05,0.087266,-0.0,-0.0,3.0,0.3261,0.344677,0.3261,0.30596,,,,,,
47440,0.088497,-0.020309,-0.019677,-0.00106,-0.00212,-0.000188,0.087266,-0.0,-0.0,3.0,0.3261,0.344667,0.3261,0.305972,,,,,,
47460,0.088497,-0.020309,-0.019677,-0.002125,-0.00212,-0.000188,0.087266,-0.0,-0.0,3.0,0.3261,0.344576,0.3261,0.306079,,,,,,
47480,0.088496,-0.020187,-0.019683,-0.001062,-0.00106,-9.4e-05,0.087266,-0.0,-0.0,3.0,0.3261,0.344497,0.3261,0.306172,,,,,,
47500,0.088251,-0.01994,-0.019818,2.1e-05,9.4e-05,-0.00106,0.087266,-0.0,-0.0,3.0,0.3261,0.344223,0.3261,0.306493,,,,,,
47520,0.087884,-0.019822,-0.019828,2.1e-05,9.3e-05,-0.00106,0.087266,-0.0,-0.0,3.0,0.3261,0.340161,0.3261,0.311163,,,,,,
47540,0.087884,-0.019695,-0.019955,0.0,0.0,0.0,0.087266,-0.0,-0.0,3.0,0.3261,0.340389,0.3261,0.310906,,,,,,
47560,0.088129,-0.019814,-0.019947,1.9e-05,0.001154,-0.000967,0.087266,-0.0,-0.0,3.0,0.3261,0.340597,0.3261,0.31067,,,,,,
47580,0.088252,-0.019935,-0.01994,-0.001064,0.0,0.0,0.087266,-0.0,-0.0,3.0,0.3261,0.34072,0.3261,0.310531,,,,,,
47600,0.088252,-0.019935,-0.01994,-0.001041,-0.000966,-0.001154,0.087266,-0.0,-0.0,3.0,0.3261,0.344623,0.3261,0.306025,,,,,,
47620,0.088253,-0.020057,-0.019935,-0.001039,-0.002026,-0.001248,0.087266,-0.0,-0.0,3.0,0.3261,0.344608,0.3261,0.306041,,,,,,
47640,0.088254,-0.020179,-0.019929,-0.00106,-0.00212,-0.000188,0.087266,-0.0,-0.0,3.0,0.3261,0.344539,0.3261,0.306123,,,,,,
47660,0.088252,-0.019935,-0.01994,-0.001041,-0.000966,-0.001154,0.087266,-0.0,-0.0,3.0,0.3261,0.344636,0.3261,0.306009,,,,,,
47680,0.088129,-0.019814,-0.019947,-0.001043,9.4e-05,-0.00106,0.087266,-0.0,-0.0,3.0,0.3261,0.340373,0.3261,0.310924,,,,,,
47700,0.088006,-0.019694,-0.019954,-0.001045,0.001154,-0.000967,0.087266,-0.0,-0.0,3.0,0.3261,0.344398,0.3261,0.306289,,,,,,
47720,0.088005,-0.019699,-0.019832,-0.001045,0.001154,-0.000967,0.087266,-0.0,-0.0,3.0,0.3261,0.344597,0.3261,0.306055,,,,,,
47740,0.088007,-0.019943,-0.019821,0.0,0.0,0.0,0.087266,-0.0,-0.0,3.0,0.3261,0.340632,0.3261,0.310631,,,,,,
47760,0.088251,-0.020067,-0.019691,2.3e-05,-0.000966,-0.001154,0.087266,-0.0,-0.0,3.0,0.3261,0.34045,0.3261,0.310837,,,,,,
47780,0.08825,-0.020073,-0.019569,2.3e-05,-0.000966,-0.001154,0.087266,-0.0,-0.0,3.0,0.3261,0.340553,0.3261,0.310721,,,,,,
47800,0.088369,-0.019955,-0.019451,-0.001041,-0.000966,-0.001154,0.087266,-0.0,-0.0,3.0,0.3261,0.340778,0.3261,0.310465,,,,,,
47820,0.088246,-0.019962,-0.01933,-0.001041,-0.000966,-0.001154,0.087266,-0.0,-0.0,3.0,0.3261,0.340713,0.3261,0.310539,,,,,,
47840,0.088246,-0.019962,-0.01933,-0.001041,-0.000966,-0.001154,0.087266,-0.0,-0.0,3.0,0.3261,0.340706,0.3261,0.310547,,,,,,
47860,0.088124,-0.02009,-0.019205,-0.001062,-0.00106,-9.4e-05,0.087266,-0.0,-0.0,3.0,0.3261,0.344591,0.3261,0.306061,,,,,,
47880,0.088,-0.019975,-0.019089,-0.001064,0.0,0.0,0.087266,-0.0,-0.0,3.0,0.3261,0.344602,0.3261,0.306049,,,,,,
47900,0.087876,-0.01986,-0.018974,-0.001066,0.00106,9.3e-05,0.087266,-0.0,-0.0,3.0,0.3261,0.34463,0.3261,0.306016,,,,,,
47920,0.087875,-0.019865,-0.018852,1.9e-05,0.001154,-0.000967,0.087266,-0.0,-0.0,3.0,0.3261,0.340264,0.3261,0.311047,,,,,,
47940,0.087875,-0.019865,-0.018852,0.001085,9.3e-05,-0.00106,0.087266,-0.0,-0.0,3.0,0.3261,0.340567,0.3261,0.310704,,,,,,
47960,0.087995,-0.019869,-0.018729,2.3e-05,-0.000967,-0.001154,0.087266,-0.0,-0.0,3.0,0.3261,0.34071,0.3261,0.310542,,,,,,
47980,0.088116,-0.019746,-0.018733,-0.001041,-0.000966,-0.001154,0.087266,-0.0,-0.0,3.0,0.3261,0.340929,0.3261,0.310294,,,,,,
48000,0.087997,-0.019864,-0.018851,-0.002127,-0.00106,-9.4e-05,0.087266,-0.0,-0.0,3.0,0.3261,0.340813,0.3261,0.310425,,,,,,
48020,0.087875,-0.019865,-0.018852,-0.002127,-0.00106,-9.3e-05,0.087266,-0.0,-0.0,3.0,0.3261,0.344694,0.3261,0.30594,,,,,,
48040,0.087631,-0.019995,-0.018728,-0.002127,-0.00106,-9.3e-05,0.087266,-0.0,-0.0,3.0,0.3261,0.34439,0.3261,0.306298,,,,,,
48060,0.087388,-0.019992,-0.018853,-0.001062,-0.00106,-9.3e-05,0.087266,-0.0,-0.0,3.0,0.3261,0.344081,0.3261,0.30666,,,,,,
48080,0.087143,-0.019873,-0.018861,0.0,0.0,0.0,0.087266,-0.0,-0.0,3.0,0.3261,0.339597,0.3261,0.311798,,,,,,
48100,0.086899,-0.019876,-0.018864,1.9e-05,0.001153,-0.000968,0.087266,-0.0,-0.0,3.0,0.3261,0.339687,0.3261,0.311697,,,,,,
48120,0.086895,-0.019515,-0.018758,1.9e-05,0.001153,-0.000968,0.087266,-0.0,-0.0,3.0,0.3261,0.339811,0.3261,0.311558,,,,,,
48140,0.087141,-0.019756,-0.018745,2.1e-05,9.3e-05,-0.00106,0.087266,-0.0,-0.0,3.0,0.3261,0.339916,0.3261,0.31144,,,,,,
48160,0.087264,-0.019877,-0.018738,-0.001041,-0.000967,-0.001153,0.087266,-0.0,-0.0,3.0,0.3261,0.344385,0.3261,0.306303,,,,,,
48180,0.087511,-0.02024,-0.018719,-0.002125,-0.00212,-0.000186,0.087266,-0.0,-0.0,3.0,0.3261,0.344377,0.3261,0.306313,,,,,,
48200,0.087511,-0.02024,-0.018719,-0.002127,-0.00106,-9.3e-05,0.087266,-0.0,-0.0,3.0,0.3261,0.348398,0.3261,0.301509,,,,,,
48220,0.087388,-0.02012,-0.018726,-0.001064,0.0,0.0,0.087266,-0.0,-0.0,3.0,0.3261,0.343964,0.3261,0.306797,,,,,,
48240,0.08702,-0.01988,-0.018741,2.1e-05,9.2e-05,-0.00106,0.087266,-0.0,-0.0,3.0,0.3261,0.343574,0.3261,0.307251,,,,,,
48260,0.086525,-0.01964,-0.018754,2.1e-05,9.2e-05,-0.00106,0.087266,-0.0,-0.0,3.0,0.3261,0.339479,0.3261,0.311931,,,,,,
48280,0.086403,-0.019514,-0.018882,2.1e-05,9.2e-05,-0.00106,0.087266,-0.0,-0.0,3.0,0.3261,0.33519,0.3261,0.316653,,,,,,
48300,0.086526,-0.019635,-0.018876,2.1e-05,9.2e-05,-0.00106,0.087266,-0.0,-0.0,3.0,0.3261,0.339453,0.3261,0.31196,,,,,,
48320,0.086649,-0.019883,-0.018742,-0.001062,-0.00106,-9.2e-05,0.087266,-0.0,-0.0,3.0,0.3261,0.343719,0.3261,0.307083,,,,,,
48340,0.086654,-0.019884,-0.018745,-0.001061,-0.00212,-0.000184,0.087266,-0.0,-0.0,3.0,0.3261,0.343599,0.3261,0.307222,,,,,,
48360,0.086534,-0.020129,-0.018736,-0.001061,-0.00212,-0.000184,0.087266,-0.0,-0.0,3.0,0.3261,0.343281,0.3261,0.307592,,,,,,
48380,0.086528,-0.020133,-0.018611,-0.001039,-0.002029,-0.001244,0.087266,-0.0,-0.0,3.0,0.3261,0.34303,0.3261,0.307883,,,,,,
48400,0.086405,-0.020012,-0.018617,2e-06,-0.00106,-9.2e-05,0.087266,-0.0,-0.0,3.0,0.3261,0.342936,0.3261,0.307992,,,,,,
48420,0.086281,-0.01977,-0.018629,1.9e-05,0.001152,-0.000969,0.087266,-0.0,-0.0,3.0,0.3261,0.33882,0.3261,0.312669,,,,,,
48440,0.086158,-0.019649,-0.018636,1.9e-05,0.001152,-0.000969,0.087266,-0.0,-0.0,3.0,0.3261,0.339131,0.3261,0.312321,,,,,,
48460,0.086158,-0.019649,-0.018636,1.9e-05,0.001152,-0.000969,0.087266,-0.0,-0.0,3.0,0.3261,0.339011,0.3261,0.312455,,,,,,
48480,0.086281,-0.01977,-0.018629,2.3e-05,-0.000969,-0.001152,0.087266,-0.0,-0.0,3.0,0.3261,0.339071,0.3261,0.312387,,,,,,
48500,0.08616,-0.019893,-0.018626,-0.001061,-0.002121,-0.000183,0.087266,-0.0,-0.0,3.0,0.3261,0.338831,0.3261,0.312656,,,,,,
48520,0.08616,-0.019893,-0.018626,-0.001061,-0.002121,-0.000183,0.087266,-0.0,-0.0,3.0,0.3261,0.342802,0.3261,0.308147,,,,,,
48540,0.086038,-0.020021,-0.0185,-0.001041,-0.000969,-0.001152,0.087266,-0.0,-0.0,3.0,0.3261,0.342777,0.3261,0.308176,,,,,,
48560,0.086035,-0.019778,-0.01851,-0.001043,9.1e-05,-0.00106,0.087266,-0.0,-0.0,3.0,0.3261,0.342784,0.3261,0.308168,,,,,,
48580,0.086158,-0.019649,-0.018636,0.0,0.0,0.0,0.087266,-0.0,-0.0,3.0,0.3261,0.342771,0.3261,0.308183,,,,,,
48600,0.086158,-0.019649,-0.018636,0.0,0.0,0.0,0.087266,-0.0,-0.0,3.0,0.3261,0.338725,0.3261,0.312774,,,,,,
48620,0.086037,-0.019772,-0.018632,0.0,0.0,0.0,0.087266,-0.0,-0.0,3.0,0.3261,0.338705,0.3261,0.312796,,,,,,
48640,0.085914,-0.019652,-0.018639,-0.001064,0.0,0.0,0.087266,-0.0,-0.0,3.0,0.3261,0.338685,0.3261,0.312818,,,,,,
48660,0.085789,-0.019536,-0.018524,-0.001064,0.0,0.0,0.087266,-0.0,-0.0,3.0,0.3261,0.338448,0.3261,0.313082,,,,,,
48680,0.085789,-0.019536,-0.018524,2.2e-05,-0.000969,-0.001152,0.087266,-0.0,-0.0,3.0,0.3261,0.338124,0.3261,0.313442,,,,,,
48700,0.085546,-0.019539,-0.018527,-0.00104,-0.00203,-0.001242,0.087266,-0.0,-0.0,3.0,0.3261,0.338087,0.3261,0.313483,,,,,,
48720,0.085546,-0.019539,-0.018527,-0.00104,-0.00203,-0.001242,0.087266,-0.0,-0.0,3.0,0.3261,0.338048,0.3261,0.313526,,,,,,
48740,0.085547,-0.019661,-0.018521,-0.001062,-0.00106,-9.1e-05,0.087266,-0.0,-0.0,3.0,0.3261,0.34203,0.3261,0.309036,,,,,,
48760,0.085548,-0.019783,-0.018516,-0.001064,0.0,0.0,0.087266,-0.0,-0.0,3.0,0.3261,0.341978,0.3261,0.309096,,,,,,
48780,0.085426,-0.019657,-0.018645,-0.001064,0.0,0.0,0.087266,-0.0,-0.0,3.0,0.3261,0.341847,0.3261,0.309246,,,,,,
48800,0.085303,-0.019536,-0.018651,-0.001064,0.0,0.0,0.087266,-0.0,-0.0,3.0,0.3261,0.341737,0.3261,0.309372,,,,,,
48820,0.085058,-0.019417,-0.018659,2.1e-05,9e-05,-0.001061,0.087266,-0.0,-0.0,3.0,0.3261,0.33746,0.3261,0.314176,,,,,,
48840,0.084937,-0.019413,-0.018783,2.2e-05,-0.00097,-0.001151,0.087266,-0.0,-0.0,3.0,0.3261,0.333005,0.3261,0.318991,,,,,,
48860,0.084816,-0.019536,-0.018779,2e-06,-0.00106,-9e-05,0.087266,-0.0,-0.0,3.0,0.3261,0.332957,0.3261,0.319042,,,,,,
48880,0.08445,-0.01954,-0.018783,-0.001042,-0.000971,-0.00115,0.087266,-0.0,-0.0,3.0,0.3261,0.337117,0.3261,0.314553,,,,,,
48900,0.084573,-0.019661,-0.018777,-0.002127,-0.00106,-9e-05,0.087266,-0.0,-0.0,3.0,0.3261,0.341178,0.3261,0.31001,,,,,,
48920,0.08445,-0.01954,-0.018783,-0.002127,-0.00106,-9e-05,0.087266,-0.0,-0.0,3.0,0.3261,0.340702,0.3261,0.310552,,,,,,
48940,0.084207,-0.019665,-0.018781,-0.001062,-0.00106,-9e-05,0.087266,-0.0,-0.0,3.0,0.3261,0.340329,0.3261,0.310973,,,,,,
48960,0.083962,-0.019672,-0.018662,2e-06,-0.00106,-8.9e-05,0.087266,-0.0,-0.0,3.0,0.3261,0.340159,0.3261,0.311166,,,,,,
48980,0.083833,-0.019556,-0.018543,2.1e-05,8.9e-05,-0.001061,0.087266,-0.0,-0.0,3.0,0.3261,0.335842,0.3261,0.315946,,,,,,
49000,0.08371,-0.019435,-0.01855,1.9e-05,0.001149,-0.000972,0.087266,-0.0,-0.0,3.0,0.3261,0.336003,0.3261,0.315771,,,,,,
49020,0.083831,-0.019312,-0.018554,1.9e-05,0.00115,-0.000972,0.087266,-0.0,-0.0,3.0,0.3261,0.331749,0.3261,0.320315,,,,,,
49040,0.083958,-0.019312,-0.018555,2e-05,8.9e-05,-0.001061,0.087266,-0.0,-0.0,3.0,0.3261,0.336022,0.3261,0.31575,,,,,,
49060,0.08396,-0.019556,-0.018545,-0.001042,-0.000971,-0.00115,0.087266,-0.0,-0.0,3.0,0.3261,0.336032,0.3261,0.315739,,,,,,
49080,0.084085,-0.019793,-0.018656,-0.002125,-0.002121,-0.000179,0.087266,-0.0,-0.0,3.0,0.3261,0.340117,0.3261,0.311213,,,,,,
49100,0.084084,-0.019798,-0.018534,-0.001061,-0.002121,-0.000179,0.087266,-0.0,-0.0,3.0,0.3261,0.339837,0.3261,0.311528,,,,,,
49120,0.08384,-0.019801,-0.018536,-0.001043,8.9e-05,-0.001061,0.087266,-0.0,-0.0,3.0,0.3261,0.339569,0.3261,0.31183,,,,,,
49140,0.083589,-0.019431,-0.018673,1.9e-05,0.001149,-0.000972,0.087266,-0.0,-0.0,3.0,0.3261,0.339325,0.3261,0.312104,,,,,,
49160,0.083343,-0.01919,-0.018686,1.9e-05,0.001149,-0.000972,0.087266,-0.0,-0.0,3.0,0.3261,0.335106,0.3261,0.316743,,,,,,
49180,0.083343,-0.01919,-0.018686,2e-05,8.9e-05,-0.001061,0.087266,-0.0,-0.0,3.0,0.3261,0.33514,0.3261,0.316707,,,,,,
49200,0.083588,-0.019182,-0.018805,2e-06,-0.001061,-8.9e-05,0.087266,-0.0,-0.0,3.0,0.3261,0.335165,0.3261,0.31668,,,,,,
49220,0.083834,-0.019424,-0.018792,-0.001061,-0.002121,-0.000178,0.087266,-0.0,-0.0,3.0,0.3261,0.339455,0.3261,0.311958,,,,,,
49240,0.083714,-0.019669,-0.018784,-0.002125,-0.002121,-0.000178,0.087266,-0.0,-0.0,3.0,0.3261,0.339386,0.3261,0.312035,,,,,,
49260,0.083843,-0.019791,-0.01878,-0.001062,-0.00106,-8.9e-05,0.087266,-0.0,-0.0,3.0,0.3261,0.339102,0.3261,0.312353,,,,,,
49280,0.083835,-0.019673,-0.01866,2.3e-05,-0.000971,-0.00115,0.087266,-0.0,-0.0,3.0,0.3261,0.338855,0.3261,0.312629,,,,,,
49300,0.083834,-0.019551,-0.018665,2.1e-05,8.9e-05,-0.001061,0.087266,-0.0,-0.0,3.0,0.3261,0.338904,0.3261,0.312575,,,,,,
49320,0.08371,-0.019308,-0.018677,0.001085,8.9e-05,-0.001061,0.087266,-0.0,-0.0,3.0,0.3261,0.334775,0.3261,0.3171,,,,,,
49340,0.083832,-0.019307,-0.018676,0.0,0.0,0.0,0.087266,-0.0,-0.0,3.0,0.3261,0.334941,0.3261,0.316922,,,,,,
49360,0.083831,-0.019312,-0.018554,2e-05,8.9e-05,-0.001061,0.087266,-0.0,-0.0,3.0,0.3261,0.334957,0.3261,0.316904,,,,,,
49380,0.083957,-0.01919,-0.018561,-0.001064,0.0,0.0,0.087266,-0.0,-0.0,3.0,0.3261,0.334894,0.3261,0.316972,,,,,,
49400,0.08383,-0.019317,-0.018432,-0.001042,-0.000971,-0.00115,0.087266,-0.0,-0.0,3.0,0.3261,0.334529,0.3261,0.317365,,,,,,
49420,0.083831,-0.019439,-0.018427,-0.001042,-0.000971,-0.00115,0.087266,-0.0,-0.0,3.0,0.3261,0.334538,0.3261,0.317355,,,,,,
49440,0.08371,-0.019562,-0.018423,-0.00104,-0.002032,-0.001239,0.087266,-0.0,-0.0,3.0,0.3261,0.334358,0.3261,0.317548,,,,,,
49460,0.08396,-0.019683,-0.018418,2e-06,-0.00106,-8.9e-05,0.087266,-0.0,-0.0,3.0,0.3261,0.338606,0.3261,0.312907,,,,,,
49480,0.084204,-0.01968,-0.018415,-0.001064,0.0,0.0,0.087266,-0.0,-0.0,3.0,0.3261,0.338853,0.3261,0.312632,,,,,,
49500,0.084324,-0.019435,-0.018424,-0.001066,0.00106,9e-05,0.087266,-0.0,-0.0,3.0,0.3261,0.343121,0.3261,0.307777,,,,,,
49520,0.084323,-0.019313,-0.018429,-0.001066,0.00106,9e-05,0.087266,-0.0,-0.0,3.0,0.3261,0.338969,0.3261,0.312502,,,,,,
49540,0.084201,-0.019314,-0.018431,-0.001044,9e-05,-0.001061,0.087266,-0.0,-0.0,3.0,0.3261,0.33455,0.3261,0.317342,,,,,,
49560,0.08408,-0.01931,-0.018554,2e-05,8.9e-05,-0.001061,0.087266,-0.0,-0.0,3.0,0.3261,0.330097,0.3261,0.322036,,,,,,
49580,0.083954,-0.019432,-0.018547,2.4e-05,-0.002032,-0.001239,0.087266,-0.0,-0.0,3.0,0.3261,0.329843,0.3261,0.322299,,,,,,
49600,0.083833,-0.019556,-0.018543,-0.001061,-0.002121,-0.000178,0.087266,-0.0,-0.0,3.0,0.3261,0.334147,0.3261,0.317775,,,,,,
49620,0.083961,-0.019678,-0.01854,-0.001042,-0.000971,-0.00115,0.087266,-0.0,-0.0,3.0,0.3261,0.334167,0.3261,0.317753,,,,,,
49640,0.084205,-0.019675,-0.018537,-0.001064,0.0,0.0,0.087119,-0.0,-0.0,3.0,0.3261,0.338444,0.3261,0.313087,,,,,,
49660,0.084448,-0.01955,-0.01854,-0.001064,0.0,0.0,0.086681,-0.0,-0.0,3.0,0.3261,0.342971,0.3261,0.307951,,,,,,
49680,0.084448,-0.01955,-0.01854,0.0,0.0,0.0,0.085735,-0.0,-0.0,3.0,0.3261,0.343958,0.3261,0.306804,,,,,,
