time_ms,roll,pitch,yaw,reference_roll,reference_pitch,reference_yaw,reference_throttle,throttle_1,throttle_2,throttle_3,throttle_4,roll_predicted,pitch_predicted,yaw_predicted,roll_rate_predicted,pitch_rate_predicted,yaw_rate_predicted,value1,value2,value3,value4,value5,value6
631377,0.003205,-0.018896,-0.336128,0.0,-0.0,-0.0,2.0,0.282024,0.285131,0.282024,0.278867,,,,,,,0.003815,-0.013723,-0.236952,0.023972,6e-06,-0.000105
631397,0.003084,-0.018917,-0.336015,0.0,-0.0,-0.0,2.0,0.282024,0.281354,0.282024,0.282692,,,,,,,0.003794,-0.013723,-0.236954,0.003948,4e-06,-9.3e-05
631417,0.002824,-0.018837,-0.336131,0.0,-0.0,-0.0,2.0,0.282024,0.281099,0.282024,0.282945,,,,,,,0.003675,-0.013723,-0.236956,-0.02407,1.1e-05,-0.000104
631437,0.002583,-0.018878,-0.336133,0.0,-0.0,-0.0,2.0,0.282024,0.281807,0.282024,0.282241,,,,,,,0.003434,-0.013723,-0.236958,-0.023987,7e-06,-0.000105
631457,0.002462,-0.018898,-0.33602,0.0,-0.0,-0.0,2.0,0.282024,0.280471,0.282024,0.283565,,,,,,,0.003172,-0.013722,-0.23696,0.003966,5e-06,-9.3e-05
631477,0.002683,-0.018737,-0.336132,0.0,-0.0,-0.0,2.0,0.282024,0.284351,0.282024,0.279669,,,,,,,0.003293,-0.013722,-0.236962,0.023972,2.1e-05,-0.000104
631497,0.002924,-0.018696,-0.33613,0.0,-0.0,-0.0,2.0,0.282024,0.286853,0.282024,0.277073,,,,,,,0.003533,-0.013722,-0.236964,0.024055,2.5e-05,-0.000104
631517,0.003185,-0.018776,-0.336128,0.0,-0.0,-0.0,2.0,0.282024,0.286083,0.282024,0.27788,,,,,,,0.003774,-0.013721,-0.236966,0.028037,1.7e-05,-0.000103
631537,0.003285,-0.018635,-0.336126,0.0,-0.0,-0.0,2.0,0.282024,0.285066,0.282024,0.278934,,,,,,,0.004015,-0.013721,-0.236968,-1.7e-05,3.1e-05,-0.000103
631557,0.003164,-0.018655,-0.336128,0.0,-0.0,-0.0,2.0,0.282024,0.284032,0.282024,0.279996,,,,,,,0.004015,-0.01372,-0.23697,-0.023988,2.9e-05,-0.000103
631577,0.002924,-0.018696,-0.33613,0.0,-0.0,-0.0,2.0,0.282024,0.282546,0.282024,0.281501,,,,,,,0.003774,-0.01372,-0.236972,-0.023971,2.5e-05,-0.000103
631597,0.002663,-0.018617,-0.336132,0.0,-0.0,-0.0,2.0,0.282024,0.282119,0.282024,0.281929,,,,,,,0.003513,-0.013719,-0.236974,-0.023971,3.3e-05,-0.000103
631617,0.002663,-0.018617,-0.336132,0.0,-0.0,-0.0,2.0,0.282024,0.283659,0.282024,0.280375,,,,,,,0.003392,-0.013718,-0.236976,0.000217,3.3e-05,-0.000103
631637,0.002783,-0.018596,-0.336131,0.0,-0.0,-0.0,2.0,0.282024,0.284413,0.282024,0.279606,,,,,,,0.003393,-0.013718,-0.236978,0.023989,3.5e-05,-0.000102
631657,0.002903,-0.018576,-0.33613,0.0,-0.0,-0.0,2.0,0.282024,0.287244,0.282024,0.276662,,,,,,,0.003633,-0.013717,-0.23698,9.9e-05,3.7e-05,-0.000102
631677,0.003144,-0.018535,-0.336128,0.0,-0.0,-0.0,2.0,0.282024,0.287892,0.282024,0.275975,,,,,,,0.003874,-0.013716,-0.236982,9.9e-05,4.1e-05,-0.000102
631697,0.003244,-0.018394,-0.336126,0.0,-0.0,-0.0,2.0,0.282024,0.285311,0.282024,0.278682,,,,,,,0.003974,-0.013715,-0.236984,-0.0,5.5e-05,-0.000101
631717,0.003124,-0.018415,-0.336128,0.0,-0.0,-0.0,2.0,0.282024,0.284562,0.282024,0.279453,,,,,,,0.003974,-0.013714,-0.236986,-0.023972,5.3e-05,-0.000101
631737,0.002983,-0.018315,-0.336129,0.0,-0.0,-0.0,2.0,0.282024,0.281508,0.282024,0.282539,,,,,,,0.003734,-0.013713,-0.236988,-0.004165,6.3e-05,-0.000101
631757,0.002763,-0.018476,-0.336131,0.0,-0.0,-0.0,2.0,0.282024,0.280161,0.282024,0.28387,,,,,,,0.003473,-0.013712,-0.23699,0.003968,4.6e-05,-0.000101
631777,0.002622,-0.018376,-0.336132,0.0,-0.0,-0.0,2.0,0.282024,0.283347,0.282024,0.280692,,,,,,,0.003352,-0.013711,-0.236992,0.0,5.6e-05,-0.000101
631797,0.002743,-0.018355,-0.336244,0.0,-0.0,-0.0,2.0,0.282024,0.285668,0.282024,0.278311,,,,,,,0.003473,-0.01371,-0.236994,0.000214,5.8e-05,-0.000112
631817,0.003124,-0.018415,-0.336128,0.0,-0.0,-0.0,2.0,0.282024,0.2886,0.282024,0.27522,,,,,,,0.003713,-0.013708,-0.236996,0.028136,5.2e-05,-0.0001
631837,0.003365,-0.018373,-0.336239,0.0,-0.0,-0.0,2.0,0.282024,0.28803,0.282024,0.275828,,,,,,,0.003975,-0.013707,-0.236998,0.02407,5.6e-05,-0.000111
631857,0.003345,-0.018253,-0.336239,0.0,-0.0,-0.0,2.0,0.282024,0.285355,0.282024,0.278636,,,,,,,0.004096,-0.013706,-0.237001,-0.004067,6.8e-05,-0.000111
631877,0.003244,-0.018394,-0.336126,0.0,-0.0,-0.0,2.0,0.282024,0.284882,0.282024,0.279124,,,,,,,0.004095,-0.013705,-0.237003,-0.023972,5.4e-05,-9.9e-05
631897,0.003003,-0.018435,-0.336129,0.0,-0.0,-0.0,2.0,0.282024,0.278606,0.282024,0.285384,,,,,,,0.003714,-0.013704,-0.237005,0.00385,5e-05,-9.9e-05
631917,0.002742,-0.018355,-0.336131,0.0,-0.0,-0.0,2.0,0.282024,0.28316,0.282024,0.280882,,,,,,,0.003593,-0.013703,-0.237007,-0.023988,5.8e-05,-9.9e-05
631937,0.002783,-0.018596,-0.336131,0.0,-0.0,-0.0,2.0,0.282024,0.284329,0.282024,0.279692,,,,,,,0.003493,-0.013702,-0.237009,0.004066,3.3e-05,-9.9e-05
631957,0.002763,-0.018476,-0.336131,0.0,-0.0,-0.0,2.0,0.282024,0.284463,0.282024,0.279554,,,,,,,0.003493,-0.013701,-0.237011,0.0,4.5e-05,-9.9e-05
631977,0.003003,-0.018435,-0.336129,0.0,-0.0,-0.0,2.0,0.282024,0.288677,0.282024,0.275138,,,,,,,0.003733,-0.0137,-0.237013,9.8e-05,4.9e-05,-9.9e-05
631997,0.003244,-0.018394,-0.336126,0.0,-0.0,-0.0,2.0,0.282024,0.289082,0.282024,0.274702,,,,,,,0.003974,-0.013699,-0.237015,9.8e-05,5.3e-05,-9.8e-05
632017,0.003364,-0.018374,-0.336125,0.0,-0.0,-0.0,2.0,0.282024,0.283361,0.282024,0.280678,,,,,,,0.003975,-0.013698,-0.237017,0.023873,5.5e-05,-9.8e-05
632037,0.003203,-0.018153,-0.336126,0.0,-0.0,-0.0,2.0,0.282024,0.281928,0.282024,0.28212,,,,,,,0.003934,-0.013697,-0.237019,-0.000116,7.7e-05,-9.8e-05
632057,0.002942,-0.018074,-0.336129,0.0,-0.0,-0.0,2.0,0.282024,0.283594,0.282024,0.280442,,,,,,,0.003793,-0.013695,-0.237021,-0.023988,8.5e-05,-9.8e-05
632077,0.002842,-0.018215,-0.33613,0.0,-0.0,-0.0,2.0,0.282024,0.284237,0.282024,0.279786,,,,,,,0.003572,-0.013694,-0.237022,1.7e-05,7.1e-05,-9.8e-05
632097,0.002701,-0.018115,-0.336131,0.0,-0.0,-0.0,2.0,0.282024,0.284332,0.282024,0.279689,,,,,,,0.003552,-0.013692,-0.237024,-0.023988,8.1e-05,-9.8e-05
632117,0.002842,-0.018215,-0.33613,0.0,-0.0,-0.0,2.0,0.282024,0.287259,0.282024,0.276646,,,,,,,0.003572,-0.013691,-0.237026,9.9e-05,7e-05,-9.7e-05
632137,0.003083,-0.018174,-0.336128,0.0,-0.0,-0.0,2.0,0.282024,0.289093,0.282024,0.27469,,,,,,,0.003813,-0.013689,-0.237028,9.8e-05,7.4e-05,-9.7e-05
632157,0.003204,-0.018153,-0.33624,0.0,-0.0,-0.0,2.0,0.282024,0.286071,0.282024,0.277892,,,,,,,0.003934,-0.013688,-0.23703,0.000211,7.6e-05,-0.000108
632177,0.003324,-0.018133,-0.336125,0.0,-0.0,-0.0,2.0,0.282024,0.286069,0.282024,0.277894,,,,,,,0.004074,-0.013686,-0.237032,-0.004066,7.8e-05,-9.6e-05
632197,0.003224,-0.018274,-0.336126,0.0,-0.0,-0.0,2.0,0.282024,0.282834,0.282024,0.28121,,,,,,,0.003954,-0.013685,-0.237034,-9.9e-05,6.4e-05,-9.6e-05
632217,0.002962,-0.018194,-0.336129,0.0,-0.0,-0.0,2.0,0.282024,0.282019,0.282024,0.282029,,,,,,,0.003714,-0.013684,-0.237036,-0.004148,7.2e-05,-9.6e-05
632237,0.002722,-0.018235,-0.336131,0.0,-0.0,-0.0,2.0,0.282024,0.283232,0.282024,0.280809,,,,,,,0.003573,-0.013682,-0.237038,-0.023988,6.8e-05,-9.6e-05
632257,0.002622,-0.018376,-0.336132,0.0,-0.0,-0.0,2.0,0.282024,0.283565,0.282024,0.280471,,,,,,,0.003352,-0.013681,-0.23704,1.7e-05,5.3e-05,-9.6e-05
632277,0.002742,-0.018355,-0.336131,0.0,-0.0,-0.0,2.0,0.282024,0.286519,0.282024,0.277423,,,,,,,0.003472,-0.01368,-0.237042,1.6e-05,5.5e-05,-9.6e-05
632297,0.002983,-0.018315,-0.336129,0.0,-0.0,-0.0,2.0,0.282024,0.287473,0.282024,0.27642,,,,,,,0.003572,-0.013679,-0.237044,0.02812,5.9e-05,-9.5e-05
632317,0.003224,-0.018274,-0.336126,0.0,-0.0,-0.0,2.0,0.282024,0.287217,0.282024,0.27669,,,,,,,0.003834,-0.013678,-0.237046,0.023971,6.3e-05,-9.5e-05
632337,0.003203,-0.018153,-0.336126,0.0,-0.0,-0.0,2.0,0.282024,0.285629,0.282024,0.278352,,,,,,,0.003934,-0.013676,-0.237048,0.0,7.5e-05,-9.5e-05
632357,0.003083,-0.018174,-0.336128,0.0,-0.0,-0.0,2.0,0.282024,0.287213,0.282024,0.276695,,,,,,,0.003933,-0.013675,-0.23705,-0.023873,7.3e-05,-9.5e-05
632377,0.002822,-0.018094,-0.33613,0.0,-0.0,-0.0,2.0,0.282024,0.281764,0.282024,0.282284,,,,,,,0.003573,-0.013673,-0.237051,-0.004165,8.1e-05,-9.5e-05
632397,0.002701,-0.018115,-0.336131,0.0,-0.0,-0.0,2.0,0.282024,0.282327,0.282024,0.28172,,,,,,,0.003432,-0.013672,-0.237053,-9.9e-05,7.9e-05,-9.5e-05
632417,0.002723,-0.018235,-0.336244,0.0,-0.0,-0.0,2.0,0.282024,0.28486,0.282024,0.279147,,,,,,,0.003432,-0.01367,-0.237055,0.004262,6.6e-05,-0.000106
632437,0.002843,-0.018214,-0.336243,0.0,-0.0,-0.0,2.0,0.282024,0.28547,0.282024,0.278516,,,,,,,0.003452,-0.013669,-0.237057,0.024183,6.8e-05,-0.000106
632457,0.002943,-0.018074,-0.336242,0.0,-0.0,-0.0,2.0,0.282024,0.288125,0.282024,0.275727,,,,,,,0.003673,-0.013667,-0.237059,9.9e-05,8.2e-05,-0.000105
632477,0.003063,-0.018053,-0.336241,0.0,-0.0,-0.0,2.0,0.282024,0.286995,0.282024,0.276924,,,,,,,0.003794,-0.013666,-0.237061,-1e-06,8.4e-05,-0.000105
632497,0.003184,-0.018033,-0.33624,0.0,-0.0,-0.0,2.0,0.282024,0.284833,0.282024,0.279175,,,,,,,0.003814,-0.013664,-0.237064,0.020032,8.6e-05,-0.000105
632517,0.002964,-0.018194,-0.336242,0.0,-0.0,-0.0,2.0,0.282024,0.284,0.282024,0.280028,,,,,,,0.003694,-0.013662,-0.237066,0.0,7e-05,-0.000105
632537,0.002702,-0.018114,-0.336244,0.0,-0.0,-0.0,2.0,0.282024,0.283556,0.282024,0.28048,,,,,,,0.003553,-0.013661,-0.237068,-0.023987,7.8e-05,-0.000105
632557,0.002582,-0.018135,-0.336245,0.0,-0.0,-0.0,2.0,0.282024,0.282305,0.282024,0.281743,,,,,,,0.003313,-0.01366,-0.23707,-9.9e-05,7.5e-05,-0.000105
632577,0.002462,-0.018155,-0.336246,0.0,-0.0,-0.0,2.0,0.282024,0.283823,0.282024,0.280209,,,,,,,0.003192,-0.013658,-0.237072,1e-06,7.3e-05,-0.000104
632597,0.002582,-0.018135,-0.336245,0.0,-0.0,-0.0,2.0,0.282024,0.287908,0.282024,0.275959,,,,,,,0.003312,-0.013657,-0.237074,9.9e-05,7.5e-05,-0.000104
632617,0.002843,-0.018214,-0.336243,0.0,-0.0,-0.0,2.0,0.282024,0.286254,0.282024,0.277701,,,,,,,0.003333,-0.013656,-0.237076,0.019921,7.7e-05,-0.000104
632637,0.002843,-0.018214,-0.336243,0.0,-0.0,-0.0,2.0,0.282024,0.286529,0.282024,0.277414,,,,,,,0.003574,-0.013654,-0.237078,-0.0,6.7e-05,-0.000104
632657,0.002964,-0.018194,-0.336242,0.0,-0.0,-0.0,2.0,0.282024,0.287685,0.282024,0.276195,,,,,,,0.003693,-0.013652,-0.23708,9.9e-05,6.9e-05,-0.000103
632677,0.002723,-0.018235,-0.336244,0.0,-0.0,-0.0,2.0,0.282024,0.282126,0.282024,0.281922,,,,,,,0.003474,-0.013652,-0.237082,-0.004166,6.5e-05,-0.000103
632697,0.002482,-0.018276,-0.336246,0.0,-0.0,-0.0,2.0,0.282024,0.282072,0.282024,0.281976,,,,,,,0.003213,-0.01365,-0.237084,-9.9e-05,6e-05,-0.000103
632717,0.002221,-0.018196,-0.336248,0.0,-0.0,-0.0,2.0,0.282024,0.284076,0.282024,0.27995,,,,,,,0.003092,-0.013649,-0.237086,-0.02802,6.8e-05,-0.000103
632737,0.002221,-0.018196,-0.336248,0.0,-0.0,-0.0,2.0,0.282024,0.28493,0.282024,0.279074,,,,,,,0.002951,-0.013647,-0.237088,0.0,6.8e-05,-0.000103
632757,0.002341,-0.018176,-0.336247,0.0,-0.0,-0.0,2.0,0.282024,0.28545,0.282024,0.278538,,,,,,,0.002951,-0.013646,-0.23709,0.023971,7e-05,-0.000103
632777,0.002462,-0.018155,-0.336246,0.0,-0.0,-0.0,2.0,0.282024,0.286209,0.282024,0.277748,,,,,,,0.003072,-0.013645,-0.237092,0.023971,7.2e-05,-0.000102
632797,0.002582,-0.018135,-0.336245,0.0,-0.0,-0.0,2.0,0.282024,0.287138,0.282024,0.276773,,,,,,,0.003312,-0.013643,-0.237095,-1e-06,7.4e-05,-0.000102
632817,0.002582,-0.018135,-0.336245,0.0,-0.0,-0.0,2.0,0.282024,0.285768,0.282024,0.278208,,,,,,,0.003312,-0.013642,-0.237097,0.0,7.4e-05,-0.000102
632837,0.002462,-0.018155,-0.336246,0.0,-0.0,-0.0,2.0,0.282024,0.284326,0.282024,0.279694,,,,,,,0.003192,-0.01364,-0.237099,1e-06,7.1e-05,-0.000102
632857,0.002201,-0.018076,-0.336248,0.0,-0.0,-0.0,2.0,0.282024,0.282154,0.282024,0.281894,,,,,,,0.002952,-0.013639,-0.237101,-0.004166,7.9e-05,-0.000102
632877,0.002079,-0.018096,-0.336136,0.0,-0.0,-0.0,2.0,0.282024,0.283891,0.282024,0.28014,,,,,,,0.002811,-0.013637,-0.237103,-0.000212,7.7e-05,-9e-05
632897,0.00196,-0.018117,-0.33625,0.0,-0.0,-0.0,2.0,0.282024,0.28272,0.282024,0.281325,,,,,,,0.002691,-0.013636,-0.237105,-9.9e-05,7.5e-05,-0.000102
632917,0.00206,-0.017976,-0.336249,0.0,-0.0,-0.0,2.0,0.282024,0.285218,0.282024,0.278777,,,,,,,0.00267,-0.013634,-0.237107,0.023971,8.9e-05,-0.000101
632937,0.00208,-0.018096,-0.336249,0.0,-0.0,-0.0,2.0,0.282024,0.28606,0.282024,0.277904,,,,,,,0.002811,-0.013632,-0.237109,-0.0,7.6e-05,-0.000101
632957,0.002201,-0.018076,-0.336248,0.0,-0.0,-0.0,2.0,0.282024,0.285673,0.282024,0.278306,,,,,,,0.002811,-0.013631,-0.23711,0.023971,7.8e-05,-0.000101
632977,0.002221,-0.018196,-0.336248,0.0,-0.0,-0.0,2.0,0.282024,0.287849,0.282024,0.276021,,,,,,,0.002951,-0.013629,-0.237113,9.9e-05,6.6e-05,-0.000101
632997,0.002121,-0.018337,-0.33625,0.0,-0.0,-0.0,2.0,0.282024,0.285535,0.282024,0.27845,,,,,,,0.002851,-0.013628,-0.237115,1.7e-05,5.2e-05,-0.0001
633017,0.00188,-0.018378,-0.336252,0.0,-0.0,-0.0,2.0,0.282024,0.284236,0.282024,0.279787,,,,,,,0.002731,-0.013627,-0.237116,1e-06,5e-05,-0.0001
633037,0.00176,-0.018398,-0.336253,0.0,-0.0,-0.0,2.0,0.282024,0.284763,0.282024,0.279246,,,,,,,0.002611,-0.013627,-0.237118,-0.004067,6e-05,-0.0001
633057,0.00164,-0.018419,-0.336254,0.0,-0.0,-0.0,2.0,0.282024,0.283765,0.282024,0.280268,,,,,,,0.00237,-0.013625,-0.237121,1e-06,4.4e-05,-0.0001
633077,0.001519,-0.018439,-0.336255,0.0,-0.0,-0.0,2.0,0.282024,0.285365,0.282024,0.278625,,,,,,,0.00237,-0.013624,-0.237123,-0.023971,4.1e-05,-0.0001
633097,0.00154,-0.018559,-0.336255,0.0,-0.0,-0.0,2.0,0.282024,0.286145,0.282024,0.277815,,,,,,,0.00237,-0.013624,-0.237125,-0.019921,2.9e-05,-0.0001
633117,0.00156,-0.01868,-0.336255,0.0,-0.0,-0.0,2.0,0.282024,0.285623,0.282024,0.278358,,,,,,,0.00229,-0.013623,-0.237127,1.7e-05,1.7e-05,-0.0001
633137,0.00156,-0.01868,-0.336255,0.0,-0.0,-0.0,2.0,0.282024,0.285434,0.282024,0.278554,,,,,,,0.002291,-0.013623,-0.237129,0.0,1.7e-05,-0.0001
633157,0.00144,-0.0187,-0.336256,0.0,-0.0,-0.0,2.0,0.282024,0.286026,0.282024,0.277939,,,,,,,0.002291,-0.013622,-0.237131,-0.023972,1.5e-05,-9.9e-05
633177,0.00156,-0.01868,-0.336255,0.0,-0.0,-0.0,2.0,0.282024,0.283205,0.282024,0.280836,,,,,,,0.002171,-0.013622,-0.237133,0.023872,1.7e-05,-9.9e-05
633197,0.00144,-0.0187,-0.336256,0.0,-0.0,-0.0,2.0,0.282024,0.283366,0.282024,0.280674,,,,,,,0.002171,-0.013622,-0.237134,-8.3e-05,1.5e-05,-9.9e-05
633217,0.00144,-0.0187,-0.336256,0.0,-0.0,-0.0,2.0,0.282024,0.287855,0.282024,0.276015,,,,,,,0.00229,-0.013621,-0.237136,-0.02794,2.7e-05,-9.9e-05
633237,0.00154,-0.018559,-0.336255,0.0,-0.0,-0.0,2.0,0.282024,0.285638,0.282024,0.278342,,,,,,,0.00217,-0.013621,-0.237139,0.01992,2.9e-05,-9.9e-05
633257,0.001419,-0.01858,-0.336256,0.0,-0.0,-0.0,2.0,0.282024,0.284677,0.282024,0.279335,,,,,,,0.00215,-0.013621,-0.23714,1e-06,2.7e-05,-9.9e-05
633277,0.001419,-0.01858,-0.336256,0.0,-0.0,-0.0,2.0,0.282024,0.287821,0.282024,0.276051,,,,,,,0.00227,-0.01362,-0.237142,8.2e-05,2.9e-05,-9.8e-05
633297,0.00156,-0.01868,-0.336255,0.0,-0.0,-0.0,2.0,0.282024,0.284953,0.282024,0.279051,,,,,,,0.00215,-0.01362,-0.237144,0.004068,1.5e-05,-9.8e-05
633317,0.00154,-0.018559,-0.336255,0.0,-0.0,-0.0,2.0,0.282024,0.286703,0.282024,0.277231,,,,,,,0.00227,-0.013619,-0.237147,8.2e-05,2.9e-05,-9.8e-05
633337,0.00154,-0.018559,-0.336255,0.0,-0.0,-0.0,2.0,0.282024,0.28562,0.282024,0.278361,,,,,,,0.00227,-0.013618,-0.237149,0.0,2.9e-05,-9.8e-05
633357,0.00154,-0.018559,-0.336255,0.0,-0.0,-0.0,2.0,0.282024,0.285566,0.282024,0.278418,,,,,,,0.00227,-0.013618,-0.23715,0.0,2.9e-05,-9.7e-05
633377,0.00154,-0.018559,-0.336255,0.0,-0.0,-0.0,2.0,0.282024,0.285334,0.282024,0.278657,,,,,,,0.00225,-0.013617,-0.237153,0.004067,2.9e-05,-9.7e-05
633397,0.001421,-0.018579,-0.336369,0.0,-0.0,-0.0,2.0,0.282024,0.285577,0.282024,0.278405,,,,,,,0.002271,-0.013617,-0.237155,-0.023971,2.7e-05,-0.000108
633417,0.001561,-0.018679,-0.336368,0.0,-0.0,-0.0,2.0,0.282024,0.283587,0.282024,0.280449,,,,,,,0.00215,-0.013616,-0.237156,0.003968,1.4e-05,-9.7e-05
633437,0.00144,-0.0187,-0.336256,0.0,-0.0,-0.0,2.0,0.282024,0.287765,0.282024,0.27611,,,,,,,0.00229,-0.013616,-0.237159,-0.023873,1.4e-05,-9.7e-05
633457,0.00156,-0.01868,-0.336255,0.0,-0.0,-0.0,2.0,0.282024,0.288305,0.282024,0.275535,,,,,,,0.002312,-0.013616,-0.23716,-0.003952,1.6e-05,-0.000108
633477,0.001561,-0.018679,-0.336368,0.0,-0.0,-0.0,2.0,0.282024,0.285752,0.282024,0.278224,,,,,,,0.002291,-0.013615,-0.237162,0.0,1.6e-05,-9.6e-05
633497,0.00144,-0.0187,-0.336256,0.0,-0.0,-0.0,2.0,0.282024,0.286264,0.282024,0.277691,,,,,,,0.002292,-0.013615,-0.237165,-0.024192,1.4e-05,-9.6e-05
633517,0.001441,-0.0187,-0.336369,0.0,-0.0,-0.0,2.0,0.282024,0.285022,0.282024,0.278979,,,,,,,0.002171,-0.013615,-0.237167,-1.6e-05,1.4e-05,-0.000107
633537,0.001461,-0.01882,-0.336369,0.0,-0.0,-0.0,2.0,0.282024,0.285786,0.282024,0.278189,,,,,,,0.002192,-0.013615,-0.237169,-0.0,2e-06,-0.000107
633557,0.001341,-0.018841,-0.336371,0.0,-0.0,-0.0,2.0,0.282024,0.282983,0.282024,0.28106,,,,,,,0.002072,-0.013615,-0.237171,-9.9e-05,0.0,-0.000107
633577,0.001341,-0.018841,-0.336371,0.0,-0.0,-0.0,2.0,0.282024,0.28566,0.282024,0.27832,,,,,,,0.002092,-0.013615,-0.237173,-0.004069,0.0,-0.000107
633597,0.001482,-0.018941,-0.33637,0.0,-0.0,-0.0,2.0,0.282024,0.286012,0.282024,0.277953,,,,,,,0.002092,-0.013615,-0.237175,1.7e-05,-1.2e-05,-0.000107
633617,0.001482,-0.018941,-0.33637,0.0,-0.0,-0.0,2.0,0.282024,0.283774,0.282024,0.280258,,,,,,,0.002092,-0.013615,-0.237177,0.023872,-1e-05,-0.000106
633637,0.001482,-0.018941,-0.33637,0.0,-0.0,-0.0,2.0,0.282024,0.28592,0.282024,0.27805,,,,,,,0.002212,-0.013615,-0.237179,-0.0,-1e-05,-0.000106
633657,0.001502,-0.019061,-0.33637,0.0,-0.0,-0.0,2.0,0.282024,0.285973,0.282024,0.277994,,,,,,,0.002233,-0.013616,-0.237181,-0.0,-2.2e-05,-0.000106
633677,0.001382,-0.019081,-0.336371,0.0,-0.0,-0.0,2.0,0.282024,0.28309,0.282024,0.280952,,,,,,,0.002113,-0.013616,-0.237183,-9.9e-05,-2.4e-05,-0.000106
633697,0.001241,-0.018981,-0.336372,0.0,-0.0,-0.0,2.0,0.282024,0.285086,0.282024,0.278914,,,,,,,0.002092,-0.013616,-0.237186,-1.7e-05,-1.2e-05,-0.000105
633717,0.001241,-0.018981,-0.336372,0.0,-0.0,-0.0,2.0,0.282024,0.284944,0.282024,0.27906,,,,,,,0.001971,-0.013617,-0.237188,0.0,-1.4e-05,-0.000105
633737,0.001361,-0.018961,-0.336371,0.0,-0.0,-0.0,2.0,0.282024,0.285606,0.282024,0.278376,,,,,,,0.001971,-0.013617,-0.23719,-0.0,-1.4e-05,-0.000105
633757,0.001361,-0.018961,-0.336371,0.0,-0.0,-0.0,2.0,0.282024,0.285721,0.282024,0.278256,,,,,,,0.001971,-0.013617,-0.237192,0.023971,-1.2e-05,-0.000105
633777,0.001361,-0.018961,-0.336371,0.0,-0.0,-0.0,2.0,0.282024,0.286063,0.282024,0.2779,,,,,,,0.002092,-0.013617,-0.237194,-0.0,-1.1e-05,-0.000105
633797,0.001361,-0.018961,-0.336371,0.0,-0.0,-0.0,2.0,0.282024,0.28577,0.282024,0.278205,,,,,,,0.002092,-0.013618,-0.237196,0.000279,-1.2e-05,-0.000122
633817,0.001363,-0.018962,-0.336544,0.0,-0.0,-0.0,2.0,0.282024,0.285815,0.282024,0.278159,,,,,,,0.002092,-0.013618,-0.237198,0.023971,-9e-06,-0.000104
633837,0.001361,-0.018961,-0.336371,0.0,-0.0,-0.0,2.0,0.282024,0.285454,0.282024,0.278533,,,,,,,0.002093,-0.013618,-0.237201,-0.000279,-1.1e-05,-0.000104
633857,0.001241,-0.018981,-0.336372,0.0,-0.0,-0.0,2.0,0.282024,0.283117,0.282024,0.280925,,,,,,,0.001973,-0.013618,-0.237203,-9.8e-05,-1.4e-05,-0.000121
633877,0.001243,-0.018982,-0.336545,0.0,-0.0,-0.0,2.0,0.282024,0.285563,0.282024,0.27842,,,,,,,0.001971,-0.013619,-0.237205,0.0,-1.3e-05,-0.000104
633897,0.001102,-0.018882,-0.336546,0.0,-0.0,-0.0,2.0,0.282024,0.283065,0.282024,0.280978,,,,,,,0.001853,-0.013619,-0.237207,-0.000376,-1.5e-05,-0.000104
633917,0.001222,-0.018862,-0.336545,0.0,-0.0,-0.0,2.0,0.282024,0.284706,0.282024,0.279305,,,,,,,0.001832,-0.013619,-0.23721,0.023972,-1e-06,-0.000121
633937,0.001202,-0.018742,-0.336545,0.0,-0.0,-0.0,2.0,0.282024,0.286671,0.282024,0.277265,,,,,,,0.001952,-0.013619,-0.237212,-1e-06,-1e-06,-0.00012
633957,0.001222,-0.018862,-0.336545,0.0,-0.0,-0.0,2.0,0.282024,0.286043,0.282024,0.277921,,,,,,,0.001952,-0.013619,-0.237214,1.7e-05,-1e-06,-0.00012
633977,0.001202,-0.018742,-0.336545,0.0,-0.0,-0.0,2.0,0.282024,0.287343,0.282024,0.276557,,,,,,,0.002052,-0.013619,-0.237217,8.3e-05,1.3e-05,-0.00012
633997,0.001202,-0.018742,-0.336545,0.0,-0.0,-0.0,2.0,0.282024,0.287869,0.282024,0.275999,,,,,,,0.002052,-0.013619,-0.237219,9.9e-05,1.3e-05,-0.000119
634017,0.001322,-0.018721,-0.336544,0.0,-0.0,-0.0,2.0,0.282024,0.287375,0.282024,0.276523,,,,,,,0.002052,-0.013619,-0.237222,9.9e-05,1.3e-05,-0.000119
634037,0.001202,-0.018742,-0.336545,0.0,-0.0,-0.0,2.0,0.282024,0.28546,0.282024,0.278527,,,,,,,0.002032,-0.013618,-0.237224,-0.019917,1.1e-05,-0.000119
634057,0.001222,-0.018862,-0.336545,0.0,-0.0,-0.0,2.0,0.282024,0.288103,0.282024,0.275751,,,,,,,0.002052,-0.013618,-0.237226,-0.023873,1.1e-05,-0.000119
634077,0.001342,-0.018841,-0.336544,0.0,-0.0,-0.0,2.0,0.282024,0.2855,0.282024,0.278486,,,,,,,0.001932,-0.013618,-0.237229,0.028025,1e-06,-0.000119
634097,0.001342,-0.018841,-0.336544,0.0,-0.0,-0.0,2.0,0.282024,0.286269,0.282024,0.277685,,,,,,,0.002073,-0.013618,-0.237231,-0.0,0.0,-0.000118
634117,0.001342,-0.018841,-0.336544,0.0,-0.0,-0.0,2.0,0.282024,0.285947,0.282024,0.278021,,,,,,,0.002073,-0.013618,-0.237233,-0.0,0.0,-0.000118
634137,0.001342,-0.018841,-0.336544,0.0,-0.0,-0.0,2.0,0.282024,0.285928,0.282024,0.278041,,,,,,,0.002073,-0.013618,-0.237236,-0.004071,1.3e-05,-0.000118
634157,0.001322,-0.018721,-0.336544,0.0,-0.0,-0.0,2.0,0.282024,0.286116,0.282024,0.277845,,,,,,,0.002073,-0.013618,-0.237238,-0.0,0.0,-0.000118
634177,0.001322,-0.018721,-0.336544,0.0,-0.0,-0.0,2.0,0.282024,0.28585,0.282024,0.278122,,,,,,,0.002052,-0.013617,-0.237241,0.0,1.2e-05,-0.000117
634197,0.001342,-0.018841,-0.336544,0.0,-0.0,-0.0,2.0,0.282024,0.285957,0.282024,0.278011,,,,,,,0.002052,-0.013617,-0.237243,-0.0,1.2e-05,-0.000117
634217,0.001342,-0.018841,-0.336544,0.0,-0.0,-0.0,2.0,0.282024,0.286033,0.282024,0.277932,,,,,,,0.002073,-0.013617,-0.237245,-0.023971,-2e-06,-0.000117
634237,0.001222,-0.018862,-0.336545,0.0,-0.0,-0.0,2.0,0.282024,0.283662,0.282024,0.280373,,,,,,,0.001953,-0.013617,-0.237248,-9.9e-05,-2e-06,-0.000117
634257,0.001243,-0.018982,-0.336545,0.0,-0.0,-0.0,2.0,0.282024,0.285802,0.282024,0.278172,,,,,,,0.001952,-0.013617,-0.23725,-0.0,-2e-06,-0.000117
634277,0.001222,-0.018862,-0.336545,0.0,-0.0,-0.0,2.0,0.282024,0.285618,0.282024,0.278363,,,,,,,0.001953,-0.013617,-0.237252,-1.7e-05,-2e-06,-0.000116
634297,0.001202,-0.018742,-0.336545,0.0,-0.0,-0.0,2.0,0.282024,0.285946,0.282024,0.278022,,,,,,,0.001952,-0.013617,-0.237255,-0.0,-2e-06,-0.000116
634317,0.001202,-0.018742,-0.336545,0.0,-0.0,-0.0,2.0,0.282024,0.285855,0.282024,0.278117,,,,,,,0.001932,-0.013617,-0.237257,0.0,1e-05,-0.000116
634337,0.001202,-0.018742,-0.336545,0.0,-0.0,-0.0,2.0,0.282024,0.285972,0.282024,0.277996,,,,,,,0.001932,-0.013617,-0.237259,-0.0,1e-05,-0.000116
634357,0.001202,-0.018742,-0.336545,0.0,-0.0,-0.0,2.0,0.282024,0.285989,0.282024,0.277977,,,,,,,0.001932,-0.013617,-0.237262,-0.0,1e-05,-0.000115
634377,0.001222,-0.018862,-0.336545,0.0,-0.0,-0.0,2.0,0.282024,0.286451,0.282024,0.277495,,,,,,,0.001952,-0.013617,-0.237264,1.7e-05,-2e-06,-0.000115
634397,0.001222,-0.018862,-0.336545,0.0,-0.0,-0.0,2.0,0.282024,0.28604,0.282024,0.277925,,,,,,,0.001952,-0.013617,-0.237266,-0.004071,1e-05,-0.000115
634417,0.001202,-0.018742,-0.336545,0.0,-0.0,-0.0,2.0,0.282024,0.286091,0.282024,0.277871,,,,,,,0.001952,-0.013617,-0.237268,-0.0,-2e-06,-0.000115
634437,0.001181,-0.018621,-0.336545,0.0,-0.0,-0.0,2.0,0.282024,0.285927,0.282024,0.278042,,,,,,,0.001932,-0.013617,-0.237271,0.0,1e-05,-0.000114
634457,0.001281,-0.01848,-0.336544,0.0,-0.0,-0.0,2.0,0.282024,0.28598,0.282024,0.277987,,,,,,,0.001912,-0.013616,-0.237273,0.023972,2.4e-05,-0.000114
634477,0.001281,-0.01848,-0.336544,0.0,-0.0,-0.0,2.0,0.282024,0.286847,0.282024,0.277079,,,,,,,0.002011,-0.013616,-0.237275,-0.0,3.6e-05,-0.000114
634497,0.001281,-0.01848,-0.336544,0.0,-0.0,-0.0,2.0,0.282024,0.286808,0.282024,0.27712,,,,,,,0.002011,-0.013615,-0.237278,-1e-06,3.6e-05,-0.000114
634517,0.001281,-0.01848,-0.336544,0.0,-0.0,-0.0,2.0,0.282024,0.286165,0.282024,0.277794,,,,,,,0.002011,-0.013614,-0.23728,0.0,3.6e-05,-0.000113
634537,0.001161,-0.018501,-0.336545,0.0,-0.0,-0.0,2.0,0.282024,0.286072,0.282024,0.277891,,,,,,,0.002011,-0.013613,-0.237282,-0.023972,3.4e-05,-0.000113
634557,0.001161,-0.018501,-0.336545,0.0,-0.0,-0.0,2.0,0.282024,0.285263,0.282024,0.278731,,,,,,,0.001891,-0.013613,-0.237284,0.019901,4.8e-05,-0.000113
634577,0.00124,-0.01824,-0.336544,0.0,-0.0,-0.0,2.0,0.282024,0.287898,0.282024,0.275969,,,,,,,0.001991,-0.013612,-0.237287,-0.023889,4.6e-05,-0.000113
634597,0.00112,-0.01826,-0.336545,0.0,-0.0,-0.0,2.0,0.282024,0.287389,0.282024,0.276508,,,,,,,0.001991,-0.013611,-0.237289,-0.028026,5.8e-05,-0.000113
634617,0.001099,-0.01814,-0.336545,0.0,-0.0,-0.0,2.0,0.282024,0.288369,0.282024,0.275467,,,,,,,0.00197,-0.01361,-0.237291,-0.023873,5.8e-05,-0.000112
634637,0.001099,-0.01814,-0.336545,0.0,-0.0,-0.0,2.0,0.282024,0.285686,0.282024,0.278292,,,,,,,0.00183,-0.013608,-0.237293,0.0,7e-05,-0.000112
634657,0.001099,-0.01814,-0.336545,0.0,-0.0,-0.0,2.0,0.282024,0.286075,0.282024,0.277888,,,,,,,0.00183,-0.013607,-0.237296,-0.0,7e-05,-0.000112
634677,0.001099,-0.01814,-0.336545,0.0,-0.0,-0.0,2.0,0.282024,0.286109,0.282024,0.277852,,,,,,,0.00183,-0.013606,-0.237298,-0.0,6.9e-05,-0.000112
634697,0.001079,-0.018018,-0.336484,0.0,-0.0,-0.0,2.0,0.282024,0.282991,0.282024,0.281053,,,,,,,0.00169,-0.013604,-0.2373,-0.000164,7.9e-05,-0.000106
634717,0.000958,-0.018039,-0.336485,0.0,-0.0,-0.0,2.0,0.282024,0.284637,0.282024,0.279376,,,,,,,0.001689,-0.013603,-0.237302,0.02392,8.1e-05,-0.000111
634737,0.001058,-0.017898,-0.336484,0.0,-0.0,-0.0,2.0,0.282024,0.285706,0.282024,0.278272,,,,,,,0.001689,-0.013601,-0.237304,0.02397,8.1e-05,-0.000105
634757,0.001059,-0.017899,-0.336544,0.0,-0.0,-0.0,2.0,0.282024,0.284194,0.282024,0.27983,,,,,,,0.001669,-0.013599,-0.237306,-5.2e-05,9.1e-05,-0.000111
634777,0.000938,-0.01792,-0.336545,0.0,-0.0,-0.0,2.0,0.282024,0.284665,0.282024,0.279348,,,,,,,0.001669,-0.013597,-0.237309,-9.9e-05,9.1e-05,-0.000111
634797,0.000938,-0.01792,-0.336545,0.0,-0.0,-0.0,2.0,0.282024,0.286054,0.282024,0.277909,,,,,,,0.001669,-0.013596,-0.237311,0.023972,9.2e-05,-0.00011
634817,0.000938,-0.01792,-0.336545,0.0,-0.0,-0.0,2.0,0.282024,0.285757,0.282024,0.278219,,,,,,,0.001669,-0.013594,-0.237313,0.000213,9e-05,-0.000122
634837,0.000819,-0.01794,-0.33666,0.0,-0.0,-0.0,2.0,0.282024,0.286073,0.282024,0.277889,,,,,,,0.001669,-0.013592,-0.237315,0.0,9e-05,-0.00011
634857,0.000818,-0.01794,-0.336546,0.0,-0.0,-0.0,2.0,0.282024,0.285374,0.282024,0.278616,,,,,,,0.001548,-0.01359,-0.237318,-1e-06,8.8e-05,-0.00011
634877,0.000677,-0.01784,-0.336547,0.0,-0.0,-0.0,2.0,0.282024,0.283499,0.282024,0.280538,,,,,,,0.001428,-0.013588,-0.23732,0.019802,0.0001,-0.00011
634897,0.000677,-0.01784,-0.336547,0.0,-0.0,-0.0,2.0,0.282024,0.287911,0.282024,0.275954,,,,,,,0.001527,-0.013586,-0.237322,-0.023873,9.7e-05,-0.000109
634917,0.000677,-0.01784,-0.336547,0.0,-0.0,-0.0,2.0,0.282024,0.285778,0.282024,0.278197,,,,,,,0.001407,-0.013585,-0.237324,4.4e-05,9.7e-05,-0.000109
634937,0.000797,-0.01782,-0.336546,0.0,-0.0,-0.0,2.0,0.282024,0.285981,0.282024,0.277986,,,,,,,0.001407,-0.013583,-0.237326,-0.0,9.7e-05,-0.000109
634957,0.000677,-0.01784,-0.336547,0.0,-0.0,-0.0,2.0,0.282024,0.287365,0.282024,0.276534,,,,,,,0.001528,-0.013581,-0.237328,-1e-06,9.9e-05,-0.000109
634977,0.000677,-0.01784,-0.336547,0.0,-0.0,-0.0,2.0,0.282024,0.284842,0.282024,0.279165,,,,,,,0.001407,-0.013579,-0.237331,0.023972,9.9e-05,-0.000109
634997,0.000677,-0.01784,-0.336547,0.0,-0.0,-0.0,2.0,0.282024,0.284965,0.282024,0.279039,,,,,,,0.001407,-0.013577,-0.237333,0.004072,8.4e-05,-0.000108
635017,0.000577,-0.017981,-0.336548,0.0,-0.0,-0.0,2.0,0.282024,0.286936,0.282024,0.276986,,,,,,,0.001428,-0.013575,-0.237335,-0.023955,8.2e-05,-0.000108
635037,0.000577,-0.017981,-0.336548,0.0,-0.0,-0.0,2.0,0.282024,0.285695,0.282024,0.278283,,,,,,,0.001308,-0.013573,-0.237337,-0.004071,9.4e-05,-0.000108
635057,0.000457,-0.018001,-0.336549,0.0,-0.0,-0.0,2.0,0.282024,0.283342,0.282024,0.280697,,,,,,,0.001188,-0.013572,-0.237339,-9.9e-05,8e-05,-0.000108
635077,0.000477,-0.018122,-0.336549,0.0,-0.0,-0.0,2.0,0.282024,0.285756,0.282024,0.27822,,,,,,,0.001187,-0.01357,-0.237341,-0.0,8e-05,-0.000108
635097,0.000478,-0.018121,-0.336663,0.0,-0.0,-0.0,2.0,0.282024,0.285693,0.282024,0.278285,,,,,,,0.001187,-0.013568,-0.237344,-1.7e-05,8e-05,-0.000108
635117,0.000477,-0.018122,-0.336549,0.0,-0.0,-0.0,2.0,0.282024,0.286092,0.282024,0.27787,,,,,,,0.001209,-0.013567,-0.237346,-0.024188,6.5e-05,-0.000107
635137,0.000377,-0.018262,-0.33655,0.0,-0.0,-0.0,2.0,0.282024,0.286302,0.282024,0.277651,,,,,,,0.001209,-0.013566,-0.237348,1e-06,6.7e-05,-0.000118
635157,0.000499,-0.018242,-0.336663,0.0,-0.0,-0.0,2.0,0.282024,0.287575,0.282024,0.276311,,,,,,,0.001207,-0.013564,-0.23735,0.004153,5.5e-05,-0.000107
635177,0.000378,-0.018262,-0.336664,0.0,-0.0,-0.0,2.0,0.282024,0.283428,0.282024,0.28061,,,,,,,0.001108,-0.013563,-0.237353,-0.0001,5.3e-05,-0.000107
635197,0.000398,-0.018383,-0.336551,0.0,-0.0,-0.0,2.0,0.282024,0.285102,0.282024,0.278897,,,,,,,0.001109,-0.013562,-0.237355,-0.000218,5.3e-05,-0.000107
635217,0.000398,-0.018383,-0.336551,0.0,-0.0,-0.0,2.0,0.282024,0.285973,0.282024,0.277994,,,,,,,0.001128,-0.013561,-0.237357,0.00022,4.1e-05,-0.000118
635237,0.000519,-0.018362,-0.336663,0.0,-0.0,-0.0,2.0,0.282024,0.285912,0.282024,0.278057,,,,,,,0.001128,-0.013561,-0.237359,0.0,4.1e-05,-0.000106
635257,0.000398,-0.018383,-0.336551,0.0,-0.0,-0.0,2.0,0.282024,0.286586,0.282024,0.277353,,,,,,,0.00125,-0.01356,-0.237361,-0.024191,4.1e-05,-0.000106
635277,0.000419,-0.018503,-0.336664,0.0,-0.0,-0.0,2.0,0.282024,0.288281,0.282024,0.275561,,,,,,,0.001248,-0.013559,-0.237363,0.000318,4.3e-05,-0.000117
635297,0.000399,-0.018383,-0.336664,0.0,-0.0,-0.0,2.0,0.282024,0.285056,0.282024,0.278945,,,,,,,0.00115,-0.013558,-0.237366,0.019899,4.2e-05,-0.000117
635317,0.000399,-0.018383,-0.336664,0.0,-0.0,-0.0,2.0,0.282024,0.288076,0.282024,0.27578,,,,,,,0.001249,-0.013557,-0.237368,-0.023872,4e-05,-0.000117
635337,0.000399,-0.018383,-0.336664,0.0,-0.0,-0.0,2.0,0.282024,0.285748,0.282024,0.278228,,,,,,,0.001129,-0.013557,-0.23737,0.0,4e-05,-0.000116
635357,0.000519,-0.018362,-0.336663,0.0,-0.0,-0.0,2.0,0.282024,0.285931,0.282024,0.278038,,,,,,,0.001129,-0.013556,-0.237373,-0.0,4e-05,-0.000116
635377,0.000519,-0.018362,-0.336663,0.0,-0.0,-0.0,2.0,0.282024,0.287249,0.282024,0.276657,,,,,,,0.00125,-0.013555,-0.237375,-0.023972,4e-05,-0.000116
635397,0.000519,-0.018362,-0.336663,0.0,-0.0,-0.0,2.0,0.282024,0.286423,0.282024,0.277525,,,,,,,0.00125,-0.013554,-0.237377,-0.0,4.2e-05,-0.000116
635417,0.000499,-0.018242,-0.336663,0.0,-0.0,-0.0,2.0,0.282024,0.286045,0.282024,0.277919,,,,,,,0.00125,-0.013553,-0.23738,-0.0,4.2e-05,-0.000115
635437,0.000519,-0.018362,-0.336663,0.0,-0.0,-0.0,2.0,0.282024,0.286244,0.282024,0.277711,,,,,,,0.00125,-0.013552,-0.237382,1.7e-05,4.2e-05,-0.000115
635457,0.000519,-0.018362,-0.336663,0.0,-0.0,-0.0,2.0,0.282024,0.286043,0.282024,0.277921,,,,,,,0.00125,-0.013552,-0.237384,0.0,4.2e-05,-0.000115
635477,0.000499,-0.018242,-0.336663,0.0,-0.0,-0.0,2.0,0.282024,0.285582,0.282024,0.2784,,,,,,,0.001229,-0.013551,-0.237387,-0.000234,5.4e-05,-0.000103
635497,0.000518,-0.018362,-0.33655,0.0,-0.0,-0.0,2.0,0.282024,0.286003,0.282024,0.277963,,,,,,,0.001229,-0.01355,-0.237389,-0.0,5.4e-05,-0.000114
635517,0.000518,-0.018362,-0.33655,0.0,-0.0,-0.0,2.0,0.282024,0.286281,0.282024,0.277673,,,,,,,0.00125,-0.013549,-0.237391,1e-06,4.2e-05,-0.000114
635537,0.00064,-0.018342,-0.336662,0.0,-0.0,-0.0,2.0,0.282024,0.288042,0.282024,0.275815,,,,,,,0.001368,-0.013548,-0.237393,9.9e-05,4.3e-05,-0.000103
635557,0.000638,-0.018342,-0.336549,0.0,-0.0,-0.0,2.0,0.282024,0.286235,0.282024,0.277721,,,,,,,0.00137,-0.013547,-0.237395,-0.00429,5.5e-05,-0.000102
635577,0.000619,-0.018221,-0.336662,0.0,-0.0,-0.0,2.0,0.282024,0.286207,0.282024,0.27775,,,,,,,0.00137,-0.013546,-0.237398,1e-06,4.3e-05,-0.000113
635597,0.000619,-0.018221,-0.336662,0.0,-0.0,-0.0,2.0,0.282024,0.285988,0.282024,0.277978,,,,,,,0.001348,-0.013545,-0.2374,-1e-06,5.5e-05,-0.000102
635617,0.000619,-0.018221,-0.336662,0.0,-0.0,-0.0,2.0,0.282024,0.286121,0.282024,0.27784,,,,,,,0.00135,-0.013544,-0.237402,-0.000217,5.5e-05,-0.000102
635637,0.000598,-0.018101,-0.336548,0.0,-0.0,-0.0,2.0,0.282024,0.286138,0.282024,0.277822,,,,,,,0.00135,-0.013543,-0.237404,-0.0,5.5e-05,-0.000113
635657,0.000599,-0.018101,-0.336662,0.0,-0.0,-0.0,2.0,0.282024,0.286452,0.282024,0.277494,,,,,,,0.001348,-0.013542,-0.237406,1.7e-05,5.5e-05,-0.000101
635677,0.000719,-0.018081,-0.336661,0.0,-0.0,-0.0,2.0,0.282024,0.28862,0.282024,0.275199,,,,,,,0.001449,-0.01354,-0.237408,-0.023872,6.7e-05,-0.000112
635697,0.000818,-0.01794,-0.336546,0.0,-0.0,-0.0,2.0,0.282024,0.286679,0.282024,0.277257,,,,,,,0.001449,-0.013539,-0.237411,-0.004072,8.1e-05,-0.000112
635717,0.000819,-0.01794,-0.33666,0.0,-0.0,-0.0,2.0,0.282024,0.286875,0.282024,0.27705,,,,,,,0.001548,-0.013537,-0.237413,0.000213,8.3e-05,-0.000112
635737,0.000819,-0.01794,-0.33666,0.0,-0.0,-0.0,2.0,0.282024,0.286308,0.282024,0.277644,,,,,,,0.001549,-0.013536,-0.237415,-0.000213,8.2e-05,-0.0001
635757,0.000677,-0.01784,-0.336547,0.0,-0.0,-0.0,2.0,0.282024,0.28628,0.282024,0.277674,,,,,,,0.001549,-0.013534,-0.237417,-0.0,8.2e-05,-0.000111
635777,0.000799,-0.017819,-0.33666,0.0,-0.0,-0.0,2.0,0.282024,0.287889,0.282024,0.275979,,,,,,,0.001549,-0.013532,-0.237419,-0.003955,9.4e-05,-0.000111
635797,0.000819,-0.01794,-0.33666,0.0,-0.0,-0.0,2.0,0.282024,0.286326,0.282024,0.277626,,,,,,,0.001529,-0.01353,-0.237422,0.0,9.4e-05,-0.000111
635817,0.000799,-0.017819,-0.33666,0.0,-0.0,-0.0,2.0,0.282024,0.28607,0.282024,0.277893,,,,,,,0.001529,-0.013528,-0.237424,-1.7e-05,9.4e-05,-0.000111
635837,0.000919,-0.017799,-0.336659,0.0,-0.0,-0.0,2.0,0.282024,0.286279,0.282024,0.277675,,,,,,,0.001529,-0.013527,-0.237426,-0.0,9.4e-05,-0.00011
635857,0.000898,-0.017679,-0.336659,0.0,-0.0,-0.0,2.0,0.282024,0.286565,0.282024,0.277375,,,,,,,0.001629,-0.013525,-0.237428,-1.7e-05,0.000107,-0.00011
635877,0.001019,-0.017658,-0.336658,0.0,-0.0,-0.0,2.0,0.282024,0.289008,0.282024,0.274782,,,,,,,0.001749,-0.013522,-0.23743,9.9e-05,0.000109,-0.00011
635897,0.001019,-0.017658,-0.336658,0.0,-0.0,-0.0,2.0,0.282024,0.286599,0.282024,0.27734,,,,,,,0.001749,-0.01352,-0.237433,0.0,0.000109,-0.00011
635917,0.000898,-0.017679,-0.336659,0.0,-0.0,-0.0,2.0,0.282024,0.286454,0.282024,0.277491,,,,,,,0.001749,-0.013518,-0.237435,-0.0,0.000109,-0.000109
635937,0.000898,-0.017679,-0.336659,0.0,-0.0,-0.0,2.0,0.282024,0.285071,0.282024,0.278929,,,,,,,0.001629,-0.013516,-0.237437,-0.004072,0.000119,-0.000109
635957,0.000878,-0.017558,-0.336659,0.0,-0.0,-0.0,2.0,0.282024,0.286372,0.282024,0.277578,,,,,,,0.001629,-0.013514,-0.237439,-0.0,0.000106,-0.000109
635977,0.000898,-0.017679,-0.336659,0.0,-0.0,-0.0,2.0,0.282024,0.286622,0.282024,0.277316,,,,,,,0.001629,-0.013512,-0.237441,1.7e-05,0.000106,-0.000109
635997,0.000878,-0.017558,-0.336659,0.0,-0.0,-0.0,2.0,0.282024,0.285977,0.282024,0.27799,,,,,,,0.001608,-0.013509,-0.237443,-1.7e-05,0.000118,-0.000109
636017,0.000978,-0.017417,-0.336658,0.0,-0.0,-0.0,2.0,0.282024,0.286384,0.282024,0.277565,,,,,,,0.001608,-0.013507,-0.237446,-0.0,0.000118,-0.000108
636037,0.000998,-0.017538,-0.336658,0.0,-0.0,-0.0,2.0,0.282024,0.287459,0.282024,0.276434,,,,,,,0.001729,-0.013505,-0.237448,1.7e-05,0.00012,-0.000108
636057,0.000998,-0.017538,-0.336658,0.0,-0.0,-0.0,2.0,0.282024,0.286554,0.282024,0.277387,,,,,,,0.001729,-0.013502,-0.23745,0.0,0.000119,-0.000108
636077,0.000858,-0.017438,-0.336659,0.0,-0.0,-0.0,2.0,0.282024,0.283839,0.282024,0.280193,,,,,,,0.001609,-0.0135,-0.237452,-9.9e-05,0.000117,-0.000108
636097,0.000758,-0.017579,-0.33666,0.0,-0.0,-0.0,2.0,0.282024,0.286611,0.282024,0.277327,,,,,,,0.001608,-0.013497,-0.237454,1.7e-05,0.000117,-0.000107
636117,0.000737,-0.017458,-0.336659,0.0,-0.0,-0.0,2.0,0.282024,0.287879,0.282024,0.275989,,,,,,,0.001587,-0.013495,-0.237456,-0.023889,0.000126,-0.000107
636137,0.000858,-0.017438,-0.336659,0.0,-0.0,-0.0,2.0,0.282024,0.286658,0.282024,0.277279,,,,,,,0.001488,-0.013493,-0.237459,0.019916,0.000128,-0.000107
636157,0.000978,-0.017417,-0.336658,0.0,-0.0,-0.0,2.0,0.282024,0.286827,0.282024,0.277101,,,,,,,0.001589,-0.01349,-0.237461,0.023972,0.00013,-0.000118
636177,0.000978,-0.017417,-0.336658,0.0,-0.0,-0.0,2.0,0.282024,0.287517,0.282024,0.276372,,,,,,,0.001708,-0.013487,-0.237463,-1e-06,0.00013,-0.000106
636197,0.000979,-0.017417,-0.336771,0.0,-0.0,-0.0,2.0,0.282024,0.286594,0.282024,0.277345,,,,,,,0.001708,-0.013485,-0.237465,0.0,0.00013,-0.000106
636217,0.000878,-0.017558,-0.336659,0.0,-0.0,-0.0,2.0,0.282024,0.286562,0.282024,0.277379,,,,,,,0.001709,-0.013482,-0.237467,-0.000207,0.000129,-0.000106
636237,0.000878,-0.017558,-0.336659,0.0,-0.0,-0.0,2.0,0.282024,0.285959,0.282024,0.278008,,,,,,,0.001608,-0.01348,-0.237469,0.000209,0.000115,-0.000117
636257,0.000759,-0.017578,-0.336773,0.0,-0.0,-0.0,2.0,0.282024,0.283801,0.282024,0.280231,,,,,,,0.001488,-0.013478,-0.237472,-9.9e-05,0.000113,-0.000106
636277,0.000758,-0.017579,-0.33666,0.0,-0.0,-0.0,2.0,0.282024,0.286299,0.282024,0.277654,,,,,,,0.001489,-0.013475,-0.237474,-0.000209,0.000112,-0.000106
636297,0.000878,-0.017558,-0.336659,0.0,-0.0,-0.0,2.0,0.282024,0.286512,0.282024,0.277431,,,,,,,0.001488,-0.013473,-0.237476,0.02418,0.000114,-0.000117
636317,0.000998,-0.017538,-0.336658,0.0,-0.0,-0.0,2.0,0.282024,0.286848,0.282024,0.277079,,,,,,,0.001608,-0.013471,-0.237478,0.0,0.000114,-0.000105
636337,0.000998,-0.017538,-0.336658,0.0,-0.0,-0.0,2.0,0.282024,0.287922,0.282024,0.275943,,,,,,,0.001729,-0.013468,-0.23748,-1e-06,0.000116,-0.000105
636357,0.001019,-0.017658,-0.336658,0.0,-0.0,-0.0,2.0,0.282024,0.286696,0.282024,0.277238,,,,,,,0.001729,-0.013466,-0.237482,0.000208,0.000116,-0.000116
636377,0.000899,-0.017678,-0.336772,0.0,-0.0,-0.0,2.0,0.282024,0.286682,0.282024,0.277252,,,,,,,0.001749,-0.013464,-0.237485,-0.023971,0.000101,-0.000104
636397,0.000799,-0.017819,-0.33666,0.0,-0.0,-0.0,2.0,0.282024,0.286657,0.282024,0.277279,,,,,,,0.00165,-0.013462,-0.237487,-0.024166,8.7e-05,-0.000104
636417,0.000659,-0.017719,-0.336774,0.087266,-0.0,-0.0,2.0,0.282024,0.232576,0.282024,0.321305,,,,,,,0.00153,-0.01346,-0.237489,1e-06,8.7e-05,-0.000115
636437,0.0008,-0.017819,-0.336773,0.087266,-0.0,-0.0,2.0,0.282024,0.230257,0.282024,0.322734,,,,,,,0.001408,-0.013458,-0.237491,1.7e-05,8.5e-05,-0.000104
636457,0.0013,-0.017858,-0.336656,0.087266,-0.0,-0.0,2.0,0.282024,0.235314,0.282024,0.319576,,,,,,,0.00165,-0.013457,-0.237493,0.02407,9.1e-05,-0.000115
636477,0.002404,-0.017794,-0.336647,0.087266,-0.0,-0.0,2.0,0.282024,0.241013,0.282024,0.315833,,,,,,,0.002271,-0.013455,-0.237496,0.04814,9.1e-05,-0.000114
636497,0.004392,-0.017828,-0.336744,0.087266,-0.0,-0.0,2.0,0.282024,0.249688,0.282024,0.309737,,,,,,,0.003514,-0.013453,-0.237498,0.100269,7.9e-05,-0.000101
636517,0.007142,-0.017979,-0.336717,0.087266,-0.0,-0.0,2.0,0.282024,0.259361,0.282024,0.302327,,,,,,,0.005622,-0.013452,-0.2375,0.148307,8.2e-05,-0.00011
636537,0.010594,-0.017887,-0.336792,0.087266,-0.0,-0.0,2.0,0.282024,0.274222,0.282024,0.289528,,,,,,,0.008732,-0.01345,-0.237502,0.1486,7.3e-05,-0.000118
636557,0.015093,-0.018111,-0.33702,0.087266,-0.0,-0.0,2.0,0.282024,0.284704,0.282024,0.279308,,,,,,,0.012445,-0.013449,-0.237505,0.220907,8e-05,-0.00013
636577,0.020435,-0.018189,-0.337337,0.087266,-0.0,-0.0,2.0,0.282024,0.292894,0.282024,0.270515,,,,,,,0.017023,-0.013447,-0.237507,0.272796,7.6e-05,-0.000146
636597,0.026259,-0.018183,-0.337632,0.087266,-0.0,-0.0,2.0,0.282024,0.302885,0.282024,0.258662,,,,,,,0.022505,-0.013446,-0.237511,0.272904,5.8e-05,-0.000176
636617,0.032103,-0.018294,-0.337909,0.087266,-0.0,-0.0,2.0,0.282024,0.308982,0.282024,0.250714,,,,,,,0.028349,-0.013445,-0.237514,0.297032,4.9e-05,-0.000216
636637,0.038087,-0.018502,-0.338164,0.087266,-0.0,-0.0,2.0,0.282024,0.313379,0.282024,0.24459,,,,,,,0.034333,-0.013444,-0.237519,0.297577,2.7e-05,-0.000248
636657,0.043713,-0.018774,-0.338358,0.087266,-0.0,-0.0,2.0,0.282024,0.313491,0.282024,0.244429,,,,,,,0.0402,-0.013444,-0.237524,0.301097,-8e-06,-0.00026
636677,0.048955,-0.018984,-0.338487,0.087266,-0.0,-0.0,2.0,0.282024,0.313726,0.282024,0.244092,,,,,,,0.045823,-0.013444,-0.237529,0.272883,-2.5e-05,-0.000262
636697,0.053412,-0.018963,-0.338405,0.087266,-0.0,-0.0,2.0,0.282024,0.308031,0.282024,0.251994,,,,,,,0.050784,-0.013445,-0.237535,0.225365,-3e-05,-0.000281
636717,0.056765,-0.01901,-0.338238,0.087266,-0.0,-0.0,2.0,0.282024,0.302847,0.282024,0.258711,,,,,,,0.055021,-0.013445,-0.23754,0.173328,-3.6e-05,-0.000285
636737,0.059497,-0.019034,-0.338315,0.087266,-0.0,-0.0,2.0,0.282024,0.295009,0.282024,0.268116,,,,,,,0.058255,-0.013446,-0.237546,0.172525,-4.2e-05,-0.000262
636757,0.061342,-0.018968,-0.338136,0.087266,-0.0,-0.0,2.0,0.282024,0.285953,0.282024,0.278015,,,,,,,0.060703,-0.013447,-0.237551,0.101065,-3.2e-05,-0.000249
636777,0.062324,-0.018927,-0.337987,0.087266,-0.0,-0.0,2.0,0.282024,0.277217,0.282024,0.286717,,,,,,,0.062332,-0.013447,-0.237556,0.04394,-2.1e-05,-0.000232
636797,0.062987,-0.019185,-0.337956,0.087266,-0.0,-0.0,2.0,0.282024,0.272671,0.282024,0.290951,,,,,,,0.063315,-0.013448,-0.23756,0.048028,-2.9e-05,-0.000228
636817,0.063107,-0.019164,-0.337952,0.087266,-0.0,-0.0,2.0,0.282024,0.263806,0.282024,0.298688,,,,,,,0.063697,-0.013449,-0.237565,-1.8e-05,-3.9e-05,-0.000226
636837,0.063108,-0.01916,-0.338066,0.087266,-0.0,-0.0,2.0,0.282024,0.261719,0.282024,0.300416,,,,,,,0.063838,-0.01345,-0.237569,0.000101,-4.8e-05,-0.000237
636857,0.063369,-0.019235,-0.338168,0.087266,-0.0,-0.0,2.0,0.282024,0.260563,0.282024,0.301358,,,,,,,0.063838,-0.013451,-0.237574,0.028042,-5.8e-05,-0.000235
636877,0.063995,-0.019252,-0.338204,0.087266,-0.0,-0.0,2.0,0.282024,0.265522,0.282024,0.297242,,,,,,,0.064224,-0.013452,-0.237579,0.01997,-3.9e-05,-0.000251
636897,0.065119,-0.019303,-0.338273,0.087266,-0.0,-0.0,2.0,0.282024,0.267479,0.282024,0.295562,,,,,,,0.064846,-0.013453,-0.237584,0.076053,-6e-05,-0.000258
636917,0.066608,-0.019295,-0.338276,0.087266,-0.0,-0.0,2.0,0.282024,0.277776,0.282024,0.286182,,,,,,,0.066229,-0.013454,-0.237589,0.076263,-7.4e-05,-0.000252
636937,0.068855,-0.0194,-0.338297,0.087266,-0.0,-0.0,2.0,0.282024,0.282962,0.282024,0.281082,,,,,,,0.067838,-0.013455,-0.237594,0.120273,-5.4e-05,-0.000262
636957,0.071447,-0.019322,-0.338366,0.087266,-0.0,-0.0,2.0,0.282024,0.287552,0.282024,0.276336,,,,,,,0.070069,-0.013456,-0.237599,0.124251,-6.5e-05,-0.000258
636977,0.074419,-0.019306,-0.3383,0.087266,-0.0,-0.0,2.0,0.282024,0.297449,0.282024,0.265278,,,,,,,0.072941,-0.013458,-0.237605,0.124475,-7.7e-05,-0.000263
636997,0.077653,-0.019364,-0.33833,0.087266,-0.0,-0.0,2.0,0.282024,0.30262,0.282024,0.258995,,,,,,,0.076013,-0.013459,-0.23761,0.172449,-5.6e-05,-0.000266
637017,0.081253,-0.019355,-0.338513,0.087266,-0.0,-0.0,2.0,0.282024,0.305954,0.282024,0.254736,,,,,,,0.079346,-0.01346,-0.237615,0.176678,-6e-05,-0.000268
637037,0.084748,-0.019491,-0.338517,0.087266,-0.0,-0.0,2.0,0.282024,0.305591,0.282024,0.255208,,,,,,,0.082743,-0.013462,-0.237621,0.172335,-7.6e-05,-0.000268
637057,0.087987,-0.019553,-0.338478,0.087266,-0.0,-0.0,2.0,0.282024,0.309683,0.282024,0.249761,,,,,,,0.086342,-0.013463,-0.237626,0.148469,-7.7e-05,-0.000274
637077,0.09096,-0.019524,-0.338615,0.087266,-0.0,-0.0,2.0,0.282024,0.309734,0.282024,0.249691,,,,,,,0.089576,-0.013465,-0.237632,0.148451,-8.2e-05,-0.000275
637097,0.093593,-0.019689,-0.338533,0.087266,-0.0,-0.0,2.0,0.282024,0.304333,0.282024,0.256827,,,,,,,0.09231,-0.013467,-0.237637,0.128442,-9.8e-05,-0.000278
637117,0.095563,-0.019591,-0.338606,0.087266,-0.0,-0.0,2.0,0.282024,0.301566,0.282024,0.260306,,,,,,,0.094802,-0.013468,-0.237643,0.100199,-9.5e-05,-0.000271
637137,0.097053,-0.019582,-0.338587,0.087266,-0.0,-0.0,2.0,0.282024,0.297791,0.282024,0.264874,,,,,,,0.096673,-0.01347,-0.237648,0.100157,-9.9e-05,-0.000278
637157,0.098035,-0.019536,-0.338535,0.087266,-0.0,-0.0,2.0,0.282024,0.291924,0.282024,0.271598,,,,,,,0.098043,-0.013472,-0.237654,0.043998,-8e-05,-0.000278
637177,0.098677,-0.019672,-0.338494,0.087266,-0.0,-0.0,2.0,0.282024,0.290447,0.282024,0.273223,,,,,,,0.099025,-0.013474,-0.237659,0.000214,-9.1e-05,-0.000284
637197,0.098797,-0.019646,-0.338602,0.087266,-0.0,-0.0,2.0,0.282024,0.283632,0.282024,0.280403,,,,,,,0.099386,-0.013476,-0.237665,0.028043,-9.4e-05,-0.000281
637217,0.098783,-0.019519,-0.338781,0.087266,-0.0,-0.0,2.0,0.282024,0.280733,0.282024,0.283307,,,,,,,0.099527,-0.013478,-0.237671,0.019841,-8e-05,-0.00028
637237,0.098803,-0.01964,-0.338776,0.087266,-0.0,-0.0,2.0,0.282024,0.278976,0.282024,0.285026,,,,,,,0.099513,-0.013479,-0.237676,0.004064,-9.4e-05,-0.000286
637257,0.098923,-0.019619,-0.33877,0.087266,-0.0,-0.0,2.0,0.282024,0.279837,0.282024,0.284188,,,,,,,0.099513,-0.013481,-0.237682,0.00408,-9.3e-05,-0.000296
637277,0.099164,-0.019577,-0.338758,0.087266,-0.0,-0.0,2.0,0.282024,0.281766,0.282024,0.282282,,,,,,,0.099654,-0.013483,-0.237688,0.023934,-8.9e-05,-0.000295
637297,0.099644,-0.019494,-0.338734,0.087266,-0.0,-0.0,2.0,0.282024,0.282838,0.282024,0.281207,,,,,,,0.099915,-0.013485,-0.237694,0.019856,-8.4e-05,-0.000293
637317,0.100286,-0.01963,-0.338694,0.087266,-0.0,-0.0,2.0,0.282024,0.287835,0.282024,0.276036,,,,,,,0.100515,-0.013486,-0.2377,0.02405,-8.6e-05,-0.000289
637337,0.101275,-0.019584,-0.338701,0.087266,-0.0,-0.0,2.0,0.282024,0.290425,0.282024,0.273247,,,,,,,0.101256,-0.013488,-0.237705,0.048037,-8.4e-05,-0.000272
637357,0.102497,-0.019502,-0.338521,0.087266,-0.0,-0.0,2.0,0.282024,0.293227,0.282024,0.270141,,,,,,,0.102265,-0.01349,-0.237711,0.072018,-8.8e-05,-0.000282
637377,0.103986,-0.019487,-0.33861,0.087266,-0.0,-0.0,2.0,0.282024,0.297403,0.282024,0.265332,,,,,,,0.103607,-0.013491,-0.237717,0.072111,-7.7e-05,-0.000275
637397,0.105617,-0.019577,-0.338573,0.087266,-0.0,-0.0,2.0,0.282024,0.299854,0.282024,0.262402,,,,,,,0.105096,-0.013493,-0.237722,0.072131,-7.6e-05,-0.000271
637417,0.10734,-0.019526,-0.338473,0.087266,-0.0,-0.0,2.0,0.282024,0.301397,0.282024,0.260515,,,,,,,0.106706,-0.013495,-0.237727,0.096025,-7.1e-05,-0.000267
637437,0.108949,-0.019489,-0.338552,0.087266,-0.0,-0.0,2.0,0.282024,0.305139,0.282024,0.255793,,,,,,,0.108555,-0.013496,-0.237733,0.052355,-7.9e-05,-0.000274
637457,0.11058,-0.019571,-0.338624,0.087266,-0.0,-0.0,2.0,0.282024,0.305858,0.282024,0.254861,,,,,,,0.110179,-0.013498,-0.237738,0.07766,-8.5e-05,-0.00028
637477,0.112069,-0.019555,-0.338708,0.087266,-0.0,-0.0,2.0,0.282024,0.303789,0.282024,0.25752,,,,,,,0.111669,-0.013499,-0.237744,0.072077,-7.2e-05,-0.000271
637497,0.113192,-0.019607,-0.338636,0.087266,-0.0,-0.0,2.0,0.282024,0.302007,0.282024,0.25976,,,,,,,0.113039,-0.013501,-0.237749,0.05215,-8.6e-05,-0.00028
637517,0.11406,-0.019581,-0.338644,0.087266,-0.0,-0.0,2.0,0.282024,0.302101,0.282024,0.259643,,,,,,,0.114189,-0.013503,-0.237755,0.020048,-8.1e-05,-0.00029
637537,0.114801,-0.019569,-0.338711,0.087266,-0.0,-0.0,2.0,0.282024,0.297511,0.282024,0.265204,,,,,,,0.11491,-0.013504,-0.237761,0.052047,-9.1e-05,-0.000273
637557,0.115042,-0.019535,-0.338584,0.087266,-0.0,-0.0,2.0,0.282024,0.295446,0.282024,0.267613,,,,,,,0.115532,-0.013506,-0.237766,-1e-06,-8.4e-05,-0.00027
637577,0.115182,-0.019634,-0.338571,0.087266,-0.0,-0.0,2.0,0.282024,0.296061,0.282024,0.266902,,,,,,,0.115912,-0.013508,-0.237771,-0.00398,-7.8e-05,-0.000268
637597,0.114901,-0.019443,-0.338483,0.087266,-0.0,-0.0,2.0,0.282024,0.28886,0.282024,0.274942,,,,,,,0.115752,-0.013509,-0.237777,0.003966,-8e-05,-0.000268
637617,0.114781,-0.019463,-0.33849,0.087266,-0.0,-0.0,2.0,0.282024,0.291372,0.282024,0.272208,,,,,,,0.115652,-0.013511,-0.237782,-0.028006,-7.2e-05,-0.000269
637637,0.114561,-0.019625,-0.338497,0.087266,-0.0,-0.0,2.0,0.282024,0.28918,0.282024,0.274597,,,,,,,0.115392,-0.013512,-0.237787,0.003994,-8.6e-05,-0.000257
637657,0.114541,-0.019505,-0.338503,0.087266,-0.0,-0.0,2.0,0.282024,0.291128,0.282024,0.272477,,,,,,,0.115271,-0.013514,-0.237792,-0.028043,-6.6e-05,-0.000259
637677,0.114661,-0.019484,-0.338497,0.087266,-0.0,-0.0,2.0,0.282024,0.292828,0.282024,0.270589,,,,,,,0.115271,-0.013515,-0.237798,-0.0,-7.6e-05,-0.000258
637697,0.115042,-0.019542,-0.33847,0.087266,-0.0,-0.0,2.0,0.282024,0.296184,0.282024,0.266759,,,,,,,0.115511,-0.013517,-0.237803,0.024024,-7e-05,-0.000255
637717,0.115543,-0.019579,-0.338437,0.087266,-0.0,-0.0,2.0,0.282024,0.297725,0.282024,0.264952,,,,,,,0.115892,-0.013518,-0.237808,0.024024,-7.5e-05,-0.000252
637737,0.116271,-0.019446,-0.33857,0.087266,-0.0,-0.0,2.0,0.282024,0.299068,0.282024,0.26335,,,,,,,0.116393,-0.01352,-0.237813,0.049375,-7.7e-05,-0.000253
637757,0.116772,-0.019483,-0.338537,0.087266,-0.0,-0.0,2.0,0.282024,0.301356,0.282024,0.260566,,,,,,,0.117141,-0.013522,-0.237818,0.000115,-8e-05,-0.000261
637777,0.117421,-0.019612,-0.338664,0.087266,-0.0,-0.0,2.0,0.282024,0.300851,0.282024,0.261187,,,,,,,0.117642,-0.013523,-0.237823,0.047959,-7.8e-05,-0.000267
637797,0.118,-0.019387,-0.338636,0.087266,-0.0,-0.0,2.0,0.282024,0.301145,0.282024,0.260825,,,,,,,0.118271,-0.013525,-0.237828,0.019923,-7e-05,-0.00027
637817,0.118501,-0.019424,-0.338602,0.087266,-0.0,-0.0,2.0,0.282024,0.29967,0.282024,0.262625,,,,,,,0.118751,-0.013526,-0.237834,0.047863,-7.1e-05,-0.000265
637837,0.118742,-0.019375,-0.338702,0.087266,-0.0,-0.0,2.0,0.282024,0.299928,0.282024,0.262313,,,,,,,0.119232,-0.013527,-0.237839,0.023921,-6.5e-05,-0.000263
637857,0.119102,-0.01932,-0.338568,0.087266,-0.0,-0.0,2.0,0.282024,0.300895,0.282024,0.261133,,,,,,,0.119612,-0.013529,-0.237845,-0.003971,-6e-05,-0.000261
637877,0.119102,-0.01932,-0.338568,0.087266,-0.0,-0.0,2.0,0.282024,0.297438,0.282024,0.265291,,,,,,,0.119741,-0.01353,-0.23785,-7.6e-05,-6.9e-05,-0.000276
637897,0.119102,-0.01932,-0.338568,0.087266,-0.0,-0.0,2.0,0.282024,0.298556,0.282024,0.263964,,,,,,,0.119853,-0.013531,-0.237855,-0.00408,-5.6e-05,-0.000258
637917,0.119102,-0.01932,-0.338568,0.087266,-0.0,-0.0,2.0,0.282024,0.297833,0.282024,0.264823,,,,,,,0.119832,-0.013533,-0.23786,1.1e-05,-5.7e-05,-0.000246
637937,0.118841,-0.019249,-0.338475,0.087266,-0.0,-0.0,2.0,0.282024,0.295729,0.282024,0.267286,,,,,,,0.119713,-0.013534,-0.237865,-9.9e-05,-5.9e-05,-0.000247
637957,0.118721,-0.01927,-0.338481,0.087266,-0.0,-0.0,2.0,0.282024,0.297212,0.282024,0.265556,,,,,,,0.119592,-0.013535,-0.23787,-0.00408,-4.8e-05,-0.000259
637977,0.118721,-0.019262,-0.338595,0.087266,-0.0,-0.0,2.0,0.282024,0.297873,0.282024,0.264777,,,,,,,0.119452,-0.013536,-0.237875,0.004087,-6.2e-05,-0.000258
637997,0.118721,-0.019262,-0.338595,0.087266,-0.0,-0.0,2.0,0.282024,0.29675,0.282024,0.266099,,,,,,,0.119352,-0.013537,-0.23788,0.019746,-5e-05,-0.000247
638017,0.118862,-0.019361,-0.338581,0.087266,-0.0,-0.0,2.0,0.282024,0.299262,0.282024,0.263117,,,,,,,0.119451,-0.013538,-0.237886,-0.0,-5e-05,-0.000258
638037,0.118961,-0.019221,-0.338581,0.087266,-0.0,-0.0,2.0,0.282024,0.300492,0.282024,0.261625,,,,,,,0.119572,-0.013539,-0.237891,-1.8e-05,-4.7e-05,-0.000257
638057,0.11925,-0.019419,-0.338615,0.087266,-0.0,-0.0,2.0,0.282024,0.301264,0.282024,0.260678,,,,,,,0.119733,-0.01354,-0.237896,0.019856,-5.5e-05,-0.000254
638077,0.11937,-0.019398,-0.338608,0.087266,-0.0,-0.0,2.0,0.282024,0.302049,0.282024,0.259707,,,,,,,0.11998,-0.013541,-0.237901,-1.3e-05,-6.4e-05,-0.00027
638097,0.11949,-0.01937,-0.338714,0.087266,-0.0,-0.0,2.0,0.282024,0.301875,0.282024,0.259923,,,,,,,0.120101,-0.013542,-0.237906,-1e-06,-6.3e-05,-0.000257
638117,0.11949,-0.01937,-0.338714,0.087266,-0.0,-0.0,2.0,0.282024,0.29873,0.282024,0.263756,,,,,,,0.12008,-0.013544,-0.237911,0.023807,-4.8e-05,-0.000268
638137,0.11935,-0.019271,-0.338728,0.087266,-0.0,-0.0,2.0,0.282024,0.301655,0.282024,0.260196,,,,,,,0.1202,-0.013545,-0.237917,-0.02394,-5e-05,-0.000268
638157,0.11935,-0.019271,-0.338728,0.087266,-0.0,-0.0,2.0,0.282024,0.300996,0.282024,0.261008,,,,,,,0.12008,-0.013546,-0.237922,0.0041,-6.2e-05,-0.000267
638177,0.119089,-0.019192,-0.338748,0.087266,-0.0,-0.0,2.0,0.282024,0.297353,0.282024,0.265391,,,,,,,0.119841,-0.013547,-0.237927,0.019624,-4e-05,-0.000268
638197,0.118989,-0.019333,-0.338748,0.087266,-0.0,-0.0,2.0,0.282024,0.300956,0.282024,0.261058,,,,,,,0.11984,-0.013548,-0.237933,-0.005533,-4.2e-05,-0.000251
638217,0.118982,-0.019341,-0.338575,0.087266,-0.0,-0.0,2.0,0.282024,0.299815,0.282024,0.26245,,,,,,,0.119671,-0.013549,-0.237938,0.005524,-4.4e-05,-0.000269
638237,0.118821,-0.019121,-0.338595,0.087266,-0.0,-0.0,2.0,0.282024,0.302484,0.282024,0.259164,,,,,,,0.119692,-0.013549,-0.237943,-0.023939,-4.6e-05,-0.000251
638257,0.118961,-0.019221,-0.338581,0.087266,-0.0,-0.0,2.0,0.282024,0.301829,0.282024,0.259981,,,,,,,0.119572,-0.01355,-0.237948,0.023939,-4.4e-05,-0.00025
638277,0.119081,-0.0192,-0.338574,0.087266,-0.0,-0.0,2.0,0.282024,0.30279,0.282024,0.258782,,,,,,,0.119671,-0.013551,-0.237953,0.028003,-4.2e-05,-0.000249
638297,0.119209,-0.019179,-0.338628,0.087266,-0.0,-0.0,2.0,0.282024,0.303546,0.282024,0.257829,,,,,,,0.119812,-0.013552,-0.237958,-0.004084,-3.1e-05,-0.000238
638317,0.119202,-0.019179,-0.338567,0.087266,-0.0,-0.0,2.0,0.282024,0.301197,0.282024,0.260762,,,,,,,0.119792,-0.013553,-0.237963,0.025267,-2.8e-05,-0.000254
638337,0.119061,-0.01908,-0.338581,0.087266,-0.0,-0.0,2.0,0.282024,0.303788,0.282024,0.257522,,,,,,,0.119919,-0.013553,-0.237968,0.004086,-4e-05,-0.000253
638357,0.119081,-0.0192,-0.338574,0.087266,-0.0,-0.0,2.0,0.282024,0.305896,0.282024,0.254811,,,,,,,0.119931,-0.013554,-0.237973,-0.023807,-4.2e-05,-0.000247
638377,0.118841,-0.019241,-0.338588,0.087266,-0.0,-0.0,2.0,0.282024,0.301557,0.282024,0.260318,,,,,,,0.119692,-0.013555,-0.237978,-9.9e-05,-4.4e-05,-0.000247
638397,0.118701,-0.019142,-0.338601,0.087266,-0.0,-0.0,2.0,0.282024,0.30319,0.282024,0.258278,,,,,,,0.119551,-0.013556,-0.237983,-0.023937,-3.6e-05,-0.000249
638417,0.11858,-0.019163,-0.338608,0.087266,-0.0,-0.0,2.0,0.282024,0.301698,0.282024,0.260143,,,,,,,0.119311,-0.013556,-0.237988,-0.004199,-2.6e-05,-0.00025
638437,0.11844,-0.019064,-0.338622,0.087266,-0.0,-0.0,2.0,0.282024,0.304286,0.282024,0.256888,,,,,,,0.11929,-0.013557,-0.237993,-1.7e-05,-2.6e-05,-0.000249
638457,0.11844,-0.019071,-0.338508,0.087266,-0.0,-0.0,2.0,0.282024,0.304289,0.282024,0.256883,,,,,,,0.11917,-0.013557,-0.237998,0.0,-2.8e-05,-0.000249
638477,0.11844,-0.019064,-0.338622,0.087266,-0.0,-0.0,2.0,0.282024,0.305134,0.282024,0.255799,,,,,,,0.11917,-0.013558,-0.238003,-1.3e-05,-2.8e-05,-0.000249
638497,0.11846,-0.019184,-0.338615,0.087266,-0.0,-0.0,2.0,0.282024,0.30544,0.282024,0.255404,,,,,,,0.11917,-0.013559,-0.238008,0.004109,-4e-05,-0.000236
638517,0.11846,-0.019184,-0.338615,0.087266,-0.0,-0.0,2.0,0.282024,0.305752,0.282024,0.254999,,,,,,,0.119191,-0.013559,-0.238013,0.0,-4e-05,-0.000247
638537,0.11846,-0.019184,-0.338615,0.087266,-0.0,-0.0,2.0,0.282024,0.306367,0.282024,0.254197,,,,,,,0.119211,-0.01356,-0.238018,-0.004083,-3.9e-05,-0.000247
638557,0.11834,-0.019205,-0.338622,0.087266,-0.0,-0.0,2.0,0.282024,0.306093,0.282024,0.254555,,,,,,,0.119191,-0.013561,-0.238023,0.0,-3.9e-05,-0.000246
638577,0.11832,-0.019085,-0.338629,0.087266,-0.0,-0.0,2.0,0.282024,0.305416,0.282024,0.255435,,,,,,,0.11905,-0.013562,-0.238028,0.004082,-4.1e-05,-0.000246
638597,0.118179,-0.018985,-0.338642,0.087266,-0.0,-0.0,2.0,0.282024,0.304195,0.282024,0.257004,,,,,,,0.11893,-0.013562,-0.238032,0.023825,-2.9e-05,-0.000247
638617,0.118079,-0.019126,-0.338642,0.087266,-0.0,-0.0,2.0,0.282024,0.306557,0.282024,0.253947,,,,,,,0.11893,-0.013563,-0.238037,-0.023907,-3.3e-05,-0.000247
638637,0.118079,-0.019126,-0.338642,0.087266,-0.0,-0.0,2.0,0.282024,0.306262,0.282024,0.254334,,,,,,,0.11881,-0.013564,-0.238042,0.0,-3.3e-05,-0.000247
638657,0.117959,-0.019147,-0.338649,0.087266,-0.0,-0.0,2.0,0.282024,0.304858,0.282024,0.256154,,,,,,,0.11869,-0.013564,-0.238047,-9.9e-05,-3.5e-05,-0.000247
638677,0.117839,-0.019168,-0.338656,0.087266,-0.0,-0.0,2.0,0.282024,0.307352,0.282024,0.252897,,,,,,,0.11869,-0.013565,-0.238052,-0.004099,-2.3e-05,-0.000247
638697,0.117819,-0.019048,-0.338662,0.087266,-0.0,-0.0,2.0,0.282024,0.306157,0.282024,0.254471,,,,,,,0.118549,-0.013566,-0.238057,-1.6e-05,-2.5e-05,-0.000247
638717,0.117699,-0.019069,-0.338669,0.087266,-0.0,-0.0,2.0,0.282024,0.305359,0.282024,0.255509,,,,,,,0.118429,-0.013566,-0.238062,0.004,-3.9e-05,-0.000247
638737,0.117678,-0.018949,-0.338676,0.087266,-0.0,-0.0,2.0,0.282024,0.307933,0.282024,0.252125,,,,,,,0.118429,-0.013567,-0.238067,0.0,-2.7e-05,-0.000247
638757,0.117537,-0.01885,-0.338689,0.087266,-0.0,-0.0,2.0,0.282024,0.308111,0.282024,0.251886,,,,,,,0.118408,-0.013567,-0.238072,-0.023924,-1.7e-05,-0.000248
638777,0.117558,-0.01897,-0.338683,0.087266,-0.0,-0.0,2.0,0.282024,0.308465,0.282024,0.251411,,,,,,,0.118288,-0.013568,-0.238077,1.7e-05,-1.7e-05,-0.000248
638797,0.117458,-0.019111,-0.338683,0.087266,-0.0,-0.0,2.0,0.282024,0.306424,0.282024,0.254122,,,,,,,0.118169,-0.013568,-0.238082,-9.9e-05,-1.9e-05,-0.000248
638817,0.117318,-0.019011,-0.338696,0.087266,-0.0,-0.0,2.0,0.282024,0.306285,0.282024,0.254304,,,,,,,0.118049,-0.013568,-0.238087,0.003982,-3.3e-05,-0.000247
638837,0.11707,-0.019053,-0.338649,0.087266,-0.0,-0.0,2.0,0.282024,0.306832,0.282024,0.253585,,,,,,,0.117949,-0.013569,-0.238092,-0.029547,-2.6e-05,-0.000243
638857,0.11695,-0.019074,-0.338656,0.087266,-0.0,-0.0,2.0,0.282024,0.308196,0.282024,0.251773,,,,,,,0.117801,-0.013569,-0.238097,-0.004097,-1.3e-05,-0.000243
638877,0.116689,-0.018996,-0.338676,0.087266,-0.0,-0.0,2.0,0.282024,0.306049,0.282024,0.254612,,,,,,,0.11754,-0.01357,-0.238102,-0.024038,-2e-05,-0.000244
638897,0.116288,-0.018811,-0.338823,0.087266,-0.0,-0.0,2.0,0.282024,0.306272,0.282024,0.25432,,,,,,,0.11728,-0.01357,-0.238106,-0.024053,-1.1e-05,-0.000257
638917,0.116027,-0.018732,-0.338843,0.087266,-0.0,-0.0,2.0,0.282024,0.307911,0.282024,0.252153,,,,,,,0.117018,-0.01357,-0.238112,1e-06,-1e-06,-0.000258
638937,0.115766,-0.018654,-0.338862,0.087266,-0.0,-0.0,2.0,0.282024,0.307666,0.282024,0.252481,,,,,,,0.116757,-0.01357,-0.238117,-0.023922,5e-06,-0.00026
638957,0.115546,-0.018816,-0.338869,0.087266,-0.0,-0.0,2.0,0.282024,0.306122,0.282024,0.254516,,,,,,,0.116397,-0.01357,-0.238122,-8.1e-05,0.0,-0.000261
638977,0.115186,-0.018878,-0.338889,0.087266,-0.0,-0.0,2.0,0.282024,0.308613,0.282024,0.251213,,,,,,,0.116277,-0.01357,-0.238127,-0.047849,-6e-06,-0.000262
638997,0.114946,-0.01892,-0.338903,0.087266,-0.0,-0.0,2.0,0.282024,0.308194,0.282024,0.251776,,,,,,,0.115916,-0.01357,-0.238133,-0.023925,-1e-05,-0.000263
639017,0.114578,-0.018983,-0.338863,0.087266,-0.0,-0.0,2.0,0.282024,0.303666,0.282024,0.257677,,,,,,,0.11543,-0.01357,-0.238138,-0.000203,-1.6e-05,-0.000259
639037,0.114197,-0.018925,-0.338889,0.087266,-0.0,-0.0,2.0,0.282024,0.30622,0.282024,0.254388,,,,,,,0.115189,-0.013571,-0.238143,-0.028125,-1e-05,-0.000261
639057,0.113817,-0.018868,-0.338915,0.087266,-0.0,-0.0,2.0,0.282024,0.305668,0.282024,0.255108,,,,,,,0.114788,-0.013571,-0.238148,-0.024039,-5e-06,-0.000263
639077,0.113436,-0.01881,-0.338941,0.087266,-0.0,-0.0,2.0,0.282024,0.30619,0.282024,0.254428,,,,,,,0.114427,-0.013571,-0.238153,-9.8e-05,-9e-06,-0.000264
639097,0.113075,-0.018873,-0.338961,0.087266,-0.0,-0.0,2.0,0.282024,0.305703,0.282024,0.255062,,,,,,,0.114046,-0.013571,-0.238159,-0.019925,-1.7e-05,-0.000266
639117,0.112567,-0.018836,-0.338933,0.087266,-0.0,-0.0,2.0,0.282024,0.306745,0.282024,0.253699,,,,,,,0.113686,-0.013571,-0.238164,-0.024027,-1.1e-05,-0.000268
639137,0.112087,-0.018919,-0.338959,0.087266,-0.0,-0.0,2.0,0.282024,0.305368,0.282024,0.255496,,,,,,,0.113178,-0.013572,-0.238169,-0.024024,-8e-06,-0.000265
639157,0.111726,-0.018982,-0.338978,0.087266,-0.0,-0.0,2.0,0.282024,0.305533,0.282024,0.255284,,,,,,,0.112697,-0.013572,-0.238175,-0.024027,-1.6e-05,-0.000267
639177,0.111225,-0.018945,-0.339011,0.087266,-0.0,-0.0,2.0,0.282024,0.306347,0.282024,0.254223,,,,,,,0.112317,-0.013572,-0.23818,-0.024044,-1e-05,-0.000269
639197,0.110724,-0.018909,-0.339043,0.087266,-0.0,-0.0,2.0,0.282024,0.305572,0.282024,0.255233,,,,,,,0.111836,-0.013572,-0.238185,-0.028126,-7e-06,-0.000271
639217,0.110357,-0.018971,-0.339002,0.087266,-0.0,-0.0,2.0,0.282024,0.307654,0.282024,0.252496,,,,,,,0.111475,-0.013573,-0.238191,-0.028012,-1.3e-05,-0.000273
