time_ms,roll,pitch,yaw,roll_rate,pitch_rate,yaw_rate,reference_roll,reference_pitch,reference_yaw,reference_throttle,throttle_1,throttle_2,throttle_3,throttle_4,roll_predicted,pitch_predicted,yaw_predicted,roll_rate_predicted,pitch_rate_predicted,yaw_rate_predicted
69720,0.000652,-0.027843,0.023338,0.0,-0.001064,0.0,0.0,-0.0,-0.0,2.0,0.282024,0.269767,0.282024,0.293559,,,,,,
69740,0.000774,-0.027844,0.023339,-0.001064,-0.001064,-0.001064,0.000481,-0.0,-0.0,2.0,0.282024,0.269623,0.282024,0.293686,,,,,,
69760,0.000898,-0.027846,0.023219,-0.001064,0.0,0.0,0.001425,-0.0,-0.0,2.0,0.282024,0.271215,0.282024,0.292268,,,,,,
69780,0.000897,-0.027724,0.023341,0.0,-0.001064,0.0,0.001899,-0.0,-0.0,2.0,0.282024,0.271003,0.282024,0.292458,,,,,,
69800,0.000774,-0.027844,0.023339,-0.001064,-0.001064,-0.001064,0.00307,-0.0,-0.0,2.0,0.282024,0.268481,0.282024,0.294691,,,,,,
69820,0.000776,-0.027844,0.023217,-0.001064,0.0,-0.001064,0.004,-0.0,-0.0,2.0,0.282024,0.268039,0.282024,0.295076,,,,,,
69840,0.000776,-0.027844,0.023217,-0.001064,0.0,0.0,0.00492,-0.0,-0.0,2.0,0.282024,0.269544,0.282024,0.293756,,,,,,
69860,0.000651,-0.027965,0.023338,0.0,0.0,0.0,0.005836,-0.0,-0.0,2.0,0.282024,0.267059,0.282024,0.295926,,,,,,
69880,0.000773,-0.027966,0.023339,0.0,-0.001064,-0.001064,0.006297,-0.0,-0.0,2.0,0.282024,0.266823,0.282024,0.296129,,,,,,
69900,0.001018,-0.027969,0.023221,-0.001064,-0.001064,-0.001064,0.007608,-0.0,-0.0,2.0,0.282024,0.268236,0.282024,0.294905,,,,,,
69920,0.001018,-0.027969,0.023221,-0.001064,0.0,0.0,0.008086,-0.0,-0.0,2.0,0.282024,0.267917,0.282024,0.295183,,,,,,
69940,0.00114,-0.027849,0.023344,0.0,-0.001064,0.0,0.009005,-0.0,-0.0,2.0,0.282024,0.265465,0.282024,0.29729,,,,,,
69960,0.001018,-0.027847,0.023343,-0.001064,-0.001064,-0.001064,0.009932,-0.0,-0.0,2.0,0.282024,0.264867,0.282024,0.297796,,,,,,
69980,0.00114,-0.027849,0.023344,-0.001064,0.0,-0.001064,0.010843,-0.0,-0.0,2.0,0.282024,0.264362,0.282024,0.298222,,,,,,
70000,0.00114,-0.027849,0.023344,-0.001064,0.0,0.0,0.011297,-0.0,-0.0,2.0,0.282024,0.265991,0.282024,0.296842,,,,,,
70020,0.001017,-0.027969,0.023343,0.0,-0.001064,0.0,0.012597,-0.0,-0.0,2.0,0.282024,0.26519,0.282024,0.297523,,,,,,
70040,0.001137,-0.027971,0.023467,0.0,-0.001064,-0.001064,0.013512,-0.0,-0.0,2.0,0.282024,0.262624,0.282024,0.299671,,,,,,
70060,0.001262,-0.02785,0.023346,-0.001064,0.0,-0.001064,0.014418,-0.0,-0.0,2.0,0.282024,0.264078,0.282024,0.29846,,,,,,
70080,0.001384,-0.027851,0.023348,-0.001064,0.0,0.0,0.015322,-0.0,-0.0,2.0,0.282024,0.2635,0.282024,0.298943,,,,,,
70100,0.001507,-0.027609,0.023471,0.0,-0.001064,0.0,0.015783,-0.0,-0.0,2.0,0.282024,0.263107,0.282024,0.299271,,,,,,
70120,0.001631,-0.027488,0.023473,0.0,-0.001064,-0.001064,0.017106,-0.0,-0.0,2.0,0.282024,0.260278,0.282024,0.301588,,,,,,
70140,0.001875,-0.027491,0.023476,0.0,0.0,-0.001064,0.017575,-0.0,-0.0,2.0,0.282024,0.261947,0.282024,0.300228,,,,,,
70160,0.002241,-0.027495,0.023481,0.0,0.0,0.0,0.018472,-0.0,-0.0,2.0,0.282024,0.26143,0.282024,0.300652,,,,,,
70180,0.002482,-0.027498,0.023729,0.001064,0.0,-0.001064,0.019369,-0.0,-0.0,2.0,0.282024,0.260847,0.282024,0.301127,,,,,,
70200,0.003091,-0.027628,0.023737,0.001064,-0.001064,-0.001064,0.019813,-0.0,-0.0,2.0,0.282024,0.260621,0.282024,0.301311,,,,,,
70220,0.003701,-0.027635,0.023746,0.001064,-0.001064,-0.001064,0.021072,-0.0,-0.0,2.0,0.282024,0.262073,0.282024,0.300125,,,,,,
70240,0.004555,-0.027645,0.023757,0.001064,0.0,0.0,0.022009,-0.0,-0.0,2.0,0.282024,0.261726,0.282024,0.30041,,,,,,
70260,0.005408,-0.027534,0.024013,0.001064,0.0,0.0,0.0229,-0.0,-0.0,2.0,0.282024,0.261396,0.282024,0.30068,,,,,,
70280,0.006262,-0.027422,0.024146,0.002128,-0.001064,-0.001064,0.023784,-0.0,-0.0,2.0,0.282024,0.263103,0.282024,0.299274,,,,,,
70300,0.007484,-0.027436,0.02404,0.002128,-0.001064,-0.001064,0.024674,-0.0,-0.0,2.0,0.282024,0.260905,0.282024,0.30108,,,,,,
70320,0.008827,-0.027452,0.024059,0.002128,0.0,0.0,0.025499,-0.0,-0.0,2.0,0.282024,0.262863,0.282024,0.299473,,,,,,
70340,0.010288,-0.027471,0.024322,0.003193,0.0,-0.001064,0.026369,-0.0,-0.0,2.0,0.282024,0.26484,0.282024,0.297819,,,,,,
70360,0.011753,-0.027368,0.024468,0.003193,-0.001064,-0.001064,0.026811,-0.0,-0.0,2.0,0.282024,0.265006,0.282024,0.297679,,,,,,
70380,0.013581,-0.027513,0.024615,0.003193,-0.001064,-0.001064,0.027711,-0.0,-0.0,2.0,0.282024,0.265146,0.282024,0.29756,,,,,,
70400,0.015654,-0.02766,0.024644,0.003193,0.0,0.0,0.028609,-0.0,-0.0,2.0,0.282024,0.265409,0.282024,0.297338,,,,,,
70420,0.017727,-0.027565,0.024914,0.004257,0.0,0.0,0.029078,-0.0,-0.0,2.0,0.282024,0.267858,0.282024,0.295233,,,,,,
70440,0.0198,-0.027471,0.025185,0.004257,-0.001064,-0.001064,0.030294,-0.0,-0.0,2.0,0.282024,0.269982,0.282024,0.293369,,,,,,
70460,0.022238,-0.027624,0.02534,0.005321,-0.001064,-0.002128,0.031149,-0.0,-0.0,2.0,0.282024,0.268522,0.282024,0.294655,,,,,,
70480,0.025046,-0.02766,0.025381,0.005321,0.0,0.0,0.032014,-0.0,-0.0,2.0,0.282024,0.269195,0.282024,0.294064,,,,,,
70500,0.02785,-0.027697,0.025662,0.005321,0.0,0.0,0.032876,-0.0,-0.0,2.0,0.282024,0.27375,0.282024,0.289963,,,,,,
70520,0.030897,-0.027738,0.025945,0.006385,0.0,-0.001064,0.033484,-0.0,-0.0,2.0,0.282024,0.274675,0.282024,0.289107,,,,,,
70540,0.034069,-0.027903,0.026115,0.00745,-0.001064,-0.001064,0.034478,-0.0,-0.0,2.0,0.282024,0.275526,0.282024,0.288314,,,,,,
70560,0.037606,-0.028069,0.026163,0.006385,0.0,0.0,0.035314,-0.0,-0.0,2.0,0.282024,0.276624,0.282024,0.28728,,,,,,
70580,0.041267,-0.028118,0.026336,0.00745,0.0,0.0,0.036155,-0.0,-0.0,2.0,0.282024,0.279664,0.282024,0.284357,,,,,,
70600,0.045051,-0.028169,0.026511,0.00745,-0.001064,0.0,0.03657,-0.0,-0.0,2.0,0.282024,0.28292,0.282024,0.281125,,,,,,
70620,0.04883,-0.02834,0.026683,0.00745,-0.001064,-0.001064,0.037461,-0.0,-0.0,2.0,0.282024,0.282373,0.282024,0.281674,,,,,,
70640,0.052861,-0.028388,0.026617,0.00745,-0.001064,0.0,0.038249,-0.0,-0.0,2.0,0.282024,0.28383,0.282024,0.280201,,,,,,
70660,0.056647,-0.028436,0.026668,0.00745,0.0,0.0,0.039111,-0.0,-0.0,2.0,0.282024,0.286989,0.282024,0.27693,,,,,,
70680,0.060428,-0.028491,0.026964,0.00745,0.0,0.0,0.03994,-0.0,-0.0,2.0,0.282024,0.286618,0.282024,0.27732,,,,,,
70700,0.064214,-0.028539,0.027015,0.00745,0.0,-0.002128,0.040753,-0.0,-0.0,2.0,0.282024,0.28808,0.282024,0.275775,,,,,,
70720,0.067999,-0.028704,0.026948,0.00745,0.0,0.0,0.041159,-0.0,-0.0,2.0,0.282024,0.289733,0.282024,0.273999,,,,,,
70740,0.071539,-0.028753,0.027117,0.00745,0.0,0.001064,0.042282,-0.0,-0.0,2.0,0.282024,0.291054,0.282024,0.272558,,,,,,
70760,0.074957,-0.0288,0.027285,0.006385,0.0,-0.001064,0.043081,-0.0,-0.0,2.0,0.282024,0.290739,0.282024,0.272904,,,,,,
70780,0.078256,-0.02872,0.027324,0.005321,-0.001064,-0.001064,0.04388,-0.0,-0.0,2.0,0.282024,0.292162,0.282024,0.271333,,,,,,
70800,0.08119,-0.028752,0.027241,0.005321,-0.001064,0.0,0.044672,-0.0,-0.0,2.0,0.282024,0.291744,0.282024,0.271797,,,,,,
70820,0.083997,-0.028792,0.027401,0.005321,0.0,0.0,0.045063,-0.0,-0.0,2.0,0.282024,0.291465,0.282024,0.272106,,,,,,
70840,0.08644,-0.028828,0.027556,0.004257,0.0,0.0,0.046015,-0.0,-0.0,2.0,0.282024,0.292605,0.282024,0.270839,,,,,,
70860,0.088641,-0.028734,0.027581,0.004257,-0.001064,-0.001064,0.04671,-0.0,-0.0,2.0,0.282024,0.293769,0.282024,0.269529,,,,,,
70880,0.09059,-0.028879,0.027609,0.003193,0.0,-0.001064,0.047505,-0.0,-0.0,2.0,0.282024,0.293096,0.282024,0.270288,,,,,,
70900,0.092303,-0.028901,0.027633,0.002128,0.0,0.0,0.048275,-0.0,-0.0,2.0,0.282024,0.292357,0.282024,0.271116,,,,,,
70920,0.093524,-0.029045,0.02778,0.002128,-0.001064,0.0,0.049039,-0.0,-0.0,2.0,0.282024,0.293179,0.282024,0.270195,,,,,,
70940,0.094494,-0.02919,0.02804,0.001064,0.0,-0.002128,0.049598,-0.0,-0.0,2.0,0.282024,0.292262,0.282024,0.271221,,,,,,
70960,0.095229,-0.029071,0.027921,0.0,-0.001064,-0.001064,0.050457,-0.0,-0.0,2.0,0.282024,0.29288,0.282024,0.270531,,,,,,
70980,0.095593,-0.029082,0.028047,0.0,-0.001064,0.0,0.051219,-0.0,-0.0,2.0,0.282024,0.291657,0.282024,0.271893,,,,,,
71000,0.095717,-0.029096,0.028297,-0.001064,0.0,-0.001064,0.051963,-0.0,-0.0,2.0,0.282024,0.290335,0.282024,0.273345,,,,,,
71020,0.095589,-0.028977,0.028407,-0.001064,-0.001064,-0.001064,0.052337,-0.0,-0.0,2.0,0.282024,0.290799,0.282024,0.272837,,,,,,
71040,0.095222,-0.028978,0.028524,-0.001064,-0.001064,-0.001064,0.053241,-0.0,-0.0,2.0,0.282024,0.29096,0.282024,0.272662,,,,,,
71060,0.094976,-0.028981,0.028644,-0.001064,0.0,-0.001064,0.053723,-0.0,-0.0,2.0,0.282024,0.29131,0.282024,0.272276,,,,,,
71080,0.094852,-0.028985,0.028764,-0.001064,-0.001064,0.0,0.054455,-0.0,-0.0,2.0,0.282024,0.291598,0.282024,0.271959,,,,,,
71100,0.094603,-0.029116,0.029011,-0.001064,-0.001064,-0.001064,0.055178,-0.0,-0.0,2.0,0.282024,0.291828,0.282024,0.271704,,,,,,
71120,0.094483,-0.028992,0.029004,0.0,0.0,-0.001064,0.055888,-0.0,-0.0,2.0,0.282024,0.292098,0.282024,0.271404,,,,,,
71140,0.094603,-0.029116,0.029011,0.0,-0.001064,0.0,0.056246,-0.0,-0.0,2.0,0.282024,0.292581,0.282024,0.270866,,,,,,
71160,0.094723,-0.029123,0.029134,0.0,-0.001064,0.0,0.05715,-0.0,-0.0,2.0,0.282024,0.294574,0.282024,0.268614,,,,,,
71180,0.094967,-0.02901,0.029253,0.0,0.0,-0.001064,0.057846,-0.0,-0.0,2.0,0.282024,0.294955,0.282024,0.268178,,,,,,
71200,0.095088,-0.029012,0.029255,-0.001064,-0.001064,-0.001064,0.058538,-0.0,-0.0,2.0,0.282024,0.293567,0.282024,0.269758,,,,,,
71220,0.095207,-0.029257,0.029268,-0.001064,0.0,-0.001064,0.059224,-0.0,-0.0,2.0,0.282024,0.295606,0.282024,0.267429,,,,,,
71240,0.095207,-0.029141,0.029384,-0.001064,0.0,0.0,0.059896,-0.0,-0.0,2.0,0.282024,0.294167,0.282024,0.269078,,,,,,
71260,0.095081,-0.029267,0.02951,-0.001064,-0.001064,-0.001064,0.060514,-0.0,-0.0,2.0,0.282024,0.294407,0.282024,0.268805,,,,,,
71280,0.094837,-0.029264,0.029507,-0.001064,-0.001064,-0.001064,0.06117,-0.0,-0.0,2.0,0.282024,0.294576,0.282024,0.268612,,,,,,
71300,0.094593,-0.029261,0.029505,-0.001064,-0.001064,0.0,0.061821,-0.0,-0.0,2.0,0.282024,0.294734,0.282024,0.268431,,,,,,
71320,0.094226,-0.029262,0.029622,-0.001064,-0.001064,0.0,0.062146,-0.0,-0.0,2.0,0.282024,0.294956,0.282024,0.268177,,,,,,
71340,0.094106,-0.029138,0.029615,-0.001064,-0.001064,-0.001064,0.062789,-0.0,-0.0,2.0,0.282024,0.29514,0.282024,0.267966,,,,,,
71360,0.093984,-0.029137,0.029614,0.0,-0.001064,-0.001064,0.063232,-0.0,-0.0,2.0,0.282024,0.295387,0.282024,0.267681,,,,,,
71380,0.093984,-0.029137,0.029614,-0.001064,0.0,0.0,0.063998,-0.0,-0.0,2.0,0.282024,0.295549,0.282024,0.267494,,,,,,
71400,0.094106,-0.029138,0.029615,0.0,0.0,0.0,0.064649,-0.0,-0.0,2.0,0.282024,0.297489,0.282024,0.265231,,,,,,
71420,0.094348,-0.029263,0.029624,0.0,-0.001064,0.0,0.065267,-0.0,-0.0,2.0,0.282024,0.297775,0.282024,0.264893,,,,,,
71440,0.094226,-0.029262,0.029622,-0.001064,0.0,-0.001064,0.065871,-0.0,-0.0,2.0,0.282024,0.29623,0.282024,0.266706,,,,,,
71460,0.094228,-0.029256,0.0295,-0.001064,-0.001064,0.0,0.066285,-0.0,-0.0,2.0,0.282024,0.29649,0.282024,0.266403,,,,,,
71480,0.094224,-0.029384,0.029628,-0.001064,-0.001064,0.0,0.067007,-0.0,-0.0,2.0,0.282024,0.296625,0.282024,0.266245,,,,,,
71500,0.09398,-0.029381,0.029625,-0.001064,0.0,-0.001064,0.067592,-0.0,-0.0,2.0,0.282024,0.296712,0.282024,0.266144,,,,,,
71520,0.09386,-0.029257,0.029618,-0.001064,-0.001064,-0.001064,0.068175,-0.0,-0.0,2.0,0.282024,0.296834,0.282024,0.266,,,,,,
71540,0.093736,-0.029378,0.029623,-0.001064,-0.001064,-0.001064,0.068746,-0.0,-0.0,2.0,0.282024,0.296949,0.282024,0.265866,,,,,,
71560,0.093738,-0.029256,0.029617,-0.001064,0.0,0.0,0.06904,-0.0,-0.0,2.0,0.282024,0.297203,0.282024,0.265567,,,,,,
71580,0.093734,-0.029383,0.029745,-0.001064,-0.001064,0.0,0.069815,-0.0,-0.0,2.0,0.282024,0.297271,0.282024,0.265488,,,,,,
71600,0.093732,-0.029505,0.02975,0.0,0.0,-0.001064,0.07009,-0.0,-0.0,2.0,0.282024,0.299201,0.282024,0.263191,,,,,,
71620,0.093856,-0.029501,0.02963,0.0,0.0,0.0,0.070638,-0.0,-0.0,2.0,0.282024,0.299384,0.282024,0.26297,,,,,,
71640,0.093856,-0.029501,0.02963,-0.001064,0.0,0.0,0.07118,-0.0,-0.0,2.0,0.282024,0.297834,0.282024,0.264822,,,,,,
71660,0.093978,-0.029503,0.029631,-0.001064,-0.001064,0.0,0.071735,-0.0,-0.0,2.0,0.282024,0.298001,0.282024,0.264625,,,,,,
71680,0.093858,-0.029379,0.029624,-0.001064,-0.001064,-0.001064,0.072209,-0.0,-0.0,2.0,0.282024,0.298103,0.282024,0.264504,,,,,,
71700,0.093614,-0.029492,0.029505,-0.001064,-0.001064,-0.001064,0.072742,-0.0,-0.0,2.0,0.282024,0.298129,0.282024,0.264473,,,,,,
71720,0.093616,-0.02937,0.029499,-0.001064,0.0,0.0,0.073245,-0.0,-0.0,2.0,0.282024,0.298244,0.282024,0.264336,,,,,,
71740,0.093494,-0.029369,0.029498,-0.001064,-0.001064,0.0,0.073749,-0.0,-0.0,2.0,0.282024,0.298306,0.282024,0.264262,,,,,,
71760,0.09325,-0.029366,0.029495,-0.001064,-0.001064,-0.001064,0.073993,-0.0,-0.0,2.0,0.282024,0.298412,0.282024,0.264136,,,,,,
71780,0.093374,-0.029361,0.029375,-0.001064,-0.001064,-0.001064,0.074271,-0.0,-0.0,2.0,0.282024,0.298633,0.282024,0.263872,,,,,,
71800,0.09325,-0.029482,0.029379,-0.001064,0.0,0.0,0.074955,-0.0,-0.0,2.0,0.282024,0.298608,0.282024,0.263901,,,,,,
71820,0.093252,-0.02936,0.029373,-0.001064,0.0,0.0,0.075418,-0.0,-0.0,2.0,0.282024,0.298701,0.282024,0.26379,,,,,,
71840,0.09325,-0.029482,0.029379,-0.001064,-0.001064,-0.001064,0.075876,-0.0,-0.0,2.0,0.282024,0.298787,0.282024,0.263687,,,,,,
71860,0.09313,-0.029475,0.029256,-0.001064,-0.001064,-0.001064,0.076326,-0.0,-0.0,2.0,0.282024,0.300502,0.282024,0.261614,,,,,,
71880,0.09313,-0.029475,0.029256,-0.001064,0.0,0.0,0.076548,-0.0,-0.0,2.0,0.282024,0.298987,0.282024,0.263448,,,,,,
71900,0.093129,-0.029597,0.029261,-0.001064,0.0,0.0,0.077191,-0.0,-0.0,2.0,0.282024,0.298986,0.282024,0.263449,,,,,,
71920,0.093129,-0.029597,0.029261,-0.001064,0.0,-0.001064,0.077613,-0.0,-0.0,2.0,0.282024,0.300732,0.282024,0.261332,,,,,,
71940,0.093008,-0.029589,0.029138,-0.001064,-0.001064,-0.001064,0.078029,-0.0,-0.0,2.0,0.282024,0.299083,0.282024,0.263333,,,,,,
71960,0.093009,-0.029706,0.029022,-0.001064,-0.001064,0.0,0.078435,-0.0,-0.0,2.0,0.282024,0.299149,0.282024,0.263254,,,,,,
71980,0.09301,-0.0297,0.0289,-0.001064,-0.001064,0.0,0.078753,-0.0,-0.0,2.0,0.282024,0.299242,0.282024,0.263142,,,,,,
72000,0.09289,-0.029577,0.028893,-0.001064,-0.001064,0.0,0.07913,-0.0,-0.0,2.0,0.282024,0.299263,0.282024,0.263116,,,,,,
72020,0.092763,-0.029573,0.028886,-0.001064,-0.001064,-0.001064,0.079528,-0.0,-0.0,2.0,0.282024,0.299268,0.282024,0.26311,,,,,,
72040,0.092768,-0.02944,0.028637,-0.001064,-0.001064,0.0,0.079901,-0.0,-0.0,2.0,0.282024,0.299322,0.282024,0.263045,,,,,,
72060,0.092645,-0.02956,0.028641,-0.001064,0.0,0.0,0.080095,-0.0,-0.0,2.0,0.282024,0.299391,0.282024,0.262962,,,,,,
72080,0.092523,-0.029559,0.028639,-0.001064,0.0,0.0,0.08046,-0.0,-0.0,2.0,0.282024,0.299392,0.282024,0.262961,,,,,,
72100,0.092645,-0.02956,0.028641,-0.001064,-0.001064,-0.001064,0.080719,-0.0,-0.0,2.0,0.282024,0.299514,0.282024,0.262813,,,,,,
72120,0.092521,-0.029681,0.028645,-0.001064,0.0,-0.001064,0.081135,-0.0,-0.0,2.0,0.282024,0.301157,0.282024,0.260811,,,,,,
72140,0.092523,-0.029675,0.028523,-0.001064,0.0,0.0,0.081485,-0.0,-0.0,2.0,0.282024,0.299521,0.282024,0.262805,,,,,,
72160,0.092521,-0.029681,0.028645,-0.001064,-0.001064,0.0,0.081819,-0.0,-0.0,2.0,0.282024,0.299555,0.282024,0.262764,,,,,,
72180,0.092399,-0.029679,0.028644,-0.001064,-0.001064,-0.001064,0.082135,-0.0,-0.0,2.0,0.282024,0.301217,0.282024,0.260737,,,,,,
72200,0.092279,-0.029556,0.028637,-0.001064,-0.001064,-0.001064,0.082349,-0.0,-0.0,2.0,0.282024,0.299572,0.282024,0.262743,,,,,,
72220,0.092281,-0.02955,0.028515,-0.001064,0.0,0.0,0.08269,-0.0,-0.0,2.0,0.282024,0.29959,0.282024,0.262722,,,,,,
72240,0.092161,-0.029427,0.028508,-0.001064,-0.001064,0.0,0.082977,-0.0,-0.0,2.0,0.282024,0.299577,0.282024,0.262738,,,,,,
72260,0.092039,-0.029425,0.028506,-0.001064,0.0,0.0,0.083257,-0.0,-0.0,2.0,0.282024,0.29956,0.282024,0.262758,,,,,,
72280,0.091917,-0.029424,0.028505,-0.001064,-0.001064,-0.001064,0.083528,-0.0,-0.0,2.0,0.282024,0.299542,0.282024,0.26278,,,,,,
72300,0.091919,-0.029418,0.028383,-0.001064,0.0,-0.001064,0.083676,-0.0,-0.0,2.0,0.282024,0.299609,0.282024,0.262699,,,,,,
72320,0.091795,-0.029539,0.028387,-0.001064,0.0,0.0,0.083924,-0.0,-0.0,2.0,0.282024,0.29959,0.282024,0.262722,,,,,,
72340,0.091673,-0.029537,0.028386,-0.001064,-0.001064,0.0,0.084178,-0.0,-0.0,2.0,0.282024,0.299565,0.282024,0.262752,,,,,,
72360,0.091673,-0.029537,0.028386,-0.001064,-0.001064,-0.001064,0.084419,-0.0,-0.0,2.0,0.282024,0.301254,0.282024,0.260692,,,,,,
72380,0.091555,-0.029408,0.028257,0.0,-0.001064,-0.001064,0.084641,-0.0,-0.0,2.0,0.282024,0.299563,0.282024,0.262754,,,,,,
72400,0.091555,-0.029408,0.028257,-0.001064,-0.001064,0.0,0.084865,-0.0,-0.0,2.0,0.282024,0.29958,0.282024,0.262734,,,,,,
72420,0.091557,-0.029403,0.028135,-0.001064,0.0,0.0,0.085055,-0.0,-0.0,2.0,0.282024,0.299607,0.282024,0.262702,,,,,,
72440,0.091437,-0.029279,0.028128,-0.001064,-0.001064,0.0,0.08526,-0.0,-0.0,2.0,0.282024,0.299581,0.282024,0.262733,,,,,,
72460,0.091313,-0.0294,0.028132,-0.001064,0.0,-0.001064,0.085453,-0.0,-0.0,2.0,0.282024,0.299553,0.282024,0.262766,,,,,,
72480,0.091193,-0.029276,0.028125,-0.001064,-0.001064,-0.001064,0.085634,-0.0,-0.0,2.0,0.282024,0.299527,0.282024,0.262798,,,,,,
72500,0.091191,-0.029398,0.028131,-0.001064,0.0,-0.001064,0.085721,-0.0,-0.0,2.0,0.282024,0.299574,0.282024,0.262741,,,,,,
72520,0.091069,-0.029513,0.028013,-0.001064,0.0,0.0,0.085912,-0.0,-0.0,2.0,0.282024,0.299538,0.282024,0.262784,,,,,,
72540,0.090947,-0.029512,0.028012,-0.001064,-0.001064,0.0,0.086059,-0.0,-0.0,2.0,0.282024,0.299513,0.282024,0.262814,,,,,,
72560,0.090947,-0.029512,0.028012,-0.001064,-0.001064,-0.001064,0.086205,-0.0,-0.0,2.0,0.282024,0.29953,0.282024,0.262794,,,,,,
72580,0.090829,-0.029383,0.027883,-0.001064,0.0,0.0,0.086344,-0.0,-0.0,2.0,0.282024,0.299504,0.282024,0.262826,,,,,,
72600,0.090831,-0.029377,0.027761,-0.001064,-0.001064,0.0,0.086472,-0.0,-0.0,2.0,0.282024,0.299521,0.282024,0.262805,,,,,,
72620,0.090585,-0.029496,0.027763,-0.001064,0.0,0.0,0.086532,-0.0,-0.0,2.0,0.282024,0.29947,0.282024,0.262866,,,,,,
72640,0.090587,-0.029374,0.027758,-0.001064,-0.001064,0.0,0.086688,-0.0,-0.0,2.0,0.282024,0.299471,0.282024,0.262865,,,,,,
72660,0.090585,-0.029496,0.027763,-0.001064,-0.001064,-0.001064,0.086791,-0.0,-0.0,2.0,0.282024,0.299489,0.282024,0.262844,,,,,,
72680,0.090461,-0.029366,0.027629,-0.001064,0.0,-0.001064,0.086882,-0.0,-0.0,2.0,0.282024,0.299464,0.282024,0.262874,,,,,,
72700,0.090462,-0.029482,0.027513,-0.001064,0.0,0.0,0.086924,-0.0,-0.0,2.0,0.282024,0.2995,0.282024,0.262831,,,,,,
72720,0.090462,-0.029482,0.027513,-0.001064,0.0,0.0,0.087004,-0.0,-0.0,2.0,0.282024,0.299521,0.282024,0.262805,,,,,,
72740,0.09034,-0.029481,0.027512,-0.001064,-0.001064,-0.001064,0.087066,-0.0,-0.0,2.0,0.282024,0.299503,0.282024,0.262826,,,,,,
72760,0.090463,-0.029476,0.027391,-0.001064,-0.001064,-0.001064,0.087124,-0.0,-0.0,2.0,0.282024,0.299574,0.282024,0.262741,,,,,,
72780,0.090221,-0.029352,0.027383,-0.001064,0.0,0.0,0.087172,-0.0,-0.0,2.0,0.282024,0.299516,0.282024,0.262812,,,,,,
72800,0.090343,-0.029353,0.027384,-0.001064,-0.001064,0.0,0.08721,-0.0,-0.0,2.0,0.282024,0.299589,0.282024,0.262722,,,,,,
72820,0.090221,-0.029352,0.027383,-0.001064,0.0,0.0,0.087239,-0.0,-0.0,2.0,0.282024,0.301248,0.282024,0.260698,,,,,,
72840,0.090099,-0.02935,0.027381,-0.001064,-0.001064,-0.001064,0.087256,-0.0,-0.0,2.0,0.282024,0.299571,0.282024,0.262744,,,,,,
72860,0.090222,-0.029468,0.027266,-0.001064,-0.001064,0.0,0.087265,-0.0,-0.0,2.0,0.282024,0.299654,0.282024,0.262645,,,,,,
72880,0.0901,-0.029467,0.027265,-0.001064,0.0,0.0,0.087265,-0.0,-0.0,2.0,0.282024,0.30132,0.282024,0.26061,,,,,,
72900,0.0901,-0.029467,0.027265,-0.001064,-0.001064,0.0,0.087261,-0.0,-0.0,2.0,0.282024,0.299693,0.282024,0.262597,,,,,,
72920,0.0901,-0.029467,0.027265,-0.001064,-0.001064,-0.001064,0.087246,-0.0,-0.0,2.0,0.282024,0.29974,0.282024,0.262541,,,,,,
72940,0.090103,-0.029339,0.027137,-0.001064,-0.001064,-0.001064,0.087231,-0.0,-0.0,2.0,0.282024,0.299788,0.282024,0.262483,,,,,,
72960,0.090101,-0.029461,0.027143,-0.001064,-0.001064,0.0,0.087185,-0.0,-0.0,2.0,0.282024,0.299845,0.282024,0.262413,,,,,,
72980,0.089981,-0.029338,0.027136,-0.001064,0.0,0.0,0.087139,-0.0,-0.0,2.0,0.282024,0.299861,0.282024,0.262393,,,,,,
73000,0.089981,-0.029338,0.027136,-0.001064,-0.001064,0.0,0.087085,-0.0,-0.0,2.0,0.282024,0.299921,0.282024,0.262321,,,,,,
73020,0.089859,-0.029336,0.027135,0.0,0.0,-0.001064,0.08702,-0.0,-0.0,2.0,0.282024,0.299942,0.282024,0.262296,,,,,,
73040,0.089738,-0.029452,0.027017,-0.001064,-0.001064,0.0,0.086983,-0.0,-0.0,2.0,0.282024,0.299952,0.282024,0.262283,,,,,,
73060,0.089858,-0.029575,0.027024,-0.001064,0.0,0.0,0.086868,-0.0,-0.0,2.0,0.282024,0.300078,0.282024,0.26213,,,,,,
73080,0.089738,-0.029452,0.027017,0.0,0.0,0.0,0.086774,-0.0,-0.0,2.0,0.282024,0.300112,0.282024,0.262089,,,,,,
73100,0.089738,-0.029452,0.027017,-0.001064,-0.001064,-0.001064,0.086724,-0.0,-0.0,2.0,0.282024,0.300173,0.282024,0.262015,,,,,,
73120,0.089616,-0.02945,0.027015,-0.001064,-0.001064,-0.001064,0.086617,-0.0,-0.0,2.0,0.282024,0.300212,0.282024,0.261968,,,,,,
73140,0.089616,-0.02945,0.027015,0.0,-0.001064,0.0,0.086497,-0.0,-0.0,2.0,0.282024,0.300299,0.282024,0.261861,,,,,,
73160,0.089492,-0.029571,0.027019,-0.001064,-0.001064,0.0,0.086387,-0.0,-0.0,2.0,0.282024,0.300339,0.282024,0.261813,,,,,,
73180,0.089374,-0.029325,0.027007,-0.001064,-0.001064,-0.001064,0.086245,-0.0,-0.0,2.0,0.282024,0.300392,0.282024,0.261747,,,,,,
73200,0.089252,-0.029324,0.027005,-0.001064,0.0,-0.001064,0.086099,-0.0,-0.0,2.0,0.282024,0.300447,0.282024,0.261681,,,,,,
73220,0.08913,-0.029439,0.026888,-0.001064,0.0,0.0,0.085944,-0.0,-0.0,2.0,0.282024,0.300505,0.282024,0.26161,,,,,,
73240,0.089008,-0.029438,0.026886,-0.001064,-0.001064,0.0,0.085776,-0.0,-0.0,2.0,0.282024,0.300569,0.282024,0.261531,,,,,,
73260,0.088886,-0.029553,0.026768,-0.001064,-0.001064,0.0,0.085617,-0.0,-0.0,2.0,0.282024,0.30063,0.282024,0.261458,,,,,,
73280,0.088522,-0.029427,0.026758,-0.001064,-0.001064,-0.001064,0.085431,-0.0,-0.0,2.0,0.282024,0.300614,0.282024,0.261477,,,,,,
73300,0.088404,-0.029414,0.026513,-0.001064,0.0,0.0,0.085238,-0.0,-0.0,2.0,0.282024,0.299013,0.282024,0.263416,,,,,,
73320,0.08816,-0.029528,0.026394,-0.001064,0.0,0.0,0.085138,-0.0,-0.0,2.0,0.282024,0.30068,0.282024,0.261396,,,,,,
73340,0.087669,-0.029516,0.026261,-0.001064,0.0,0.0,0.08493,-0.0,-0.0,2.0,0.282024,0.298947,0.282024,0.263496,,,,,,
73360,0.087425,-0.029629,0.026142,-0.001064,-0.001064,0.0,0.0848,-0.0,-0.0,2.0,0.282024,0.300621,0.282024,0.261469,,,,,,
73380,0.087061,-0.02962,0.026015,-0.001064,-0.001064,-0.001064,0.084468,-0.0,-0.0,2.0,0.282024,0.300649,0.282024,0.261434,,,,,,
73400,0.086699,-0.029489,0.025884,-0.001064,0.0,0.0,0.08423,-0.0,-0.0,2.0,0.282024,0.298969,0.282024,0.26347,,,,,,
73420,0.086459,-0.029476,0.025637,-0.002128,0.0,0.0,0.083983,-0.0,-0.0,2.0,0.282024,0.300682,0.282024,0.261394,,,,,,
73440,0.086095,-0.029466,0.02551,-0.001064,-0.001064,0.0,0.08373,-0.0,-0.0,2.0,0.282024,0.300678,0.282024,0.261399,,,,,,
73460,0.085484,-0.029447,0.025254,-0.001064,-0.001064,0.0,0.083536,-0.0,-0.0,2.0,0.282024,0.298886,0.282024,0.263569,,,,,,
73480,0.085118,-0.02956,0.025133,-0.002128,-0.001064,0.0,0.083225,-0.0,-0.0,2.0,0.282024,0.298897,0.282024,0.263556,,,,,,
73500,0.084634,-0.029428,0.025,-0.002128,-0.001064,0.0,0.082941,-0.0,-0.0,2.0,0.282024,0.300528,0.282024,0.261582,,,,,,
73520,0.084272,-0.029414,0.024752,-0.002128,0.0,0.0,0.082796,-0.0,-0.0,2.0,0.282024,0.298798,0.282024,0.263674,,,,,,
73540,0.083664,-0.029402,0.024622,-0.002128,0.0,0.0,0.082499,-0.0,-0.0,2.0,0.282024,0.298706,0.282024,0.263784,,,,,,
73560,0.083056,-0.029391,0.024493,-0.002128,-0.001064,-0.001064,0.082107,-0.0,-0.0,2.0,0.282024,0.298646,0.282024,0.263856,,,,,,
73580,0.082566,-0.029496,0.024244,-0.002128,-0.001064,0.0,0.081903,-0.0,-0.0,2.0,0.282024,0.298555,0.282024,0.263965,,,,,,
73600,0.081837,-0.029361,0.024108,-0.002128,0.0,0.0,0.081584,-0.0,-0.0,2.0,0.282024,0.298416,0.282024,0.264131,,,,,,
73620,0.081472,-0.029475,0.023986,-0.002128,0.0,0.0,0.081252,-0.0,-0.0,2.0,0.282024,0.298409,0.282024,0.264139,,,,,,
73640,0.080864,-0.029463,0.023857,-0.001064,-0.001064,0.0,0.080912,-0.0,-0.0,2.0,0.282024,0.299994,0.282024,0.262232,,,,,,
73660,0.080378,-0.029454,0.023729,-0.002128,0.0,-0.001064,0.080527,-0.0,-0.0,2.0,0.282024,0.29828,0.282024,0.264293,,,,,,
73680,0.079888,-0.029559,0.023479,-0.002128,-0.001064,0.0,0.080207,-0.0,-0.0,2.0,0.282024,0.298217,0.282024,0.264368,,,,,,
73700,0.079281,-0.029426,0.023345,-0.002128,0.0,0.0,0.079825,-0.0,-0.0,2.0,0.282024,0.299813,0.282024,0.262452,,,,,,
73720,0.078917,-0.029418,0.023218,-0.002128,0.0,0.0,0.079637,-0.0,-0.0,2.0,0.282024,0.29806,0.282024,0.264555,,,,,,
73740,0.078431,-0.029408,0.02309,-0.001064,-0.001064,0.0,0.079253,-0.0,-0.0,2.0,0.282024,0.298014,0.282024,0.264609,,,,,,
73760,0.077947,-0.029277,0.022957,-0.001064,-0.001064,-0.001064,0.078857,-0.0,-0.0,2.0,0.282024,0.299653,0.282024,0.262645,,,,,,
73780,0.077581,-0.02939,0.022836,-0.001064,0.0,0.0,0.078589,-0.0,-0.0,2.0,0.282024,0.297923,0.282024,0.264717,,,,,,
73800,0.077212,-0.029263,0.022822,-0.001064,0.0,0.0,0.078026,-0.0,-0.0,2.0,0.282024,0.299665,0.282024,0.262631,,,,,,
73820,0.076846,-0.029377,0.0227,-0.002128,0.0,0.0,0.077608,-0.0,-0.0,2.0,0.282024,0.299676,0.282024,0.262618,,,,,,
73840,0.076484,-0.029364,0.022452,-0.001064,-0.001064,0.0,0.077184,-0.0,-0.0,2.0,0.282024,0.298008,0.282024,0.264616,,,,,,
73860,0.076118,-0.02936,0.022447,-0.001064,-0.001064,0.0,0.07675,-0.0,-0.0,2.0,0.282024,0.299708,0.282024,0.262579,,,,,,
73880,0.075876,-0.029353,0.022322,-0.002128,-0.001064,0.0,0.076426,-0.0,-0.0,2.0,0.282024,0.299731,0.282024,0.262551,,,,,,
73900,0.075392,-0.029222,0.022189,-0.001064,0.0,0.0,0.075929,-0.0,-0.0,2.0,0.282024,0.298048,0.282024,0.264568,,,,,,
73920,0.075028,-0.029214,0.022063,-0.002128,0.0,0.0,0.075467,-0.0,-0.0,2.0,0.282024,0.29808,0.282024,0.264531,,,,,,
73940,0.074542,-0.029205,0.021934,-0.002128,-0.001064,0.0,0.075237,-0.0,-0.0,2.0,0.282024,0.29798,0.282024,0.264649,,,,,,
73960,0.074048,-0.029321,0.021929,-0.002128,-0.001064,0.0,0.074768,-0.0,-0.0,2.0,0.282024,0.297963,0.282024,0.264669,,,,,,
73980,0.073438,-0.029315,0.021921,-0.002128,-0.001064,0.0,0.074231,-0.0,-0.0,2.0,0.282024,0.297929,0.282024,0.26471,,,,,,
74000,0.072953,-0.029184,0.021788,-0.002128,-0.001064,-0.001064,0.073753,-0.0,-0.0,2.0,0.282024,0.297918,0.282024,0.264723,,,,,,
74020,0.072467,-0.029175,0.02166,-0.002128,0.0,0.0,0.073232,-0.0,-0.0,2.0,0.282024,0.297922,0.282024,0.264718,,,,,,
74040,0.071857,-0.029169,0.021652,-0.001064,0.0,0.0,0.072731,-0.0,-0.0,2.0,0.282024,0.297874,0.282024,0.264775,,,,,,
74060,0.07137,-0.029282,0.021529,-0.002128,-0.001064,0.0,0.072215,-0.0,-0.0,2.0,0.282024,0.297875,0.282024,0.264775,,,,,,
74080,0.070879,-0.029154,0.021514,-0.001064,-0.001064,-0.001064,0.071955,-0.0,-0.0,2.0,0.282024,0.299462,0.282024,0.262877,,,,,,
74100,0.070393,-0.029028,0.021504,-0.001064,0.0,-0.001064,0.071274,-0.0,-0.0,2.0,0.282024,0.297838,0.282024,0.264817,,,,,,
74120,0.070028,-0.02902,0.021377,-0.002128,-0.001064,0.0,0.070804,-0.0,-0.0,2.0,0.282024,0.299551,0.282024,0.262769,,,,,,
74140,0.069663,-0.029017,0.021372,-0.002128,-0.001064,0.0,0.07026,-0.0,-0.0,2.0,0.282024,0.299607,0.282024,0.262701,,,,,,
74160,0.069295,-0.029135,0.021372,-0.001064,-0.001064,0.0,0.069706,-0.0,-0.0,2.0,0.282024,0.299669,0.282024,0.262626,,,,,,
74180,0.06881,-0.029005,0.021239,-0.002128,-0.001064,-0.001064,0.069152,-0.0,-0.0,2.0,0.282024,0.29801,0.282024,0.264614,,,,,,
74200,0.068445,-0.029119,0.021117,-0.002128,-0.001064,0.0,0.068864,-0.0,-0.0,2.0,0.282024,0.29966,0.282024,0.262637,,,,,,
74220,0.068081,-0.029112,0.02099,-0.001064,0.0,0.0,0.06809,-0.0,-0.0,2.0,0.282024,0.299807,0.282024,0.262459,,,,,,
74240,0.06759,-0.028983,0.020976,-0.002128,-0.001064,0.0,0.067507,-0.0,-0.0,2.0,0.282024,0.298163,0.282024,0.264432,,,,,,
74260,0.067103,-0.029097,0.020852,-0.002128,-0.001064,-0.001064,0.067215,-0.0,-0.0,2.0,0.282024,0.299776,0.282024,0.262497,,,,,,
74280,0.066619,-0.028844,0.020715,-0.001064,0.0,-0.001064,0.066627,-0.0,-0.0,2.0,0.282024,0.298135,0.282024,0.264465,,,,,,
74300,0.066135,-0.028832,0.020465,-0.002128,0.0,0.0,0.066029,-0.0,-0.0,2.0,0.282024,0.29818,0.282024,0.264411,,,,,,
74320,0.065649,-0.028824,0.020337,-0.002128,0.0,0.0,0.065377,-0.0,-0.0,2.0,0.282024,0.298247,0.282024,0.264333,,,,,,
74340,0.065163,-0.028815,0.020209,-0.001064,-0.001064,0.0,0.064833,-0.0,-0.0,2.0,0.282024,0.298275,0.282024,0.264299,,,,,,
74360,0.064551,-0.028804,0.020075,-0.002128,0.0,-0.001064,0.064207,-0.0,-0.0,2.0,0.282024,0.298288,0.282024,0.264283,,,,,,
74380,0.063944,-0.028673,0.019941,-0.002128,0.0,0.0,0.063581,-0.0,-0.0,2.0,0.282024,0.298304,0.282024,0.264264,,,,,,
74400,0.063455,-0.028909,0.019821,-0.002128,0.0,0.0,0.062948,-0.0,-0.0,2.0,0.282024,0.298366,0.282024,0.264191,,,,,,
74420,0.062726,-0.028777,0.019686,-0.002128,0.0,0.0,0.062523,-0.0,-0.0,2.0,0.282024,0.298264,0.282024,0.264312,,,,,,
74440,0.062117,-0.02889,0.019559,-0.002128,-0.001064,0.0,0.061787,-0.0,-0.0,2.0,0.282024,0.298317,0.282024,0.264248,,,,,,
74460,0.061388,-0.028877,0.019306,-0.002128,-0.001064,-0.001064,0.061116,-0.0,-0.0,2.0,0.282024,0.298304,0.282024,0.264264,,,,,,
74480,0.060656,-0.028743,0.019167,-0.002128,0.0,0.0,0.06045,-0.0,-0.0,2.0,0.282024,0.296594,0.282024,0.266281,,,,,,
74500,0.059927,-0.028611,0.019032,-0.002128,-0.001064,0.0,0.059786,-0.0,-0.0,2.0,0.282024,0.29827,0.282024,0.264305,,,,,,
74520,0.059074,-0.028601,0.018899,-0.002128,-0.001064,-0.001064,0.059306,-0.0,-0.0,2.0,0.282024,0.298137,0.282024,0.264463,,,,,,
74540,0.058222,-0.02859,0.018766,-0.002128,-0.001064,0.0,0.058705,-0.0,-0.0,2.0,0.282024,0.29635,0.282024,0.266566,,,,,,
74560,0.05737,-0.02858,0.018633,-0.003193,0.0,0.0,0.057997,-0.0,-0.0,2.0,0.282024,0.297989,0.282024,0.264639,,,,,,
74580,0.056636,-0.028568,0.018498,-0.002128,0.0,0.0,0.057305,-0.0,-0.0,2.0,0.282024,0.297968,0.282024,0.264664,,,,,,
74600,0.055662,-0.028557,0.018363,-0.002128,-0.001064,0.0,0.056606,-0.0,-0.0,2.0,0.282024,0.29786,0.282024,0.264792,,,,,,
74620,0.054686,-0.028549,0.01835,-0.003193,-0.001064,-0.001064,0.055879,-0.0,-0.0,2.0,0.282024,0.296061,0.282024,0.266902,,,,,,
74640,0.053711,-0.028538,0.018215,-0.003193,-0.001064,0.0,0.055232,-0.0,-0.0,2.0,0.282024,0.295925,0.282024,0.267059,,,,,,
74660,0.052735,-0.028404,0.018074,-0.003193,0.0,0.0,0.054491,-0.0,-0.0,2.0,0.282024,0.295819,0.282024,0.267182,,,,,,
74680,0.051639,-0.028392,0.017938,-0.003193,0.0,0.0,0.054126,-0.0,-0.0,2.0,0.282024,0.295523,0.282024,0.267524,,,,,,
74700,0.050664,-0.028262,0.017922,-0.003193,-0.001064,-0.001064,0.053399,-0.0,-0.0,2.0,0.282024,0.295398,0.282024,0.267668,,,,,,
74720,0.049568,-0.028369,0.017666,-0.003193,-0.001064,-0.001064,0.05267,-0.0,-0.0,2.0,0.282024,0.295225,0.282024,0.267868,,,,,,
74740,0.048471,-0.028358,0.01753,-0.003193,0.0,0.0,0.052281,-0.0,-0.0,2.0,0.282024,0.294918,0.282024,0.26822,,,,,,
74760,0.047614,-0.028349,0.017515,-0.003193,-0.001064,0.0,0.051266,-0.0,-0.0,2.0,0.282024,0.294926,0.282024,0.268211,,,,,,
74780,0.046395,-0.028459,0.01738,-0.003193,-0.001064,-0.001064,0.05051,-0.0,-0.0,2.0,0.282024,0.294703,0.282024,0.268467,,,,,,
74800,0.045298,-0.028448,0.017244,-0.003193,-0.001064,0.0,0.049757,-0.0,-0.0,2.0,0.282024,0.29452,0.282024,0.268676,,,,,,
74820,0.044444,-0.028441,0.017232,-0.003193,-0.001064,0.0,0.049,-0.0,-0.0,2.0,0.282024,0.294422,0.282024,0.268788,,,,,,
74840,0.04347,-0.028431,0.017097,-0.003193,0.0,0.0,0.048608,-0.0,-0.0,2.0,0.282024,0.295852,0.282024,0.267145,,,,,,
74860,0.042613,-0.028423,0.017083,-0.002128,-0.001064,0.0,0.047528,-0.0,-0.0,2.0,0.282024,0.294152,0.282024,0.269095,,,,,,
74880,0.04164,-0.028291,0.016945,-0.002128,-0.001064,-0.001064,0.046748,-0.0,-0.0,2.0,0.282024,0.294012,0.282024,0.269254,,,,,,
74900,0.040787,-0.028282,0.016812,-0.003193,-0.001064,-0.001064,0.045968,-0.0,-0.0,2.0,0.282024,0.295628,0.282024,0.267403,,,,,,
74920,0.039933,-0.028276,0.0168,-0.002128,0.0,0.0,0.045577,-0.0,-0.0,2.0,0.282024,0.295382,0.282024,0.267687,,,,,,
74940,0.039079,-0.028269,0.016789,-0.002128,0.0,0.0,0.044582,-0.0,-0.0,2.0,0.282024,0.295358,0.282024,0.267715,,,,,,
74960,0.038346,-0.028264,0.016779,-0.002128,-0.001064,-0.001064,0.044083,-0.0,-0.0,2.0,0.282024,0.295193,0.282024,0.267905,,,,,,
74980,0.037491,-0.028379,0.01677,-0.002128,-0.001064,-0.001064,0.043265,-0.0,-0.0,2.0,0.282024,0.295099,0.282024,0.268013,,,,,,
75000,0.036637,-0.028247,0.016631,-0.002128,0.0,0.0,0.042466,-0.0,-0.0,2.0,0.282024,0.294999,0.282024,0.268128,,,,,,
75020,0.03578,-0.028364,0.016744,-0.003193,-0.001064,0.0,0.041664,-0.0,-0.0,2.0,0.282024,0.294897,0.282024,0.268245,,,,,,
75040,0.034803,-0.028237,0.016851,-0.002128,-0.001064,-0.001064,0.040756,-0.0,-0.0,2.0,0.282024,0.294789,0.282024,0.268368,,,,,,
75060,0.033949,-0.02823,0.016839,-0.002128,0.0,-0.001064,0.039977,-0.0,-0.0,2.0,0.282024,0.292956,0.282024,0.270446,,,,,,
75080,0.033095,-0.028224,0.016828,-0.003193,-0.001064,0.0,0.039148,-0.0,-0.0,2.0,0.282024,0.292861,0.282024,0.270552,,,,,,
75100,0.031994,-0.028339,0.016937,-0.003193,-0.001064,0.0,0.038326,-0.0,-0.0,2.0,0.282024,0.294395,0.282024,0.268819,,,,,,
75120,0.030892,-0.028335,0.017166,-0.003193,0.0,-0.001064,0.037909,-0.0,-0.0,2.0,0.282024,0.292318,0.282024,0.271159,,,,,,
75140,0.029793,-0.028326,0.017152,-0.003193,0.0,-0.001064,0.037081,-0.0,-0.0,2.0,0.282024,0.292116,0.282024,0.271384,,,,,,
75160,0.028691,-0.028317,0.017256,-0.003193,0.0,-0.001064,0.035986,-0.0,-0.0,2.0,0.282024,0.29201,0.282024,0.271502,,,,,,
75180,0.027345,-0.02831,0.017482,-0.003193,-0.001064,0.0,0.035489,-0.0,-0.0,2.0,0.282024,0.291581,0.282024,0.271977,,,,,,
75200,0.026121,-0.028303,0.017709,-0.004257,-0.001064,-0.001064,0.034623,-0.0,-0.0,2.0,0.282024,0.291329,0.282024,0.272255,,,,,,
75220,0.024778,-0.028171,0.017811,-0.003193,-0.001064,-0.001064,0.033777,-0.0,-0.0,2.0,0.282024,0.291017,0.282024,0.272598,,,,,,
75240,0.023312,-0.02816,0.017914,-0.003193,0.0,-0.001064,0.032919,-0.0,-0.0,2.0,0.282024,0.288898,0.282024,0.2749,,,,,,
75260,0.021967,-0.028029,0.018138,-0.004257,0.0,-0.001064,0.032332,-0.0,-0.0,2.0,0.282024,0.288464,0.282024,0.275365,,,,,,
75280,0.020499,-0.028019,0.018363,-0.004257,-0.001064,-0.001064,0.031327,-0.0,-0.0,2.0,0.282024,0.289896,0.282024,0.273822,,,,,,
75300,0.019152,-0.028132,0.01859,-0.003193,-0.001064,-0.001064,0.030457,-0.0,-0.0,2.0,0.282024,0.287789,0.282024,0.276085,,,,,,
75320,0.017805,-0.02812,0.018812,-0.003193,0.0,-0.001064,0.029589,-0.0,-0.0,2.0,0.282024,0.289205,0.282024,0.27457,,,,,,
75340,0.016459,-0.02811,0.019038,-0.003193,-0.001064,-0.001064,0.028724,-0.0,-0.0,2.0,0.282024,0.288846,0.282024,0.274956,,,,,,
75360,0.015111,-0.028101,0.019386,-0.003193,-0.001064,-0.001064,0.02825,-0.0,-0.0,2.0,0.282024,0.288325,0.282024,0.275514,,,,,,
75380,0.013888,-0.027969,0.019613,-0.003193,-0.001064,-0.002128,0.027059,-0.0,-0.0,2.0,0.282024,0.288121,0.282024,0.275732,,,,,,
75400,0.012786,-0.02796,0.019842,-0.003193,-0.001064,-0.001064,0.026162,-0.0,-0.0,2.0,0.282024,0.287847,0.282024,0.276023,,,,,,
75420,0.011682,-0.02783,0.020314,-0.002128,0.0,-0.001064,0.02572,-0.0,-0.0,2.0,0.282024,0.287387,0.282024,0.27651,,,,,,
75440,0.010701,-0.027822,0.020667,-0.003193,0.0,-0.001064,0.024799,-0.0,-0.0,2.0,0.282024,0.287154,0.282024,0.276756,,,,,,
75460,0.00984,-0.027937,0.021022,-0.002128,-0.001064,-0.002128,0.024332,-0.0,-0.0,2.0,0.282024,0.288563,0.282024,0.275259,,,,,,
75480,0.009103,-0.027931,0.021379,-0.002128,0.0,-0.001064,0.023572,-0.0,-0.0,2.0,0.282024,0.288355,0.282024,0.275482,,,,,,
75500,0.008364,-0.028047,0.021735,-0.002128,0.0,-0.001064,0.022271,-0.0,-0.0,2.0,0.282024,0.288359,0.282024,0.275478,,,,,,
75520,0.00787,-0.028043,0.022095,-0.002128,-0.001064,-0.001064,0.02137,-0.0,-0.0,2.0,0.282024,0.28831,0.282024,0.27553,,,,,,
75540,0.007499,-0.028041,0.022456,-0.001064,-0.001064,-0.002128,0.020478,-0.0,-0.0,2.0,0.282024,0.290072,0.282024,0.273632,,,,,,
75560,0.007006,-0.028037,0.022815,-0.001064,0.0,-0.001064,0.019568,-0.0,-0.0,2.0,0.282024,0.290041,0.282024,0.273665,,,,,,
75580,0.006755,-0.028035,0.0233,-0.001064,-0.001064,-0.001064,0.018706,-0.0,-0.0,2.0,0.282024,0.29009,0.282024,0.273612,,,,,,
75600,0.006507,-0.027912,0.023663,-0.001064,0.0,-0.002128,0.017797,-0.0,-0.0,2.0,0.282024,0.290168,0.282024,0.273527,,,,,,
75620,0.006258,-0.02791,0.024026,-0.001064,0.0,-0.001064,0.016887,-0.0,-0.0,2.0,0.282024,0.290255,0.282024,0.273433,,,,,,
75640,0.006131,-0.02791,0.02439,-0.001064,-0.001064,-0.001064,0.016429,-0.0,-0.0,2.0,0.282024,0.290224,0.282024,0.273466,,,,,,
75660,0.00588,-0.02803,0.024753,-0.001064,0.0,-0.001064,0.015529,-0.0,-0.0,2.0,0.282024,0.290321,0.282024,0.27336,,,,,,
75680,0.005632,-0.027906,0.025116,-0.001064,0.0,-0.001064,0.015016,-0.0,-0.0,2.0,0.282024,0.29028,0.282024,0.273405,,,,,,
75700,0.005381,-0.028026,0.025479,-0.001064,-0.001064,-0.001064,0.01378,-0.0,-0.0,2.0,0.282024,0.290522,0.282024,0.27314,,,,,,
75720,0.005131,-0.028147,0.025847,-0.001064,0.0,-0.002128,0.012864,-0.0,-0.0,2.0,0.282024,0.290655,0.282024,0.272996,,,,,,
75740,0.004883,-0.028023,0.026209,-0.001064,0.0,-0.001064,0.011953,-0.0,-0.0,2.0,0.282024,0.290796,0.282024,0.272842,,,,,,
75760,0.004512,-0.028019,0.02657,-0.002128,-0.001064,-0.001064,0.01104,-0.0,-0.0,2.0,0.282024,0.290901,0.282024,0.272726,,,,,,
75780,0.004141,-0.028015,0.026932,-0.002128,0.0,-0.001064,0.010415,-0.0,-0.0,2.0,0.282024,0.290902,0.282024,0.272724,,,,,,
75800,0.003649,-0.028008,0.027169,-0.001064,0.0,-0.001064,0.009265,-0.0,-0.0,2.0,0.282024,0.291065,0.282024,0.272546,,,,,,
75820,0.003152,-0.028125,0.027651,-0.002128,-0.001064,-0.001064,0.008335,-0.0,-0.0,2.0,0.282024,0.289399,0.282024,0.274361,,,,,,
75840,0.002659,-0.02824,0.027888,-0.002128,0.0,-0.001064,0.007417,-0.0,-0.0,2.0,0.282024,0.289489,0.282024,0.274263,,,,,,
75860,0.002043,-0.028232,0.028246,-0.002128,-0.001064,-0.001064,0.006501,-0.0,-0.0,2.0,0.282024,0.289538,0.282024,0.27421,,,,,,
75880,0.001426,-0.028224,0.028725,-0.002128,-0.001064,-0.001064,0.006038,-0.0,-0.0,2.0,0.282024,0.289415,0.282024,0.274344,,,,,,
75900,0.000691,-0.028091,0.029081,-0.002128,-0.001064,-0.002128,0.005236,-0.0,-0.0,2.0,0.282024,0.289376,0.282024,0.274386,,,,,,
75920,7.5e-05,-0.028082,0.029439,-0.002128,-0.001064,-0.001064,0.004226,-0.0,-0.0,2.0,0.282024,0.289463,0.282024,0.274291,,,,,,
75940,-0.000908,-0.028068,0.029913,-0.002128,0.0,-0.001064,0.003308,-0.0,-0.0,2.0,0.282024,0.28938,0.282024,0.274381,,,,,,
75960,-0.001645,-0.027934,0.030391,-0.002128,0.0,-0.002128,0.002391,-0.0,-0.0,2.0,0.282024,0.287623,0.282024,0.276261,,,,,,
75980,-0.002507,-0.028043,0.030745,-0.002128,-0.001064,-0.002128,0.001425,-0.0,-0.0,2.0,0.282024,0.289375,0.282024,0.274387,,,,,,
76000,-0.003614,-0.028147,0.031218,-0.003193,0.0,-0.001064,0.000578,-0.0,-0.0,2.0,0.282024,0.287451,0.282024,0.276442,,,,,,
76020,-0.004595,-0.028008,0.031692,-0.003193,0.0,-0.002128,-0.000364,-0.0,-0.0,2.0,0.282024,0.287379,0.282024,0.276519,,,,,,
76040,-0.0057,-0.027989,0.032165,-0.003193,-0.001064,-0.002128,-0.001279,-0.0,-0.0,2.0,0.282024,0.287246,0.282024,0.27666,,,,,,
76060,-0.006929,-0.027967,0.032758,-0.003193,-0.001064,-0.002128,-0.0022,-0.0,-0.0,2.0,0.282024,0.287062,0.282024,0.276853,,,,,,
76080,-0.008276,-0.027821,0.033227,-0.003193,-0.001064,-0.001064,-0.002658,-0.0,-0.0,2.0,0.282024,0.284856,0.282024,0.279151,,,,,,
76100,-0.009506,-0.027799,0.033826,-0.004257,-0.001064,-0.002128,-0.003925,-0.0,-0.0,2.0,0.282024,0.286583,0.282024,0.277356,,,,,,
76120,-0.010975,-0.027649,0.034294,-0.003193,0.0,-0.002128,-0.004448,-0.0,-0.0,2.0,0.282024,0.286132,0.282024,0.277828,,,,,,
76140,-0.012446,-0.027497,0.034884,-0.004257,0.0,-0.002128,-0.005389,-0.0,-0.0,2.0,0.282024,0.284031,0.282024,0.279997,,,,,,
76160,-0.013919,-0.02759,0.03535,-0.004257,-0.001064,-0.001064,-0.006305,-0.0,-0.0,2.0,0.282024,0.283706,0.282024,0.280328,,,,,,
76180,-0.015514,-0.027557,0.035937,-0.003193,0.0,-0.002128,-0.007221,-0.0,-0.0,2.0,0.282024,0.285131,0.282024,0.278868,,,,,,
76200,-0.016987,-0.027525,0.036526,-0.004257,0.0,-0.002128,-0.007743,-0.0,-0.0,2.0,0.282024,0.282822,0.282024,0.281223,,,,,,
76220,-0.018459,-0.027494,0.036999,-0.004257,-0.001064,-0.001064,-0.009061,-0.0,-0.0,2.0,0.282024,0.282624,0.282024,0.281423,,,,,,
76240,-0.019932,-0.02746,0.037588,-0.003193,-0.001064,-0.002128,-0.009991,-0.0,-0.0,2.0,0.282024,0.282265,0.282024,0.281783,,,,,,
76260,-0.021522,-0.027303,0.038054,-0.004257,0.0,-0.002128,-0.010904,-0.0,-0.0,2.0,0.282024,0.281844,0.282024,0.282204,,,,,,
76280,-0.022993,-0.027145,0.038644,-0.004257,-0.001064,-0.002128,-0.01136,-0.0,-0.0,2.0,0.282024,0.281276,0.282024,0.28277,,,,,,
76300,-0.024465,-0.027108,0.039232,-0.003193,-0.001064,-0.002128,-0.012485,-0.0,-0.0,2.0,0.282024,0.282787,0.282024,0.281258,,,,,,
76320,-0.026056,-0.026951,0.039584,-0.004257,0.0,-0.002128,-0.013057,-0.0,-0.0,2.0,0.282024,0.280365,0.282024,0.283669,,,,,,
76340,-0.027406,-0.026915,0.040174,-0.004257,-0.001064,-0.002128,-0.014043,-0.0,-0.0,2.0,0.282024,0.280019,0.282024,0.284009,,,,,,
76360,-0.028879,-0.027,0.040638,-0.003193,-0.001064,-0.002128,-0.014961,-0.0,-0.0,2.0,0.282024,0.281427,0.282024,0.282619,,,,,,
76380,-0.030469,-0.026837,0.041104,-0.004257,0.0,-0.002128,-0.015866,-0.0,-0.0,2.0,0.282024,0.279094,0.282024,0.284911,,,,,,
76400,-0.031823,-0.026924,0.041578,-0.003193,-0.001064,-0.001064,-0.016314,-0.0,-0.0,2.0,0.282024,0.278499,0.282024,0.285487,,,,,,
76420,-0.033169,-0.026765,0.042047,-0.003193,-0.001064,-0.001064,-0.017479,-0.0,-0.0,2.0,0.282024,0.280038,0.282024,0.283991,,,,,,
76440,-0.034516,-0.02673,0.042393,-0.003193,0.0,-0.002128,-0.018448,-0.0,-0.0,2.0,0.282024,0.279643,0.282024,0.284376,,,,,,
76460,-0.03574,-0.026572,0.042864,-0.003193,-0.001064,-0.001064,-0.019354,-0.0,-0.0,2.0,0.282024,0.279266,0.282024,0.284744,,,,,,
76480,-0.036967,-0.02654,0.043219,-0.003193,-0.001064,-0.001064,-0.02025,-0.0,-0.0,2.0,0.282024,0.280723,0.282024,0.283317,,,,,,
76500,-0.038067,-0.026386,0.043571,-0.003193,0.0,-0.001064,-0.020696,-0.0,-0.0,2.0,0.282024,0.278346,0.282024,0.285634,,,,,,
76520,-0.03917,-0.026354,0.04392,-0.003193,-0.001064,-0.001064,-0.02176,-0.0,-0.0,2.0,0.282024,0.27806,0.282024,0.28591,,,,,,
76540,-0.040272,-0.026322,0.044269,-0.003193,-0.001064,-0.001064,-0.022712,-0.0,-0.0,2.0,0.282024,0.27958,0.282024,0.284438,,,,,,
76560,-0.041378,-0.02629,0.044626,-0.002128,0.0,-0.001064,-0.023593,-0.0,-0.0,2.0,0.282024,0.277352,0.282024,0.286587,,,,,,
76580,-0.042357,-0.026262,0.044855,-0.003193,0.0,-0.001064,-0.024476,-0.0,-0.0,2.0,0.282024,0.277031,0.282024,0.286893,,,,,,
76600,-0.043092,-0.02624,0.045087,-0.002128,-0.001064,-0.001064,-0.024917,-0.0,-0.0,2.0,0.282024,0.278494,0.282024,0.285492,,,,,,
76620,-0.04407,-0.026214,0.045194,-0.002128,-0.001064,-0.001064,-0.026052,-0.0,-0.0,2.0,0.282024,0.278271,0.282024,0.285706,,,,,,
76640,-0.045046,-0.026064,0.045425,-0.003193,0.0,-0.001064,-0.026991,-0.0,-0.0,2.0,0.282024,0.276099,0.282024,0.287776,,,,,,
76660,-0.045782,-0.026045,0.045544,-0.003193,-0.001064,-0.001064,-0.027861,-0.0,-0.0,2.0,0.282024,0.275866,0.282024,0.287994,,,,,,
76680,-0.046759,-0.025894,0.045775,-0.002128,-0.001064,-0.001064,-0.028727,-0.0,-0.0,2.0,0.282024,0.277413,0.282024,0.28653,,,,,,
76700,-0.047736,-0.025868,0.045882,-0.002128,0.0,-0.001064,-0.029158,-0.0,-0.0,2.0,0.282024,0.275018,0.282024,0.288789,,,,,,
76720,-0.048589,-0.025723,0.045994,-0.003193,0.0,-0.001064,-0.030348,-0.0,-0.0,2.0,0.282024,0.274863,0.282024,0.288933,,,,,,
76740,-0.049444,-0.025699,0.046102,-0.003193,-0.001064,-0.001064,-0.030789,-0.0,-0.0,2.0,0.282024,0.276286,0.282024,0.287599,,,,,,
76760,-0.05055,-0.025793,0.046212,-0.002128,0.0,-0.001064,-0.031662,-0.0,-0.0,2.0,0.282024,0.273999,0.282024,0.289733,,,,,,
76780,-0.051405,-0.02577,0.046321,-0.003193,0.0,-0.001064,-0.032513,-0.0,-0.0,2.0,0.282024,0.273694,0.282024,0.290015,,,,,,
76800,-0.052259,-0.025749,0.046307,-0.003193,-0.001064,-0.001064,-0.033366,-0.0,-0.0,2.0,0.282024,0.275289,0.282024,0.288536,,,,,,
76820,-0.053236,-0.025722,0.046413,-0.002128,-0.001064,0.0,-0.03395,-0.0,-0.0,2.0,0.282024,0.272916,0.282024,0.290728,,,,,,
76840,-0.054214,-0.025695,0.04652,-0.003193,-0.001064,-0.001064,-0.034939,-0.0,-0.0,2.0,0.282024,0.272611,0.282024,0.291006,,,,,,
76860,-0.055068,-0.025554,0.046518,-0.003193,-0.001064,-0.001064,-0.035772,-0.0,-0.0,2.0,0.282024,0.2742,0.282024,0.289547,,,,,,
76880,-0.056168,-0.025523,0.046622,-0.002128,-0.001064,-0.001064,-0.036607,-0.0,-0.0,2.0,0.282024,0.273779,0.282024,0.289936,,,,,,
76900,-0.057142,-0.025374,0.046732,-0.002128,0.0,-0.001064,-0.037439,-0.0,-0.0,2.0,0.282024,0.271485,0.282024,0.292025,,,,,,
76920,-0.057996,-0.025353,0.046718,-0.003193,0.0,-0.001064,-0.037853,-0.0,-0.0,2.0,0.282024,0.270975,0.282024,0.292483,,,,,,
76940,-0.058977,-0.025327,0.046833,-0.002128,0.0,0.0,-0.039059,-0.0,-0.0,2.0,0.282024,0.27267,0.282024,0.290952,,,,,,
76960,-0.059835,-0.025424,0.046937,-0.002128,-0.001064,-0.001064,-0.039881,-0.0,-0.0,2.0,0.282024,0.272333,0.282024,0.291259,,,,,,
76980,-0.060689,-0.025403,0.046924,-0.003193,0.0,-0.001064,-0.040695,-0.0,-0.0,2.0,0.282024,0.270057,0.282024,0.293302,,,,,,
77000,-0.061543,-0.025382,0.04691,-0.003193,-0.001064,-0.001064,-0.041101,-0.0,-0.0,2.0,0.282024,0.271475,0.282024,0.292034,,,,,,
77020,-0.062398,-0.025357,0.047018,-0.002128,-0.001064,-0.001064,-0.041913,-0.0,-0.0,2.0,0.282024,0.271122,0.282024,0.292351,,,,,,
77040,-0.063253,-0.025216,0.047016,-0.002128,-0.001064,0.0,-0.042606,-0.0,-0.0,2.0,0.282024,0.270718,0.282024,0.292713,,,,,,
77060,-0.064108,-0.025191,0.047124,-0.002128,-0.001064,-0.001064,-0.043475,-0.0,-0.0,2.0,0.282024,0.270385,0.282024,0.29301,,,,,,
77080,-0.064836,-0.025055,0.046994,-0.002128,0.0,0.0,-0.044267,-0.0,-0.0,2.0,0.282024,0.270073,0.282024,0.293288,,,,,,
77100,-0.065569,-0.025032,0.047104,-0.002128,-0.001064,0.0,-0.045058,-0.0,-0.0,2.0,0.282024,0.269758,0.282024,0.293567,,,,,,
77120,-0.066305,-0.025016,0.0471,-0.002128,-0.001064,-0.001064,-0.045925,-0.0,-0.0,2.0,0.282024,0.269475,0.282024,0.293817,,,,,,
77140,-0.066914,-0.025001,0.04709,-0.002128,0.0,-0.001064,-0.046671,-0.0,-0.0,2.0,0.282024,0.269195,0.282024,0.294064,,,,,,
77160,-0.067402,-0.024988,0.047082,-0.002128,0.0,0.0,-0.047437,-0.0,-0.0,2.0,0.282024,0.270924,0.282024,0.292529,,,,,,
77180,-0.068012,-0.024973,0.047072,-0.001064,-0.001064,0.0,-0.048202,-0.0,-0.0,2.0,0.282024,0.270661,0.282024,0.292764,,,,,,
77200,-0.068379,-0.02496,0.047188,-0.001064,-0.001064,-0.001064,-0.048587,-0.0,-0.0,2.0,0.282024,0.268389,0.282024,0.294771,,,,,,
77220,-0.068741,-0.024833,0.047064,-0.002128,0.0,-0.001064,-0.049347,-0.0,-0.0,2.0,0.282024,0.270184,0.282024,0.293189,,,,,,
77240,-0.068984,-0.024831,0.046939,-0.001064,0.0,0.0,-0.049788,-0.0,-0.0,2.0,0.282024,0.269948,0.282024,0.293399,,,,,,
77260,-0.069107,-0.024824,0.047058,0.0,-0.001064,0.0,-0.05089,-0.0,-0.0,2.0,0.282024,0.270048,0.282024,0.29331,,,,,,
77280,-0.069351,-0.024818,0.047054,-0.001064,0.0,-0.001064,-0.051666,-0.0,-0.0,2.0,0.282024,0.269974,0.282024,0.293375,,,,,,
77300,-0.069348,-0.024826,0.046811,-0.001064,0.0,-0.001064,-0.052404,-0.0,-0.0,2.0,0.282024,0.269998,0.282024,0.293355,,,,,,
77320,-0.069351,-0.024948,0.046806,0.0,0.0,0.0,-0.053147,-0.0,-0.0,2.0,0.282024,0.271967,0.282024,0.29159,,,,,,
77340,-0.069348,-0.024826,0.046811,0.0,-0.001064,0.0,-0.053524,-0.0,-0.0,2.0,0.282024,0.269926,0.282024,0.293418,,,,,,
77360,-0.069348,-0.024826,0.046811,-0.001064,-0.001064,-0.001064,-0.05452,-0.0,-0.0,2.0,0.282024,0.270091,0.282024,0.293271,,,,,,
77380,-0.069225,-0.024834,0.046691,-0.001064,0.0,0.0,-0.055226,-0.0,-0.0,2.0,0.282024,0.270199,0.282024,0.293176,,,,,,
77400,-0.069344,-0.024709,0.046693,-0.001064,0.0,0.0,-0.055581,-0.0,-0.0,2.0,0.282024,0.270067,0.282024,0.293293,,,,,,
77420,-0.069341,-0.024587,0.046697,-0.001064,-0.001064,0.0,-0.056288,-0.0,-0.0,2.0,0.282024,0.270142,0.282024,0.293226,,,,,,
77440,-0.069585,-0.024581,0.046693,-0.001064,0.0,-0.002128,-0.05699,-0.0,-0.0,2.0,0.282024,0.270123,0.282024,0.293243,,,,,,
77460,-0.069464,-0.02471,0.046569,-0.001064,0.0,0.0,-0.057598,-0.0,-0.0,2.0,0.282024,0.270225,0.282024,0.293152,,,,,,
77480,-0.069467,-0.024832,0.046565,0.0,-0.001064,0.0,-0.058336,-0.0,-0.0,2.0,0.282024,0.272273,0.282024,0.291313,,,,,,
77500,-0.069469,-0.024828,0.046687,0.0,-0.001064,-0.001064,-0.059017,-0.0,-0.0,2.0,0.282024,0.270447,0.282024,0.292955,,,,,,
77520,-0.069586,-0.024707,0.046567,-0.001064,0.0,-0.001064,-0.059686,-0.0,-0.0,2.0,0.282024,0.27051,0.282024,0.292899,,,,,,
77540,-0.069466,-0.024836,0.046443,-0.001064,0.0,0.0,-0.060025,-0.0,-0.0,2.0,0.282024,0.272472,0.282024,0.291132,,,,,,
77560,-0.069589,-0.024829,0.046563,0.0,-0.001064,0.0,-0.060905,-0.0,-0.0,2.0,0.282024,0.272637,0.282024,0.290982,,,,,,
77580,-0.069586,-0.024707,0.046567,-0.001064,-0.001064,-0.001064,-0.061563,-0.0,-0.0,2.0,0.282024,0.270848,0.282024,0.292597,,,,,,
77600,-0.069708,-0.024704,0.046565,-0.001064,0.0,-0.001064,-0.062214,-0.0,-0.0,2.0,0.282024,0.270943,0.282024,0.292512,,,,,,
77620,-0.069708,-0.024704,0.046565,-0.001064,0.0,0.0,-0.062846,-0.0,-0.0,2.0,0.282024,0.271089,0.282024,0.292381,,,,,,
77640,-0.069832,-0.024697,0.046685,0.0,-0.001064,0.0,-0.06349,-0.0,-0.0,2.0,0.282024,0.271198,0.282024,0.292283,,,,,,
77660,-0.070077,-0.024686,0.046803,-0.001064,0.0,-0.001064,-0.064053,-0.0,-0.0,2.0,0.282024,0.271231,0.282024,0.292253,,,,,,
77680,-0.069833,-0.024692,0.046807,-0.001064,0.0,-0.001064,-0.064694,-0.0,-0.0,2.0,0.282024,0.271509,0.282024,0.292004,,,,,,
77700,-0.069955,-0.024689,0.046805,0.0,0.0,0.0,-0.065008,-0.0,-0.0,2.0,0.282024,0.273425,0.282024,0.290262,,,,,,
77720,-0.070078,-0.024682,0.046925,-0.001064,-0.001064,0.0,-0.065619,-0.0,-0.0,2.0,0.282024,0.271633,0.282024,0.291892,,,,,,
77740,-0.069961,-0.024803,0.047044,-0.001064,0.0,-0.001064,-0.066222,-0.0,-0.0,2.0,0.282024,0.271866,0.282024,0.291681,,,,,,
77760,-0.069961,-0.024803,0.047044,-0.001064,0.0,-0.001064,-0.066633,-0.0,-0.0,2.0,0.282024,0.271979,0.282024,0.291579,,,,,,
77780,-0.07021,-0.024794,0.047171,-0.001064,0.0,0.0,-0.067325,-0.0,-0.0,2.0,0.282024,0.274027,0.282024,0.289708,,,,,,
77800,-0.070212,-0.024789,0.047293,0.0,-0.001064,0.0,-0.067925,-0.0,-0.0,2.0,0.282024,0.272322,0.282024,0.291269,,,,,,
77820,-0.07021,-0.024663,0.047419,-0.001064,0.0,-0.002128,-0.068499,-0.0,-0.0,2.0,0.282024,0.272528,0.282024,0.291081,,,,,,
77840,-0.070332,-0.02466,0.047417,-0.001064,0.0,0.0,-0.069072,-0.0,-0.0,2.0,0.282024,0.272693,0.282024,0.290931,,,,,,
77860,-0.070458,-0.024775,0.047532,-0.001064,-0.001064,-0.001064,-0.069354,-0.0,-0.0,2.0,0.282024,0.27274,0.282024,0.290888,,,,,,
77880,-0.07046,-0.02477,0.047654,-0.001064,-0.001064,-0.001064,-0.070159,-0.0,-0.0,2.0,0.282024,0.273062,0.282024,0.290594,,,,,,
77900,-0.070582,-0.024767,0.047652,-0.001064,0.0,-0.001064,-0.070698,-0.0,-0.0,2.0,0.282024,0.273234,0.282024,0.290437,,,,,,
77920,-0.070708,-0.024882,0.047768,-0.001064,0.0,-0.001064,-0.071235,-0.0,-0.0,2.0,0.282024,0.273409,0.282024,0.290276,,,,,,
77940,-0.070831,-0.024874,0.047888,0.0,-0.001064,0.0,-0.071759,-0.0,-0.0,2.0,0.282024,0.273587,0.282024,0.290113,,,,,,
77960,-0.070955,-0.024867,0.048007,-0.001064,-0.001064,-0.001064,-0.072143,-0.0,-0.0,2.0,0.282024,0.273713,0.282024,0.289997,,,,,,
77980,-0.071199,-0.024861,0.048003,-0.001064,0.0,-0.001064,-0.072721,-0.0,-0.0,2.0,0.282024,0.273875,0.282024,0.289848,,,,,,
78000,-0.0712,-0.024856,0.048125,-0.001064,0.0,0.0,-0.07298,-0.0,-0.0,2.0,0.282024,0.275903,0.282024,0.28796,,,,,,
78020,-0.071323,-0.024849,0.048245,0.0,-0.001064,0.0,-0.073481,-0.0,-0.0,2.0,0.282024,0.274198,0.282024,0.28955,,,,,,
78040,-0.071569,-0.024838,0.048363,-0.001064,0.0,-0.001064,-0.073974,-0.0,-0.0,2.0,0.282024,0.27434,0.282024,0.289419,,,,,,
78060,-0.071572,-0.02496,0.048359,-0.001064,0.0,0.0,-0.074458,-0.0,-0.0,2.0,0.282024,0.274581,0.282024,0.289195,,,,,,
78080,-0.071939,-0.024946,0.048474,-0.001064,-0.001064,0.0,-0.074896,-0.0,-0.0,2.0,0.282024,0.274658,0.282024,0.289123,,,,,,
78100,-0.072311,-0.024934,0.048599,-0.001064,0.0,-0.001064,-0.075375,-0.0,-0.0,2.0,0.282024,0.272848,0.282024,0.29079,,,,,,
78120,-0.072555,-0.024928,0.048595,-0.002128,0.0,-0.001064,-0.07584,-0.0,-0.0,2.0,0.282024,0.272994,0.282024,0.290656,,,,,,
78140,-0.072923,-0.02504,0.048584,-0.001064,-0.001064,0.0,-0.076294,-0.0,-0.0,2.0,0.282024,0.274989,0.282024,0.288816,,,,,,
78160,-0.073532,-0.024898,0.0487,-0.001064,-0.001064,0.0,-0.076516,-0.0,-0.0,2.0,0.282024,0.272981,0.282024,0.290668,,,,,,
78180,-0.073902,-0.025006,0.048811,-0.002128,0.0,-0.001064,-0.076893,-0.0,-0.0,2.0,0.282024,0.273037,0.282024,0.290617,,,,,,
78200,-0.074269,-0.025123,0.048679,-0.002128,0.0,-0.001064,-0.077553,-0.0,-0.0,2.0,0.282024,0.275115,0.282024,0.288698,,,,,,
78220,-0.07488,-0.025103,0.04879,-0.001064,0.0,-0.001064,-0.077973,-0.0,-0.0,2.0,0.282024,0.273189,0.282024,0.290478,,,,,,
78240,-0.075495,-0.025088,0.048788,-0.002128,-0.001064,0.0,-0.078379,-0.0,-0.0,2.0,0.282024,0.273156,0.282024,0.290508,,,,,,
78260,-0.076104,-0.025073,0.048778,-0.002128,-0.001064,-0.001064,-0.078581,-0.0,-0.0,2.0,0.282024,0.273035,0.282024,0.290619,,,,,,
78280,-0.076711,-0.024935,0.048772,-0.002128,0.0,0.0,-0.079132,-0.0,-0.0,2.0,0.282024,0.273056,0.282024,0.2906,,,,,,
78300,-0.077447,-0.025033,0.048877,-0.002128,-0.001064,0.0,-0.079363,-0.0,-0.0,2.0,0.282024,0.272886,0.282024,0.290755,,,,,,
78320,-0.078182,-0.025136,0.048859,-0.002128,-0.001064,-0.001064,-0.079744,-0.0,-0.0,2.0,0.282024,0.272772,0.282024,0.290859,,,,,,
78340,-0.078915,-0.024997,0.04886,-0.003193,0.0,-0.001064,-0.080113,-0.0,-0.0,2.0,0.282024,0.270719,0.282024,0.292712,,,,,,
78360,-0.079893,-0.025093,0.048839,-0.003193,0.0,0.0,-0.080473,-0.0,-0.0,2.0,0.282024,0.27241,0.282024,0.291189,,,,,,
78380,-0.080748,-0.025066,0.048946,-0.002128,-0.001064,0.0,-0.080716,-0.0,-0.0,2.0,0.282024,0.272164,0.282024,0.291411,,,,,,
78400,-0.08173,-0.025037,0.049059,-0.002128,0.0,-0.001064,-0.081127,-0.0,-0.0,2.0,0.282024,0.269992,0.282024,0.29336,,,,,,
78420,-0.082582,-0.02502,0.048922,-0.003193,0.0,0.0,-0.081469,-0.0,-0.0,2.0,0.282024,0.269767,0.282024,0.293559,,,,,,
78440,-0.083559,-0.024989,0.049027,-0.002128,-0.001064,-0.001064,-0.081797,-0.0,-0.0,2.0,0.282024,0.271414,0.282024,0.292089,,,,,,
78460,-0.08454,-0.024965,0.049019,-0.002128,-0.001064,-0.001064,-0.082112,-0.0,-0.0,2.0,0.282024,0.269162,0.282024,0.294093,,,,,,
78480,-0.085516,-0.024934,0.049123,-0.003193,0.0,-0.001064,-0.082274,-0.0,-0.0,2.0,0.282024,0.268776,0.282024,0.294433,,,,,,
78500,-0.086248,-0.024915,0.04911,-0.003193,0.0,0.0,-0.082687,-0.0,-0.0,2.0,0.282024,0.270538,0.282024,0.292874,,,,,,
78520,-0.087229,-0.024891,0.049102,-0.002128,-0.001064,-0.001064,-0.082835,-0.0,-0.0,2.0,0.282024,0.270126,0.282024,0.293241,,,,,,
78540,-0.088208,-0.024982,0.049201,-0.002128,-0.001064,-0.001064,-0.08312,-0.0,-0.0,2.0,0.282024,0.267801,0.282024,0.295283,,,,,,
78560,-0.08894,-0.024962,0.049188,-0.003193,0.0,-0.001064,-0.083395,-0.0,-0.0,2.0,0.282024,0.269483,0.282024,0.29381,,,,,,
78580,-0.089793,-0.02494,0.049172,-0.002128,0.0,0.0,-0.083682,-0.0,-0.0,2.0,0.282024,0.269149,0.282024,0.294104,,,,,,
78600,-0.09065,-0.024791,0.049293,-0.002128,-0.001064,0.0,-0.083914,-0.0,-0.0,2.0,0.282024,0.26878,0.282024,0.294429,,,,,,
78620,-0.091505,-0.024763,0.0494,-0.002128,-0.001064,-0.001064,-0.084161,-0.0,-0.0,2.0,0.282024,0.266435,0.282024,0.296462,,,,,,
78640,-0.092235,-0.024749,0.049265,-0.002128,0.0,-0.001064,-0.0844,-0.0,-0.0,2.0,0.282024,0.268076,0.282024,0.295044,,,,,,
78660,-0.092971,-0.024604,0.049388,-0.002128,0.0,0.0,-0.084628,-0.0,-0.0,2.0,0.282024,0.267727,0.282024,0.295348,,,,,,
78680,-0.093706,-0.0247,0.049491,-0.002128,-0.001064,-0.001064,-0.084848,-0.0,-0.0,2.0,0.282024,0.267366,0.282024,0.295661,,,,,,
78700,-0.094439,-0.024675,0.049599,-0.002128,-0.001064,-0.001064,-0.085024,-0.0,-0.0,2.0,0.282024,0.266977,0.282024,0.295996,,,,,,
78720,-0.095051,-0.024538,0.049603,-0.002128,0.0,0.0,-0.08524,-0.0,-0.0,2.0,0.282024,0.266648,0.282024,0.296279,,,,,,
78740,-0.095787,-0.024635,0.049706,-0.002128,0.0,-0.001064,-0.085432,-0.0,-0.0,2.0,0.282024,0.266248,0.282024,0.296623,,,,,,
78760,-0.096277,-0.02461,0.04994,-0.001064,-0.001064,-0.001064,-0.085526,-0.0,-0.0,2.0,0.282024,0.2659,0.282024,0.29692,,,,,,
78780,-0.097007,-0.024463,0.050054,-0.002128,-0.001064,-0.001064,-0.085704,-0.0,-0.0,2.0,0.282024,0.265478,0.282024,0.297279,,,,,,
78800,-0.097381,-0.024576,0.050051,-0.002128,0.0,-0.001064,-0.08579,-0.0,-0.0,2.0,0.282024,0.26516,0.282024,0.297548,,,,,,
78820,-0.097867,-0.024435,0.05017,-0.001064,0.0,0.0,-0.086016,-0.0,-0.0,2.0,0.282024,0.26684,0.282024,0.296115,,,,,,
78840,-0.098234,-0.024419,0.050285,-0.001064,-0.001064,-0.001064,-0.08617,-0.0,-0.0,2.0,0.282024,0.266547,0.282024,0.296366,,,,,,
78860,-0.098603,-0.024397,0.050522,-0.001064,-0.001064,-0.001064,-0.086311,-0.0,-0.0,2.0,0.282024,0.264248,0.282024,0.298318,,,,,,
78880,-0.098725,-0.024394,0.050519,-0.001064,0.0,-0.001064,-0.086442,-0.0,-0.0,2.0,0.282024,0.266039,0.282024,0.296801,,,,,,
78900,-0.09897,-0.024381,0.050637,-0.001064,0.0,0.0,-0.08651,-0.0,-0.0,2.0,0.282024,0.265752,0.282024,0.297046,,,,,,
78920,-0.099094,-0.024365,0.050878,0.0,-0.001064,-0.001064,-0.086668,-0.0,-0.0,2.0,0.282024,0.265553,0.282024,0.297215,,,,,,
78940,-0.099213,-0.02424,0.050882,-0.001064,-0.001064,-0.001064,-0.086773,-0.0,-0.0,2.0,0.282024,0.265336,0.282024,0.297399,,,,,,
78960,-0.099216,-0.024362,0.050876,-0.001064,0.0,-0.001064,-0.086827,-0.0,-0.0,2.0,0.282024,0.265146,0.282024,0.297561,,,,,,
78980,-0.099217,-0.024356,0.050997,-0.001064,0.0,0.0,-0.086918,-0.0,-0.0,2.0,0.282024,0.266961,0.282024,0.29601,,,,,,
79000,-0.099226,-0.024345,0.05125,0.0,-0.001064,-0.001064,-0.087012,-0.0,-0.0,2.0,0.282024,0.264798,0.282024,0.297854,,,,,,
79020,-0.099228,-0.024339,0.051372,-0.001064,-0.001064,-0.001064,-0.087054,-0.0,-0.0,2.0,0.282024,0.264607,0.282024,0.298016,,,,,,
79040,-0.099224,-0.024217,0.051378,-0.001064,0.0,-0.001064,-0.087114,-0.0,-0.0,2.0,0.282024,0.264425,0.282024,0.298169,,,,,,
79060,-0.099107,-0.024336,0.051496,-0.001064,0.0,0.0,-0.087163,-0.0,-0.0,2.0,0.282024,0.26429,0.282024,0.298283,,,,,,
79080,-0.09911,-0.024324,0.05174,0.0,-0.001064,-0.001064,-0.087203,-0.0,-0.0,2.0,0.282024,0.266098,0.282024,0.296751,,,,,,
79100,-0.099111,-0.024318,0.051861,0.0,-0.001064,-0.001064,-0.087219,-0.0,-0.0,2.0,0.282024,0.2639,0.282024,0.298609,,,,,,
79120,-0.099111,-0.024318,0.051861,-0.001064,0.0,-0.001064,-0.087253,-0.0,-0.0,2.0,0.282024,0.263711,0.282024,0.298768,,,,,,
79140,-0.09899,-0.024315,0.051985,-0.001064,0.0,0.0,-0.087265,-0.0,-0.0,2.0,0.282024,0.265568,0.282024,0.297203,,,,,,
79160,-0.098993,-0.024303,0.052229,0.0,-0.001064,-0.001064,-0.087266,-0.0,-0.0,2.0,0.282024,0.265365,0.282024,0.297375,,,,,,
79180,-0.099115,-0.024166,0.052476,-0.001064,-0.001064,-0.002128,-0.087262,-0.0,-0.0,2.0,0.282024,0.2631,0.282024,0.299277,,,,,,
79200,-0.098993,-0.024169,0.052478,-0.001064,0.0,-0.001064,-0.087248,-0.0,-0.0,2.0,0.282024,0.262942,0.282024,0.299408,,,,,,
79220,-0.098875,-0.024288,0.052596,-0.001064,0.0,0.0,-0.087236,-0.0,-0.0,2.0,0.282024,0.264797,0.282024,0.297856,,,,,,
79240,-0.099,-0.024273,0.052838,0.0,0.0,-0.001064,-0.087191,-0.0,-0.0,2.0,0.282024,0.264522,0.282024,0.298088,,,,,,
79260,-0.098877,-0.024142,0.05309,0.0,-0.001064,-0.001064,-0.087148,-0.0,-0.0,2.0,0.282024,0.264353,0.282024,0.29823,,,,,,
79280,-0.098882,-0.024258,0.053205,-0.001064,0.0,-0.002128,-0.087095,-0.0,-0.0,2.0,0.282024,0.262105,0.282024,0.300099,,,,,,
79300,-0.098761,-0.024256,0.053329,-0.001064,0.0,0.0,-0.087032,-0.0,-0.0,2.0,0.282024,0.261924,0.282024,0.300248,,,,,,
79320,-0.098762,-0.024115,0.053701,0.0,-0.001064,-0.001064,-0.086994,-0.0,-0.0,2.0,0.282024,0.2617,0.282024,0.300431,,,,,,
79340,-0.098883,-0.023978,0.053948,0.0,-0.001064,-0.002128,-0.086923,-0.0,-0.0,2.0,0.282024,0.263436,0.282024,0.298997,,,,,,
79360,-0.098883,-0.023844,0.054197,-0.001064,-0.001064,-0.002128,-0.086826,-0.0,-0.0,2.0,0.282024,0.261154,0.282024,0.300878,,,,,,
79380,-0.098765,-0.023963,0.054315,-0.001064,0.0,0.0,-0.086729,-0.0,-0.0,2.0,0.282024,0.26095,0.282024,0.301044,,,,,,
79400,-0.098649,-0.023943,0.054805,-0.001064,0.0,-0.001064,-0.086622,-0.0,-0.0,2.0,0.282024,0.262778,0.282024,0.299544,,,,,,
79420,-0.098653,-0.023924,0.05517,0.0,-0.001064,-0.002128,-0.086495,-0.0,-0.0,2.0,0.282024,0.262509,0.282024,0.299766,,,,,,
