time_ms,roll,pitch,yaw,reference_roll,reference_pitch,reference_yaw,reference_throttle,throttle_1,throttle_2,throttle_3,throttle_4,roll_predicted,pitch_predicted,yaw_predicted,roll_rate_predicted,pitch_rate_predicted,yaw_rate_predicted,value1,value2,value3,value4,value5,value6
138068,0.000492,-0.011959,-0.020999,-0.0,-0.0,-0.0,3.0,0.3261,0.319318,0.3261,0.332696,-0.0,-645.312599,0.0,-0.0,-9.336958,-0.0,-0.000203,-0.014393,-0.016714,-0.006164,5e-06,-0.000166
138088,0.000735,-0.011834,-0.020997,0.0,-0.0,-0.0,3.0,0.3261,0.322125,0.3261,0.330011,-0.0,-645.497722,0.0,-0.0,-9.119674,-0.0,-0.000115,-0.014393,-0.016717,-7e-06,-7e-06,-0.000177
138108,0.000614,-0.011958,-0.020998,0.0,-0.0,-0.0,3.0,0.3261,0.323072,0.3261,0.32909,0.0,-645.67845,0.0,0.0,-8.897368,-0.0,-2.3e-05,-0.014394,-0.016721,-0.015246,-3.1e-05,-0.000177
138128,0.000616,-0.01208,-0.02112,0.0,-0.0,-0.0,3.0,0.3261,0.322378,0.3261,0.329765,0.0,-645.854739,0.0,-0.0,-8.677357,-0.0,-0.000144,-0.014394,-0.016724,0.026688,-5.6e-05,-0.000177
138148,0.000864,-0.012443,-0.021118,0.0,-0.0,-0.0,3.0,0.3261,0.319986,0.3261,0.332063,0.0,-646.026684,0.0,-0.0,-8.466365,-0.0,-0.000237,-0.014394,-0.016727,0.042325,-5.6e-05,-0.000176
138168,0.000987,-0.012564,-0.021117,0.0,-0.0,-0.0,3.0,0.3261,0.31661,0.3261,0.33523,0.0,-646.194514,0.0,-0.0,-8.270362,-0.0,-0.00032,-0.014395,-0.016731,0.03568,-5.6e-05,-0.000176
138188,0.000987,-0.012564,-0.021117,0.0,-0.0,-0.0,3.0,0.3261,0.318021,0.3261,0.333917,0.0,-646.358567,0.0,-0.0,-8.094482,-0.0,-0.000215,-0.014396,-0.016734,-0.003468,-3.1e-05,-0.000164
138208,0.000866,-0.012688,-0.021118,0.0,-0.0,-0.0,3.0,0.3261,0.319262,0.3261,0.33275,-0.0,-646.519279,0.0,-0.0,-7.942995,-0.0,-9.6e-05,-0.014396,-0.016738,-0.023814,-3.1e-05,-0.000163
138228,0.000621,-0.012568,-0.02112,0.0,-0.0,-0.0,3.0,0.3261,0.320111,0.3261,0.331944,-0.0,-646.677166,0.0,-0.0,-7.819325,-0.0,4e-05,-0.014397,-0.016741,-0.047224,-1.9e-05,-0.000163
138248,0.000496,-0.012325,-0.020998,0.0,-0.0,-0.0,3.0,0.3261,0.321465,0.3261,0.330648,-0.0,-646.832804,0.0,-0.0,-7.726089,-0.0,2.1e-05,-0.014398,-0.016745,-0.044034,-7e-06,-0.000162
138268,0.000494,-0.012203,-0.020998,0.0,-0.0,-0.0,3.0,0.3261,0.326176,0.3261,0.326024,-0.0,-646.986817,0.0,-0.0,-7.665152,-0.0,0.000213,-0.014399,-0.016748,-0.055264,-3.1e-05,-0.000174
138288,0.000616,-0.012202,-0.020998,0.0,-0.0,-0.0,3.0,0.3261,0.32693,0.3261,0.325267,-0.0,-647.139861,0.0,-0.0,-7.637671,-0.0,0.00018,-0.014399,-0.016751,-0.028966,-3.1e-05,-0.000174
138308,0.000739,-0.012201,-0.021119,0.0,-0.0,-0.0,3.0,0.3261,0.325308,0.3261,0.32689,-0.0,-647.29261,0.0,-0.0,-7.644134,-0.0,6.3e-05,-0.0144,-0.016755,0.032741,-4.3e-05,-0.000173
138328,0.000861,-0.012199,-0.021118,0.0,-0.0,-0.0,3.0,0.3261,0.319292,0.3261,0.332721,-0.0,-647.445742,0.0,-0.0,-7.684382,-0.0,-0.000248,-0.014401,-0.016758,0.085397,-3e-05,-0.000173
138348,0.001108,-0.012441,-0.021117,0.0,-0.0,-0.0,3.0,0.3261,0.316852,0.3261,0.335005,-0.0,-647.599929,0.0,-0.0,-7.757609,-0.0,-0.000334,-0.014401,-0.016762,0.100255,-4.3e-05,-0.000173
138368,0.00123,-0.01244,-0.021116,0.0,-0.0,-0.0,3.0,0.3261,0.314455,0.3261,0.337207,-0.0,-647.755819,0.0,-0.0,-7.862347,-0.0,-0.000297,-0.014402,-0.016765,0.031334,-3.1e-05,-0.000173
138388,0.00123,-0.01244,-0.021116,0.0,-0.0,-0.0,3.0,0.3261,0.317392,0.3261,0.334504,-0.0,-647.914027,0.0,-0.0,-7.996434,-0.0,-7.2e-05,-0.014402,-0.016769,-0.027679,-3.1e-05,-0.000172
138408,0.000863,-0.012321,-0.021118,0.0,-0.0,-0.0,3.0,0.3261,0.31783,0.3261,0.334095,-0.0,-648.075121,0.0,-0.0,-8.156972,-0.0,6.3e-05,-0.014403,-0.016772,-0.050692,-3.1e-05,-0.000172
138428,0.000617,-0.012202,-0.02112,0.0,-0.0,-0.0,3.0,0.3261,0.320941,0.3261,0.331151,-0.0,-648.239603,0.0,-0.0,-8.340286,-0.0,0.00016,-0.014404,-0.016775,-0.025709,-3e-05,-0.000171
138448,0.000617,-0.012202,-0.02112,0.0,-0.0,-0.0,3.0,0.3261,0.324787,0.3261,0.327406,-0.0,-648.407896,0.0,-0.0,-8.541886,-0.0,0.000364,-0.014405,-0.016779,-0.039778,-1.8e-05,-0.000171
138468,0.000861,-0.012199,-0.021118,0.0,-0.0,-0.0,3.0,0.3261,0.325428,0.3261,0.326771,-0.0,-648.580328,0.0,0.0,-8.756469,-0.0,0.000332,-0.014405,-0.016782,-0.034122,-3e-05,-0.000171
138488,0.000985,-0.01232,-0.02124,0.0,-0.0,-0.0,3.0,0.3261,0.325739,0.3261,0.326461,-0.0,-648.757113,0.0,0.0,-8.977947,-0.0,0.000305,-0.014405,-0.016786,-0.008544,-3e-05,-0.00017
138508,0.001108,-0.012441,-0.021117,0.0,-0.0,-0.0,3.0,0.3261,0.322871,0.3261,0.329287,0.0,-648.938339,0.0,-0.0,-9.199546,-0.0,0.000219,-0.014406,-0.016789,0.047494,-3e-05,-0.00017
138528,0.00123,-0.01244,-0.021116,0.0,-0.0,-0.0,3.0,0.3261,0.319454,0.3261,0.332568,0.0,-649.123955,0.0,-0.0,-9.413968,-0.0,0.000134,-0.014406,-0.016793,0.040975,-1.7e-05,-0.000182
138548,0.001228,-0.012195,-0.021116,0.0,-0.0,-0.0,3.0,0.3261,0.319164,0.3261,0.332842,0.0,-649.313761,0.0,-0.0,-9.613641,-0.0,0.000136,-0.014407,-0.016796,0.01963,-5e-06,-0.000181
138568,0.001227,-0.012073,-0.021238,0.0,-0.0,-0.0,3.0,0.3261,0.319402,0.3261,0.332616,0.0,-649.507405,0.0,-0.0,-9.791046,-0.0,0.000136,-0.014407,-0.0168,-0.001277,7e-06,-0.000181
138588,0.001105,-0.012075,-0.021239,0.0,-0.0,-0.0,3.0,0.3261,0.319219,0.3261,0.33279,0.0,-649.704387,0.0,-0.0,-9.93911,-0.0,0.000154,-0.014408,-0.016803,0.016907,-1.7e-05,-0.000181
138608,0.001105,-0.012075,-0.021239,0.0,-0.0,-0.0,3.0,0.3261,0.318801,0.3261,0.333184,0.0,-649.904073,0.0,-0.0,-10.051632,-0.0,0.000167,-0.014408,-0.016807,0.01459,-1.7e-05,-0.00018
138628,0.001228,-0.012195,-0.021238,0.0,-0.0,-0.0,3.0,0.3261,0.322238,0.3261,0.329902,-0.0,-650.105713,0.0,-0.0,-10.123706,-0.0,0.000376,-0.014409,-0.016811,0.000329,-4.2e-05,-0.00018
138648,0.00123,-0.012317,-0.02136,0.0,-0.0,-0.0,3.0,0.3261,0.321057,0.3261,0.331039,-0.0,-650.308469,0.0,-0.0,-10.152086,-0.0,0.000377,-0.014409,-0.016814,-0.020462,-5.4e-05,-0.00018
138668,0.001232,-0.012439,-0.02136,0.0,-0.0,-0.0,3.0,0.3261,0.322996,0.3261,0.329165,-0.0,-650.511457,0.0,-0.0,-10.135442,-0.0,0.00048,-0.01441,-0.016818,-0.017132,-5.4e-05,-0.000179
138688,0.001111,-0.012563,-0.021361,0.0,-0.0,-0.0,3.0,0.3261,0.320206,0.3261,0.331854,-0.0,-650.713776,0.0,-0.0,-10.07448,-0.0,0.000391,-0.01441,-0.016822,-0.023056,-4.2e-05,-0.000179
138708,0.00111,-0.012441,-0.021361,0.0,-0.0,-0.0,3.0,0.3261,0.321709,0.3261,0.330412,-0.0,-650.914558,0.0,-0.0,-9.971893,-0.0,0.000372,-0.014411,-0.016825,0.000479,-1.7e-05,-0.000178
138728,0.001109,-0.012441,-0.021239,0.0,-0.0,-0.0,3.0,0.3261,0.321569,0.3261,0.330548,-0.0,-651.113002,0.0,-0.0,-9.832161,-0.0,0.000373,-0.014412,-0.016829,0.000404,-1.7e-05,-0.000178
138748,0.001228,-0.012195,-0.021238,0.0,-0.0,-0.0,3.0,0.3261,0.322165,0.3261,0.329972,-0.0,-651.308407,0.0,-0.0,-9.661219,-0.0,0.000359,-0.014412,-0.016833,0.002405,8e-06,-0.000178
138768,0.00123,-0.012317,-0.021238,0.0,-0.0,-0.0,3.0,0.3261,0.322363,0.3261,0.32978,-0.0,-651.500199,0.0,-0.0,-9.466046,-0.0,0.000346,-0.014413,-0.016836,0.004908,-5e-06,-0.00019
138788,0.001348,-0.01195,-0.021238,0.0,-0.0,-0.0,3.0,0.3261,0.320187,0.3261,0.331871,-0.0,-651.687951,0.0,-0.0,-9.254222,-0.0,0.000259,-0.014413,-0.01684,0.040446,-4e-06,-0.000189
138808,0.001227,-0.012073,-0.021238,0.0,-0.0,-0.0,3.0,0.3261,0.31891,0.3261,0.333081,-0.0,-651.871388,-0.0,0.0,-9.033505,-0.0,0.000278,-0.014414,-0.016844,0.03766,-2.9e-05,-0.000189
138828,0.00147,-0.011949,-0.021237,0.0,-0.0,-0.0,3.0,0.3261,0.320352,0.3261,0.331714,0.0,-652.050389,0.0,0.0,-8.811463,-0.0,0.000395,-0.014414,-0.016847,-0.003081,-2.9e-05,-0.000188
138848,0.001349,-0.012072,-0.021237,0.0,-0.0,-0.0,3.0,0.3261,0.32104,0.3261,0.331056,0.0,-652.224982,0.0,-0.0,-8.59518,-0.0,0.0005,-0.014414,-0.016851,-0.041424,-4.1e-05,-0.000188
138868,0.001227,-0.012073,-0.021238,0.0,-0.0,-0.0,3.0,0.3261,0.322267,0.3261,0.329873,0.0,-652.395331,0.0,-0.0,-8.391054,-0.0,0.000481,-0.014415,-0.016855,-0.017577,-2.9e-05,-0.000188
138888,0.000985,-0.012198,-0.021362,0.0,-0.0,-0.0,3.0,0.3261,0.320363,0.3261,0.331703,0.0,-652.561723,0.0,-0.0,-8.204677,-0.0,0.000388,-0.014415,-0.016858,0.018767,-2.9e-05,-0.000175
138908,0.001107,-0.012319,-0.021239,0.0,-0.0,-0.0,3.0,0.3261,0.321188,0.3261,0.330914,0.0,-652.724549,0.0,-0.0,-8.040775,-0.0,0.000383,-0.014415,-0.016862,0.01919,-4e-06,-0.000175
138928,0.001354,-0.01256,-0.021237,0.0,-0.0,-0.0,3.0,0.3261,0.322984,0.3261,0.329176,-0.0,-652.884289,0.0,-0.0,-7.903213,-0.0,0.000475,-0.014415,-0.016865,-0.017147,-4e-06,-0.000174
138948,0.001474,-0.012315,-0.021237,0.0,-0.0,-0.0,3.0,0.3261,0.322707,0.3261,0.329446,-0.0,-653.041494,0.0,-0.0,-7.795017,-0.0,0.000464,-0.014415,-0.016869,-0.015474,8e-06,-0.000174
138968,0.00135,-0.012194,-0.021237,0.0,-0.0,-0.0,3.0,0.3261,0.321122,0.3261,0.330978,-0.0,-653.196769,0.0,-0.0,-7.718427,-0.0,0.000499,-0.014416,-0.016872,-0.00076,8e-06,-0.000174
138988,0.001348,-0.01195,-0.021238,0.0,-0.0,-0.0,3.0,0.3261,0.318901,0.3261,0.33309,-0.0,-653.350759,0.0,-0.0,-7.674948,-0.0,0.000411,-0.014416,-0.016876,0.014128,8e-06,-0.000173
139008,0.001348,-0.01195,-0.021238,0.0,-0.0,-0.0,3.0,0.3261,0.322446,0.3261,0.3297,-0.0,-653.504133,0.0,-0.0,-7.665389,-0.0,0.000621,-0.014416,-0.016879,-0.021163,-4e-06,-0.000185
139028,0.001346,-0.011828,-0.021238,0.0,-0.0,-0.0,3.0,0.3261,0.322753,0.3261,0.329402,-0.0,-653.657571,0.0,-0.0,-7.689896,-0.0,0.000604,-0.014417,-0.016883,-0.017981,-1.6e-05,-0.000185
139048,0.001348,-0.01195,-0.02136,0.0,-0.0,-0.0,3.0,0.3261,0.322903,0.3261,0.329255,-0.0,-653.811753,0.0,-0.0,-7.747962,-0.0,0.000605,-0.014417,-0.016887,0.003277,-5.3e-05,-0.000184
139068,0.001473,-0.012193,-0.021359,0.0,-0.0,-0.0,3.0,0.3261,0.320917,0.3261,0.331174,-0.0,-653.967341,0.0,-0.0,-7.838419,-0.0,0.000497,-0.014417,-0.01689,0.042123,-4e-05,-0.000184
139088,0.001598,-0.012435,-0.021358,0.0,-0.0,-0.0,3.0,0.3261,0.320247,0.3261,0.331814,-0.0,-654.124971,0.0,-0.0,-7.959415,-0.0,0.0005,-0.014418,-0.016894,0.041913,-5.3e-05,-0.000184
139108,0.00172,-0.012434,-0.021357,0.0,-0.0,-0.0,3.0,0.3261,0.319551,0.3261,0.332476,-0.0,-654.285235,0.0,-0.0,-8.10837,-0.0,0.000498,-0.014418,-0.016897,0.020637,-1.6e-05,-0.000171
139128,0.001598,-0.012435,-0.021358,0.0,-0.0,-0.0,3.0,0.3261,0.319818,0.3261,0.332222,-0.0,-654.448669,0.0,-0.0,-8.281942,-0.0,0.000636,-0.014418,-0.016901,-0.00309,-4e-06,-0.000171
139148,0.001474,-0.012315,-0.021237,0.0,-0.0,-0.0,3.0,0.3261,0.317577,0.3261,0.334331,-0.0,-654.615735,0.0,-0.0,-8.475979,-0.0,0.000546,-0.014418,-0.016904,-0.029709,8e-06,-0.000158
139168,0.001349,-0.012072,-0.021237,0.0,-0.0,-0.0,3.0,0.3261,0.321143,0.3261,0.330957,-0.0,-654.786806,0.0,-0.0,-8.685507,-0.0,0.000634,-0.014419,-0.016908,-0.044783,2e-05,-0.00017
139188,0.001104,-0.011952,-0.021239,0.0,-0.0,-0.0,3.0,0.3261,0.325133,0.3261,0.327064,-0.0,-654.96215,0.0,0.0,-8.904742,-0.0,0.000841,-0.014419,-0.016911,-0.058966,2.1e-05,-0.000182
139208,0.001224,-0.011829,-0.021238,0.0,-0.0,-0.0,3.0,0.3261,0.324611,0.3261,0.32758,0.0,-655.141914,-0.0,0.0,-9.127158,-0.0,0.000718,-0.014419,-0.016915,-0.017127,8e-06,-0.000182
139228,0.001225,-0.011829,-0.02136,0.0,-0.0,-0.0,3.0,0.3261,0.325333,0.3261,0.326865,0.0,-655.326107,0.0,-0.0,-9.345624,-0.0,0.000689,-0.014419,-0.016918,0.009117,-1.6e-05,-0.000181
139248,0.001347,-0.011828,-0.02136,0.0,-0.0,-0.0,3.0,0.3261,0.322965,0.3261,0.329195,0.0,-655.514596,0.0,-0.0,-9.552613,-0.0,0.000449,-0.014419,-0.016922,0.049952,-1.6e-05,-0.000181
139268,0.001594,-0.012069,-0.021358,0.0,-0.0,-0.0,3.0,0.3261,0.318866,0.3261,0.333123,0.0,-655.707093,0.0,-0.0,-9.740503,-0.0,0.000256,-0.014419,-0.016925,0.082747,-1.6e-05,-0.00018
139288,0.001838,-0.012067,-0.021357,0.0,-0.0,-0.0,3.0,0.3261,0.316762,0.3261,0.335088,0.0,-655.903161,0.0,-0.0,-9.901945,-0.0,0.000292,-0.014419,-0.016929,0.055583,-4e-06,-0.00018
139308,0.001716,-0.012068,-0.021357,0.0,-0.0,-0.0,3.0,0.3261,0.316705,0.3261,0.335142,0.0,-656.102219,0.0,-0.0,-10.030285,-0.0,0.000413,-0.014418,-0.016933,-0.027856,2e-05,-0.00018
139328,0.001471,-0.011948,-0.021359,0.0,-0.0,-0.0,3.0,0.3261,0.319542,0.3261,0.332484,-0.0,-656.303561,0.0,-0.0,-10.119993,-0.0,0.000514,-0.014418,-0.016936,-0.045006,2e-05,-0.00018
139348,0.001103,-0.01183,-0.021361,0.0,-0.0,-0.0,3.0,0.3261,0.32111,0.3261,0.330989,-0.0,-656.506383,0.0,-0.0,-10.167066,-0.0,0.000646,-0.014418,-0.01694,-0.046907,3.3e-05,-0.000179
139368,0.000982,-0.011954,-0.021362,0.0,-0.0,-0.0,3.0,0.3261,0.322768,0.3261,0.329387,-0.0,-656.709812,0.0,-0.0,-10.169336,-0.0,0.000625,-0.014417,-0.016943,-0.043217,2e-05,-0.000167
139388,0.001104,-0.011952,-0.021361,0.0,-0.0,-0.0,3.0,0.3261,0.326312,0.3261,0.325888,-0.0,-656.912948,0.0,-0.0,-10.12665,-0.0,0.000699,-0.014417,-0.016947,-0.055208,-4e-06,-0.000166
139408,0.001348,-0.01195,-0.02136,0.0,-0.0,-0.0,3.0,0.3261,0.327695,0.3261,0.324495,-0.0,-657.114903,0.0,-0.0,-10.040896,-0.0,0.000653,-0.014417,-0.01695,-0.005767,-4e-06,-0.000166
139428,0.00135,-0.012072,-0.021359,0.0,-0.0,-0.0,3.0,0.3261,0.324161,0.3261,0.328024,-0.0,-657.31484,0.0,-0.0,-9.91586,-0.0,0.000569,-0.014417,-0.016954,0.050399,-1.6e-05,-0.000178
139448,0.001593,-0.012069,-0.021236,0.0,-0.0,-0.0,3.0,0.3261,0.319577,0.3261,0.33245,-0.0,-657.512014,0.0,-0.0,-9.756943,-0.0,0.000377,-0.014417,-0.016957,0.082467,9e-06,-0.000177
139468,0.001715,-0.011946,-0.021357,0.0,-0.0,-0.0,3.0,0.3261,0.319201,0.3261,0.332807,-0.0,-657.705793,0.0,-0.0,-9.570777,-0.0,0.000516,-0.014417,-0.016961,0.037737,2.1e-05,-0.000177
139488,0.001713,-0.011824,-0.021357,0.0,-0.0,-0.0,3.0,0.3261,0.318566,0.3261,0.333405,-0.0,-657.895689,0.0,-0.0,-9.364782,-0.0,0.000519,-0.014417,-0.016964,0.016493,2.1e-05,-0.000177
139508,0.001714,-0.011824,-0.02148,0.0,-0.0,-0.0,3.0,0.3261,0.319906,0.3261,0.332138,-0.0,-658.081362,0.0,-0.0,-9.146727,-0.0,0.000639,-0.014417,-0.016968,-0.02439,8e-06,-0.000189
139528,0.00147,-0.011826,-0.021481,0.0,-0.0,-0.0,3.0,0.3261,0.319378,0.3261,0.332639,0.0,-658.262629,0.0,-0.0,-8.924335,-0.0,0.000654,-0.014417,-0.016971,-0.026944,8e-06,-0.000188
139548,0.001349,-0.01195,-0.021482,0.0,-0.0,-0.0,3.0,0.3261,0.320983,0.3261,0.331111,0.0,-658.43946,0.0,-0.0,-8.70495,-0.0,0.000635,-0.014417,-0.016975,-0.023411,-4e-06,-0.000188
139568,0.001348,-0.011828,-0.021482,0.0,-0.0,-0.0,3.0,0.3261,0.322197,0.3261,0.329941,0.0,-658.611967,0.0,-0.0,-8.495304,-0.0,0.000615,-0.014417,-0.016979,-0.020115,-4e-06,-0.000175
139588,0.00135,-0.012072,-0.021482,0.0,-0.0,-0.0,3.0,0.3261,0.323416,0.3261,0.328755,0.0,-658.78039,0.0,-0.0,-8.301351,-0.0,0.000733,-0.014416,-0.016982,-0.040257,-4e-06,-0.000175
139608,0.001473,-0.012193,-0.021359,0.0,-0.0,-0.0,3.0,0.3261,0.323849,0.3261,0.328331,-0.0,-658.945082,0.0,-0.0,-8.128196,-0.0,0.000718,-0.014416,-0.016986,-0.017034,8e-06,-0.000174
139628,0.001472,-0.012071,-0.021359,0.0,-0.0,-0.0,3.0,0.3261,0.324921,0.3261,0.327274,-0.0,-659.106493,0.0,-0.0,-7.980066,-0.0,0.000825,-0.014416,-0.01699,0.006082,2.1e-05,-0.000174
139648,0.001472,-0.012071,-0.021359,0.0,-0.0,-0.0,3.0,0.3261,0.322481,0.3261,0.329666,-0.0,-659.26515,0.0,-0.0,-7.860331,-0.0,0.000722,-0.014416,-0.016993,0.023817,8e-06,-0.000174
139668,0.001715,-0.011946,-0.021357,0.0,-0.0,-0.0,3.0,0.3261,0.32266,0.3261,0.329492,-0.0,-659.42164,0.0,-0.0,-7.771547,-0.0,0.000723,-0.014416,-0.016997,0.044299,2.1e-05,-0.000185
139688,0.001717,-0.012068,-0.021479,0.0,-0.0,-0.0,3.0,0.3261,0.32133,0.3261,0.330777,-0.0,-659.576599,0.0,-0.0,-7.715508,-0.0,0.000729,-0.014416,-0.017,0.022779,8e-06,-0.000185
139708,0.001592,-0.011825,-0.02148,0.0,-0.0,-0.0,3.0,0.3261,0.318006,0.3261,0.33393,-0.0,-659.730689,0.0,-0.0,-7.693288,-0.0,0.000523,-0.014416,-0.017004,0.016121,8e-06,-0.000185
139728,0.001471,-0.011948,-0.021481,0.0,-0.0,-0.0,3.0,0.3261,0.317664,0.3261,0.33425,-0.0,-659.884591,0.0,-0.0,-7.705282,-0.0,0.000415,-0.014416,-0.017008,0.014002,-4e-06,-0.000185
139748,0.00147,-0.011826,-0.021481,0.0,-0.0,-0.0,3.0,0.3261,0.319839,0.3261,0.332202,-0.0,-660.038989,0.0,-0.0,-7.751221,-0.0,0.000532,-0.014416,-0.017011,-0.005928,-4e-06,-0.000184
139768,0.001349,-0.01195,-0.021482,0.0,-0.0,-0.0,3.0,0.3261,0.321267,0.3261,0.330838,-0.0,-660.194555,0.0,-0.0,-7.830172,-0.0,0.000633,-0.014416,-0.017015,-0.064448,-1.7e-05,-0.000184
139788,0.00135,-0.012072,-0.021482,0.0,-0.0,-0.0,3.0,0.3261,0.324589,0.3261,0.327602,-0.0,-660.351939,0.0,-0.0,-7.940518,-0.0,0.000719,-0.014416,-0.017019,-0.03764,-4e-06,-0.000183
139808,0.001352,-0.012194,-0.021481,0.0,-0.0,-0.0,3.0,0.3261,0.325252,0.3261,0.326945,-0.0,-660.511751,0.0,-0.0,-8.079927,-0.0,0.000837,-0.014415,-0.017022,0.004644,-4e-06,-0.000183
139828,0.001597,-0.012313,-0.02148,0.0,-0.0,-0.0,3.0,0.3261,0.323626,0.3261,0.328549,-0.0,-660.674552,0.0,-0.0,-8.245306,-0.0,0.000855,-0.014415,-0.017026,0.022317,-4e-06,-0.000182
139848,0.001963,-0.012309,-0.021478,0.0,-0.0,-0.0,3.0,0.3261,0.324445,0.3261,0.327744,-0.0,-660.840833,0.0,-0.0,-8.432761,-0.0,0.000949,-0.014415,-0.01703,0.006066,9e-06,-0.000182
139868,0.001839,-0.012067,-0.021479,0.0,-0.0,-0.0,3.0,0.3261,0.32327,0.3261,0.328897,-0.0,-661.011002,0.0,-0.0,-8.637572,-0.0,0.00094,-0.014416,-0.017033,-0.013418,2.1e-05,-0.000182
139888,0.00196,-0.011943,-0.021478,0.0,-0.0,-0.0,3.0,0.3261,0.321313,0.3261,0.330794,-0.0,-661.185364,0.0,0.0,-8.854194,-0.0,0.000866,-0.014416,-0.017037,0.040666,2.1e-05,-0.000181
139908,0.001956,-0.011577,-0.021478,0.0,-0.0,-0.0,3.0,0.3261,0.31911,0.3261,0.332893,0.0,-661.364111,-0.0,0.0,-9.076305,-0.0,0.0009,-0.014416,-0.017041,0.034684,3.3e-05,-0.000181
139928,0.001957,-0.011699,-0.021478,0.0,-0.0,-0.0,3.0,0.3261,0.321766,0.3261,0.330357,0.0,-661.547299,0.0,-0.0,-9.296919,-0.0,0.001125,-0.014415,-0.017044,-0.003254,9e-06,-0.000181
139948,0.001956,-0.011577,-0.021478,0.0,-0.0,-0.0,3.0,0.3261,0.323005,0.3261,0.329156,0.0,-661.734845,0.0,-0.0,-9.508577,-0.0,0.001228,-0.014415,-0.017048,-0.041456,9e-06,-0.00018
139968,0.00196,-0.011943,-0.021478,0.0,-0.0,-0.0,3.0,0.3261,0.324928,0.3261,0.327267,0.0,-661.926511,0.0,-0.0,-9.703613,-0.0,0.00133,-0.014415,-0.017051,-0.01649,-2.8e-05,-0.000192
139988,0.001962,-0.012065,-0.0216,0.0,-0.0,-0.0,3.0,0.3261,0.323155,0.3261,0.32901,0.0,-662.121909,0.0,-0.0,-9.874512,-0.0,0.00121,-0.014415,-0.017055,0.024557,-2.8e-05,-0.000179
140008,0.002088,-0.01243,-0.021599,0.0,-0.0,-0.0,3.0,0.3261,0.323033,0.3261,0.329129,0.0,-662.320501,0.0,-0.0,-10.014312,-0.0,0.00121,-0.014414,-0.017059,0.024696,-2.8e-05,-0.000179
140028,0.00221,-0.012429,-0.021598,0.0,-0.0,-0.0,3.0,0.3261,0.32193,0.3261,0.330199,-0.0,-662.52162,0.0,-0.0,-10.117048,-0.0,0.00123,-0.014415,-0.017062,0.020806,-3e-06,-0.000179
140048,0.002208,-0.012307,-0.021598,0.0,-0.0,-0.0,3.0,0.3261,0.319441,0.3261,0.33258,-0.0,-662.724487,0.0,-0.0,-10.178164,-0.0,0.001126,-0.014415,-0.017066,-0.003597,2.1e-05,-0.000178
140068,0.002206,-0.012062,-0.021598,0.0,-0.0,-0.0,3.0,0.3261,0.321921,0.3261,0.330208,-0.0,-662.928246,0.0,-0.0,-10.194866,-0.0,0.001231,-0.014415,-0.01707,-0.000812,3.3e-05,-0.000178
140088,0.002082,-0.011942,-0.021477,0.0,-0.0,-0.0,3.0,0.3261,0.322109,0.3261,0.330026,-0.0,-663.132,0.0,-0.0,-10.166343,-0.0,0.001369,-0.014415,-0.017074,-0.024264,3.3e-05,-0.00019
140108,0.002079,-0.011698,-0.021477,0.0,-0.0,-0.0,3.0,0.3261,0.322404,0.3261,0.32974,-0.0,-663.33485,0.0,-0.0,-10.093848,-0.0,0.001368,-0.014415,-0.017078,-0.003163,2.1e-05,-0.000189
140128,0.00208,-0.011698,-0.0216,0.0,-0.0,-0.0,3.0,0.3261,0.325604,0.3261,0.326596,-0.0,-663.535937,0.0,-0.0,-9.980604,-0.0,0.001577,-0.014415,-0.017081,-0.017293,-3e-06,-0.000201
140148,0.002326,-0.011939,-0.021598,0.0,-0.0,-0.0,3.0,0.3261,0.324546,0.3261,0.327644,-0.0,-663.734483,0.0,-0.0,-9.831565,-0.0,0.001443,-0.014415,-0.017085,0.006216,-4e-05,-0.000201
140168,0.002451,-0.01206,-0.021719,0.0,-0.0,-0.0,3.0,0.3261,0.325481,0.3261,0.326718,-0.0,-663.929816,0.0,-0.0,-9.653051,-0.0,0.001549,-0.014415,-0.017089,0.008994,-4e-05,-0.0002
140188,0.002577,-0.012425,-0.021718,0.0,-0.0,-0.0,3.0,0.3261,0.318757,0.3261,0.333226,-0.0,-664.1214,0.0,-0.0,-9.452315,-0.0,0.001252,-0.014415,-0.017093,0.059468,-5.2e-05,-0.000188
140208,0.002577,-0.012425,-0.021718,0.0,-0.0,-0.0,3.0,0.3261,0.317311,0.3261,0.334579,-0.0,-664.308849,0.0,-0.0,-9.237102,-0.0,0.001285,-0.014416,-0.017096,0.053441,-2.7e-05,-0.000187
140228,0.002577,-0.012425,-0.021718,0.0,-0.0,-0.0,3.0,0.3261,0.31869,0.3261,0.333289,-0.0,-664.491931,-0.0,0.0,-9.015223,-0.0,0.001389,-0.014416,-0.0171,-0.027258,9e-06,-0.000187
140248,0.002329,-0.012183,-0.021598,0.0,-0.0,-0.0,3.0,0.3261,0.323335,0.3261,0.328834,0.0,-664.670571,0.0,0.0,-8.794205,-0.0,0.001732,-0.014416,-0.017104,-0.08601,3.3e-05,-0.000187
140268,0.002082,-0.011819,-0.021721,0.0,-0.0,-0.0,3.0,0.3261,0.322293,0.3261,0.329848,0.0,-664.844839,-0.0,-0.0,-8.58102,-0.0,0.001625,-0.014416,-0.017108,-0.026283,3.4e-05,-0.000186
140288,0.002203,-0.011818,-0.021599,0.0,-0.0,-0.0,3.0,0.3261,0.327031,0.3261,0.325166,0.0,-665.01494,-0.0,-0.0,-8.381901,-0.0,0.001814,-0.014416,-0.017112,-0.01672,3.4e-05,-0.000198
140308,0.002203,-0.011818,-0.021599,0.0,-0.0,-0.0,3.0,0.3261,0.327549,0.3261,0.324643,0.0,-665.181196,-0.0,-0.0,-8.202243,-0.0,0.001772,-0.014416,-0.017116,-0.029765,9e-06,-0.000197
140328,0.002571,-0.011936,-0.021596,0.0,-0.0,-0.0,3.0,0.3261,0.326418,0.3261,0.325782,0.0,-665.344033,-0.0,0.0,-8.046555,-0.0,0.001666,-0.014415,-0.01712,0.030135,-1.5e-05,-0.000197
140348,0.002451,-0.01206,-0.021719,0.0,-0.0,-0.0,3.0,0.3261,0.319424,0.3261,0.332596,0.0,-665.503958,-0.0,0.0,-7.91848,-0.0,0.001362,-0.014415,-0.017124,0.082046,-2.7e-05,-0.000197
140368,0.002818,-0.012178,-0.021717,0.0,-0.0,-0.0,3.0,0.3261,0.318952,0.3261,0.333042,0.0,-665.661546,-0.0,-0.0,-7.82082,-0.0,0.001389,-0.014416,-0.017127,0.056405,-1.5e-05,-0.000196
140388,0.002817,-0.012178,-0.021595,0.0,-0.0,-0.0,3.0,0.3261,0.318674,0.3261,0.333303,0.0,-665.817421,-0.0,-0.0,-7.755594,-0.0,0.001515,-0.014416,-0.017131,0.014165,-1.5e-05,-0.000196
140408,0.002571,-0.011936,-0.021596,0.0,-0.0,-0.0,3.0,0.3261,0.320271,0.3261,0.331791,0.0,-665.972243,-0.0,-0.0,-7.724082,-0.0,0.001617,-0.014416,-0.017135,-0.024512,2.1e-05,-0.000196
140428,0.002449,-0.011938,-0.021719,0.0,-0.0,-0.0,3.0,0.3261,0.322055,0.3261,0.330079,0.0,-666.126692,-0.0,-0.0,-7.726868,-0.0,0.001747,-0.014415,-0.017139,-0.025843,9e-06,-0.000183
140448,0.002327,-0.011939,-0.02172,0.0,-0.0,-0.0,3.0,0.3261,0.322074,0.3261,0.33006,0.0,-666.281454,-0.0,-0.0,-7.763859,-0.0,0.001745,-0.014415,-0.017142,-0.025782,2.1e-05,-0.000183
140468,0.002451,-0.01206,-0.021719,0.0,-0.0,-0.0,3.0,0.3261,0.326723,0.3261,0.325476,0.0,-666.437208,-0.0,-0.0,-7.834294,-0.0,0.001787,-0.014415,-0.017146,-0.011681,9e-06,-0.000182
140488,0.002326,-0.011939,-0.021598,0.0,-0.0,-0.0,3.0,0.3261,0.325548,0.3261,0.326652,0.0,-666.594613,-0.0,-0.0,-7.936726,-0.0,0.001806,-0.014415,-0.01715,-0.014716,-3e-06,-0.000182
140508,0.00245,-0.01206,-0.021597,0.0,-0.0,-0.0,3.0,0.3261,0.326547,0.3261,0.325653,0.0,-666.754295,-0.0,-0.0,-8.068992,-0.0,0.001788,-0.014415,-0.017154,-0.011603,-3e-06,-0.000181
140528,0.00245,-0.01206,-0.021597,0.0,-0.0,-0.0,3.0,0.3261,0.32281,0.3261,0.329346,0.0,-666.91683,-0.0,-0.0,-8.228174,-0.0,0.001584,-0.014415,-0.017157,0.023402,-1.5e-05,-0.000193
140548,0.002569,-0.011814,-0.021596,0.0,-0.0,-0.0,3.0,0.3261,0.324221,0.3261,0.327965,0.0,-667.082728,-0.0,-0.0,-8.410557,-0.0,0.001702,-0.014415,-0.017161,0.023626,9e-06,-0.000193
140568,0.002571,-0.011936,-0.021596,0.0,-0.0,-0.0,3.0,0.3261,0.321535,0.3261,0.33058,0.0,-667.252422,-0.0,-0.0,-8.611595,-0.0,0.001597,-0.014415,-0.017165,0.041407,9e-06,-0.000192
140588,0.002692,-0.011813,-0.021718,0.0,-0.0,-0.0,3.0,0.3261,0.321052,0.3261,0.331045,0.0,-667.426245,-0.0,-0.0,-8.825907,-0.0,0.001614,-0.014415,-0.017169,0.038506,9e-06,-0.000192
140608,0.002818,-0.012178,-0.021717,0.0,-0.0,-0.0,3.0,0.3261,0.321471,0.3261,0.330642,0.0,-667.604418,-0.0,-0.0,-9.047316,-0.0,0.001735,-0.014414,-0.017172,-0.023522,-3e-06,-0.000192
140628,0.002695,-0.012057,-0.021717,0.0,-0.0,-0.0,3.0,0.3261,0.320145,0.3261,0.331911,-0.0,-667.787032,-0.0,0.0,-9.268943,-0.0,0.001618,-0.014414,-0.017176,-0.003537,-3e-06,-0.000191
140648,0.002451,-0.01206,-0.021719,0.0,-0.0,-0.0,3.0,0.3261,0.320312,0.3261,0.331752,-0.0,-667.974036,-0.0,0.0,-9.483381,-0.0,0.001633,-0.014415,-0.01718,-0.006372,9e-06,-0.000179
140668,0.002328,-0.012061,-0.02172,0.0,-0.0,-0.0,3.0,0.3261,0.320758,0.3261,0.331326,-0.0,-668.16523,-0.0,0.0,-9.682947,-0.0,0.001644,-0.014415,-0.017184,-0.008406,9e-06,-0.000179
140688,0.002326,-0.011939,-0.021598,0.0,-0.0,-0.0,3.0,0.3261,0.32693,0.3261,0.325268,-0.0,-668.360257,-0.0,0.0,-9.860022,-0.0,0.001787,-0.014415,-0.017187,-0.053366,9e-06,-0.000178
140708,0.002325,-0.011817,-0.021598,0.0,-0.0,-0.0,3.0,0.3261,0.328974,0.3261,0.323191,-0.0,-668.558615,-0.0,0.0,-10.007449,-0.0,0.00189,-0.014414,-0.017191,-0.049955,9e-06,-0.000178
140728,0.002447,-0.011816,-0.021597,0.0,-0.0,-0.0,3.0,0.3261,0.327125,0.3261,0.325071,-0.0,-668.759661,-0.0,0.0,-10.118973,-0.0,0.001786,-0.014414,-0.017195,0.030121,9e-06,-0.000189
140748,0.002571,-0.011936,-0.021718,0.0,-0.0,-0.0,3.0,0.3261,0.323727,0.3261,0.32845,-0.0,-668.962637,-0.0,0.0,-10.18967,-0.0,0.001702,-0.014414,-0.017198,0.065141,1e-05,-0.000189
140768,0.002817,-0.012056,-0.021717,0.0,-0.0,-0.0,3.0,0.3261,0.322918,0.3261,0.329241,-0.0,-669.166701,-0.0,0.0,-10.216314,-0.0,0.001705,-0.014414,-0.017202,0.064906,-3e-06,-0.000189
140788,0.002817,-0.012056,-0.021717,0.0,-0.0,-0.0,3.0,0.3261,0.318154,0.3261,0.333792,-0.0,-669.370958,-0.0,0.0,-10.197641,-0.0,0.001652,-0.014414,-0.017206,0.011366,-3e-06,-0.000188
140808,0.002817,-0.012056,-0.021717,0.0,-0.0,-0.0,3.0,0.3261,0.317109,0.3261,0.334767,-0.0,-669.574505,-0.0,0.0,-10.134458,-0.0,0.001547,-0.014414,-0.01721,0.008629,-1.5e-05,-0.000188
140828,0.002573,-0.012058,-0.021718,0.0,-0.0,-0.0,3.0,0.3261,0.317534,0.3261,0.334371,-0.0,-669.77647,-0.0,0.0,-10.029588,-0.0,0.001546,-0.014414,-0.017213,-0.012347,9e-06,-0.000188
140848,0.002449,-0.011938,-0.021719,0.0,-0.0,-0.0,3.0,0.3261,0.321783,0.3261,0.330341,-0.0,-669.97605,-0.0,0.0,-9.887659,-0.0,0.001615,-0.014414,-0.017217,-0.04466,9e-06,-0.0002
140868,0.002327,-0.011817,-0.021842,0.0,-0.0,-0.0,3.0,0.3261,0.329379,0.3261,0.322776,-0.0,-670.17255,-0.0,0.0,-9.714758,-0.0,0.001902,-0.014414,-0.017221,-0.05211,2.1e-05,-0.000199
140888,0.002328,-0.011939,-0.021842,0.0,-0.0,-0.0,3.0,0.3261,0.328775,0.3261,0.323395,-0.0,-670.365401,-0.0,0.0,-9.518013,-0.0,0.001891,-0.014413,-0.017225,-0.028874,-3e-06,-0.000199
140908,0.002572,-0.011936,-0.02184,0.0,-0.0,-0.0,3.0,0.3261,0.330292,0.3261,0.321834,-0.0,-670.554184,-0.0,0.0,-9.305133,-0.0,0.001995,-0.014413,-0.017229,0.01549,1e-05,-0.000198
140928,0.002571,-0.011936,-0.021718,0.0,-0.0,-0.0,3.0,0.3261,0.326054,0.3261,0.326147,-0.0,-670.738634,-0.0,0.0,-9.083985,-0.0,0.00191,-0.014413,-0.017233,0.02951,2.2e-05,-0.000186
140948,0.002815,-0.011934,-0.021717,0.0,-0.0,-0.0,3.0,0.3261,0.320191,0.3261,0.331867,0.0,-670.918646,-0.0,-0.0,-8.862217,-0.0,0.001614,-0.014413,-0.017237,0.017445,2.1e-05,-0.000185
140968,0.002936,-0.01181,-0.021716,0.0,-0.0,-0.0,3.0,0.3261,0.319319,0.3261,0.332695,0.0,-671.094261,-0.0,-0.0,-8.646967,-0.0,0.001648,-0.014412,-0.01724,0.052895,3.4e-05,-0.000173
140988,0.002813,-0.011812,-0.021595,0.0,-0.0,-0.0,3.0,0.3261,0.315543,0.3261,0.336212,0.0,-671.265658,-0.0,0.0,-8.444664,-0.0,0.001563,-0.014412,-0.017244,-0.015541,2.1e-05,-0.000185
141008,0.002568,-0.011692,-0.021597,0.0,-0.0,-0.0,3.0,0.3261,0.319596,0.3261,0.332433,0.0,-671.43314,-0.0,0.0,-8.260902,-0.0,0.001649,-0.014411,-0.017247,-0.03031,3.3e-05,-0.000184
141028,0.002325,-0.011695,-0.02172,0.0,-0.0,-0.0,3.0,0.3261,0.325234,0.3261,0.326964,0.0,-671.597115,-0.0,0.0,-8.100396,-0.0,0.00182,-0.014411,-0.017251,-0.059041,2.1e-05,-0.000184
141048,0.002323,-0.011573,-0.02172,0.0,-0.0,-0.0,3.0,0.3261,0.325764,0.3261,0.326436,0.0,-671.758077,-0.0,0.0,-7.966976,-0.0,0.001682,-0.01441,-0.017255,-0.01436,9e-06,-0.000196
141068,0.002449,-0.011815,-0.021841,0.0,-0.0,-0.0,3.0,0.3261,0.325786,0.3261,0.326414,0.0,-671.916592,-0.0,0.0,-7.863619,-0.0,0.001681,-0.01441,-0.017258,-0.035079,9e-06,-0.000183
141088,0.002571,-0.011814,-0.021841,0.0,-0.0,-0.0,3.0,0.3261,0.328488,0.3261,0.323688,0.0,-672.07328,-0.0,0.0,-7.792501,-0.0,0.001904,-0.014409,-0.017262,0.009336,4.6e-05,-0.000183
141108,0.002571,-0.011936,-0.021718,0.0,-0.0,-0.0,3.0,0.3261,0.322512,0.3261,0.329636,0.0,-672.228795,-0.0,0.0,-7.755042,-0.0,0.001715,-0.014408,-0.017266,0.0209,2.1e-05,-0.00017
141128,0.002693,-0.011935,-0.021596,0.0,-0.0,-0.0,3.0,0.3261,0.323009,0.3261,0.329152,0.0,-672.383819,-0.0,0.0,-7.751953,-0.0,0.001715,-0.014408,-0.01727,0.062055,4.6e-05,-0.00017
141148,0.002693,-0.011935,-0.021596,0.0,-0.0,-0.0,3.0,0.3261,0.322949,0.3261,0.32921,0.0,-672.53904,-0.0,0.0,-7.783255,-0.0,0.001841,-0.014408,-0.017273,-0.021649,4.5e-05,-0.00017
141168,0.002691,-0.011813,-0.021596,0.0,-0.0,-0.0,3.0,0.3261,0.32016,0.3261,0.331897,0.0,-672.695141,-0.0,0.0,-7.848294,-0.0,0.001633,-0.014407,-0.017276,0.014182,2.1e-05,-0.000181
141188,0.002322,-0.011573,-0.021598,0.0,-0.0,-0.0,3.0,0.3261,0.320456,0.3261,0.331615,0.0,-672.852788,-0.0,0.0,-7.945725,-0.0,0.001633,-0.014407,-0.01728,-0.006548,2.1e-05,-0.000181
141208,0.002323,-0.011573,-0.02172,0.0,-0.0,-0.0,3.0,0.3261,0.324091,0.3261,0.328093,0.0,-673.012615,-0.0,0.0,-8.073487,-0.0,0.001577,-0.014407,-0.017283,0.003059,2.1e-05,-0.000181
141228,0.002569,-0.011692,-0.021719,0.0,-0.0,-0.0,3.0,0.3261,0.323903,0.3261,0.328277,0.0,-673.175209,-0.0,0.0,-8.22876,-0.0,0.001577,-0.014406,-0.017287,0.003589,-1.6e-05,-0.000168
141248,0.00257,-0.011814,-0.021719,0.0,-0.0,-0.0,3.0,0.3261,0.322723,0.3261,0.329431,0.0,-673.341094,-0.0,-0.0,-8.407928,-0.0,0.00161,-0.014406,-0.01729,-0.001884,-1.6e-05,-0.00018
141268,0.002693,-0.011935,-0.021718,0.0,-0.0,-0.0,3.0,0.3261,0.323818,0.3261,0.328361,0.0,-673.510716,-0.0,-0.0,-8.606538,-0.0,0.001716,-0.014406,-0.017294,4.1e-05,2.1e-05,-0.000167
141288,0.002573,-0.012058,-0.021718,0.0,-0.0,-0.0,3.0,0.3261,0.322196,0.3261,0.329942,0.0,-673.684425,-0.0,-0.0,-8.819299,-0.0,0.001731,-0.014405,-0.017297,-0.002544,2.1e-05,-0.000167
141308,0.002574,-0.01218,-0.021718,0.0,-0.0,-0.0,3.0,0.3261,0.324885,0.3261,0.327309,0.0,-673.862459,-0.0,-0.0,-9.040106,-0.0,0.001819,-0.014405,-0.017301,-0.017447,2e-05,-0.000167
141328,0.002326,-0.011939,-0.021598,0.0,-0.0,-0.0,3.0,0.3261,0.32317,0.3261,0.328996,-0.0,-674.04493,-0.0,-0.0,-9.262134,-0.0,0.001715,-0.014404,-0.017304,-0.00016,4.5e-05,-0.000179
141348,0.002324,-0.011695,-0.021598,0.0,-0.0,-0.0,3.0,0.3261,0.32502,0.3261,0.327175,-0.0,-674.231808,-0.0,0.0,-9.477997,-0.0,0.001683,-0.014404,-0.017308,-0.0156,4.5e-05,-0.000166
141368,0.002324,-0.011695,-0.021598,0.0,-0.0,-0.0,3.0,0.3261,0.322644,0.3261,0.329508,-0.0,-674.42291,-0.0,0.0,-9.679996,-0.0,0.001474,-0.014403,-0.017311,-0.000863,4.4e-05,-0.000166
141388,0.002445,-0.011572,-0.021597,0.0,-0.0,-0.0,3.0,0.3261,0.321626,0.3261,0.330493,-0.0,-674.617903,-0.0,0.0,-9.860447,-0.0,0.00137,-0.014403,-0.017314,0.017205,3.2e-05,-0.000178
141408,0.002446,-0.011694,-0.021597,0.0,-0.0,-0.0,3.0,0.3261,0.322908,0.3261,0.32925,-0.0,-674.8163,-0.0,0.0,-10.012075,-0.0,0.001488,-0.014402,-0.017318,-0.002009,-1.7e-05,-0.000177
141428,0.00269,-0.011691,-0.021596,0.0,-0.0,-0.0,3.0,0.3261,0.323384,0.3261,0.328786,-0.0,-675.017473,-0.0,0.0,-10.12846,-0.0,0.001596,-0.014402,-0.017321,0.000274,-4e-06,-0.000177
141448,0.002693,-0.011935,-0.021596,0.0,-0.0,-0.0,3.0,0.3261,0.325652,0.3261,0.326548,-0.0,-675.220679,-0.0,0.0,-10.204465,-0.0,0.001831,-0.014402,-0.017325,0.001504,8e-06,-0.000164
141468,0.002449,-0.011938,-0.021719,0.0,-0.0,-0.0,3.0,0.3261,0.322889,0.3261,0.329269,-0.0,-675.42508,-0.0,0.0,-10.236625,-0.0,0.00173,-0.014401,-0.017328,-0.022615,-4e-06,-0.000176
141488,0.002206,-0.012062,-0.02172,0.0,-0.0,-0.0,3.0,0.3261,0.32301,0.3261,0.329152,-0.0,-675.629784,-0.0,0.0,-10.223418,-0.0,0.001592,-0.014401,-0.017331,0.000539,8e-06,-0.000164
141508,0.002205,-0.01194,-0.021721,0.0,-0.0,-0.0,3.0,0.3261,0.321095,0.3261,0.331004,-0.0,-675.833886,-0.0,0.0,-10.165403,-0.0,0.001352,-0.014401,-0.017335,0.020165,3.2e-05,-0.000163
141528,0.002328,-0.012061,-0.021598,0.0,-0.0,-0.0,3.0,0.3261,0.321149,0.3261,0.330952,-0.0,-676.036506,-0.0,0.0,-10.065183,-0.0,0.001247,-0.014401,-0.017338,-0.003453,3.2e-05,-0.000163
141548,0.002203,-0.011818,-0.021599,0.0,-0.0,-0.0,3.0,0.3261,0.32035,0.3261,0.331716,-0.0,-676.236829,-0.0,0.0,-9.927208,-0.0,0.001158,-0.0144,-0.017341,0.032067,4.4e-05,-0.000163
141568,0.002325,-0.011817,-0.021598,0.0,-0.0,-0.0,3.0,0.3261,0.323799,0.3261,0.32838,-0.0,-676.434144,-0.0,0.0,-9.757443,-0.0,0.001354,-0.0144,-0.017345,0.019896,3.2e-05,-0.000162
141588,0.002447,-0.011816,-0.021597,0.0,-0.0,-0.0,3.0,0.3261,0.327187,0.3261,0.325009,-0.0,-676.627867,-0.0,0.0,-9.562948,-0.0,0.001685,-0.0144,-0.017348,-0.035364,-1.7e-05,-0.000174
141608,0.002568,-0.011692,-0.021597,0.0,-0.0,-0.0,3.0,0.3261,0.325608,0.3261,0.326592,-0.0,-676.81756,-0.0,0.0,-9.351427,-0.0,0.001701,-0.0144,-0.017351,0.003623,-2.9e-05,-0.000174
141628,0.002324,-0.011695,-0.021598,0.0,-0.0,-0.0,3.0,0.3261,0.322082,0.3261,0.330052,-0.0,-677.002942,-0.0,0.0,-9.130783,-0.0,0.001612,-0.014399,-0.017355,0.018355,-1.7e-05,-0.000161
141648,0.002081,-0.01182,-0.021599,0.0,-0.0,-0.0,3.0,0.3261,0.320695,0.3261,0.331387,0.0,-677.183889,-0.0,0.0,-8.908741,-0.0,0.001367,-0.014399,-0.017358,-0.002132,-1.7e-05,-0.000173
141668,0.002084,-0.012064,-0.021721,0.0,-0.0,-0.0,3.0,0.3261,0.32258,0.3261,0.32957,0.0,-677.360428,-0.0,-0.0,-8.692541,-0.0,0.001228,-0.014399,-0.017361,-8.3e-05,1.9e-05,-0.000149
141688,0.001965,-0.012309,-0.021722,0.0,-0.0,-0.0,3.0,0.3261,0.320986,0.3261,0.331108,0.0,-677.532726,-0.0,0.0,-8.488726,-0.0,0.001126,-0.014399,-0.017364,-0.024298,1.9e-05,-0.000149
141708,0.002088,-0.01243,-0.021721,0.0,-0.0,-0.0,3.0,0.3261,0.323443,0.3261,0.328728,0.0,-677.701075,-0.0,0.0,-8.30301,-0.0,0.001108,-0.014399,-0.017368,-0.000613,3.1e-05,-0.00016
141728,0.002088,-0.01243,-0.021721,0.0,-0.0,-0.0,3.0,0.3261,0.32328,0.3261,0.328887,0.0,-677.865875,-0.0,0.0,-8.140223,-0.0,0.001125,-0.014399,-0.017371,-0.023899,7e-06,-0.00016
141748,0.002206,-0.012062,-0.021598,0.0,-0.0,-0.0,3.0,0.3261,0.327005,0.3261,0.325192,0.0,-678.027616,-0.0,0.0,-8.004302,-0.0,0.001334,-0.014399,-0.017374,-0.017661,7e-06,-0.000172
141768,0.002082,-0.011942,-0.021599,0.0,-0.0,-0.0,3.0,0.3261,0.328029,0.3261,0.324156,0.0,-678.186858,-0.0,0.0,-7.898321,-0.0,0.001561,-0.014399,-0.017378,-0.014449,-5e-06,-0.000171
141788,0.001956,-0.011577,-0.0216,0.0,-0.0,-0.0,3.0,0.3261,0.325416,0.3261,0.326782,0.0,-678.344219,-0.0,0.0,-7.82454,-0.0,0.001444,-0.014399,-0.017381,0.005645,-1.7e-05,-0.000171
141808,0.001833,-0.011456,-0.021601,0.0,-0.0,-0.0,3.0,0.3261,0.323179,0.3261,0.328987,0.0,-678.500356,-0.0,0.0,-7.784451,-0.0,0.001214,-0.014399,-0.017384,0.023781,-5e-06,-0.000171
141828,0.001713,-0.011579,-0.021724,0.0,-0.0,-0.0,3.0,0.3261,0.317535,0.3261,0.33437,0.0,-678.655949,-0.0,0.0,-7.778824,-0.0,0.00078,-0.014399,-0.017387,0.056093,-1.7e-05,-0.000158
141848,0.001716,-0.011823,-0.021724,0.0,-0.0,-0.0,3.0,0.3261,0.318103,0.3261,0.33384,0.0,-678.811688,-0.0,0.0,-7.807732,-0.0,0.000657,-0.014398,-0.017391,0.035081,7e-06,-0.000158
141868,0.001842,-0.012188,-0.021723,0.0,-0.0,-0.0,3.0,0.3261,0.31997,0.3261,0.332078,0.0,-678.968262,-0.0,0.0,-7.870564,-0.0,0.000652,-0.014398,-0.017394,-0.005873,1.9e-05,-0.000158
141888,0.001962,-0.012065,-0.021722,0.0,-0.0,-0.0,3.0,0.3261,0.32348,0.3261,0.328692,0.0,-679.12634,-0.0,0.0,-7.96601,-0.0,0.000877,-0.014398,-0.017397,-0.044373,3.1e-05,-0.000158
141908,0.001964,-0.012309,-0.0216,0.0,-0.0,-0.0,3.0,0.3261,0.324352,0.3261,0.327836,0.0,-679.286559,-0.0,0.0,-8.092038,-0.0,0.000997,-0.014398,-0.017401,-0.044103,3.1e-05,-0.000157
141928,0.001838,-0.011944,-0.021601,0.0,-0.0,-0.0,3.0,0.3261,0.326729,0.3261,0.325469,0.0,-679.449513,-0.0,0.0,-8.245854,-0.0,0.0011,-0.014398,-0.017404,0.000971,3.1e-05,-0.000169
141948,0.001472,-0.011948,-0.021603,0.0,-0.0,-0.0,3.0,0.3261,0.327494,0.3261,0.324699,0.0,-679.61573,-0.0,0.0,-8.423859,-0.0,0.00119,-0.014397,-0.017407,-0.034992,1.9e-05,-0.000169
141968,0.001349,-0.011828,-0.021604,0.0,-0.0,-0.0,3.0,0.3261,0.326101,0.3261,0.3261,0.0,-679.785664,-0.0,0.0,-8.621616,-0.0,0.000936,-0.014397,-0.01741,0.029551,-5e-06,-0.000168
141988,0.001471,-0.011826,-0.021603,0.0,-0.0,-0.0,3.0,0.3261,0.322548,0.3261,0.3296,0.0,-679.95967,-0.0,-0.0,-8.833842,-0.0,0.000717,-0.014397,-0.017414,0.067077,-1.8e-05,-0.000168
142008,0.001593,-0.011825,-0.021724,0.0,-0.0,-0.0,3.0,0.3261,0.317528,0.3261,0.334377,0.0,-680.137993,-0.0,-0.0,-9.054432,-0.0,0.000417,-0.014397,-0.017417,0.076374,-1.8e-05,-0.000168
142028,0.001473,-0.011948,-0.021725,0.0,-0.0,-0.0,3.0,0.3261,0.317243,0.3261,0.334642,-0.0,-680.320751,-0.0,-0.0,-9.276551,-0.0,0.000434,-0.014397,-0.01742,0.010863,-6e-06,-0.000168
142048,0.001718,-0.012068,-0.021723,0.0,-0.0,-0.0,3.0,0.3261,0.320246,0.3261,0.331815,-0.0,-680.507919,-0.0,0.0,-9.492796,-0.0,0.000521,-0.014397,-0.017424,-0.045564,6e-06,-0.000168
142068,0.001962,-0.012065,-0.021722,0.0,-0.0,-0.0,3.0,0.3261,0.324179,0.3261,0.328006,-0.0,-680.699322,-0.0,0.0,-9.695437,-0.0,0.000756,-0.014397,-0.017427,-0.044043,6e-06,-0.000167
142088,0.00184,-0.012066,-0.021723,0.0,-0.0,-0.0,3.0,0.3261,0.324931,0.3261,0.327264,-0.0,-680.89463,-0.0,0.0,-9.876748,-0.0,0.000888,-0.014397,-0.01743,-0.0251,1.9e-05,-0.000167
142108,0.001595,-0.011947,-0.021724,0.0,-0.0,-0.0,3.0,0.3261,0.328101,0.3261,0.324083,-0.0,-681.09336,-0.0,0.0,-10.029403,-0.0,0.001083,-0.014397,-0.017434,-0.036987,-6e-06,-0.000166
142128,0.001351,-0.01195,-0.021726,0.0,-0.0,-0.0,3.0,0.3261,0.328186,0.3261,0.323996,-0.0,-681.294889,-0.0,0.0,-10.14692,-0.0,0.001053,-0.014397,-0.017437,-0.032072,7e-06,-0.000166
142148,0.001352,-0.012072,-0.021726,0.0,-0.0,-0.0,3.0,0.3261,0.326126,0.3261,0.326074,-0.0,-681.498472,-0.0,0.0,-10.224101,-0.0,0.000814,-0.014397,-0.01744,0.008833,-6e-06,-0.000165
142168,0.001229,-0.011951,-0.021726,0.0,-0.0,-0.0,3.0,0.3261,0.323189,0.3261,0.328977,-0.0,-681.703274,-0.0,0.0,-10.257413,-0.0,0.000604,-0.014397,-0.017444,0.04428,7e-06,-0.000165
142188,0.001229,-0.011951,-0.021726,0.0,-0.0,-0.0,3.0,0.3261,0.32064,0.3261,0.331439,-0.0,-681.908403,-0.0,0.0,-10.245279,-0.0,0.000381,-0.014397,-0.017447,0.040568,6e-06,-0.000165
142208,0.001229,-0.011951,-0.021726,0.0,-0.0,-0.0,3.0,0.3261,0.319864,0.3261,0.332179,-0.0,-682.112949,-0.0,0.0,-10.18821,-0.0,0.000277,-0.014396,-0.01745,0.037579,6e-06,-0.000177
142228,0.001351,-0.01195,-0.021726,0.0,-0.0,-0.0,3.0,0.3261,0.320326,0.3261,0.331739,-0.0,-682.316031,-0.0,0.0,-10.088776,-0.0,0.000277,-0.014396,-0.017454,0.01678,6e-06,-0.000177
142248,0.001351,-0.011949,-0.021848,0.0,-0.0,-0.0,3.0,0.3261,0.320557,0.3261,0.331519,-0.0,-682.516831,-0.0,0.0,-9.95141,-0.0,0.000289,-0.014396,-0.017457,0.014716,6e-06,-0.000176
142268,0.001351,-0.011949,-0.021848,0.0,-0.0,-0.0,3.0,0.3261,0.321669,0.3261,0.330451,-0.0,-682.714634,-0.0,0.0,-9.782077,-0.0,0.000396,-0.014396,-0.01746,-0.02388,-6e-06,-0.000176
142288,0.001594,-0.011825,-0.021846,0.0,-0.0,-0.0,3.0,0.3261,0.322348,0.3261,0.329794,-0.0,-682.908852,-0.0,0.0,-9.587856,-0.0,0.000393,-0.014396,-0.017464,-0.003031,6e-06,-0.000163
142308,0.00135,-0.011827,-0.021848,0.0,-0.0,-0.0,3.0,0.3261,0.324805,0.3261,0.327388,0.0,-683.099044,-0.0,0.0,-9.376474,-0.0,0.000629,-0.014396,-0.017467,-0.043382,1.8e-05,-0.000163
142328,0.001106,-0.01183,-0.021849,0.0,-0.0,-0.0,3.0,0.3261,0.324355,0.3261,0.327833,0.0,-683.284927,-0.0,0.0,-9.155875,-0.0,0.000492,-0.014396,-0.017471,-0.040879,1.8e-05,-0.000163
142348,0.000862,-0.011833,-0.021851,0.0,-0.0,-0.0,3.0,0.3261,0.327816,0.3261,0.324372,-0.0,-683.466376,-0.0,0.0,-8.933821,-0.0,0.000563,-0.014395,-0.017474,-0.032232,3e-05,-0.000175
142368,0.000985,-0.011953,-0.02185,0.0,-0.0,-0.0,3.0,0.3261,0.324234,0.3261,0.327952,-0.0,-683.643416,-0.0,0.0,-8.717596,-0.0,0.00022,-0.014395,-0.017478,0.00557,1.8e-05,-0.000174
142388,0.000862,-0.011833,-0.021851,0.0,-0.0,-0.0,3.0,0.3261,0.325159,0.3261,0.327038,-0.0,-683.816215,-0.0,0.0,-8.513781,-0.0,0.000234,-0.014395,-0.017481,0.044753,3e-05,-0.000186
142408,0.000863,-0.011955,-0.021851,0.0,-0.0,-0.0,3.0,0.3261,0.322478,0.3261,0.329669,-0.0,-683.985066,-0.0,0.0,-8.328127,-0.0,0.00012,-0.014394,-0.017485,0.043522,1.8e-05,-0.000186
142428,0.001107,-0.011952,-0.021849,0.0,-0.0,-0.0,3.0,0.3261,0.32229,0.3261,0.329851,-0.0,-684.15037,-0.0,0.0,-8.165492,-0.0,0.000122,-0.014394,-0.017488,0.02239,1.8e-05,-0.000185
142448,0.001231,-0.012073,-0.021971,0.0,-0.0,-0.0,3.0,0.3261,0.319109,0.3261,0.332894,-0.0,-684.312617,-0.0,0.0,-8.029836,-0.0,5.1e-05,-0.014394,-0.017492,0.014027,-7e-06,-0.000185
142468,0.001229,-0.011829,-0.021971,0.0,-0.0,-0.0,3.0,0.3261,0.318049,0.3261,0.33389,-0.0,-684.472373,-0.0,0.0,-7.924249,-0.0,-4e-05,-0.014394,-0.017496,0.008559,5e-06,-0.000185
142488,0.000862,-0.011833,-0.021973,0.0,-0.0,-0.0,3.0,0.3261,0.320639,0.3261,0.33144,-0.0,-684.630257,-0.0,0.0,-7.850998,-0.0,6.1e-05,-0.014394,-0.017499,-0.049919,-7e-06,-0.000185
142508,0.000742,-0.011956,-0.022096,0.0,-0.0,-0.0,3.0,0.3261,0.325532,0.3261,0.326667,0.0,-684.786927,-0.0,0.0,-7.811577,-0.0,0.000112,-0.014394,-0.017503,-0.07947,5e-06,-0.000184
142528,0.000376,-0.01196,-0.022098,0.0,-0.0,-0.0,3.0,0.3261,0.325933,0.3261,0.326267,0.0,-684.943068,-0.0,0.0,-7.806749,-0.0,-1.2e-05,-0.014393,-0.017507,-0.057897,-1.9e-05,-0.000196
142548,0.000254,-0.011839,-0.022221,0.0,-0.0,-0.0,3.0,0.3261,0.325711,0.3261,0.326489,0.0,-685.099373,-0.0,0.0,-7.836571,-0.0,-0.000272,-0.014394,-0.017511,0.006732,5e-06,-0.000196
142568,-0.00011,-0.012088,-0.022223,0.0,-0.0,-0.0,3.0,0.3261,0.324977,0.3261,0.327218,0.0,-685.256531,-0.0,0.0,-7.900408,-0.0,-0.000391,-0.014393,-0.017515,0.026842,1.7e-05,-0.000207
142588,-0.00011,-0.012088,-0.022223,0.0,-0.0,-0.0,3.0,0.3261,0.321757,0.3261,0.330366,0.0,-685.415213,-0.0,0.0,-7.996919,-0.0,-0.000748,-0.014393,-0.017519,0.025038,2.9e-05,-0.000207
142608,1.4e-05,-0.012208,-0.022222,0.0,-0.0,-0.0,3.0,0.3261,0.318144,0.3261,0.333801,0.0,-685.576059,-0.0,0.0,-8.12403,-0.0,-0.00106,-0.014393,-0.017523,0.057634,1.7e-05,-0.000207
142628,-0.00011,-0.012088,-0.022223,0.0,-0.0,-0.0,3.0,0.3261,0.316501,0.3261,0.33533,0.0,-685.739661,-0.0,0.0,-8.278895,-0.0,-0.001147,-0.014393,-0.017527,0.010013,1.6e-05,-0.000207
142648,-0.000111,-0.011965,-0.022223,0.0,-0.0,-0.0,3.0,0.3261,0.319642,0.3261,0.332389,0.0,-685.906546,-0.0,0.0,-8.457856,-0.0,-0.00117,-0.014393,-0.017532,-0.006597,4e-06,-0.000206
142668,-0.000235,-0.011845,-0.022223,0.0,-0.0,-0.0,3.0,0.3261,0.320587,0.3261,0.33149,0.0,-686.077166,-0.0,0.0,-8.656409,-0.0,-0.001173,-0.014393,-0.017536,-0.047563,4e-06,-0.000218
142688,-0.00048,-0.011725,-0.022225,0.0,-0.0,-0.0,3.0,0.3261,0.324524,0.3261,0.327666,0.0,-686.251872,-0.0,-0.0,-8.869196,-0.0,-0.001091,-0.014393,-0.01754,-0.060976,-2.1e-05,-0.000218
142708,-0.000604,-0.011605,-0.022226,0.0,-0.0,-0.0,3.0,0.3261,0.324604,0.3261,0.327587,0.0,-686.430905,-0.0,-0.0,-9.090039,-0.0,-0.001229,-0.014393,-0.017544,-0.016484,-3.3e-05,-0.000205
142728,-0.000601,-0.011727,-0.022348,0.0,-0.0,-0.0,3.0,0.3261,0.325762,0.3261,0.326438,-0.0,-686.614375,-0.0,-0.0,-9.312031,-0.0,-0.001249,-0.014392,-0.017548,0.007269,-8e-06,-0.000205
142748,-0.000719,-0.012094,-0.022348,0.0,-0.0,-0.0,3.0,0.3261,0.321705,0.3261,0.330417,-0.0,-686.802249,-0.0,0.0,-9.527706,-0.0,-0.001454,-0.014392,-0.017552,0.041962,-8e-06,-0.000192
142768,-0.000719,-0.012216,-0.022226,0.0,-0.0,-0.0,3.0,0.3261,0.320756,0.3261,0.331328,-0.0,-686.994343,-0.0,0.0,-9.729287,-0.0,-0.001573,-0.014392,-0.017557,0.040982,1.6e-05,-0.000192
142788,-0.000717,-0.012338,-0.022227,0.0,-0.0,-0.0,3.0,0.3261,0.320655,0.3261,0.331425,-0.0,-687.190317,-0.0,0.0,-9.909026,-0.0,-0.001572,-0.014392,-0.017561,-0.001351,4e-05,-0.000192
142808,-0.000598,-0.012215,-0.022104,0.0,-0.0,-0.0,3.0,0.3261,0.321153,0.3261,0.330947,-0.0,-687.389678,-0.0,0.0,-10.059607,-0.0,-0.00157,-0.014392,-0.017565,-0.043091,4e-05,-0.000203
142828,-0.000721,-0.012094,-0.022104,0.0,-0.0,-0.0,3.0,0.3261,0.320605,0.3261,0.331473,-0.0,-687.591792,-0.0,0.0,-10.174592,-0.0,-0.001662,-0.014392,-0.017568,-0.006625,4e-05,-0.000203
142848,-0.000846,-0.011851,-0.022105,0.0,-0.0,-0.0,3.0,0.3261,0.322236,0.3261,0.329903,-0.0,-687.795908,-0.0,0.0,-10.248861,-0.0,-0.00168,-0.014392,-0.017572,0.017651,1.6e-05,-0.000203
142868,-0.001093,-0.01161,-0.022106,0.0,-0.0,-0.0,3.0,0.3261,0.3243,0.3261,0.327887,-0.0,-688.001182,-0.0,0.0,-10.278997,-0.0,-0.001592,-0.014392,-0.017576,-0.01751,-9e-06,-0.000202
142888,-0.00097,-0.011609,-0.022106,0.0,-0.0,-0.0,3.0,0.3261,0.325141,0.3261,0.327056,-0.0,-688.206717,-0.0,0.0,-10.263561,-0.0,-0.001623,-0.014392,-0.01758,-0.011762,-3.3e-05,-0.000202
142908,-0.000848,-0.011607,-0.022105,0.0,-0.0,-0.0,3.0,0.3261,0.321957,0.3261,0.330174,-0.0,-688.411605,-0.0,0.0,-10.20322,-0.0,-0.00171,-0.014391,-0.017584,0.023672,-3.3e-05,-0.000189
142928,-0.000602,-0.011727,-0.022226,0.0,-0.0,-0.0,3.0,0.3261,0.318132,0.3261,0.333812,-0.0,-688.614963,-0.0,0.0,-10.1007,-0.0,-0.001907,-0.014391,-0.017588,0.056773,-2.1e-05,-0.000189
142948,-0.000598,-0.012093,-0.022226,0.0,-0.0,-0.0,3.0,0.3261,0.320521,0.3261,0.331553,-0.0,-688.81598,-0.0,0.0,-9.960584,-0.0,-0.001667,-0.014391,-0.017592,-0.005174,3e-06,-0.000188
142968,-0.000717,-0.012338,-0.022227,0.0,-0.0,-0.0,3.0,0.3261,0.321432,0.3261,0.330679,-0.0,-689.013949,-0.0,0.0,-9.788963,-0.0,-0.00156,-0.014391,-0.017596,-0.065368,2.7e-05,-0.000188
142988,-0.000717,-0.012338,-0.022227,0.0,-0.0,-0.0,3.0,0.3261,0.323004,0.3261,0.329157,-0.0,-689.208291,-0.0,0.0,-9.593015,-0.0,-0.001576,-0.014391,-0.0176,-0.041878,2.7e-05,-0.000188
143008,-0.000841,-0.012218,-0.022227,0.0,-0.0,-0.0,3.0,0.3261,0.325629,0.3261,0.326571,0.0,-689.398577,-0.0,0.0,-9.380537,-0.0,-0.001475,-0.014391,-0.017604,-0.038345,4e-05,-0.000199
143028,-0.001088,-0.011976,-0.022229,0.0,-0.0,-0.0,3.0,0.3261,0.324753,0.3261,0.32744,0.0,-689.584537,-0.0,0.0,-9.159505,-0.0,-0.001593,-0.014391,-0.017608,-0.017779,1.5e-05,-0.000199
143048,-0.001089,-0.011854,-0.022228,0.0,-0.0,-0.0,3.0,0.3261,0.32566,0.3261,0.32654,-0.0,-689.766059,-0.0,0.0,-8.93769,-0.0,-0.001625,-0.014391,-0.017612,0.008444,1.6e-05,-0.000199
143068,-0.001092,-0.01161,-0.022228,0.0,-0.0,-0.0,3.0,0.3261,0.323394,0.3261,0.328776,-0.0,-689.943182,-0.0,0.0,-8.722357,-0.0,-0.001727,-0.014391,-0.017616,0.047173,-2.1e-05,-0.000198
143088,-0.000848,-0.011607,-0.022227,0.087266,-0.0,-0.0,3.0,0.3261,0.273521,0.3261,0.369079,0.000254,-690.116087,-0.0,0.100591,-8.520051,3.2e-05,-0.001832,-0.01439,-0.01762,0.04379,3e-06,-0.000198
143108,-0.000724,-0.011728,-0.022348,0.087266,-0.0,-0.0,3.0,0.3261,0.271176,0.3261,0.370619,0.003065,-690.285078,-0.000325,0.207321,-8.336473,0.000413,-0.001799,-0.01439,-0.017624,0.038673,-9e-06,-0.000222
143128,-0.000357,-0.011846,-0.022224,0.087266,-0.0,-0.0,3.0,0.3261,0.270836,0.3261,0.37084,0.006491,-690.450565,-0.001343,0.196855,-8.176421,0.000919,-0.001679,-0.01439,-0.017628,-0.002935,3e-06,-0.000209
143148,0.000864,-0.011833,-0.022217,0.087266,-0.0,-0.0,3.0,0.3261,0.27551,0.3261,0.367751,0.009344,-690.613049,-0.002852,0.1751,-8.043793,0.001367,-0.001213,-0.01439,-0.017632,0.021659,4e-06,-0.000209
143168,0.002941,-0.011931,-0.022326,0.087266,-0.0,-0.0,3.0,0.3261,0.286632,0.3261,0.359942,0.011953,-690.773101,-0.004677,0.169458,-7.941612,0.001772,0.000205,-0.014389,-0.017636,0.050423,5e-06,-0.000207
143188,0.006238,-0.011894,-0.022428,0.087266,-0.0,-0.0,3.0,0.3261,0.298846,0.3261,0.350562,0.014676,-690.931346,-0.006796,0.168168,-7.872075,0.002165,0.002586,-0.014389,-0.01764,0.102498,8e-06,-0.000205
143208,0.010633,-0.011844,-0.022523,0.087266,-0.0,-0.0,3.0,0.3261,0.312702,0.3261,0.33879,0.01763,-691.088449,-0.009259,0.164853,-7.836603,0.002551,0.006185,-0.014389,-0.017644,0.175745,1.3e-05,-0.000214
143228,0.016005,-0.011781,-0.022734,0.087266,-0.0,-0.0,3.0,0.3261,0.326113,0.3261,0.326088,0.020889,-691.245094,-0.012157,0.159987,-7.835881,0.002927,0.01099,-0.014389,-0.017649,0.210221,7e-06,-0.000223
143248,0.022602,-0.011945,-0.023059,0.087266,-0.0,-0.0,3.0,0.3261,0.337414,0.3261,0.314226,0.024586,-691.401975,-0.01563,0.154342,-7.869882,0.003291,0.016781,-0.014389,-0.017653,0.264649,-2.3e-05,-0.000255
143268,0.02993,-0.011977,-0.023378,0.087266,-0.0,-0.0,3.0,0.3261,0.346175,0.3261,0.304187,0.02894,-691.559778,-0.019902,0.147595,-7.937879,0.003644,0.023475,-0.014389,-0.017659,0.351743,-2.6e-05,-0.000299
143288,0.037506,-0.012119,-0.023936,0.087266,-0.0,-0.0,3.0,0.3261,0.350042,0.3261,0.299491,0.034306,-691.719167,-0.025348,0.13899,-8.038425,0.003983,0.030695,-0.014389,-0.017665,0.390709,-1.6e-05,-0.000342
143308,0.044958,-0.012261,-0.024368,0.087266,-0.0,-0.0,3.0,0.3261,0.352665,0.3261,0.296206,0.041309,-691.880765,-0.032629,0.127472,-8.169332,0.004304,0.038165,-0.014389,-0.017672,0.42946,-1.8e-05,-0.000385
143328,0.052051,-0.012648,-0.024799,0.087266,-0.0,-0.0,3.0,0.3261,0.35448,0.3261,0.293884,0.051183,-692.045138,-0.043039,0.111184,-8.327625,0.004599,0.045623,-0.01439,-0.01768,0.366545,-4.5e-05,-0.000427
143348,0.058651,-0.012912,-0.02535,0.087266,-0.0,-0.0,3.0,0.3261,0.35389,0.3261,0.294643,0.066742,-692.212758,-0.059493,0.086245,-8.509506,0.004852,0.052612,-0.014391,-0.017689,0.320465,-4.7e-05,-0.00047
143368,0.064032,-0.013075,-0.025672,0.087266,-0.0,-0.0,3.0,0.3261,0.348931,0.3261,0.300858,0.096071,-692.383935,-0.090275,0.042962,-8.710326,0.005034,0.0588,-0.014392,-0.017699,0.245388,-6.3e-05,-0.000514
143388,0.068191,-0.013373,-0.025994,0.087266,-0.0,-0.0,3.0,0.3261,0.34528,0.3261,0.30525,0.175393,-692.558484,-0.172057,-0.051801,-8.924582,0.005071,0.063971,-0.014394,-0.017709,0.176579,-7.9e-05,-0.000545
143408,0.070883,-0.013446,-0.026337,0.087266,-0.0,-0.0,3.0,0.3261,0.34041,0.3261,0.310882,1.146551,-692.729557,-1.147943,-0.351706,-9.145988,-0.002406,0.068035,-0.014396,-0.017721,0.110009,-0.000121,-0.000588
143428,0.072593,-0.013409,-0.026687,0.087266,-0.0,-0.0,3.0,0.3261,0.333222,0.3261,0.318761,-64.333057,-692.761987,64.325527,-0.080164,-9.368469,-0.060252,0.070742,-0.014399,-0.017733,0.045184,-0.000129,-0.000621
143448,0.073326,-0.013389,-0.026924,0.087266,-0.0,-0.0,3.0,0.3261,0.324764,0.3261,0.327429,-62.831237,-692.904895,62.830625,1.192372,-9.591697,-0.133123,0.072252,-0.014402,-0.017745,0.058859,-0.000149,-0.000654
143468,0.073208,-0.0135,-0.027287,0.087266,-0.0,-0.0,3.0,0.3261,0.31363,0.3261,0.337954,-62.814473,-693.098384,62.847099,2.343613,-9.815229,-0.20248,0.072685,-0.014404,-0.017758,0.048273,-0.000148,-0.000678
143488,0.072846,-0.013613,-0.027652,0.087266,-0.0,-0.0,3.0,0.3261,0.306484,0.3261,0.344231,-62.780552,-693.296122,62.870441,3.383572,-10.035172,-0.268502,0.072468,-0.014407,-0.017772,0.023635,-0.000159,-0.000713
143508,0.072605,-0.01373,-0.027893,0.087266,-0.0,-0.0,3.0,0.3261,0.299107,0.3261,0.350353,-62.731374,-693.49753,62.902844,4.316817,-10.246745,-0.331376,0.071795,-0.014411,-0.017786,0.033245,-0.000134,-0.000737
143528,0.072607,-0.013721,-0.028137,0.087266,-0.0,-0.0,3.0,0.3261,0.299164,0.3261,0.350306,-62.666776,-693.701493,62.945864,5.146604,-10.444854,-0.391308,0.071445,-0.014414,-0.017801,0.010203,-0.000146,-0.00076
143548,0.073102,-0.013832,-0.028255,0.087266,-0.0,-0.0,3.0,0.3261,0.302417,0.3261,0.34765,-62.585431,-693.906164,63.001733,5.875689,-10.624805,-0.448531,0.071445,-0.014417,-0.017817,-0.009879,-0.000157,-0.000782
143568,0.074079,-0.013809,-0.02849,0.087266,-0.0,-0.0,3.0,0.3261,0.311606,0.3261,0.339768,-62.484666,-694.108701,63.073773,6.507174,-10.783066,-0.503304,0.072138,-0.01442,-0.017832,-0.001627,-0.000179,-0.000804
143588,0.075666,-0.013775,-0.028719,0.087266,-0.0,-0.0,3.0,0.3261,0.320269,0.3261,0.331793,-62.360085,-694.304859,63.16682,7.045286,-10.917986,-0.555909,0.073423,-0.014424,-0.017848,0.008803,-0.000201,-0.000812
143608,0.077623,-0.013742,-0.028827,0.087266,-0.0,-0.0,3.0,0.3261,0.329115,0.3261,0.323047,-62.205213,-694.488357,63.287583,7.495987,-11.030379,-0.606638,0.07532,-0.014428,-0.017865,0.0611,-0.000208,-0.000833
143628,0.080436,-0.013817,-0.028922,0.087266,-0.0,-0.0,3.0,0.3261,0.336333,0.3261,0.315412,-62.011747,-694.649968,63.444394,7.867286,-11.123858,-0.655777,0.077691,-0.014431,-0.017881,0.136668,-0.000227,-0.00084
143648,0.083859,-0.013877,-0.029132,0.087266,-0.0,-0.0,3.0,0.3261,0.340175,0.3261,0.311148,-61.772005,-694.776648,63.644759,8.169198,-11.204872,-0.703587,0.080608,-0.014436,-0.017898,0.180927,-0.000222,-0.000848
143668,0.087657,-0.014175,-0.029333,0.087266,-0.0,-0.0,3.0,0.3261,0.339789,0.3261,0.311582,-61.486066,-694.852058,63.888208,8.413336,-11.282443,-0.75029,0.083711,-0.01444,-0.017915,0.255411,-0.000203,-0.000868
143688,0.091325,-0.014351,-0.029533,0.087266,-0.0,-0.0,3.0,0.3261,0.341768,0.3261,0.309337,-61.171845,-694.861147,64.156167,8.612291,-11.3677,-0.796047,0.087401,-0.014444,-0.017933,0.20925,-0.000184,-0.000876
143708,0.094995,-0.014654,-0.029604,0.087266,-0.0,-0.0,3.0,0.3261,0.343378,0.3261,0.307479,-60.86351,-694.798617,64.413397,8.778927,-11.47325,-0.84095,0.091071,-0.014448,-0.017951,0.166851,-0.000178,-0.000896
143728,0.098299,-0.014597,-0.0297,0.087266,-0.0,-0.0,3.0,0.3261,0.347571,0.3261,0.302511,-60.58978,-694.672748,64.629478,8.925504,-11.612292,-0.885019,0.094847,-0.014452,-0.017969,0.107883,-0.000183,-0.000915
143748,0.100986,-0.014427,-0.029804,0.087266,-0.0,-0.0,3.0,0.3261,0.345338,0.3261,0.305181,-60.357976,-694.498925,64.794413,9.062555,-11.797409,-0.928196,0.097942,-0.014457,-0.017987,0.122574,-0.000213,-0.000921
143768,0.102944,-0.01439,-0.02991,0.087266,-0.0,-0.0,3.0,0.3261,0.344398,0.3261,0.306288,-60.159622,-694.291377,64.912251,9.197915,-12.039267,-0.970354,0.100634,-0.014461,-0.018005,0.102118,-0.000245,-0.000927
143788,0.104282,-0.014118,-0.030029,0.087266,-0.0,-0.0,3.0,0.3261,0.34241,0.3261,0.308599,-59.980518,-694.060274,64.989212,9.336064,-12.345466,-1.011313,0.102705,-0.014466,-0.018024,0.083378,-0.000265,-0.000935
143808,0.105263,-0.014103,-0.030024,0.087266,-0.0,-0.0,3.0,0.3261,0.336271,0.3261,0.315479,-59.803766,-693.812649,65.026398,9.47771,-12.719555,-1.050858,0.103948,-0.014471,-0.018042,0.080622,-0.000275,-0.000931
143828,0.105753,-0.014217,-0.030012,0.087266,-0.0,-0.0,3.0,0.3261,0.329191,0.3261,0.322969,-59.604778,-693.554769,65.012928,9.619527,-13.160197,-1.088762,0.104622,-0.014475,-0.018061,0.069378,-0.000261,-0.000929
143848,0.105878,-0.014459,-0.029998,0.087266,-0.0,-0.0,3.0,0.3261,0.322604,0.3261,0.329546,-59.331001,-693.296785,64.906663,9.754055,-13.660565,-1.124816,0.104798,-0.01448,-0.01808,0.059133,-0.000224,-0.000929
143868,0.105636,-0.014585,-0.029994,0.087266,-0.0,-0.0,3.0,0.3261,0.318498,0.3261,0.333469,-58.822981,-693.069418,64.556938,9.869645,-14.208239,-1.15887,0.104716,-0.014485,-0.018098,-0.031003,-0.000212,-0.000929
143888,0.105271,-0.014591,-0.029999,0.087266,-0.0,-0.0,3.0,0.3261,0.319125,0.3261,0.332879,-57.73909,-692.998271,63.630958,9.95097,-14.786134,-1.190867,0.104469,-0.014489,-0.018117,-0.073402,-0.0002,-0.000928
143908,0.105146,-0.014477,-0.029884,0.087266,-0.0,-0.0,3.0,0.3261,0.321993,0.3261,0.330139,-56.947489,-693.213209,63.005962,9.982868,-15.372955,-1.220885,0.104205,-0.014494,-0.018135,-0.069672,-0.000213,-0.000925
143928,0.105025,-0.014473,-0.030008,0.087266,-0.0,-0.0,3.0,0.3261,0.325762,0.3261,0.326438,-56.652417,-693.518971,62.893034,9.957387,-15.942571,-1.249147,0.104182,-0.014498,-0.018154,-0.023858,-0.000224,-0.000923
143948,0.105389,-0.014345,-0.03001,0.087266,-0.0,-0.0,3.0,0.3261,0.329615,0.3261,0.322534,-56.463493,-693.841994,62.911501,9.870475,-16.471035,-1.276007,0.104377,-0.014503,-0.018172,-0.013453,-0.00026,-0.000919
143968,0.106121,-0.014327,-0.030124,0.087266,-0.0,-0.0,3.0,0.3261,0.333101,0.3261,0.318889,-56.291224,-694.167099,62.990639,9.720195,-16.940027,-1.301929,0.104843,-0.014508,-0.01819,0.052208,-0.000246,-0.000917
143988,0.1071,-0.014554,-0.0301,0.087266,-0.0,-0.0,3.0,0.3261,0.333669,0.3261,0.318285,-56.097488,-694.48197,63.125778,9.509917,-17.339608,-1.327441,0.105576,-0.014512,-0.018209,0.093692,-0.000256,-0.000913
144008,0.108571,-0.014647,-0.030204,0.087266,-0.0,-0.0,3.0,0.3261,0.33717,0.3261,0.314495,-55.844293,-694.767219,63.338742,9.248957,-17.670371,-1.353078,0.106767,-0.014517,-0.018227,0.099058,-0.000228,-0.000924
144028,0.110041,-0.014623,-0.030192,0.087266,-0.0,-0.0,3.0,0.3261,0.336491,0.3261,0.315239,-55.481415,-694.985946,63.671918,8.951461,-17.943711,-1.379304,0.108024,-0.014522,-0.018246,0.092595,-0.000225,-0.000933
144048,0.111505,-0.014721,-0.030169,0.087266,-0.0,-0.0,3.0,0.3261,0.335566,0.3261,0.316245,-54.986102,-695.074177,64.143558,8.633873,-18.180078,-1.406463,0.109284,-0.014527,-0.018265,0.128352,-0.000222,-0.000942
144068,0.112977,-0.014813,-0.030272,0.087266,-0.0,-0.0,3.0,0.3261,0.336297,0.3261,0.315451,-54.482094,-694.97877,64.627113,8.312118,-18.406425,-1.434744,0.110759,-0.014532,-0.018283,0.086912,-0.000255,-0.00095
144088,0.114325,-0.014785,-0.030384,0.087266,-0.0,-0.0,3.0,0.3261,0.338386,0.3261,0.313151,-54.123525,-694.73511,64.966439,7.999695,-18.653252,-1.464181,0.112219,-0.014537,-0.018302,0.046058,-0.000252,-0.000959
144108,0.115179,-0.014764,-0.030495,0.087266,-0.0,-0.0,3.0,0.3261,0.337596,0.3261,0.314025,-53.897202,-694.414,65.173617,7.704833,-18.94855,-1.494674,0.113464,-0.014542,-0.018321,0.022885,-0.000286,-0.000954
144128,0.115671,-0.014992,-0.030597,0.087266,-0.0,-0.0,3.0,0.3261,0.33818,0.3261,0.313379,-53.745073,-694.054792,65.305381,7.429574,-19.311409,-1.526039,0.114422,-0.014547,-0.01834,0.004984,-0.000284,-0.000951
144148,0.116042,-0.014858,-0.030728,0.087266,-0.0,-0.0,3.0,0.3261,0.337944,0.3261,0.313641,-53.630403,-693.673306,65.394747,7.170346,-19.748387,-1.55807,0.115025,-0.014553,-0.018359,0.007225,-0.000283,-0.000949
144168,0.116042,-0.014858,-0.030728,0.087266,-0.0,-0.0,3.0,0.3261,0.33648,0.3261,0.315251,-53.528341,-693.275836,65.453024,6.918691,-20.251815,-1.590601,0.115394,-0.014559,-0.018379,-0.034627,-0.000281,-0.000959
144188,0.115918,-0.014745,-0.030614,0.087266,-0.0,-0.0,3.0,0.3261,0.334997,0.3261,0.316861,-53.375839,-692.865748,65.437619,6.662356,-20.799884,-1.623563,0.115397,-0.014564,-0.018398,-0.014518,-0.000268,-0.00097
144208,0.115918,-0.014745,-0.030614,0.087266,-0.0,-0.0,3.0,0.3261,0.332076,0.3261,0.319972,-53.545179,-692.488994,65.736452,6.385193,-21.359321,-1.657041,0.115172,-0.014569,-0.018417,0.002632,-0.000255,-0.000969
144228,0.115791,-0.014868,-0.030603,0.087266,-0.0,-0.0,3.0,0.3261,0.330015,0.3261,0.322121,-53.408329,-692.05685,65.726755,6.081502,-21.893428,-1.691264,0.114956,-0.014574,-0.018437,0.039961,-0.000279,-0.000965
144248,0.115671,-0.014992,-0.030597,0.087266,-0.0,-0.0,3.0,0.3261,0.3299,0.3261,0.32224,-53.330731,-691.616569,65.78955,5.740334,-22.362462,-1.726602,0.114835,-0.01458,-0.018456,0.017926,-0.000279,-0.000963
144268,0.115923,-0.015111,-0.030593,0.087266,-0.0,-0.0,3.0,0.3261,0.331362,0.3261,0.320721,-53.243304,-691.172827,65.876717,5.358751,-22.734638,-1.763537,0.114819,-0.014585,-0.018475,-0.021249,-0.000267,-0.00095
144288,0.116291,-0.015226,-0.030582,0.087266,-0.0,-0.0,3.0,0.3261,0.332291,0.3261,0.319746,-53.118551,-690.733194,66.007592,4.939421,-22.994461,-1.802589,0.114956,-0.014591,-0.018494,-0.003216,-0.000266,-0.000948
144308,0.116531,-0.014979,-0.030593,0.087266,-0.0,-0.0,3.0,0.3261,0.334562,0.3261,0.317329,-52.888176,-690.315407,66.247867,4.490816,-23.147076,-1.844229,0.115323,-0.014597,-0.018513,-0.002862,-0.000241,-0.000948
144328,0.116771,-0.014731,-0.030604,0.087266,-0.0,-0.0,3.0,0.3261,0.337733,0.3261,0.313874,-52.302453,-689.985066,66.844104,4.026307,-23.217008,-1.888809,0.115777,-0.014602,-0.018532,-0.017551,-0.000252,-0.000944
144348,0.117134,-0.01461,-0.030485,0.087266,-0.0,-0.0,3.0,0.3261,0.340651,0.3261,0.31061,-51.100134,-690.013373,68.051625,3.561999,-23.240799,-1.936507,0.116227,-0.014607,-0.018551,-0.031769,-0.000251,-0.000942
144368,0.117499,-0.014604,-0.030481,0.087266,-0.0,-0.0,3.0,0.3261,0.340614,0.3261,0.310652,-50.637468,-690.412785,68.511262,3.106903,-23.263564,-1.987333,0.116593,-0.014612,-0.018569,0.010299,-0.000286,-0.000925
144388,0.117742,-0.014607,-0.030356,0.087266,-0.0,-0.0,3.0,0.3261,0.338803,0.3261,0.312688,-50.50657,-690.867781,68.639855,2.655005,-23.330295,-2.041228,0.116853,-0.014617,-0.018588,0.049973,-0.000273,-0.000924
144408,0.117865,-0.014734,-0.030226,0.087266,-0.0,-0.0,3.0,0.3261,0.336237,0.3261,0.315517,-50.449113,-691.33318,68.700906,2.201251,-23.467708,-2.098153,0.116995,-0.014622,-0.018606,0.046356,-0.000273,-0.00091
