time_ms,roll,pitch,yaw,roll_rate,pitch_rate,yaw_rate,reference_roll,reference_pitch,reference_yaw,reference_throttle,throttle_1,throttle_2,throttle_3,throttle_4,roll_predicted,pitch_predicted,yaw_predicted,roll_rate_predicted,pitch_rate_predicted,yaw_rate_predicted
335460,0.001092,-0.001106,0.012698,0.0,-0.001064,-1e-06,0.0,-0.0,-0.0,2.0,0.282024,0.278058,0.282024,0.285912,,,,,,
335480,0.001213,-0.001228,0.012576,-0.001064,0.0,0.0,0.0,-0.0,-0.0,2.0,0.282024,0.278224,0.282024,0.285752,,,,,,
335500,0.001091,-0.001228,0.012453,-0.001064,-0.001064,-1e-06,0.0,-0.0,-0.0,2.0,0.282024,0.272445,0.282024,0.291157,,,,,,
335520,0.000604,-0.00098,0.012331,-0.001063,-0.001064,-0.001065,0.0,-0.0,-0.0,2.0,0.282024,0.271884,0.282024,0.291666,,,,,,
335540,0.000238,-0.000978,0.012209,-0.001064,0.0,0.0,0.0,-0.0,-0.0,2.0,0.282024,0.27146,0.282024,0.292048,,,,,,
335560,0.000116,-0.000977,0.012209,-0.001064,-0.001064,-0.0,0.0,-0.0,-0.0,2.0,0.282024,0.271318,0.282024,0.292176,,,,,,
335580,-0.000128,-0.000976,0.012209,1e-06,-0.0,-0.001064,0.0,-0.0,-0.0,2.0,0.282024,0.276748,0.282024,0.287162,,,,,,
335600,0.000238,-0.0011,0.011965,0.0,-0.001064,-0.0,0.0,-0.0,-0.0,2.0,0.282024,0.277167,0.282024,0.286764,,,,,,
335620,0.000604,-0.001102,0.011965,0.0,0.0,0.0,0.0,-0.0,-0.0,2.0,0.282024,0.277598,0.282024,0.286353,,,,,,
335640,0.000848,-0.001104,0.011965,0.0,-0.001064,-1e-06,0.0,-0.0,-0.0,2.0,0.282024,0.277902,0.282024,0.286061,,,,,,
335660,0.00097,-0.001104,0.011843,-0.001063,1e-06,-0.001064,0.0,-0.0,-0.0,2.0,0.282024,0.272383,0.282024,0.291213,,,,,,
335680,0.00097,-0.001104,0.011843,-0.001064,0.0,0.0,0.0,-0.0,-0.0,2.0,0.282024,0.272408,0.282024,0.29119,,,,,,
335700,0.000605,-0.00098,0.011843,-0.001064,-0.001064,-1e-06,0.0,-0.0,-0.0,2.0,0.282024,0.271995,0.282024,0.291565,,,,,,
335720,0.000238,-0.000978,0.011843,-0.001064,-0.001064,-0.0,0.0,-0.0,-0.0,2.0,0.282024,0.271576,0.282024,0.291943,,,,,,
335740,-5e-06,-0.000855,0.01172,1e-06,-0.0,-0.001064,0.0,-0.0,-0.0,2.0,0.282024,0.271285,0.282024,0.292205,,,,,,
335760,-4e-06,-0.000732,0.01172,-0.0,-0.001064,0.0,0.0,-0.0,-0.0,2.0,0.282024,0.276994,0.282024,0.286928,,,,,,
335780,0.000362,-0.000735,0.01172,0.0,-0.001064,-0.0,0.0,-0.0,-0.0,2.0,0.282024,0.27742,0.282024,0.286522,,,,,,
335800,0.000607,-0.000614,0.011721,1e-06,1e-06,-0.001064,0.0,-0.0,-0.0,2.0,0.282024,0.277714,0.282024,0.286242,,,,,,
335820,0.00085,-0.000737,0.011599,0.0,-0.001064,-1e-06,0.0,-0.0,-0.0,2.0,0.282024,0.278017,0.282024,0.285951,,,,,,
335840,0.001094,-0.000861,0.011477,-0.001064,0.0,0.0,0.0,-0.0,-0.0,2.0,0.282024,0.272648,0.282024,0.290972,,,,,,
335860,0.00085,-0.000859,0.011599,-0.001063,1e-06,-0.001064,0.0,-0.0,-0.0,2.0,0.282024,0.272388,0.282024,0.291209,,,,,,
335880,0.000605,-0.000858,0.011476,-0.001064,-0.001064,-1e-06,0.0,-0.0,-0.0,2.0,0.282024,0.272118,0.282024,0.291454,,,,,,
335900,0.00024,-0.000734,0.011476,-0.001064,-0.001064,-0.0,0.0,-0.0,-0.0,2.0,0.282024,0.27169,0.282024,0.29184,,,,,,
335920,0.000118,-0.000733,0.011354,0.0,0.0,0.0,0.0,-0.0,-0.0,2.0,0.282024,0.277253,0.282024,0.286682,,,,,,
335940,0.000119,-0.000611,0.011354,0.0,-0.001064,-0.0,0.0,-0.0,-0.0,2.0,0.282024,0.277255,0.282024,0.28668,,,,,,
335960,0.000484,-0.000735,0.011232,0.0,0.0,0.0,0.0,-0.0,-0.0,2.0,0.282024,0.27768,0.282024,0.286274,,,,,,
335980,0.000973,-0.000738,0.01111,0.0,0.0,0.0,0.0,-0.0,-0.0,2.0,0.282024,0.278259,0.282024,0.285719,,,,,,
336000,0.001094,-0.000861,0.01111,0.0,-0.001064,-1e-06,0.0,-0.0,-0.0,2.0,0.282024,0.278427,0.282024,0.285557,,,,,,
336020,0.000972,-0.00086,0.010988,-0.001063,1e-06,-0.001064,0.0,-0.0,-0.0,2.0,0.282024,0.27264,0.282024,0.290979,,,,,,
336040,0.000727,-0.000981,0.010866,-0.001064,-0.001064,-1e-06,0.0,-0.0,-0.0,2.0,0.282024,0.272373,0.282024,0.291222,,,,,,
336060,0.000362,-0.000857,0.010866,-0.001064,-0.001064,-0.0,0.0,-0.0,-0.0,2.0,0.282024,0.271953,0.282024,0.291602,,,,,,
336080,-5e-06,-0.000855,0.010866,-0.001064,-0.001064,0.0,0.0,-0.0,-0.0,2.0,0.282024,0.271529,0.282024,0.291986,,,,,,
336100,0.000117,-0.000855,0.010744,0.0,-0.001064,-0.0,0.0,-0.0,-0.0,2.0,0.282024,0.277367,0.282024,0.286573,,,,,,
336120,0.000362,-0.000856,0.010744,1e-06,0.0,-0.001064,0.0,-0.0,-0.0,2.0,0.282024,0.277654,0.282024,0.286299,,,,,,
336140,0.000849,-0.000981,0.010622,0.0,-0.001064,-1e-06,0.0,-0.0,-0.0,2.0,0.282024,0.278234,0.282024,0.285742,,,,,,
336160,0.001216,-0.000861,0.010622,1e-06,1e-06,-0.001064,0.0,-0.0,-0.0,2.0,0.282024,0.278674,0.282024,0.285318,,,,,,
336180,0.001216,-0.000861,0.010378,-0.001064,0.0,0.0,0.0,-0.0,-0.0,2.0,0.282024,0.273047,0.282024,0.290608,,,,,,
336200,0.000972,-0.00086,0.010378,-0.001064,-0.001064,-1e-06,0.0,-0.0,-0.0,2.0,0.282024,0.272788,0.282024,0.290845,,,,,,
336220,0.000606,-0.000858,0.010378,-0.001063,1e-06,-0.001064,0.0,-0.0,-0.0,2.0,0.282024,0.272378,0.282024,0.291218,,,,,,
336240,0.000118,-0.000733,0.010255,-0.001063,0.0,-0.001064,0.0,-0.0,-0.0,2.0,0.282024,0.271805,0.282024,0.291737,,,,,,
336260,-4e-06,-0.000855,0.010133,-0.0,-0.001064,0.0,0.0,-0.0,-0.0,2.0,0.282024,0.271661,0.282024,0.291866,,,,,,
336280,0.00024,-0.000856,0.010133,0.0,0.0,0.0,0.0,-0.0,-0.0,2.0,0.282024,0.27764,0.282024,0.286312,,,,,,
336300,0.000606,-0.000858,0.010134,1e-06,1e-06,-0.001064,0.0,-0.0,-0.0,2.0,0.282024,0.278075,0.282024,0.285895,,,,,,
336320,0.000971,-0.001104,0.010012,0.0,-0.001064,-1e-06,0.0,-0.0,-0.0,2.0,0.282024,0.278508,0.282024,0.285478,,,,,,
336340,0.001215,-0.001105,0.010012,-0.001063,1e-06,-0.001064,0.0,-0.0,-0.0,2.0,0.282024,0.278815,0.282024,0.285181,,,,,,
336360,0.001338,-0.000983,0.010012,-0.001064,-0.001064,-1e-06,0.0,-0.0,-0.0,2.0,0.282024,0.273344,0.282024,0.290336,,,,,,
336380,0.000972,-0.000981,0.010012,-0.001063,-0.001063,-0.001065,0.0,-0.0,-0.0,2.0,0.282024,0.272936,0.282024,0.29071,,,,,,
336400,0.000484,-0.000857,0.010011,-0.001063,1e-06,-0.001064,0.0,-0.0,-0.0,2.0,0.282024,0.272378,0.282024,0.291217,,,,,,
336420,0.00024,-0.000856,0.010011,-0.001064,-0.001064,-0.0,0.0,-0.0,-0.0,2.0,0.282024,0.272099,0.282024,0.291471,,,,,,
336440,0.000239,-0.000978,0.010011,1e-06,0.0,-0.001064,0.0,-0.0,-0.0,2.0,0.282024,0.277788,0.282024,0.286171,,,,,,
336460,0.000605,-0.001102,0.010012,0.0,0.0,0.0,0.0,-0.0,-0.0,2.0,0.282024,0.278224,0.282024,0.285752,,,,,,
336480,0.000972,-0.000981,0.00989,0.0,-0.001064,-1e-06,0.0,-0.0,-0.0,2.0,0.282024,0.278658,0.282024,0.285334,,,,,,
336500,0.001338,-0.000983,0.00989,1e-06,-0.001063,-0.001066,0.0,-0.0,-0.0,2.0,0.282024,0.279111,0.282024,0.284895,,,,,,
336520,0.001338,-0.000983,0.00989,-0.001063,-0.001063,-0.001066,0.0,-0.0,-0.0,2.0,0.282024,0.273501,0.282024,0.290192,,,,,,
336540,0.001217,-0.000861,0.00989,-0.001064,-0.001064,-1e-06,0.0,-0.0,-0.0,2.0,0.282024,0.273384,0.282024,0.290299,,,,,,
336560,0.000729,-0.000736,0.009889,-0.001064,0.0,0.0,0.0,-0.0,-0.0,2.0,0.282024,0.272833,0.282024,0.290803,,,,,,
336580,0.000362,-0.000856,0.010011,-0.001063,0.0,-0.001064,0.0,-0.0,-0.0,2.0,0.282024,0.272418,0.282024,0.291181,,,,,,
336600,0.00024,-0.000856,0.010011,1e-06,0.0,-0.001064,0.0,-0.0,-0.0,2.0,0.282024,0.272276,0.282024,0.29131,,,,,,
336620,0.000361,-0.000978,0.010011,0.0,0.0,0.0,0.0,-0.0,-0.0,2.0,0.282024,0.278102,0.282024,0.285869,,,,,,
336640,0.00085,-0.000981,0.010012,0.0,-0.001064,-1e-06,0.0,-0.0,-0.0,2.0,0.282024,0.27868,0.282024,0.285312,,,,,,
336660,0.001094,-0.00086,0.010012,1e-06,1e-06,-0.001064,0.0,-0.0,-0.0,2.0,0.282024,0.278978,0.282024,0.285024,,,,,,
336680,0.00146,-0.000984,0.010012,0.0,-0.001064,-2e-06,0.0,-0.0,-0.0,2.0,0.282024,0.279426,0.282024,0.284588,,,,,,
336700,0.001461,-0.000862,0.010012,-0.001064,-0.001064,-2e-06,0.0,-0.0,-0.0,2.0,0.282024,0.273827,0.282024,0.289892,,,,,,
336720,0.001095,-0.000738,0.010134,-0.002128,1e-06,-0.001064,0.0,-0.0,-0.0,2.0,0.282024,0.273434,0.282024,0.290254,,,,,,
336740,0.000728,-0.000858,0.010012,-0.001063,-0.001063,-0.001065,0.0,-0.0,-0.0,2.0,0.282024,0.267193,0.282024,0.29581,,,,,,
336760,0.000363,-0.000734,0.010011,-0.001064,0.0,0.0,0.0,-0.0,-0.0,2.0,0.282024,0.272603,0.282024,0.291013,,,,,,
336780,0.00024,-0.000856,0.010133,0.0,-0.001064,-0.0,0.0,-0.0,-0.0,2.0,0.282024,0.278142,0.282024,0.285831,,,,,,
336800,0.000484,-0.000857,0.010134,1e-06,1e-06,-0.001064,0.0,-0.0,-0.0,2.0,0.282024,0.278431,0.282024,0.285553,,,,,,
336820,0.00085,-0.000981,0.010012,0.0,0.0,0.0,0.0,-0.0,-0.0,2.0,0.282024,0.27886,0.282024,0.285138,,,,,,
336840,0.001094,-0.00086,0.010012,0.0,-0.001064,-1e-06,0.0,-0.0,-0.0,2.0,0.282024,0.279164,0.282024,0.284844,,,,,,
336860,0.001216,-0.000861,0.010134,-0.001063,-0.001063,-0.001066,0.0,-0.0,-0.0,2.0,0.282024,0.273699,0.282024,0.29001,,,,,,
336880,0.001095,-0.000738,0.010134,-0.001063,1e-06,-0.001064,0.0,-0.0,-0.0,2.0,0.282024,0.273585,0.282024,0.290114,,,,,,
336900,0.000729,-0.000736,0.010134,-0.001063,1e-06,-0.001064,0.0,-0.0,-0.0,2.0,0.282024,0.267346,0.282024,0.295678,,,,,,
336920,0.00024,-0.000734,0.010133,-0.001064,-0.001064,-0.0,0.0,-0.0,-0.0,2.0,0.282024,0.272614,0.282024,0.291003,,,,,,
336940,-4e-06,-0.000855,0.010255,-0.001063,-0.0,-0.001064,0.0,-0.0,-0.0,2.0,0.282024,0.278004,0.282024,0.285964,,,,,,
336960,-5e-06,-0.000977,0.010133,-0.0,-0.001064,0.0,0.0,-0.0,-0.0,2.0,0.282024,0.272322,0.282024,0.291269,,,,,,
336980,0.000361,-0.000978,0.010134,1e-06,0.0,-0.001064,0.0,-0.0,-0.0,2.0,0.282024,0.278423,0.282024,0.28556,,,,,,
337000,0.000727,-0.00098,0.010134,0.0,-0.001064,-1e-06,0.0,-0.0,-0.0,2.0,0.282024,0.278859,0.282024,0.285139,,,,,,
337020,0.00085,-0.000859,0.010134,0.0,-0.001064,-1e-06,0.0,-0.0,-0.0,2.0,0.282024,0.279013,0.282024,0.28499,,,,,,
337040,0.00085,-0.000859,0.010134,-0.001063,-0.001063,-0.001065,0.0,-0.0,-0.0,2.0,0.282024,0.273389,0.282024,0.290295,,,,,,
337060,0.000728,-0.000858,0.010012,-0.001064,-0.001064,-1e-06,0.0,-0.0,-0.0,2.0,0.282024,0.27327,0.282024,0.290404,,,,,,
337080,0.00024,-0.000734,0.010133,-0.001063,0.0,-0.001064,0.0,-0.0,-0.0,2.0,0.282024,0.272702,0.282024,0.290922,,,,,,
337100,-0.000126,-0.000854,0.010011,-0.001064,0.0,0.0,0.0,-0.0,-0.0,2.0,0.282024,0.272276,0.282024,0.29131,,,,,,
337120,-0.000249,-0.000975,0.010011,0.0,0.0,0.0,0.0,-0.0,-0.0,2.0,0.282024,0.277805,0.282024,0.286154,,,,,,
337140,-0.000127,-0.000976,0.010011,0.0,0.0,0.0,0.0,-0.0,-0.0,2.0,0.282024,0.277945,0.282024,0.28602,,,,,,
337160,0.000117,-0.000977,0.009889,1e-06,-0.001064,-0.001064,0.0,-0.0,-0.0,2.0,0.282024,0.278221,0.282024,0.285755,,,,,,
337180,0.000483,-0.001101,0.009767,0.0,-0.001064,-1e-06,0.0,-0.0,-0.0,2.0,0.282024,0.278647,0.282024,0.285345,,,,,,
337200,0.000606,-0.00098,0.009767,0.0,-0.001064,-1e-06,0.0,-0.0,-0.0,2.0,0.282024,0.2788,0.282024,0.285197,,,,,,
337220,0.000484,-0.000857,0.009767,-0.001063,-0.001064,-0.001065,0.0,-0.0,-0.0,2.0,0.282024,0.273022,0.282024,0.290631,,,,,,
337240,0.000119,-0.000733,0.009645,-0.001064,-0.001064,-0.0,0.0,-0.0,-0.0,2.0,0.282024,0.272594,0.282024,0.291021,,,,,,
337260,-0.000248,-0.000731,0.009645,-0.001063,-0.0,-0.001064,0.0,-0.0,-0.0,2.0,0.282024,0.27216,0.282024,0.291416,,,,,,
337280,-0.000492,-0.000852,0.009523,-0.001064,-0.001064,1e-06,0.0,-0.0,-0.0,2.0,0.282024,0.271864,0.282024,0.291683,,,,,,
337300,-0.000492,-0.000852,0.009523,1e-06,-1e-06,-0.001064,0.0,-0.0,-0.0,2.0,0.282024,0.277539,0.282024,0.286409,,,,,,
337320,-0.000249,-0.000975,0.009401,1e-06,-0.0,-0.001064,0.0,-0.0,-0.0,2.0,0.282024,0.27781,0.282024,0.28615,,,,,,
337340,0.000117,-0.000977,0.009401,0.0,-0.001064,-0.0,0.0,-0.0,-0.0,2.0,0.282024,0.278228,0.282024,0.285748,,,,,,
337360,0.000362,-0.000978,0.009401,1e-06,0.0,-0.001064,0.0,-0.0,-0.0,2.0,0.282024,0.27852,0.282024,0.285467,,,,,,
337380,0.000362,-0.000978,0.009157,-0.001063,0.0,-0.001064,0.0,-0.0,-0.0,2.0,0.282024,0.272863,0.282024,0.290776,,,,,,
337400,0.00024,-0.000978,0.009157,-0.001064,-0.001064,-0.0,0.0,-0.0,-0.0,2.0,0.282024,0.272727,0.282024,0.2909,,,,,,
337420,-0.000127,-0.000976,0.009157,-0.001064,-0.001064,0.0,0.0,-0.0,-0.0,2.0,0.282024,0.272302,0.282024,0.291286,,,,,,
337440,-0.000492,-0.000852,0.009156,-0.001063,-1e-06,-0.001064,0.0,-0.0,-0.0,2.0,0.282024,0.271856,0.282024,0.29169,,,,,,
337460,-0.000615,-0.000974,0.009034,-0.0,-0.001064,1e-06,0.0,-0.0,-0.0,2.0,0.282024,0.271697,0.282024,0.291834,,,,,,
337480,-0.000493,-0.000974,0.009034,0.0,0.0,0.0,0.0,-0.0,-0.0,2.0,0.282024,0.27752,0.282024,0.286427,,,,,,
337500,-0.000249,-0.000975,0.009034,1e-06,-0.0,-0.001064,0.0,-0.0,-0.0,2.0,0.282024,0.277797,0.282024,0.286162,,,,,,
337520,0.000117,-0.001099,0.009035,1e-06,-0.001064,-0.001064,0.0,-0.0,-0.0,2.0,0.282024,0.278211,0.282024,0.285765,,,,,,
337540,0.000361,-0.0011,0.008913,-0.001064,0.0,0.0,0.0,-0.0,-0.0,2.0,0.282024,0.278496,0.282024,0.28549,,,,,,
337560,0.000361,-0.0011,0.008913,-0.001064,-0.001064,-0.0,0.0,-0.0,-0.0,2.0,0.282024,0.272849,0.282024,0.290789,,,,,,
337580,-4e-06,-0.000977,0.008913,-0.001063,-0.0,-0.001064,0.0,-0.0,-0.0,2.0,0.282024,0.272416,0.282024,0.291183,,,,,,
337600,-0.000249,-0.001098,0.00879,-0.001064,-0.001064,0.0,0.0,-0.0,-0.0,2.0,0.282024,0.27213,0.282024,0.291442,,,,,,
337620,-0.000493,-0.000974,0.00879,-0.001063,-1e-06,-0.001064,0.0,-0.0,-0.0,2.0,0.282024,0.271826,0.282024,0.291718,,,,,,
337640,-0.000493,-0.001097,0.00879,0.0,0.0,0.0,0.0,-0.0,-0.0,2.0,0.282024,0.27751,0.282024,0.286437,,,,,,
337660,-0.00037,-0.000975,0.008546,-0.0,-0.001064,0.0,0.0,-0.0,-0.0,2.0,0.282024,0.277634,0.282024,0.286318,,,,,,
337680,-0.000126,-0.000976,0.008546,0.0,0.0,0.0,0.0,-0.0,-0.0,2.0,0.282024,0.277908,0.282024,0.286055,,,,,,
337700,0.00024,-0.000978,0.008424,0.0,-0.001064,-0.0,0.0,-0.0,-0.0,2.0,0.282024,0.278335,0.282024,0.285645,,,,,,
337720,0.000241,-0.000856,0.008302,1e-06,0.0,-0.001064,0.0,-0.0,-0.0,2.0,0.282024,0.272669,0.282024,0.290953,,,,,,
337740,0.000119,-0.000855,0.00818,-0.001064,-0.001064,-0.0,0.0,-0.0,-0.0,2.0,0.282024,0.272531,0.282024,0.291078,,,,,,
337760,-0.000126,-0.000854,0.00818,-0.001064,0.0,0.0,0.0,-0.0,-0.0,2.0,0.282024,0.272242,0.282024,0.291341,,,,,,
337780,-0.000492,-0.000853,0.008058,-0.001064,-0.001064,1e-06,0.0,-0.0,-0.0,2.0,0.282024,0.271804,0.282024,0.291737,,,,,,
337800,-0.000857,-0.000729,0.008058,-0.001063,-1e-06,-0.001064,0.0,-0.0,-0.0,2.0,0.282024,0.271349,0.282024,0.292148,,,,,,
337820,-0.000614,-0.000974,0.007936,-0.0,-0.001064,1e-06,0.0,-0.0,-0.0,2.0,0.282024,0.277322,0.282024,0.286616,,,,,,
337840,-0.000248,-0.000854,0.007936,-0.0,-0.001064,0.0,0.0,-0.0,-0.0,2.0,0.282024,0.277728,0.282024,0.286228,,,,,,
337860,-3e-06,-0.000732,0.007936,1e-06,-0.0,-0.001064,0.0,-0.0,-0.0,2.0,0.282024,0.27801,0.282024,0.285957,,,,,,
337880,0.000241,-0.000733,0.007692,0.0,-0.001064,-0.0,0.0,-0.0,-0.0,2.0,0.282024,0.278295,0.282024,0.285684,,,,,,
337900,0.000242,-0.000611,0.007692,-0.001064,0.0,0.0,0.0,-0.0,-0.0,2.0,0.282024,0.27263,0.282024,0.290989,,,,,,
337920,-2e-06,-0.00061,0.007692,-0.001064,-0.001064,0.0,0.0,-0.0,-0.0,2.0,0.282024,0.272348,0.282024,0.291245,,,,,,
337940,-0.000369,-0.000609,0.007569,-0.001064,-0.001065,-0.001064,0.0,-0.0,-0.0,2.0,0.282024,0.27191,0.282024,0.291642,,,,,,
337960,-0.000735,-0.00073,0.007447,-0.001064,0.0,0.0,0.0,-0.0,-0.0,2.0,0.282024,0.271457,0.282024,0.292051,,,,,,
337980,-0.000857,-0.000729,0.007447,0.0,0.0,0.0,0.0,-0.0,-0.0,2.0,0.282024,0.276998,0.282024,0.286924,,,,,,
338000,-0.000491,-0.000731,0.007447,-0.0,-0.001064,1e-06,0.0,-0.0,-0.0,2.0,0.282024,0.277409,0.282024,0.286533,,,,,,
338020,-3e-06,-0.000732,0.007325,0.001065,-0.0,-0.001064,0.0,-0.0,-0.0,2.0,0.282024,0.277819,0.282024,0.286141,,,,,,
338040,0.000241,-0.000733,0.007326,0.0,-0.001064,-0.0,0.0,-0.0,-0.0,2.0,0.282024,0.278242,0.282024,0.285734,,,,,,
338060,0.000486,-0.000734,0.007204,-0.001064,-0.001064,-1e-06,0.0,-0.0,-0.0,2.0,0.282024,0.278536,0.282024,0.285451,,,,,,
338080,0.000364,-0.000612,0.007203,-0.001064,0.0,-0.001064,0.0,-0.0,-0.0,2.0,0.282024,0.272739,0.282024,0.290889,,,,,,
338100,-3e-06,-0.000732,0.007081,-0.001064,-0.001064,0.0,0.0,-0.0,-0.0,2.0,0.282024,0.272311,0.282024,0.291278,,,,,,
338120,-0.000491,-0.000731,0.007203,-0.001064,0.0,0.0,0.0,-0.0,-0.0,2.0,0.282024,0.271727,0.282024,0.291807,,,,,,
338140,-0.000613,-0.000852,0.007203,0.0,0.0,0.0,0.0,-0.0,-0.0,2.0,0.282024,0.271572,0.282024,0.291947,,,,,,
338160,-0.000613,-0.00073,0.007081,1e-06,-1e-06,-0.001064,0.0,-0.0,-0.0,2.0,0.282024,0.277252,0.282024,0.286682,,,,,,
338180,-0.000247,-0.000732,0.007081,1e-06,-0.0,-0.001064,0.0,-0.0,-0.0,2.0,0.282024,0.277664,0.282024,0.286289,,,,,,
338200,0.000242,-0.000733,0.007081,0.0,-0.001064,-0.0,0.0,-0.0,-0.0,2.0,0.282024,0.278229,0.282024,0.285747,,,,,,
338220,0.000364,-0.000612,0.007203,1e-06,0.0,-0.001064,0.0,-0.0,-0.0,2.0,0.282024,0.278372,0.282024,0.285609,,,,,,
338240,0.000364,-0.000612,0.007203,-0.001064,-0.001064,-0.0,0.0,-0.0,-0.0,2.0,0.282024,0.27272,0.282024,0.290906,,,,,,
338260,0.00012,-0.000611,0.007203,-0.001064,0.0,-0.001064,0.0,-0.0,-0.0,2.0,0.282024,0.272434,0.282024,0.291166,,,,,,
338280,-0.000368,-0.000609,0.007325,-0.001064,-0.0,-0.001064,0.0,-0.0,-0.0,2.0,0.282024,0.271856,0.282024,0.291691,,,,,,
338300,-0.000735,-0.000608,0.007325,-0.001064,-0.001065,-0.001063,0.0,-0.0,-0.0,2.0,0.282024,0.271408,0.282024,0.292094,,,,,,
338320,-0.000735,-0.00073,0.007325,0.0,0.0,0.0,0.0,-0.0,-0.0,2.0,0.282024,0.27709,0.282024,0.286837,,,,,,
338340,-0.000491,-0.000609,0.007447,1e-06,-1e-06,-0.001064,0.0,-0.0,-0.0,2.0,0.282024,0.277357,0.282024,0.286582,,,,,,
338360,-3e-06,-0.000732,0.007448,1e-06,-0.001064,-0.001064,0.0,-0.0,-0.0,2.0,0.282024,0.277915,0.282024,0.286049,,,,,,
338380,0.000364,-0.000612,0.007448,0.0,-0.001064,-0.0,0.0,-0.0,-0.0,2.0,0.282024,0.278337,0.282024,0.285644,,,,,,
338400,0.000486,-0.00049,0.007448,-0.001064,1e-06,-0.001064,0.0,-0.0,-0.0,2.0,0.282024,0.278488,0.282024,0.285498,,,,,,
338420,0.000364,-0.00049,0.00757,-0.001064,-0.001064,-0.0,0.0,-0.0,-0.0,2.0,0.282024,0.272695,0.282024,0.29093,,,,,,
338440,-0.000124,-0.000488,0.007692,-0.001064,-0.0,-0.001064,0.0,-0.0,-0.0,2.0,0.282024,0.272121,0.282024,0.291451,,,,,,
338460,-0.00049,-0.000486,0.007692,-0.001064,-1e-06,-0.001064,0.0,-0.0,-0.0,2.0,0.282024,0.271676,0.282024,0.291853,,,,,,
338480,-0.000735,-0.000608,0.007691,-0.001064,-0.001064,1e-06,0.0,-0.0,-0.0,2.0,0.282024,0.27137,0.282024,0.292129,,,,,,
338500,-0.000613,-0.000608,0.007936,1e-06,-1e-06,-0.001064,0.0,-0.0,-0.0,2.0,0.282024,0.277203,0.282024,0.28673,,,,,,
338520,-0.000369,-0.000609,0.007936,1e-06,-0.001065,-0.001064,0.0,-0.0,-0.0,2.0,0.282024,0.277472,0.282024,0.286473,,,,,,
338540,-2e-06,-0.000488,0.007936,-0.0,-0.001064,0.0,0.0,-0.0,-0.0,2.0,0.282024,0.277887,0.282024,0.286076,,,,,,
338560,0.000365,-0.000368,0.008058,0.0,-0.001064,-0.0,0.0,-0.0,-0.0,2.0,0.282024,0.278314,0.282024,0.285665,,,,,,
338580,0.000365,-0.000246,0.008058,-0.001064,0.0,-0.001064,0.0,-0.0,-0.0,2.0,0.282024,0.272656,0.282024,0.290965,,,,,,
338600,0.000121,-0.000367,0.008058,-0.001064,-0.001064,-0.001064,0.0,-0.0,-0.0,2.0,0.282024,0.272372,0.282024,0.291223,,,,,,
338620,-0.000368,-0.000365,0.00818,-0.001064,0.0,0.0,0.0,-0.0,-0.0,2.0,0.282024,0.27179,0.282024,0.29175,,,,,,
338640,-0.000612,-0.000486,0.008302,-0.001064,-0.001064,1e-06,0.0,-0.0,-0.0,2.0,0.282024,0.271489,0.282024,0.292021,,,,,,
338660,-0.000857,-0.000485,0.008302,-0.001064,-1e-06,-0.001064,0.0,-0.0,-0.0,2.0,0.282024,0.276891,0.282024,0.287027,,,,,,
338680,-0.000612,-0.000486,0.008424,-0.0,-0.001064,1e-06,0.0,-0.0,-0.0,2.0,0.282024,0.277157,0.282024,0.286773,,,,,,
338700,-0.000367,-0.000243,0.008424,-0.0,-0.001064,0.0,0.0,-0.0,-0.0,2.0,0.282024,0.277425,0.282024,0.286518,,,,,,
338720,-1e-06,-0.000244,0.008546,0.0,-0.0,-0.001064,0.0,-0.0,-0.0,2.0,0.282024,0.277844,0.282024,0.286117,,,,,,
338740,0.000243,-0.000245,0.008424,0.0,-0.001064,-0.0,0.0,-0.0,-0.0,2.0,0.282024,0.278127,0.282024,0.285845,,,,,,
338760,0.000121,-0.000245,0.008546,-0.001064,0.0,-0.001064,0.0,-0.0,-0.0,2.0,0.282024,0.272312,0.282024,0.291277,,,,,,
338780,-0.000123,-0.000244,0.008668,-0.001064,-0.0,-0.001064,0.0,-0.0,-0.0,2.0,0.282024,0.272024,0.282024,0.291538,,,,,,
338800,-0.00049,-0.000364,0.008668,-0.001064,-1e-06,-0.001064,0.0,-0.0,-0.0,2.0,0.282024,0.271581,0.282024,0.291939,,,,,,
338820,-0.000857,-0.000485,0.008668,-0.001064,-0.001065,-0.001063,0.0,-0.0,-0.0,2.0,0.282024,0.271126,0.282024,0.292348,,,,,,
338840,-0.000857,-0.000485,0.00879,0.0,0.0,0.0,0.0,-0.0,-0.0,2.0,0.282024,0.27682,0.282024,0.287094,,,,,,
338860,-0.000613,-0.000486,0.00879,0.001064,-0.001064,1e-06,0.0,-0.0,-0.0,2.0,0.282024,0.277082,0.282024,0.286844,,,,,,
338880,-0.000368,-0.000487,0.00879,1e-06,-0.0,-0.001064,0.0,-0.0,-0.0,2.0,0.282024,0.277349,0.282024,0.28659,,,,,,
338900,-2e-06,-0.000488,0.00879,0.0,0.0,0.0,0.0,-0.0,-0.0,2.0,0.282024,0.277767,0.282024,0.286191,,,,,,
338920,0.00012,-0.000489,0.00879,-0.001064,-0.001064,-0.0,0.0,-0.0,-0.0,2.0,0.282024,0.27223,0.282024,0.291352,,,,,,
338940,-0.000246,-0.000487,0.00879,-0.001064,-0.0,-0.001064,0.0,-0.0,-0.0,2.0,0.282024,0.271796,0.282024,0.291744,,,,,,
338960,-0.000491,-0.000608,0.008668,-0.001064,-0.001064,1e-06,0.0,-0.0,-0.0,2.0,0.282024,0.271498,0.282024,0.292013,,,,,,
338980,-0.000857,-0.000607,0.008668,-0.001064,0.0,0.0,0.0,-0.0,-0.0,2.0,0.282024,0.271041,0.282024,0.292424,,,,,,
339000,-0.001101,-0.000606,0.00879,-0.001064,-1e-06,-0.001064,0.0,-0.0,-0.0,2.0,0.282024,0.270728,0.282024,0.292704,,,,,,
339020,-0.000857,-0.000607,0.00879,1e-06,-0.001065,-0.001063,0.0,-0.0,-0.0,2.0,0.282024,0.276712,0.282024,0.287197,,,,,,
339040,-0.00049,-0.000486,0.008668,0.001064,0.0,0.0,0.0,-0.0,-0.0,2.0,0.282024,0.277115,0.282024,0.286813,,,,,,
339060,-0.000246,-0.000487,0.008668,-0.0,-0.001064,0.0,0.0,-0.0,-0.0,2.0,0.282024,0.277388,0.282024,0.286554,,,,,,
339080,-2e-06,-0.000488,0.00879,1e-06,-0.001064,-0.001064,0.0,-0.0,-0.0,2.0,0.282024,0.27767,0.282024,0.286284,,,,,,
339100,-3e-06,-0.00061,0.008668,-0.001064,-0.0,-0.001064,0.0,-0.0,-0.0,2.0,0.282024,0.271981,0.282024,0.291577,,,,,,
339120,-0.000247,-0.000609,0.008668,-0.001064,0.0,0.0,0.0,-0.0,-0.0,2.0,0.282024,0.265812,0.282024,0.296995,,,,,,
339140,-0.000613,-0.000608,0.00879,-0.001064,-0.001064,1e-06,0.0,-0.0,-0.0,2.0,0.282024,0.271245,0.282024,0.292241,,,,,,
339160,-0.000979,-0.000606,0.00879,-0.001064,-1e-06,-0.001064,0.0,-0.0,-0.0,2.0,0.282024,0.270788,0.282024,0.29265,,,,,,
339180,-0.000979,-0.000606,0.008668,-0.0,-0.001064,1e-06,0.0,-0.0,-0.0,2.0,0.282024,0.27076,0.282024,0.292675,,,,,,
339200,-0.000612,-0.000486,0.008668,-0.0,-0.001064,1e-06,0.0,-0.0,-0.0,2.0,0.282024,0.276889,0.282024,0.287029,,,,,,
339220,-0.000124,-0.000488,0.008668,0.0,0.0,0.0,0.0,-0.0,-0.0,2.0,0.282024,0.277443,0.282024,0.2865,,,,,,
339240,0.00012,-0.000367,0.008668,0.0,-0.001064,-0.001064,0.0,-0.0,-0.0,2.0,0.282024,0.277724,0.282024,0.286232,,,,,,
339260,0.000242,-0.000489,0.008668,-0.001064,0.0,0.0,0.0,-0.0,-0.0,2.0,0.282024,0.272189,0.282024,0.291389,,,,,,
339280,0.00012,-0.000489,0.008546,-0.001064,-0.001064,-0.0,0.0,-0.0,-0.0,2.0,0.282024,0.272052,0.282024,0.291513,,,,,,
339300,-0.000368,-0.000365,0.008668,-0.001064,-0.0,-0.001064,0.0,-0.0,-0.0,2.0,0.282024,0.265584,0.282024,0.297189,,,,,,
339320,-0.000857,-0.000485,0.008546,-0.001064,-0.001065,-0.001063,0.0,-0.0,-0.0,2.0,0.282024,0.270874,0.282024,0.292574,,,,,,
339340,-0.000856,-0.000363,0.008546,-0.0,-0.001064,1e-06,0.0,-0.0,-0.0,2.0,0.282024,0.270848,0.282024,0.292596,,,,,,
339360,-0.000856,-0.00024,0.008546,-0.0,-0.001064,1e-06,0.0,-0.0,-0.0,2.0,0.282024,0.276548,0.282024,0.287351,,,,,,
339380,-0.00049,-0.000364,0.008424,0.0,-1e-06,-0.001064,0.0,-0.0,-0.0,2.0,0.282024,0.276957,0.282024,0.286964,,,,,,
339400,0.000121,-0.000367,0.008302,0.001064,0.0,0.0,0.0,-0.0,-0.0,2.0,0.282024,0.277653,0.282024,0.2863,,,,,,
339420,0.000243,-0.000367,0.008302,0.0,0.0,0.0,0.0,-0.0,-0.0,2.0,0.282024,0.277797,0.282024,0.286163,,,,,,
339440,0.000242,-0.000489,0.008302,-0.001064,-0.001064,-0.0,0.0,-0.0,-0.0,2.0,0.282024,0.272122,0.282024,0.29145,,,,,,
339460,0.00012,-0.000489,0.00818,-0.001064,-0.001064,-0.0,0.0,-0.0,-0.0,2.0,0.282024,0.271981,0.282024,0.291578,,,,,,
339480,-0.000368,-0.000365,0.00818,-0.001064,-0.0,-0.001064,0.0,-0.0,-0.0,2.0,0.282024,0.271398,0.282024,0.292103,,,,,,
339500,-0.000734,-0.000363,0.00818,-0.001064,-0.001064,1e-06,0.0,-0.0,-0.0,2.0,0.282024,0.270949,0.282024,0.292506,,,,,,
339520,-0.000856,-0.000363,0.00818,0.0,-0.001065,-0.001063,0.0,-0.0,-0.0,2.0,0.282024,0.276506,0.282024,0.287391,,,,,,
339540,-0.000612,-0.000364,0.00818,0.0,-1e-06,-0.001064,0.0,-0.0,-0.0,2.0,0.282024,0.276768,0.282024,0.287143,,,,,,
339560,-0.000124,-0.000366,0.008058,-0.0,-0.001064,0.0,0.0,-0.0,-0.0,2.0,0.282024,0.277321,0.282024,0.286617,,,,,,
339580,0.000242,-0.000489,0.008058,0.0,0.0,0.0,0.0,-0.0,-0.0,2.0,0.282024,0.277745,0.282024,0.286212,,,,,,
339600,0.000364,-0.00049,0.008058,-0.001064,0.0,-0.001064,0.0,-0.0,-0.0,2.0,0.282024,0.277894,0.282024,0.28607,,,,,,
339620,0.000242,-0.000611,0.008058,-0.001064,-0.001064,-0.0,0.0,-0.0,-0.0,2.0,0.282024,0.272073,0.282024,0.291494,,,,,,
339640,-0.000125,-0.00061,0.008058,-0.001064,-0.001064,0.0,0.0,-0.0,-0.0,2.0,0.282024,0.271639,0.282024,0.291886,,,,,,
339660,-0.000613,-0.000608,0.008058,-0.001064,-0.001065,-0.001064,0.0,-0.0,-0.0,2.0,0.282024,0.271053,0.282024,0.292413,,,,,,
339680,-0.000857,-0.000607,0.007936,-0.001064,-0.001065,-0.001063,0.0,-0.0,-0.0,2.0,0.282024,0.270741,0.282024,0.292693,,,,,,
339700,-0.000857,-0.000607,0.007936,0.0,0.0,0.0,0.0,-0.0,-0.0,2.0,0.282024,0.276445,0.282024,0.287449,,,,,,
339720,-0.00049,-0.000486,0.007936,-0.0,-0.001064,1e-06,0.0,-0.0,-0.0,2.0,0.282024,0.276855,0.282024,0.287061,,,,,,
339740,-0.000124,-0.000488,0.007936,1e-06,-0.0,-0.001064,0.0,-0.0,-0.0,2.0,0.282024,0.277266,0.282024,0.28667,,,,,,
339760,0.000241,-0.000733,0.007814,0.0,0.0,0.0,0.0,-0.0,-0.0,2.0,0.282024,0.277687,0.282024,0.286267,,,,,,
339780,0.000241,-0.000733,0.007814,-0.001064,-0.001064,-0.0,0.0,-0.0,-0.0,2.0,0.282024,0.272006,0.282024,0.291555,,,,,,
339800,0.000119,-0.000733,0.007814,-0.001063,-0.001064,-0.001064,0.0,-0.0,-0.0,2.0,0.282024,0.27187,0.282024,0.291677,,,,,,
339820,-0.000369,-0.000731,0.007814,-0.001063,-0.0,-0.001064,0.0,-0.0,-0.0,2.0,0.282024,0.271287,0.282024,0.292203,,,,,,
339840,-0.000613,-0.000608,0.007691,-0.001064,-0.001064,1e-06,0.0,-0.0,-0.0,2.0,0.282024,0.270981,0.282024,0.292477,,,,,,
339860,-0.000856,-0.000485,0.007691,0.0,0.0,0.0,0.0,-0.0,-0.0,2.0,0.282024,0.276399,0.282024,0.287493,,,,,,
339880,-0.000612,-0.000486,0.007692,-0.0,-0.001064,1e-06,0.0,-0.0,-0.0,2.0,0.282024,0.276666,0.282024,0.287239,,,,,,
339900,-0.000246,-0.000487,0.00757,1e-06,-0.0,-0.001064,0.0,-0.0,-0.0,2.0,0.282024,0.277076,0.282024,0.286851,,,,,,
339920,0.00012,-0.000611,0.00757,0.0,0.0,0.0,0.0,-0.0,-0.0,2.0,0.282024,0.277496,0.282024,0.28645,,,,,,
339940,0.000363,-0.000734,0.00757,0.0,-0.001064,-0.0,0.0,-0.0,-0.0,2.0,0.282024,0.277785,0.282024,0.286173,,,,,,
339960,0.000242,-0.000611,0.00757,-0.001064,0.0,-0.001064,0.0,-0.0,-0.0,2.0,0.282024,0.271962,0.282024,0.291594,,,,,,
339980,-3e-06,-0.000732,0.00757,-0.001063,-0.001064,-0.001064,0.0,-0.0,-0.0,2.0,0.282024,0.271676,0.282024,0.291853,,,,,,
340000,-0.000246,-0.000609,0.00757,-0.001064,-0.001064,0.0,0.0,-0.0,-0.0,2.0,0.282024,0.271384,0.282024,0.292116,,,,,,
340020,-0.000612,-0.000486,0.007569,-0.001064,-0.001065,-0.001064,0.0,-0.0,-0.0,2.0,0.282024,0.27109,0.282024,0.29238,,,,,,
340040,-0.000612,-0.000486,0.007569,1e-06,-1e-06,-0.001064,0.0,-0.0,-0.0,2.0,0.282024,0.276642,0.282024,0.287262,,,,,,
340060,-0.000124,-0.00061,0.00757,0.0,0.0,0.0,0.0,-0.0,-0.0,2.0,0.282024,0.277196,0.282024,0.286736,,,,,,
340080,0.00012,-0.000611,0.00757,0.0,-0.001064,-0.0,0.0,-0.0,-0.0,2.0,0.282024,0.277477,0.282024,0.286468,,,,,,
340100,0.000486,-0.000734,0.00757,1e-06,1e-06,-0.001064,0.0,-0.0,-0.0,2.0,0.282024,0.27791,0.282024,0.286054,,,,,,
340120,0.00073,-0.000735,0.00757,-0.001063,-0.001063,-0.001065,0.0,-0.0,-0.0,2.0,0.282024,0.278201,0.282024,0.285774,,,,,,
340140,0.000486,-0.000734,0.00757,-0.001064,-0.001064,-1e-06,0.0,-0.0,-0.0,2.0,0.282024,0.272256,0.282024,0.291329,,,,,,
340160,0.000119,-0.000733,0.00757,-0.001064,-0.001064,-0.0,0.0,-0.0,-0.0,2.0,0.282024,0.271834,0.282024,0.291711,,,,,,
340180,-0.000246,-0.000609,0.00757,-0.001064,-0.0,-0.001064,0.0,-0.0,-0.0,2.0,0.282024,0.271392,0.282024,0.292108,,,,,,
340200,-0.000369,-0.000731,0.007447,-0.001064,-0.001064,0.0,0.0,-0.0,-0.0,2.0,0.282024,0.271238,0.282024,0.292247,,,,,,
340220,-0.000247,-0.000732,0.00757,0.0,0.0,0.0,0.0,-0.0,-0.0,2.0,0.282024,0.27708,0.282024,0.286846,,,,,,
340240,0.000119,-0.000733,0.00757,1e-06,0.0,-0.001064,0.0,-0.0,-0.0,2.0,0.282024,0.277503,0.282024,0.286443,,,,,,
340260,0.000364,-0.000734,0.007448,0.0,-0.001064,-0.0,0.0,-0.0,-0.0,2.0,0.282024,0.277785,0.282024,0.286173,,,,,,
340280,0.000608,-0.000735,0.007448,-0.001064,0.0,0.0,0.0,-0.0,-0.0,2.0,0.282024,0.278079,0.282024,0.285892,,,,,,
340300,0.000608,-0.000735,0.007448,-0.001064,0.0,0.0,0.0,-0.0,-0.0,2.0,0.282024,0.272423,0.282024,0.291177,,,,,,
340320,0.000241,-0.000733,0.007448,-0.001063,-0.001064,-0.001064,0.0,-0.0,-0.0,2.0,0.282024,0.272001,0.282024,0.291559,,,,,,
340340,-0.000125,-0.000854,0.007325,-0.001064,-0.001064,0.0,0.0,-0.0,-0.0,2.0,0.282024,0.271564,0.282024,0.291954,,,,,,
340360,-0.000369,-0.000853,0.007447,-0.001064,0.0,0.0,0.0,-0.0,-0.0,2.0,0.282024,0.271268,0.282024,0.29222,,,,,,
340380,-0.000369,-0.000853,0.007325,-0.0,-0.001064,0.0,0.0,-0.0,-0.0,2.0,0.282024,0.276971,0.282024,0.28695,,,,,,
340400,-0.000247,-0.000854,0.007325,1e-06,-0.0,-0.001064,0.0,-0.0,-0.0,2.0,0.282024,0.2771,0.282024,0.286828,,,,,,
340420,0.000241,-0.000855,0.007203,0.0,0.0,0.0,0.0,-0.0,-0.0,2.0,0.282024,0.277663,0.282024,0.286291,,,,,,
340440,0.000607,-0.000857,0.007204,0.0,-0.001064,-1e-06,0.0,-0.0,-0.0,2.0,0.282024,0.278092,0.282024,0.285879,,,,,,
340460,0.000607,-0.000857,0.007326,-0.001063,1e-06,-0.001064,0.0,-0.0,-0.0,2.0,0.282024,0.272439,0.282024,0.291162,,,,,,
340480,0.000485,-0.000856,0.007204,-0.001064,-0.001064,-1e-06,0.087266,-0.0,-0.0,2.0,0.282024,0.15,0.282024,0.371184,,,,,,
340500,-3e-06,-0.000855,0.007203,-0.001063,-0.0,-0.001064,0.087266,-0.0,-0.0,2.0,0.282024,0.15,0.282024,0.372964,,,,,,
340520,0.000118,-0.000977,0.007814,0.001065,-0.001064,-0.001064,0.087266,-0.0,-0.0,2.0,0.282024,0.15,0.282024,0.366714,,,,,,
340540,0.001705,-0.000862,0.008425,0.005323,-0.001061,-0.00213,0.087266,-0.0,-0.0,2.0,0.282024,0.152392,0.282024,0.355172,,,,,,
340560,0.004757,-0.000876,0.008914,0.00958,-0.001054,-0.002133,0.087266,-0.0,-0.0,2.0,0.282024,0.202455,0.282024,0.337582,,,,,,
340580,0.009883,-0.001146,0.00965,0.013836,1.1e-05,-0.001064,0.087266,-0.0,-0.0,2.0,0.282024,0.239867,0.282024,0.316602,,,,,,
340600,0.017329,-0.001186,0.010141,0.018093,1.8e-05,-0.001064,0.087266,-0.0,-0.0,2.0,0.282024,0.272731,0.282024,0.290896,,,,,,
340620,0.026485,-0.001114,0.010389,0.02235,2.8e-05,-0.001064,0.087266,-0.0,-0.0,2.0,0.282024,0.307446,0.282024,0.252773,,,,,,
340640,0.037595,-0.00142,0.010643,0.025543,4e-05,-0.001063,0.087266,-0.0,-0.0,2.0,0.282024,0.326258,0.282024,0.224309,,,,,,
340660,0.050413,-0.001741,0.011021,0.028736,5.4e-05,-0.001063,0.087266,-0.0,-0.0,2.0,0.282024,0.353531,0.282024,0.158716,,,,,,
340680,0.064088,-0.001966,0.011886,0.030869,0.000204,-0.003186,0.087266,-0.0,-0.0,2.0,0.282024,0.371697,0.282024,0.15,,,,,,
340700,0.078625,-0.002226,0.013243,0.031936,0.000334,-0.004244,0.087266,-0.0,-0.0,2.0,0.282024,0.382473,0.282024,0.15,,,,,,
340720,0.093405,-0.002525,0.014964,0.030873,-0.000663,-0.004338,0.087266,-0.0,-0.0,2.0,0.282024,0.39673,0.282024,0.15,,,,,,
340740,0.107824,-0.002852,0.016807,0.029811,-0.0006,-0.004347,0.087266,-0.0,-0.0,2.0,0.282024,0.403632,0.282024,0.15,,,,,,
340760,0.121887,-0.002844,0.018749,0.028746,-0.000539,-0.004355,0.087266,-0.0,-0.0,2.0,0.282024,0.407025,0.282024,0.15,,,,,,
340780,0.135099,-0.002594,0.020425,0.026617,-0.001536,-0.004505,0.087266,-0.0,-0.0,2.0,0.282024,0.413275,0.282024,0.15,,,,,,
340800,0.147215,-0.00245,0.021736,0.023421,-0.000584,-0.003314,0.087266,-0.0,-0.0,2.0,0.282024,0.412344,0.282024,0.15,,,,,,
340820,0.15775,-0.002266,0.022556,0.019159,-0.000884,-0.001218,0.087266,-0.0,-0.0,2.0,0.282024,0.40717,0.282024,0.15,,,,,,
340840,0.166321,-0.001917,0.022993,0.013837,-0.000873,-0.001226,0.087266,-0.0,-0.0,2.0,0.282024,0.400679,0.282024,0.15,,,,,,
340860,0.172458,-0.001633,0.02308,0.00958,-0.000866,-0.001231,0.087266,-0.0,-0.0,2.0,0.282024,0.388897,0.282024,0.15,,,,,,
340880,0.176249,-0.001666,0.022951,0.003194,0.000187,-0.001048,0.087266,-0.0,-0.0,2.0,0.282024,0.371188,0.282024,0.15,,,,,,
340900,0.17711,-0.001797,0.022963,-0.003193,0.0,0.0,0.087266,-0.0,-0.0,2.0,0.282024,0.35395,0.282024,0.157158,,,,,,
340920,0.175517,-0.001901,0.022976,-0.00745,0.0,0.0,0.087266,-0.0,-0.0,2.0,0.282024,0.333349,0.282024,0.211193,,,,,,
340940,0.171591,-0.002088,0.022878,-0.011706,0.0,0.0,0.087266,-0.0,-0.0,2.0,0.282024,0.313271,0.282024,0.244745,,,,,,
340960,0.166074,-0.002258,0.022781,-0.014899,0.0,0.0,0.087266,-0.0,-0.0,2.0,0.282024,0.294637,0.282024,0.268542,,,,,,
340980,0.159086,-0.002525,0.022571,-0.017028,0.0,0.0,0.087266,-0.0,-0.0,2.0,0.282024,0.272278,0.282024,0.291308,,,,,,
341000,0.150885,-0.002423,0.022454,-0.019156,0.0,0.0,0.087266,-0.0,-0.0,2.0,0.282024,0.257932,0.282024,0.303465,,,,,,
341020,0.142196,-0.002448,0.022468,-0.019153,-0.000903,-0.001204,0.087266,-0.0,-0.0,2.0,0.282024,0.234279,0.282024,0.320235,,,,,,
341040,0.133265,-0.002243,0.022706,-0.019153,-0.000913,-0.001196,0.087266,-0.0,-0.0,2.0,0.282024,0.229744,0.282024,0.323046,,,,,,
341060,0.124579,-0.001916,0.022936,-0.01809,-0.000924,-0.001188,0.087266,-0.0,-0.0,2.0,0.282024,0.217211,0.282024,0.330208,,,,,,
341080,0.116389,-0.001614,0.023535,-0.017026,-0.000933,-0.001181,0.087266,-0.0,-0.0,2.0,0.282024,0.220939,0.282024,0.328168,,,,,,
341100,0.108934,-0.001438,0.024144,-0.014896,-0.000827,-0.002232,0.087266,-0.0,-0.0,2.0,0.282024,0.217536,0.282024,0.330033,,,,,,
341120,0.102578,-0.001258,0.024505,-0.011705,-0.00095,-0.001168,0.087266,-0.0,-0.0,2.0,0.282024,0.231286,0.282024,0.322104,,,,,,
341140,0.097446,-0.001085,0.024747,-0.009577,-0.000956,-0.001163,0.087266,-0.0,-0.0,2.0,0.282024,0.238503,0.282024,0.317506,,,,,,
341160,0.093906,-0.000919,0.024745,-0.005321,-0.00106,-0.0001,0.087266,-0.0,-0.0,2.0,0.282024,0.260244,0.282024,0.301616,,,,,,
341180,0.09195,-0.000873,0.024258,-0.002129,-0.001157,0.000962,0.087266,-0.0,-0.0,2.0,0.282024,0.275718,0.282024,0.288134,,,,,,
341200,0.091832,-0.000594,0.023515,0.002128,-0.001157,0.000962,0.087266,-0.0,-0.0,2.0,0.282024,0.297121,0.282024,0.265663,,,,,,
341220,0.093051,-0.000685,0.022543,0.004255,-0.000198,0.002119,0.087266,-0.0,-0.0,2.0,0.282024,0.30838,0.282024,0.251525,,,,,,
341240,0.09574,-0.000651,0.0212,0.006384,-0.000203,0.002119,0.087266,-0.0,-0.0,2.0,0.282024,0.320518,0.282024,0.233831,,,,,,
341260,0.098916,-0.00074,0.019862,0.007447,-0.000315,0.003177,0.087266,-0.0,-0.0,2.0,0.282024,0.332547,0.282024,0.212764,,,,,,
341280,0.102219,-0.000948,0.018534,0.006383,-0.000217,0.002117,0.087266,-0.0,-0.0,2.0,0.282024,0.331394,0.282024,0.214981,,,,,,
341300,0.105638,-0.001146,0.017081,0.006383,-0.000224,0.002117,0.087266,-0.0,-0.0,2.0,0.282024,0.334754,0.282024,0.208377,,,,,,
341320,0.108445,-0.001578,0.015643,0.004253,0.000828,0.002231,0.087266,-0.0,-0.0,2.0,0.282024,0.328897,0.282024,0.219621,,,,,,
341340,0.110278,-0.002006,0.01433,0.002122,0.000706,0.00329,0.087266,-0.0,-0.0,2.0,0.282024,0.322043,0.282024,0.231384,,,,,,
341360,0.111252,-0.002433,0.013137,-5e-06,-0.000236,0.002115,0.087266,-0.0,-0.0,2.0,0.282024,0.31419,0.282024,0.243421,,,,,,
341380,0.111252,-0.002724,0.011817,-0.002132,0.000939,0.001176,0.087266,-0.0,-0.0,2.0,0.282024,0.309915,0.282024,0.249444,,,,,,
341400,0.110397,-0.003261,0.010632,-0.0032,-0.000234,0.002116,0.087266,-0.0,-0.0,2.0,0.282024,0.299732,0.282024,0.26255,,,,,,
341420,0.108929,-0.003546,0.009309,-0.004264,-0.000231,0.002116,0.087266,-0.0,-0.0,2.0,0.282024,0.293584,0.282024,0.269739,,,,,,
341440,0.107096,-0.003472,0.008087,-0.005328,-0.000228,0.002116,0.087266,-0.0,-0.0,2.0,0.282024,0.286814,0.282024,0.277114,,,,,,
341460,0.10502,-0.003387,0.006621,-0.005328,-0.001281,0.002005,0.087266,-0.0,-0.0,2.0,0.282024,0.284961,0.282024,0.279043,,,,,,
341480,0.103066,-0.003184,0.005149,-0.005331,-0.001387,0.003066,0.087266,-0.0,-0.0,2.0,0.282024,0.288533,0.282024,0.275291,,,,,,
341500,0.101241,-0.002855,0.00355,-0.004266,-0.001381,0.003069,0.087266,-0.0,-0.0,2.0,0.282024,0.286885,0.282024,0.27704,,,,,,
341520,0.099774,-0.002408,0.001945,-0.0032,-0.001377,0.003071,0.087266,-0.0,-0.0,2.0,0.282024,0.29089,0.282024,0.272738,,,,,,
341540,0.098673,-0.002091,0.000468,-0.002133,-0.00021,0.002118,0.087266,-0.0,-0.0,2.0,0.282024,0.295175,0.282024,0.267925,,,,,,
341560,0.098187,-0.001885,-0.001245,-0.00107,-0.001372,0.003073,0.087266,-0.0,-0.0,2.0,0.282024,0.299992,0.282024,0.262235,,,,,,
341580,0.098066,-0.001807,-0.002831,-6e-06,-0.000313,0.003177,0.087266,-0.0,-0.0,2.0,0.282024,0.305062,0.282024,0.255892,,,,,,
341600,0.098311,-0.001735,-0.004293,-4e-06,-0.000209,0.002118,0.087266,-0.0,-0.0,2.0,0.282024,0.305547,0.282024,0.255265,,,,,,
341620,0.098928,-0.001777,-0.005872,0.00106,-0.00021,0.002118,0.087266,-0.0,-0.0,2.0,0.282024,0.311222,0.282024,0.247638,,,,,,
341640,0.099419,-0.002184,-0.007433,0.001059,0.000848,0.002224,0.087266,-0.0,-0.0,2.0,0.282024,0.311932,0.282024,0.246644,,,,,,
341660,0.09991,-0.002475,-0.008876,-8e-06,0.00074,0.003283,0.087266,-0.0,-0.0,2.0,0.282024,0.30788,0.282024,0.252195,,,,,,
341680,0.100278,-0.00265,-0.010204,-6e-06,-0.000213,0.002118,0.087266,-0.0,-0.0,2.0,0.282024,0.30851,0.282024,0.25135,,,,,,
341700,0.100403,-0.00282,-0.011655,-6e-06,-0.000213,0.002118,0.087266,-0.0,-0.0,2.0,0.282024,0.308904,0.282024,0.25082,,,,,,
341720,0.100283,-0.002875,-0.01299,-0.00107,-0.001272,0.002011,0.087266,-0.0,-0.0,2.0,0.282024,0.304188,0.282024,0.257013,,,,,,
341740,0.10004,-0.002687,-0.014338,-0.00107,-0.001271,0.002012,0.087266,-0.0,-0.0,2.0,0.282024,0.304215,0.282024,0.256978,,,,,,
341760,0.099308,-0.002388,-0.015571,-0.002133,-0.00127,0.002012,0.087266,-0.0,-0.0,2.0,0.282024,0.298752,0.282024,0.26373,,,,,,
341780,0.098698,-0.002217,-0.016676,-0.002133,-0.001269,0.002013,0.087266,-0.0,-0.0,2.0,0.282024,0.298389,0.282024,0.264164,,,,,,
341800,0.097966,-0.002042,-0.017904,-0.002131,-0.000104,0.001059,0.087266,-0.0,-0.0,2.0,0.282024,0.297861,0.282024,0.264791,,,,,,
341820,0.097235,-0.001995,-0.019004,-0.002132,-0.001266,0.002015,0.087266,-0.0,-0.0,2.0,0.282024,0.297324,0.282024,0.265425,,,,,,
341840,0.09662,-0.001954,-0.019977,-0.001068,-0.000205,0.002119,0.087266,-0.0,-0.0,2.0,0.282024,0.296893,0.282024,0.265932,,,,,,
341860,0.096133,-0.001918,-0.020832,-0.00213,-0.000102,0.001059,0.087266,-0.0,-0.0,2.0,0.282024,0.296593,0.282024,0.266282,,,,,,
341880,0.095647,-0.002004,-0.021681,-0.001066,-0.001161,0.000958,0.087266,-0.0,-0.0,2.0,0.282024,0.301318,0.282024,0.260613,,,,,,
341900,0.095279,-0.001729,-0.022426,-0.001066,-0.001161,0.000958,0.087266,-0.0,-0.0,2.0,0.282024,0.301116,0.282024,0.260861,,,,,,
341920,0.095034,-0.001581,-0.023042,-0.001066,-0.00116,0.000958,0.087266,-0.0,-0.0,2.0,0.282024,0.301035,0.282024,0.260961,,,,,,
341940,0.09491,-0.001437,-0.023536,-1e-06,-0.00116,0.000959,0.087266,-0.0,-0.0,2.0,0.282024,0.301075,0.282024,0.260912,,,,,,
341960,0.094664,-0.001173,-0.024036,-0.001064,-0.001059,-0.000101,0.087266,-0.0,-0.0,2.0,0.282024,0.300984,0.282024,0.261024,,,,,,
341980,0.094418,-0.001043,-0.024286,-0.001064,-0.001059,-0.0001,0.087266,-0.0,-0.0,2.0,0.282024,0.300893,0.282024,0.261135,,,,,,
342000,0.094295,-0.000911,-0.024536,-0.001064,-0.001059,-0.0001,0.087266,-0.0,-0.0,2.0,0.282024,0.300921,0.282024,0.261101,,,,,,
342020,0.094296,-0.001027,-0.024652,-0.001064,0.0,0.0,0.087266,-0.0,-0.0,2.0,0.282024,0.305973,0.282024,0.254711,,,,,,
342040,0.094052,-0.00103,-0.024653,0.0,0.0,0.0,0.087266,-0.0,-0.0,2.0,0.282024,0.30097,0.282024,0.26104,,,,,,
342060,0.094174,-0.001029,-0.024653,-0.001064,-0.00106,-0.0001,0.087266,-0.0,-0.0,2.0,0.282024,0.301243,0.282024,0.260705,,,,,,
342080,0.094174,-0.001034,-0.024531,1e-06,0.0001,-0.00106,0.087266,-0.0,-0.0,2.0,0.282024,0.306324,0.282024,0.254253,,,,,,
342100,0.094174,-0.001034,-0.024531,1e-06,-0.000959,-0.00116,0.087266,-0.0,-0.0,2.0,0.282024,0.301542,0.282024,0.260336,,,,,,
342120,0.094296,-0.001033,-0.02453,0.0,-0.001059,-0.0001,0.087266,-0.0,-0.0,2.0,0.282024,0.306731,0.282024,0.253718,,,,,,
342140,0.094173,-0.000912,-0.024537,-0.001064,0.0,0.0,0.087266,-0.0,-0.0,2.0,0.282024,0.301833,0.282024,0.259975,,,,,,
342160,0.094173,-0.000912,-0.024537,-0.001064,-0.00106,-0.0001,0.087266,-0.0,-0.0,2.0,0.282024,0.301986,0.282024,0.259786,,,,,,
342180,0.094051,-0.00092,-0.024415,-0.001063,0.0001,-0.00106,0.087266,-0.0,-0.0,2.0,0.282024,0.302002,0.282024,0.259766,,,,,,
342200,0.093807,-0.000923,-0.024416,-0.001063,0.0001,-0.00106,0.087266,-0.0,-0.0,2.0,0.282024,0.301895,0.282024,0.259899,,,,,,
342220,0.093685,-0.000918,-0.024538,0.0,-0.00106,-0.0001,0.087266,-0.0,-0.0,2.0,0.282024,0.301913,0.282024,0.259876,,,,,,
342240,0.093565,-0.001042,-0.024533,-0.001064,0.0,0.0,0.087266,-0.0,-0.0,2.0,0.282024,0.301922,0.282024,0.259866,,,,,,
342260,0.093443,-0.001043,-0.024533,-0.001064,-0.00106,-9.9e-05,0.087266,-0.0,-0.0,2.0,0.282024,0.306852,0.282024,0.253558,,,,,,
342280,0.093443,-0.001043,-0.024533,1e-06,9.9e-05,-0.00106,0.087266,-0.0,-0.0,2.0,0.282024,0.301904,0.282024,0.259887,,,,,,
342300,0.093319,-0.000923,-0.024539,-0.001063,-0.00096,-0.001159,0.087266,-0.0,-0.0,2.0,0.282024,0.302066,0.282024,0.259686,,,,,,
342320,0.093443,-0.001043,-0.024533,0.0,0.0,0.0,0.087266,-0.0,-0.0,2.0,0.282024,0.30723,0.282024,0.253059,,,,,,
342340,0.093441,-0.000921,-0.024539,-0.001064,-0.00106,-9.9e-05,0.087266,-0.0,-0.0,2.0,0.282024,0.302452,0.282024,0.259205,,,,,,
342360,0.093563,-0.00092,-0.024539,1e-06,9.9e-05,-0.00106,0.087266,-0.0,-0.0,2.0,0.282024,0.307613,0.282024,0.252551,,,,,,
342380,0.093441,-0.000916,-0.024661,1e-06,9.9e-05,-0.00106,0.087266,-0.0,-0.0,2.0,0.282024,0.302721,0.282024,0.258868,,,,,,
342400,0.093563,-0.000914,-0.024661,-0.001064,0.0,0.0,0.087266,-0.0,-0.0,2.0,0.282024,0.307868,0.282024,0.252212,,,,,,
342420,0.093321,-0.001039,-0.024656,-0.001064,0.0,0.0,0.087266,-0.0,-0.0,2.0,0.282024,0.302862,0.282024,0.258691,,,,,,
342440,0.093197,-0.000924,-0.02454,-0.001064,-0.00106,-9.9e-05,0.087266,-0.0,-0.0,2.0,0.282024,0.30286,0.282024,0.258693,,,,,,
342460,0.092948,-0.000927,-0.024536,-0.001063,9.9e-05,-0.00106,0.087266,-0.0,-0.0,2.0,0.282024,0.302735,0.282024,0.258851,,,,,,
342480,0.092704,-0.00093,-0.024537,-0.001063,-0.000961,-0.001158,0.087266,-0.0,-0.0,2.0,0.282024,0.302607,0.282024,0.259011,,,,,,
342500,0.092582,-0.000932,-0.024537,-0.001064,-0.00106,-9.8e-05,0.087266,-0.0,-0.0,2.0,0.282024,0.3075,0.282024,0.252701,,,,,,
342520,0.092337,-0.000813,-0.024544,-0.001063,9.8e-05,-0.00106,0.087266,-0.0,-0.0,2.0,0.282024,0.302458,0.282024,0.259198,,,,,,
342540,0.092215,-0.000815,-0.024544,-0.001064,-0.00106,-9.8e-05,0.087266,-0.0,-0.0,2.0,0.282024,0.302436,0.282024,0.259224,,,,,,
342560,0.091972,-0.00094,-0.024539,-0.001064,0.0,0.0,0.087266,-0.0,-0.0,2.0,0.282024,0.302297,0.282024,0.259398,,,,,,
342580,0.09185,-0.000941,-0.02454,-0.001063,9.8e-05,-0.00106,0.087266,-0.0,-0.0,2.0,0.282024,0.302268,0.282024,0.259435,,,,,,
342600,0.091728,-0.000937,-0.024662,0.0,-0.00106,-9.7e-05,0.087266,-0.0,-0.0,2.0,0.282024,0.302238,0.282024,0.259471,,,,,,
342620,0.091607,-0.000939,-0.024663,-0.001063,9.7e-05,-0.00106,0.087266,-0.0,-0.0,2.0,0.282024,0.302209,0.282024,0.259507,,,,,,
342640,0.091607,-0.000933,-0.024784,0.0,0.0,0.0,0.087266,-0.0,-0.0,2.0,0.282024,0.307216,0.282024,0.253078,,,,,,
342660,0.091608,-0.001055,-0.024779,-0.001064,-0.00106,-9.7e-05,0.087266,-0.0,-0.0,2.0,0.282024,0.302401,0.282024,0.259269,,,,,,
342680,0.091607,-0.000927,-0.024906,-0.001063,9.7e-05,-0.00106,0.087266,-0.0,-0.0,2.0,0.282024,0.307392,0.282024,0.252845,,,,,,
342700,0.091485,-0.000929,-0.024907,0.0,0.0,0.0,0.087266,-0.0,-0.0,2.0,0.282024,0.302453,0.282024,0.259204,,,,,,
342720,0.091363,-0.000925,-0.025029,-0.001064,-0.00106,-9.7e-05,0.087266,-0.0,-0.0,2.0,0.282024,0.302418,0.282024,0.259248,,,,,,
342740,0.091119,-0.000922,-0.025152,-0.001064,0.0,0.0,0.087266,-0.0,-0.0,2.0,0.282024,0.302259,0.282024,0.259446,,,,,,
342760,0.091117,-0.0008,-0.025157,-0.001064,-0.00106,-9.7e-05,0.087266,-0.0,-0.0,2.0,0.282024,0.30234,0.282024,0.259344,,,,,,
342780,0.090873,-0.000798,-0.02528,-0.001064,-0.00106,-9.7e-05,0.087266,-0.0,-0.0,2.0,0.282024,0.302167,0.282024,0.259561,,,,,,
342800,0.090629,-0.000796,-0.025403,-0.001064,-0.00106,-9.6e-05,0.087266,-0.0,-0.0,2.0,0.282024,0.301993,0.282024,0.259777,,,,,,
342820,0.090628,-0.000668,-0.02553,-0.001064,-0.00106,-9.6e-05,0.087266,-0.0,-0.0,2.0,0.282024,0.302064,0.282024,0.259689,,,,,,
342840,0.090262,-0.000667,-0.025653,-0.001064,0.0,0.0,0.087266,-0.0,-0.0,2.0,0.282024,0.301758,0.282024,0.260069,,,,,,
342860,0.09014,-0.000663,-0.025776,-0.001064,-0.00106,-9.6e-05,0.087266,-0.0,-0.0,2.0,0.282024,0.301699,0.282024,0.260142,,,,,,
342880,0.090018,-0.000659,-0.025898,1e-06,9.6e-05,-0.00106,0.087266,-0.0,-0.0,2.0,0.282024,0.301616,0.282024,0.260244,,,,,,
342900,0.089896,-0.00065,-0.026142,-0.001064,0.0,0.0,0.087266,-0.0,-0.0,2.0,0.282024,0.301565,0.282024,0.260308,,,,,,
342920,0.090018,-0.000643,-0.026264,-0.001064,-0.00106,-9.6e-05,0.087266,-0.0,-0.0,2.0,0.282024,0.306668,0.282024,0.253801,,,,,,
342940,0.089896,-0.000639,-0.026386,0.0,0.0,0.0,0.087266,-0.0,-0.0,2.0,0.282024,0.301678,0.282024,0.260168,,,,,,
342960,0.089767,-0.000513,-0.026509,-0.001064,-0.00106,-9.5e-05,0.087266,-0.0,-0.0,2.0,0.282024,0.301602,0.282024,0.260262,,,,,,
342980,0.089645,-0.000515,-0.026509,1e-06,-0.000965,-0.001155,0.087266,-0.0,-0.0,2.0,0.282024,0.30153,0.282024,0.260351,,,,,,
343000,0.089521,-0.000389,-0.026637,-0.001064,-0.00106,-9.5e-05,0.087266,-0.0,-0.0,2.0,0.282024,0.301454,0.282024,0.260445,,,,,,
343020,0.089521,-0.000384,-0.026759,-0.001064,-0.00106,-9.5e-05,0.087266,-0.0,-0.0,2.0,0.282024,0.301502,0.282024,0.260385,,,,,,
343040,0.089277,-0.000387,-0.02676,-0.001064,-0.00106,-9.5e-05,0.087266,-0.0,-0.0,2.0,0.282024,0.3013,0.282024,0.260635,,,,,,
343060,0.089277,-0.000382,-0.026882,-0.001064,9.5e-05,-0.00106,0.087266,-0.0,-0.0,2.0,0.282024,0.306272,0.282024,0.254321,,,,,,
343080,0.089155,-0.000378,-0.027004,0.0,0.0,0.0,0.087266,-0.0,-0.0,2.0,0.282024,0.301257,0.282024,0.260687,,,,,,
343100,0.089155,-0.000372,-0.027126,-0.001064,0.0,0.0,0.087266,-0.0,-0.0,2.0,0.282024,0.301298,0.282024,0.260637,,,,,,
343120,0.089155,-0.000372,-0.027126,0.0,0.0,0.0,0.087266,-0.0,-0.0,2.0,0.282024,0.306268,0.282024,0.254326,,,,,,
343140,0.089155,-0.000361,-0.02737,0.0,-0.00106,-9.5e-05,0.087266,-0.0,-0.0,2.0,0.282024,0.301379,0.282024,0.260537,,,,,,
343160,0.089157,-0.000483,-0.027364,-0.001064,9.5e-05,-0.00106,0.087266,-0.0,-0.0,2.0,0.282024,0.306348,0.282024,0.254221,,,,,,
343180,0.089033,-0.000358,-0.027492,0.0,-0.000965,-0.001155,0.087266,-0.0,-0.0,2.0,0.282024,0.301332,0.282024,0.260595,,,,,,
343200,0.089155,-0.000356,-0.027492,-0.001064,-0.00106,-9.5e-05,0.087266,-0.0,-0.0,2.0,0.282024,0.301497,0.282024,0.260392,,,,,,
343220,0.088911,-0.000359,-0.027492,0.0,9.4e-05,-0.00106,0.087266,-0.0,-0.0,2.0,0.282024,0.306217,0.282024,0.254392,,,,,,
343240,0.08891,-0.000237,-0.027498,-0.001064,-0.00106,-9.4e-05,0.087266,-0.0,-0.0,2.0,0.282024,0.301321,0.282024,0.260609,,,,,,
343260,0.08891,-0.000237,-0.027498,0.0,-0.000966,-0.001155,0.087266,-0.0,-0.0,2.0,0.282024,0.306286,0.282024,0.254302,,,,,,
343280,0.088786,-0.000112,-0.027625,-0.001064,0.0,0.0,0.087266,-0.0,-0.0,2.0,0.282024,0.301262,0.282024,0.260682,,,,,,
343300,0.088909,-0.000227,-0.027742,0.0,-0.00106,-9.4e-05,0.087266,-0.0,-0.0,2.0,0.282024,0.306352,0.282024,0.254216,,,,,,
343320,0.088909,-0.000227,-0.027742,0.0,0.0,0.0,0.087266,-0.0,-0.0,2.0,0.282024,0.306386,0.282024,0.254171,,,,,,
343340,0.08903,-0.000103,-0.027747,-0.001064,9.5e-05,-0.00106,0.087266,-0.0,-0.0,2.0,0.282024,0.306543,0.282024,0.253965,,,,,,
343360,0.089153,-0.000223,-0.027741,0.0,-0.000965,-0.001155,0.087266,-0.0,-0.0,2.0,0.282024,0.306704,0.282024,0.253754,,,,,,
343380,0.089153,-0.000218,-0.027863,-0.001064,-0.000965,-0.001155,0.087266,-0.0,-0.0,2.0,0.282024,0.301824,0.282024,0.259987,,,,,,
343400,0.089275,-0.000216,-0.027862,-0.001064,-0.00106,-9.5e-05,0.087266,-0.0,-0.0,2.0,0.282024,0.306906,0.282024,0.253488,,,,,,
343420,0.089152,-0.000101,-0.027746,0.0,-0.00106,-9.5e-05,0.087266,-0.0,-0.0,2.0,0.282024,0.301904,0.282024,0.259888,,,,,,
343440,0.08903,-0.000103,-0.027747,-0.001064,-0.000965,-0.001155,0.087266,-0.0,-0.0,2.0,0.282024,0.301819,0.282024,0.259993,,,,,,
343460,0.088908,-9.9e-05,-0.027869,0.0,9.4e-05,-0.00106,0.087266,-0.0,-0.0,2.0,0.282024,0.306653,0.282024,0.25382,,,,,,
343480,0.089028,2.4e-05,-0.027874,-0.001064,9.5e-05,-0.00106,0.087266,-0.0,-0.0,2.0,0.282024,0.301884,0.282024,0.259912,,,,,,
343500,0.089028,2.4e-05,-0.027874,0.0,0.0,0.0,0.087266,-0.0,-0.0,2.0,0.282024,0.306845,0.282024,0.253568,,,,,,
343520,0.08915,2.6e-05,-0.027874,-0.0,-0.00106,-9.5e-05,0.087266,-0.0,-0.0,2.0,0.282024,0.302091,0.282024,0.259655,,,,,,
343540,0.089394,3e-05,-0.027873,-0.0,9.5e-05,-0.00106,0.087266,-0.0,-0.0,2.0,0.282024,0.307157,0.282024,0.253156,,,,,,
343560,0.089272,2.8e-05,-0.027873,-0.0,-0.00106,-9.5e-05,0.087266,-0.0,-0.0,2.0,0.282024,0.302302,0.282024,0.259393,,,,,,
343580,0.089399,3.5e-05,-0.028,-0.001064,-0.00106,-9.5e-05,0.087266,-0.0,-0.0,2.0,0.282024,0.307383,0.282024,0.252857,,,,,,
343600,0.089272,3.3e-05,-0.027995,-0.0,9.5e-05,-0.00106,0.087266,-0.0,-0.0,2.0,0.282024,0.307298,0.282024,0.252969,,,,,,
343620,0.089152,-9e-05,-0.02799,-0.001064,-0.00106,-9.5e-05,0.087266,-0.0,-0.0,2.0,0.282024,0.302312,0.282024,0.25938,,,,,,
343640,0.089152,-9.6e-05,-0.027868,0.0,9.5e-05,-0.00106,0.087266,-0.0,-0.0,2.0,0.282024,0.30726,0.282024,0.25302,,,,,,
343660,0.088904,0.000145,-0.02788,-0.001064,9.4e-05,-0.00106,0.087266,-0.0,-0.0,2.0,0.282024,0.302137,0.282024,0.259597,,,,,,
343680,0.089028,3e-05,-0.027996,-0.0,-0.00106,-9.5e-05,0.087266,-0.0,-0.0,2.0,0.282024,0.30721,0.282024,0.253087,,,,,,
343700,0.089028,3.5e-05,-0.028118,0.0,0.0,0.0,0.087266,-0.0,-0.0,2.0,0.282024,0.307247,0.282024,0.253037,,,,,,
343720,0.089401,-8.1e-05,-0.028116,0.0,0.0,0.0,0.087266,-0.0,-0.0,2.0,0.282024,0.307658,0.282024,0.252491,,,,,,
343740,0.089401,-8.1e-05,-0.028116,0.0,0.0,0.0,0.087266,-0.0,-0.0,2.0,0.282024,0.307702,0.282024,0.252432,,,,,,
343760,0.089523,-8e-05,-0.028116,-0.001064,9.5e-05,-0.00106,0.087266,-0.0,-0.0,2.0,0.282024,0.302976,0.282024,0.258548,,,,,,
343780,0.089524,-0.000202,-0.02811,0.0,9.5e-05,-0.00106,0.087266,-0.0,-0.0,2.0,0.282024,0.307918,0.282024,0.252144,,,,,,
343800,0.089273,-8.3e-05,-0.028111,-0.001064,-0.00106,-9.5e-05,0.087266,-0.0,-0.0,2.0,0.282024,0.302815,0.282024,0.25875,,,,,,
343820,0.089151,-8.5e-05,-0.028112,-0.001064,-0.00106,-9.5e-05,0.087266,-0.0,-0.0,2.0,0.282024,0.307633,0.282024,0.252524,,,,,,
343840,0.089028,3.5e-05,-0.028118,-0.0,-0.00106,-9.5e-05,0.087266,-0.0,-0.0,2.0,0.282024,0.302647,0.282024,0.258961,,,,,,
343860,0.08915,3.7e-05,-0.028117,-0.001064,-0.00106,-9.5e-05,0.087266,-0.0,-0.0,2.0,0.282024,0.307707,0.282024,0.252426,,,,,,
343880,0.088904,0.000161,-0.028245,-0.0,9.4e-05,-0.00106,0.087266,-0.0,-0.0,2.0,0.282024,0.307499,0.282024,0.252702,,,,,,
343900,0.089148,0.000164,-0.028245,-0.001064,-0.00106,-9.5e-05,0.087266,-0.0,-0.0,2.0,0.282024,0.307773,0.282024,0.252339,,,,,,
343920,0.089272,4.4e-05,-0.028239,-0.0,9.5e-05,-0.00106,0.087266,-0.0,-0.0,2.0,0.282024,0.307811,0.282024,0.252287,,,,,,
343940,0.089272,4.4e-05,-0.028239,-0.001064,-0.00106,-9.5e-05,0.087266,-0.0,-0.0,2.0,0.282024,0.307981,0.282024,0.252061,,,,,,
343960,0.089401,-7.6e-05,-0.028238,0.0,9.5e-05,-0.00106,0.087266,-0.0,-0.0,2.0,0.282024,0.308156,0.282024,0.251826,,,,,,
343980,0.089151,-7.9e-05,-0.028234,-0.001064,9.5e-05,-0.00106,0.087266,-0.0,-0.0,2.0,0.282024,0.303058,0.282024,0.258445,,,,,,
344000,0.089279,-7.2e-05,-0.02836,-0.001064,-0.00106,-9.5e-05,0.087266,-0.0,-0.0,2.0,0.282024,0.303229,0.282024,0.25823,,,,,,
344020,0.088906,4.4e-05,-0.028362,0.0,0.0,0.0,0.087266,-0.0,-0.0,2.0,0.282024,0.302878,0.282024,0.258671,,,,,,
344040,0.088904,0.000166,-0.028367,-0.001064,-0.00106,-9.4e-05,0.087266,-0.0,-0.0,2.0,0.282024,0.30292,0.282024,0.258619,,,,,,
344060,0.088782,0.00017,-0.02849,0.0,0.0,0.0,0.087266,-0.0,-0.0,2.0,0.282024,0.307725,0.282024,0.252402,,,,,,
344080,0.088658,0.000296,-0.028617,-0.001065,9.4e-05,-0.00106,0.087266,-0.0,-0.0,2.0,0.282024,0.302852,0.282024,0.258703,,,,,,
344100,0.088782,0.000181,-0.028733,0.0,0.0,0.0,0.087266,-0.0,-0.0,2.0,0.282024,0.307787,0.282024,0.252319,,,,,,
344120,0.08878,0.000308,-0.028861,0.0,0.0,0.0,0.087266,-0.0,-0.0,2.0,0.282024,0.302921,0.282024,0.258617,,,,,,
344140,0.088905,7.2e-05,-0.028971,-0.001064,0.0,0.0,0.087266,-0.0,-0.0,2.0,0.282024,0.307974,0.282024,0.25207,,,,,,
344160,0.088781,0.000197,-0.029099,-0.0,-0.00106,-9.4e-05,0.087266,-0.0,-0.0,2.0,0.282024,0.302982,0.282024,0.258541,,,,,,
344180,0.088781,0.000197,-0.029099,-0.001064,-0.000966,-0.001154,0.087266,-0.0,-0.0,2.0,0.282024,0.303023,0.282024,0.258489,,,,,,
344200,0.08866,0.000195,-0.029099,-0.0,9.4e-05,-0.00106,0.087266,-0.0,-0.0,2.0,0.282024,0.307825,0.282024,0.252268,,,,,,
344220,0.088538,0.000194,-0.0291,-0.001064,-0.00106,-9.4e-05,0.087266,-0.0,-0.0,2.0,0.282024,0.302834,0.282024,0.258726,,,,,,
344240,0.088414,0.000314,-0.029106,-0.0,9.4e-05,-0.00106,0.087266,-0.0,-0.0,2.0,0.282024,0.307633,0.282024,0.252524,,,,,,
344260,0.088292,0.000312,-0.029106,-0.001064,-0.00106,-9.4e-05,0.087266,-0.0,-0.0,2.0,0.282024,0.302632,0.282024,0.25898,,,,,,
344280,0.088414,0.000314,-0.029106,-0.0,-0.00106,-9.4e-05,0.087266,-0.0,-0.0,2.0,0.282024,0.307673,0.282024,0.252471,,,,,,
344300,0.088292,0.000317,-0.029228,0.0,0.0,0.0,0.087266,-0.0,-0.0,2.0,0.282024,0.30268,0.282024,0.258919,,,,,,
344320,0.088658,0.000328,-0.029349,-0.001064,-0.00106,-9.4e-05,0.087266,-0.0,-0.0,2.0,0.282024,0.307844,0.282024,0.252243,,,,,,
344340,0.088537,0.000204,-0.029344,0.0,0.0,0.0,0.087266,-0.0,-0.0,2.0,0.282024,0.307878,0.282024,0.252198,,,,,,
344360,0.088659,0.000206,-0.029343,-0.001064,0.0,0.0,0.087266,-0.0,-0.0,2.0,0.282024,0.308144,0.282024,0.251842,,,,,,
344380,0.088661,8.4e-05,-0.029338,-0.0,9.4e-05,-0.00106,0.087266,-0.0,-0.0,2.0,0.282024,0.303036,0.282024,0.258473,,,,,,
344400,0.088415,0.000203,-0.029344,-0.001064,-0.000966,-0.001154,0.087266,-0.0,-0.0,2.0,0.282024,0.302949,0.282024,0.258583,,,,,,
344420,0.088537,0.000204,-0.029344,-0.001064,-0.00106,-9.4e-05,0.087266,-0.0,-0.0,2.0,0.282024,0.307984,0.282024,0.252057,,,,,,
344440,0.08829,0.00045,-0.029477,-0.0,-0.00106,-9.4e-05,0.087266,-0.0,-0.0,2.0,0.282024,0.302864,0.282024,0.258689,,,,,,
344460,0.08829,0.00045,-0.029477,-0.001064,-0.00106,-9.4e-05,0.087266,-0.0,-0.0,2.0,0.282024,0.307787,0.282024,0.252319,,,,,,
344480,0.088168,0.000448,-0.029477,0.0,0.0,0.0,0.087266,-0.0,-0.0,2.0,0.282024,0.307685,0.282024,0.252456,,,,,,
344500,0.08829,0.000455,-0.029599,-0.001065,9.4e-05,-0.00106,0.087266,-0.0,-0.0,2.0,0.282024,0.302932,0.282024,0.258603,,,,,,
344520,0.08817,0.000337,-0.029716,0.0,0.0,0.0,0.087266,-0.0,-0.0,2.0,0.282024,0.307728,0.282024,0.252397,,,,,,
344540,0.088293,0.000217,-0.02971,-0.001064,0.0,0.0,0.087266,-0.0,-0.0,2.0,0.282024,0.302979,0.282024,0.258545,,,,,,
344560,0.088293,0.000222,-0.029832,0.0,0.0,0.0,0.087266,-0.0,-0.0,2.0,0.282024,0.307893,0.282024,0.252179,,,,,,
344580,0.088047,0.000341,-0.029838,-0.001064,-0.00106,-9.4e-05,0.087266,-0.0,-0.0,2.0,0.282024,0.302769,0.282024,0.258809,,,,,,
344600,0.088171,0.000226,-0.029954,-0.001064,-0.00106,-9.4e-05,0.087266,-0.0,-0.0,2.0,0.282024,0.307803,0.282024,0.252298,,,,,,
344620,0.087803,0.000348,-0.030083,-0.001064,0.0,0.0,0.087266,-0.0,-0.0,2.0,0.282024,0.302554,0.282024,0.259078,,,,,,
344640,0.087681,0.000346,-0.030083,-0.001064,-0.00106,-9.3e-05,0.087266,-0.0,-0.0,2.0,0.282024,0.302441,0.282024,0.259219,,,,,,
344660,0.087559,0.000349,-0.030205,0.0,0.0,0.0,0.087266,-0.0,-0.0,2.0,0.282024,0.30232,0.282024,0.25937,,,,,,
344680,0.087557,0.000477,-0.030332,-0.001065,9.3e-05,-0.00106,0.087266,-0.0,-0.0,2.0,0.282024,0.302329,0.282024,0.259359,,,,,,
344700,0.087561,0.000243,-0.030566,0.0,0.0,0.0,0.087266,-0.0,-0.0,2.0,0.282024,0.307247,0.282024,0.253038,,,,,,
344720,0.087437,0.000369,-0.030693,-0.001064,0.0,0.0,0.087266,-0.0,-0.0,2.0,0.282024,0.302217,0.282024,0.259498,,,,,,
344740,0.087561,0.000259,-0.030931,-0.001064,0.0,0.0,0.087266,-0.0,-0.0,2.0,0.282024,0.307133,0.282024,0.253188,,,,,,
344760,0.087317,0.000266,-0.031176,-0.0,-0.00106,-9.3e-05,0.087266,-0.0,-0.0,2.0,0.282024,0.302101,0.282024,0.259643,,,,,,
344780,0.087316,0.000272,-0.031298,-0.001064,-0.00106,-9.3e-05,0.087266,-0.0,-0.0,2.0,0.282024,0.30714,0.282024,0.253179,,,,,,
344800,0.087071,0.000395,-0.031426,-0.0,9.3e-05,-0.00106,0.087266,-0.0,-0.0,2.0,0.282024,0.301852,0.282024,0.259952,,,,,,
344820,0.086949,0.000398,-0.031548,-0.002128,-0.00106,-9.2e-05,0.087266,-0.0,-0.0,2.0,0.282024,0.301723,0.282024,0.260112,,,,,,
344840,0.086703,0.000522,-0.031676,-0.001064,0.0,0.0,0.087266,-0.0,-0.0,2.0,0.282024,0.306387,0.282024,0.254171,,,,,,
344860,0.086335,0.000643,-0.031804,-0.001064,-0.00106,-9.2e-05,0.087266,-0.0,-0.0,2.0,0.282024,0.301196,0.282024,0.260763,,,,,,
344880,0.086211,0.000774,-0.032054,-0.001064,-0.00106,-9.2e-05,0.087266,-0.0,-0.0,2.0,0.282024,0.305857,0.282024,0.254862,,,,,,
344900,0.085845,0.000773,-0.032177,-0.001064,0.0,0.0,0.087266,-0.0,-0.0,2.0,0.282024,0.300648,0.282024,0.261436,,,,,,
344920,0.085842,0.000911,-0.032548,-0.001064,-0.00106,-9.1e-05,0.087266,-0.0,-0.0,2.0,0.282024,0.305433,0.282024,0.255412,,,,,,
344940,0.085596,0.001039,-0.032797,0.0,0.0,0.0,0.087266,-0.0,-0.0,2.0,0.282024,0.300197,0.282024,0.261986,,,,,,
344960,0.085598,0.000933,-0.033158,-0.001064,-0.00106,-9.1e-05,0.087266,-0.0,-0.0,2.0,0.282024,0.300165,0.282024,0.262025,,,,,,
344980,0.085597,0.000943,-0.033402,0.0,0.0,0.0,0.087266,-0.0,-0.0,2.0,0.282024,0.300011,0.282024,0.262212,,,,,,
345000,0.085351,0.001077,-0.033773,-0.001064,-0.00106,-9.1e-05,0.087266,-0.0,-0.0,2.0,0.282024,0.299835,0.282024,0.262425,,,,,,
345020,0.085228,0.00109,-0.034139,-0.001064,-0.00106,-9.1e-05,0.087266,-0.0,-0.0,2.0,0.282024,0.304645,0.282024,0.256428,,,,,,
345040,0.084982,0.001219,-0.034389,-0.001064,-0.00106,-9e-05,0.087266,-0.0,-0.0,2.0,0.282024,0.299364,0.282024,0.262995,,,,,,
345060,0.084736,0.001352,-0.034761,-0.001064,-0.00106,-9e-05,0.087266,-0.0,-0.0,2.0,0.282024,0.299069,0.282024,0.26335,,,,,,
345080,0.084245,0.001476,-0.035011,-0.001064,-0.00106,-9e-05,0.087266,-0.0,-0.0,2.0,0.282024,0.298502,0.282024,0.264028,,,,,,
345100,0.084119,0.001728,-0.035265,-0.001064,-0.00106,-8.9e-05,0.087266,-0.0,-0.0,2.0,0.282024,0.298288,0.282024,0.264284,,,,,,
345120,0.083996,0.001741,-0.035631,-0.0,-0.00106,-8.9e-05,0.087266,-0.0,-0.0,2.0,0.282024,0.303095,0.282024,0.258398,,,,,,
345140,0.083874,0.001749,-0.035876,-0.001064,-0.00106,-8.9e-05,0.087266,-0.0,-0.0,2.0,0.282024,0.297899,0.282024,0.264746,,,,,,
345160,0.083871,0.001876,-0.036003,-0.001064,-0.00106,-8.9e-05,0.087266,-0.0,-0.0,2.0,0.282024,0.302967,0.282024,0.25856,,,,,,
345180,0.083869,0.002003,-0.03613,-2e-06,-0.000971,-0.00115,0.087266,-0.0,-0.0,2.0,0.282024,0.297756,0.282024,0.264915,,,,,,
345200,0.083866,0.002135,-0.036378,-0.001064,-0.00106,-8.9e-05,0.087266,-0.0,-0.0,2.0,0.282024,0.302697,0.282024,0.258898,,,,,,
345220,0.083869,0.002013,-0.036373,0.0,0.0,0.0,0.087266,-0.0,-0.0,2.0,0.282024,0.297481,0.282024,0.26524,,,,,,
345240,0.083869,0.002013,-0.036373,-0.0,-0.00106,-8.9e-05,0.087266,-0.0,-0.0,2.0,0.282024,0.297524,0.282024,0.265189,,,,,,
345260,0.083869,0.002008,-0.036251,-2e-06,8.9e-05,-0.00106,0.087266,-0.0,-0.0,2.0,0.282024,0.302468,0.282024,0.259185,,,,,,
345280,0.083871,0.001886,-0.036246,-0.001066,8.9e-05,-0.00106,0.087266,-0.0,-0.0,2.0,0.282024,0.302404,0.282024,0.259264,,,,,,
345300,0.083869,0.002013,-0.036373,-0.0,-0.00106,-8.9e-05,0.087266,-0.0,-0.0,2.0,0.282024,0.302335,0.282024,0.259351,,,,,,
345320,0.083993,0.001888,-0.036246,-0.0,-0.00106,-8.9e-05,0.087266,-0.0,-0.0,2.0,0.282024,0.302369,0.282024,0.259308,,,,,,
345340,0.083991,0.00201,-0.036251,-0.001064,-0.00106,-8.9e-05,0.087266,-0.0,-0.0,2.0,0.282024,0.302305,0.282024,0.259389,,,,,,
345360,0.083988,0.002132,-0.036256,-2e-06,-0.000971,-0.00115,0.087266,-0.0,-0.0,2.0,0.282024,0.29721,0.282024,0.265559,,,,,,
345380,0.08399,0.002015,-0.036373,-0.001066,8.9e-05,-0.00106,0.087266,-0.0,-0.0,2.0,0.282024,0.297148,0.282024,0.265632,,,,,,
