time_ms,roll,pitch,yaw,roll_rate,pitch_rate,yaw_rate,reference_roll,reference_pitch,reference_yaw,reference_throttle,throttle_1,throttle_2,throttle_3,throttle_4,roll_predicted,pitch_predicted,yaw_predicted,roll_rate_predicted,pitch_rate_predicted,yaw_rate_predicted
126270,-0.001582,-0.001105,-0.008303,0.024203,-0.002128,3e-06,-0.0,-0.0,-0.0,3.0,0.332036,0.320502,0.320014,0.331571,-0.0,-0.0,-0.0,0.0,0.0,-0.0
126290,-0.001827,-0.001106,-0.008303,-0.048891,-0.003193,6e-06,0.0,-0.0,-0.0,3.0,0.333453,0.322439,0.318515,0.329707,-0.0,-0.0,-0.0,0.0,0.0,-0.0
126310,-0.001704,-0.001106,-0.008425,0.000125,-0.003193,5e-06,0.0,-0.0,-0.0,3.0,0.336219,0.321145,0.315536,0.330956,-0.0,-0.0,-0.0,0.0,-0.0,-0.0
126330,-0.001582,-0.001227,-0.008425,0.073605,-0.002128,3e-06,0.0,-0.0,-0.0,3.0,0.339347,0.31629,0.312079,0.335525,-0.0,-0.0,-0.0,0.0,-0.0,-0.0
126350,-0.001705,-0.000984,-0.008425,0.024693,0.0,0.0,0.0,-0.0,-0.0,3.0,0.336077,0.31783,0.31569,0.334095,-0.0,-0.0,-0.0,0.0,0.0,-0.0
126370,-0.00195,-0.000863,-0.008547,-0.048602,0.001062,-0.001066,0.0,-0.0,-0.0,3.0,0.334151,0.320325,0.31777,0.33174,-0.0,-0.0,-0.0,0.0,0.0,-0.0
126390,-0.001951,-0.000619,-0.008547,-0.048915,0.001062,-0.001066,0.0,-0.0,-0.0,3.0,0.328804,0.320695,0.323366,0.331387,-0.0,-0.0,-0.0,0.0,-0.0,-0.0
126410,-0.001951,-0.000619,-0.008547,-0.024529,0.001062,-0.001066,0.0,-0.0,-0.0,3.0,0.329747,0.319835,0.322397,0.332206,-0.0,-0.0,-0.0,0.0,0.0,-0.0
126430,-0.001951,-0.000619,-0.008669,-0.024607,-2e-06,-0.001064,0.0,-0.0,-0.0,3.0,0.328755,0.322604,0.323416,0.329547,-0.0,-0.0,-0.0,0.0,-0.0,-0.0
126450,-0.001951,-0.000619,-0.008791,-0.024482,0.0,0.0,0.0,-0.0,-0.0,3.0,0.33143,0.324492,0.32065,0.327698,-0.0,-0.0,-0.0,0.0,-0.0,-0.0
126470,-0.001949,-0.000863,-0.008791,0.024318,-0.001064,2e-06,0.0,-0.0,-0.0,3.0,0.333477,0.322012,0.318489,0.33012,-0.0,-0.0,-0.0,0.0,0.0,-0.0
126490,-0.00195,-0.000741,-0.008913,0.073127,-0.001064,2e-06,0.0,-0.0,-0.0,3.0,0.332233,0.319637,0.319806,0.332394,-0.0,-0.0,-0.0,0.0,0.0,-0.0
126510,-0.002193,-0.000986,-0.008914,0.048919,-2e-06,-0.001064,0.0,-0.0,-0.0,3.0,0.335505,0.317468,0.316311,0.334432,-0.0,-0.0,-0.0,0.0,-0.0,-0.0
126530,-0.002438,-0.000865,-0.008914,0.024395,-0.001067,-0.001062,0.0,-0.0,-0.0,3.0,0.332915,0.316416,0.319086,0.335409,-0.0,-0.0,-0.0,0.0,-0.0,-0.0
126550,-0.002682,-0.000867,-0.009036,-2e-05,-0.002128,6e-06,0.0,-0.0,-0.0,3.0,0.33361,0.31455,0.318348,0.33712,-0.0,-0.0,-0.0,0.0,0.0,-0.0
126570,-0.002926,-0.000868,-0.009036,-0.04882,-0.002128,6e-06,0.0,-0.0,-0.0,3.0,0.33305,0.316196,0.318943,0.335612,0.0,-0.0,-0.0,0.0,-0.0,-0.0
126590,-0.002804,-0.000867,-0.008914,-0.048701,-0.001064,3e-06,0.0,-0.0,-0.0,3.0,0.334872,0.320381,0.316995,0.331686,0.0,-0.0,-0.0,0.0,0.0,-0.0
126610,-0.00256,-0.000744,-0.008913,-0.024296,-0.001067,-0.001061,0.0,-0.0,-0.0,3.0,0.334254,0.321707,0.31766,0.330414,0.0,-0.0,-0.0,0.0,0.0,-0.0
126630,-0.002438,-0.000743,-0.008791,0.024504,-3e-06,-0.001064,0.0,-0.0,-0.0,3.0,0.334008,0.320335,0.317924,0.33173,0.0,-0.0,-0.0,0.0,-0.0,-0.0
126650,-0.00256,-0.000744,-0.008791,-0.024285,0.001061,-0.001067,0.0,-0.0,-0.0,3.0,0.332974,0.322274,0.319024,0.329867,0.0,-0.0,-0.0,0.0,-0.0,-0.0
126670,-0.002439,-0.000621,-0.008791,-8.6e-05,0.001062,-0.001067,0.0,-0.0,-0.0,3.0,0.329868,0.322928,0.322272,0.329231,0.0,-0.0,-0.0,0.0,0.0,-0.0
126690,-0.002439,-0.000621,-0.008791,0.024081,-3e-06,-0.001064,0.0,-0.0,-0.0,3.0,0.327997,0.319682,0.324188,0.332352,0.0,-0.0,-0.0,0.0,-0.0,-0.0
126710,-0.002438,-0.000743,-0.008913,0.048582,-0.001067,-0.001062,0.0,-0.0,-0.0,3.0,0.3299,0.317469,0.322239,0.334432,0.0,-0.0,-0.0,0.0,0.0,-0.0
126730,-0.002438,-0.000743,-0.008791,0.048682,-0.001067,-0.001062,0.0,-0.0,-0.0,3.0,0.331694,0.317529,0.320374,0.334376,0.0,-0.0,-0.0,0.0,0.0,-0.0
126750,-0.00256,-0.000866,-0.008792,0.024395,-0.001067,-0.001061,0.0,-0.0,-0.0,3.0,0.334627,0.317845,0.31726,0.334081,0.0,-0.0,-0.0,0.0,0.0,-0.0
126770,-0.002438,-0.000743,-0.008791,0.024298,-0.001067,-0.001062,0.0,-0.0,-0.0,3.0,0.332417,0.319063,0.319612,0.332937,0.0,-0.0,-0.0,0.0,0.0,-0.0
126790,-0.002438,-0.000865,-0.008791,0.000107,-0.001064,3e-06,0.0,-0.0,-0.0,3.0,0.335102,0.319104,0.316747,0.332899,0.0,-0.0,-0.0,0.0,-0.0,-0.0
126810,-0.002315,-0.001109,-0.008792,0.000204,-0.001064,2e-06,0.0,-0.0,-0.0,3.0,0.336923,0.318542,0.314767,0.333428,0.0,-0.0,-0.0,0.0,0.0,-0.0
126830,-0.002193,-0.000986,-0.008914,0.000109,-0.001064,2e-06,0.0,-0.0,-0.0,3.0,0.334662,0.319471,0.317222,0.332552,0.0,-0.0,-0.0,0.0,-0.0,-0.0
126850,-0.002071,-0.000986,-0.008791,-0.024288,-0.001064,2e-06,0.0,-0.0,-0.0,3.0,0.335153,0.322242,0.316693,0.329897,0.0,-0.0,-0.0,0.0,-0.0,-0.0
126870,-0.001949,-0.000863,-0.008791,-0.024385,-0.001064,2e-06,0.0,-0.0,-0.0,3.0,0.332595,0.323144,0.319425,0.329021,0.0,-0.0,-0.0,0.0,0.0,-0.0
126890,-0.001705,-0.000862,-0.008791,0.024622,-2e-06,-0.001064,0.0,-0.0,-0.0,3.0,0.335128,0.321662,0.316719,0.330458,0.0,-0.0,-0.0,0.0,0.0,-0.0
126910,-0.001462,-0.000617,-0.008913,0.04882,0.001063,-0.001066,0.0,-0.0,-0.0,3.0,0.331123,0.321762,0.32097,0.330361,0.0,-0.0,-0.0,0.0,0.0,-0.0
126930,-0.001463,-0.000373,-0.008913,-0.000105,0.001063,-0.001066,0.0,-0.0,-0.0,3.0,0.329422,0.321959,0.322732,0.330171,0.0,-0.0,-0.0,0.0,0.0,-0.0
126950,-0.001463,-0.000495,-0.009035,-0.00022,0.001063,-0.001066,0.0,-0.0,-0.0,3.0,0.329452,0.319349,0.322701,0.332667,0.0,-0.0,-0.0,0.0,0.0,-0.0
126970,-0.001096,-0.000493,-0.009157,0.02406,-1e-06,-0.001064,0.0,-0.0,-0.0,3.0,0.328597,0.320408,0.323577,0.331661,0.0,-0.0,-0.0,-0.0,0.0,-0.0
126990,-0.001217,-0.00086,-0.009157,-0.024639,-0.001066,-0.001063,0.0,-0.0,-0.0,3.0,0.332468,0.319687,0.319559,0.332347,0.0,-0.0,-0.0,-0.0,0.0,-0.0
127010,-0.000972,-0.000981,-0.009279,-9e-05,-0.002128,2e-06,0.0,-0.0,-0.0,3.0,0.33424,0.32292,0.317674,0.329239,0.0,-0.0,-0.0,-0.0,0.0,-0.0
127030,-0.00085,-0.000981,-0.009279,0.000124,-0.003192,0.001067,0.0,-0.0,-0.0,3.0,0.336616,0.321684,0.315102,0.330436,0.0,-0.0,-0.0,-0.0,0.0,-0.0
127050,-0.000728,-0.00098,-0.009157,0.024637,-0.002128,0.001066,0.0,-0.0,-0.0,3.0,0.337172,0.321259,0.314493,0.330846,0.0,-0.0,-0.0,-0.0,0.0,-0.0
127070,-0.000729,-0.000736,-0.009157,0.00035,-0.001064,1e-06,0.0,-0.0,-0.0,3.0,0.33639,0.321849,0.31535,0.330277,0.0,-0.0,-0.0,-0.0,0.0,-0.0
127090,-0.00073,-0.000492,-0.009035,0.000217,0.001063,-0.001065,0.0,-0.0,-0.0,3.0,0.333877,0.320347,0.318063,0.331719,0.0,-0.0,-0.0,-0.0,0.0,-0.0
127110,-0.00073,-0.000492,-0.009035,0.02449,0.001063,-0.001065,0.0,-0.0,-0.0,3.0,0.332697,0.318051,0.319317,0.333888,0.0,-0.0,-0.0,-0.0,0.0,-0.0
127130,-0.00073,-0.000492,-0.009157,-0.024517,0.001063,-0.001065,0.0,-0.0,-0.0,3.0,0.330547,0.321643,0.321569,0.330476,0.0,-0.0,-0.0,-0.0,0.0,-0.0
127150,-0.00073,-0.000614,-0.009157,-0.048921,-1e-06,-0.001064,0.0,-0.0,-0.0,3.0,0.33137,0.323168,0.320712,0.328997,0.0,-0.0,-0.0,-0.0,0.0,-0.0
127170,-0.000608,-0.000613,-0.009279,-0.024611,-1e-06,-0.001064,0.0,-0.0,-0.0,3.0,0.330155,0.323591,0.321976,0.328584,0.0,-0.0,-0.0,-0.0,0.0,-0.0
127190,-0.000363,-0.000612,-0.009279,0.048697,-0.001064,0.0,0.0,-0.0,-0.0,3.0,0.331534,0.321444,0.320541,0.330668,0.0,-0.0,-0.0,-0.0,0.0,-0.0
127210,-0.000363,-0.000612,-0.009279,0.048697,-0.001064,0.0,0.0,-0.0,-0.0,3.0,0.332046,0.320639,0.320003,0.33144,0.0,-0.0,-0.0,-0.0,0.0,-0.0
127230,-0.000485,-0.000613,-0.009279,1e-05,-0.001064,1e-06,0.0,-0.0,-0.0,3.0,0.333759,0.321778,0.318189,0.330346,0.0,-0.0,-0.0,-0.0,0.0,-0.0
127250,-0.000363,-0.000612,-0.009401,8e-06,-0.002128,1e-06,0.0,-0.0,-0.0,3.0,0.33387,0.321533,0.318071,0.330582,0.0,-0.0,-0.0,-0.0,0.0,-0.0
127270,-0.000363,-0.000612,-0.009401,0.000111,-0.002128,1e-06,0.0,-0.0,-0.0,3.0,0.335535,0.319758,0.316279,0.332279,0.0,-0.0,-0.0,-0.0,0.0,-0.0
127290,-0.000241,-0.000734,-0.009401,0.000229,-0.002128,1e-06,0.0,-0.0,-0.0,3.0,0.336772,0.321505,0.314931,0.330609,0.0,-0.0,-0.0,-0.0,0.0,-0.0
127310,-0.00012,-0.000489,-0.009401,0.024614,-0.001064,0.0,0.0,-0.0,-0.0,3.0,0.334572,0.319513,0.317319,0.332512,0.0,-0.0,-0.0,-0.0,0.0,-0.0
127330,-0.000242,-0.000367,-0.009401,-0.024304,0.001064,-0.001064,0.0,-0.0,-0.0,3.0,0.333112,0.320802,0.318878,0.331284,0.0,-0.0,-0.0,-0.0,0.0,-0.0
127350,-0.000244,-0.000123,-0.009523,-0.048906,0.001064,-0.001064,0.0,-0.0,-0.0,3.0,0.32904,0.323919,0.323124,0.328262,0.0,-0.0,-0.0,-0.0,0.0,-0.0
127370,-0.000244,-0.000123,-0.009523,-0.024511,0.001064,-0.001064,0.0,-0.0,-0.0,3.0,0.329219,0.322165,0.32294,0.329972,0.0,-0.0,-0.0,-0.0,0.0,-0.0
127390,-0.000121,-0.000245,-0.009523,0.024046,0.001064,-0.001064,0.0,-0.0,-0.0,3.0,0.328276,0.320667,0.323905,0.331414,0.0,-0.0,-0.0,-0.0,0.0,-0.0
127410,1e-06,-0.000244,-0.009645,0.024175,-0.001064,-0.0,0.0,-0.0,-0.0,3.0,0.330109,0.322421,0.322023,0.329724,0.0,-0.0,-0.0,-0.0,0.0,-0.0
127430,-0.000119,-0.000611,-0.009645,-0.024483,-0.002128,0.0,0.0,-0.0,-0.0,3.0,0.334319,0.324589,0.31759,0.327602,0.0,-0.0,-0.0,-0.0,-0.0,-0.0
127450,2e-06,-0.000488,-0.009645,0.024315,-0.002128,-0.0,0.0,-0.0,-0.0,3.0,0.333198,0.323106,0.318786,0.329058,0.0,-0.0,-0.0,-0.0,0.0,-0.0
127470,3e-06,-0.00061,-0.009645,0.04904,-0.002128,-0.0,0.0,-0.0,-0.0,3.0,0.337162,0.319067,0.314504,0.332934,0.0,-0.0,-0.0,-0.0,-0.0,-0.0
127490,-0.000242,-0.000489,-0.009523,0.024733,-0.001064,0.0,0.0,-0.0,-0.0,3.0,0.336286,0.317004,0.315463,0.334864,0.0,-0.0,-0.0,-0.0,0.0,-0.0
127510,-0.000365,-0.000246,-0.009645,-0.02418,-0.001064,0.0,0.0,-0.0,-0.0,3.0,0.334387,0.319204,0.317517,0.332804,0.0,-0.0,-0.0,-0.0,-0.0,-0.0
127530,-0.000488,-0.000124,-0.009645,-0.04882,0.0,0.0,0.0,-0.0,-0.0,3.0,0.331269,0.319673,0.320818,0.33236,0.0,-0.0,-0.0,-0.0,-0.0,-0.0
127550,-0.000366,-2e-06,-0.009645,-0.048938,-0.0,-0.001064,0.0,-0.0,-0.0,3.0,0.329916,0.321359,0.322223,0.330749,0.0,-0.0,-0.0,-0.0,0.0,-0.0
127570,-0.000242,-0.000367,-0.009645,-0.048804,0.001064,-0.001064,0.0,-0.0,-0.0,3.0,0.333507,0.324186,0.318458,0.327999,0.0,-0.0,-0.0,-0.0,-0.0,-0.0
127590,1e-06,-0.000244,-0.009767,-0.024504,0.0,-0.001064,0.0,-0.0,-0.0,3.0,0.330672,0.325854,0.32144,0.326346,0.0,-0.0,-0.0,-0.0,0.0,-0.0
127610,2e-06,-0.000366,-0.009767,-9.9e-05,-0.001064,-0.0,0.0,-0.0,-0.0,3.0,0.332284,0.324025,0.319753,0.328157,0.0,-0.0,-0.0,-0.0,-0.0,-0.0
127630,0.000123,-0.000244,-0.009767,0.024306,-0.001064,-0.0,0.0,-0.0,-0.0,3.0,0.331009,0.324225,0.321089,0.32796,0.0,-0.0,-0.0,-0.0,0.0,-0.0
127650,1e-06,-0.000122,-0.009767,0.024415,0.0,-0.001064,0.0,-0.0,-0.0,3.0,0.332299,0.320859,0.319738,0.33123,0.0,-0.0,-0.0,-0.0,-0.0,-0.0
127670,1e-06,-0.000122,-0.009767,0.073203,0.0,-0.001064,0.0,-0.0,-0.0,3.0,0.332585,0.318018,0.319436,0.33392,0.0,-0.0,-0.0,-0.0,-0.0,-0.0
127690,-0.000244,-1e-06,-0.009889,-0.000141,-0.001064,0.0,0.0,-0.0,-0.0,3.0,0.331058,0.318051,0.321038,0.333888,0.0,-0.0,-0.0,-0.0,-0.0,-0.0
127710,-0.000364,-0.000368,-0.010011,-0.02429,-0.002128,1e-06,0.0,-0.0,-0.0,3.0,0.336071,0.319069,0.315697,0.332932,0.0,-0.0,-0.0,-0.0,-0.0,-0.0
127730,-0.000242,-0.000367,-0.010011,-0.02428,-0.002128,1e-06,0.0,-0.0,-0.0,3.0,0.335535,0.321655,0.31628,0.330465,0.0,-0.0,-0.0,-0.0,0.0,-0.0
127750,-0.00012,-0.000367,-0.010011,0.000234,-0.001064,0.0,0.0,-0.0,-0.0,3.0,0.335702,0.321036,0.316098,0.33106,0.0,-0.0,-0.0,-0.0,-0.0,-0.0
127770,-0.000121,-0.000123,-0.010011,0.000112,0.0,0.0,0.0,-0.0,-0.0,3.0,0.332809,0.321196,0.319199,0.330907,0.0,-0.0,-0.0,-0.0,-0.0,-0.0
127790,-1e-06,0.000122,-0.010011,1e-05,-0.0,-0.001064,0.0,-0.0,-0.0,3.0,0.330534,0.323484,0.321583,0.328688,0.0,-0.0,-0.0,-0.0,-0.0,-0.0
127810,-1e-06,0.000244,-0.010011,-0.000102,0.001064,-0.001064,0.0,-0.0,-0.0,3.0,0.329242,0.323622,0.322917,0.328553,0.0,-0.0,-0.0,-0.0,-0.0,-0.0
127830,-0.000124,0.000366,-0.010011,-0.000109,0.001064,-0.001064,0.0,-0.0,-0.0,3.0,0.329271,0.321782,0.322887,0.330342,0.0,-0.0,-0.0,-0.0,0.0,-0.0
127850,-0.000123,0.000244,-0.010011,0.024283,-0.0,-0.001064,0.0,-0.0,-0.0,3.0,0.331065,0.320381,0.32103,0.331687,0.0,-0.0,-0.0,-0.0,-0.0,-0.0
127870,-0.000122,-1e-06,-0.010011,0.024405,-0.0,-0.001064,0.0,-0.0,-0.0,3.0,0.333265,0.320513,0.318715,0.33156,0.0,-0.0,-0.0,-0.0,-0.0,-0.0
127890,-0.000243,-0.000245,-0.010133,0.024395,-0.001064,-0.001064,0.0,-0.0,-0.0,3.0,0.334646,0.31866,0.317239,0.333317,0.0,-0.0,-0.0,-0.0,-0.0,-0.0
127910,-0.000365,-0.000246,-0.010133,-0.000124,-0.001065,-0.001064,0.0,-0.0,-0.0,3.0,0.332443,0.320623,0.319585,0.331455,0.0,-0.0,-0.0,-0.0,-0.0,-0.0
127930,-0.000365,-0.000246,-0.010133,-0.024271,-0.001064,0.0,0.0,-0.0,-0.0,3.0,0.333973,0.321821,0.31796,0.330305,0.0,-0.0,-0.0,-0.0,-0.0,-0.0
127950,-0.000365,-0.000246,-0.010133,0.000113,-0.001064,0.0,0.0,-0.0,-0.0,3.0,0.334274,0.319493,0.317639,0.33253,0.0,-0.0,-0.0,-0.0,-0.0,-0.0
127970,-0.000244,-1e-06,-0.010133,0.024384,-0.001064,0.0,0.0,-0.0,-0.0,3.0,0.332198,0.319237,0.319844,0.332772,0.0,-0.0,-0.0,-0.0,-0.0,-0.0
127990,-0.000488,-3e-06,-0.010255,-0.048676,-0.001064,1e-06,0.0,-0.0,-0.0,3.0,0.334589,0.3227,0.3173,0.329453,0.0,-0.0,-0.0,-0.0,-0.0,-0.0
128010,-0.000488,-3e-06,-0.010255,-0.048666,0.0,0.0,0.0,-0.0,-0.0,3.0,0.333906,0.323998,0.318032,0.328184,0.0,-0.0,-0.0,-0.0,-0.0,-0.0
128030,-0.000366,-0.000124,-0.010255,0.024655,0.001064,-0.001065,0.0,-0.0,-0.0,3.0,0.3354,0.320276,0.316425,0.331786,0.0,-0.0,-0.0,-0.0,-0.0,-0.0
128050,-0.000487,-0.000247,-0.010255,0.048925,0.001064,-0.001065,0.0,-0.0,-0.0,3.0,0.333736,0.318372,0.318214,0.333587,0.0,-0.0,-0.0,-0.0,-0.0,-0.0
128070,-0.000854,-0.000126,-0.010255,-1.2e-05,0.001063,-0.001065,0.0,-0.0,-0.0,3.0,0.330826,0.318113,0.32128,0.33383,0.0,-0.0,-0.0,-0.0,-0.0,-0.0
128090,-0.000976,-0.000127,-0.010255,-0.02466,-1e-06,-0.001064,0.0,-0.0,-0.0,3.0,0.328972,0.319774,0.323193,0.332264,0.0,-0.0,-0.0,-0.0,-0.0,-0.0
128110,-0.000978,0.000239,-0.010255,-0.00064,-0.001065,-0.001063,0.0,-0.0,-0.0,3.0,0.324247,0.318783,0.327939,0.333201,0.0,-0.0,-0.0,-0.0,-0.0,-0.0
128130,-0.001099,-6e-06,-0.010377,-0.024668,-0.002128,2e-06,0.0,-0.0,-0.0,3.0,0.331214,0.319275,0.320875,0.332737,0.0,-0.0,-0.0,-0.0,-0.0,-0.0
128150,-0.000976,-0.000127,-0.010378,-0.000123,-0.002128,2e-06,0.0,-0.0,-0.0,3.0,0.333391,0.320956,0.318581,0.331136,0.0,-0.0,-0.0,-0.0,-0.0,-0.0
128170,-0.000975,-0.000249,-0.010378,-0.024151,-0.002127,0.001066,0.0,-0.0,-0.0,3.0,0.337748,0.321257,0.313858,0.330848,0.0,-0.0,-0.0,-0.0,-0.0,-0.0
128190,-0.000975,-0.000371,-0.010378,0.00038,-0.002127,0.001066,0.0,-0.0,-0.0,3.0,0.338519,0.320163,0.313004,0.331894,0.0,-0.0,-0.0,-0.0,-0.0,-0.0
128210,-0.000853,-0.000371,-0.010378,0.000515,-0.001064,1e-06,0.0,-0.0,-0.0,3.0,0.33876,0.321715,0.312735,0.330407,0.0,-0.0,-0.0,-0.0,-0.0,-0.0
128230,-0.000975,-0.000249,-0.010256,0.000367,-1e-06,-0.001064,0.0,-0.0,-0.0,3.0,0.335405,0.318597,0.31642,0.333376,0.0,-0.0,-0.0,-0.0,0.0,-0.0
128250,-0.000976,-0.000127,-0.010255,0.000104,0.001063,-0.001065,0.0,-0.0,-0.0,3.0,0.331984,0.318401,0.320069,0.33356,0.0,-0.0,-0.0,-0.0,0.0,-0.0
128270,-0.001099,-6e-06,-0.010255,-0.048937,-1e-06,-0.001064,0.0,-0.0,-0.0,3.0,0.32937,0.320908,0.322785,0.331183,0.0,-0.0,-0.0,-0.0,0.0,-0.0
128290,-0.000977,0.000117,-0.010255,-0.073436,0.001063,-0.001065,0.0,-0.0,-0.0,3.0,0.328042,0.325505,0.324143,0.326694,0.0,-0.0,-0.0,-0.0,0.0,-0.0
128310,-0.000855,-4e-06,-0.010255,1e-05,0.001063,-0.001065,0.0,-0.0,-0.0,3.0,0.332057,0.321793,0.319992,0.330332,0.0,-0.0,-0.0,-0.0,0.0,-0.0
128330,-0.00061,-3e-06,-0.010378,0.072961,0.0,0.0,0.0,-0.0,-0.0,3.0,0.329974,0.320695,0.322163,0.331386,0.0,-0.0,-0.0,-0.0,0.0,-0.0
128350,-0.000732,-0.000126,-0.010378,0.024417,0.0,0.0,0.0,-0.0,-0.0,3.0,0.3329,0.321574,0.319102,0.330543,0.0,-0.0,-0.0,-0.0,-0.0,-0.0
128370,-0.000853,-0.000371,-0.010378,0.024289,-0.001064,1e-06,0.0,-0.0,-0.0,3.0,0.333506,0.319786,0.318459,0.332252,0.0,-0.0,-0.0,-0.0,0.0,-0.0
128390,-0.000853,-0.000371,-0.010378,0.024278,-0.002128,2e-06,0.0,-0.0,-0.0,3.0,0.332287,0.31922,0.31975,0.332789,0.0,-0.0,-0.0,-0.0,0.0,-0.0
128410,-0.000975,-0.000371,-0.010378,-2e-05,-0.002128,2e-06,0.0,-0.0,-0.0,3.0,0.334095,0.317296,0.31783,0.334593,0.0,-0.0,-0.0,-0.0,0.0,-0.0
128430,-0.000974,-0.000493,-0.010378,0.000246,-0.002128,2e-06,0.0,-0.0,-0.0,3.0,0.336783,0.318715,0.314919,0.333265,0.0,-0.0,-0.0,-0.0,-0.0,-0.0
128450,-0.000975,-0.000249,-0.010378,-0.024026,-0.001064,1e-06,0.0,-0.0,-0.0,3.0,0.336324,0.320531,0.315422,0.331544,0.0,-0.0,-0.0,-0.0,-0.0,-0.0
128470,-0.000976,-0.000127,-0.010255,-0.024165,-1e-06,-0.001064,0.0,-0.0,-0.0,3.0,0.334555,0.31998,0.317337,0.332068,0.0,-0.0,-0.0,-0.0,-0.0,-0.0
128490,-0.000977,-5e-06,-0.010255,-0.04881,0.001063,-0.001065,0.0,-0.0,-0.0,3.0,0.330809,0.321682,0.321297,0.330439,0.0,-0.0,-0.0,-0.0,0.0,-0.0
128510,-0.000854,-0.000126,-0.010255,-0.024396,0.002128,-0.001066,0.0,-0.0,-0.0,3.0,0.331311,0.322116,0.320774,0.33002,0.0,-0.0,-0.0,-0.0,0.0,-0.0
128530,-0.000731,-0.000248,-0.010378,-0.000243,0.001063,-0.001065,0.0,-0.0,-0.0,3.0,0.329129,0.322471,0.323033,0.329675,0.0,-0.0,-0.0,-0.0,0.0,-0.0
128550,-0.000731,-0.000248,-0.010378,-0.00037,-1e-06,-0.001064,0.0,-0.0,-0.0,3.0,0.328144,0.322268,0.324039,0.329872,0.0,-0.0,-0.0,-0.0,0.0,-0.0
128570,-0.000853,-0.000371,-0.010378,-0.000233,-0.002128,2e-06,0.0,-0.0,-0.0,3.0,0.330938,0.322142,0.321163,0.329994,0.0,-0.0,-0.0,-0.0,-0.0,-0.0
128590,-0.000609,-0.000247,-0.010378,0.048704,-0.002128,1e-06,0.0,-0.0,-0.0,3.0,0.331815,0.322353,0.320246,0.32979,0.0,-0.0,-0.0,-0.0,-0.0,-0.0
128610,-0.000609,-0.000247,-0.010378,0.097746,-0.001065,-0.001064,0.0,-0.0,-0.0,3.0,0.335189,0.318404,0.316654,0.333558,0.0,-0.0,-0.0,-0.0,0.0,-0.0
128630,-0.000731,-0.000248,-0.010378,0.073194,-0.001065,-0.001063,0.0,-0.0,-0.0,3.0,0.333348,0.316254,0.318627,0.335559,0.0,-0.0,-0.0,-0.0,-0.0,-0.0
128650,-0.000853,-0.000249,-0.010378,0.000106,-0.001064,1e-06,0.0,-0.0,-0.0,3.0,0.334086,0.317106,0.317839,0.33477,0.0,-0.0,-0.0,-0.0,-0.0,-0.0
128670,-0.000852,-0.000493,-0.010378,-0.04882,-0.001064,1e-06,0.0,-0.0,-0.0,3.0,0.334157,0.319169,0.317764,0.332837,0.0,-0.0,-0.0,-0.0,0.0,-0.0
128690,-0.000608,-0.000369,-0.010378,-0.024552,-0.001064,1e-06,0.0,-0.0,-0.0,3.0,0.331327,0.319512,0.320757,0.332513,0.0,-0.0,-0.0,-0.0,0.0,-0.0
128710,-0.000364,-0.000368,-0.010378,-0.024415,-0.001064,0.0,0.0,-0.0,-0.0,3.0,0.332823,0.321713,0.319183,0.330409,0.0,-0.0,-0.0,-0.0,-0.0,-0.0
128730,-0.000244,-0.000123,-0.010378,-0.024395,-0.001064,-0.001064,0.0,-0.0,-0.0,3.0,0.33207,0.323672,0.319978,0.328504,0.0,-0.0,-0.0,-0.0,-0.0,-0.0
128750,1e-06,-0.000122,-0.010378,0.000147,0.0,-0.001064,0.0,-0.0,-0.0,3.0,0.334102,0.324877,0.317822,0.327317,0.0,-0.0,-0.0,-0.0,-0.0,-0.0
128770,-1e-06,0.000122,-0.010255,3.2e-05,0.001064,-0.001064,0.0,-0.0,-0.0,3.0,0.331307,0.324709,0.320778,0.327483,0.0,-0.0,-0.0,-0.0,-0.0,-0.0
128790,0.0,0.0,-0.010255,0.024425,0.001064,-0.001064,0.0,-0.0,-0.0,3.0,0.332296,0.322548,0.31974,0.3296,0.0,-0.0,-0.0,-0.0,-0.0,-0.0
128810,1e-06,-0.000122,-0.010378,0.073078,0.0,-0.001064,0.0,-0.0,-0.0,3.0,0.331204,0.317814,0.320885,0.33411,0.0,-0.0,-0.0,-0.0,-0.0,-0.0
128830,-0.000121,-0.000123,-0.010378,0.024131,-0.001064,0.0,0.0,-0.0,-0.0,3.0,0.32989,0.317846,0.32225,0.33408,0.0,-0.0,-0.0,-0.0,-0.0,-0.0
128850,-0.000364,-0.000368,-0.0105,-0.049058,-0.002128,1e-06,0.0,-0.0,-0.0,3.0,0.331937,0.320284,0.320118,0.331779,0.0,-0.0,-0.0,-0.0,-0.0,-0.0
128870,-0.000243,-0.000245,-0.0105,-0.048923,-0.002128,1e-06,0.0,-0.0,-0.0,3.0,0.332145,0.322509,0.3199,0.329639,0.0,-0.0,-0.0,-0.0,-0.0,-0.0
128890,-0.000242,-0.000367,-0.010378,0.00036,-0.002128,1e-06,0.0,-0.0,-0.0,3.0,0.337833,0.318252,0.313764,0.3337,0.0,-0.0,-0.0,-0.0,-0.0,-0.0
128910,-0.000121,-0.000123,-0.010378,0.024521,-0.001064,0.0,0.0,-0.0,-0.0,3.0,0.33405,0.320295,0.317878,0.331769,0.0,-0.0,-0.0,-0.0,-0.0,-0.0
128930,-0.000244,-1e-06,-0.010378,-0.024142,0.0,0.0,0.0,-0.0,-0.0,3.0,0.33435,0.322245,0.317557,0.329894,0.0,-0.0,-0.0,-0.0,-0.0,-0.0
128950,-0.000366,-0.000124,-0.010255,-0.02428,0.001064,-0.001065,0.0,-0.0,-0.0,3.0,0.333661,0.320525,0.318294,0.331549,0.0,-0.0,-0.0,-0.0,-0.0,-0.0
128970,-0.000121,-0.000123,-0.010378,0.024405,0.001064,-0.001064,0.0,-0.0,-0.0,3.0,0.33193,0.321087,0.320126,0.33101,0.0,-0.0,-0.0,-0.0,0.0,-0.0
128990,-0.000121,-0.000245,-0.010378,1e-05,-0.0,-0.001064,0.0,-0.0,-0.0,3.0,0.332565,0.322418,0.319457,0.329726,0.0,-0.0,-0.0,-0.0,0.0,-0.0
129010,-0.000244,-0.000123,-0.010378,-0.000127,-0.0,-0.001064,0.0,-0.0,-0.0,3.0,0.330194,0.320416,0.321935,0.331653,0.0,-0.0,-0.0,-0.0,0.0,-0.0
129030,-0.000122,-1e-06,-0.010378,0.024278,-0.0,-0.001064,0.0,-0.0,-0.0,3.0,0.330353,0.320851,0.321771,0.331237,0.0,-0.0,-0.0,-0.0,0.0,-0.0
129050,-0.000244,-1e-06,-0.010378,-0.000253,-0.0,-0.001064,0.0,-0.0,-0.0,3.0,0.329751,0.320546,0.322393,0.331529,0.0,-0.0,-0.0,-0.0,-0.0,-0.0
129070,-0.000244,-1e-06,-0.010378,-0.000118,-0.0,-0.001064,0.0,-0.0,-0.0,3.0,0.331181,0.321184,0.32091,0.330918,0.0,-0.0,-0.0,-0.0,-0.0,-0.0
129090,-0.000243,-0.000245,-0.0105,0.024267,-0.001064,0.0,0.0,-0.0,-0.0,3.0,0.332741,0.318606,0.31927,0.333368,0.0,-0.0,-0.0,-0.0,-0.0,-0.0
129110,-0.000242,-0.000368,-0.0105,-6e-06,-0.001064,0.0,0.0,-0.0,-0.0,3.0,0.333979,0.319976,0.317954,0.332072,0.0,-0.0,-0.0,-0.0,-0.0,-0.0
129130,-0.000363,-0.000612,-0.0105,-0.024271,-0.002128,1e-06,0.0,-0.0,-0.0,3.0,0.336745,0.320612,0.314961,0.331466,0.0,-0.0,-0.0,-0.0,-0.0,-0.0
129150,-0.000242,-0.00049,-0.010378,-0.024253,-0.002128,1e-06,0.0,-0.0,-0.0,3.0,0.334942,0.323575,0.31692,0.328599,0.0,-0.0,-0.0,-0.0,-0.0,-0.0
129170,-0.000242,-0.000367,-0.010255,0.02477,0.0,0.0,0.0,-0.0,-0.0,3.0,0.336575,0.318937,0.315148,0.333056,0.0,-0.0,-0.0,-0.0,-0.0,-0.0
129190,-0.000243,-0.000245,-0.010255,0.04905,0.001064,-0.001064,0.0,-0.0,-0.0,3.0,0.3341,0.318633,0.317825,0.333342,0.0,-0.0,-0.0,-0.0,-0.0,-0.0
129210,-0.000367,0.00012,-0.010255,-0.024393,0.001064,-0.001065,0.0,-0.0,-0.0,3.0,0.329885,0.321775,0.322255,0.330349,0.0,-0.0,-0.0,-0.0,-0.0,-0.0
129230,-0.000366,-2e-06,-0.010255,-0.024658,0.001064,-0.001065,0.0,-0.0,-0.0,3.0,0.328911,0.320474,0.323257,0.331598,0.0,-0.0,-0.0,-0.0,-0.0,-0.0
129250,-0.000366,-2e-06,-0.010378,-0.000523,-0.0,-0.001064,0.0,-0.0,-0.0,3.0,0.326291,0.31908,0.32591,0.332921,0.0,-0.0,-0.0,-0.0,-0.0,-0.0
129270,-0.000364,-0.000368,-0.0105,-0.000266,-0.001065,-0.001064,0.0,-0.0,-0.0,3.0,0.331535,0.319667,0.32054,0.332365,0.0,-0.0,-0.0,-0.0,-0.0,-0.0
129290,-0.000486,-0.000369,-0.0105,-0.024651,-0.002128,1e-06,0.0,-0.0,-0.0,3.0,0.331846,0.321336,0.320213,0.330771,0.0,-0.0,-0.0,-0.0,-0.0,-0.0
129310,-0.000364,-0.00049,-0.0105,0.024411,-0.003193,1e-06,0.0,-0.0,-0.0,3.0,0.335278,0.320904,0.316558,0.331186,0.0,-0.0,-0.0,-0.0,-0.0,-0.0
129330,-0.000486,-0.000491,-0.0105,0.000133,-0.002128,1e-06,0.0,-0.0,-0.0,3.0,0.33632,0.319867,0.315426,0.332175,0.0,-0.0,-0.0,-0.0,-0.0,-0.0
129350,-0.000486,-0.000369,-0.010378,-0.024004,-0.001064,1e-06,0.0,-0.0,-0.0,3.0,0.337304,0.322182,0.314348,0.329955,0.0,-0.0,-0.0,-0.0,0.0,-0.0
129370,-0.000364,-0.000368,-0.010378,0.024775,0.0,0.0,0.0,-0.0,-0.0,3.0,0.33716,0.31872,0.314506,0.333261,0.0,-0.0,-0.0,-0.0,0.0,-0.0
129390,-0.000243,-0.000245,-0.010378,0.024509,-0.0,-0.001064,0.0,-0.0,-0.0,3.0,0.333544,0.319047,0.318418,0.332952,0.0,-0.0,-0.0,-0.0,0.0,-0.0
129410,-0.000609,-0.000247,-0.0105,-0.073225,-1e-06,-0.001064,0.0,-0.0,-0.0,3.0,0.332736,0.320038,0.319276,0.332013,0.0,-0.0,-0.0,-0.0,0.0,-0.0
129430,-0.000487,-0.000247,-0.0105,-0.073197,-1e-06,-0.001064,0.0,-0.0,-0.0,3.0,0.331632,0.324561,0.320438,0.327629,0.0,-0.0,-0.0,-0.0,0.0,-0.0
129450,-0.000366,-0.000124,-0.0105,-0.024396,-0.0,-0.001064,0.0,-0.0,-0.0,3.0,0.33186,0.32279,0.320199,0.329365,0.0,-0.0,-0.0,-0.0,0.0,-0.0
129470,-0.000366,-0.000124,-0.010622,0.024275,0.0,0.0,0.0,-0.0,-0.0,3.0,0.330826,0.320496,0.321279,0.331577,0.0,-0.0,-0.0,-0.0,0.0,-0.0
129490,-0.000367,0.00012,-0.010622,0.024285,0.0,0.0,0.0,-0.0,-0.0,3.0,0.329488,0.321642,0.322664,0.330477,0.0,-0.0,-0.0,-0.0,0.0,-0.0
129510,-0.000488,-3e-06,-0.010622,0.024156,0.0,0.0,0.0,-0.0,-0.0,3.0,0.330585,0.320314,0.32153,0.331751,0.0,-0.0,-0.0,-0.0,0.0,-0.0
129530,-0.000487,-0.000247,-0.010622,0.024286,-0.001064,1e-06,0.0,-0.0,-0.0,3.0,0.333162,0.320677,0.318824,0.331403,0.0,-0.0,-0.0,-0.0,0.0,-0.0
129550,-0.000608,-0.000492,-0.010622,0.024395,-0.002128,1e-06,0.0,-0.0,-0.0,3.0,0.335396,0.317945,0.31643,0.333987,0.0,-0.0,-0.0,-0.0,0.0,-0.0
129570,-0.000607,-0.000614,-0.010622,0.024654,-0.002128,1e-06,0.0,-0.0,-0.0,3.0,0.337067,0.318198,0.314609,0.33375,0.0,-0.0,-0.0,-0.0,0.0,-0.0
129590,-0.000608,-0.000492,-0.010622,0.024775,-0.002128,1e-06,0.0,-0.0,-0.0,3.0,0.33706,0.31775,0.314615,0.33417,0.0,-0.0,-0.0,-0.0,0.0,-0.0
129610,-0.000731,-0.000248,-0.010622,-0.024156,-0.001064,1e-06,0.0,-0.0,-0.0,3.0,0.334605,0.319798,0.317283,0.332241,0.0,-0.0,-0.0,-0.0,0.0,-0.0
129630,-0.000734,0.00024,-0.010622,-0.0488,0.001063,-0.001065,0.0,-0.0,-0.0,3.0,0.329437,0.322092,0.322717,0.330043,0.0,-0.0,-0.0,-0.0,0.0,-0.0
129650,-0.000734,0.00024,-0.010622,-0.024405,0.001063,-0.001065,0.0,-0.0,-0.0,3.0,0.330816,0.320282,0.32129,0.331781,0.0,-0.0,-0.0,-0.0,0.0,-0.0
129670,-0.000611,0.000119,-0.010622,0.024265,0.001064,-0.001065,0.0,-0.0,-0.0,3.0,0.330365,0.320071,0.321758,0.331982,0.0,-0.0,-0.0,-0.0,0.0,-0.0
129690,-0.000732,-4e-06,-0.010744,-0.024526,-1e-06,-0.001064,0.0,-0.0,-0.0,3.0,0.331294,0.32212,0.320792,0.330016,0.0,-0.0,-0.0,-0.0,0.0,-0.0
129710,-0.00073,-0.00037,-0.010744,-0.024495,-0.001064,1e-06,0.0,-0.0,-0.0,3.0,0.333335,0.324857,0.318641,0.327337,0.0,-0.0,-0.0,-0.0,0.0,-0.0
129730,-0.000487,-0.000247,-0.010866,0.073097,-0.001064,1e-06,0.0,-0.0,-0.0,3.0,0.332062,0.320465,0.319987,0.331606,0.0,-0.0,-0.0,-0.0,0.0,-0.0
129750,-0.000609,-0.000247,-0.010866,0.073204,-0.001065,-0.001064,0.0,-0.0,-0.0,3.0,0.333456,0.317404,0.318512,0.334493,0.0,-0.0,-0.0,-0.0,0.0,-0.0
129770,-0.000855,-5e-06,-0.010866,0.048789,-0.001065,-0.001063,0.0,-0.0,-0.0,3.0,0.331673,0.315621,0.320395,0.336141,0.0,-0.0,-0.0,-0.0,0.0,-0.0
129790,-0.001099,0.000116,-0.010866,-0.024415,-0.001065,-0.001063,0.0,-0.0,-0.0,3.0,0.332322,0.317295,0.319713,0.334594,0.0,-0.0,-0.0,-0.0,-0.0,-0.0
129810,-0.001099,0.000116,-0.010866,-0.024557,-0.001064,1e-06,0.0,-0.0,-0.0,3.0,0.331743,0.316753,0.320322,0.335097,0.0,-0.0,-0.0,-0.0,0.0,-0.0
129830,-0.001098,-0.000128,-0.010866,-0.048818,-0.001064,1e-06,0.0,-0.0,-0.0,3.0,0.334007,0.31937,0.317924,0.332647,0.0,-0.0,-0.0,-0.0,-0.0,-0.0
129850,-0.000975,-0.000372,-0.010866,-0.048677,-0.001064,1e-06,0.0,-0.0,-0.0,3.0,0.335788,0.322044,0.316005,0.330089,0.0,-0.0,-0.0,-0.0,-0.0,-0.0
129870,-0.000854,-0.000127,-0.010866,-0.024272,-0.001064,1e-06,0.0,-0.0,-0.0,3.0,0.333804,0.321852,0.318141,0.330274,0.0,-0.0,-0.0,-0.0,-0.0,-0.0
129890,-0.000731,-0.000248,-0.010744,0.024546,0.0,0.0,0.0,-0.0,-0.0,3.0,0.33482,0.321732,0.317052,0.33039,0.0,-0.0,-0.0,-0.0,-0.0,-0.0
129910,-0.000855,0.000117,-0.010744,2.2e-05,0.001063,-0.001065,0.0,-0.0,-0.0,3.0,0.330815,0.322004,0.321291,0.330128,0.0,-0.0,-0.0,-0.0,-0.0,-0.0
129930,-0.000977,0.000117,-0.010744,0.000144,0.001063,-0.001065,0.0,-0.0,-0.0,3.0,0.332053,0.319935,0.319996,0.332111,0.0,-0.0,-0.0,-0.0,0.0,-0.0
129950,-0.000978,0.000239,-0.010866,0.073061,0.001063,-0.001065,0.0,-0.0,-0.0,3.0,0.329278,0.315379,0.32288,0.336363,0.0,-0.0,-0.0,-0.0,-0.0,-0.0
129970,-0.001222,0.000238,-0.010866,0.024109,-0.001064,1e-06,0.0,-0.0,-0.0,3.0,0.329762,0.315095,0.322381,0.336622,0.0,-0.0,-0.0,-0.0,0.0,-0.0
129990,-0.001342,-0.000129,-0.010988,-0.024668,-0.001064,1e-06,0.0,-0.0,-0.0,3.0,0.332643,0.31899,0.319374,0.333006,0.0,-0.0,-0.0,-0.0,0.0,-0.0
130010,-0.001219,-0.000251,-0.010988,3e-06,-0.002128,3e-06,0.0,-0.0,-0.0,3.0,0.334971,0.31933,0.316889,0.332685,0.0,-0.0,-0.0,-0.0,-0.0,-0.0
130030,-0.001097,-0.000372,-0.010988,0.024522,-0.002128,2e-06,0.0,-0.0,-0.0,3.0,0.336035,0.3179,0.315736,0.33403,0.0,-0.0,-0.0,-0.0,-0.0,-0.0
130050,-0.001098,-0.000128,-0.010988,0.000257,-0.002128,2e-06,0.0,-0.0,-0.0,3.0,0.335063,0.318868,0.316789,0.333121,0.0,-0.0,-0.0,-0.0,-0.0,-0.0
130070,-0.001099,-6e-06,-0.010988,-0.024272,-0.001064,1e-06,0.0,-0.0,-0.0,3.0,0.333879,0.320025,0.31806,0.332025,0.0,-0.0,-0.0,-0.0,0.0,-0.0
130090,-0.001099,0.000116,-0.010988,0.000121,0.0,0.0,0.0,-0.0,-0.0,3.0,0.333074,0.318539,0.318918,0.33343,0.0,-0.0,-0.0,-0.0,0.0,-0.0
130110,-0.001221,0.000115,-0.010988,-0.024281,0.0,0.0,0.0,-0.0,-0.0,3.0,0.333661,0.318548,0.318293,0.333422,0.0,-0.0,-0.0,-0.0,0.0,-0.0
130130,-0.001098,-0.000128,-0.010988,0.000134,-1e-06,-0.001064,0.0,-0.0,-0.0,3.0,0.334522,0.320208,0.317372,0.331851,0.0,-0.0,-0.0,-0.0,-0.0,-0.0
130150,-0.000977,-5e-06,-0.010988,0.000144,0.001063,-0.001065,0.0,-0.0,-0.0,3.0,0.332793,0.321481,0.319216,0.330632,0.0,-0.0,-0.0,-0.0,-0.0,-0.0
130170,-0.000977,-5e-06,-0.010988,-0.000126,-1e-06,-0.001064,0.0,-0.0,-0.0,3.0,0.330813,0.321124,0.321293,0.330975,0.0,-0.0,-0.0,-0.0,0.0,-0.0
130190,-0.000978,0.000239,-0.010988,-0.000258,-1e-06,-0.001064,0.0,-0.0,-0.0,3.0,0.327937,0.321079,0.32425,0.331019,0.0,-0.0,-0.0,-0.0,0.0,-0.0
130210,-0.000977,0.000117,-0.010988,-0.000124,-1e-06,-0.001064,0.0,-0.0,-0.0,3.0,0.330627,0.320203,0.321487,0.331856,0.0,-0.0,-0.0,-0.0,-0.0,-0.0
130230,-0.000977,0.000117,-0.010988,0.048521,-0.001065,-0.001063,0.0,-0.0,-0.0,3.0,0.330569,0.31618,0.321547,0.335627,0.0,-0.0,-0.0,-0.0,-0.0,-0.0
130250,-0.000977,-5e-06,-0.010988,0.024261,-0.002128,2e-06,0.0,-0.0,-0.0,3.0,0.332975,0.318586,0.319023,0.333386,0.0,-0.0,-0.0,-0.0,-0.0,-0.0
130270,-0.001219,-0.000251,-0.010988,-0.048653,-0.003191,0.001068,0.0,-0.0,-0.0,3.0,0.336655,0.321346,0.31506,0.330762,0.0,-0.0,-0.0,-0.0,-0.0,-0.0
130290,-0.001097,-0.000372,-0.010988,0.000413,-0.002127,0.001067,0.0,-0.0,-0.0,3.0,0.338592,0.320091,0.312923,0.331963,0.0,-0.0,-0.0,-0.0,-0.0,-0.0
130310,-0.001097,-0.000372,-0.010866,0.049187,-0.001064,1e-06,0.0,-0.0,-0.0,3.0,0.337681,0.316004,0.313932,0.335789,0.0,-0.0,-0.0,-0.0,-0.0,-0.0
130330,-0.001221,0.000115,-0.010866,0.000255,0.001063,-0.001066,0.0,-0.0,-0.0,3.0,0.332464,0.318246,0.319563,0.333705,0.0,-0.0,-0.0,-0.0,-0.0,-0.0
130350,-0.001344,0.000237,-0.010866,-0.024278,0.001063,-0.001066,0.0,-0.0,-0.0,3.0,0.331015,0.317829,0.321082,0.334096,0.0,-0.0,-0.0,-0.0,-0.0,-0.0
130370,-0.001101,0.000482,-0.010988,-0.000268,0.001063,-0.001065,0.0,-0.0,-0.0,3.0,0.326677,0.320023,0.325522,0.332027,0.0,-0.0,-0.0,-0.0,0.0,-0.0
130390,-0.001101,0.00036,-0.010988,-0.024672,0.001063,-0.001065,0.0,-0.0,-0.0,3.0,0.328661,0.320376,0.323511,0.331691,0.0,-0.0,-0.0,-0.0,0.0,-0.0
130410,-0.0011,0.000238,-0.010988,-0.024799,-1e-06,-0.001064,0.0,-0.0,-0.0,3.0,0.328673,0.321497,0.323499,0.330617,0.0,-0.0,-0.0,-0.0,0.0,-0.0
130430,-0.000977,0.000117,-0.01111,0.024145,-0.001064,1e-06,0.0,-0.0,-0.0,3.0,0.330867,0.320802,0.321237,0.331284,0.0,-0.0,-0.0,-0.0,-0.0,-0.0
130450,-0.000976,-0.000127,-0.010988,0.048686,-0.002128,2e-06,0.0,-0.0,-0.0,3.0,0.333708,0.320314,0.318243,0.33175,0.0,-0.0,-0.0,-0.0,-0.0,-0.0
130470,-0.00122,-0.000129,-0.010988,0.024405,-0.001066,-0.001063,0.0,-0.0,-0.0,3.0,0.334094,0.318044,0.317831,0.333895,0.0,-0.0,-0.0,-0.0,-0.0,-0.0
130490,-0.001343,-7e-06,-0.010988,1e-05,-0.001066,-0.001063,0.0,-0.0,-0.0,3.0,0.332979,0.31888,0.319019,0.33311,0.0,-0.0,-0.0,-0.0,0.0,-0.0
130510,-0.001343,-7e-06,-0.010988,0.048912,-0.001064,1e-06,0.0,-0.0,-0.0,3.0,0.334154,0.313801,0.317767,0.3378,0.0,-0.0,-0.0,-0.0,0.0,-0.0
130530,-0.001466,0.000114,-0.010988,0.000101,-0.001064,2e-06,0.0,-0.0,-0.0,3.0,0.333719,0.315144,0.318232,0.336578,0.0,-0.0,-0.0,-0.0,0.0,-0.0
130550,-0.001587,-9e-06,-0.010988,-0.048552,-0.001064,2e-06,0.0,-0.0,-0.0,3.0,0.335877,0.318224,0.315908,0.333726,0.0,-0.0,-0.0,-0.0,-0.0,-0.0
130570,-0.001466,0.000114,-0.010988,-0.04881,0.0,0.0,0.0,-0.0,-0.0,3.0,0.332581,0.320285,0.31944,0.331778,0.0,-0.0,-0.0,-0.0,-0.0,-0.0
130590,-0.001343,-7e-06,-0.010988,0.000134,-1e-06,-0.001064,0.0,-0.0,-0.0,3.0,0.334132,0.320068,0.31779,0.331985,0.0,-0.0,-0.0,-0.0,-0.0,-0.0
130610,-0.001588,0.000113,-0.010866,-0.024404,0.001063,-0.001066,0.0,-0.0,-0.0,3.0,0.331002,0.319347,0.321096,0.332669,0.0,-0.0,-0.0,-0.0,0.0,-0.0
130630,-0.001588,0.000236,-0.010866,-0.024506,0.001063,-0.001066,0.0,-0.0,-0.0,3.0,0.329642,0.322146,0.322505,0.32999,0.0,-0.0,-0.0,0.0,0.0,-0.0
130650,-0.00171,0.000235,-0.010988,0.024147,-2e-06,-0.001064,0.0,-0.0,-0.0,3.0,0.329137,0.317817,0.323025,0.334107,0.0,-0.0,-0.0,-0.0,0.0,-0.0
130670,-0.001832,0.000234,-0.010988,0.048521,-0.001064,2e-06,0.0,-0.0,-0.0,3.0,0.329736,0.314749,0.322408,0.336939,0.0,-0.0,-0.0,-0.0,-0.0,-0.0
130690,-0.001953,-1.1e-05,-0.010988,0.024261,-0.001064,2e-06,0.0,-0.0,-0.0,3.0,0.333135,0.316458,0.318853,0.33537,0.0,-0.0,-0.0,-0.0,-0.0,-0.0
130710,-0.001953,-0.000133,-0.010866,0.000133,-0.002131,-0.00106,0.0,-0.0,-0.0,3.0,0.335304,0.318091,0.316529,0.333851,0.0,-0.0,-0.0,-0.0,-0.0,-0.0
130730,-0.001952,-0.000255,-0.010866,-1e-05,-0.002128,4e-06,0.0,-0.0,-0.0,3.0,0.335132,0.317085,0.316716,0.334789,0.0,-0.0,-0.0,-0.0,-0.0,-0.0
130750,-0.001953,-0.000133,-0.010866,-0.024282,-0.001064,2e-06,0.0,-0.0,-0.0,3.0,0.334395,0.317421,0.317509,0.334476,0.0,-0.0,-0.0,0.0,0.0,-0.0
130770,-0.001952,-0.000255,-0.010866,-0.02415,-0.001064,2e-06,0.0,-0.0,-0.0,3.0,0.335907,0.317203,0.315876,0.33468,0.0,-0.0,-0.0,-0.0,0.0,-0.0
130790,-0.001953,-0.000133,-0.010866,0.000112,-0.001064,2e-06,0.0,-0.0,-0.0,3.0,0.333612,0.31583,0.318346,0.335949,0.0,-0.0,-0.0,-0.0,0.0,-0.0
130810,-0.001953,-1.1e-05,-0.010866,-2.1e-05,-0.001064,2e-06,0.0,-0.0,-0.0,3.0,0.332948,0.316853,0.319051,0.335004,0.0,-0.0,-0.0,-0.0,-0.0,-0.0
130830,-0.002197,-0.000134,-0.010866,-0.048677,-0.001064,2e-06,0.0,-0.0,-0.0,3.0,0.334899,0.318879,0.316967,0.333111,0.0,-0.0,-0.0,-0.0,-0.0,-0.0
130850,-0.002075,-1.1e-05,-0.010744,-0.024252,-2e-06,-0.001064,0.0,-0.0,-0.0,3.0,0.333648,0.320855,0.318308,0.331234,0.0,-0.0,-0.0,-0.0,-0.0,-0.0
130870,-0.002075,-0.000133,-0.010744,0.024546,0.001062,-0.001066,0.0,-0.0,-0.0,3.0,0.334297,0.318543,0.317614,0.333427,0.0,-0.0,-0.0,-0.0,-0.0,-0.0
130890,-0.002197,-1.2e-05,-0.010744,0.024394,0.001062,-0.001067,0.0,-0.0,-0.0,3.0,0.331108,0.316025,0.320986,0.33577,0.0,-0.0,-0.0,0.0,-0.0,-0.0
130910,-0.002319,-1.2e-05,-0.010744,-0.024527,0.001062,-0.001067,0.0,-0.0,-0.0,3.0,0.330087,0.318849,0.322046,0.333139,0.0,-0.0,-0.0,0.0,0.0,-0.0
130930,-0.002198,0.00011,-0.010744,-0.000396,-2e-06,-0.001064,0.0,-0.0,-0.0,3.0,0.327581,0.317814,0.32461,0.33411,0.0,-0.0,-0.0,-0.0,0.0,-0.0
130950,-0.002199,0.000232,-0.010866,0.023854,-0.001064,2e-06,0.0,-0.0,-0.0,3.0,0.327106,0.315287,0.32509,0.336447,0.0,-0.0,-0.0,-0.0,-0.0,-0.0
130970,-0.002319,-1.3e-05,-0.010866,-0.024548,-0.002128,5e-06,0.0,-0.0,-0.0,3.0,0.332996,0.317449,0.319001,0.334451,0.0,-0.0,-0.0,-0.0,-0.0,-0.0
130990,-0.002319,-0.000135,-0.010866,-0.048667,-0.002128,5e-06,0.0,-0.0,-0.0,3.0,0.335931,0.320208,0.31585,0.331852,0.0,-0.0,-0.0,-0.0,-0.0,-0.0
131010,-0.002317,-0.000379,-0.010988,-0.023992,-0.002126,0.001069,0.0,-0.0,-0.0,3.0,0.339577,0.318823,0.311821,0.333163,0.0,-0.0,-0.0,-0.0,-0.0,-0.0
131030,-0.002318,-0.000257,-0.010988,0.000411,-0.002126,0.001069,0.0,-0.0,-0.0,3.0,0.33744,0.318469,0.314198,0.333496,0.0,-0.0,-0.0,-0.0,-0.0,-0.0
131050,-0.002317,-0.000379,-0.010988,0.000536,0.0,0.0,0.0,-0.0,-0.0,3.0,0.338643,0.317759,0.312865,0.334162,0.0,-0.0,-0.0,0.0,-0.0,-0.0
131070,-0.002319,-1.3e-05,-0.010988,0.000113,-2e-06,-0.001064,0.0,-0.0,-0.0,3.0,0.331594,0.315893,0.320478,0.335891,0.0,-0.0,-0.0,0.0,-0.0,-0.0
131090,-0.002321,0.000231,-0.010988,-2.1e-05,-2e-06,-0.001064,0.0,-0.0,-0.0,3.0,0.329897,0.315757,0.322242,0.336016,0.0,-0.0,-0.0,-0.0,-0.0,-0.0
131110,-0.002443,0.000231,-0.010988,-0.048944,-3e-06,-0.001064,0.0,-0.0,-0.0,3.0,0.330027,0.318296,0.322108,0.333659,0.0,-0.0,-0.0,-0.0,-0.0,-0.0
131130,-0.002199,0.000232,-0.010866,-0.048776,0.001062,-0.001067,0.0,-0.0,-0.0,3.0,0.331068,0.323033,0.321027,0.329129,0.0,-0.0,-0.0,-0.0,-0.0,-0.0
131150,-0.002076,0.000111,-0.010988,2e-05,0.001062,-0.001066,0.0,-0.0,-0.0,3.0,0.332485,0.320813,0.319541,0.331274,0.0,-0.0,-0.0,-0.0,-0.0,-0.0
131170,-0.001954,0.000111,-0.01111,0.048684,0.001064,-2e-06,0.0,-0.0,-0.0,3.0,0.330673,0.319443,0.321439,0.332578,0.0,-0.0,-0.0,-0.0,-0.0,-0.0
131190,-0.002075,-0.000134,-0.01111,0.024283,0.0,0.0,0.0,-0.0,-0.0,3.0,0.332673,0.318354,0.319342,0.333605,0.0,-0.0,-0.0,-0.0,0.0,-0.0
131210,-0.002075,-0.000134,-0.01111,0.024144,-0.001066,-0.001062,0.0,-0.0,-0.0,3.0,0.330277,0.318042,0.32185,0.333897,0.0,-0.0,-0.0,0.0,0.0,-0.0
131230,-0.002075,-0.000134,-0.01111,0.048533,-0.002128,4e-06,0.0,-0.0,-0.0,3.0,0.331175,0.315344,0.320915,0.336395,0.0,-0.0,-0.0,0.0,0.0,-0.0
131250,-0.002318,-0.000257,-0.010988,-2e-05,-0.002128,5e-06,0.0,-0.0,-0.0,3.0,0.334481,0.314244,0.317417,0.337398,0.0,-0.0,-0.0,-0.0,0.0,-0.0
131270,-0.002318,-0.000257,-0.010988,0.000258,-0.002128,5e-06,0.0,-0.0,-0.0,3.0,0.336321,0.315496,0.315424,0.336255,0.0,-0.0,-0.0,-0.0,0.0,-0.0
131290,-0.002318,-0.000257,-0.010988,0.000391,-0.001064,2e-06,0.087266,-0.0,-0.0,3.0,0.337663,0.203532,0.313952,0.404576,0.00058,-0.0,-0.0,0.113468,0.0,-0.0
131310,-0.002074,-0.000256,-0.010988,0.000268,-2e-06,-0.001064,0.087266,-0.0,-0.0,3.0,0.33569,0.208255,0.316112,0.402793,0.003807,-0.0,-0.0,0.231745,0.0,-0.0
131330,-0.001098,-0.000128,-0.010622,0.024575,-1e-06,-0.001064,0.087266,-0.0,-0.0,3.0,0.332528,0.222907,0.319496,0.396739,0.009073,-0.0,-0.0,0.308114,-0.0,-0.0
131350,0.001954,-0.000112,-0.010133,0.170903,0.001068,-0.002126,0.087266,-0.0,-0.0,3.0,0.330787,0.244624,0.32132,0.386231,0.015607,-0.0,-0.0,0.351809,-0.0,-0.0
131370,0.007449,-0.000451,-0.009887,0.293097,8e-06,-0.001064,0.087266,-0.0,-0.0,3.0,0.334243,0.275125,0.317672,0.36801,0.022823,-0.0,-0.0,0.371677,-0.0,-0.0
131390,0.015752,-0.0009,-0.009758,0.439694,1.7e-05,-0.001064,0.087266,-0.0,-0.0,3.0,0.337421,0.307282,0.314219,0.343548,0.030301,-0.0,-0.0,0.374623,-0.0,-0.0
131410,0.026375,-0.001209,-0.010114,0.586049,0.0,0.0,0.087266,-0.0,-0.0,3.0,0.336937,0.332891,0.314751,0.319112,0.037743,-0.0,-0.0,0.365871,-0.0,-0.0
131430,0.039075,-0.001496,-0.01083,0.733007,-4.2e-05,0.001063,0.087266,-0.0,-0.0,3.0,0.338026,0.353021,0.313551,0.295754,0.044946,-0.0,-0.0,0.349332,-0.0,-0.0
131450,0.052876,-0.001636,-0.011909,0.732865,-5.6e-05,0.001063,0.087266,-0.0,-0.0,3.0,0.335,0.37388,0.316858,0.266066,0.051777,-0.0,-0.0,0.327904,-0.0,-0.0
131470,0.067408,-0.001504,-0.013233,0.708314,-0.000143,0.002124,0.087266,-0.0,-0.0,3.0,0.331424,0.388601,0.320656,0.240056,0.058157,-0.0,-0.0,0.303712,-0.0,-0.0
131490,0.082065,-0.000624,-0.014466,0.732273,-0.002296,0.001947,0.087266,-0.0,-0.0,3.0,0.325892,0.395496,0.326308,0.225694,0.064042,-0.0,-0.0,0.27829,-0.0,-0.0
131510,0.095382,-0.000103,-0.015691,0.586809,-0.003381,0.001815,0.087266,-0.0,-0.0,3.0,0.326176,0.401578,0.326025,0.211355,0.069415,-0.0,-0.0,0.252726,-0.0,-0.0
131530,0.106378,3.6e-05,-0.016656,0.415777,-0.003288,0.000719,0.087266,-0.0,-0.0,3.0,0.332934,0.401693,0.319066,0.211066,0.074281,-0.0,-0.0,0.22777,-0.0,-0.0
131550,0.11469,0.00052,-0.017523,0.342627,-0.002358,0.001871,0.087266,-0.0,-0.0,3.0,0.331573,0.392255,0.3205,0.23266,0.078656,-0.0,-0.0,0.203922,-0.0,-0.0
131570,0.119578,0.000607,-0.018249,0.219747,-0.001184,0.00093,0.087266,-0.0,-0.0,3.0,0.334914,0.375975,0.31695,0.262673,0.082564,-0.0,-0.0,0.181493,-0.0,-0.0
131590,0.120563,0.00028,-0.018715,0.02482,0.0,0.0,0.087266,-0.0,-0.0,3.0,0.336558,0.354116,0.315166,0.294353,0.086035,-0.0,-0.0,0.16066,-0.0,-0.0
131610,0.118364,4.4e-05,-0.019191,-0.170343,0.0,0.0,0.087266,-0.0,-0.0,3.0,0.334808,0.331266,0.317065,0.320821,0.089101,-0.0,-0.0,0.1415,-0.0,-0.0
131630,0.113721,-0.000217,-0.01967,-0.243756,0.0,0.0,0.087266,-0.0,-0.0,3.0,0.333282,0.303919,0.318697,0.346399,0.091798,-0.0,-0.0,0.124019,-0.0,-0.0
131650,0.107236,0.000239,-0.020313,-0.318554,-0.001172,0.000944,0.087266,-0.0,-0.0,3.0,0.329049,0.279366,0.323114,0.365119,0.094157,-0.0,-0.0,0.108176,-0.0,-0.0
131670,0.099534,0.000435,-0.020943,-0.440376,-0.002224,0.000847,0.087266,-0.0,-0.0,3.0,0.329799,0.267412,0.322344,0.373033,0.096211,-0.0,-0.0,0.093899,-0.0,-0.0
131690,0.09195,0.000993,-0.021587,-0.440619,-0.002217,0.000864,0.087266,-0.0,-0.0,3.0,0.327232,0.259895,0.324963,0.37765,0.097991,-0.0,-0.0,0.081093,-0.0,-0.0
131710,0.085096,0.001677,-0.022229,-0.31843,-0.001151,0.00097,0.087266,-0.0,-0.0,3.0,0.327034,0.254135,0.325163,0.381008,0.099525,-0.0,-0.0,0.069654,-0.0,-0.0
131730,0.079717,0.002252,-0.022867,-0.171118,-8.5e-05,0.001061,0.087266,-0.0,-0.0,3.0,0.325929,0.258433,0.326271,0.378516,0.100839,-0.0,-0.0,0.059474,-0.0,-0.0
131750,0.076294,0.002358,-0.023481,-0.097674,0.00098,0.001142,0.087266,-0.0,-0.0,3.0,0.328807,0.275292,0.323363,0.367898,0.101959,-0.0,-0.0,0.050443,-0.0,-0.0
131770,0.075314,0.002247,-0.024083,0.024336,0.000981,0.001141,0.087266,-0.0,-0.0,3.0,0.329374,0.292145,0.322781,0.355817,0.102907,-0.0,-0.0,0.042454,-0.0,-0.0
131790,0.076541,0.002046,-0.024808,0.121912,-8.1e-05,0.001061,0.087266,-0.0,-0.0,3.0,0.330227,0.309478,0.321901,0.341644,0.103702,-0.0,-0.0,0.035405,-0.0,-0.0
131810,0.079723,0.001505,-0.025516,0.171007,-0.001146,0.000976,0.087266,-0.0,-0.0,3.0,0.333065,0.329183,0.318928,0.322977,0.104362,-0.0,-0.0,0.0292,-0.0,-0.0
131830,0.084736,0.001361,-0.026359,0.220825,-0.001241,0.002031,0.087266,-0.0,-0.0,3.0,0.332326,0.346666,0.319709,0.303601,0.104904,-0.0,-0.0,0.02375,-0.0,-0.0
131850,0.090961,0.001731,-0.027341,0.294027,-0.002216,0.000866,0.087266,-0.0,-0.0,3.0,0.329875,0.359462,0.322265,0.287286,0.105342,-0.0,-0.0,0.018974,-0.0,-0.0
131870,0.097798,0.002366,-0.028461,0.342462,-0.001267,0.002014,0.087266,-0.0,-0.0,3.0,0.326878,0.368579,0.32532,0.274275,0.105689,-0.0,-0.0,0.014796,-0.0,-0.0
131890,0.104514,0.002884,-0.029576,0.318067,-0.000222,0.002117,0.087266,-0.0,-0.0,3.0,0.32636,0.375899,0.32584,0.262797,0.105957,-0.0,-0.0,0.01115,-0.0,-0.0
131910,0.110867,0.003154,-0.030558,0.293747,0.00094,0.001175,0.087266,-0.0,-0.0,3.0,0.327037,0.377329,0.32516,0.260432,0.106156,-0.0,-0.0,0.007973,-0.0,-0.0
131930,0.115997,0.003288,-0.03153,0.243591,0.000934,0.00118,0.087266,-0.0,-0.0,3.0,0.327884,0.373281,0.324303,0.26702,0.106294,-0.0,-0.0,0.00521,-0.0,-0.0
131950,0.119547,0.003151,-0.032369,0.145691,-0.000127,0.001057,0.087266,-0.0,-0.0,3.0,0.328247,0.367498,0.323934,0.275886,0.10638,-0.0,-0.0,0.002813,-0.0,-0.0
131970,0.121264,0.002858,-0.033077,0.024327,-0.000129,0.001056,0.087266,-0.0,-0.0,3.0,0.330466,0.359273,0.321653,0.287542,0.10642,-0.0,-0.0,0.000738,-0.0,-0.0
131990,0.121145,0.002649,-0.033672,-0.048779,0.0,0.0,0.087266,-0.0,-0.0,3.0,0.330972,0.346699,0.321128,0.303561,0.106421,-0.0,-0.0,-0.001055,-0.0,-0.0
132010,0.119187,0.002645,-0.03416,-0.097126,-0.000127,0.001057,0.087266,-0.0,-0.0,3.0,0.330962,0.330706,0.321137,0.321405,0.106388,-0.0,-0.0,-0.002599,-0.0,-0.0
132030,0.115885,0.002854,-0.034546,-0.194953,-0.001057,-0.000123,0.087266,-0.0,-0.0,3.0,0.328889,0.321054,0.323278,0.331042,0.106325,-0.0,-0.0,-0.003926,-0.0,-0.0
132050,0.11172,0.003175,-0.035055,-0.195076,0.0,0.0,0.087266,-0.0,-0.0,3.0,0.327617,0.306835,0.324574,0.343931,0.106238,-0.0,-0.0,-0.005063,-0.0,-0.0
132070,0.107187,0.003604,-0.035449,-0.244261,0.0,0.0,0.087266,-0.0,-0.0,3.0,0.325503,0.302752,0.326696,0.347372,0.106129,-0.0,-0.0,-0.006034,-0.0,-0.0
132090,0.102418,0.003654,-0.035699,-0.243854,0.0,0.0,0.087266,-0.0,-0.0,3.0,0.328799,0.295687,0.32337,0.353073,0.106002,-0.0,-0.0,-0.006859,-0.0,-0.0
132110,0.098262,0.003476,-0.036057,-0.170751,0.0,0.0,0.087266,-0.0,-0.0,3.0,0.330069,0.293791,0.322065,0.354551,0.10586,-0.0,-0.0,-0.007556,-0.0,-0.0
132130,0.094847,0.003183,-0.036291,-0.146311,0.0,0.0,0.087266,-0.0,-0.0,3.0,0.331613,0.298139,0.320458,0.35113,0.105704,-0.0,-0.0,-0.008143,-0.0,-0.0
132150,0.092528,0.002914,-0.036645,-0.097097,-0.00106,-9.8e-05,0.087266,-0.0,-0.0,3.0,0.333022,0.303703,0.318973,0.346581,0.105537,-0.0,-0.0,-0.008634,-0.0,-0.0
132170,0.091676,0.002787,-0.036886,0.000435,-0.00212,-0.000195,0.087266,-0.0,-0.0,3.0,0.333204,0.313098,0.31878,0.338433,0.105361,-0.0,-0.0,-0.009041,-0.0,-0.0
132190,0.091922,0.002681,-0.037123,0.025243,-0.002119,-0.000195,0.087266,-0.0,-0.0,3.0,0.333764,0.323658,0.318184,0.328518,0.105178,-0.0,-0.0,-0.009374,-0.0,-0.0
132210,0.093378,0.003085,-0.037379,0.073552,-0.002119,-0.000198,0.087266,-0.0,-0.0,3.0,0.329722,0.332573,0.322423,0.319448,0.104988,-0.0,-0.0,-0.009644,-0.0,-0.0
132230,0.095815,0.003502,-0.037519,0.098001,-0.001059,-0.000102,0.087266,-0.0,-0.0,3.0,0.328832,0.342174,0.323337,0.308871,0.104794,-0.0,-0.0,-0.009859,-0.0,-0.0
132250,0.098865,0.003693,-0.037767,0.122767,-0.001059,-0.000105,0.087266,-0.0,-0.0,3.0,0.329931,0.348661,0.322208,0.301188,0.104595,-0.0,-0.0,-0.010026,-0.0,-0.0
132270,0.102051,0.003516,-0.037881,0.123245,-0.001059,-0.000108,0.087266,-0.0,-0.0,3.0,0.333292,0.353922,0.318686,0.294601,0.104394,-0.0,-0.0,-0.010151,-0.0,-0.0
132290,0.105106,0.003458,-0.037993,0.122841,0.0,0.0,0.087266,-0.0,-0.0,3.0,0.331905,0.356284,0.320151,0.291532,0.10419,-0.0,-0.0,-0.010241,-0.0,-0.0
132310,0.107803,0.003028,-0.038087,0.122834,0.001173,-0.000944,0.087266,-0.0,-0.0,3.0,0.332633,0.356369,0.319385,0.29142,0.103985,-0.0,-0.0,-0.010299,-0.0,-0.0
132330,0.110127,0.002957,-0.038201,0.122345,0.001175,-0.000941,0.087266,-0.0,-0.0,3.0,0.329561,0.355581,0.322589,0.292454,0.103778,-0.0,-0.0,-0.010331,-0.0,-0.0
132350,0.111353,0.00298,-0.038203,0.096991,0.000118,-0.001058,0.087266,-0.0,-0.0,3.0,0.326278,0.347383,0.325922,0.302738,0.103572,-0.0,-0.0,-0.01034,-0.0,-0.0
132370,0.11159,0.00335,-0.038222,-0.001412,0.000119,-0.001058,0.087266,-0.0,-0.0,3.0,0.322434,0.342994,0.329711,0.307925,0.103365,-0.0,-0.0,-0.010329,-0.0,-0.0
132390,0.111098,0.003578,-0.038116,-0.049752,-0.001058,-0.000118,0.087266,-0.0,-0.0,3.0,0.323991,0.337243,0.328192,0.314415,0.103159,-0.0,-0.0,-0.010301,-0.0,-0.0
132410,0.109866,0.003907,-0.03789,-0.098416,0.000117,-0.001058,0.087266,-0.0,-0.0,3.0,0.324148,0.332221,0.328037,0.319819,0.102953,-0.0,-0.0,-0.010259,-0.0,-0.0
132430,0.108032,0.003859,-0.037645,-0.099281,-0.000943,-0.001173,0.087266,-0.0,-0.0,3.0,0.327674,0.326447,0.324516,0.325753,0.102748,-0.0,-0.0,-0.010204,-0.0,-0.0
132450,0.105837,0.003561,-0.037389,-0.123162,-0.000946,-0.001171,0.087266,-0.0,-0.0,3.0,0.330684,0.323067,0.321427,0.329096,0.102544,-0.0,-0.0,-0.010138,-0.0,-0.0
132470,0.103525,0.003011,-0.036998,-0.12218,-0.000949,-0.001169,0.087266,-0.0,-0.0,3.0,0.334738,0.319009,0.317141,0.332988,0.102342,-0.0,-0.0,-0.010064,-0.0,-0.0
132490,0.101086,0.00271,-0.036743,-0.146077,-0.000951,-0.001166,0.087266,-0.0,-0.0,3.0,0.33539,0.317538,0.316436,0.334368,0.102142,-0.0,-0.0,-0.009982,-0.0,-0.0
132510,0.099008,0.00266,-0.0365,-0.098226,-0.000954,-0.001164,0.087266,-0.0,-0.0,3.0,0.331635,0.316375,0.320434,0.335446,0.101943,-0.0,-0.0,-0.009894,-0.0,-0.0
132530,0.097417,0.002985,-0.036279,-0.048773,0.000104,-0.001059,0.087266,-0.0,-0.0,3.0,0.327367,0.317592,0.324827,0.334318,0.101745,-0.0,-0.0,-0.0098,-0.0,-0.0
132550,0.096432,0.003199,-0.036043,-0.024825,0.001162,-0.000957,0.087266,-0.0,-0.0,3.0,0.324672,0.322126,0.32752,0.33001,0.10155,-0.0,-0.0,-0.009702,-0.0,-0.0
132570,0.09618,0.003671,-0.035824,0.023491,0.000102,-0.001059,0.087266,-0.0,-0.0,3.0,0.322225,0.326008,0.329914,0.326193,0.101357,-0.0,-0.0,-0.009601,-0.0,-0.0
132590,0.096301,0.003783,-0.035586,0.047879,0.000102,-0.001059,0.087266,-0.0,-0.0,3.0,0.323834,0.329482,0.328345,0.32267,0.101166,-0.0,-0.0,-0.009496,-0.0,-0.0
132610,0.096669,0.003656,-0.035335,0.047886,-0.000957,-0.001162,0.087266,-0.0,-0.0,3.0,0.326191,0.33165,0.32601,0.32042,0.100977,-0.0,-0.0,-0.00939,-0.0,-0.0
132630,0.097536,0.003294,-0.035078,0.049511,-0.000956,-0.001163,0.087266,-0.0,-0.0,3.0,0.329754,0.334746,0.32239,0.317131,0.10079,-0.0,-0.0,-0.009281,-0.0,-0.0
132650,0.098396,0.002931,-0.034814,0.049182,-0.000955,-0.001164,0.087266,-0.0,-0.0,3.0,0.332765,0.33573,0.319246,0.316068,0.100605,-0.0,-0.0,-0.009171,-0.0,-0.0
132670,0.099135,0.002559,-0.034428,0.025273,-0.002013,-0.00127,0.087266,-0.0,-0.0,3.0,0.334799,0.336077,0.317075,0.31569,0.100422,-0.0,-0.0,-0.009061,-0.0,-0.0
132690,0.099501,0.002554,-0.034184,0.00084,-0.000953,-0.001165,0.087266,-0.0,-0.0,3.0,0.332182,0.334962,0.31986,0.316899,0.100242,-0.0,-0.0,-0.008949,-0.0,-0.0
132710,0.099861,0.002907,-0.033835,-0.023889,0.000106,-0.001059,0.087266,-0.0,-0.0,3.0,0.328807,0.33628,0.323363,0.315469,0.100064,-0.0,-0.0,-0.008838,-0.0,-0.0
132730,0.099734,0.003253,-0.033488,-0.04867,0.000106,-0.001059,0.087266,-0.0,-0.0,3.0,0.326439,0.33407,0.325761,0.317857,0.099888,-0.0,-0.0,-0.008726,-0.0,-0.0
132750,0.099489,0.003358,-0.033251,-0.000423,0.000106,-0.001059,0.087266,-0.0,-0.0,3.0,0.326286,0.329928,0.325914,0.322211,0.099714,-0.0,-0.0,-0.008614,-0.0,-0.0
132770,0.099002,0.003326,-0.032765,-0.024727,-0.000849,-0.002223,0.087266,-0.0,-0.0,3.0,0.326832,0.329777,0.325366,0.322366,0.099543,-0.0,-0.0,-0.008503,-0.0,-0.0
132790,0.098519,0.003063,-0.032511,-0.023924,-0.00085,-0.002223,0.087266,-0.0,-0.0,3.0,0.330616,0.328829,0.321498,0.323341,0.099373,-0.0,-0.0,-0.008392,-0.0,-0.0
132810,0.098274,0.002796,-0.032128,0.000838,-0.000955,-0.001164,0.087266,-0.0,-0.0,3.0,0.332904,0.329068,0.319098,0.323095,0.099206,-0.0,-0.0,-0.008282,-0.0,-0.0
132830,0.097911,0.002657,-0.031879,0.000773,-0.000955,-0.001163,0.087266,-0.0,-0.0,3.0,0.332029,0.329086,0.320021,0.323077,0.099041,-0.0,-0.0,-0.008173,-0.0,-0.0
132850,0.09791,0.002761,-0.031519,0.000441,0.000104,-0.001059,0.087266,-0.0,-0.0,3.0,0.329797,0.331701,0.322346,0.320365,0.098879,-0.0,-0.0,-0.008064,-0.0,-0.0
132870,0.097907,0.002993,-0.031288,0.023985,0.001163,-0.000955,0.087266,-0.0,-0.0,3.0,0.325535,0.331106,0.326665,0.320988,0.098718,-0.0,-0.0,-0.007956,-0.0,-0.0
132890,0.097904,0.003219,-0.030934,-0.000708,0.000104,-0.001059,0.087266,-0.0,-0.0,3.0,0.323858,0.33221,0.328322,0.319831,0.09856,-0.0,-0.0,-0.00785,-0.0,-0.0
132910,0.098026,0.003209,-0.03069,0.04798,0.000104,-0.001059,0.087266,-0.0,-0.0,3.0,0.325129,0.330647,0.327068,0.321466,0.098404,-0.0,-0.0,-0.007744,-0.0,-0.0
132930,0.097907,0.003073,-0.03044,-0.000329,-0.000955,-0.001163,0.087266,-0.0,-0.0,3.0,0.327743,0.330963,0.324446,0.321137,0.09825,-0.0,-0.0,-0.007639,-0.0,-0.0
132950,0.097787,0.002937,-0.030191,-0.024319,-0.000955,-0.001163,0.087266,-0.0,-0.0,3.0,0.329695,0.33223,0.322451,0.31981,0.098098,-0.0,-0.0,-0.007536,-0.0,-0.0
132970,0.097669,0.002686,-0.030058,-0.048006,-0.002118,-0.000208,0.087266,-0.0,-0.0,3.0,0.333309,0.332516,0.318668,0.319508,0.097948,-0.0,-0.0,-0.007433,-0.0,-0.0
132990,0.097548,0.002678,-0.029936,-0.024005,-0.000956,-0.001163,0.087266,-0.0,-0.0,3.0,0.330563,0.331865,0.321553,0.320193,0.0978,-0.0,-0.0,-0.007332,-0.0,-0.0
133010,0.097304,0.002668,-0.029815,0.000356,0.001163,-0.000956,0.087266,-0.0,-0.0,3.0,0.329715,0.329793,0.322431,0.32235,0.097654,-0.0,-0.0,-0.007232,-0.0,-0.0
133030,0.097059,0.002781,-0.029699,-0.0,0.001162,-0.000956,0.087266,-0.0,-0.0,3.0,0.327435,0.33058,0.324758,0.321535,0.09751,-0.0,-0.0,-0.007133,-0.0,-0.0
133050,0.096683,0.003019,-0.029706,-0.000376,0.000103,-0.001059,0.087266,-0.0,-0.0,3.0,0.325106,0.32861,0.32709,0.323563,0.097368,-0.0,-0.0,-0.007035,-0.0,-0.0
133070,0.09644,0.003009,-0.029585,-0.000738,-0.000957,-0.001162,0.087266,-0.0,-0.0,3.0,0.32518,0.328486,0.327017,0.323691,0.097228,-0.0,-0.0,-0.006938,-0.0,-0.0
133090,0.096199,0.002762,-0.029574,-2e-05,-0.000957,-0.001162,0.087266,-0.0,-0.0,3.0,0.329396,0.327541,0.322758,0.324651,0.09709,-0.0,-0.0,-0.006843,-0.0,-0.0
133110,0.096078,0.002754,-0.029452,-0.024383,-0.002119,-0.000204,0.087266,-0.0,-0.0,3.0,0.32925,0.329996,0.322908,0.32214,0.096954,-0.0,-0.0,-0.006749,-0.0,-0.0
133130,0.095838,0.002507,-0.029441,-0.048034,-0.002119,-0.000204,0.087266,-0.0,-0.0,3.0,0.332996,0.330231,0.319001,0.321897,0.09682,-0.0,-0.0,-0.006656,-0.0,-0.0
133150,0.095836,0.002623,-0.029325,-0.024014,0.000102,-0.001059,0.087266,-0.0,-0.0,3.0,0.329718,0.331755,0.322427,0.320309,0.096687,-0.0,-0.0,-0.006564,-0.0,-0.0
133170,0.095714,0.002621,-0.029325,0.000359,0.001161,-0.000958,0.087266,-0.0,-0.0,3.0,0.329468,0.331184,0.322685,0.320906,0.096557,-0.0,-0.0,-0.006474,-0.0,-0.0
133190,0.09559,0.002741,-0.029331,0.024015,0.001161,-0.000958,0.087266,-0.0,-0.0,3.0,0.325265,0.330469,0.326932,0.32165,0.096428,-0.0,-0.0,-0.006384,-0.0,-0.0
133210,0.095347,0.002738,-0.029332,-5.1e-05,0.0,0.0,0.087266,-0.0,-0.0,3.0,0.326897,0.330077,0.325301,0.322057,0.096301,-0.0,-0.0,-0.006296,-0.0,-0.0
133230,0.095225,0.00273,-0.02921,-0.00067,-0.000958,-0.001161,0.087266,-0.0,-0.0,3.0,0.325366,0.329863,0.326833,0.322277,0.096176,-0.0,-0.0,-0.006209,-0.0,-0.0
133250,0.094981,0.002727,-0.029211,-0.000369,-0.001059,-0.000101,0.087266,-0.0,-0.0,3.0,0.32734,0.32845,0.324854,0.323727,0.096052,-0.0,-0.0,-0.006123,-0.0,-0.0
133270,0.094983,0.002611,-0.029327,-6.9e-05,-0.002119,-0.000202,0.087266,-0.0,-0.0,3.0,0.329173,0.328875,0.322987,0.323293,0.09593,-0.0,-0.0,-0.006039,-0.0,-0.0
133290,0.094862,0.002487,-0.029321,-0.023665,-0.001059,-0.000101,0.087266,-0.0,-0.0,3.0,0.33175,0.330093,0.320314,0.32204,0.09581,-0.0,-0.0,-0.005955,-0.0,-0.0
133310,0.094741,0.002485,-0.029322,-0.048019,0.000101,-0.001059,0.087266,-0.0,-0.0,3.0,0.330634,0.3324,0.321479,0.31963,0.095692,-0.0,-0.0,-0.005873,-0.0,-0.0
133330,0.094862,0.002487,-0.029321,0.000731,0.00116,-0.000959,0.087266,-0.0,-0.0,3.0,0.330491,0.332518,0.321628,0.319506,0.095575,-0.0,-0.0,-0.005792,-0.0,-0.0
133350,0.094737,0.002729,-0.029333,0.024015,0.001059,0.000101,0.087266,-0.0,-0.0,3.0,0.32493,0.330376,0.327265,0.321747,0.09546,-0.0,-0.0,-0.005711,-0.0,-0.0
133370,0.094371,0.002729,-0.029456,-0.000411,0.0,0.0,0.087266,-0.0,-0.0,3.0,0.326024,0.32854,0.326177,0.323636,0.095346,-0.0,-0.0,-0.005632,-0.0,-0.0
133390,0.094122,0.00272,-0.029329,-0.025083,-0.000959,-0.00116,0.087266,-0.0,-0.0,3.0,0.325109,0.330157,0.327087,0.321974,0.095234,-0.0,-0.0,-0.005554,-0.0,-0.0
133410,0.093879,0.002594,-0.029324,-2e-05,-0.00106,-0.0001,0.087266,-0.0,-0.0,3.0,0.32897,0.326549,0.323195,0.325651,0.095123,-0.0,-0.0,-0.005477,-0.0,-0.0
133430,0.093634,0.002713,-0.02933,-3e-05,-0.002119,-0.000199,0.087266,-0.0,-0.0,3.0,0.327795,0.325944,0.324394,0.326257,0.095014,-0.0,-0.0,-0.005401,-0.0,-0.0
133450,0.093392,0.002587,-0.029325,-0.072765,-0.00096,-0.001159,0.087266,-0.0,-0.0,3.0,0.330804,0.330868,0.321302,0.321236,0.094907,-0.0,-0.0,-0.005327,-0.0,-0.0
133470,0.093268,0.002707,-0.029331,-0.073107,9.9e-05,-0.00106,0.087266,-0.0,-0.0,3.0,0.327673,0.332963,0.324518,0.319036,0.094801,-0.0,-0.0,-0.005253,-0.0,-0.0
133490,0.09339,0.002709,-0.029331,0.024746,9.9e-05,-0.00106,0.087266,-0.0,-0.0,3.0,0.328644,0.331164,0.323529,0.320928,0.094696,-0.0,-0.0,-0.00518,-0.0,-0.0
133510,0.093388,0.002831,-0.029336,0.048391,9.9e-05,-0.00106,0.087266,-0.0,-0.0,3.0,0.325589,0.32901,0.32661,0.323154,0.094593,-0.0,-0.0,-0.005108,-0.0,-0.0
133530,0.093146,0.002706,-0.029331,0.024377,9.9e-05,-0.00106,0.087266,-0.0,-0.0,3.0,0.328075,0.328937,0.324109,0.32323,0.094492,-0.0,-0.0,-0.005037,-0.0,-0.0
133550,0.093024,0.002704,-0.029331,-0.00035,0.0,0.0,0.087266,-0.0,-0.0,3.0,0.326067,0.330348,0.326134,0.321776,0.094392,-0.0,-0.0,-0.004968,-0.0,-0.0
133570,0.093026,0.002582,-0.029326,0.024356,-0.00106,-9.9e-05,0.087266,-0.0,-0.0,3.0,0.328592,0.327781,0.323582,0.324408,0.094293,-0.0,-0.0,-0.004899,-0.0,-0.0
133590,0.092904,0.00258,-0.029326,-3.1e-05,-0.002119,-0.000197,0.087266,-0.0,-0.0,3.0,0.328117,0.326907,0.324067,0.325291,0.094195,-0.0,-0.0,-0.004831,-0.0,-0.0
133610,0.092782,0.002578,-0.029326,-0.07314,-0.00106,-9.9e-05,0.087266,-0.0,-0.0,3.0,0.328743,0.330829,0.323429,0.321276,0.094099,-0.0,-0.0,-0.004764,-0.0,-0.0
133630,0.092904,0.00258,-0.029326,-0.072746,9.9e-05,-0.00106,0.087266,-0.0,-0.0,3.0,0.328943,0.333897,0.323223,0.318042,0.094004,-0.0,-0.0,-0.004698,-0.0,-0.0
133650,0.093148,0.002584,-0.029325,0.00037,9.9e-05,-0.00106,0.087266,-0.0,-0.0,3.0,0.329289,0.332707,0.322868,0.319306,0.093911,-0.0,-0.0,-0.004633,-0.0,-0.0
133670,0.093268,0.002707,-0.029331,0.048762,0.0,0.0,0.087266,-0.0,-0.0,3.0,0.326814,0.330881,0.325384,0.321223,0.093819,-0.0,-0.0,-0.004568,-0.0,-0.0
133690,0.093024,0.00271,-0.029453,-0.000389,-0.00106,-9.9e-05,0.087266,-0.0,-0.0,3.0,0.326388,0.3323,0.325813,0.319736,0.093728,-0.0,-0.0,-0.004505,-0.0,-0.0
133710,0.09278,0.002706,-0.029454,-4e-05,-0.00106,-9.9e-05,0.087266,-0.0,-0.0,3.0,0.32744,0.329701,0.324753,0.322445,0.093638,-0.0,-0.0,-0.004443,-0.0,-0.0
133730,0.09266,0.002582,-0.029448,0.024718,-0.00106,-9.8e-05,0.087266,-0.0,-0.0,3.0,0.329345,0.326102,0.322811,0.326098,0.09355,-0.0,-0.0,-0.004381,-0.0,-0.0
133750,0.092536,0.002702,-0.029454,0.024334,-0.00106,-9.8e-05,0.087266,-0.0,-0.0,3.0,0.327213,0.325168,0.324982,0.327029,0.093463,-0.0,-0.0,-0.00432,-0.0,-0.0
133770,0.092292,0.002699,-0.029455,-0.073137,9.8e-05,-0.00106,0.087266,-0.0,-0.0,3.0,0.327552,0.330042,0.324639,0.322092,0.093377,-0.0,-0.0,-0.00426,-0.0,-0.0
133790,0.092414,0.002701,-0.029455,-0.073056,9.8e-05,-0.00106,0.087266,-0.0,-0.0,3.0,0.32755,0.334667,0.324642,0.317216,0.093292,-0.0,-0.0,-0.004201,-0.0,-0.0
133810,0.092658,0.00271,-0.029576,-0.024354,0.0,0.0,0.087266,-0.0,-0.0,3.0,0.327607,0.334391,0.324584,0.317513,0.093208,-0.0,-0.0,-0.004143,-0.0,-0.0
133830,0.09278,0.002712,-0.029576,0.048702,-0.00106,-9.9e-05,0.087266,-0.0,-0.0,3.0,0.327335,0.329934,0.324859,0.322204,0.093126,-0.0,-0.0,-0.004085,-0.0,-0.0
133850,0.092902,0.002713,-0.029575,0.048407,-0.00106,-9.9e-05,0.087266,-0.0,-0.0,3.0,0.326449,0.332125,0.325751,0.319921,0.093045,-0.0,-0.0,-0.004029,-0.0,-0.0
133870,0.092538,0.00258,-0.029449,0.000422,-0.000961,-0.001158,0.087266,-0.0,-0.0,3.0,0.329182,0.329433,0.322978,0.32272,0.092964,-0.0,-0.0,-0.003973,-0.0,-0.0
133890,0.092538,0.002586,-0.029571,0.049045,-0.00106,-9.8e-05,0.087266,-0.0,-0.0,3.0,0.328317,0.327203,0.323863,0.324993,0.092885,-0.0,-0.0,-0.003918,-0.0,-0.0
133910,0.092292,0.002704,-0.029577,-8.1e-05,-0.00106,-9.8e-05,0.087266,-0.0,-0.0,3.0,0.326934,0.326473,0.325264,0.325727,0.092807,-0.0,-0.0,-0.003863,-0.0,-0.0
133930,0.092169,0.002819,-0.029461,-0.049438,9.8e-05,-0.00106,0.087266,-0.0,-0.0,3.0,0.324293,0.3302,0.327894,0.321929,0.092731,-0.0,-0.0,-0.00381,-0.0,-0.0
133950,0.092049,0.002695,-0.029455,-0.048704,9.8e-05,-0.00106,0.087266,-0.0,-0.0,3.0,0.327617,0.330784,0.324574,0.321323,0.092655,-0.0,-0.0,-0.003757,-0.0,-0.0
133970,0.09217,0.002703,-0.029577,-0.024366,9.8e-05,-0.00106,0.087266,-0.0,-0.0,3.0,0.32682,0.33263,0.325379,0.319388,0.09258,-0.0,-0.0,-0.003705,-0.0,-0.0
133990,0.09217,0.002703,-0.029577,0.024386,-0.00106,-9.8e-05,0.087266,-0.0,-0.0,3.0,0.327565,0.330508,0.324626,0.32161,0.092506,-0.0,-0.0,-0.003654,-0.0,-0.0
134010,0.092048,0.002701,-0.029577,0.024398,-0.00106,-9.8e-05,0.087266,-0.0,-0.0,3.0,0.328013,0.330737,0.324172,0.321373,0.092434,-0.0,-0.0,-0.003603,-0.0,-0.0
134030,0.091926,0.002699,-0.029577,0.049048,-0.00106,-9.8e-05,0.087266,-0.0,-0.0,3.0,0.328005,0.326419,0.324181,0.325781,0.092362,-0.0,-0.0,-0.003553,-0.0,-0.0
134050,0.091804,0.002697,-0.029578,0.049409,-0.00106,-9.8e-05,0.087266,-0.0,-0.0,3.0,0.329249,0.326286,0.32291,0.325914,0.092291,-0.0,-0.0,-0.003504,-0.0,-0.0
134070,0.091553,0.00281,-0.029456,-0.025463,9.7e-05,-0.00106,0.087266,-0.0,-0.0,3.0,0.326413,0.32781,0.325787,0.324378,0.092222,-0.0,-0.0,-0.003455,-0.0,-0.0
134090,0.091681,0.002812,-0.029462,-0.048714,0.001157,-0.000962,0.087266,-0.0,-0.0,3.0,0.326195,0.330398,0.326006,0.321725,0.092153,-0.0,-0.0,-0.003407,-0.0,-0.0
134110,0.091927,0.002694,-0.029456,-0.000323,9.8e-05,-0.00106,0.087266,-0.0,-0.0,3.0,0.325767,0.33105,0.326433,0.321047,0.092085,-0.0,-0.0,-0.00336,-0.0,-0.0
134130,0.091925,0.002815,-0.029461,-0.024729,-0.000962,-0.001157,0.087266,-0.0,-0.0,3.0,0.324718,0.332341,0.327474,0.319693,0.092018,-0.0,-0.0,-0.003313,-0.0,-0.0
134150,0.092049,0.002695,-0.029455,-0.00033,-0.00106,-9.8e-05,0.087266,-0.0,-0.0,3.0,0.326847,0.334084,0.325351,0.317842,0.091952,-0.0,-0.0,-0.003267,-0.0,-0.0
134170,0.091925,0.002815,-0.029461,0.024397,-0.00106,-9.8e-05,0.087266,-0.0,-0.0,3.0,0.327262,0.330959,0.324933,0.321141,0.091887,-0.0,-0.0,-0.003222,-0.0,-0.0
134190,0.091928,0.002577,-0.029572,0.099268,-0.00106,-9.8e-05,0.087266,-0.0,-0.0,3.0,0.330352,0.325008,0.321772,0.327187,0.091823,-0.0,-0.0,-0.003177,-0.0,-0.0
134210,0.091555,0.002694,-0.029573,0.025072,-0.00106,-9.7e-05,0.087266,-0.0,-0.0,3.0,0.329274,0.324946,0.322883,0.327249,0.09176,-0.0,-0.0,-0.003133,-0.0,-0.0
134230,0.091311,0.002684,-0.029451,-0.04835,0.001157,-0.000963,0.087266,-0.0,-0.0,3.0,0.328043,0.329286,0.324141,0.322872,0.091698,-0.0,-0.0,-0.00309,-0.0,-0.0
134250,0.09131,0.002806,-0.029457,-0.049879,0.001157,-0.000963,0.087266,-0.0,-0.0,3.0,0.325183,0.330704,0.327014,0.321406,0.091636,-0.0,-0.0,-0.003047,-0.0,-0.0
