time_ms,roll,pitch,yaw,reference_roll,reference_pitch,reference_yaw,reference_throttle,throttle_1,throttle_2,throttle_3,throttle_4,roll_predicted,pitch_predicted,yaw_predicted,roll_rate_predicted,pitch_rate_predicted,yaw_rate_predicted,value1,value2,value3,value4,value5,value6
206743,-0.001874,0.001662,-0.188758,0.0,-0.0,-0.0,3.0,0.3261,0.316272,0.3261,0.335542,,,,,,,-0.002608,-0.002589,-0.172311,-0.046208,5.3e-05,-0.000862
206763,-0.001996,0.00165,-0.188792,0.0,-0.0,-0.0,3.0,0.3261,0.319263,0.3261,0.332748,,,,,,,-0.002617,-0.002588,-0.172328,-0.067783,5.2e-05,-0.000864
206783,-0.001984,0.001529,-0.188792,0.000947,-0.0,-0.0,3.0,0.3261,0.320187,0.3261,0.331871,,,,,,,-0.002754,-0.002587,-0.172345,-0.039166,3.9e-05,-0.000862
206803,-0.001874,0.001662,-0.188911,0.001907,-0.0,-0.0,3.0,0.3261,0.317879,0.3261,0.334049,,,,,,,-0.003015,-0.002585,-0.172363,0.032093,5.3e-05,-0.000872
206823,-0.002129,0.00176,-0.188911,0.005184,-0.0,-0.0,3.0,0.3261,0.31593,0.3261,0.335857,,,,,,,-0.003125,-0.002584,-0.17238,0.004303,6.2e-05,-0.00087
206843,-0.002395,0.00198,-0.18891,0.006288,-0.0,-0.0,3.0,0.3261,0.315232,0.3261,0.336497,,,,,,,-0.00325,-0.002583,-0.172398,-0.022767,8.4e-05,-0.000868
206863,-0.002505,0.001847,-0.18891,0.007421,-0.0,-0.0,3.0,0.3261,0.314682,0.3261,0.337,,,,,,,-0.003349,-0.002582,-0.172415,-0.024982,7.1e-05,-0.000867
206883,-0.002406,0.002102,-0.18903,0.010174,-0.0,-0.0,3.0,0.3261,0.312731,0.3261,0.338764,,,,,,,-0.003466,-0.002581,-0.172433,0.016413,9.6e-05,-0.000877
206903,-0.002528,0.00209,-0.189149,0.01167,-0.0,-0.0,3.0,0.3261,0.314143,0.3261,0.33749,,,,,,,-0.003323,-0.00258,-0.17245,-0.034421,9.5e-05,-0.000887
206923,-0.002517,0.001969,-0.189149,0.013636,-0.0,-0.0,3.0,0.3261,0.317016,0.3261,0.334854,,,,,,,-0.003211,-0.002579,-0.172468,-0.053724,8.3e-05,-0.000885
206943,-0.002227,0.001505,-0.18915,0.015441,-0.0,-0.0,3.0,0.3261,0.316459,0.3261,0.335369,,,,,,,-0.0032,-0.002577,-0.172486,-0.000225,3.6e-05,-0.000884
206963,-0.001741,0.001552,-0.18915,0.017252,-0.0,-0.0,3.0,0.3261,0.31323,0.3261,0.338315,,,,,,,-0.003196,-0.002576,-0.172504,0.092461,4.1e-05,-0.000882
206983,-0.001608,0.001442,-0.189151,0.018428,-0.0,-0.0,3.0,0.3261,0.309383,0.3261,0.341727,,,,,,,-0.00307,-0.002575,-0.172521,0.093819,3e-05,-0.00088
207003,-0.001365,0.001465,-0.189032,0.019904,-0.0,-0.0,3.0,0.3261,0.306699,0.3261,0.344047,,,,,,,-0.002844,-0.002574,-0.172538,0.097193,3.2e-05,-0.000867
207023,-0.001244,0.001476,-0.189032,0.022137,-0.0,-0.0,3.0,0.3261,0.304171,0.3261,0.346189,,,,,,,-0.002475,-0.002573,-0.172556,0.049449,3.3e-05,-0.000865
207043,-0.001134,0.001609,-0.189032,0.023246,-0.0,-0.0,3.0,0.3261,0.306466,0.3261,0.344247,,,,,,,-0.001992,-0.002572,-0.172573,-0.022175,4.6e-05,-0.000863
207063,-0.000526,0.001667,-0.189032,0.024951,-0.0,-0.0,3.0,0.3261,0.310734,0.3261,0.340541,,,,,,,-0.001252,-0.002571,-0.17259,-0.047606,5.2e-05,-0.000861
207083,0.000336,0.001626,-0.189152,0.027377,-0.0,-0.0,3.0,0.3261,0.314515,0.3261,0.337152,,,,,,,-0.000395,-0.00257,-0.172608,-0.046651,4.8e-05,-0.000872
207103,0.00132,0.001597,-0.189272,0.028572,-0.0,-0.0,3.0,0.3261,0.318351,0.3261,0.333607,,,,,,,0.000457,-0.002569,-0.172625,-0.021407,4.5e-05,-0.000882
207123,0.002194,0.001435,-0.189392,0.030307,-0.0,-0.0,3.0,0.3261,0.322405,0.3261,0.329739,,,,,,,0.001294,-0.002568,-0.172643,-0.014217,2.8e-05,-0.000892
207143,0.003189,0.001284,-0.189391,0.032022,-0.0,-0.0,3.0,0.3261,0.31833,0.3261,0.333627,,,,,,,0.001907,-0.002567,-0.17266,0.059371,1.3e-05,-0.00089
207163,0.004271,0.00151,-0.189511,0.033968,-0.0,-0.0,3.0,0.3261,0.31305,0.3261,0.338477,,,,,,,0.002635,-0.002566,-0.172678,0.127459,3.5e-05,-0.0009
207183,0.004988,0.001701,-0.18963,0.034983,-0.0,-0.0,3.0,0.3261,0.309115,0.3261,0.341962,,,,,,,0.003506,-0.002566,-0.172697,0.097804,5.5e-05,-0.000911
207203,0.005706,0.001892,-0.189749,0.037167,-0.0,-0.0,3.0,0.3261,0.31214,0.3261,0.339292,,,,,,,0.004614,-0.002565,-0.172715,0.022664,7.4e-05,-0.000921
207223,0.006701,0.001742,-0.189867,0.038022,-0.0,-0.0,3.0,0.3261,0.317163,0.3261,0.334717,,,,,,,0.005843,-0.002564,-0.172734,-0.022315,5.8e-05,-0.000931
207243,0.008038,0.00187,-0.19002,0.03959,-0.0,-0.0,3.0,0.3261,0.314841,0.3261,0.336855,,,,,,,0.006737,-0.002564,-0.172753,0.062941,7.1e-05,-0.000944
207263,0.009167,0.001609,-0.190017,0.041858,-0.0,-0.0,3.0,0.3261,0.315138,0.3261,0.336584,,,,,,,0.007853,-0.002563,-0.172772,0.065389,4.5e-05,-0.000942
207283,0.010162,0.001459,-0.190134,0.042675,-0.0,-0.0,3.0,0.3261,0.321185,0.3261,0.330917,,,,,,,0.009072,-0.002563,-0.172791,0.022293,3e-05,-0.000951
207303,0.0114,0.001333,-0.19025,0.044271,-0.0,-0.0,3.0,0.3261,0.315844,0.3261,0.335936,,,,,,,0.009932,-0.002562,-0.17281,0.095118,1.7e-05,-0.000961
207323,0.012517,0.001194,-0.190246,0.045841,-0.0,-0.0,3.0,0.3261,0.311106,0.3261,0.340212,,,,,,,0.010925,-0.002562,-0.172829,0.118948,4e-06,-0.000959
207343,0.01361,0.001299,-0.190362,0.047445,-0.0,-0.0,3.0,0.3261,0.309795,0.3261,0.341367,,,,,,,0.012134,-0.002561,-0.172848,0.096725,1.4e-05,-0.000969
207363,0.014849,0.001173,-0.190477,0.048686,-0.0,-0.0,3.0,0.3261,0.310211,0.3261,0.341002,,,,,,,0.013372,-0.002561,-0.172867,0.096809,1e-06,-0.000978
207383,0.016318,0.001191,-0.190471,0.050415,-0.0,-0.0,3.0,0.3261,0.313122,0.3261,0.338412,,,,,,,0.014963,-0.002561,-0.172887,0.073427,3e-06,-0.000976
207403,0.017558,0.001065,-0.190619,0.052149,-0.0,-0.0,3.0,0.3261,0.313966,0.3261,0.33765,,,,,,,0.01644,-0.002561,-0.172906,0.027757,-1e-05,-0.000988
207423,0.019039,0.000963,-0.19073,0.052149,-0.0,-0.0,3.0,0.3261,0.318256,0.3261,0.333696,,,,,,,0.018027,-0.00256,-0.172926,0.007304,-2e-05,-0.000998
207443,0.020752,0.001005,-0.190841,0.054275,-0.0,-0.0,3.0,0.3261,0.317313,0.3261,0.334577,,,,,,,0.019623,-0.00256,-0.172946,0.029807,-1.6e-05,-0.001007
207463,0.022464,0.001048,-0.190951,0.055756,-0.0,-0.0,3.0,0.3261,0.318057,0.3261,0.333883,,,,,,,0.021214,-0.00256,-0.172966,0.053147,-1.1e-05,-0.001016
207483,0.024056,0.001078,-0.190942,0.057283,-0.0,-0.0,3.0,0.3261,0.323127,0.3261,0.329037,,,,,,,0.023039,-0.00256,-0.172987,0.008258,-8e-06,-0.001013
207503,0.025891,0.001132,-0.191085,0.058669,-0.0,-0.0,3.0,0.3261,0.327453,0.3261,0.32474,,,,,,,0.024751,-0.002561,-0.173007,0.032041,-3e-06,-0.001025
207523,0.027725,0.001187,-0.191192,0.060013,-0.0,-0.0,3.0,0.3261,0.324423,0.3261,0.327766,,,,,,,0.026347,-0.002561,-0.173028,0.07778,3e-06,-0.001034
207543,0.029449,0.001107,-0.191178,0.060674,-0.0,-0.0,3.0,0.3261,0.320941,0.3261,0.331151,,,,,,,0.027712,-0.002561,-0.173049,0.146965,-5e-06,-0.00103
207563,0.03103,0.001263,-0.191441,0.062668,-0.0,-0.0,3.0,0.3261,0.319891,0.3261,0.332153,,,,,,,0.02931,-0.002561,-0.173069,0.143583,1e-05,-0.001054
207583,0.032621,0.001295,-0.191547,0.063435,-0.0,-0.0,3.0,0.3261,0.318612,0.3261,0.333362,,,,,,,0.031041,-0.002562,-0.17309,0.116719,1.4e-05,-0.001063
207603,0.034004,0.000937,-0.191529,0.064362,-0.0,-0.0,3.0,0.3261,0.312043,0.3261,0.339379,,,,,,,0.032437,-0.002562,-0.173112,0.114159,-2.2e-05,-0.001059
207623,0.035705,0.001103,-0.191635,0.065862,-0.0,-0.0,3.0,0.3261,0.311043,0.3261,0.340268,,,,,,,0.034152,-0.002563,-0.173133,0.111495,-6e-06,-0.001067
207643,0.037443,0.000905,-0.191769,0.066845,-0.0,-0.0,3.0,0.3261,0.316858,0.3261,0.335,,,,,,,0.036149,-0.002563,-0.173154,0.061587,-2.5e-05,-0.001079
207663,0.0393,0.000718,-0.191865,0.068007,-0.0,-0.0,3.0,0.3261,0.323581,0.3261,0.328594,,,,,,,0.0382,-0.002564,-0.173176,0.024275,-4.4e-05,-0.001086
207683,0.041291,0.000419,-0.191838,0.06913,-0.0,-0.0,3.0,0.3261,0.328762,0.3261,0.323409,,,,,,,0.040142,-0.002564,-0.173197,0.033746,-7.4e-05,-0.001081
207703,0.043613,0.000523,-0.191966,0.070246,-0.0,-0.0,3.0,0.3261,0.331475,0.3261,0.320603,,,,,,,0.042205,-0.002565,-0.173219,0.083553,-6.3e-05,-0.001092
207723,0.045823,0.000493,-0.192058,0.070855,-0.0,-0.0,3.0,0.3261,0.325987,0.3261,0.326213,,,,,,,0.044037,-0.002566,-0.173241,0.156191,-6.6e-05,-0.001099
207743,0.04789,0.000696,-0.192189,0.072396,-0.0,-0.0,3.0,0.3261,0.322679,0.3261,0.329474,,,,,,,0.046001,-0.002566,-0.173263,0.17621,-4.6e-05,-0.00111
207763,0.049822,0.001004,-0.19217,0.073021,-0.0,-0.0,3.0,0.3261,0.32332,0.3261,0.328849,,,,,,,0.048189,-0.002567,-0.173285,0.126935,-1.5e-05,-0.001106
207783,0.051537,0.001054,-0.192421,0.073525,-0.0,-0.0,3.0,0.3261,0.322637,0.3261,0.329515,,,,,,,0.050307,-0.002568,-0.173307,0.049256,-1e-05,-0.001128
207803,0.053601,0.001256,-0.192515,0.075038,-0.0,-0.0,3.0,0.3261,0.325029,0.3261,0.327166,,,,,,,0.052406,-0.002568,-0.17333,0.042528,1e-05,-0.001136
207823,0.055473,0.00095,-0.192634,0.075836,-0.0,-0.0,3.0,0.3261,0.326411,0.3261,0.325789,,,,,,,0.054277,-0.002569,-0.173353,0.04284,-2e-05,-0.001145
207843,0.057197,0.000875,-0.192724,0.076899,-0.0,-0.0,3.0,0.3261,0.326433,0.3261,0.325767,,,,,,,0.055874,-0.00257,-0.173376,0.067071,-2.8e-05,-0.001152
207863,0.058838,0.000425,-0.19284,0.077754,-0.0,-0.0,3.0,0.3261,0.327763,0.3261,0.324425,,,,,,,0.057348,-0.002571,-0.173399,0.099202,-7.3e-05,-0.001161
207883,0.060063,0.000425,-0.192938,0.078578,-0.0,-0.0,3.0,0.3261,0.3206,0.3261,0.331477,,,,,,,0.058458,-0.002572,-0.173422,0.121542,-7.2e-05,-0.001169
207903,0.061305,0.0003,-0.192949,0.079074,-0.0,-0.0,3.0,0.3261,0.313792,0.3261,0.337808,,,,,,,0.059444,-0.002573,-0.173445,0.170793,-8.5e-05,-0.001167
207923,0.062276,0.000398,-0.193054,0.079533,-0.0,-0.0,3.0,0.3261,0.311341,0.3261,0.340003,,,,,,,0.060786,-0.002574,-0.173469,0.099401,-7.5e-05,-0.001176
207943,0.063248,0.000492,-0.193039,0.080407,-0.0,-0.0,3.0,0.3261,0.31181,0.3261,0.339587,,,,,,,0.062122,-0.002575,-0.173492,0.029139,-6.5e-05,-0.001172
207963,0.064709,0.000638,-0.193171,0.080797,-0.0,-0.0,3.0,0.3261,0.321028,0.3261,0.331067,,,,,,,0.06384,-0.002577,-0.173516,-0.020317,-5.1e-05,-0.001183
207983,0.066409,0.000803,-0.193145,0.082033,-0.0,-0.0,3.0,0.3261,0.325473,0.3261,0.326726,,,,,,,0.065437,-0.002578,-0.173539,-0.000433,-3.4e-05,-0.001178
208003,0.068391,0.000627,-0.193138,0.082425,-0.0,-0.0,3.0,0.3261,0.332259,0.3261,0.319779,,,,,,,0.06715,-0.002579,-0.173563,0.051435,-5.1e-05,-0.001175
208023,0.070114,0.000554,-0.193221,0.083017,-0.0,-0.0,3.0,0.3261,0.335108,0.3261,0.316741,,,,,,,0.06875,-0.00258,-0.173587,0.07522,-5.9e-05,-0.001181
208043,0.072085,0.000504,-0.193334,0.083566,-0.0,-0.0,3.0,0.3261,0.334293,0.3261,0.317619,,,,,,,0.070465,-0.002581,-0.17361,0.124213,-6.3e-05,-0.001189
208063,0.073933,0.000448,-0.193567,0.084077,-0.0,-0.0,3.0,0.3261,0.326384,0.3261,0.325816,,,,,,,0.071948,-0.002583,-0.173634,0.19449,-6.9e-05,-0.00121
208083,0.075632,0.000618,-0.193656,0.08435,-0.0,-0.0,3.0,0.3261,0.32235,0.3261,0.329793,,,,,,,0.073689,-0.002584,-0.173658,0.186491,-5.2e-05,-0.001217
208103,0.077239,0.000534,-0.193773,0.084876,-0.0,-0.0,3.0,0.3261,0.320297,0.3261,0.331766,,,,,,,0.075535,-0.002585,-0.173683,0.140279,-6e-05,-0.001226
208123,0.078845,0.00045,-0.193888,0.08524,-0.0,-0.0,3.0,0.3261,0.322005,0.3261,0.330126,,,,,,,0.07738,-0.002586,-0.173707,0.09451,-6.8e-05,-0.001235
208143,0.080313,0.000476,-0.193975,0.085462,-0.0,-0.0,3.0,0.3261,0.327156,0.3261,0.32504,,,,,,,0.079318,-0.002587,-0.173732,0.004148,-6.6e-05,-0.001241
208163,0.081932,0.000266,-0.193965,0.085794,-0.0,-0.0,3.0,0.3261,0.329436,0.3261,0.322718,,,,,,,0.080931,-0.002589,-0.173757,0.005141,-8.7e-05,-0.001238
208183,0.083631,0.000432,-0.193932,0.086275,-0.0,-0.0,3.0,0.3261,0.329171,0.3261,0.32299,,,,,,,0.082392,-0.00259,-0.173782,0.050932,-7e-05,-0.001232
208203,0.085238,0.000339,-0.193806,0.086532,-0.0,-0.0,3.0,0.3261,0.332039,0.3261,0.320011,,,,,,,0.083995,-0.002591,-0.173806,0.051969,-7.9e-05,-0.001217
208223,0.086573,0.000474,-0.193898,0.08675,-0.0,-0.0,3.0,0.3261,0.334905,0.3261,0.31696,,,,,,,0.085449,-0.002593,-0.173831,0.028862,-6.5e-05,-0.001224
208243,0.087937,0.000367,-0.194014,0.086845,-0.0,-0.0,3.0,0.3261,0.334302,0.3261,0.317609,,,,,,,0.086688,-0.002595,-0.173856,0.052998,-7.6e-05,-0.001233
208263,0.089162,0.00037,-0.194102,0.087014,-0.0,-0.0,3.0,0.3261,0.32802,0.3261,0.324165,,,,,,,0.087684,-0.002596,-0.17388,0.096991,-7.5e-05,-0.001239
208283,0.090271,0.000361,-0.194227,0.087093,-0.0,-0.0,3.0,0.3261,0.323545,0.3261,0.328629,,,,,,,0.088559,-0.002598,-0.173905,0.142021,-7.6e-05,-0.001249
208303,0.091022,0.000195,-0.19432,0.087202,-0.0,-0.0,3.0,0.3261,0.320641,0.3261,0.331438,,,,,,,0.089551,-0.002599,-0.17393,0.095688,-9.3e-05,-0.001256
208323,0.091767,0.000151,-0.194453,0.087236,-0.0,-0.0,3.0,0.3261,0.321105,0.3261,0.330993,,,,,,,0.090649,-0.002601,-0.173955,0.027816,-9.7e-05,-0.001267
208343,0.092762,4e-06,-0.19442,0.087262,-0.0,-0.0,3.0,0.3261,0.322587,0.3261,0.329562,,,,,,,0.091643,-0.002603,-0.17398,0.02795,-0.000111,-0.001261
208363,0.093969,0.00025,-0.194553,0.087232,-0.0,-0.0,3.0,0.3261,0.325983,0.3261,0.326217,,,,,,,0.092862,-0.002605,-0.174006,0.025567,-8.7e-05,-0.001272
208383,0.095073,0.000236,-0.194522,0.087161,-0.0,-0.0,3.0,0.3261,0.330125,0.3261,0.322006,,,,,,,0.094106,-0.002607,-0.174031,-0.001228,-8.8e-05,-0.001266
208403,0.096656,0.000397,-0.19464,0.087051,-0.0,-0.0,3.0,0.3261,0.339856,0.3261,0.311507,,,,,,,0.095694,-0.002609,-0.174057,-0.002219,-7.2e-05,-0.001275
208423,0.098038,4.2e-05,-0.194586,0.086903,-0.0,-0.0,3.0,0.3261,0.340083,0.3261,0.311251,,,,,,,0.096926,-0.002611,-0.174082,0.02675,-0.000107,-0.001267
208443,0.099754,9.4e-05,-0.194694,0.086786,-0.0,-0.0,3.0,0.3261,0.34012,0.3261,0.31121,,,,,,,0.098141,-0.002613,-0.174107,0.123075,-0.000101,-0.001276
208463,0.100986,9.3e-05,-0.194694,0.086658,-0.0,-0.0,3.0,0.3261,0.333572,0.3261,0.318389,,,,,,,0.099258,-0.002615,-0.174133,0.145001,-0.000101,-0.001273
208483,0.102101,-3.7e-05,-0.194774,0.086371,-0.0,-0.0,3.0,0.3261,0.328082,0.3261,0.324102,,,,,,,0.100371,-0.002617,-0.174158,0.145502,-0.000114,-0.001279
208503,0.102957,4.7e-05,-0.194788,0.086212,-0.0,-0.0,3.0,0.3261,0.32468,0.3261,0.327512,,,,,,,0.101484,-0.002619,-0.174184,0.095929,-0.000105,-0.001278
208523,0.103685,0.000119,-0.19477,0.085913,-0.0,-0.0,3.0,0.3261,0.327147,0.3261,0.325049,,,,,,,0.102704,-0.002621,-0.174209,0.001363,-9.8e-05,-0.001273
208543,0.104533,0.000209,-0.194868,0.085394,-0.0,-0.0,3.0,0.3261,0.329095,0.3261,0.323068,,,,,,,0.103686,-0.002623,-0.174235,-0.024306,-8.9e-05,-0.00128
208563,0.105521,0.00019,-0.194991,0.085127,-0.0,-0.0,3.0,0.3261,0.335572,0.3261,0.316239,,,,,,,0.104671,-0.002625,-0.174261,-0.023731,-9.1e-05,-0.00129
208583,0.106371,0.000273,-0.194969,0.084704,-0.0,-0.0,3.0,0.3261,0.337497,0.3261,0.314135,,,,,,,0.105406,-0.002627,-0.174286,-0.001849,-8.2e-05,-0.001285
208603,0.106995,0.000219,-0.195102,0.084242,-0.0,-0.0,3.0,0.3261,0.336879,0.3261,0.314814,,,,,,,0.105892,-0.002628,-0.174312,0.024905,-8.7e-05,-0.001296
208623,0.107613,0.000157,-0.19508,0.083694,-0.0,-0.0,3.0,0.3261,0.336775,0.3261,0.314929,,,,,,,0.106373,-0.00263,-0.174338,0.051363,-9.3e-05,-0.001291
208643,0.10811,9e-05,-0.19518,0.08321,-0.0,-0.0,3.0,0.3261,0.326883,0.3261,0.325314,,,,,,,0.106615,-0.002632,-0.174364,0.100173,-0.0001,-0.001299
208663,0.108584,0.000252,-0.195054,0.08266,-0.0,-0.0,3.0,0.3261,0.32487,0.3261,0.327324,,,,,,,0.107111,-0.002633,-0.17439,0.096084,-8.3e-05,-0.001284
208683,0.108815,0.000398,-0.195055,0.082148,-0.0,-0.0,3.0,0.3261,0.328066,0.3261,0.324118,,,,,,,0.107852,-0.002635,-0.174416,-0.002189,-6.9e-05,-0.001281
208703,0.109427,0.000465,-0.195193,0.081684,-0.0,-0.0,3.0,0.3261,0.335582,0.3261,0.316229,,,,,,,0.1087,-0.002637,-0.174441,-0.047412,-6.2e-05,-0.001292
208723,0.110167,0.000415,-0.195167,0.080838,-0.0,-0.0,3.0,0.3261,0.337428,0.3261,0.314212,,,,,,,0.109341,-0.002639,-0.174467,-0.02846,-6.7e-05,-0.001287
208743,0.111047,0.000257,-0.195167,0.080054,-0.0,-0.0,3.0,0.3261,0.337055,0.3261,0.314622,,,,,,,0.109842,-0.00264,-0.174493,0.04438,-8.2e-05,-0.001284
208763,0.111434,5e-05,-0.195144,0.079683,-0.0,-0.0,3.0,0.3261,0.337577,0.3261,0.314047,,,,,,,0.110352,-0.002642,-0.174519,0.020946,-0.000103,-0.00128
208783,0.111932,-2.4e-05,-0.195124,0.078917,-0.0,-0.0,3.0,0.3261,0.338276,0.3261,0.313273,,,,,,,0.110797,-0.002644,-0.174544,0.030886,-0.00011,-0.001275
208803,0.112429,-9.7e-05,-0.195104,0.078041,-0.0,-0.0,3.0,0.3261,0.333732,0.3261,0.318217,,,,,,,0.11105,-0.002645,-0.17457,0.077949,-0.000117,-0.001271
208823,0.112525,0.000164,-0.195233,0.077582,-0.0,-0.0,3.0,0.3261,0.332024,0.3261,0.320026,,,,,,,0.111395,-0.002647,-0.174595,0.030141,-9.1e-05,-0.001281
208843,0.112525,0.000164,-0.195233,0.076421,-0.0,-0.0,3.0,0.3261,0.330228,0.3261,0.321901,,,,,,,0.111533,-0.002649,-0.174621,0.003521,-9.1e-05,-0.001278
208863,0.112513,0.000285,-0.19524,0.075614,-0.0,-0.0,3.0,0.3261,0.3302,0.3261,0.321929,,,,,,,0.111546,-0.002651,-0.174646,-0.001162,-7.8e-05,-0.001276
208883,0.112501,0.000407,-0.195247,0.074401,-0.0,-0.0,3.0,0.3261,0.331093,0.3261,0.321001,,,,,,,0.111557,-0.002653,-0.174672,-0.005671,-6.6e-05,-0.001275
208903,0.112271,0.000262,-0.195246,0.073749,-0.0,-0.0,3.0,0.3261,0.332352,0.3261,0.319681,,,,,,,0.111454,-0.002655,-0.174697,-0.030256,-8e-05,-0.001272
208923,0.11215,0.00025,-0.19525,0.072646,-0.0,-0.0,3.0,0.3261,0.332192,0.3261,0.31985,,,,,,,0.111326,-0.002657,-0.174723,-0.028871,-8.1e-05,-0.00127
208943,0.112174,0.0,-0.195117,0.071612,-0.0,-0.0,3.0,0.3261,0.333518,0.3261,0.318446,,,,,,,0.111204,-0.002658,-0.174748,-0.000692,-0.000106,-0.001254
208963,0.112163,0.000115,-0.195005,0.070546,-0.0,-0.0,3.0,0.3261,0.337496,0.3261,0.314136,,,,,,,0.11143,-0.00266,-0.174773,-0.0464,-9.5e-05,-0.00124
208983,0.112175,-7e-06,-0.194998,0.069868,-0.0,-0.0,3.0,0.3261,0.340659,0.3261,0.310601,,,,,,,0.111417,-0.002662,-0.174798,-0.041489,-0.000107,-0.001237
209003,0.112283,0.000133,-0.195121,0.068848,-0.0,-0.0,3.0,0.3261,0.3395,0.3261,0.311907,,,,,,,0.111289,-0.002664,-0.174823,0.004007,-9.2e-05,-0.001247
209023,0.112404,0.000152,-0.195236,0.067832,-0.0,-0.0,3.0,0.3261,0.337815,0.3261,0.313784,,,,,,,0.111171,-0.002666,-0.174848,0.049773,-9e-05,-0.001256
209043,0.112271,0.000262,-0.195246,0.067157,-0.0,-0.0,3.0,0.3261,0.335352,0.3261,0.316478,,,,,,,0.111055,-0.002667,-0.174873,0.046637,-7.9e-05,-0.001254
209063,0.112028,0.000244,-0.195372,0.066138,-0.0,-0.0,3.0,0.3261,0.334405,0.3261,0.317497,,,,,,,0.110933,-0.002669,-0.174898,0.023123,-8.1e-05,-0.001264
209083,0.111786,0.000214,-0.19526,0.064121,-0.0,-0.0,3.0,0.3261,0.334261,0.3261,0.317653,,,,,,,0.110805,-0.002671,-0.174923,0.001259,-8.4e-05,-0.001251
209103,0.111532,0.000304,-0.195154,0.062756,-0.0,-0.0,3.0,0.3261,0.332335,0.3261,0.319699,,,,,,,0.110572,-0.002672,-0.174948,-0.002738,-7.4e-05,-0.001238
209123,0.111277,0.000402,-0.195167,0.061464,-0.0,-0.0,3.0,0.3261,0.336412,0.3261,0.315325,,,,,,,0.110567,-0.002674,-0.174973,-0.050694,-6.4e-05,-0.001236
209143,0.110907,0.000365,-0.195141,0.060153,-0.0,-0.0,3.0,0.3261,0.338426,0.3261,0.313107,,,,,,,0.110332,-0.002676,-0.174998,-0.076856,-6.8e-05,-0.001231
209163,0.110555,0.000208,-0.195144,0.059327,-0.0,-0.0,3.0,0.3261,0.341603,0.3261,0.309525,,,,,,,0.109958,-0.002677,-0.175022,-0.072558,-8.4e-05,-0.001229
209183,0.110312,0.000184,-0.195151,0.058494,-0.0,-0.0,3.0,0.3261,0.340748,0.3261,0.3105,,,,,,,0.109455,-0.002679,-0.175047,-0.022379,-8.6e-05,-0.001228
209203,0.109948,0.000148,-0.195161,0.056672,-0.0,-0.0,3.0,0.3261,0.338074,0.3261,0.313498,,,,,,,0.108841,-0.00268,-0.175071,0.025626,-8.9e-05,-0.001226
209223,0.109208,0.000198,-0.195186,0.055563,-0.0,-0.0,3.0,0.3261,0.334191,0.3261,0.317727,,,,,,,0.108095,-0.002681,-0.175096,0.026821,-8.4e-05,-0.001226
209243,0.108329,0.000356,-0.195186,0.054591,-0.0,-0.0,3.0,0.3261,0.331536,0.3261,0.320538,,,,,,,0.107354,-0.002683,-0.17512,0.000214,-6.8e-05,-0.001224
209263,0.107346,0.000382,-0.195218,0.052486,-0.0,-0.0,3.0,0.3261,0.331599,0.3261,0.320473,,,,,,,0.106642,-0.002685,-0.175145,-0.051916,-6.5e-05,-0.001224
209283,0.106496,0.000305,-0.195359,0.050836,-0.0,-0.0,3.0,0.3261,0.332413,0.3261,0.319617,,,,,,,0.10593,-0.002687,-0.175169,-0.078404,-7.3e-05,-0.001236
209303,0.105762,0.000233,-0.195342,0.049335,-0.0,-0.0,3.0,0.3261,0.336485,0.3261,0.315246,,,,,,,0.105323,-0.002688,-0.175194,-0.102901,-8e-05,-0.001232
209323,0.105059,-8.8e-05,-0.195229,0.048578,-0.0,-0.0,3.0,0.3261,0.33959,0.3261,0.311806,,,,,,,0.104591,-0.00269,-0.175218,-0.097303,-0.000112,-0.001218
209343,0.104319,-3.8e-05,-0.195254,0.04683,-0.0,-0.0,3.0,0.3261,0.34337,0.3261,0.307489,,,,,,,0.103703,-0.002692,-0.175243,-0.068861,-0.000107,-0.001218
209363,0.103452,-7e-06,-0.195127,0.04683,-0.0,-0.0,3.0,0.3261,0.341296,0.3261,0.309876,,,,,,,0.102578,-0.002694,-0.175267,-0.019239,-0.000103,-0.001203
209383,0.102457,0.00014,-0.195164,0.043925,-0.0,-0.0,3.0,0.3261,0.336246,0.3261,0.315507,,,,,,,0.101339,-0.002695,-0.175291,0.027796,-8.9e-05,-0.001204
209403,0.101336,0.000268,-0.195048,0.042987,-0.0,-0.0,3.0,0.3261,0.328462,0.3261,0.323715,,,,,,,0.100006,-0.002697,-0.175315,0.06856,-7.6e-05,-0.00119
209423,0.099856,0.000368,-0.195095,0.040602,-0.0,-0.0,3.0,0.3261,0.327732,0.3261,0.324458,,,,,,,0.09904,-0.002699,-0.175339,-0.030352,-6.5e-05,-0.001193
209443,0.098624,0.000375,-0.195214,0.039147,-0.0,-0.0,3.0,0.3261,0.334249,0.3261,0.317665,,,,,,,0.098285,-0.0027,-0.175363,-0.122103,-6.5e-05,-0.001202
209463,0.097666,0.000152,-0.195112,0.037515,-0.0,-0.0,3.0,0.3261,0.335758,0.3261,0.316038,,,,,,,0.09733,-0.002702,-0.175386,-0.122716,-8.7e-05,-0.00119
209483,0.096799,0.00019,-0.195102,0.035838,-0.0,-0.0,3.0,0.3261,0.339531,0.3261,0.311873,,,,,,,0.096336,-0.002704,-0.17541,-0.098442,-8.3e-05,-0.001186
209503,0.09584,-2.7e-05,-0.195119,0.034138,-0.0,-0.0,3.0,0.3261,0.34192,0.3261,0.309162,,,,,,,0.095246,-0.002706,-0.175434,-0.073136,-0.000104,-0.001186
209523,0.094597,9.6e-05,-0.195123,0.032887,-0.0,-0.0,3.0,0.3261,0.342451,0.3261,0.308551,,,,,,,0.094,-0.002708,-0.175458,-0.072531,-9.2e-05,-0.001184
209543,0.093383,-2.4e-05,-0.195151,0.031605,-0.0,-0.0,3.0,0.3261,0.337802,0.3261,0.313799,,,,,,,0.092535,-0.00271,-0.175481,-0.024261,-0.000103,-0.001184
209563,0.091885,0.000197,-0.195165,0.029926,-0.0,-0.0,3.0,0.3261,0.333157,0.3261,0.31883,,,,,,,0.091036,-0.002711,-0.175505,-0.023879,-8.1e-05,-0.001183
209583,0.090296,0.000163,-0.195205,0.027656,-0.0,-0.0,3.0,0.3261,0.330411,0.3261,0.321711,,,,,,,0.089588,-0.002713,-0.175529,-0.051297,-8.4e-05,-0.001185
209603,0.088677,0.000366,-0.1951,0.027656,-0.0,-0.0,3.0,0.3261,0.33007,0.3261,0.322064,,,,,,,0.088092,-0.002714,-0.175552,-0.074799,-6.4e-05,-0.001172
209623,0.087095,0.000205,-0.194979,0.024478,-0.0,-0.0,3.0,0.3261,0.333514,0.3261,0.318451,,,,,,,0.086642,-0.002716,-0.175576,-0.100372,-8e-05,-0.001157
209643,0.085505,0.000172,-0.195017,0.0233,-0.0,-0.0,3.0,0.3261,0.334023,0.3261,0.317907,,,,,,,0.08506,-0.002718,-0.175599,-0.101722,-8.3e-05,-0.001159
209663,0.083801,-0.0,-0.194898,0.021477,-0.0,-0.0,3.0,0.3261,0.333253,0.3261,0.318728,,,,,,,0.083355,-0.00272,-0.175622,-0.101692,-0.0001,-0.001145
209683,0.082109,-0.000294,-0.194772,0.019686,-0.0,-0.0,3.0,0.3261,0.333847,0.3261,0.318095,,,,,,,0.081655,-0.002722,-0.175645,-0.100155,-0.000129,-0.00113
209703,0.080386,-0.000218,-0.194816,0.017886,-0.0,-0.0,3.0,0.3261,0.335414,0.3261,0.316411,,,,,,,0.080037,-0.002724,-0.175667,-0.120303,-0.000121,-0.001132
209723,0.078548,-0.000275,-0.19482,0.016806,-0.0,-0.0,3.0,0.3261,0.334885,0.3261,0.316981,,,,,,,0.078183,-0.002726,-0.17569,-0.117121,-0.000127,-0.00113
209743,0.076789,0.00016,-0.194756,0.013965,-0.0,-0.0,3.0,0.3261,0.338077,0.3261,0.313494,,,,,,,0.076416,-0.002728,-0.175713,-0.115502,-8.3e-05,-0.001121
209763,0.075073,0.000115,-0.194757,0.013056,-0.0,-0.0,3.0,0.3261,0.331884,0.3261,0.320174,,,,,,,0.074212,-0.00273,-0.175735,-0.021703,-8.8e-05,-0.001119
209783,0.073095,0.000289,-0.194804,0.012053,-0.0,-0.0,3.0,0.3261,0.330374,0.3261,0.321749,,,,,,,0.072274,-0.002732,-0.175758,-0.029528,-7e-05,-0.001122
209803,0.070905,7.4e-05,-0.194807,0.009279,-0.0,-0.0,3.0,0.3261,0.326914,0.3261,0.325284,,,,,,,0.07021,-0.002734,-0.17578,-0.053767,-9.1e-05,-0.00112
209823,0.068716,-0.000144,-0.194689,0.007303,-0.0,-0.0,3.0,0.3261,0.326091,0.3261,0.32611,,,,,,,0.068268,-0.002736,-0.175802,-0.101298,-0.000113,-0.001106
209843,0.066769,-0.000339,-0.194567,0.005445,-0.0,-0.0,3.0,0.3261,0.325264,0.3261,0.326933,,,,,,,0.066323,-0.002738,-0.175824,-0.101517,-0.000132,-0.001091
209863,0.064803,-0.00029,-0.194487,0.003619,-0.0,-0.0,3.0,0.3261,0.330037,0.3261,0.322098,,,,,,,0.06459,-0.002741,-0.175846,-0.146482,-0.000127,-0.001081
209883,0.062711,-0.000253,-0.194372,0.002692,-0.0,-0.0,3.0,0.3261,0.336217,0.3261,0.315538,,,,,,,0.062861,-0.002743,-0.175867,-0.216158,-0.000123,-0.001068
209903,0.060976,-5.9e-05,-0.194289,0.000611,-0.0,-0.0,3.0,0.3261,0.340223,0.3261,0.311093,,,,,,,0.060869,-0.002745,-0.175889,-0.166776,-0.000103,-0.001057
209923,0.059006,-9e-06,-0.19417,-0.000548,-0.0,-0.0,3.0,0.3261,0.336885,0.3261,0.314808,,,,,,,0.058534,-0.002747,-0.17591,-0.096673,-9.8e-05,-0.001043
209943,0.056793,1.6e-05,-0.194053,-0.002805,-0.0,-0.0,3.0,0.3261,0.332905,0.3261,0.319097,,,,,,,0.056075,-0.002749,-0.175931,-0.049353,-9.5e-05,-0.001029
209963,0.054219,1.1e-05,-0.194094,-0.003834,-0.0,-0.0,3.0,0.3261,0.327102,0.3261,0.325094,,,,,,,0.053514,-0.002751,-0.175951,-0.05186,-9.6e-05,-0.001031
209983,0.051775,-0.000108,-0.193974,-0.005672,-0.0,-0.0,3.0,0.3261,0.321872,0.3261,0.330255,,,,,,,0.051061,-0.002753,-0.175972,-0.050088,-0.000108,-0.001017
210003,0.049334,-0.000226,-0.193887,-0.008259,-0.0,-0.0,3.0,0.3261,0.318482,0.3261,0.333484,,,,,,,0.048634,-0.002755,-0.175992,-0.052713,-0.000119,-0.001007
210023,0.046733,1.1e-05,-0.193893,-0.010097,-0.0,-0.0,3.0,0.3261,0.321642,0.3261,0.330477,,,,,,,0.046543,-0.002757,-0.176012,-0.150765,-9.5e-05,-0.001005
210043,0.04439,0.000148,-0.193807,-0.011921,-0.0,-0.0,3.0,0.3261,0.329641,0.3261,0.322506,,,,,,,0.044562,-0.002759,-0.176032,-0.220403,-8.1e-05,-0.000995
210063,0.042299,0.000187,-0.193679,-0.013734,-0.0,-0.0,3.0,0.3261,0.333934,0.3261,0.318002,,,,,,,0.042339,-0.002761,-0.176052,-0.195157,-7.7e-05,-0.00098
210083,0.04021,0.000229,-0.193704,-0.014825,-0.0,-0.0,3.0,0.3261,0.335969,0.3261,0.315809,,,,,,,0.039998,-0.002763,-0.176072,-0.146571,-7.3e-05,-0.00098
210103,0.03801,0.000136,-0.193573,-0.016145,-0.0,-0.0,3.0,0.3261,0.334686,0.3261,0.317196,,,,,,,0.037538,-0.002764,-0.176091,-0.096694,-8.2e-05,-0.000965
210123,0.035557,0.000141,-0.193479,-0.018554,-0.0,-0.0,3.0,0.3261,0.329866,0.3261,0.322274,,,,,,,0.034957,-0.002766,-0.17611,-0.07204,-8.1e-05,-0.000954
210143,0.033125,-9.8e-05,-0.193345,-0.019554,-0.0,-0.0,3.0,0.3261,0.321103,0.3261,0.330995,,,,,,,0.032278,-0.002767,-0.176129,-0.02446,-0.000105,-0.000939
210163,0.030527,0.000139,-0.193253,-0.021152,-0.0,-0.0,3.0,0.3261,0.318838,0.3261,0.333149,,,,,,,0.029944,-0.002769,-0.176148,-0.075382,-8.1e-05,-0.000928
210183,0.027829,0.000119,-0.193001,-0.023716,-0.0,-0.0,3.0,0.3261,0.322172,0.3261,0.329965,,,,,,,0.027741,-0.002771,-0.176166,-0.170483,-8.3e-05,-0.000901
210203,0.025462,0.000502,-0.192904,-0.025463,-0.0,-0.0,3.0,0.3261,0.326167,0.3261,0.326034,,,,,,,0.025513,-0.002772,-0.176184,-0.197273,-4.5e-05,-0.000889
210223,0.02324,0.000652,-0.192682,-0.02722,-0.0,-0.0,3.0,0.3261,0.329203,0.3261,0.322956,,,,,,,0.023165,-0.002774,-0.176202,-0.172915,-3e-05,-0.000865
210243,0.020895,0.000793,-0.192662,-0.028959,-0.0,-0.0,3.0,0.3261,0.332324,0.3261,0.319711,,,,,,,0.020713,-0.002775,-0.176219,-0.152284,-1.5e-05,-0.000862
210263,0.018332,0.000666,-0.192436,-0.030085,-0.0,-0.0,3.0,0.3261,0.330471,0.3261,0.321648,,,,,,,0.017999,-0.002775,-0.176236,-0.123231,-2.8e-05,-0.000837
210283,0.015648,0.000527,-0.192209,-0.031367,-0.0,-0.0,3.0,0.3261,0.325475,0.3261,0.326723,,,,,,,0.015174,-0.002775,-0.176253,-0.096216,-4.2e-05,-0.000813
210303,0.012707,0.000488,-0.192065,-0.03344,-0.0,-0.0,3.0,0.3261,0.316392,0.3261,0.335431,,,,,,,0.011994,-0.002776,-0.176269,-0.050134,-4.6e-05,-0.000797
210323,0.009513,0.000548,-0.191956,-0.034693,-0.0,-0.0,3.0,0.3261,0.312025,0.3261,0.339395,,,,,,,0.009166,-0.002776,-0.176285,-0.120687,-4e-05,-0.000784
210343,0.006429,0.000741,-0.191724,-0.035992,-0.0,-0.0,3.0,0.3261,0.313507,0.3261,0.338065,,,,,,,0.006333,-0.002777,-0.1763,-0.168951,-2e-05,-0.00076
210363,0.003454,0.001068,-0.191608,-0.038094,-0.0,-0.0,3.0,0.3261,0.315299,0.3261,0.336437,,,,,,,0.003491,-0.002777,-0.176315,-0.194609,1.2e-05,-0.000747
210383,0.000613,0.001285,-0.19137,-0.039757,-0.0,-0.0,3.0,0.3261,0.316645,0.3261,0.335198,,,,,,,0.00054,-0.002777,-0.17633,-0.173472,3.4e-05,-0.000721
210403,-0.002339,0.00137,-0.191213,-0.041392,-0.0,-0.0,3.0,0.3261,0.321798,0.3261,0.330326,,,,,,,-0.002293,-0.002777,-0.176344,-0.196234,4.3e-05,-0.000704
210423,-0.005168,0.001467,-0.191089,-0.043001,-0.0,-0.0,3.0,0.3261,0.323361,0.3261,0.328809,,,,,,,-0.00523,-0.002776,-0.176359,-0.175451,5.2e-05,-0.00069
210443,-0.007987,0.001442,-0.190963,-0.043875,-0.0,-0.0,3.0,0.3261,0.319179,0.3261,0.332827,,,,,,,-0.00831,-0.002775,-0.176372,-0.125224,5e-05,-0.000676
210463,-0.010926,0.001407,-0.190834,-0.045261,-0.0,-0.0,3.0,0.3261,0.31444,0.3261,0.33722,,,,,,,-0.011362,-0.002774,-0.176386,-0.103558,4.6e-05,-0.000662
210483,-0.013733,0.001262,-0.190704,-0.04723,-0.0,-0.0,3.0,0.3261,0.314989,0.3261,0.33672,,,,,,,-0.014181,-0.002774,-0.176399,-0.101237,3.1e-05,-0.000648
210503,-0.016562,0.00136,-0.19057,-0.048528,-0.0,-0.0,3.0,0.3261,0.309926,0.3261,0.341252,,,,,,,-0.017122,-0.002773,-0.176411,-0.079658,4.1e-05,-0.000633
210523,-0.019491,0.001204,-0.19047,-0.050487,-0.0,-0.0,3.0,0.3261,0.308689,0.3261,0.342332,,,,,,,-0.019936,-0.002772,-0.176424,-0.101812,2.5e-05,-0.000622
210543,-0.022321,0.001304,-0.190212,-0.052078,-0.0,-0.0,3.0,0.3261,0.311746,0.3261,0.339644,,,,,,,-0.02254,-0.002771,-0.176436,-0.145377,3.5e-05,-0.000595
210563,-0.025162,0.001525,-0.19007,-0.052812,-0.0,-0.0,3.0,0.3261,0.315184,0.3261,0.336542,,,,,,,-0.025025,-0.00277,-0.176447,-0.213804,5.7e-05,-0.000579
210583,-0.027749,0.001648,-0.189928,-0.054277,-0.0,-0.0,3.0,0.3261,0.313756,0.3261,0.33784,,,,,,,-0.027729,-0.002768,-0.176459,-0.191212,6.9e-05,-0.000564
210603,-0.030324,0.001651,-0.189666,-0.055697,-0.0,-0.0,3.0,0.3261,0.312264,0.3261,0.339182,,,,,,,-0.030542,-0.002766,-0.17647,-0.14547,7e-05,-0.000537
210623,-0.032911,0.001775,-0.18952,-0.056486,-0.0,-0.0,3.0,0.3261,0.319201,0.3261,0.332806,,,,,,,-0.032899,-0.002765,-0.176481,-0.189582,8.2e-05,-0.000521
210643,-0.035499,0.001899,-0.189406,-0.057622,-0.0,-0.0,3.0,0.3261,0.322702,0.3261,0.329451,,,,,,,-0.035479,-0.002763,-0.176491,-0.191305,9.4e-05,-0.000509
210663,-0.038074,0.001901,-0.189258,-0.059346,-0.0,-0.0,3.0,0.3261,0.320718,0.3261,0.331364,,,,,,,-0.038308,-0.002762,-0.176502,-0.142352,9.4e-05,-0.000493
210683,-0.040782,0.002014,-0.189105,-0.060147,-0.0,-0.0,3.0,0.3261,0.312297,0.3261,0.339152,,,,,,,-0.04148,-0.00276,-0.176511,-0.053025,0.000105,-0.000477
210703,-0.04348,0.002003,-0.189105,-0.062326,-0.0,-0.0,3.0,0.3261,0.313005,0.3261,0.338518,,,,,,,-0.044172,-0.002758,-0.176521,-0.054317,0.000104,-0.000476
210723,-0.046333,0.002348,-0.18894,-0.063182,-0.0,-0.0,3.0,0.3261,0.309078,0.3261,0.341993,,,,,,,-0.046875,-0.002756,-0.176531,-0.082984,0.000138,-0.000458
210743,-0.04902,0.002219,-0.188819,-0.064445,-0.0,-0.0,3.0,0.3261,0.304524,0.3261,0.345892,,,,,,,-0.049572,-0.002754,-0.17654,-0.081213,0.000125,-0.000445
210763,-0.051606,0.002344,-0.188658,-0.065671,-0.0,-0.0,3.0,0.3261,0.302447,0.3261,0.347625,,,,,,,-0.052001,-0.002752,-0.176548,-0.111463,0.000137,-0.000428
210783,-0.054157,0.002106,-0.188505,-0.066861,-0.0,-0.0,3.0,0.3261,0.306426,0.3261,0.344281,,,,,,,-0.054327,-0.002749,-0.176557,-0.154824,0.000113,-0.000412
210803,-0.056371,0.002148,-0.188263,-0.067533,-0.0,-0.0,3.0,0.3261,0.312127,0.3261,0.339304,,,,,,,-0.056439,-0.002747,-0.176565,-0.17422,0.000117,-0.000387
210823,-0.058326,0.002089,-0.188112,-0.069217,-0.0,-0.0,3.0,0.3261,0.318191,0.3261,0.333757,,,,,,,-0.058553,-0.002744,-0.176572,-0.143703,0.000111,-0.000371
210843,-0.060407,0.002015,-0.188112,-0.069989,-0.0,-0.0,3.0,0.3261,0.316617,0.3261,0.335223,,,,,,,-0.060885,-0.002741,-0.176579,-0.095253,0.000104,-0.000371
210863,-0.062749,0.002165,-0.187947,-0.070551,-0.0,-0.0,3.0,0.3261,0.31512,0.3261,0.3366,,,,,,,-0.063247,-0.002738,-0.176586,-0.091585,0.000118,-0.000353
210883,-0.065217,0.002308,-0.187692,-0.072258,-0.0,-0.0,3.0,0.3261,0.309098,0.3261,0.341976,,,,,,,-0.065842,-0.002735,-0.176593,-0.067235,0.000132,-0.000327
210903,-0.067681,0.002447,-0.18752,-0.073119,-0.0,-0.0,3.0,0.3261,0.306242,0.3261,0.344437,,,,,,,-0.068179,-0.002732,-0.1766,-0.091668,0.000146,-0.000309
210923,-0.070404,0.002685,-0.187372,-0.074123,-0.0,-0.0,3.0,0.3261,0.301523,0.3261,0.348386,,,,,,,-0.070637,-0.002729,-0.176606,-0.142543,0.000169,-0.000294
210943,-0.073005,0.002934,-0.187224,-0.075075,-0.0,-0.0,3.0,0.3261,0.303289,0.3261,0.346925,,,,,,,-0.072968,-0.002725,-0.176612,-0.194548,0.000194,-0.000279
210963,-0.075446,0.002831,-0.187055,-0.075991,-0.0,-0.0,3.0,0.3261,0.306436,0.3261,0.344272,,,,,,,-0.075419,-0.002722,-0.176617,-0.192569,0.000183,-0.000261
210983,-0.077793,0.002987,-0.186792,-0.076527,-0.0,-0.0,3.0,0.3261,0.309516,0.3261,0.341611,,,,,,,-0.07788,-0.002718,-0.176622,-0.170586,0.000198,-0.000234
211003,-0.080233,0.002885,-0.18662,-0.077708,-0.0,-0.0,3.0,0.3261,0.314144,0.3261,0.337488,,,,,,,-0.080336,-0.002715,-0.176627,-0.167646,0.000188,-0.000217
211023,-0.082447,0.002927,-0.186481,-0.078182,-0.0,-0.0,3.0,0.3261,0.313103,0.3261,0.33843,,,,,,,-0.082934,-0.002711,-0.176631,-0.093698,0.000192,-0.000202
211043,-0.084673,0.003096,-0.186216,-0.07925,-0.0,-0.0,3.0,0.3261,0.306736,0.3261,0.344016,,,,,,,-0.085525,-0.002707,-0.176635,-0.023471,0.000208,-0.000175
211063,-0.087152,0.003358,-0.186057,-0.079872,-0.0,-0.0,3.0,0.3261,0.297449,0.3261,0.35168,,,,,,,-0.088096,-0.002703,-0.176639,-0.005961,0.000234,-0.000159
211083,-0.089748,0.003605,-0.18598,-0.080324,-0.0,-0.0,3.0,0.3261,0.29952,0.3261,0.350019,,,,,,,-0.090187,-0.002698,-0.176642,-0.102882,0.000258,-0.000151
211103,-0.091973,0.003764,-0.185948,-0.081025,-0.0,-0.0,3.0,0.3261,0.300563,0.3261,0.349172,,,,,,,-0.09228,-0.002694,-0.176645,-0.128353,0.000274,-0.000148
211123,-0.094043,0.003575,-0.185814,-0.081683,-0.0,-0.0,3.0,0.3261,0.301087,0.3261,0.348744,,,,,,,-0.094335,-0.002689,-0.176648,-0.13122,0.000254,-0.000134
211143,-0.095881,0.003531,-0.18568,-0.082316,-0.0,-0.0,3.0,0.3261,0.302646,0.3261,0.34746,,,,,,,-0.096301,-0.002685,-0.17665,-0.106759,0.000249,-0.00012
211163,-0.097691,0.003245,-0.185523,-0.082647,-0.0,-0.0,3.0,0.3261,0.311973,0.3261,0.339441,,,,,,,-0.097883,-0.00268,-0.176653,-0.150605,0.00022,-0.000104
211183,-0.099287,0.003224,-0.185393,-0.083218,-0.0,-0.0,3.0,0.3261,0.31328,0.3261,0.33827,,,,,,,-0.099631,-0.002676,-0.176655,-0.121167,0.000218,-9.1e-05
211203,-0.100877,0.003204,-0.185229,-0.083786,-0.0,-0.0,3.0,0.3261,0.305904,0.3261,0.344725,,,,,,,-0.101707,-0.002672,-0.176657,-0.027627,0.000215,-7.5e-05
211223,-0.102738,0.003397,-0.185199,-0.084358,-0.0,-0.0,3.0,0.3261,0.304303,0.3261,0.346078,,,,,,,-0.103432,-0.002667,-0.176658,-0.05388,0.000234,-7.1e-05
211243,-0.104588,0.003476,-0.185054,-0.084759,-0.0,-0.0,3.0,0.3261,0.304819,0.3261,0.345644,,,,,,,-0.105165,-0.002663,-0.17666,-0.076438,0.000242,-5.7e-05
211263,-0.106449,0.003669,-0.185021,-0.085315,-0.0,-0.0,3.0,0.3261,0.299255,0.3261,0.350233,,,,,,,-0.107132,-0.002658,-0.176661,-0.056131,0.000261,-5.3e-05
211283,-0.108425,0.003858,-0.184831,-0.085506,-0.0,-0.0,3.0,0.3261,0.298545,0.3261,0.350804,,,,,,,-0.108982,-0.002653,-0.176662,-0.080389,0.000279,-3.4e-05
211303,-0.110385,0.003798,-0.184806,-0.085856,-0.0,-0.0,3.0,0.3261,0.296375,0.3261,0.352532,,,,,,,-0.110938,-0.002647,-0.176662,-0.081099,0.000272,-3.2e-05
211323,-0.112357,0.003865,-0.184654,-0.086166,-0.0,-0.0,3.0,0.3261,0.297371,0.3261,0.351742,,,,,,,-0.112667,-0.002642,-0.176663,-0.127766,0.000279,-1.6e-05
211343,-0.114052,0.003591,-0.184527,-0.086461,-0.0,-0.0,3.0,0.3261,0.295044,0.3261,0.353577,,,,,,,-0.114612,-0.002637,-0.176663,-0.079732,0.000251,-4e-06
211363,-0.115769,0.003561,-0.184387,-0.086636,-0.0,-0.0,3.0,0.3261,0.301477,0.3261,0.348424,,,,,,,-0.116089,-0.002632,-0.176663,-0.125955,0.000247,1e-05
211383,-0.117336,0.003292,-0.184349,-0.086898,-0.0,-0.0,3.0,0.3261,0.306385,0.3261,0.344315,,,,,,,-0.117566,-0.002627,-0.176663,-0.143044,0.00022,1.4e-05
211403,-0.118446,0.003311,-0.184344,-0.086977,-0.0,-0.0,3.0,0.3261,0.306293,0.3261,0.344395,,,,,,,-0.119041,-0.002622,-0.176663,-0.07293,0.000221,1.4e-05
211423,-0.119538,0.003209,-0.184313,-0.087105,-0.0,-0.0,3.0,0.3261,0.300768,0.3261,0.349005,,,,,,,-0.120632,-0.002617,-0.176662,0.023019,0.00021,1.8e-05
211443,-0.120759,0.003103,-0.184191,-0.087166,-0.0,-0.0,3.0,0.3261,0.297951,0.3261,0.35128,,,,,,,-0.12197,-0.002613,-0.176662,0.045449,0.000199,3e-05
211463,-0.122245,0.003209,-0.184167,-0.087251,-0.0,-0.0,3.0,0.3261,0.297477,0.3261,0.351658,,,,,,,-0.123076,-0.002608,-0.176661,-0.027517,0.00021,3.2e-05
211483,-0.123348,0.003228,-0.184128,-0.087266,-0.0,-0.0,3.0,0.3261,0.297168,0.3261,0.351904,,,,,,,-0.124187,-0.002604,-0.17666,-0.026108,0.000211,3.6e-05
211503,-0.124349,0.00338,-0.184117,-0.087242,-0.0,-0.0,3.0,0.3261,0.291233,0.3261,0.356512,,,,,,,-0.125278,-0.0026,-0.17666,-0.008641,0.000226,3.7e-05
211523,-0.125319,0.003289,-0.184088,-0.087172,-0.0,-0.0,3.0,0.3261,0.292183,0.3261,0.355788,,,,,,,-0.126125,-0.002595,-0.176659,-0.032477,0.000216,4e-05
211543,-0.126309,0.003327,-0.183965,-0.087092,-0.0,-0.0,3.0,0.3261,0.300138,0.3261,0.349518,,,,,,,-0.126735,-0.002591,-0.176658,-0.105595,0.00022,5.2e-05
211563,-0.127037,0.003259,-0.183943,-0.086982,-0.0,-0.0,3.0,0.3261,0.305433,0.3261,0.345125,,,,,,,-0.127507,-0.002586,-0.176657,-0.097032,0.000212,5.4e-05
211583,-0.127522,0.003206,-0.184047,-0.086765,-0.0,-0.0,3.0,0.3261,0.305768,0.3261,0.344841,,,,,,,-0.128371,-0.002582,-0.176655,-0.024064,0.000207,4.3e-05
211603,-0.128269,0.003259,-0.18405,-0.086627,-0.0,-0.0,3.0,0.3261,0.301513,0.3261,0.348394,,,,,,,-0.129368,-0.002577,-0.176654,0.024006,0.000212,4.3e-05
211623,-0.129152,0.003552,-0.183882,-0.086315,-0.0,-0.0,3.0,0.3261,0.298044,0.3261,0.351205,,,,,,,-0.130372,-0.002572,-0.176653,0.047239,0.00024,6e-05
211643,-0.130024,0.003715,-0.183839,-0.086173,-0.0,-0.0,3.0,0.3261,0.293828,0.3261,0.354523,,,,,,,-0.131257,-0.002567,-0.176652,0.049839,0.000256,6.4e-05
211663,-0.130915,0.004007,-0.183703,-0.085863,-0.0,-0.0,3.0,0.3261,0.292147,0.3261,0.355815,,,,,,,-0.13188,-0.002561,-0.176651,-0.001712,0.000285,7.7e-05
211683,-0.131787,0.004171,-0.18366,-0.085513,-0.0,-0.0,3.0,0.3261,0.291739,0.3261,0.356127,,,,,,,-0.132494,-0.002555,-0.176649,-0.05138,0.0003,8.1e-05
211703,-0.132654,0.004204,-0.183778,-0.085125,-0.0,-0.0,3.0,0.3261,0.291757,0.3261,0.356113,,,,,,,-0.133241,-0.002549,-0.176647,-0.074477,0.000303,7e-05
211723,-0.13325,0.004034,-0.183647,-0.08481,-0.0,-0.0,3.0,0.3261,0.295636,0.3261,0.353113,,,,,,,-0.133964,-0.002543,-0.176646,-0.050064,0.000286,8.3e-05
211743,-0.134107,0.003955,-0.183652,-0.084222,-0.0,-0.0,3.0,0.3261,0.298527,0.3261,0.350819,,,,,,,-0.134713,-0.002537,-0.176644,-0.070917,0.000277,8.2e-05
211763,-0.134835,0.003887,-0.183628,-0.083864,-0.0,-0.0,3.0,0.3261,0.301213,0.3261,0.34864,,,,,,,-0.135595,-0.002531,-0.176642,-0.041149,0.00027,8.4e-05
211783,-0.135574,0.00394,-0.183597,-0.083364,-0.0,-0.0,3.0,0.3261,0.29826,0.3261,0.351033,,,,,,,-0.136462,-0.002525,-0.17664,-0.016559,0.000274,8.7e-05
211803,-0.136188,0.003883,-0.18361,-0.083075,-0.0,-0.0,3.0,0.3261,0.290822,0.3261,0.356823,,,,,,,-0.137437,-0.002519,-0.176638,0.05277,0.000268,8.5e-05
211823,-0.136817,0.004069,-0.183573,-0.082158,-0.0,-0.0,3.0,0.3261,0.291771,0.3261,0.356103,,,,,,,-0.137811,-0.002513,-0.176637,0.003763,0.000286,8.9e-05
211843,-0.137215,0.004399,-0.183537,-0.08152,-0.0,-0.0,3.0,0.3261,0.294963,0.3261,0.35364,,,,,,,-0.138073,-0.002506,-0.176635,-0.022229,0.000318,9.2e-05
211863,-0.137325,0.004266,-0.183541,-0.080847,-0.0,-0.0,3.0,0.3261,0.295714,0.3261,0.353052,,,,,,,-0.138179,-0.0025,-0.176633,-0.022986,0.000304,9.2e-05
211883,-0.137454,0.004246,-0.183689,-0.080075,-0.0,-0.0,3.0,0.3261,0.291778,0.3261,0.356097,,,,,,,-0.138531,-0.002494,-0.176631,0.019832,0.000302,7.7e-05
211903,-0.137443,0.004125,-0.183698,-0.079464,-0.0,-0.0,3.0,0.3261,0.298395,0.3261,0.350925,,,,,,,-0.138409,-0.002488,-0.176629,-0.001506,0.000289,7.6e-05
211923,-0.137697,0.004232,-0.183562,-0.079464,-0.0,-0.0,3.0,0.3261,0.299762,0.3261,0.349823,,,,,,,-0.138432,-0.002482,-0.176628,-0.045884,0.000299,8.9e-05
211943,-0.137674,0.003989,-0.183578,-0.077999,-0.0,-0.0,3.0,0.3261,0.297573,0.3261,0.351582,,,,,,,-0.138683,-0.002475,-0.176626,0.006634,0.000274,8.7e-05
211963,-0.137818,0.004212,-0.183677,-0.077573,-0.0,-0.0,3.0,0.3261,0.293435,0.3261,0.354827,,,,,,,-0.138927,-0.002469,-0.176624,0.026071,0.000296,7.7e-05
211983,-0.137939,0.004201,-0.183673,-0.076347,-0.0,-0.0,3.0,0.3261,0.292845,0.3261,0.355281,,,,,,,-0.139049,-0.002463,-0.176622,0.026147,0.000294,7.8e-05
212003,-0.13795,0.004322,-0.183665,-0.075673,-0.0,-0.0,3.0,0.3261,0.293944,0.3261,0.354433,,,,,,,-0.139064,-0.002456,-0.176621,0.026931,0.000306,7.8e-05
212023,-0.137829,0.004333,-0.183669,-0.074648,-0.0,-0.0,3.0,0.3261,0.295361,0.3261,0.353329,,,,,,,-0.138946,-0.00245,-0.176619,0.02763,0.000306,7.8e-05
212043,-0.13784,0.004446,-0.18378,-0.073676,-0.0,-0.0,3.0,0.3261,0.292326,0.3261,0.355679,,,,,,,-0.138931,-0.002443,-0.176617,0.022588,0.000317,6.6e-05
212063,-0.137718,0.004458,-0.183784,-0.07268,-0.0,-0.0,3.0,0.3261,0.292274,0.3261,0.355718,,,,,,,-0.13881,-0.002437,-0.176616,0.022587,0.000317,6.6e-05
212083,-0.137586,0.004348,-0.183796,-0.072165,-0.0,-0.0,3.0,0.3261,0.291603,0.3261,0.35623,,,,,,,-0.138673,-0.00243,-0.176615,0.02173,0.000306,6.4e-05
212103,-0.137453,0.004229,-0.183928,-0.070606,-0.0,-0.0,3.0,0.3261,0.289142,0.3261,0.358085,,,,,,,-0.138546,-0.002424,-0.176613,0.022942,0.000293,5.1e-05
212123,-0.137563,0.004097,-0.183932,-0.070606,-0.0,-0.0,3.0,0.3261,0.294232,0.3261,0.35421,,,,,,,-0.138307,-0.002418,-0.176612,-0.04424,0.000279,5.1e-05
212143,-0.137342,0.004354,-0.184043,-0.069192,-0.0,-0.0,3.0,0.3261,0.295757,0.3261,0.353018,,,,,,,-0.138201,-0.002412,-0.176611,-0.022166,0.000304,3.9e-05
212163,-0.137232,0.004486,-0.184039,-0.067393,-0.0,-0.0,3.0,0.3261,0.290831,0.3261,0.356816,,,,,,,-0.138351,-0.002405,-0.17661,0.027919,0.000317,4e-05
212183,-0.13699,0.004517,-0.183928,-0.06676,-0.0,-0.0,3.0,0.3261,0.287698,0.3261,0.359158,,,,,,,-0.138342,-0.002398,-0.176609,0.072739,0.000319,5.1e-05
212203,-0.136872,0.00465,-0.18389,-0.065686,-0.0,-0.0,3.0,0.3261,0.28809,0.3261,0.358868,,,,,,,-0.138104,-0.002391,-0.176608,0.049697,0.000332,5.4e-05
212223,-0.136641,0.004794,-0.18389,-0.064475,-0.0,-0.0,3.0,0.3261,0.291665,0.3261,0.356183,,,,,,,-0.137619,-0.002384,-0.176607,0.000929,0.000346,5.4e-05
212243,-0.136011,0.0046,-0.184046,-0.063219,-0.0,-0.0,3.0,0.3261,0.286197,0.3261,0.36026,,,,,,,-0.137352,-0.002378,-0.176606,0.070537,0.000326,3.9e-05
212263,-0.135538,0.004767,-0.184054,-0.061919,-0.0,-0.0,3.0,0.3261,0.282116,0.3261,0.363193,,,,,,,-0.136853,-0.002371,-0.176605,0.065609,0.000342,3.8e-05
212283,-0.135041,0.004683,-0.184198,-0.061157,-0.0,-0.0,3.0,0.3261,0.291186,0.3261,0.356547,,,,,,,-0.135984,-0.002364,-0.176605,-0.005895,0.000333,2.3e-05
212303,-0.134183,0.004746,-0.184431,-0.059819,-0.0,-0.0,3.0,0.3261,0.299591,0.3261,0.349962,,,,,,,-0.135024,-0.002357,-0.176604,-0.025452,0.000338,-0.0
212323,-0.132936,0.004496,-0.184495,-0.05768,-0.0,-0.0,3.0,0.3261,0.300404,0.3261,0.349301,,,,,,,-0.134168,-0.00235,-0.176604,0.049761,0.000312,-6e-06
212343,-0.131836,0.004599,-0.184497,-0.05768,-0.0,-0.0,3.0,0.3261,0.296666,0.3261,0.352302,,,,,,,-0.133439,-0.002344,-0.176604,0.12094,0.000322,-7e-06
212363,-0.130843,0.004447,-0.184544,-0.055138,-0.0,-0.0,3.0,0.3261,0.295961,0.3261,0.352858,,,,,,,-0.132446,-0.002337,-0.176604,0.120935,0.000306,-1.1e-05
212383,-0.129975,0.004398,-0.184665,-0.054271,-0.0,-0.0,3.0,0.3261,0.296024,0.3261,0.352809,,,,,,,-0.131328,-0.002331,-0.176604,0.072924,0.000301,-2.3e-05
212403,-0.128993,0.004368,-0.184704,-0.052689,-0.0,-0.0,3.0,0.3261,0.291332,0.3261,0.356436,,,,,,,-0.130336,-0.002325,-0.176605,0.070963,0.000297,-2.7e-05
212423,-0.127784,0.004604,-0.184701,-0.05121,-0.0,-0.0,3.0,0.3261,0.289982,0.3261,0.357457,,,,,,,-0.129105,-0.002319,-0.176605,0.066819,0.00032,-2.7e-05
212443,-0.12668,0.004577,-0.184862,-0.049712,-0.0,-0.0,3.0,0.3261,0.293973,0.3261,0.354411,,,,,,,-0.127753,-0.002313,-0.176606,0.019015,0.000317,-4.3e-05
212463,-0.125569,0.004551,-0.18499,-0.048735,-0.0,-0.0,3.0,0.3261,0.299679,0.3261,0.34989,,,,,,,-0.126398,-0.002307,-0.176607,-0.027852,0.000314,-5.6e-05
212483,-0.124215,0.004548,-0.185124,-0.047455,-0.0,-0.0,3.0,0.3261,0.301939,0.3261,0.348044,,,,,,,-0.125182,-0.002301,-0.176608,-0.001301,0.000313,-6.9e-05
212503,-0.122869,0.004552,-0.185172,-0.04545,-0.0,-0.0,3.0,0.3261,0.301939,0.3261,0.348044,,,,,,,-0.124111,-0.002294,-0.17661,0.051478,0.000312,-7.4e-05
212523,-0.121648,0.004659,-0.185295,-0.044401,-0.0,-0.0,3.0,0.3261,0.301709,0.3261,0.348233,,,,,,,-0.123016,-0.002287,-0.176611,0.075714,0.000322,-8.6e-05
212543,-0.120666,0.004629,-0.185332,-0.042785,-0.0,-0.0,3.0,0.3261,0.291104,0.3261,0.356609,,,,,,,-0.122383,-0.002281,-0.176613,0.142878,0.000319,-8.9e-05
212563,-0.119689,0.00472,-0.185327,-0.040767,-0.0,-0.0,3.0,0.3261,0.286002,0.3261,0.360402,,,,,,,-0.121413,-0.002274,-0.176615,0.144431,0.000327,-8.9e-05
212583,-0.119093,0.004891,-0.185457,-0.039128,-0.0,-0.0,3.0,0.3261,0.285792,0.3261,0.360555,,,,,,,-0.120303,-0.002268,-0.176617,0.045374,0.000344,-0.000101
212603,-0.117872,0.004999,-0.185579,-0.037462,-0.0,-0.0,3.0,0.3261,0.290869,0.3261,0.356787,,,,,,,-0.11896,-0.002261,-0.176619,0.021991,0.000354,-0.000113
212623,-0.116404,0.005007,-0.185748,-0.035799,-0.0,-0.0,3.0,0.3261,0.291969,0.3261,0.355952,,,,,,,-0.117592,-0.002254,-0.176621,0.041123,0.000354,-0.00013
212643,-0.114687,0.005039,-0.18589,-0.034877,-0.0,-0.0,3.0,0.3261,0.299684,0.3261,0.349886,,,,,,,-0.116006,-0.002248,-0.176624,0.066498,0.000357,-0.000144
212663,-0.11334,0.005037,-0.186055,-0.033434,-0.0,-0.0,3.0,0.3261,0.302421,0.3261,0.347646,,,,,,,-0.114553,-0.002241,-0.176627,0.045921,0.000356,-0.00016
212683,-0.111623,0.005069,-0.186195,-0.031127,-0.0,-0.0,3.0,0.3261,0.304617,0.3261,0.345814,,,,,,,-0.112988,-0.002233,-0.17663,0.075257,0.000358,-0.000174
212703,-0.109773,0.004992,-0.186345,-0.029728,-0.0,-0.0,3.0,0.3261,0.296982,0.3261,0.352052,,,,,,,-0.111626,-0.002226,-0.176634,0.169295,0.00035,-0.000188
212723,-0.108293,0.00488,-0.186518,-0.028643,-0.0,-0.0,3.0,0.3261,0.290966,0.3261,0.356714,,,,,,,-0.110138,-0.002219,-0.176638,0.167475,0.000338,-0.000205
212743,-0.106686,0.00478,-0.186659,-0.026407,-0.0,-0.0,3.0,0.3261,0.29233,0.3261,0.355675,,,,,,,-0.108265,-0.002213,-0.176642,0.116399,0.000327,-0.000219
212763,-0.104957,0.004692,-0.186803,-0.024392,-0.0,-0.0,3.0,0.3261,0.294425,0.3261,0.354059,,,,,,,-0.106304,-0.002207,-0.176647,0.071728,0.000318,-0.000233
212783,-0.102981,0.004505,-0.186992,-0.023504,-0.0,-0.0,3.0,0.3261,0.29542,0.3261,0.353283,,,,,,,-0.104426,-0.002201,-0.176652,0.090774,0.000298,-0.000251
212803,-0.100998,0.004319,-0.187145,-0.021716,-0.0,-0.0,3.0,0.3261,0.298436,0.3261,0.350892,,,,,,,-0.102449,-0.002196,-0.176657,0.091846,0.000279,-0.000266
212823,-0.099015,0.004133,-0.187298,-0.019903,-0.0,-0.0,3.0,0.3261,0.30057,0.3261,0.349166,,,,,,,-0.100471,-0.002191,-0.176662,0.092867,0.00026,-0.000281
212843,-0.096922,0.00408,-0.187446,-0.017962,-0.0,-0.0,3.0,0.3261,0.303293,0.3261,0.346922,,,,,,,-0.098405,-0.002186,-0.176668,0.09791,0.000254,-0.000295
212863,-0.094824,0.003905,-0.187632,-0.016266,-0.0,-0.0,3.0,0.3261,0.302463,0.3261,0.347611,,,,,,,-0.096444,-0.002181,-0.176674,0.124394,0.000236,-0.000313
212883,-0.092742,0.003968,-0.187891,-0.015261,-0.0,-0.0,3.0,0.3261,0.301217,0.3261,0.348637,,,,,,,-0.094468,-0.002176,-0.176681,0.144774,0.000242,-0.000338
212903,-0.090661,0.004032,-0.188149,-0.013645,-0.0,-0.0,3.0,0.3261,0.300488,0.3261,0.349233,,,,,,,-0.092392,-0.002171,-0.176688,0.14583,0.000248,-0.000363
212923,-0.088331,0.004003,-0.188332,-0.011053,-0.0,-0.0,3.0,0.3261,0.298859,0.3261,0.350552,,,,,,,-0.090294,-0.002167,-0.176695,0.190478,0.000245,-0.000381
212943,-0.086371,0.004061,-0.188466,-0.009212,-0.0,-0.0,3.0,0.3261,0.29788,0.3261,0.351337,,,,,,,-0.08808,-0.002162,-0.176703,0.141527,0.00025,-0.000394
212963,-0.084267,0.003883,-0.188731,-0.007366,-0.0,-0.0,3.0,0.3261,0.298616,0.3261,0.350747,,,,,,,-0.08586,-0.002157,-0.176711,0.119301,0.000232,-0.000419
212983,-0.081948,0.003981,-0.188785,-0.00553,-0.0,-0.0,3.0,0.3261,0.299649,0.3261,0.349915,,,,,,,-0.083525,-0.002153,-0.176719,0.116046,0.000241,-0.000424
213003,-0.079613,0.003954,-0.188927,-0.004557,-0.0,-0.0,3.0,0.3261,0.294178,0.3261,0.354252,,,,,,,-0.08143,-0.002149,-0.176728,0.16226,0.000238,-0.000437
213023,-0.077278,0.003931,-0.188949,-0.003143,-0.0,-0.0,3.0,0.3261,0.304322,0.3261,0.346061,,,,,,,-0.078739,-0.002144,-0.176737,0.093747,0.000235,-0.000439
213043,-0.074814,0.003793,-0.18913,-0.000745,-0.0,-0.0,3.0,0.3261,0.309264,0.3261,0.341831,,,,,,,-0.076174,-0.00214,-0.176746,0.074344,0.000221,-0.000456
213063,-0.072103,0.003679,-0.189279,0.000181,-0.0,-0.0,3.0,0.3261,0.313513,0.3261,0.33806,,,,,,,-0.073605,-0.002135,-0.176755,0.101744,0.000209,-0.00047
213083,-0.069293,0.00382,-0.189419,0.00279,-0.0,-0.0,3.0,0.3261,0.307274,0.3261,0.343554,,,,,,,-0.071398,-0.002131,-0.176765,0.217508,0.000223,-0.000483
213103,-0.066841,0.003801,-0.189709,0.00439,-0.0,-0.0,3.0,0.3261,0.303115,0.3261,0.347071,,,,,,,-0.069054,-0.002127,-0.176775,0.238401,0.000221,-0.000511
213123,-0.064639,0.003884,-0.189836,0.006207,-0.0,-0.0,3.0,0.3261,0.301342,0.3261,0.348534,,,,,,,-0.066601,-0.002123,-0.176785,0.190125,0.000229,-0.000522
213143,-0.062429,0.003843,-0.190119,0.008048,-0.0,-0.0,3.0,0.3261,0.299029,0.3261,0.350415,,,,,,,-0.064154,-0.002118,-0.176796,0.144592,0.000224,-0.00055
213163,-0.060227,0.003923,-0.190362,0.009869,-0.0,-0.0,3.0,0.3261,0.294499,0.3261,0.354002,,,,,,,-0.061931,-0.002114,-0.176807,0.140456,0.000232,-0.000573
213183,-0.058041,0.004126,-0.190636,0.010803,-0.0,-0.0,3.0,0.3261,0.298559,0.3261,0.350793,,,,,,,-0.059476,-0.00211,-0.176819,0.088785,0.000251,-0.000599
213203,-0.055843,0.004211,-0.190792,0.012152,-0.0,-0.0,3.0,0.3261,0.305783,0.3261,0.344828,,,,,,,-0.056912,-0.002105,-0.176831,0.018377,0.000259,-0.000613
213223,-0.053375,0.004073,-0.191042,0.014788,-0.0,-0.0,3.0,0.3261,0.311148,0.3261,0.340174,,,,,,,-0.054493,-0.0021,-0.176844,0.027785,0.000245,-0.000637
213243,-0.050922,0.00406,-0.191202,0.016278,-0.0,-0.0,3.0,0.3261,0.310223,0.3261,0.340991,,,,,,,-0.052421,-0.002095,-0.176856,0.101042,0.000243,-0.000652
213263,-0.048712,0.004025,-0.191357,0.018593,-0.0,-0.0,3.0,0.3261,0.305545,0.3261,0.34503,,,,,,,-0.050461,-0.002089,-0.176869,0.149109,0.000239,-0.000666
213283,-0.046632,0.004102,-0.191353,0.019804,-0.0,-0.0,3.0,0.3261,0.298575,0.3261,0.35078,,,,,,,-0.048614,-0.002084,-0.176883,0.193906,0.000246,-0.000664
213303,-0.044665,0.004046,-0.191383,0.02172,-0.0,-0.0,3.0,0.3261,0.293833,0.3261,0.354519,,,,,,,-0.046637,-0.002079,-0.176896,0.192026,0.00024,-0.000666
213323,-0.042831,0.004097,-0.191527,0.023497,-0.0,-0.0,3.0,0.3261,0.293394,0.3261,0.354858,,,,,,,-0.044422,-0.002075,-0.176909,0.118715,0.000245,-0.000679
213343,-0.040752,0.004169,-0.191758,0.025284,-0.0,-0.0,3.0,0.3261,0.295274,0.3261,0.353397,,,,,,,-0.042198,-0.00207,-0.176923,0.090875,0.000252,-0.000701
213363,-0.03842,0.004144,-0.192027,0.026786,-0.0,-0.0,3.0,0.3261,0.301839,0.3261,0.348126,,,,,,,-0.039617,-0.002065,-0.176937,0.043,0.000249,-0.000726
213383,-0.0357,0.003914,-0.192184,0.027835,-0.0,-0.0,3.0,0.3261,0.303305,0.3261,0.346912,,,,,,,-0.03727,-0.002061,-0.176952,0.114659,0.000225,-0.00074
213403,-0.032981,0.003682,-0.192457,0.029961,-0.0,-0.0,3.0,0.3261,0.311745,0.3261,0.339644,,,,,,,-0.034471,-0.002056,-0.176967,0.099361,0.000202,-0.000766
213423,-0.030028,0.003596,-0.192694,0.03093,-0.0,-0.0,3.0,0.3261,0.31783,0.3261,0.334095,,,,,,,-0.03167,-0.002052,-0.176982,0.128573,0.000193,-0.000788
213443,-0.026944,0.003402,-0.192845,0.032578,-0.0,-0.0,3.0,0.3261,0.310658,0.3261,0.340608,,,,,,,-0.02908,-0.002048,-0.176998,0.223772,0.000173,-0.000802
213463,-0.023871,0.003328,-0.193111,0.034738,-0.0,-0.0,3.0,0.3261,0.306001,0.3261,0.344642,,,,,,,-0.026237,-0.002044,-0.177014,0.267798,0.000165,-0.000827
213483,-0.02103,0.003111,-0.193375,0.036666,-0.0,-0.0,3.0,0.3261,0.303543,0.3261,0.346713,,,,,,,-0.023131,-0.00204,-0.177031,0.216927,0.000143,-0.000852
213503,-0.017957,0.00304,-0.193516,0.038331,-0.0,-0.0,3.0,0.3261,0.3119,0.3261,0.339507,,,,,,,-0.019574,-0.002038,-0.177048,0.123771,0.000136,-0.000864
213523,-0.014606,0.002628,-0.193777,0.039974,-0.0,-0.0,3.0,0.3261,0.314152,0.3261,0.337481,,,,,,,-0.016223,-0.002035,-0.177066,0.123893,9.4e-05,-0.000888
213543,-0.011376,0.002204,-0.194153,0.040961,-0.0,-0.0,3.0,0.3261,0.313178,0.3261,0.338362,,,,,,,-0.013107,-0.002034,-0.177084,0.145734,5.2e-05,-0.000924
213563,-0.008146,0.001781,-0.194405,0.043099,-0.0,-0.0,3.0,0.3261,0.319804,0.3261,0.332235,,,,,,,-0.00977,-0.002033,-0.177102,0.125134,9e-06,-0.000947
213583,-0.005195,0.001701,-0.194652,0.043947,-0.0,-0.0,3.0,0.3261,0.321769,0.3261,0.330355,,,,,,,-0.006596,-0.002032,-0.177121,0.082294,1e-06,-0.00097
213603,-0.002098,0.00139,-0.194777,0.045307,-0.0,-0.0,3.0,0.3261,0.319179,0.3261,0.332828,,,,,,,-0.003773,-0.002032,-0.17714,0.134935,-3e-05,-0.000981
213623,0.000841,0.001432,-0.195137,0.04708,-0.0,-0.0,3.0,0.3261,0.316472,0.3261,0.335357,,,,,,,-0.000938,-0.002032,-0.17716,0.154937,-2.6e-05,-0.001015
213643,0.003757,0.001717,-0.195411,0.049083,-0.0,-0.0,3.0,0.3261,0.315333,0.3261,0.336405,,,,,,,0.001881,-0.002032,-0.177181,0.173653,3e-06,-0.00104
213663,0.006575,0.001749,-0.195648,0.049845,-0.0,-0.0,3.0,0.3261,0.315534,0.3261,0.336221,,,,,,,0.004699,-0.002032,-0.177202,0.173563,6e-06,-0.001062
213683,0.009259,0.001891,-0.195883,0.051343,-0.0,-0.0,3.0,0.3261,0.316391,0.3261,0.335432,,,,,,,0.007517,-0.002032,-0.177223,0.14775,2e-05,-0.001083
213703,0.011834,0.001899,-0.195997,0.052816,-0.0,-0.0,3.0,0.3261,0.315913,0.3261,0.335872,,,,,,,0.010249,-0.002033,-0.177245,0.117617,2.1e-05,-0.001092
213723,0.014543,0.001799,-0.196143,0.054703,-0.0,-0.0,3.0,0.3261,0.315202,0.3261,0.336525,,,,,,,0.012836,-0.002033,-0.177267,0.141018,1.1e-05,-0.001105
213743,0.017252,0.001697,-0.196132,0.055453,-0.0,-0.0,3.0,0.3261,0.313066,0.3261,0.338463,,,,,,,0.015432,-0.002033,-0.177289,0.162825,1e-06,-0.001101
213763,0.01996,0.001596,-0.196118,0.056708,-0.0,-0.0,3.0,0.3261,0.316605,0.3261,0.335234,,,,,,,0.018245,-0.002033,-0.177311,0.142625,-9e-06,-0.001098
213783,0.022547,0.001485,-0.196342,0.057964,-0.0,-0.0,3.0,0.3261,0.32086,0.3261,0.331229,,,,,,,0.021065,-0.002034,-0.177333,0.097785,-2e-05,-0.001118
213803,0.025366,0.001519,-0.196479,0.059806,-0.0,-0.0,3.0,0.3261,0.322358,0.3261,0.329785,,,,,,,0.023758,-0.002034,-0.177356,0.122023,-1.7e-05,-0.001129
213823,0.028195,0.001431,-0.196577,0.060646,-0.0,-0.0,3.0,0.3261,0.31804,0.3261,0.333899,,,,,,,0.026208,-0.002034,-0.177378,0.194934,-2.5e-05,-0.001137
213843,0.030881,0.001577,-0.196832,0.062159,-0.0,-0.0,3.0,0.3261,0.314792,0.3261,0.336899,,,,,,,0.028782,-0.002035,-0.177401,0.216489,-1.1e-05,-0.00116
213863,0.0332,0.001688,-0.197052,0.063431,-0.0,-0.0,3.0,0.3261,0.313165,0.3261,0.338374,,,,,,,0.031345,-0.002034,-0.177424,0.169618,0.0,-0.00118
213883,0.035534,0.001676,-0.197185,0.06468,-0.0,-0.0,3.0,0.3261,0.314728,0.3261,0.336958,,,,,,,0.03403,-0.002034,-0.177448,0.101884,-1e-06,-0.001191
213903,0.038096,0.001809,-0.197281,0.06544,-0.0,-0.0,3.0,0.3261,0.315595,0.3261,0.336165,,,,,,,0.03672,-0.002034,-0.177472,0.077468,1.2e-05,-0.001198
213923,0.04077,0.002076,-0.197413,0.066587,-0.0,-0.0,3.0,0.3261,0.316597,0.3261,0.335241,,,,,,,0.039398,-0.002033,-0.177496,0.076648,3.9e-05,-0.001209
213943,0.043344,0.002088,-0.197503,0.067661,-0.0,-0.0,3.0,0.3261,0.323515,0.3261,0.328658,,,,,,,0.042103,-0.002033,-0.17752,0.051457,4e-05,-0.001215
213963,0.045921,0.002101,-0.197628,0.068665,-0.0,-0.0,3.0,0.3261,0.329253,0.3261,0.322905,,,,,,,0.044776,-0.002032,-0.177545,0.033083,4.1e-05,-0.001225
213983,0.048741,0.002139,-0.197747,0.07022,-0.0,-0.0,3.0,0.3261,0.331117,0.3261,0.320976,,,,,,,0.04722,-0.002031,-0.177569,0.105305,4.5e-05,-0.001235
214003,0.051182,0.002258,-0.197717,0.070971,-0.0,-0.0,3.0,0.3261,0.325995,0.3261,0.326205,,,,,,,0.049442,-0.00203,-0.177594,0.147496,5.7e-05,-0.001229
214023,0.053613,0.002503,-0.197844,0.072017,-0.0,-0.0,3.0,0.3261,0.320691,0.3261,0.33139,,,,,,,0.051527,-0.002029,-0.177619,0.213958,8.1e-05,-0.00124
214043,0.055823,0.002477,-0.19781,0.073046,-0.0,-0.0,3.0,0.3261,0.316777,0.3261,0.335075,,,,,,,0.053733,-0.002028,-0.177643,0.214766,7.8e-05,-0.001234
214063,0.05789,0.002686,-0.197939,0.074032,-0.0,-0.0,3.0,0.3261,0.316443,0.3261,0.335384,,,,,,,0.056182,-0.002026,-0.177668,0.141402,9.9e-05,-0.001244
214083,0.059966,0.002773,-0.198027,0.074693,-0.0,-0.0,3.0,0.3261,0.313937,0.3261,0.337677,,,,,,,0.0584,-0.002024,-0.177693,0.114,0.000108,-0.001251
214103,0.062409,0.002901,-0.198264,0.075269,-0.0,-0.0,3.0,0.3261,0.317843,0.3261,0.334083,,,,,,,0.060968,-0.002022,-0.177718,0.089824,0.00012,-0.001272
214123,0.064622,0.00288,-0.198381,0.076293,-0.0,-0.0,3.0,0.3261,0.320956,0.3261,0.331136,,,,,,,0.063285,-0.00202,-0.177744,0.069912,0.000118,-0.001281
214143,0.067066,0.003005,-0.198496,0.077183,-0.0,-0.0,3.0,0.3261,0.328903,0.3261,0.323265,,,,,,,0.065811,-0.002017,-0.177769,0.053956,0.00013,-0.00129
214163,0.069262,0.003106,-0.198577,0.078339,-0.0,-0.0,3.0,0.3261,0.329107,0.3261,0.323055,,,,,,,0.067987,-0.002014,-0.177795,0.058032,0.00014,-0.001295
214183,0.071561,0.003458,-0.198581,0.078866,-0.0,-0.0,3.0,0.3261,0.326631,0.3261,0.325568,,,,,,,0.069911,-0.00201,-0.177821,0.130096,0.000175,-0.001293
214203,0.073495,0.003774,-0.19859,0.079632,-0.0,-0.0,3.0,0.3261,0.318772,0.3261,0.333212,,,,,,,0.071601,-0.002006,-0.177847,0.17705,0.000206,-0.001291
214223,0.075158,0.004312,-0.198694,0.080364,-0.0,-0.0,3.0,0.3261,0.318196,0.3261,0.333753,,,,,,,0.073552,-0.002002,-0.177873,0.121529,0.000259,-0.001299
214243,0.076715,0.004717,-0.198832,0.081063,-0.0,-0.0,3.0,0.3261,0.317827,0.3261,0.334098,,,,,,,0.075401,-0.001997,-0.177899,0.065475,0.000299,-0.00131
214263,0.078451,0.004522,-0.19879,0.081398,-0.0,-0.0,3.0,0.3261,0.320019,0.3261,0.332031,,,,,,,0.077244,-0.001992,-0.177925,0.044764,0.000279,-0.001304
214283,0.08042,0.004484,-0.19902,0.081907,-0.0,-0.0,3.0,0.3261,0.322129,0.3261,0.330007,,,,,,,0.078983,-0.001987,-0.177951,0.089203,0.000275,-0.001324
214303,0.082063,0.00404,-0.199123,0.082851,-0.0,-0.0,3.0,0.3261,0.324193,0.3261,0.327993,,,,,,,0.080717,-0.001982,-0.177978,0.071648,0.00023,-0.001332
214323,0.083924,0.003864,-0.199229,0.083185,-0.0,-0.0,3.0,0.3261,0.3281,0.3261,0.324084,,,,,,,0.082564,-0.001977,-0.178004,0.074366,0.000212,-0.00134
214343,0.085805,0.003445,-0.199287,0.083652,-0.0,-0.0,3.0,0.3261,0.32127,0.3261,0.330835,,,,,,,0.084063,-0.001973,-0.178031,0.147818,0.00017,-0.001343
214363,0.087545,0.003251,-0.199274,0.0844,-0.0,-0.0,3.0,0.3261,0.320495,0.3261,0.331578,,,,,,,0.085796,-0.001969,-0.178058,0.149186,0.00015,-0.001339
214383,0.089031,0.003161,-0.199389,0.084846,-0.0,-0.0,3.0,0.3261,0.320541,0.3261,0.331534,,,,,,,0.087519,-0.001965,-0.178085,0.103428,0.00014,-0.001348
214403,0.090765,0.002972,-0.199457,0.085261,-0.0,-0.0,3.0,0.3261,0.321755,0.3261,0.330368,,,,,,,0.089394,-0.001963,-0.178111,0.076452,0.000121,-0.001352
214423,0.09264,0.00267,-0.199432,0.085633,-0.0,-0.0,3.0,0.3261,0.326167,0.3261,0.326034,,,,,,,0.091259,-0.001961,-0.178138,0.078304,9.1e-05,-0.001346
214443,0.094488,0.002622,-0.199655,0.085874,-0.0,-0.0,3.0,0.3261,0.327184,0.3261,0.325012,,,,,,,0.093125,-0.001959,-0.178166,0.074902,8.6e-05,-0.001366
214463,0.096216,0.002557,-0.199761,0.086119,-0.0,-0.0,3.0,0.3261,0.326764,0.3261,0.325435,,,,,,,0.094865,-0.001958,-0.178193,0.072571,7.9e-05,-0.001374
214483,0.098078,0.002382,-0.199857,0.086466,-0.0,-0.0,3.0,0.3261,0.329899,0.3261,0.322241,,,,,,,0.096715,-0.001956,-0.17822,0.074881,6.2e-05,-0.001381
214503,0.099799,0.002322,-0.200043,0.086602,-0.0,-0.0,3.0,0.3261,0.328557,0.3261,0.323618,,,,,,,0.098459,-0.001955,-0.178248,0.070485,5.6e-05,-0.001397
214523,0.101418,0.002124,-0.200142,0.086883,-0.0,-0.0,3.0,0.3261,0.330699,0.3261,0.321411,,,,,,,0.100056,-0.001955,-0.178276,0.074673,3.6e-05,-0.001404
