time_ms,roll,pitch,yaw,roll_rate,pitch_rate,yaw_rate,reference_roll,reference_pitch,reference_yaw,reference_throttle,throttle_1,throttle_2,throttle_3,throttle_4,roll_predicted,pitch_predicted,yaw_predicted,roll_rate_predicted,pitch_rate_predicted,yaw_rate_predicted
203643,-0.000735,-0.021784,-0.089552,2.3e-05,-1e-06,-0.001064,-0.0,-0.0,-0.0,3.0,0.3261,0.321179,0.3261,0.330923,,,,,,
203663,-0.00073,-0.021906,-0.089552,2.3e-05,-0.001065,-0.001064,0.0,-0.0,-0.0,3.0,0.3261,0.321171,0.3261,0.33093,,,,,,
203683,-0.000475,-0.022139,-0.08955,-0.001064,-0.002128,1e-06,0.0,-0.0,-0.0,3.0,0.3261,0.321398,0.3261,0.330712,,,,,,
203703,-0.000347,-0.022256,-0.089548,-0.0,-0.002128,1e-06,0.0,-0.0,-0.0,3.0,0.3261,0.321505,0.3261,0.330609,,,,,,
203723,-0.000346,-0.022256,-0.08967,-0.001064,-0.002128,1e-06,0.0,-0.0,-0.0,3.0,0.3261,0.326014,0.3261,0.326187,,,,,,
203743,-0.000595,-0.022145,-0.089672,-0.001088,-0.001064,0.001065,0.0,-0.0,-0.0,3.0,0.3261,0.325873,0.3261,0.326327,,,,,,
203763,-0.000602,-0.022023,-0.089551,0.0,0.0,0.0,0.0,-0.0,-0.0,3.0,0.3261,0.325953,0.3261,0.326248,,,,,,
203783,-0.000857,-0.02179,-0.089553,2.3e-05,0.001063,-0.001065,0.0,-0.0,-0.0,3.0,0.3261,0.32561,0.3261,0.326589,,,,,,
203803,-0.000741,-0.021663,-0.089552,2.3e-05,0.001063,-0.001065,0.0,-0.0,-0.0,3.0,0.3261,0.321182,0.3261,0.33092,,,,,,
203823,-0.000739,-0.021663,-0.089673,2.3e-05,0.001063,-0.001065,0.0,-0.0,-0.0,3.0,0.3261,0.321072,0.3261,0.331025,,,,,,
203843,-0.000606,-0.021901,-0.089672,-0.001041,-1e-06,-0.001064,0.0,-0.0,-0.0,3.0,0.3261,0.321184,0.3261,0.330918,,,,,,
203863,-0.000479,-0.022017,-0.089671,-0.001064,-0.001064,1e-06,0.0,-0.0,-0.0,3.0,0.3261,0.321292,0.3261,0.330814,,,,,,
203883,-0.00023,-0.022128,-0.089668,-0.001064,-0.002128,0.0,0.0,-0.0,-0.0,3.0,0.3261,0.326032,0.3261,0.326169,,,,,,
203903,-0.000351,-0.022134,-0.08967,-0.001064,-0.002128,1e-06,0.0,-0.0,-0.0,3.0,0.3261,0.325909,0.3261,0.326292,,,,,,
203923,-0.000479,-0.022017,-0.089671,-0.0,-0.001064,1e-06,0.0,-0.0,-0.0,3.0,0.3261,0.325781,0.3261,0.326419,,,,,,
203943,-0.000856,-0.02179,-0.089675,-0.0,-0.001064,1e-06,0.0,-0.0,-0.0,3.0,0.3261,0.325521,0.3261,0.326678,,,,,,
203963,-0.000978,-0.021795,-0.089676,0.0,0.0,0.0,0.0,-0.0,-0.0,3.0,0.3261,0.320868,0.3261,0.331221,,,,,,
203983,-0.000867,-0.021546,-0.089674,2.3e-05,0.001063,-0.001065,0.0,-0.0,-0.0,3.0,0.3261,0.320959,0.3261,0.331134,,,,,,
204003,-0.000734,-0.021784,-0.089673,-0.001041,-1e-06,-0.001064,0.0,-0.0,-0.0,3.0,0.3261,0.316353,0.3261,0.335467,,,,,,
204023,-0.000739,-0.021663,-0.089673,-0.002105,-1e-06,-0.001064,0.0,-0.0,-0.0,3.0,0.3261,0.32095,0.3261,0.331143,,,,,,
204043,-0.00061,-0.021779,-0.089794,-0.002128,-0.001064,1e-06,0.0,-0.0,-0.0,3.0,0.3261,0.325678,0.3261,0.326521,,,,,,
204063,-0.000605,-0.021901,-0.089794,-0.001064,-0.001064,1e-06,0.0,-0.0,-0.0,3.0,0.3261,0.325666,0.3261,0.326534,,,,,,
204083,-0.00061,-0.021779,-0.089794,-0.001041,-1e-06,-0.001064,0.0,-0.0,-0.0,3.0,0.3261,0.325547,0.3261,0.326652,,,,,,
204103,-0.000971,-0.021917,-0.089798,2.3e-05,-1e-06,-0.001064,0.0,-0.0,-0.0,3.0,0.3261,0.325198,0.3261,0.326999,,,,,,
204123,-0.001104,-0.021679,-0.089799,0.0,0.0,0.0,0.0,-0.0,-0.0,3.0,0.3261,0.325058,0.3261,0.327138,,,,,,
204143,-0.000969,-0.021917,-0.089919,0.001064,-0.001064,1e-06,0.0,-0.0,-0.0,3.0,0.3261,0.325166,0.3261,0.327031,,,,,,
204163,-0.000848,-0.021912,-0.089918,-0.0,-0.001064,1e-06,0.0,-0.0,-0.0,3.0,0.3261,0.32083,0.3261,0.331257,,,,,,
204183,-0.000964,-0.022039,-0.089919,-0.0,-0.001064,1e-06,0.0,-0.0,-0.0,3.0,0.3261,0.320705,0.3261,0.331377,,,,,,
204203,-0.000969,-0.021917,-0.089919,-0.001041,-0.001065,-0.001063,0.0,-0.0,-0.0,3.0,0.3261,0.320681,0.3261,0.3314,,,,,,
204223,-0.000965,-0.022039,-0.089798,-0.001041,-1e-06,-0.001064,0.0,-0.0,-0.0,3.0,0.3261,0.320668,0.3261,0.331412,,,,,,
204243,-0.000731,-0.021784,-0.089916,-0.001041,-1e-06,-0.001064,0.0,-0.0,-0.0,3.0,0.3261,0.32077,0.3261,0.331315,,,,,,
204263,-0.000975,-0.021795,-0.089919,-0.001041,-1e-06,-0.001064,0.0,-0.0,-0.0,3.0,0.3261,0.320523,0.3261,0.331551,,,,,,
204283,-0.000735,-0.021662,-0.090038,-0.001064,0.0,0.0,0.0,-0.0,-0.0,3.0,0.3261,0.325261,0.3261,0.326936,,,,,,
204303,-0.00073,-0.021784,-0.090038,-0.001064,0.0,0.0,0.0,-0.0,-0.0,3.0,0.3261,0.325251,0.3261,0.326946,,,,,,
204323,-0.000846,-0.021912,-0.090039,-0.0,-0.001064,1e-06,0.0,-0.0,-0.0,3.0,0.3261,0.325127,0.3261,0.327069,,,,,,
204343,-0.000846,-0.021912,-0.090039,-0.0,-0.001064,1e-06,0.0,-0.0,-0.0,3.0,0.3261,0.325111,0.3261,0.327085,,,,,,
204363,-0.000957,-0.022161,-0.090041,0.001064,-0.002128,2e-06,0.0,-0.0,-0.0,3.0,0.3261,0.325091,0.3261,0.327105,,,,,,
204383,-0.000963,-0.022039,-0.090041,-0.0,-0.002128,2e-06,0.0,-0.0,-0.0,3.0,0.3261,0.320533,0.3261,0.331541,,,,,,
204403,-0.001207,-0.02205,-0.090043,2.3e-05,-0.001066,-0.001063,0.0,-0.0,-0.0,3.0,0.3261,0.320285,0.3261,0.331778,,,,,,
204423,-0.00109,-0.021923,-0.090042,-0.001041,-1e-06,-0.001064,0.0,-0.0,-0.0,3.0,0.3261,0.320276,0.3261,0.331787,,,,,,
204443,-0.000717,-0.022028,-0.09016,-0.001041,0.001063,-0.001065,0.0,-0.0,-0.0,3.0,0.3261,0.320608,0.3261,0.33147,,,,,,
204463,-0.000479,-0.021895,-0.090157,-0.002128,0.001064,-1e-06,0.0,-0.0,-0.0,3.0,0.3261,0.325346,0.3261,0.326852,,,,,,
204483,-0.000722,-0.021906,-0.090281,-0.001064,0.0,0.0,0.0,-0.0,-0.0,3.0,0.3261,0.325208,0.3261,0.326989,,,,,,
204503,-0.000722,-0.021906,-0.090281,-0.001064,0.0,0.0,0.0,-0.0,-0.0,3.0,0.3261,0.329642,0.3261,0.322505,,,,,,
204523,-0.000838,-0.022034,-0.090282,2.3e-05,-0.001065,-0.001064,0.0,-0.0,-0.0,3.0,0.3261,0.324972,0.3261,0.327224,,,,,,
204543,-0.000965,-0.021917,-0.090284,0.001088,-0.002129,-0.001062,0.0,-0.0,-0.0,3.0,0.3261,0.324837,0.3261,0.327357,,,,,,
204563,-0.001209,-0.021928,-0.090286,0.001064,-0.002128,3e-06,0.0,-0.0,-0.0,3.0,0.3261,0.320049,0.3261,0.332003,,,,,,
204583,-0.001204,-0.02205,-0.090286,-0.0,-0.002128,3e-06,0.0,-0.0,-0.0,3.0,0.3261,0.315501,0.3261,0.336251,,,,,,
204603,-0.000949,-0.022283,-0.090284,-0.0,-0.001064,1e-06,0.0,-0.0,-0.0,3.0,0.3261,0.315726,0.3261,0.336044,,,,,,
204623,-0.000711,-0.02215,-0.090281,-0.001064,0.0,0.0,0.0,-0.0,-0.0,3.0,0.3261,0.32046,0.3261,0.331611,,,,,,
204643,-0.000594,-0.022023,-0.09028,-0.002128,0.0,0.0,0.0,-0.0,-0.0,3.0,0.3261,0.325187,0.3261,0.32701,,,,,,
204663,-0.000606,-0.021779,-0.090158,-0.001041,0.001064,-0.001065,0.0,-0.0,-0.0,3.0,0.3261,0.325161,0.3261,0.327036,,,,,,
204683,-0.000855,-0.021668,-0.090282,-0.001041,0.001063,-0.001065,0.0,-0.0,-0.0,3.0,0.3261,0.324917,0.3261,0.327277,,,,,,
204703,-0.000976,-0.021673,-0.090283,2.3e-05,0.001063,-0.001066,0.0,-0.0,-0.0,3.0,0.3261,0.32469,0.3261,0.327502,,,,,,
204723,-0.001097,-0.021679,-0.090406,2.3e-05,-1e-06,-0.001064,0.0,-0.0,-0.0,3.0,0.3261,0.324561,0.3261,0.32763,,,,,,
204743,-0.001081,-0.022045,-0.090406,-0.0,-0.001064,1e-06,0.0,-0.0,-0.0,3.0,0.3261,0.319909,0.3261,0.332136,,,,,,
204763,-0.001068,-0.022289,-0.090528,-0.0,-0.002128,2e-06,0.0,-0.0,-0.0,3.0,0.3261,0.320003,0.3261,0.332047,,,,,,
204783,-0.000935,-0.022527,-0.090527,-0.001088,-0.003192,0.001067,0.0,-0.0,-0.0,3.0,0.3261,0.320108,0.3261,0.331946,,,,,,
204803,-0.000691,-0.022516,-0.090524,-0.001064,-0.002128,1e-06,0.0,-0.0,-0.0,3.0,0.3261,0.320421,0.3261,0.331648,,,,,,
204823,-0.000708,-0.02215,-0.090524,-0.001064,0.0,0.0,0.0,-0.0,-0.0,3.0,0.3261,0.320388,0.3261,0.33168,,,,,,
204843,-0.000963,-0.021917,-0.090526,-0.001041,0.001063,-0.001066,0.0,-0.0,-0.0,3.0,0.3261,0.324675,0.3261,0.327517,,,,,,
204863,-0.001096,-0.021679,-0.090528,-0.001041,0.002127,-0.001067,0.0,-0.0,-0.0,3.0,0.3261,0.324535,0.3261,0.327655,,,,,,
204883,-0.000968,-0.021795,-0.090526,-0.001041,0.002127,-0.001067,0.0,-0.0,-0.0,3.0,0.3261,0.319993,0.3261,0.332056,,,,,,
204903,-0.000846,-0.02179,-0.090525,-0.001041,0.001063,-0.001065,0.0,-0.0,-0.0,3.0,0.3261,0.32009,0.3261,0.331964,,,,,,
204923,-0.000828,-0.022156,-0.090647,-0.001064,-0.001064,1e-06,0.0,-0.0,-0.0,3.0,0.3261,0.324632,0.3261,0.327559,,,,,,
204943,-0.000701,-0.022272,-0.090646,-0.001064,-0.003193,2e-06,0.0,-0.0,-0.0,3.0,0.3261,0.324733,0.3261,0.32746,,,,,,
204963,-0.000684,-0.022638,-0.090646,-0.0,-0.003193,2e-06,0.0,-0.0,-0.0,3.0,0.3261,0.324732,0.3261,0.327461,,,,,,
204983,-0.00069,-0.022516,-0.090646,-0.0,-0.002128,1e-06,0.0,-0.0,-0.0,3.0,0.3261,0.324712,0.3261,0.327481,,,,,,
205003,-0.00081,-0.022521,-0.090769,-0.0,-0.002128,2e-06,0.0,-0.0,-0.0,3.0,0.3261,0.324686,0.3261,0.327506,,,,,,
205023,-0.000943,-0.022283,-0.09077,0.0,0.0,0.0,0.0,-0.0,-0.0,3.0,0.3261,0.320003,0.3261,0.332046,,,,,,
205043,-0.000949,-0.022161,-0.09077,0.0,0.001064,-1e-06,0.0,-0.0,-0.0,3.0,0.3261,0.319984,0.3261,0.332065,,,,,,
205063,-0.00095,-0.022161,-0.090648,-0.001041,0.001063,-0.001065,0.0,-0.0,-0.0,3.0,0.3261,0.319966,0.3261,0.332082,,,,,,
205083,-0.000834,-0.022034,-0.090647,-0.001041,0.001063,-0.001065,0.0,-0.0,-0.0,3.0,0.3261,0.320059,0.3261,0.331993,,,,,,
205103,-0.000833,-0.022034,-0.090768,-0.001041,-1e-06,-0.001064,0.0,-0.0,-0.0,3.0,0.3261,0.324589,0.3261,0.327602,,,,,,
205123,-0.000827,-0.022156,-0.090768,2.4e-05,-0.001065,-0.001064,0.0,-0.0,-0.0,3.0,0.3261,0.324477,0.3261,0.327713,,,,,,
205143,-0.000822,-0.022278,-0.090768,-0.001041,-0.001065,-0.001064,0.0,-0.0,-0.0,3.0,0.3261,0.324465,0.3261,0.327724,,,,,,
205163,-0.000698,-0.022272,-0.090889,-0.001064,-0.002128,1e-06,0.0,-0.0,-0.0,3.0,0.3261,0.320019,0.3261,0.332031,,,,,,
205183,-0.000815,-0.0224,-0.09089,-0.001064,-0.002128,2e-06,0.0,-0.0,-0.0,3.0,0.3261,0.319892,0.3261,0.332152,,,,,,
205203,-0.000809,-0.022521,-0.09089,-0.001064,-0.001064,1e-06,0.0,-0.0,-0.0,3.0,0.3261,0.319879,0.3261,0.332164,,,,,,
205223,-0.001059,-0.022411,-0.090893,-2.4e-05,-0.001063,0.001066,0.0,-0.0,-0.0,3.0,0.3261,0.324278,0.3261,0.327909,,,,,,
205243,-0.00106,-0.022411,-0.090771,-0.0,-0.001064,1e-06,0.0,-0.0,-0.0,3.0,0.3261,0.324357,0.3261,0.327831,,,,,,
205263,-0.000949,-0.022161,-0.09077,2.4e-05,-1e-06,-0.001064,0.0,-0.0,-0.0,3.0,0.3261,0.324342,0.3261,0.327846,,,,,,
205283,-0.000955,-0.022039,-0.09077,2.3e-05,0.001063,-0.001065,0.0,-0.0,-0.0,3.0,0.3261,0.31977,0.3261,0.332268,,,,,,
205303,-0.000953,-0.022039,-0.090891,4.7e-05,0.001062,-0.00213,0.0,-0.0,-0.0,3.0,0.3261,0.319653,0.3261,0.332379,,,,,,
205323,-0.000959,-0.021917,-0.090891,-0.001041,-1e-06,-0.001064,0.0,-0.0,-0.0,3.0,0.3261,0.319632,0.3261,0.332399,,,,,,
205343,-0.000819,-0.022278,-0.091011,-0.001064,0.0,0.0,0.0,-0.0,-0.0,3.0,0.3261,0.319747,0.3261,0.33229,,,,,,
205363,-0.000697,-0.022272,-0.09101,-0.001064,-0.001064,1e-06,0.0,-0.0,-0.0,3.0,0.3261,0.319843,0.3261,0.332199,,,,,,
205383,-0.000691,-0.022395,-0.091027,-0.001064,-0.002128,1e-06,0.0,-0.0,-0.0,3.0,0.3261,0.324379,0.3261,0.327809,,,,,,
205403,-0.000813,-0.0224,-0.091011,-0.0,-0.002128,2e-06,0.0,-0.0,-0.0,3.0,0.3261,0.328714,0.3261,0.323458,,,,,,
205423,-0.000935,-0.022405,-0.091013,-0.0,-0.001064,1e-06,0.0,-0.0,-0.0,3.0,0.3261,0.328685,0.3261,0.323488,,,,,,
205443,-0.000941,-0.022283,-0.091013,-0.0,-0.001064,1e-06,0.0,-0.0,-0.0,3.0,0.3261,0.324197,0.3261,0.327989,,,,,,
205463,-0.000952,-0.022039,-0.091012,0.0,0.0,0.0,0.0,-0.0,-0.0,3.0,0.3261,0.319619,0.3261,0.332411,,,,,,
205483,-0.000952,-0.022039,-0.091012,2.3e-05,-1e-06,-0.001064,0.0,-0.0,-0.0,3.0,0.3261,0.314857,0.3261,0.33684,,,,,,
205503,-0.000952,-0.022039,-0.091012,-0.001041,-1e-06,-0.001064,0.0,-0.0,-0.0,3.0,0.3261,0.31484,0.3261,0.336856,,,,,,
205523,-0.000824,-0.022156,-0.091011,-0.001064,0.0,0.0,0.0,-0.0,-0.0,3.0,0.3261,0.319589,0.3261,0.332439,,,,,,
205543,-0.000702,-0.02215,-0.09101,-0.002128,-0.001064,1e-06,0.0,-0.0,-0.0,3.0,0.3261,0.319789,0.3261,0.33225,,,,,,
205563,-0.000575,-0.022266,-0.091009,-0.001064,-0.001064,1e-06,0.0,-0.0,-0.0,3.0,0.3261,0.324438,0.3261,0.327751,,,,,,
205583,-0.000702,-0.02215,-0.09101,-0.001041,-0.001065,-0.001064,0.0,-0.0,-0.0,3.0,0.3261,0.324304,0.3261,0.327883,,,,,,
205603,-0.001068,-0.022167,-0.091014,2.4e-05,-0.001065,-0.001063,0.0,-0.0,-0.0,3.0,0.3261,0.328322,0.3261,0.323858,,,,,,
205623,-0.001079,-0.021923,-0.091014,2.3e-05,-0.001065,-0.001063,0.0,-0.0,-0.0,3.0,0.3261,0.32382,0.3261,0.328359,,,,,,
205643,-0.000951,-0.022039,-0.091134,-0.0,-0.001064,1e-06,0.0,-0.0,-0.0,3.0,0.3261,0.319364,0.3261,0.332652,,,,,,
205663,-0.000951,-0.022041,-0.091151,-0.0,-0.001064,1e-06,0.0,-0.0,-0.0,3.0,0.3261,0.319347,0.3261,0.332669,,,,,,
205683,-0.001067,-0.022168,-0.091152,-0.001064,-0.002128,2e-06,0.0,-0.0,-0.0,3.0,0.3261,0.31932,0.3261,0.332694,,,,,,
205703,-0.000946,-0.022163,-0.091029,-0.001064,-0.001064,1e-06,0.0,-0.0,-0.0,3.0,0.3261,0.319416,0.3261,0.332603,,,,,,
205723,-0.000824,-0.022156,-0.091011,-0.001041,-1e-06,-0.001064,0.0,-0.0,-0.0,3.0,0.3261,0.319513,0.3261,0.332512,,,,,,
205743,-0.000708,-0.022028,-0.09101,-0.001041,0.001063,-0.001065,0.0,-0.0,-0.0,3.0,0.3261,0.319605,0.3261,0.332425,,,,,,
205763,-0.000962,-0.021797,-0.09115,-0.001041,0.001063,-0.001066,0.0,-0.0,-0.0,3.0,0.3261,0.323907,0.3261,0.328273,,,,,,
205783,-0.00096,-0.021797,-0.091272,-0.001041,0.001063,-0.001065,0.0,-0.0,-0.0,3.0,0.3261,0.323792,0.3261,0.328387,,,,,,
205803,-0.000838,-0.021791,-0.091271,-0.001041,-1e-06,-0.001064,0.0,-0.0,-0.0,3.0,0.3261,0.323887,0.3261,0.328293,,,,,,
205823,-0.000949,-0.022041,-0.091272,-0.0,-0.001064,1e-06,0.0,-0.0,-0.0,3.0,0.3261,0.323764,0.3261,0.328414,,,,,,
205843,-0.001066,-0.022168,-0.091274,-0.0,-0.002128,2e-06,0.0,-0.0,-0.0,3.0,0.3261,0.323636,0.3261,0.32854,,,,,,
205863,-0.001182,-0.022296,-0.091275,0.001064,-0.003193,4e-06,0.0,-0.0,-0.0,3.0,0.3261,0.323609,0.3261,0.328566,,,,,,
205883,-0.001054,-0.022412,-0.091274,-0.0,-0.002128,2e-06,0.0,-0.0,-0.0,3.0,0.3261,0.319145,0.3261,0.33286,,,,,,
205903,-0.00106,-0.02229,-0.091274,-0.0,-0.002128,2e-06,0.0,-0.0,-0.0,3.0,0.3261,0.314466,0.3261,0.337196,,,,,,
205923,-0.000955,-0.021919,-0.091272,-0.001041,-1e-06,-0.001064,0.0,-0.0,-0.0,3.0,0.3261,0.314547,0.3261,0.337123,,,,,,
205943,-0.000962,-0.021795,-0.091134,-0.002105,0.001063,-0.001066,0.0,-0.0,-0.0,3.0,0.3261,0.319172,0.3261,0.332834,,,,,,
205963,-0.001095,-0.021557,-0.091135,-0.002105,0.002127,-0.001067,0.0,-0.0,-0.0,3.0,0.3261,0.319024,0.3261,0.332974,,,,,,
205983,-0.001218,-0.021563,-0.091015,-0.001041,0.001063,-0.001066,0.0,-0.0,-0.0,3.0,0.3261,0.323451,0.3261,0.32872,,,,,,
206003,-0.001218,-0.021563,-0.091015,2.3e-05,-1e-06,-0.001064,0.0,-0.0,-0.0,3.0,0.3261,0.32791,0.3261,0.324277,,,,,,
206023,-0.001218,-0.021563,-0.091015,2.3e-05,-0.001066,-0.001063,0.0,-0.0,-0.0,3.0,0.3261,0.323305,0.3261,0.328863,,,,,,
206043,-0.001451,-0.021818,-0.091017,-0.0,-0.002128,3e-06,0.0,-0.0,-0.0,3.0,0.3261,0.323063,0.3261,0.329099,,,,,,
206063,-0.001573,-0.021823,-0.091019,-0.0,-0.002128,3e-06,0.0,-0.0,-0.0,3.0,0.3261,0.318346,0.3261,0.333612,,,,,,
206083,-0.001562,-0.022067,-0.091019,-0.0,-0.002128,3e-06,0.0,-0.0,-0.0,3.0,0.3261,0.318328,0.3261,0.333628,,,,,,
206103,-0.001329,-0.021812,-0.091016,-0.001064,-0.002128,3e-06,0.0,-0.0,-0.0,3.0,0.3261,0.313854,0.3261,0.337752,,,,,,
206123,-0.001567,-0.021945,-0.091019,-0.001088,-0.002127,0.001068,0.0,-0.0,-0.0,3.0,0.3261,0.318362,0.3261,0.333596,,,,,,
206143,-0.001589,-0.021457,-0.091018,-0.001064,0.0,0.0,0.0,-0.0,-0.0,3.0,0.3261,0.318406,0.3261,0.333556,,,,,,
206163,-0.001711,-0.021463,-0.09102,-0.001041,0.002127,-0.001068,0.0,-0.0,-0.0,3.0,0.3261,0.322739,0.3261,0.329415,,,,,,
206183,-0.001717,-0.021341,-0.091019,4.6e-05,0.002125,-0.002133,0.0,-0.0,-0.0,3.0,0.3261,0.322701,0.3261,0.329452,,,,,,
206203,-0.001715,-0.021341,-0.091141,2.3e-05,0.001062,-0.001066,0.0,-0.0,-0.0,3.0,0.3261,0.322573,0.3261,0.329576,,,,,,
206223,-0.00171,-0.021463,-0.091141,2.3e-05,-2e-06,-0.001064,0.0,-0.0,-0.0,3.0,0.3261,0.317963,0.3261,0.333971,,,,,,
206243,-0.001454,-0.021697,-0.091277,-0.001041,-0.001066,-0.001063,0.0,-0.0,-0.0,3.0,0.3261,0.318174,0.3261,0.333773,,,,,,
206263,-0.001321,-0.021935,-0.091276,-0.001064,-0.002128,3e-06,0.0,-0.0,-0.0,3.0,0.3261,0.322849,0.3261,0.329308,,,,,,
206283,-0.001321,-0.021935,-0.091276,-0.001064,-0.002128,3e-06,0.0,-0.0,-0.0,3.0,0.3261,0.322818,0.3261,0.329338,,,,,,
206303,-0.001443,-0.021941,-0.091277,-0.0,-0.002128,3e-06,0.0,-0.0,-0.0,3.0,0.3261,0.322673,0.3261,0.329479,,,,,,
206323,-0.001686,-0.021952,-0.09128,-0.0,-0.001064,2e-06,0.0,-0.0,-0.0,3.0,0.3261,0.322414,0.3261,0.329731,,,,,,
206343,-0.001941,-0.021719,-0.091282,0.001064,0.0,0.0,0.0,-0.0,-0.0,3.0,0.3261,0.322241,0.3261,0.329898,,,,,,
206363,-0.001818,-0.021714,-0.091402,0.001064,0.0,0.0,0.0,-0.0,-0.0,3.0,0.3261,0.317737,0.3261,0.334182,,,,,,
206383,-0.001576,-0.021703,-0.091278,2.3e-05,-2e-06,-0.001064,0.0,-0.0,-0.0,3.0,0.3261,0.31794,0.3261,0.333993,,,,,,
206403,-0.001326,-0.021813,-0.091276,-0.001041,-1e-06,-0.001064,0.0,-0.0,-0.0,3.0,0.3261,0.313372,0.3261,0.338187,,,,,,
206423,-0.001325,-0.021813,-0.091397,-0.002105,-0.001066,-0.001063,0.0,-0.0,-0.0,3.0,0.3261,0.318021,0.3261,0.333916,,,,,,
206443,-0.001325,-0.021813,-0.091397,-0.002105,-0.001066,-0.001063,0.0,-0.0,-0.0,3.0,0.3261,0.322578,0.3261,0.329572,,,,,,
206463,-0.001197,-0.02193,-0.091396,-0.001041,-1e-06,-0.001064,0.0,-0.0,-0.0,3.0,0.3261,0.322767,0.3261,0.329388,,,,,,
206483,-0.001208,-0.021686,-0.091396,-0.001041,-1e-06,-0.001064,0.0,-0.0,-0.0,3.0,0.3261,0.32263,0.3261,0.329521,,,,,,
206503,-0.001451,-0.021697,-0.09152,-0.001041,-2e-06,-0.001064,0.0,-0.0,-0.0,3.0,0.3261,0.322376,0.3261,0.329767,,,,,,
206523,-0.001573,-0.021703,-0.091521,0.0,0.0,0.0,0.0,-0.0,-0.0,3.0,0.3261,0.322235,0.3261,0.329904,,,,,,
206543,-0.001567,-0.021825,-0.091521,-0.0,-0.001064,2e-06,0.0,-0.0,-0.0,3.0,0.3261,0.322211,0.3261,0.329927,,,,,,
206563,-0.001445,-0.021819,-0.09152,-0.0,-0.001064,2e-06,0.0,-0.0,-0.0,3.0,0.3261,0.322297,0.3261,0.329844,,,,,,
206583,-0.00144,-0.021941,-0.09152,-0.0,-0.002128,3e-06,0.0,-0.0,-0.0,3.0,0.3261,0.322374,0.3261,0.329769,,,,,,
206603,-0.001323,-0.021813,-0.091519,-0.0,-0.002128,3e-06,0.0,-0.0,-0.0,3.0,0.3261,0.31787,0.3261,0.334057,,,,,,
206623,-0.001202,-0.021808,-0.091517,2.3e-05,-0.001066,-0.001063,0.0,-0.0,-0.0,3.0,0.3261,0.317963,0.3261,0.333971,,,,,,
206643,-0.001207,-0.021686,-0.091517,-0.001041,-1e-06,-0.001064,0.0,-0.0,-0.0,3.0,0.3261,0.317834,0.3261,0.334091,,,,,,
206663,-0.001096,-0.021436,-0.091516,-0.001041,0.001063,-0.001066,0.0,-0.0,-0.0,3.0,0.3261,0.317917,0.3261,0.334013,,,,,,
206683,-0.00098,-0.021309,-0.091514,-0.002106,0.001063,-0.001066,0.0,-0.0,-0.0,3.0,0.3261,0.318005,0.3261,0.333931,,,,,,
206703,-0.001107,-0.021193,-0.091515,-0.001064,0.001064,-1e-06,0.0,-0.0,-0.0,3.0,0.3261,0.322448,0.3261,0.329698,,,,,,
206723,-0.001102,-0.021315,-0.091516,-0.001064,0.0,0.0,0.0,-0.0,-0.0,3.0,0.3261,0.327027,0.3261,0.32517,,,,,,
206743,-0.000987,-0.021187,-0.091393,2.3e-05,-0.001065,-0.001063,0.0,-0.0,-0.0,3.0,0.3261,0.327016,0.3261,0.325181,,,,,,
206763,-0.001103,-0.021315,-0.091394,0.001087,-0.00213,-0.001062,0.0,-0.0,-0.0,3.0,0.3261,0.322388,0.3261,0.329756,,,,,,
206783,-0.001225,-0.02132,-0.091395,0.001064,-0.003193,4e-06,0.0,-0.0,-0.0,3.0,0.3261,0.317662,0.3261,0.334252,,,,,,
206803,-0.001353,-0.021204,-0.091396,-0.0,-0.002128,3e-06,0.0,-0.0,-0.0,3.0,0.3261,0.317618,0.3261,0.334293,,,,,,
206823,-0.001109,-0.021193,-0.091394,-0.001064,-0.001064,1e-06,0.0,-0.0,-0.0,3.0,0.3261,0.313147,0.3261,0.33839,,,,,,
206843,-0.001005,-0.02082,-0.091254,-0.001064,-0.001064,1e-06,0.0,-0.0,-0.0,3.0,0.3261,0.313224,0.3261,0.33832,,,,,,
206863,-0.000767,-0.020687,-0.091252,-0.001064,0.0,0.0,0.0,-0.0,-0.0,3.0,0.3261,0.318108,0.3261,0.333835,,,,,,
206883,-0.000905,-0.020327,-0.091253,-0.001043,0.001063,-0.001065,0.0,-0.0,-0.0,3.0,0.3261,0.322541,0.3261,0.329607,,,,,,
206903,-0.00079,-0.020199,-0.09113,-0.001043,0.001063,-0.001065,0.0,-0.0,-0.0,3.0,0.3261,0.327126,0.3261,0.32507,,,,,,
206923,-0.000807,-0.019833,-0.091129,2.1e-05,0.001063,-0.001065,0.0,-0.0,-0.0,3.0,0.3261,0.327096,0.3261,0.325101,,,,,,
206943,-0.000805,-0.019833,-0.091251,2.1e-05,-1e-06,-0.001064,0.0,-0.0,-0.0,3.0,0.3261,0.322495,0.3261,0.329653,,,,,,
206963,-0.000689,-0.019706,-0.09125,-0.0,-0.001064,1e-06,0.0,-0.0,-0.0,3.0,0.3261,0.32259,0.3261,0.32956,,,,,,
206983,-0.000684,-0.019828,-0.09125,-0.0,-0.002128,1e-06,0.0,-0.0,-0.0,3.0,0.3261,0.317906,0.3261,0.334024,,,,,,
207003,-0.000677,-0.01995,-0.091371,-0.0,-0.003193,2e-06,0.0,-0.0,-0.0,3.0,0.3261,0.317992,0.3261,0.333943,,,,,,
207023,-0.000677,-0.01995,-0.091371,-0.001086,-0.003192,0.001067,0.0,-0.0,-0.0,3.0,0.3261,0.317978,0.3261,0.333957,,,,,,
207043,-0.000555,-0.019944,-0.09137,-0.001064,-0.002128,1e-06,0.0,-0.0,-0.0,3.0,0.3261,0.318171,0.3261,0.333776,,,,,,
207063,-0.000566,-0.0197,-0.09137,0.0,0.0,0.0,0.0,-0.0,-0.0,3.0,0.3261,0.318147,0.3261,0.333798,,,,,,
207083,-0.000693,-0.019584,-0.091371,2.1e-05,0.001063,-0.001065,0.0,-0.0,-0.0,3.0,0.3261,0.3226,0.3261,0.32955,,,,,,
207103,-0.000699,-0.019462,-0.091371,2.1e-05,0.002128,-0.001066,0.0,-0.0,-0.0,3.0,0.3261,0.322588,0.3261,0.329562,,,,,,
207123,-0.000454,-0.019451,-0.09149,-0.001044,0.002128,-0.001065,0.0,-0.0,-0.0,3.0,0.3261,0.318137,0.3261,0.333808,,,,,,
207143,-0.000332,-0.019445,-0.091489,-0.001044,-0.0,-0.001064,0.0,-0.0,-0.0,3.0,0.3261,0.318244,0.3261,0.333707,,,,,,
207163,-0.000447,-0.019573,-0.091612,-0.001064,-0.001064,0.0,0.0,-0.0,-0.0,3.0,0.3261,0.322707,0.3261,0.329446,,,,,,
207183,-0.000437,-0.019817,-0.09149,-0.001064,-0.002128,1e-06,0.0,-0.0,-0.0,3.0,0.3261,0.322705,0.3261,0.329448,,,,,,
207203,-0.000188,-0.019927,-0.091488,-0.0,-0.002128,0.0,0.0,-0.0,-0.0,3.0,0.3261,0.322927,0.3261,0.329232,,,,,,
207223,-0.00031,-0.019933,-0.091489,-0.0,-0.002128,1e-06,0.0,-0.0,-0.0,3.0,0.3261,0.322804,0.3261,0.329352,,,,,,
207243,-0.000559,-0.019822,-0.091491,-0.0,-0.001064,1e-06,0.0,-0.0,-0.0,3.0,0.3261,0.322564,0.3261,0.329585,,,,,,
207263,-0.000686,-0.019706,-0.091614,0.0,0.0,0.0,0.0,-0.0,-0.0,3.0,0.3261,0.322527,0.3261,0.329621,,,,,,
207283,-0.000436,-0.019816,-0.091612,0.0,0.0,0.0,0.0,-0.0,-0.0,3.0,0.3261,0.318173,0.3261,0.333774,,,,,,
207303,-0.000325,-0.019567,-0.09161,0.0,0.0,0.0,0.0,-0.0,-0.0,3.0,0.3261,0.318181,0.3261,0.333766,,,,,,
207323,-0.000442,-0.019696,-0.091628,-0.001064,0.0,0.0,0.0,-0.0,-0.0,3.0,0.3261,0.318156,0.3261,0.33379,,,,,,
207343,-0.000447,-0.019573,-0.091612,-0.001043,-0.0,-0.001064,0.0,-0.0,-0.0,3.0,0.3261,0.318142,0.3261,0.333803,,,,,,
207363,-0.00032,-0.019689,-0.09161,-0.001043,-0.0,-0.001064,0.0,-0.0,-0.0,3.0,0.3261,0.318255,0.3261,0.333697,,,,,,
207383,-0.000318,-0.01969,-0.091749,-0.001043,-0.0,-0.001064,0.0,-0.0,-0.0,3.0,0.3261,0.318158,0.3261,0.333788,,,,,,
207403,-0.000202,-0.019563,-0.091747,-0.001043,-0.0,-0.001064,0.0,-0.0,-0.0,3.0,0.3261,0.322841,0.3261,0.329316,,,,,,
207423,4.9e-05,-0.019673,-0.091867,-0.001064,0.0,0.0,0.0,-0.0,-0.0,3.0,0.3261,0.32307,0.3261,0.329093,,,,,,
207443,-7.3e-05,-0.019679,-0.091868,-0.001064,-0.001064,0.0,0.0,-0.0,-0.0,3.0,0.3261,0.322952,0.3261,0.329208,,,,,,
207463,-0.00019,-0.019806,-0.091869,-0.001064,-0.001064,0.0,0.0,-0.0,-0.0,3.0,0.3261,0.322839,0.3261,0.329318,,,,,,
207483,-0.000317,-0.01969,-0.09187,-0.0,-0.001064,0.0,0.0,-0.0,-0.0,3.0,0.3261,0.322716,0.3261,0.329438,,,,,,
207503,-0.000434,-0.019818,-0.091871,0.001064,-0.001064,0.0,0.0,-0.0,-0.0,3.0,0.3261,0.322691,0.3261,0.329462,,,,,,
207523,-0.000561,-0.019701,-0.091872,0.001064,-0.001064,1e-06,0.0,-0.0,-0.0,3.0,0.3261,0.31798,0.3261,0.333955,,,,,,
207543,-0.000439,-0.019696,-0.091871,2.1e-05,-0.001065,-0.001064,0.0,-0.0,-0.0,3.0,0.3261,0.313417,0.3261,0.338147,,,,,,
207563,-0.000439,-0.019696,-0.091871,-0.001043,-0.0,-0.001064,0.0,-0.0,-0.0,3.0,0.3261,0.313411,0.3261,0.338152,,,,,,
207583,-0.000195,-0.019684,-0.091869,-0.002107,0.001064,-0.001065,0.0,-0.0,-0.0,3.0,0.3261,0.313548,0.3261,0.338028,,,,,,
207603,-8.3e-05,-0.019435,-0.091989,-0.002108,0.001064,-0.001065,0.0,-0.0,-0.0,3.0,0.3261,0.318319,0.3261,0.333637,,,,,,
207623,-0.000327,-0.019446,-0.091991,-0.002128,0.0,0.0,0.0,-0.0,-0.0,3.0,0.3261,0.322752,0.3261,0.329403,,,,,,
207643,-0.000327,-0.019446,-0.091991,-0.001064,0.0,0.0,0.0,-0.0,-0.0,3.0,0.3261,0.327238,0.3261,0.324957,,,,,,
207663,-0.000327,-0.019446,-0.091991,2.1e-05,-0.0,-0.001064,0.0,-0.0,-0.0,3.0,0.3261,0.327144,0.3261,0.325051,,,,,,
207683,-0.000327,-0.019446,-0.091991,0.001085,-0.001065,-0.001064,0.0,-0.0,-0.0,3.0,0.3261,0.322642,0.3261,0.329509,,,,,,
207703,-0.000444,-0.019574,-0.091993,0.001064,-0.002128,1e-06,0.0,-0.0,-0.0,3.0,0.3261,0.317945,0.3261,0.333987,,,,,,
207723,-0.000315,-0.01969,-0.092113,-0.0,-0.002128,1e-06,0.0,-0.0,-0.0,3.0,0.3261,0.318064,0.3261,0.333876,,,,,,
207743,-6.5e-05,-0.019801,-0.092111,-0.001064,-0.002128,0.0,0.0,-0.0,-0.0,3.0,0.3261,0.31363,0.3261,0.337954,,,,,,
207763,5.1e-05,-0.019673,-0.092109,-0.001064,-0.001064,-0.0,0.0,-0.0,-0.0,3.0,0.3261,0.313832,0.3261,0.337772,,,,,,
207783,0.000167,-0.019546,-0.092108,-0.001064,0.0,0.0,0.0,-0.0,-0.0,3.0,0.3261,0.318607,0.3261,0.333367,,,,,,
207803,3.4e-05,-0.019307,-0.092109,-0.001044,0.001064,-0.001064,0.0,-0.0,-0.0,3.0,0.3261,0.323055,0.3261,0.329107,,,,,,
207823,-9.3e-05,-0.019191,-0.09211,-0.001044,0.002128,-0.001065,0.0,-0.0,-0.0,3.0,0.3261,0.322937,0.3261,0.329223,,,,,,
207843,-9.8e-05,-0.019069,-0.092232,2e-05,0.002128,-0.001065,0.0,-0.0,-0.0,3.0,0.3261,0.322935,0.3261,0.329225,,,,,,
207863,3.1e-05,-0.019185,-0.092352,2e-05,0.001064,-0.001064,0.0,-0.0,-0.0,3.0,0.3261,0.322967,0.3261,0.329193,,,,,,
207883,0.000158,-0.019302,-0.092351,2.1e-05,-0.001064,-0.001065,0.0,-0.0,-0.0,3.0,0.3261,0.323088,0.3261,0.329075,,,,,,
207903,0.000171,-0.019545,-0.092473,-0.001064,-0.003193,-1e-06,0.0,-0.0,-0.0,3.0,0.3261,0.323101,0.3261,0.329062,,,,,,
207923,0.000298,-0.019662,-0.092471,-0.001064,-0.003193,-1e-06,0.0,-0.0,-0.0,3.0,0.3261,0.323222,0.3261,0.328944,,,,,,
207943,0.000303,-0.019784,-0.09235,0.0,-0.002128,-1e-06,0.0,-0.0,-0.0,3.0,0.3261,0.323229,0.3261,0.328938,,,,,,
207963,0.000292,-0.01954,-0.09235,0.0,-0.001064,-0.0,0.0,-0.0,-0.0,3.0,0.3261,0.323308,0.3261,0.32886,,,,,,
207983,-0.000202,-0.01944,-0.092355,0.0,0.0,0.0,0.0,-0.0,-0.0,3.0,0.3261,0.322853,0.3261,0.329304,,,,,,
208003,-9.7e-05,-0.019069,-0.092353,2e-05,0.001064,-0.001065,0.0,-0.0,-0.0,3.0,0.3261,0.318376,0.3261,0.333583,,,,,,
208023,3.1e-05,-0.019185,-0.092352,2e-05,0.001064,-0.001064,0.0,-0.0,-0.0,3.0,0.3261,0.318502,0.3261,0.333465,,,,,,
208043,0.000275,-0.019174,-0.09235,-0.001044,0.001065,-0.001064,0.0,-0.0,-0.0,3.0,0.3261,0.318647,0.3261,0.333329,,,,,,
208063,0.000282,-0.019296,-0.092471,-0.002108,0.0,-0.001064,0.0,-0.0,-0.0,3.0,0.3261,0.318658,0.3261,0.333318,,,,,,
208083,0.000287,-0.019418,-0.092471,-0.002128,-0.001064,-0.0,0.0,-0.0,-0.0,3.0,0.3261,0.323327,0.3261,0.328842,,,,,,
208103,0.000426,-0.019778,-0.09247,-0.001043,-0.001064,-0.001065,0.0,-0.0,-0.0,3.0,0.3261,0.32337,0.3261,0.3288,,,,,,
208123,0.000415,-0.019534,-0.09247,-0.001043,-0.001064,-0.001065,0.0,-0.0,-0.0,3.0,0.3261,0.323362,0.3261,0.328808,,,,,,
208143,0.000172,-0.019545,-0.092594,0.0,-0.001064,-0.0,0.0,-0.0,-0.0,3.0,0.3261,0.323139,0.3261,0.329025,,,,,,
208163,5e-05,-0.019551,-0.092595,0.0,-0.001064,-0.0,0.0,-0.0,-0.0,3.0,0.3261,0.323029,0.3261,0.329133,,,,,,
208183,5e-05,-0.019551,-0.092595,0.0,0.0,0.0,0.0,-0.0,-0.0,3.0,0.3261,0.323032,0.3261,0.329129,,,,,,
208203,5e-05,-0.019551,-0.092595,0.0,-0.001064,-0.0,0.0,-0.0,-0.0,3.0,0.3261,0.323124,0.3261,0.32904,,,,,,
208223,-7.2e-05,-0.019557,-0.092596,-0.0,-0.001064,0.0,0.0,-0.0,-0.0,3.0,0.3261,0.323013,0.3261,0.329149,,,,,,
208243,5e-05,-0.019551,-0.092595,0.0,-0.001064,-0.0,0.0,-0.0,-0.0,3.0,0.3261,0.318554,0.3261,0.333417,,,,,,
208263,-7.3e-05,-0.019557,-0.092475,2.1e-05,-0.0,-0.001064,0.0,-0.0,-0.0,3.0,0.3261,0.318439,0.3261,0.333524,,,,,,
208283,-6.7e-05,-0.019679,-0.092475,-0.001043,-0.0,-0.001064,0.0,-0.0,-0.0,3.0,0.3261,0.318353,0.3261,0.333605,,,,,,
208303,5e-05,-0.019551,-0.092595,-0.002108,0.001064,-0.001064,0.0,-0.0,-0.0,3.0,0.3261,0.318466,0.3261,0.333499,,,,,,
208323,0.000178,-0.019667,-0.092594,-0.002128,0.0,0.0,0.0,-0.0,-0.0,3.0,0.3261,0.318587,0.3261,0.333386,,,,,,
208343,0.000172,-0.019545,-0.092594,-0.002128,0.0,0.0,0.0,-0.0,-0.0,3.0,0.3261,0.323154,0.3261,0.329011,,,,,,
208363,-6.6e-05,-0.019679,-0.092596,-0.001064,-0.001064,0.0,0.0,-0.0,-0.0,3.0,0.3261,0.32742,0.3261,0.324773,,,,,,
208383,-0.000188,-0.019684,-0.092598,-0.0,-0.001064,0.0,0.0,-0.0,-0.0,3.0,0.3261,0.327306,0.3261,0.324888,,,,,,
208403,-0.000182,-0.019806,-0.092598,0.001064,-0.001064,0.0,0.0,-0.0,-0.0,3.0,0.3261,0.322816,0.3261,0.32934,,,,,,
208423,-0.000181,-0.019806,-0.092719,0.001064,-0.002128,0.0,0.0,-0.0,-0.0,3.0,0.3261,0.322815,0.3261,0.329341,,,,,,
208443,-0.000425,-0.019817,-0.092722,-0.0,-0.002128,1e-06,0.0,-0.0,-0.0,3.0,0.3261,0.318093,0.3261,0.333849,,,,,,
208463,-0.000176,-0.019928,-0.092719,-0.001064,-0.001064,0.0,0.0,-0.0,-0.0,3.0,0.3261,0.313659,0.3261,0.337928,,,,,,
208483,-5.9e-05,-0.0198,-0.092718,-0.001064,0.0,0.0,0.0,-0.0,-0.0,3.0,0.3261,0.313769,0.3261,0.337828,,,,,,
208503,-5.4e-05,-0.019922,-0.092718,-0.002107,-0.0,-0.001064,0.0,-0.0,-0.0,3.0,0.3261,0.318439,0.3261,0.333525,,,,,,
208523,-0.000181,-0.019806,-0.092719,-0.002107,0.001064,-0.001065,0.0,-0.0,-0.0,3.0,0.3261,0.32289,0.3261,0.329268,,,,,,
208543,-0.000303,-0.019812,-0.09272,-0.001043,0.001064,-0.001065,0.0,-0.0,-0.0,3.0,0.3261,0.322768,0.3261,0.329387,,,,,,
208563,-0.000553,-0.019701,-0.092723,-0.001043,0.001064,-0.001065,0.0,-0.0,-0.0,3.0,0.3261,0.327026,0.3261,0.325171,,,,,,
208583,-0.000673,-0.019707,-0.092845,2.1e-05,-1e-06,-0.001064,0.0,-0.0,-0.0,3.0,0.3261,0.326815,0.3261,0.325383,,,,,,
208603,-0.000661,-0.019951,-0.092967,-0.0,-0.001064,1e-06,0.0,-0.0,-0.0,3.0,0.3261,0.322314,0.3261,0.329828,,,,,,
208623,-0.000772,-0.0202,-0.092968,-0.0,-0.002128,2e-06,0.0,-0.0,-0.0,3.0,0.3261,0.317512,0.3261,0.334392,,,,,,
208643,-0.000765,-0.020322,-0.09309,-0.0,-0.002128,2e-06,0.0,-0.0,-0.0,3.0,0.3261,0.317599,0.3261,0.33431,,,,,,
208663,-0.000637,-0.020438,-0.093089,-0.001086,-0.003192,0.001066,0.087266,-0.0,-0.0,3.0,0.3261,0.206618,0.3261,0.40342,,,,,,
208683,-0.000502,-0.020677,-0.093209,-0.0,-0.001064,1e-06,0.087266,-0.0,-0.0,3.0,0.3261,0.212271,0.3261,0.401213,,,,,,
208703,0.000457,-0.020388,-0.092713,0.004279,0.0,-0.001064,0.087266,-0.0,-0.0,3.0,0.3261,0.234476,0.3261,0.391379,,,,,,
208723,0.002771,-0.02028,-0.092447,0.008535,0.001067,-0.001061,0.087266,-0.0,-0.0,3.0,0.3261,0.267575,0.3261,0.37293,,,,,,
208743,0.007787,-0.020415,-0.092393,0.013856,0.001072,-0.001056,0.087266,-0.0,-0.0,3.0,0.3261,0.293303,0.3261,0.354929,,,,,,
208763,0.01524,-0.020311,-0.092671,0.019156,0.0,0.0,0.087266,-0.0,-0.0,3.0,0.3261,0.318618,0.3261,0.333356,,,,,,
208783,0.024777,-0.020226,-0.093313,0.023392,-0.00109,0.001038,0.087266,-0.0,-0.0,3.0,0.3261,0.339174,0.3261,0.312273,,,,,,
208803,0.035646,-0.019818,-0.094275,0.024437,-0.002203,0.002052,0.087266,-0.0,-0.0,3.0,0.3261,0.359515,0.3261,0.287214,,,,,,
208823,0.047635,-0.019708,-0.095356,0.024437,-0.002227,0.002025,0.087266,-0.0,-0.0,3.0,0.3261,0.379395,0.3261,0.256934,,,,,,
208843,0.059734,-0.019332,-0.096422,0.024437,-0.001189,0.002062,0.087266,-0.0,-0.0,3.0,0.3261,0.387905,0.3261,0.241414,,,,,,
208863,0.070729,-0.018874,-0.097494,0.023374,-0.001212,0.002048,0.087266,-0.0,-0.0,3.0,0.3261,0.384911,0.3261,0.247097,,,,,,
208883,0.080373,-0.01824,-0.098242,0.019119,-0.001232,0.002036,0.087266,-0.0,-0.0,3.0,0.3261,0.38112,0.3261,0.25394,,,,,,
208903,0.088307,-0.017683,-0.098997,0.013816,-9.4e-05,0.00106,0.087266,-0.0,-0.0,3.0,0.3261,0.364718,0.3261,0.279943,,,,,,
208923,0.09429,-0.017346,-0.099641,0.008495,-0.0001,0.00106,0.087266,-0.0,-0.0,3.0,0.3261,0.349868,0.3261,0.299706,,,,,,
208943,0.097824,-0.016905,-0.09998,0.003194,-0.001059,-0.000104,0.087266,-0.0,-0.0,3.0,0.3261,0.336353,0.3261,0.31539,,,,,,
208963,0.099172,-0.01694,-0.10031,-0.001062,-0.001059,-0.000105,0.087266,-0.0,-0.0,3.0,0.3261,0.320127,0.3261,0.331928,,,,,,
208983,0.098462,-0.017324,-0.100671,-0.003193,0.0,0.0,0.087266,-0.0,-0.0,3.0,0.3261,0.305373,0.3261,0.345176,,,,,,
209003,0.096771,-0.017639,-0.101059,-0.004257,0.0,0.0,0.087266,-0.0,-0.0,3.0,0.3261,0.293882,0.3261,0.354481,,,,,,
209023,0.094703,-0.017856,-0.10132,-0.004257,0.0,0.0,0.087266,-0.0,-0.0,3.0,0.3261,0.291857,0.3261,0.356037,,,,,,
209043,0.092763,-0.018189,-0.101574,-0.003193,0.0,0.0,0.087266,-0.0,-0.0,3.0,0.3261,0.295116,0.3261,0.353521,,,,,,
209063,0.091682,-0.018473,-0.101949,-0.001084,-9.7e-05,0.00106,0.087266,-0.0,-0.0,3.0,0.3261,0.304162,0.3261,0.346196,,,,,,
209083,0.091305,-0.018243,-0.102089,-1.9e-05,-9.7e-05,0.00106,0.087266,-0.0,-0.0,3.0,0.3261,0.313522,0.3261,0.338052,,,,,,
209103,0.09192,-0.018332,-0.102071,0.002128,0.0,0.0,0.087266,-0.0,-0.0,3.0,0.3261,0.323513,0.3261,0.32866,,,,,,
209123,0.093625,-0.018116,-0.10218,0.004276,9.9e-05,-0.00106,0.087266,-0.0,-0.0,3.0,0.3261,0.329646,0.3261,0.322501,,,,,,
209143,0.095707,-0.01813,-0.10215,0.004276,0.000102,-0.00106,0.087266,-0.0,-0.0,3.0,0.3261,0.331669,0.3261,0.320399,,,,,,
209163,0.098021,-0.017887,-0.102125,0.004276,0.000104,-0.001059,0.087266,-0.0,-0.0,3.0,0.3261,0.338134,0.3261,0.313431,,,,,,
209183,0.100469,-0.017875,-0.102206,0.003212,0.000107,-0.001059,0.087266,-0.0,-0.0,3.0,0.3261,0.340484,0.3261,0.310799,,,,,,
209203,0.103032,-0.017741,-0.102169,0.002128,0.0,0.0,0.087266,-0.0,-0.0,3.0,0.3261,0.342954,0.3261,0.307971,,,,,,
209223,0.10498,-0.017517,-0.102151,0.002128,0.0,0.0,0.087266,-0.0,-0.0,3.0,0.3261,0.344922,0.3261,0.305672,,,,,,
209243,0.106319,-0.017453,-0.102,0.001066,-0.001058,-0.000113,0.087266,-0.0,-0.0,3.0,0.3261,0.342223,0.3261,0.308814,,,,,,
209263,0.106933,-0.017549,-0.101859,0.001066,-0.001058,-0.000114,0.087266,-0.0,-0.0,3.0,0.3261,0.338878,0.3261,0.312603,,,,,,
209283,0.107187,-0.017793,-0.101598,2e-06,-0.001058,-0.000114,0.087266,-0.0,-0.0,3.0,0.3261,0.335257,0.3261,0.316581,,,,,,
209303,0.10682,-0.017825,-0.101364,1.9e-05,0.000113,-0.001058,0.087266,-0.0,-0.0,3.0,0.3261,0.326531,0.3261,0.325668,,,,,,
209323,0.10621,-0.01787,-0.101136,-0.001045,0.000113,-0.001058,0.087266,-0.0,-0.0,3.0,0.3261,0.321836,0.3261,0.33029,,,,,,
209343,0.105722,-0.017909,-0.100904,-0.002091,0.000225,-0.002117,0.087266,-0.0,-0.0,3.0,0.3261,0.317159,0.3261,0.334721,,,,,,
209363,0.105221,-0.017818,-0.100782,-0.002108,-0.000947,-0.00117,0.087266,-0.0,-0.0,3.0,0.3261,0.317045,0.3261,0.334826,,,,,,
209383,0.104855,-0.01785,-0.100547,-0.002108,-0.000947,-0.00117,0.087266,-0.0,-0.0,3.0,0.3261,0.321575,0.3261,0.330542,,,,,,
209403,0.104616,-0.017997,-0.100304,-0.001041,-0.002006,-0.001281,0.087266,-0.0,-0.0,3.0,0.3261,0.330623,0.3261,0.321491,,,,,,
209423,0.104614,-0.01801,-0.100062,4e-06,-0.002117,-0.000222,0.087266,-0.0,-0.0,3.0,0.3261,0.335359,0.3261,0.31647,,,,,,
209443,0.104619,-0.018145,-0.099813,0.001085,-0.000947,-0.00117,0.087266,-0.0,-0.0,3.0,0.3261,0.335674,0.3261,0.316129,,,,,,
209463,0.104733,-0.01803,-0.099574,0.001083,0.000111,-0.001059,0.087266,-0.0,-0.0,3.0,0.3261,0.331845,0.3261,0.320215,,,,,,
209483,0.104969,-0.017902,-0.099454,1.7e-05,0.00117,-0.000947,0.087266,-0.0,-0.0,3.0,0.3261,0.332325,0.3261,0.31971,,,,,,
209503,0.105455,-0.01789,-0.099201,1.7e-05,0.00117,-0.000946,0.087266,-0.0,-0.0,3.0,0.3261,0.328714,0.3261,0.323458,,,,,,
209523,0.105704,-0.018006,-0.099068,-0.001045,0.000112,-0.001058,0.087266,-0.0,-0.0,3.0,0.3261,0.324842,0.3261,0.327352,,,,,,
209543,0.105831,-0.018128,-0.098938,-0.002107,-0.000946,-0.001171,0.087266,-0.0,-0.0,3.0,0.3261,0.329769,0.3261,0.322375,,,,,,
209563,0.105725,-0.018512,-0.098679,-0.002107,-0.000946,-0.001171,0.087266,-0.0,-0.0,3.0,0.3261,0.334293,0.3261,0.317618,,,,,,
209583,0.105468,-0.018408,-0.098551,-0.00106,-0.002117,-0.000224,0.087266,-0.0,-0.0,3.0,0.3261,0.3344,0.3261,0.317504,,,,,,
209603,0.105102,-0.01844,-0.098317,2e-06,-0.001058,-0.000112,0.087266,-0.0,-0.0,3.0,0.3261,0.334467,0.3261,0.317431,,,,,,
209623,0.104608,-0.018349,-0.098213,1.9e-05,0.000111,-0.001059,0.087266,-0.0,-0.0,3.0,0.3261,0.334436,0.3261,0.317465,,,,,,
209643,0.104478,-0.018247,-0.097979,1.7e-05,0.001169,-0.000948,0.087266,-0.0,-0.0,3.0,0.3261,0.33021,0.3261,0.321919,,,,,,
209663,0.104593,-0.018125,-0.097862,3.6e-05,0.001281,-0.002006,0.087266,-0.0,-0.0,3.0,0.3261,0.330661,0.3261,0.321451,,,,,,
209683,0.104964,-0.018235,-0.097726,1.9e-05,0.000112,-0.001059,0.087266,-0.0,-0.0,3.0,0.3261,0.331253,0.3261,0.320834,,,,,,
209703,0.104975,-0.018485,-0.097592,-0.001043,-0.000947,-0.00117,0.087266,-0.0,-0.0,3.0,0.3261,0.335928,0.3261,0.315853,,,,,,
209723,0.10498,-0.018613,-0.097465,-0.00104,-0.002005,-0.001282,0.087266,-0.0,-0.0,3.0,0.3261,0.336249,0.3261,0.315504,,,,,,
209743,0.104869,-0.018869,-0.097334,4e-06,-0.002117,-0.000223,0.087266,-0.0,-0.0,3.0,0.3261,0.336545,0.3261,0.31518,,,,,,
209763,0.104747,-0.018882,-0.097215,2e-06,-0.001058,-0.000111,0.087266,-0.0,-0.0,3.0,0.3261,0.332428,0.3261,0.319601,,,,,,
209783,0.104368,-0.018784,-0.097091,-0.001044,0.000111,-0.001059,0.087266,-0.0,-0.0,3.0,0.3261,0.332406,0.3261,0.319625,,,,,,
209803,0.104118,-0.018681,-0.096981,-0.001049,0.002228,-0.000837,0.087266,-0.0,-0.0,3.0,0.3261,0.332513,0.3261,0.319512,,,,,,
209823,0.104246,-0.018796,-0.096972,-0.001046,0.001169,-0.000948,0.087266,-0.0,-0.0,3.0,0.3261,0.332964,0.3261,0.319035,,,,,,
209843,0.104251,-0.018918,-0.096966,-0.001044,0.000111,-0.001059,0.087266,-0.0,-0.0,3.0,0.3261,0.333214,0.3261,0.318769,,,,,,
209863,0.104262,-0.019168,-0.096832,-0.001042,-0.000948,-0.001169,0.087266,-0.0,-0.0,3.0,0.3261,0.337841,0.3261,0.313755,,,,,,
209883,0.104274,-0.019412,-0.096819,4e-06,-0.002117,-0.000222,0.087266,-0.0,-0.0,3.0,0.3261,0.338152,0.3261,0.31341,,,,,,
209903,0.104158,-0.019539,-0.096816,4e-06,-0.002117,-0.000221,0.087266,-0.0,-0.0,3.0,0.3261,0.334141,0.3261,0.31778,,,,,,
209923,0.104036,-0.019546,-0.096819,-0.001062,-0.001058,-0.000111,0.087266,-0.0,-0.0,3.0,0.3261,0.334337,0.3261,0.31757,,,,,,
209943,0.103904,-0.019302,-0.096955,-0.001044,0.00011,-0.001059,0.087266,-0.0,-0.0,3.0,0.3261,0.33453,0.3261,0.317364,,,,,,
209963,0.103661,-0.019308,-0.097082,-0.001046,0.001169,-0.000949,0.087266,-0.0,-0.0,3.0,0.3261,0.33462,0.3261,0.317266,,,,,,
209983,0.103533,-0.019192,-0.097091,-0.001066,0.001059,0.00011,0.087266,-0.0,-0.0,3.0,0.3261,0.334735,0.3261,0.317143,,,,,,
210003,0.103175,-0.019326,-0.097214,-0.001064,0.0,0.0,0.087266,-0.0,-0.0,3.0,0.3261,0.339006,0.3261,0.312461,,,,,,
210023,0.102816,-0.01946,-0.097337,2e-06,-0.001059,-0.000109,0.087266,-0.0,-0.0,3.0,0.3261,0.338981,0.3261,0.312488,,,,,,
210043,0.10258,-0.019587,-0.097457,2e-06,-0.001059,-0.000109,0.087266,-0.0,-0.0,3.0,0.3261,0.334853,0.3261,0.317016,,,,,,
210063,0.102336,-0.0196,-0.097463,2.1e-05,0.000109,-0.001059,0.087266,-0.0,-0.0,3.0,0.3261,0.330482,0.3261,0.321637,,,,,,
210083,0.102094,-0.019606,-0.097589,-0.001043,0.000108,-0.001059,0.087266,-0.0,-0.0,3.0,0.3261,0.330548,0.3261,0.321568,,,,,,
210103,0.101973,-0.019606,-0.097713,-0.001064,0.0,0.0,0.087266,-0.0,-0.0,3.0,0.3261,0.335078,0.3261,0.316773,,,,,,
210123,0.102095,-0.019593,-0.097832,-0.001062,-0.001059,-0.000108,0.087266,-0.0,-0.0,3.0,0.3261,0.335459,0.3261,0.316362,,,,,,
210143,0.102091,-0.019459,-0.09808,-0.001062,-0.001059,-0.000108,0.087266,-0.0,-0.0,3.0,0.3261,0.335641,0.3261,0.316164,,,,,,
210163,0.101976,-0.019581,-0.098198,-0.001081,-0.002226,0.000842,0.087266,-0.0,-0.0,3.0,0.3261,0.340146,0.3261,0.31118,,,,,,
210183,0.101721,-0.019349,-0.098216,-0.001062,-0.001059,-0.000108,0.087266,-0.0,-0.0,3.0,0.3261,0.340262,0.3261,0.31105,,,,,,
210203,0.101472,-0.019234,-0.098349,-0.001046,0.001167,-0.000951,0.087266,-0.0,-0.0,3.0,0.3261,0.340316,0.3261,0.310989,,,,,,
210223,0.101338,-0.018996,-0.098363,1.8e-05,0.001166,-0.000951,0.087266,-0.0,-0.0,3.0,0.3261,0.340467,0.3261,0.310818,,,,,,
210243,0.101102,-0.019124,-0.098484,-0.001044,0.000107,-0.001059,0.087266,-0.0,-0.0,3.0,0.3261,0.336272,0.3261,0.315478,,,,,,
210263,0.100737,-0.019137,-0.098613,-0.001042,-0.000952,-0.001166,0.087266,-0.0,-0.0,3.0,0.3261,0.331791,0.3261,0.320271,,,,,,
210283,0.100501,-0.019265,-0.098734,-0.002124,-0.002118,-0.000214,0.087266,-0.0,-0.0,3.0,0.3261,0.33183,0.3261,0.32023,,,,,,
210303,0.100252,-0.01927,-0.098842,-0.002145,-0.002224,0.000846,0.087266,-0.0,-0.0,3.0,0.3261,0.331833,0.3261,0.320227,,,,,,
210323,0.099875,-0.019045,-0.098862,-0.002126,-0.001059,-0.000106,0.087266,-0.0,-0.0,3.0,0.3261,0.336136,0.3261,0.315626,,,,,,
210343,0.099382,-0.018942,-0.099,-0.002128,0.0,0.0,0.087266,-0.0,-0.0,3.0,0.3261,0.335925,0.3261,0.315856,,,,,,
210363,0.098755,-0.018608,-0.099031,-0.001046,0.001164,-0.000954,0.087266,-0.0,-0.0,3.0,0.3261,0.339865,0.3261,0.311498,,,,,,
210383,0.098385,-0.018499,-0.099166,1.8e-05,0.001164,-0.000955,0.087266,-0.0,-0.0,3.0,0.3261,0.33968,0.3261,0.311705,,,,,,
210403,0.098014,-0.01839,-0.099301,1.9e-05,0.000104,-0.001059,0.087266,-0.0,-0.0,3.0,0.3261,0.335298,0.3261,0.316536,,,,,,
210423,0.097906,-0.018634,-0.099413,2e-06,-0.001059,-0.000104,0.087266,-0.0,-0.0,3.0,0.3261,0.331058,0.3261,0.321037,,,,,,
210443,0.097662,-0.018646,-0.099418,-0.00106,-0.002118,-0.000208,0.087266,-0.0,-0.0,3.0,0.3261,0.331029,0.3261,0.321068,,,,,,
210463,0.097291,-0.018664,-0.099408,-0.002127,-0.001059,-0.000103,0.087266,-0.0,-0.0,3.0,0.3261,0.330887,0.3261,0.321217,,,,,,
210483,0.097412,-0.018658,-0.099405,-0.002127,-0.001059,-0.000104,0.087266,-0.0,-0.0,3.0,0.3261,0.335597,0.3261,0.316212,,,,,,
210503,0.09704,-0.018561,-0.099298,-0.001062,-0.001059,-0.000103,0.087266,-0.0,-0.0,3.0,0.3261,0.335448,0.3261,0.316374,,,,,,
210523,0.096663,-0.018336,-0.099317,1.9e-05,0.000103,-0.001059,0.087266,-0.0,-0.0,3.0,0.3261,0.33521,0.3261,0.316631,,,,,,
210543,0.096048,-0.018246,-0.099336,2.1e-05,-0.000957,-0.001162,0.087266,-0.0,-0.0,3.0,0.3261,0.334915,0.3261,0.316949,,,,,,
210563,0.09592,-0.01813,-0.099344,0.0,0.0,0.0,0.087266,-0.0,-0.0,3.0,0.3261,0.334967,0.3261,0.316893,,,,,,
210583,0.095919,-0.018136,-0.099223,-0.001045,0.000102,-0.00106,0.087266,-0.0,-0.0,3.0,0.3261,0.335059,0.3261,0.316794,,,,,,
210603,0.095919,-0.018142,-0.099102,-0.001045,0.000102,-0.00106,0.087266,-0.0,-0.0,3.0,0.3261,0.335296,0.3261,0.316538,,,,,,
210623,0.095803,-0.01827,-0.099098,-0.001062,-0.001059,-0.000102,0.087266,-0.0,-0.0,3.0,0.3261,0.33535,0.3261,0.31648,,,,,,
210643,0.09568,-0.018282,-0.09898,-0.001043,-0.000958,-0.001161,0.087266,-0.0,-0.0,3.0,0.3261,0.339666,0.3261,0.311721,,,,,,
210663,0.095558,-0.018409,-0.098959,2.1e-05,-0.000958,-0.001161,0.087266,-0.0,-0.0,3.0,0.3261,0.339633,0.3261,0.311758,,,,,,
210683,0.095303,-0.018178,-0.098975,4e-06,-0.002119,-0.000203,0.087266,-0.0,-0.0,3.0,0.3261,0.335357,0.3261,0.316473,,,,,,
210703,0.094938,-0.018197,-0.098983,2e-06,-0.001059,-0.000101,0.087266,-0.0,-0.0,3.0,0.3261,0.335173,0.3261,0.316671,,,,,,
210723,0.094803,-0.017965,-0.098875,-0.001047,0.00116,-0.000959,0.087266,-0.0,-0.0,3.0,0.3261,0.335127,0.3261,0.31672,,,,,,
210743,0.094675,-0.01785,-0.098884,-0.001047,0.00116,-0.000959,0.087266,-0.0,-0.0,3.0,0.3261,0.335161,0.3261,0.316684,,,,,,
210763,0.094426,-0.01774,-0.098894,-0.001045,0.0001,-0.00106,0.087266,-0.0,-0.0,3.0,0.3261,0.339435,0.3261,0.311981,,,,,,
210783,0.09431,-0.017868,-0.098891,-0.001044,-0.000959,-0.00116,0.087266,-0.0,-0.0,3.0,0.3261,0.339387,0.3261,0.312034,,,,,,
210803,0.094066,-0.017881,-0.098896,4e-06,-0.002119,-0.0002,0.087266,-0.0,-0.0,3.0,0.3261,0.335026,0.3261,0.31683,,,,,,
210823,0.09395,-0.018009,-0.098893,4e-06,-0.002119,-0.0002,0.087266,-0.0,-0.0,3.0,0.3261,0.335035,0.3261,0.31682,,,,,,
210843,0.093719,-0.018265,-0.098887,-0.001062,-0.00106,-0.0001,0.087266,-0.0,-0.0,3.0,0.3261,0.330673,0.3261,0.321439,,,,,,
210863,0.093835,-0.018137,-0.09889,-0.002128,0.0,0.0,0.087266,-0.0,-0.0,3.0,0.3261,0.330899,0.3261,0.321204,,,,,,
210883,0.093841,-0.018253,-0.099005,-0.002128,0.0,0.0,0.087266,-0.0,-0.0,3.0,0.3261,0.3353,0.3261,0.316533,,,,,,
210903,0.093586,-0.018021,-0.099022,-0.001064,0.0,0.0,0.087266,-0.0,-0.0,3.0,0.3261,0.33947,0.3261,0.311941,,,,,,
210923,0.093227,-0.018162,-0.099024,-0.001064,0.0,0.0,0.087266,-0.0,-0.0,3.0,0.3261,0.343475,0.3261,0.307367,,,,,,
210943,0.092984,-0.018169,-0.09915,2e-06,-0.00106,-9.9e-05,0.087266,-0.0,-0.0,3.0,0.3261,0.339242,0.3261,0.312196,,,,,,
210963,0.092862,-0.018175,-0.099152,0.0,0.0,0.0,0.087266,-0.0,-0.0,3.0,0.3261,0.334957,0.3261,0.316904,,,,,,
210983,0.092614,-0.018181,-0.09926,1.9e-05,9.8e-05,-0.00106,0.087266,-0.0,-0.0,3.0,0.3261,0.334763,0.3261,0.317114,,,,,,
211003,0.092371,-0.018188,-0.099387,-0.001045,9.8e-05,-0.00106,0.087266,-0.0,-0.0,3.0,0.3261,0.334656,0.3261,0.317229,,,,,,
211023,0.092377,-0.018309,-0.099381,-0.001043,-0.000962,-0.001158,0.087266,-0.0,-0.0,3.0,0.3261,0.334757,0.3261,0.31712,,,,,,
211043,0.092384,-0.018425,-0.099497,-0.001043,-0.000962,-0.001158,0.087266,-0.0,-0.0,3.0,0.3261,0.334862,0.3261,0.317006,,,,,,
211063,0.092256,-0.01831,-0.099505,-0.001061,-0.002119,-0.000196,0.087266,-0.0,-0.0,3.0,0.3261,0.334832,0.3261,0.317039,,,,,,
211083,0.092018,-0.018444,-0.099504,-0.001062,-0.00106,-9.8e-05,0.087266,-0.0,-0.0,3.0,0.3261,0.339053,0.3261,0.312408,,,,,,
211103,0.091641,-0.018219,-0.099523,-0.001045,9.7e-05,-0.00106,0.087266,-0.0,-0.0,3.0,0.3261,0.338806,0.3261,0.312684,,,,,,
211123,0.09139,-0.018116,-0.099412,-0.001047,0.001157,-0.000963,0.087266,-0.0,-0.0,3.0,0.3261,0.338674,0.3261,0.312831,,,,,,
211143,0.091136,-0.017879,-0.099549,-0.001047,0.001157,-0.000963,0.087266,-0.0,-0.0,3.0,0.3261,0.334247,0.3261,0.317667,,,,,,
211163,0.091014,-0.017885,-0.099552,-0.001045,9.7e-05,-0.00106,0.087266,-0.0,-0.0,3.0,0.3261,0.334141,0.3261,0.31778,,,,,,
211183,0.090776,-0.018019,-0.099551,-0.001043,-0.000963,-0.001157,0.087266,-0.0,-0.0,3.0,0.3261,0.32955,0.3261,0.322601,,,,,,
211203,0.090661,-0.018147,-0.099548,-0.001061,-0.00212,-0.000193,0.087266,-0.0,-0.0,3.0,0.3261,0.329583,0.3261,0.322566,,,,,,
211223,0.090673,-0.018391,-0.099537,-0.00108,-0.002216,0.000867,0.087266,-0.0,-0.0,3.0,0.3261,0.334095,0.3261,0.31783,,,,,,
211243,0.090416,-0.018165,-0.099432,-0.001062,-0.00106,-9.6e-05,0.087266,-0.0,-0.0,3.0,0.3261,0.333916,0.3261,0.318022,,,,,,
211263,0.090294,-0.018172,-0.099434,-0.001045,9.6e-05,-0.00106,0.087266,-0.0,-0.0,3.0,0.3261,0.338158,0.3261,0.313404,,,,,,
211283,0.089906,-0.017819,-0.099561,-0.001047,0.001155,-0.000965,0.087266,-0.0,-0.0,3.0,0.3261,0.337878,0.3261,0.313714,,,,,,
211303,0.089784,-0.017825,-0.099563,-0.001047,0.001155,-0.000965,0.087266,-0.0,-0.0,3.0,0.3261,0.337753,0.3261,0.313852,,,,,,
211323,0.089796,-0.017948,-0.099576,1.9e-05,9.5e-05,-0.00106,0.087266,-0.0,-0.0,3.0,0.3261,0.333519,0.3261,0.318445,,,,,,
211343,0.089809,-0.018186,-0.099687,-0.001062,-0.00106,-9.5e-05,0.087266,-0.0,-0.0,3.0,0.3261,0.333578,0.3261,0.318382,,,,,,
211363,0.089687,-0.018192,-0.099689,-0.001061,-0.00212,-0.000191,0.087266,-0.0,-0.0,3.0,0.3261,0.333507,0.3261,0.318458,,,,,,
211383,0.089694,-0.018308,-0.099805,-0.001062,-0.00106,-9.5e-05,0.087266,-0.0,-0.0,3.0,0.3261,0.33355,0.3261,0.318412,,,,,,
211403,0.089816,-0.018302,-0.099802,-0.001064,0.0,0.0,0.087266,-0.0,-0.0,3.0,0.3261,0.338076,0.3261,0.313495,,,,,,
211423,0.08956,-0.018071,-0.099818,-0.001045,9.5e-05,-0.00106,0.087266,-0.0,-0.0,3.0,0.3261,0.337818,0.3261,0.31378,,,,,,
211443,0.089312,-0.018077,-0.099926,-0.001045,9.5e-05,-0.00106,0.087266,-0.0,-0.0,3.0,0.3261,0.33764,0.3261,0.313977,,,,,,
211463,0.089185,-0.017956,-0.100055,-0.001064,0.0,0.0,0.087266,-0.0,-0.0,3.0,0.3261,0.337568,0.3261,0.314057,,,,,,
211483,0.089197,-0.018073,-0.100189,0.0,0.0,0.0,0.087266,-0.0,-0.0,3.0,0.3261,0.333311,0.3261,0.318666,,,,,,
211503,0.089185,-0.01795,-0.100176,-0.001064,0.0,0.0,0.087266,-0.0,-0.0,3.0,0.3261,0.333346,0.3261,0.318629,,,,,,
211523,0.088942,-0.017963,-0.100181,-0.001064,0.0,0.0,0.087266,-0.0,-0.0,3.0,0.3261,0.33324,0.3261,0.318741,,,,,,
211543,0.088943,-0.017958,-0.100302,-0.001063,-0.00106,-9.5e-05,0.087266,-0.0,-0.0,3.0,0.3261,0.333274,0.3261,0.318706,,,,,,
211563,0.088954,-0.01808,-0.100315,2.1e-05,-0.000965,-0.001155,0.087266,-0.0,-0.0,3.0,0.3261,0.333244,0.3261,0.318738,,,,,,
211583,0.088712,-0.018208,-0.100418,-0.001041,-0.002026,-0.001249,0.087266,-0.0,-0.0,3.0,0.3261,0.33305,0.3261,0.318943,,,,,,
211603,0.08884,-0.018197,-0.100555,-0.001061,-0.00212,-0.000189,0.087266,-0.0,-0.0,3.0,0.3261,0.333185,0.3261,0.3188,,,,,,
211623,0.088841,-0.018192,-0.100676,-0.001063,-0.00106,-9.4e-05,0.087266,-0.0,-0.0,3.0,0.3261,0.333207,0.3261,0.318777,,,,,,
211643,0.088829,-0.017948,-0.100687,-0.001064,0.0,0.0,0.087266,-0.0,-0.0,3.0,0.3261,0.333223,0.3261,0.31876,,,,,,
211663,0.08858,-0.017834,-0.100818,-0.00213,0.00106,9.4e-05,0.087266,-0.0,-0.0,3.0,0.3261,0.337419,0.3261,0.314221,,,,,,
211683,0.088447,-0.017717,-0.100808,-0.001066,0.00106,9.4e-05,0.087266,-0.0,-0.0,3.0,0.3261,0.337332,0.3261,0.314317,,,,,,
211703,0.088332,-0.01784,-0.100926,1.9e-05,9.4e-05,-0.00106,0.087266,-0.0,-0.0,3.0,0.3261,0.337183,0.3261,0.314481,,,,,,
211723,0.088094,-0.017974,-0.100926,2.1e-05,-0.000966,-0.001154,0.087266,-0.0,-0.0,3.0,0.3261,0.332677,0.3261,0.319339,,,,,,
211743,0.087743,-0.018226,-0.101165,3e-06,-0.00212,-0.000187,0.087266,-0.0,-0.0,3.0,0.3261,0.327974,0.3261,0.324212,,,,,,
211763,0.087743,-0.018226,-0.101165,-0.001063,-0.00106,-9.3e-05,0.087266,-0.0,-0.0,3.0,0.3261,0.327978,0.3261,0.324208,,,,,,
211783,0.087744,-0.018221,-0.101286,-0.002128,0.0,0.0,0.087266,-0.0,-0.0,3.0,0.3261,0.327987,0.3261,0.324199,,,,,,
211803,0.087623,-0.018222,-0.10141,-0.002128,0.0,0.0,0.087266,-0.0,-0.0,3.0,0.3261,0.33228,0.3261,0.319758,,,,,,
211823,0.08713,-0.01812,-0.101546,-0.002128,0.0,0.0,0.087266,-0.0,-0.0,3.0,0.3261,0.336244,0.3261,0.315509,,,,,,
211843,0.08676,-0.018012,-0.10168,-0.001064,0.0,0.0,0.087266,-0.0,-0.0,3.0,0.3261,0.335916,0.3261,0.315866,,,,,,
211863,0.086278,-0.018159,-0.101684,1.9e-05,9.2e-05,-0.00106,0.087266,-0.0,-0.0,3.0,0.3261,0.335401,0.3261,0.316425,,,,,,
211883,0.08603,-0.018045,-0.101815,2e-06,-0.00106,-9.1e-05,0.087266,-0.0,-0.0,3.0,0.3261,0.330815,0.3261,0.321291,,,,,,
211903,0.085671,-0.01818,-0.101939,2e-06,-0.00106,-9.1e-05,0.087266,-0.0,-0.0,3.0,0.3261,0.326036,0.3261,0.326164,,,,,,
211923,0.085666,-0.018053,-0.102065,-0.001063,-0.00106,-9.1e-05,0.087266,-0.0,-0.0,3.0,0.3261,0.326004,0.3261,0.326196,,,,,,
211943,0.085551,-0.018176,-0.102184,-0.002127,-0.00106,-9.1e-05,0.087266,-0.0,-0.0,3.0,0.3261,0.325866,0.3261,0.326334,,,,,,
211963,0.085546,-0.018049,-0.10231,-0.002127,-0.00106,-9.1e-05,0.087266,-0.0,-0.0,3.0,0.3261,0.330262,0.3261,0.321865,,,,,,
211983,0.085425,-0.01805,-0.102434,-0.002127,-0.00106,-9.1e-05,0.087266,-0.0,-0.0,3.0,0.3261,0.334545,0.3261,0.317348,,,,,,
212003,0.085176,-0.017936,-0.102565,-0.001044,-0.00097,-0.001151,0.087266,-0.0,-0.0,3.0,0.3261,0.334205,0.3261,0.317712,,,,,,
212023,0.084683,-0.017835,-0.102701,1.9e-05,9e-05,-0.001061,0.087266,-0.0,-0.0,3.0,0.3261,0.333724,0.3261,0.318227,,,,,,
212043,0.084434,-0.01772,-0.102832,0.0,0.0,0.0,0.087266,-0.0,-0.0,3.0,0.3261,0.333455,0.3261,0.318513,,,,,,
212063,0.084429,-0.017593,-0.102958,0.0,0.0,0.0,0.087266,-0.0,-0.0,3.0,0.3261,0.329023,0.3261,0.323141,,,,,,
212083,0.084436,-0.01771,-0.103074,-0.001064,0.0,0.0,0.087266,-0.0,-0.0,3.0,0.3261,0.324523,0.3261,0.327667,,,,,,
212103,0.084437,-0.017705,-0.103195,-0.001064,0.0,0.0,0.087266,-0.0,-0.0,3.0,0.3261,0.324468,0.3261,0.327721,,,,,,
212123,0.084194,-0.017713,-0.103321,-0.002127,-0.00106,-9e-05,0.087266,-0.0,-0.0,3.0,0.3261,0.328652,0.3261,0.323521,,,,,,
212143,0.084201,-0.017829,-0.103437,-0.001063,-0.00106,-9e-05,0.087266,-0.0,-0.0,3.0,0.3261,0.328597,0.3261,0.323577,,,,,,
212163,0.083824,-0.0176,-0.103576,-0.001044,-0.000971,-0.00115,0.087266,-0.0,-0.0,3.0,0.3261,0.328187,0.3261,0.323995,,,,,,
212183,0.083459,-0.017614,-0.103704,-0.001063,-0.001061,-8.9e-05,0.087266,-0.0,-0.0,3.0,0.3261,0.327778,0.3261,0.32441,,,,,,
212203,0.083204,-0.017378,-0.10384,-0.001064,0.0,0.0,0.087266,-0.0,-0.0,3.0,0.3261,0.33195,0.3261,0.320104,,,,,,
212223,0.08321,-0.0175,-0.103835,0.0,0.0,0.0,0.087266,-0.0,-0.0,3.0,0.3261,0.327405,0.3261,0.324789,,,,,,
212243,0.083447,-0.017365,-0.103835,1.7e-05,0.001149,-0.000972,0.087266,-0.0,-0.0,3.0,0.3261,0.327554,0.3261,0.324638,,,,,,
212263,0.083698,-0.017469,-0.103947,-0.001046,8.9e-05,-0.001061,0.087266,-0.0,-0.0,3.0,0.3261,0.332115,0.3261,0.319931,,,,,,
212283,0.08357,-0.017354,-0.103954,-0.001044,-0.000972,-0.00115,0.087266,-0.0,-0.0,3.0,0.3261,0.332008,0.3261,0.320043,,,,,,
212303,0.083698,-0.017469,-0.103947,-0.001044,-0.000972,-0.00115,0.087266,-0.0,-0.0,3.0,0.3261,0.331984,0.3261,0.320069,,,,,,
212323,0.083583,-0.017597,-0.103944,-0.001042,-0.002032,-0.001238,0.087266,-0.0,-0.0,3.0,0.3261,0.327396,0.3261,0.324798,,,,,,
212343,0.083455,-0.017477,-0.104073,-0.001061,-0.002121,-0.000177,0.087266,-0.0,-0.0,3.0,0.3261,0.3272,0.3261,0.324996,,,,,,
212363,0.083339,-0.01761,-0.103949,-0.001063,-0.001061,-8.9e-05,0.087266,-0.0,-0.0,3.0,0.3261,0.327097,0.3261,0.3251,,,,,,
212383,0.083339,-0.01761,-0.103949,-0.001064,0.0,0.0,0.087266,-0.0,-0.0,3.0,0.3261,0.326937,0.3261,0.32526,,,,,,
212403,0.083333,-0.017488,-0.103954,-0.001066,0.001061,8.9e-05,0.087266,-0.0,-0.0,3.0,0.3261,0.331357,0.3261,0.320726,,,,,,
212423,0.083448,-0.01736,-0.103957,-0.001047,0.001149,-0.000972,0.087266,-0.0,-0.0,3.0,0.3261,0.331389,0.3261,0.320693,,,,,,
212443,0.08357,-0.017354,-0.103954,1.7e-05,0.001149,-0.000972,0.087266,-0.0,-0.0,3.0,0.3261,0.331435,0.3261,0.320644,,,,,,
212463,0.083576,-0.017475,-0.103949,1.9e-05,8.9e-05,-0.001061,0.087266,-0.0,-0.0,3.0,0.3261,0.331302,0.3261,0.320784,,,,,,
212483,0.083461,-0.017604,-0.103947,2e-05,-0.000972,-0.001149,0.087266,-0.0,-0.0,3.0,0.3261,0.326707,0.3261,0.325491,,,,,,
212503,0.083345,-0.017732,-0.103944,-0.001061,-0.002121,-0.000177,0.087266,-0.0,-0.0,3.0,0.3261,0.326522,0.3261,0.325678,,,,,,
212523,0.083473,-0.017852,-0.103815,-0.001061,-0.002121,-0.000177,0.087266,-0.0,-0.0,3.0,0.3261,0.326558,0.3261,0.325642,,,,,,
212543,0.08346,-0.017609,-0.103825,-0.001063,-0.001061,-8.9e-05,0.087266,-0.0,-0.0,3.0,0.3261,0.32654,0.3261,0.325659,,,,,,
212563,0.083453,-0.017492,-0.103709,-0.001064,0.0,0.0,0.087266,-0.0,-0.0,3.0,0.3261,0.330884,0.3261,0.32122,,,,,,
212583,0.083452,-0.017497,-0.103588,-0.001047,0.001149,-0.000972,0.087266,-0.0,-0.0,3.0,0.3261,0.330809,0.3261,0.321297,,,,,,
212603,0.083446,-0.017376,-0.103593,1.5e-05,0.00221,-0.000883,0.087266,-0.0,-0.0,3.0,0.3261,0.330746,0.3261,0.321363,,,,,,
212623,0.083324,-0.017382,-0.103595,1.7e-05,0.001149,-0.000972,0.087266,-0.0,-0.0,3.0,0.3261,0.330573,0.3261,0.321543,,,,,,
212643,0.083452,-0.017497,-0.103588,2e-05,-0.000972,-0.001149,0.087266,-0.0,-0.0,3.0,0.3261,0.330541,0.3261,0.321575,,,,,,
212663,0.083337,-0.017626,-0.103585,3e-06,-0.002121,-0.000177,0.087266,-0.0,-0.0,3.0,0.3261,0.325931,0.3261,0.326269,,,,,,
212683,0.083477,-0.017985,-0.103568,-0.001061,-0.002121,-0.000177,0.087266,-0.0,-0.0,3.0,0.3261,0.32598,0.3261,0.32622,,,,,,
212703,0.083598,-0.017983,-0.103444,-0.001061,-0.002121,-0.000178,0.087266,-0.0,-0.0,3.0,0.3261,0.32609,0.3261,0.32611,,,,,,
212723,0.083592,-0.017861,-0.103449,-0.001063,-0.001061,-8.9e-05,0.087266,-0.0,-0.0,3.0,0.3261,0.326002,0.3261,0.326199,,,,,,
212743,0.083469,-0.017873,-0.103331,-0.001047,0.001149,-0.000972,0.087266,-0.0,-0.0,3.0,0.3261,0.330251,0.3261,0.321877,,,,,,
212763,0.08345,-0.017508,-0.103346,-0.001047,0.001149,-0.000972,0.087266,-0.0,-0.0,3.0,0.3261,0.330161,0.3261,0.321969,,,,,,
212783,0.083323,-0.017387,-0.103474,1.7e-05,0.001149,-0.000972,0.087266,-0.0,-0.0,3.0,0.3261,0.329988,0.3261,0.322148,,,,,,
212803,0.083445,-0.017381,-0.103472,1.8e-05,8.9e-05,-0.001061,0.087266,-0.0,-0.0,3.0,0.3261,0.329957,0.3261,0.322181,,,,,,
212823,0.083458,-0.017624,-0.103462,2e-05,-0.000972,-0.001149,0.087266,-0.0,-0.0,3.0,0.3261,0.325459,0.3261,0.32674,,,,,,
212843,0.08347,-0.017868,-0.103452,3e-06,-0.002121,-0.000177,0.087266,-0.0,-0.0,3.0,0.3261,0.325391,0.3261,0.326808,,,,,,
212863,0.083354,-0.018001,-0.103328,-0.001059,-0.003182,-0.000266,0.087266,-0.0,-0.0,3.0,0.3261,0.325274,0.3261,0.326923,,,,,,
212883,0.083476,-0.017995,-0.103326,-0.001061,-0.002121,-0.000177,0.087266,-0.0,-0.0,3.0,0.3261,0.325303,0.3261,0.326895,,,,,,
212903,0.083469,-0.017873,-0.103331,-0.001045,8.9e-05,-0.001061,0.087266,-0.0,-0.0,3.0,0.3261,0.329662,0.3261,0.322484,,,,,,
212923,0.083463,-0.017751,-0.103336,1.7e-05,0.001149,-0.000972,0.087266,-0.0,-0.0,3.0,0.3261,0.329591,0.3261,0.322558,,,,,,
212943,0.083329,-0.017514,-0.103348,1.5e-05,0.00221,-0.000884,0.087266,-0.0,-0.0,3.0,0.3261,0.329405,0.3261,0.32275,,,,,,
212963,0.083463,-0.017751,-0.103336,1.7e-05,0.001149,-0.000972,0.087266,-0.0,-0.0,3.0,0.3261,0.329393,0.3261,0.322762,,,,,,
212983,0.083585,-0.017745,-0.103333,1.9e-05,8.9e-05,-0.001061,0.087266,-0.0,-0.0,3.0,0.3261,0.329441,0.3261,0.322712,,,,,,
213003,0.083591,-0.017867,-0.103328,3e-06,-0.002121,-0.000178,0.087266,-0.0,-0.0,3.0,0.3261,0.324923,0.3261,0.327272,,,,,,
213023,0.083482,-0.018117,-0.103321,5e-06,-0.003182,-0.000266,0.087266,-0.0,-0.0,3.0,0.3261,0.324817,0.3261,0.327376,,,,,,
213043,0.083487,-0.018244,-0.103194,3e-06,-0.002121,-0.000178,0.087266,-0.0,-0.0,3.0,0.3261,0.32474,0.3261,0.327452,,,,,,
213063,0.083365,-0.01825,-0.103197,2.1e-05,-0.000972,-0.001149,0.087266,-0.0,-0.0,3.0,0.3261,0.324546,0.3261,0.327645,,,,,,
213083,0.083475,-0.018,-0.103204,-0.001045,8.9e-05,-0.001061,0.087266,-0.0,-0.0,3.0,0.3261,0.324572,0.3261,0.327619,,,,,,
213103,0.08359,-0.017872,-0.103207,-0.001047,0.001149,-0.000972,0.087266,-0.0,-0.0,3.0,0.3261,0.324606,0.3261,0.327585,,,,,,
213123,0.083712,-0.017865,-0.103205,-0.001047,0.001149,-0.000972,0.087266,-0.0,-0.0,3.0,0.3261,0.329113,0.3261,0.323049,,,,,,
213143,0.083712,-0.017865,-0.103205,-0.001045,8.9e-05,-0.001061,0.087266,-0.0,-0.0,3.0,0.3261,0.328971,0.3261,0.323195,,,,,,
213163,0.08359,-0.017872,-0.103207,2.1e-05,-0.000972,-0.00115,0.087266,-0.0,-0.0,3.0,0.3261,0.328797,0.3261,0.323373,,,,,,
213183,0.083475,-0.018,-0.103204,0.001066,-0.001061,-8.9e-05,0.087266,-0.0,-0.0,3.0,0.3261,0.328621,0.3261,0.323552,,,,,,
213203,0.083352,-0.018012,-0.103086,0.001067,-0.002121,-0.000177,0.087266,-0.0,-0.0,3.0,0.3261,0.324042,0.3261,0.328141,,,,,,
213223,0.083352,-0.018012,-0.103086,3e-06,-0.002121,-0.000177,0.087266,-0.0,-0.0,3.0,0.3261,0.323963,0.3261,0.328219,,,,,,
213243,0.083473,-0.01801,-0.102962,-0.001044,-0.000972,-0.001149,0.087266,-0.0,-0.0,3.0,0.3261,0.31944,0.3261,0.332581,,,,,,
213263,0.083723,-0.018119,-0.102952,-0.001045,8.9e-05,-0.001061,0.087266,-0.0,-0.0,3.0,0.3261,0.324163,0.3261,0.328021,,,,,,
213283,0.083959,-0.01799,-0.102831,-0.002111,0.00115,-0.000971,0.087266,-0.0,-0.0,3.0,0.3261,0.324313,0.3261,0.327874,,,,,,
213303,0.083959,-0.01799,-0.102831,-0.002128,0.0,0.0,0.087266,-0.0,-0.0,3.0,0.3261,0.328711,0.3261,0.323461,,,,,,
213323,0.083959,-0.017995,-0.10271,-0.001045,8.9e-05,-0.001061,0.087266,-0.0,-0.0,3.0,0.3261,0.333038,0.3261,0.318956,,,,,,
213343,0.083842,-0.018128,-0.102586,0.001083,8.9e-05,-0.001061,0.087266,-0.0,-0.0,3.0,0.3261,0.332799,0.3261,0.319209,,,,,,
213363,0.083957,-0.018005,-0.102467,0.001085,-0.000971,-0.00115,0.087266,-0.0,-0.0,3.0,0.3261,0.328451,0.3261,0.323727,,,,,,
213383,0.083841,-0.018133,-0.102465,0.001067,-0.002121,-0.000178,0.087266,-0.0,-0.0,3.0,0.3261,0.323885,0.3261,0.328295,,,,,,
213403,0.084078,-0.018004,-0.102344,2e-06,-0.00106,-8.9e-05,0.087266,-0.0,-0.0,3.0,0.3261,0.324038,0.3261,0.328145,,,,,,
213423,0.084327,-0.018118,-0.102213,-0.001063,-0.00106,-9e-05,0.087266,-0.0,-0.0,3.0,0.3261,0.319659,0.3261,0.332373,,,,,,
213443,0.084691,-0.018104,-0.102084,-0.002109,9e-05,-0.001061,0.087266,-0.0,-0.0,3.0,0.3261,0.324492,0.3261,0.327697,,,,,,
213463,0.084813,-0.018098,-0.102082,-0.001045,9e-05,-0.001061,0.087266,-0.0,-0.0,3.0,0.3261,0.329012,0.3261,0.323153,,,,,,
213483,0.084684,-0.017988,-0.101968,-0.001045,9e-05,-0.001061,0.087266,-0.0,-0.0,3.0,0.3261,0.328842,0.3261,0.323326,,,,,,
213503,0.084562,-0.017999,-0.101849,1.9e-05,9e-05,-0.001061,0.087266,-0.0,-0.0,3.0,0.3261,0.333074,0.3261,0.318918,,,,,,
213523,0.084319,-0.018133,-0.101831,1.9e-05,9e-05,-0.001061,0.087266,-0.0,-0.0,3.0,0.3261,0.328336,0.3261,0.323843,,,,,,
213543,0.084557,-0.017998,-0.101831,2e-06,-0.00106,-9e-05,0.087266,-0.0,-0.0,3.0,0.3261,0.328502,0.3261,0.323674,,,,,,
213563,0.084574,-0.018369,-0.101694,2e-06,-0.00106,-9e-05,0.087266,-0.0,-0.0,3.0,0.3261,0.324081,0.3261,0.328103,,,,,,
213583,0.084567,-0.018252,-0.101578,-0.001063,-0.00106,-9e-05,0.087266,-0.0,-0.0,3.0,0.3261,0.319374,0.3261,0.332643,,,,,,
213603,0.084579,-0.018501,-0.101447,-0.001063,-0.00106,-9e-05,0.087266,-0.0,-0.0,3.0,0.3261,0.323973,0.3261,0.328209,,,,,,
213623,0.084809,-0.01825,-0.101331,-0.001064,0.0,0.0,0.087266,-0.0,-0.0,3.0,0.3261,0.328603,0.3261,0.323571,,,,,,
