time_ms,roll,pitch,yaw,reference_roll,reference_pitch,reference_yaw,reference_throttle,throttle_1,throttle_2,throttle_3,throttle_4,roll_predicted,pitch_predicted,yaw_predicted,roll_rate_predicted,pitch_rate_predicted,yaw_rate_predicted,value1,value2,value3,value4,value5,value6
88045,-0.00168,-0.001498,-0.03895,-0.0,-0.0,-0.0,3.0,0.335292,0.321445,0.316542,0.330667,-0.0,-0.0,-0.0,0.0,0.0,-0.0,-0.00351,-0.001635,-0.027359,0.003518,-0.000184,-0.000308
88065,-0.001795,-0.001867,-0.039073,0.0,-0.0,-0.0,3.0,0.337165,0.321235,0.314501,0.330869,-0.0,-0.0,-0.0,0.0,-0.0,-0.0,-0.003489,-0.001638,-0.027365,0.003201,-0.000171,-0.000307
88085,-0.001675,-0.001742,-0.038951,0.0,-0.0,-0.0,3.0,0.336233,0.320987,0.31552,0.331107,-0.0,-0.0,-0.0,0.0,0.0,-0.0,-0.003489,-0.001641,-0.027371,-0.000169,-0.000159,-0.000295
88105,-0.001673,-0.001864,-0.038951,0.0,-0.0,-0.0,3.0,0.335824,0.32104,0.315966,0.331056,-0.0,-0.0,-0.0,0.0,-0.0,-0.0,-0.003479,-0.001644,-0.027377,-0.003693,-0.000135,-0.000294
88125,-0.001678,-0.00162,-0.038951,0.0,-0.0,-0.0,3.0,0.333842,0.320986,0.318101,0.331108,-0.0,-0.0,-0.0,0.0,0.0,-0.0,-0.003486,-0.001646,-0.027382,-0.005307,-0.000123,-0.000281
88145,-0.001678,-0.00162,-0.038951,0.0,-0.0,-0.0,3.0,0.330574,0.321282,0.321541,0.330824,-0.0,-0.0,-0.0,0.0,0.0,-0.0,-0.003487,-0.001649,-0.027388,-0.002015,-9.7e-05,-0.000281
88165,-0.002046,-0.001505,-0.038829,0.0,-0.0,-0.0,3.0,0.330032,0.321382,0.322103,0.330727,-0.0,-0.0,-0.0,0.0,-0.0,-0.0,-0.003474,-0.001651,-0.027394,-0.002194,-9.7e-05,-0.00028
88185,-0.002046,-0.001505,-0.038829,0.0,-0.0,-0.0,3.0,0.332351,0.321461,0.319683,0.330652,-0.0,-0.0,-0.0,0.0,0.0,-0.0,-0.003472,-0.001654,-0.0274,0.001166,-0.000121,-0.00028
88205,-0.001924,-0.001503,-0.038829,0.0,-0.0,-0.0,3.0,0.332778,0.321385,0.319231,0.330725,-0.0,-0.0,-0.0,0.0,0.0,-0.0,-0.003472,-0.001656,-0.027405,0.004505,-0.00012,-0.000279
88225,-0.001802,-0.0015,-0.038829,0.0,-0.0,-0.0,3.0,0.332446,0.321287,0.319583,0.330819,-0.0,-0.0,-0.0,0.0,-0.0,-0.0,-0.00346,-0.001659,-0.027411,0.00434,-0.00012,-0.000278
88245,-0.001561,-0.001373,-0.038706,0.0,-0.0,-0.0,3.0,0.331719,0.321088,0.320347,0.33101,-0.0,-0.0,-0.0,0.0,0.0,-0.0,-0.003452,-0.001661,-0.027416,0.000869,-0.000108,-0.000278
88265,-0.00169,-0.00101,-0.038828,0.0,-0.0,-0.0,3.0,0.33089,0.321129,0.321213,0.330971,-0.0,-0.0,-0.0,0.0,-0.0,-0.0,-0.003438,-0.001663,-0.027422,0.000615,-8.3e-05,-0.000277
88285,-0.001812,-0.001012,-0.038828,0.0,-0.0,-0.0,3.0,0.333936,0.32099,0.318,0.331104,-0.0,-0.0,-0.0,0.0,0.0,-0.0,-0.003437,-0.001665,-0.027427,-0.001042,-9.6e-05,-0.000277
88305,-0.001817,-0.000768,-0.038828,0.0,-0.0,-0.0,3.0,0.332845,0.321057,0.31916,0.331039,-0.0,-0.0,-0.0,0.0,-0.0,-0.0,-0.003434,-0.001666,-0.027433,-0.002814,-7.1e-05,-0.000276
88325,-0.001936,-0.000892,-0.038828,0.0,-0.0,-0.0,3.0,0.335297,0.321064,0.316537,0.331033,-0.0,-0.0,-0.0,0.0,-0.0,-0.0,-0.003439,-0.001667,-0.027438,-0.004412,-7.1e-05,-0.000276
88345,-0.002183,-0.000775,-0.038828,0.0,-0.0,-0.0,3.0,0.33479,0.320934,0.317085,0.331157,-0.0,-0.0,-0.0,0.0,0.0,-0.0,-0.003473,-0.001668,-0.027444,-0.002342,-4.7e-05,-0.000275
88365,-0.002305,-0.000777,-0.038828,0.0,-0.0,-0.0,3.0,0.33453,0.320827,0.317364,0.33126,-0.0,-0.0,-0.0,0.0,0.0,-0.0,-0.003515,-0.001669,-0.027449,-0.001794,-3.4e-05,-0.000262
88385,-0.00219,-0.000409,-0.038706,0.0,-0.0,-0.0,3.0,0.329508,0.320715,0.322644,0.331367,-0.0,-0.0,-0.0,0.0,-0.0,-0.0,-0.003571,-0.001669,-0.027454,-0.002865,2.6e-05,-0.000262
88405,-0.002439,-0.000169,-0.038705,0.0,-0.0,-0.0,3.0,0.329505,0.320642,0.322646,0.331438,-0.0,-0.0,-0.0,0.0,-0.0,-0.0,-0.003629,-0.001669,-0.02746,-0.002098,3.9e-05,-0.000261
88425,-0.002326,0.000321,-0.038705,0.0,-0.0,-0.0,3.0,0.32701,0.320566,0.325187,0.331509,-0.0,-0.0,-0.0,0.0,-0.0,-0.0,-0.003697,-0.001668,-0.027465,-0.001268,7.5e-05,-0.000261
88445,-0.002331,0.000565,-0.038704,0.0,-0.0,-0.0,3.0,0.328878,0.320759,0.32329,0.331325,-0.0,-0.0,-0.0,0.0,-0.0,-0.0,-0.003734,-0.001667,-0.02747,-0.000766,7.5e-05,-0.00026
88465,-0.002214,0.000812,-0.038704,0.0,-0.0,-0.0,3.0,0.330771,0.320617,0.321336,0.331461,-0.0,-0.0,-0.0,0.0,0.0,-0.0,-0.003786,-0.001666,-0.027475,-5.2e-05,7.5e-05,-0.000272
88485,-0.002214,0.000812,-0.038704,0.0,-0.0,-0.0,3.0,0.332985,0.320803,0.319012,0.331283,-0.0,-0.0,-0.0,0.0,-0.0,-0.0,-0.003804,-0.001664,-0.027481,0.001826,8.7e-05,-0.000271
88505,-0.002087,0.00057,-0.038827,0.0,-0.0,-0.0,3.0,0.335103,0.320727,0.316747,0.331356,-0.0,-0.0,-0.0,0.0,0.0,-0.0,-0.00382,-0.001662,-0.027486,0.002069,7.5e-05,-0.000271
88525,-0.00184,0.000453,-0.038827,0.0,-0.0,-0.0,3.0,0.33442,0.321005,0.317481,0.33109,-0.0,-0.0,-0.0,0.0,-0.0,-0.0,-0.003791,-0.00166,-0.027492,1.5e-05,7.4e-05,-0.00027
88545,-0.002084,0.000448,-0.038949,0.0,-0.0,-0.0,3.0,0.333914,0.320974,0.318023,0.33112,-0.0,-0.0,-0.0,0.0,0.0,-0.0,-0.003754,-0.001659,-0.027497,-0.003825,7.4e-05,-0.000282
88565,-0.002453,0.000563,-0.038826,0.0,-0.0,-0.0,3.0,0.332383,0.320736,0.319649,0.331347,-0.0,-0.0,-0.0,0.0,0.0,-0.0,-0.00377,-0.001657,-0.027503,-0.003639,8.6e-05,-0.000269
88585,-0.002577,0.000683,-0.038826,0.0,-0.0,-0.0,3.0,0.333704,0.320684,0.318248,0.331397,-0.0,-0.0,-0.0,0.0,0.0,-0.0,-0.003805,-0.001655,-0.027508,-0.00317,8.6e-05,-0.000268
88605,-0.002577,0.000683,-0.038826,0.0,-0.0,-0.0,3.0,0.333568,0.320712,0.318393,0.33137,-0.0,-0.0,-0.0,0.0,0.0,-0.0,-0.003845,-0.001653,-0.027513,-0.002646,9.8e-05,-0.000268
88625,-0.002458,0.000807,-0.038826,0.0,-0.0,-0.0,3.0,0.332551,0.320704,0.319472,0.331377,-0.0,-0.0,-0.0,0.0,0.0,-0.0,-0.003892,-0.001651,-0.027518,-0.000404,0.000122,-0.000255
88645,-0.002333,0.000687,-0.038826,0.0,-0.0,-0.0,3.0,0.332553,0.320644,0.319469,0.331436,-0.0,-0.0,-0.0,0.0,-0.0,-0.0,-0.003931,-0.001649,-0.027524,0.003425,0.000134,-0.000255
88665,-0.002216,0.000934,-0.038826,0.0,-0.0,-0.0,3.0,0.329264,0.320741,0.322895,0.331343,-0.0,-0.0,-0.0,0.0,0.0,-0.0,-0.003931,-0.001646,-0.027529,0.003367,0.000159,-0.000266
88685,-0.002099,0.00118,-0.038826,0.0,-0.0,-0.0,3.0,0.329491,0.320719,0.322661,0.331364,-0.0,-0.0,-0.0,0.0,-0.0,-0.0,-0.003917,-0.001643,-0.027535,-0.00016,0.000158,-0.000278
88705,-0.002345,0.001297,-0.038948,0.0,-0.0,-0.0,3.0,0.328096,0.320528,0.324088,0.331546,-0.0,-0.0,-0.0,0.0,0.0,-0.0,-0.003921,-0.001641,-0.02754,-0.003443,0.000157,-0.00029
88725,-0.002592,0.001415,-0.039069,0.0,-0.0,-0.0,3.0,0.329685,0.32063,0.322461,0.331449,-0.0,-0.0,-0.0,0.0,0.0,-0.0,-0.003936,-0.001638,-0.027546,-0.003207,0.000145,-0.000301
88745,-0.002711,0.00129,-0.039191,0.0,-0.0,-0.0,3.0,0.333453,0.320531,0.318515,0.331544,-0.0,-0.0,-0.0,0.0,-0.0,-0.0,-0.00397,-0.001635,-0.027552,-0.004347,0.00012,-0.000301
88765,-0.002831,0.001165,-0.039313,0.0,-0.0,-0.0,3.0,0.336387,0.320457,0.315353,0.331614,-0.0,-0.0,-0.0,0.0,0.0,-0.0,-0.004024,-0.001633,-0.027558,-0.003535,9.5e-05,-0.000312
88785,-0.002944,0.000675,-0.039314,0.0,-0.0,-0.0,3.0,0.339183,0.320247,0.312263,0.331814,-0.0,-0.0,-0.0,0.0,-0.0,-0.0,-0.004097,-0.00163,-0.027564,-0.002506,8.2e-05,-0.000312
88805,-0.002817,0.000433,-0.039314,0.0,-0.0,-0.0,3.0,0.337752,0.320117,0.313853,0.331938,-0.0,-0.0,-0.0,0.0,-0.0,-0.0,-0.004182,-0.001628,-0.02757,-0.001344,8.2e-05,-0.000299
88825,-0.002814,0.000311,-0.039193,0.0,-0.0,-0.0,3.0,0.334785,0.320039,0.317089,0.332012,-0.0,-0.0,-0.0,0.0,0.0,-0.0,-0.004255,-0.001625,-0.027576,-0.002083,0.000106,-0.000298
88845,-0.002695,0.000436,-0.03907,0.0,-0.0,-0.0,3.0,0.331195,0.320274,0.320895,0.331789,0.0,-0.0,-0.0,0.0,0.0,-0.0,-0.0043,-0.001624,-0.027582,-0.001503,0.000118,-0.000285
88865,-0.002699,0.00068,-0.038948,0.0,-0.0,-0.0,3.0,0.326885,0.320382,0.325313,0.331686,0.0,-0.0,-0.0,0.0,-0.0,-0.0,-0.004319,-0.001622,-0.027588,0.00036,0.000143,-0.000273
88885,-0.00258,0.000805,-0.038826,0.0,-0.0,-0.0,3.0,0.32671,0.320761,0.325489,0.331323,0.0,-0.0,-0.0,0.0,-0.0,-0.0,-0.004294,-0.00162,-0.027593,5.2e-05,0.00013,-0.00026
88905,-0.002582,0.000927,-0.038704,0.0,-0.0,-0.0,3.0,0.328236,0.321007,0.323946,0.331088,0.0,-0.0,-0.0,0.0,0.0,-0.0,-0.004251,-0.001618,-0.027598,0.001195,0.000106,-0.000259
88925,-0.00258,0.000805,-0.038704,0.0,-0.0,-0.0,3.0,0.331803,0.320993,0.320259,0.331101,0.0,-0.0,-0.0,0.0,-0.0,-0.0,-0.004212,-0.001616,-0.027603,0.002393,8.2e-05,-0.000259
88945,-0.002455,0.000685,-0.038704,0.0,-0.0,-0.0,3.0,0.333275,0.320912,0.318704,0.331179,0.0,-0.0,-0.0,0.0,0.0,-0.0,-0.004183,-0.001615,-0.027608,0.0054,5.8e-05,-0.000246
88965,-0.002206,0.000446,-0.038705,0.0,-0.0,-0.0,3.0,0.333914,0.320915,0.318023,0.331176,0.0,-0.0,-0.0,0.0,-0.0,-0.0,-0.004133,-0.001613,-0.027613,0.004717,5.7e-05,-0.000258
88985,-0.002204,0.000324,-0.038827,0.0,-0.0,-0.0,3.0,0.335478,0.320835,0.316341,0.331252,0.0,-0.0,-0.0,0.0,0.0,-0.0,-0.004081,-0.001612,-0.027618,0.002394,3.3e-05,-0.000257
89005,-0.002204,0.000323,-0.038949,0.0,-0.0,-0.0,3.0,0.334655,0.320792,0.31723,0.331293,0.0,-0.0,-0.0,0.0,-0.0,-0.0,-0.00404,-0.001611,-0.027624,0.001804,4.5e-05,-0.000269
89025,-0.002207,0.000445,-0.039071,0.0,-0.0,-0.0,3.0,0.335514,0.320915,0.316302,0.331176,0.0,-0.0,-0.0,0.0,-0.0,-0.0,-0.003985,-0.00161,-0.027629,0.001061,4.5e-05,-0.000269
89045,-0.002089,0.000692,-0.039192,0.0,-0.0,-0.0,3.0,0.333862,0.321076,0.318079,0.331022,0.0,-0.0,-0.0,0.0,0.0,-0.0,-0.003928,-0.001608,-0.027634,0.001853,8.1e-05,-0.00028
89065,-0.001967,0.000694,-0.039192,0.0,-0.0,-0.0,3.0,0.333497,0.321338,0.318469,0.33077,0.0,-0.0,-0.0,0.0,-0.0,-0.0,-0.003848,-0.001606,-0.02764,0.004027,0.000106,-0.000292
89085,-0.001606,0.000945,-0.039314,0.0,-0.0,-0.0,3.0,0.33153,0.321556,0.320545,0.33056,0.0,-0.0,-0.0,0.0,0.0,-0.0,-0.003744,-0.001604,-0.027646,0.007507,0.000143,-0.000291
89105,-0.001367,0.001194,-0.039314,0.0,-0.0,-0.0,3.0,0.329044,0.321901,0.32312,0.330227,0.0,-0.0,-0.0,0.0,-0.0,-0.0,-0.003584,-0.001601,-0.027652,0.006919,0.000167,-0.000303
89125,-0.00113,0.001565,-0.039436,0.0,-0.0,-0.0,3.0,0.327683,0.322095,0.324507,0.330039,0.0,-0.0,-0.0,0.0,0.0,-0.0,-0.003418,-0.001598,-0.027658,0.00959,0.000192,-0.000314
89145,-0.001135,0.001809,-0.039558,0.0,-0.0,-0.0,3.0,0.328156,0.322326,0.324026,0.329816,0.0,-0.0,-0.0,0.0,-0.0,-0.0,-0.00322,-0.001595,-0.027665,0.010208,0.000192,-0.000326
89165,-0.000771,0.001938,-0.03968,0.0,-0.0,-0.0,3.0,0.328503,0.322193,0.323673,0.329945,0.0,-0.0,-0.0,0.0,-0.0,-0.0,-0.003049,-0.001591,-0.027671,0.011211,0.000192,-0.000338
89185,-0.000647,0.001819,-0.039802,0.0,-0.0,-0.0,3.0,0.333895,0.322247,0.318044,0.329892,0.0,-0.0,-0.0,0.0,0.0,-0.0,-0.002862,-0.001587,-0.027678,0.008747,0.000155,-0.000349
89205,-0.000522,0.001699,-0.039803,0.0,-0.0,-0.0,3.0,0.33602,0.321967,0.315753,0.330163,0.0,-0.0,-0.0,0.0,-0.0,-0.0,-0.00272,-0.001584,-0.027685,0.006854,0.000143,-0.000348
89225,-0.000515,0.001333,-0.039803,0.0,-0.0,-0.0,3.0,0.337534,0.32161,0.314094,0.330508,0.0,-0.0,-0.0,0.0,-0.0,-0.0,-0.002616,-0.00158,-0.027692,0.005428,0.000143,-0.000348
89245,-0.000512,0.001211,-0.039803,0.0,-0.0,-0.0,3.0,0.336018,0.321488,0.315755,0.330626,0.0,-0.0,-0.0,0.0,0.0,-0.0,-0.002529,-0.001577,-0.027699,0.004209,0.000154,-0.000335
89265,-0.000634,0.001208,-0.039681,0.0,-0.0,-0.0,3.0,0.334907,0.321426,0.316958,0.330685,0.0,-0.0,-0.0,0.0,-0.0,-0.0,-0.002447,-0.001573,-0.027706,-0.000271,0.000166,-0.000334
89285,-0.000759,0.001328,-0.039681,0.0,-0.0,-0.0,3.0,0.331421,0.321404,0.320659,0.330707,0.0,-0.0,-0.0,0.0,-0.0,-0.0,-0.002398,-0.00157,-0.027712,-0.000982,0.000178,-0.000321
89305,-0.000883,0.001448,-0.039558,0.0,-0.0,-0.0,3.0,0.328952,0.321501,0.323214,0.330613,0.0,-0.0,-0.0,0.0,0.0,-0.0,-0.002352,-0.001567,-0.027719,-9e-06,0.000202,-0.000321
89325,-0.000886,0.00157,-0.039558,0.0,-0.0,-0.0,3.0,0.328636,0.321531,0.323537,0.330584,0.0,-0.0,-0.0,0.0,-0.0,-0.0,-0.002317,-0.001563,-0.027725,0.001214,0.00019,-0.00032
89345,-0.000644,0.001697,-0.039559,0.0,-0.0,-0.0,3.0,0.330762,0.321575,0.321346,0.330541,0.0,-0.0,-0.0,0.0,-0.0,-0.0,-0.002291,-0.00156,-0.027732,0.00423,0.000178,-0.000319
89365,-0.000517,0.001455,-0.039559,0.0,-0.0,-0.0,3.0,0.333085,0.321512,0.318907,0.330602,0.0,-0.0,-0.0,0.0,0.0,-0.0,-0.002252,-0.001557,-0.027738,0.005429,0.000153,-0.000319
89385,-0.000273,0.00146,-0.039559,0.0,-0.0,-0.0,3.0,0.332461,0.321305,0.319567,0.330801,0.0,-0.0,-0.0,0.0,-0.0,-0.0,-0.002225,-0.001553,-0.027744,0.006721,0.000153,-0.00033
89405,-0.000151,0.001462,-0.039681,0.0,-0.0,-0.0,3.0,0.332079,0.321329,0.319969,0.330779,0.0,-0.0,-0.0,0.0,0.0,-0.0,-0.002168,-0.00155,-0.027751,0.004244,0.000165,-0.00033
89425,-3.2e-05,0.001587,-0.039803,0.0,-0.0,-0.0,3.0,0.332256,0.321415,0.319783,0.330695,0.0,-0.0,-0.0,0.0,0.0,-0.0,-0.002108,-0.001547,-0.027757,0.003433,0.000164,-0.000329
89445,-3.6e-05,0.001831,-0.039803,0.0,-0.0,-0.0,3.0,0.330608,0.321541,0.321506,0.330574,0.0,-0.0,-0.0,0.0,0.0,-0.0,-0.002033,-0.001543,-0.027764,0.002337,0.000188,-0.00034
89465,-3.4e-05,0.001709,-0.039803,0.0,-0.0,-0.0,3.0,0.333095,0.321739,0.318896,0.330383,0.0,-0.0,-0.0,0.0,-0.0,-0.0,-0.001945,-0.00154,-0.027771,0.001165,0.000176,-0.00034
89485,-0.000158,0.001828,-0.039803,0.0,-0.0,-0.0,3.0,0.333956,0.321874,0.317979,0.330253,0.0,-0.0,-0.0,0.0,0.0,-0.0,-0.001862,-0.001536,-0.027778,0.001696,0.000176,-0.000339
89505,-0.000156,0.001706,-0.039925,0.0,-0.0,-0.0,3.0,0.334465,0.321975,0.317433,0.330156,0.0,-0.0,-0.0,0.0,0.0,-0.0,-0.001784,-0.001532,-0.027784,0.003935,0.000188,-0.000338
89525,-3.4e-05,0.001709,-0.039925,0.0,-0.0,-0.0,3.0,0.333722,0.32187,0.318228,0.330258,0.0,-0.0,-0.0,0.0,-0.0,-0.0,-0.00172,-0.001528,-0.027791,0.004694,0.0002,-0.000338
89545,0.00021,0.001714,-0.039925,0.0,-0.0,-0.0,3.0,0.331639,0.321745,0.320431,0.330378,0.0,-0.0,-0.0,0.0,-0.0,-0.0,-0.001666,-0.001524,-0.027798,0.003888,0.000224,-0.000337
89565,0.000208,0.001836,-0.039925,0.0,-0.0,-0.0,3.0,0.328958,0.321699,0.323208,0.330422,0.0,-0.0,-0.0,0.0,-0.0,-0.0,-0.00161,-0.00152,-0.027805,0.003095,0.000236,-0.000349
89585,8.1e-05,0.002077,-0.039925,0.0,-0.0,-0.0,3.0,0.328406,0.321464,0.323772,0.330649,0.0,-0.0,-0.0,0.0,0.0,-0.0,-0.001578,-0.001515,-0.027812,0.002648,0.000235,-0.000348
89605,7.8e-05,0.002199,-0.040047,0.0,-0.0,-0.0,3.0,0.328406,0.321151,0.323772,0.330949,0.0,-0.0,-0.0,0.0,-0.0,-0.0,-0.001576,-0.001511,-0.027819,0.000999,0.000223,-0.000359
89625,0.000198,0.002324,-0.040047,0.0,-0.0,-0.0,3.0,0.330664,0.321294,0.321449,0.330812,0.0,-0.0,-0.0,0.0,0.0,-0.0,-0.001566,-0.001507,-0.027827,-0.000777,0.00021,-0.000371
89645,-4.4e-05,0.002197,-0.040169,0.0,-0.0,-0.0,3.0,0.333757,0.321223,0.318191,0.33088,0.0,-0.0,-0.0,0.0,0.0,-0.0,-0.001566,-0.001503,-0.027834,-0.002382,0.000185,-0.000382
89665,-4.4e-05,0.002197,-0.040291,0.0,-0.0,-0.0,3.0,0.333294,0.321218,0.318685,0.330885,0.0,-0.0,-0.0,0.0,-0.0,-0.0,-0.001587,-0.001498,-0.027841,-0.000492,0.000209,-0.000382
89685,8.3e-05,0.001955,-0.040413,0.0,-0.0,-0.0,3.0,0.33682,0.321325,0.314879,0.330782,0.0,-0.0,-0.0,0.0,0.0,-0.0,-0.001589,-0.001494,-0.027849,0.00124,0.000196,-0.000381
89705,0.000202,0.00208,-0.040413,0.0,-0.0,-0.0,3.0,0.333264,0.321407,0.318716,0.330703,0.0,-0.0,-0.0,0.0,0.0,-0.0,-0.001569,-0.001489,-0.027857,-0.000812,0.000232,-0.000392
89725,-4.2e-05,0.002075,-0.040535,0.0,-0.0,-0.0,3.0,0.333008,0.321398,0.318988,0.330712,0.0,-0.0,-0.0,0.0,-0.0,-0.0,-0.001553,-0.001484,-0.027864,-0.001056,0.000244,-0.000391
89745,-0.000289,0.002192,-0.040535,0.0,-0.0,-0.0,3.0,0.330606,0.321246,0.321508,0.330859,0.0,-0.0,-0.0,0.0,-0.0,-0.0,-0.001564,-0.00148,-0.027872,-0.000939,0.000256,-0.000391
89765,-0.000289,0.002192,-0.040657,0.0,-0.0,-0.0,3.0,0.331167,0.321218,0.320924,0.330885,0.0,-0.0,-0.0,0.0,-0.0,-0.0,-0.001588,-0.001475,-0.02788,-0.000624,0.000255,-0.000402
89785,-0.000172,0.002439,-0.040657,0.0,-0.0,-0.0,3.0,0.331224,0.321163,0.320864,0.330938,0.0,-0.0,-0.0,-0.0,0.0,-0.0,-0.00162,-0.00147,-0.027889,-0.000146,0.000243,-0.000401
89805,-5e-05,0.002441,-0.040657,0.0,-0.0,-0.0,3.0,0.329869,0.32131,0.322272,0.330797,0.0,-0.0,-0.0,0.0,-0.0,-0.0,-0.001638,-0.001465,-0.027897,0.001688,0.000267,-0.000413
89825,-5e-05,0.002441,-0.040657,0.0,-0.0,-0.0,3.0,0.330891,0.3212,0.321212,0.330903,0.0,-0.0,-0.0,-0.0,0.0,-0.0,-0.001646,-0.00146,-0.027905,0.001832,0.000254,-0.000424
89845,0.000189,0.00269,-0.040779,0.0,-0.0,-0.0,3.0,0.328527,0.3212,0.323649,0.330903,0.0,-0.0,-0.0,0.0,-0.0,-0.0,-0.001652,-0.001455,-0.027914,0.001848,0.000278,-0.000423
89865,0.000187,0.002812,-0.040901,0.0,-0.0,-0.0,3.0,0.331014,0.321389,0.321084,0.330721,0.0,-0.0,-0.0,0.0,0.0,-0.0,-0.001619,-0.00145,-0.027922,-0.000235,0.000265,-0.000434
89885,6.4e-05,0.00281,-0.041023,0.0,-0.0,-0.0,3.0,0.330802,0.321358,0.321305,0.33075,0.0,-0.0,-0.0,-0.0,-0.0,-0.0,-0.001601,-0.001444,-0.027931,-0.000483,0.000264,-0.000446
89905,6.7e-05,0.002688,-0.041023,0.0,-0.0,-0.0,3.0,0.332625,0.321649,0.319393,0.33047,0.0,-0.0,-0.0,0.0,-0.0,-0.0,-0.001563,-0.001439,-0.027939,0.000693,0.000252,-0.000445
89925,0.000194,0.002446,-0.041145,0.0,-0.0,-0.0,3.0,0.336347,0.32157,0.315397,0.330546,0.0,-0.0,-0.0,-0.0,0.0,-0.0,-0.001535,-0.001434,-0.027948,0.00038,0.000227,-0.000456
89945,7.4e-05,0.002321,-0.041267,0.0,-0.0,-0.0,3.0,0.337253,0.321639,0.314403,0.330481,0.0,-0.0,-0.0,0.0,-0.0,-0.0,-0.001506,-0.001429,-0.027957,0.00165,0.000227,-0.000455
89965,0.000199,0.002202,-0.041267,0.0,-0.0,-0.0,3.0,0.334556,0.321568,0.317336,0.330549,0.0,-0.0,-0.0,-0.0,0.0,-0.0,-0.001485,-0.001423,-0.027967,0.002963,0.000251,-0.000454
89985,0.000318,0.002326,-0.041267,0.0,-0.0,-0.0,3.0,0.329782,0.321589,0.322361,0.330529,0.0,-0.0,-0.0,0.0,-0.0,-0.0,-0.001448,-0.001418,-0.027976,0.002318,0.000299,-0.000453
90005,0.000433,0.002695,-0.041145,0.0,-0.0,-0.0,3.0,0.326347,0.321474,0.325853,0.330639,0.0,-0.0,-0.0,-0.0,0.0,-0.0,-0.001421,-0.001413,-0.027985,0.000214,0.000323,-0.000453
90025,0.000179,0.003178,-0.041145,0.0,-0.0,-0.0,3.0,0.324085,0.321551,0.328099,0.330565,0.0,-0.0,-0.0,-0.0,-0.0,-0.0,-0.001384,-0.001407,-0.027994,-0.002019,0.000346,-0.000464
90045,5.4e-05,0.003298,-0.041267,0.0,-0.0,-0.0,3.0,0.326174,0.321422,0.326026,0.330689,0.0,-0.0,-0.0,-0.0,0.0,-0.0,-0.001387,-0.001401,-0.028004,-0.00025,0.000322,-0.000475
90065,0.000296,0.003425,-0.041267,0.0,-0.0,-0.0,3.0,0.328727,0.321546,0.323445,0.33057,0.0,-0.0,-0.0,-0.0,0.0,-0.0,-0.001381,-0.001395,-0.028013,0.001405,0.000297,-0.000474
90085,0.000423,0.003183,-0.041389,0.0,-0.0,-0.0,3.0,0.334184,0.321719,0.317734,0.330403,0.0,-0.0,-0.0,-0.0,0.0,-0.0,-0.001348,-0.001389,-0.028022,0.002715,0.00026,-0.000473
90105,0.00055,0.002942,-0.041389,0.0,-0.0,-0.0,3.0,0.3361,0.321881,0.315666,0.330247,0.0,-0.0,-0.0,-0.0,0.0,-0.0,-0.0013,-0.001383,-0.028032,0.005426,0.000248,-0.000472
90125,0.000801,0.002581,-0.04139,0.0,-0.0,-0.0,3.0,0.33816,0.32188,0.313402,0.330247,0.0,-0.0,-0.0,0.0,-0.0,-0.0,-0.001235,-0.001377,-0.028041,0.004549,0.000247,-0.000459
90145,0.000923,0.002583,-0.04139,0.0,-0.0,-0.0,3.0,0.335956,0.321912,0.315823,0.330217,0.0,-0.0,-0.0,-0.0,0.0,-0.0,-0.001156,-0.001372,-0.02805,0.003404,0.000271,-0.000458
90165,0.000921,0.002705,-0.041268,0.0,-0.0,-0.0,3.0,0.333292,0.321971,0.318686,0.33016,0.0,-0.0,-0.0,-0.0,-0.0,-0.0,-0.001074,-0.001366,-0.028059,0.002208,0.000295,-0.000457
90185,0.000796,0.002825,-0.041268,0.0,-0.0,-0.0,3.0,0.330396,0.322056,0.321727,0.330077,0.0,-0.0,-0.0,-0.0,-0.0,-0.0,-0.000988,-0.00136,-0.028069,0.000967,0.000318,-0.000456
90205,0.000794,0.002947,-0.041268,0.0,-0.0,-0.0,3.0,0.327456,0.322182,0.324737,0.329956,0.0,-0.0,-0.0,-0.0,0.0,-0.0,-0.000914,-0.001354,-0.028078,0.001586,0.00033,-0.000456
90225,0.000791,0.003069,-0.041268,0.0,-0.0,-0.0,3.0,0.328389,0.322238,0.323789,0.329902,0.0,-0.0,-0.0,-0.0,-0.0,-0.0,-0.000843,-0.001348,-0.028087,0.002319,0.000318,-0.000455
90245,0.000672,0.002944,-0.041268,0.0,-0.0,-0.0,3.0,0.329932,0.322151,0.322206,0.329986,0.0,-0.0,-0.0,-0.0,0.0,-0.0,-0.00079,-0.001342,-0.028096,0.003331,0.000293,-0.000466
90265,0.000669,0.003066,-0.04139,0.0,-0.0,-0.0,3.0,0.329412,0.321855,0.322742,0.330272,0.0,-0.0,-0.0,-0.0,-0.0,-0.0,-0.000775,-0.001337,-0.028106,0.004789,0.000293,-0.000465
90285,0.000916,0.002949,-0.04139,0.0,-0.0,-0.0,3.0,0.331408,0.321632,0.320673,0.330487,0.0,-0.0,-0.0,-0.0,-0.0,-0.0,-0.000773,-0.001331,-0.028115,0.003133,0.00028,-0.000464
90305,0.001158,0.003076,-0.041268,0.0,-0.0,-0.0,3.0,0.330776,0.321417,0.321332,0.330694,0.0,-0.0,-0.0,-0.0,-0.0,-0.0,-0.000788,-0.001325,-0.028124,0.001634,0.000291,-0.000463
90325,0.000913,0.003071,-0.041268,0.0,-0.0,-0.0,3.0,0.332205,0.321401,0.319837,0.330709,0.0,-0.0,-0.0,-0.0,0.0,-0.0,-0.000785,-0.001319,-0.028133,-7.2e-05,0.00029,-0.00045
90345,0.000911,0.003193,-0.04139,0.0,-0.0,-0.0,3.0,0.332294,0.321457,0.319742,0.330655,0.0,-0.0,-0.0,-0.0,-0.0,-0.0,-0.000788,-0.001314,-0.028142,-3e-05,0.00029,-0.000461
90365,0.000791,0.003069,-0.04139,0.0,-0.0,-0.0,3.0,0.334359,0.321675,0.317547,0.330445,0.0,-0.0,-0.0,-0.0,0.0,-0.0,-0.000759,-0.001307,-0.028151,-0.003759,0.000289,-0.00046
90385,0.000794,0.002947,-0.04139,0.0,-0.0,-0.0,3.0,0.335043,0.321656,0.316812,0.330464,0.0,-0.0,-0.0,-0.0,-0.0,-0.0,-0.000765,-0.001301,-0.02816,-0.003646,0.000276,-0.000459
90405,0.00055,0.002942,-0.041389,0.0,-0.0,-0.0,3.0,0.333542,0.32184,0.31842,0.330286,0.0,-0.0,-0.0,-0.0,0.0,-0.0,-0.000761,-0.001295,-0.02817,-0.000435,0.0003,-0.000459
90425,0.000552,0.00282,-0.041389,0.0,-0.0,-0.0,3.0,0.332315,0.321613,0.319721,0.330505,0.0,-0.0,-0.0,-0.0,0.0,-0.0,-0.000783,-0.001289,-0.028179,0.001536,0.0003,-0.000458
90445,0.000669,0.003066,-0.04139,0.0,-0.0,-0.0,3.0,0.329461,0.321584,0.322692,0.330533,0.0,-0.0,-0.0,-0.0,-0.0,-0.0,-0.000801,-0.001283,-0.028188,0.001712,0.000324,-0.000445
90465,0.000791,0.003069,-0.041268,0.0,-0.0,-0.0,3.0,0.328247,0.321461,0.323934,0.330651,0.0,-0.0,-0.0,-0.0,0.0,-0.0,-0.000823,-0.001277,-0.028197,-0.001324,0.000322,-0.000444
90485,0.000664,0.00331,-0.041268,0.0,-0.0,-0.0,3.0,0.327398,0.321486,0.324796,0.330627,0.0,-0.0,-0.0,-0.0,-0.0,-0.0,-0.000846,-0.001272,-0.028206,0.000653,0.000322,-0.000455
90505,0.000664,0.00331,-0.041268,0.0,-0.0,-0.0,3.0,0.329175,0.321345,0.322986,0.330763,0.0,-0.0,-0.0,-0.0,-0.0,-0.0,-0.000873,-0.001265,-0.028215,0.001059,0.000309,-0.000454
90525,0.000662,0.003432,-0.04139,0.0,-0.0,-0.0,3.0,0.333185,0.321294,0.3188,0.330812,0.0,-0.0,-0.0,-0.0,-0.0,-0.0,-0.000893,-0.001259,-0.028224,-0.001923,0.000284,-0.000453
90545,0.000545,0.003186,-0.041389,0.0,-0.0,-0.0,3.0,0.33578,0.321235,0.316014,0.330868,0.0,-0.0,-0.0,-0.0,0.0,-0.0,-0.00093,-0.001253,-0.028233,-0.003049,0.000271,-0.000452
90565,0.000672,0.002944,-0.04139,0.0,-0.0,-0.0,3.0,0.334994,0.321407,0.316864,0.330703,0.0,-0.0,-0.0,-0.0,0.0,-0.0,-0.000964,-0.001247,-0.028242,-0.000961,0.000283,-0.000451
90585,0.000674,0.002822,-0.04139,0.0,-0.0,-0.0,3.0,0.334052,0.321624,0.317876,0.330495,0.0,-0.0,-0.0,-0.0,-0.0,-0.0,-0.000959,-0.001241,-0.028251,-0.001061,0.000294,-0.00045
90605,0.000674,0.002822,-0.041511,0.0,-0.0,-0.0,3.0,0.333274,0.321821,0.318705,0.330304,0.0,-0.0,-0.0,-0.0,0.0,-0.0,-0.000939,-0.001235,-0.02826,0.000331,0.000294,-0.00045
90625,0.000672,0.002944,-0.04139,0.0,-0.0,-0.0,3.0,0.331036,0.321996,0.321061,0.330136,0.0,-0.0,-0.0,-0.0,0.0,-0.0,-0.000901,-0.001229,-0.028269,0.00144,0.000306,-0.000449
90645,0.000796,0.002825,-0.04139,0.0,-0.0,-0.0,3.0,0.329789,0.322001,0.322354,0.33013,0.0,-0.0,-0.0,-0.0,-0.0,-0.0,-0.000865,-0.001223,-0.028278,0.00262,0.000305,-0.000448
90665,0.000913,0.003071,-0.04139,0.0,-0.0,-0.0,3.0,0.328448,0.322219,0.323729,0.32992,0.0,-0.0,-0.0,-0.0,0.0,-0.0,-0.000807,-0.001218,-0.028287,0.003495,0.000305,-0.000447
90685,0.000913,0.003071,-0.04139,0.0,-0.0,-0.0,3.0,0.332019,0.322214,0.320032,0.329925,0.0,-0.0,-0.0,-0.0,0.0,-0.0,-0.00075,-0.001212,-0.028296,0.004449,0.00028,-0.000446
90705,0.000913,0.003071,-0.041268,0.0,-0.0,-0.0,3.0,0.330024,0.321751,0.322112,0.330372,0.0,-0.0,-0.0,-0.0,-0.0,-0.0,-0.000732,-0.001206,-0.028305,0.002509,0.000292,-0.000445
90725,0.001035,0.003074,-0.041268,0.0,-0.0,-0.0,3.0,0.33117,0.321558,0.320922,0.330558,0.0,-0.0,-0.0,-0.0,0.0,-0.0,-0.000735,-0.001201,-0.028314,0.000874,0.000291,-0.000444
90745,0.001035,0.003074,-0.04139,0.0,-0.0,-0.0,3.0,0.329431,0.321529,0.322723,0.330586,0.0,-0.0,-0.0,-0.0,0.0,-0.0,-0.000736,-0.001195,-0.028323,-0.000809,0.000302,-0.000443
90765,0.000911,0.003193,-0.04139,0.0,-0.0,-0.0,3.0,0.330648,0.321725,0.321464,0.330397,0.0,-0.0,-0.0,-0.0,0.0,-0.0,-0.00072,-0.001189,-0.028331,-0.000996,0.000289,-0.000442
90785,0.000794,0.002947,-0.04139,0.0,-0.0,-0.0,3.0,0.333696,0.321754,0.318256,0.33037,0.0,-0.0,-0.0,-0.0,-0.0,-0.0,-0.000707,-0.001184,-0.02834,-0.001071,0.000252,-0.000442
90805,0.000916,0.002949,-0.04139,0.0,-0.0,-0.0,3.0,0.332983,0.32197,0.319014,0.330161,0.0,-0.0,-0.0,-0.0,-0.0,-0.0,-0.000687,-0.001178,-0.028349,0.000322,0.000252,-0.000441
90825,0.001048,0.002464,-0.04139,0.0,-0.0,-0.0,3.0,0.336189,0.322132,0.315569,0.330004,0.0,-0.0,-0.0,-0.0,0.0,-0.0,-0.000657,-0.001173,-0.028358,0.001647,0.000227,-0.00044
90845,0.001045,0.002586,-0.04139,0.0,-0.0,-0.0,3.0,0.334514,0.322096,0.317381,0.330038,0.0,-0.0,-0.0,-0.0,0.0,-0.0,-0.000627,-0.001168,-0.028366,0.004549,0.00024,-0.000427
90865,0.001053,0.00222,-0.041268,0.0,-0.0,-0.0,3.0,0.334003,0.321895,0.317928,0.330233,0.0,-0.0,-0.0,-0.0,-0.0,-0.0,-0.000601,-0.001163,-0.028375,0.004161,0.000251,-0.000414
90885,0.001412,0.002593,-0.041146,0.0,-0.0,-0.0,3.0,0.328907,0.321816,0.32326,0.330309,0.0,-0.0,-0.0,-0.0,-0.0,-0.0,-0.000581,-0.001158,-0.028384,0.002145,0.000275,-0.000413
90905,0.001532,0.002718,-0.041025,0.0,-0.0,-0.0,3.0,0.327305,0.322225,0.324889,0.329914,0.0,-0.0,-0.0,-0.0,0.0,-0.0,-0.000518,-0.001153,-0.028392,0.00292,0.000287,-0.000412
90925,0.001529,0.00284,-0.041025,0.0,-0.0,-0.0,3.0,0.326932,0.322472,0.325266,0.329674,0.0,-0.0,-0.0,-0.0,-0.0,-0.0,-0.000424,-0.001148,-0.0284,0.003377,0.000262,-0.000411
90945,0.001651,0.002842,-0.041025,0.0,-0.0,-0.0,3.0,0.328218,0.322827,0.323964,0.329329,0.0,-0.0,-0.0,-0.0,-0.0,-0.0,-0.000307,-0.001144,-0.028408,0.006837,0.000238,-0.00041
90965,0.002022,0.002606,-0.041025,0.0,-0.0,-0.0,3.0,0.335312,0.323061,0.316521,0.329101,0.0,-0.0,-0.0,-0.0,0.0,-0.0,-0.000165,-0.001139,-0.028416,0.006745,0.000177,-0.00041
90985,0.002271,0.002367,-0.041147,0.0,-0.0,-0.0,3.0,0.335923,0.323409,0.315858,0.328761,0.0,-0.0,-0.0,-0.0,0.0,-0.0,3e-06,-0.001135,-0.028424,0.009475,0.000165,-0.000409
91005,0.002284,0.001756,-0.041146,0.0,-0.0,-0.0,3.0,0.339336,0.323225,0.312092,0.328941,0.0,-0.0,-0.0,-0.0,-0.0,-0.0,0.000165,-0.001131,-0.028432,0.009008,0.00014,-0.000408
91025,0.002403,0.001881,-0.041147,0.0,-0.0,-0.0,3.0,0.33616,0.323049,0.315601,0.329113,0.0,-0.0,-0.0,-0.0,0.0,-0.0,0.000302,-0.001127,-0.02844,0.007069,0.000165,-0.000395
91045,0.002406,0.001759,-0.041025,0.0,-0.0,-0.0,3.0,0.335042,0.322834,0.316813,0.329322,0.0,-0.0,-0.0,-0.0,-0.0,-0.0,0.000412,-0.001124,-0.028448,0.003838,0.000188,-0.000382
91065,0.002398,0.002125,-0.041025,0.0,-0.0,-0.0,3.0,0.329714,0.322689,0.322431,0.329464,0.0,-0.0,-0.0,-0.0,-0.0,-0.0,0.000496,-0.00112,-0.028456,0.000919,0.000224,-0.000393
91085,0.002149,0.002364,-0.041025,0.0,-0.0,-0.0,3.0,0.326743,0.322475,0.325456,0.329671,0.0,-0.0,-0.0,-0.0,-0.0,-0.0,0.000543,-0.001116,-0.028464,0.0002,0.000248,-0.000393
91105,0.002022,0.002606,-0.041147,0.0,-0.0,-0.0,3.0,0.326223,0.322397,0.325978,0.329748,0.0,-0.0,-0.0,-0.0,-0.0,-0.0,0.000565,-0.001112,-0.028472,-0.001763,0.000248,-0.000404
91125,0.001895,0.002847,-0.041269,0.0,-0.0,-0.0,3.0,0.3284,0.322311,0.323778,0.32983,0.0,-0.0,-0.0,-0.0,0.0,-0.0,0.000559,-0.001107,-0.02848,-0.00165,0.000235,-0.000415
91145,0.002019,0.002728,-0.041391,0.0,-0.0,-0.0,3.0,0.331964,0.322156,0.32009,0.329981,0.0,-0.0,-0.0,-0.0,0.0,-0.0,0.000523,-0.001103,-0.028489,0.000571,0.00021,-0.000439
91165,0.002144,0.002609,-0.041513,0.0,-0.0,-0.0,3.0,0.332327,0.322197,0.319708,0.329941,0.0,-0.0,-0.0,-0.0,-0.0,-0.0,0.000509,-0.001098,-0.028497,0.002421,0.00021,-0.00045
91185,0.00239,0.002492,-0.041635,0.0,-0.0,-0.0,3.0,0.333247,0.322238,0.318734,0.329902,0.0,-0.0,-0.0,-0.0,0.0,-0.0,0.000513,-0.001094,-0.028506,0.002373,0.00021,-0.000449
91205,0.002509,0.002616,-0.041758,0.0,-0.0,-0.0,3.0,0.333509,0.32242,0.318455,0.329725,0.0,-0.0,-0.0,-0.0,-0.0,-0.0,0.000546,-0.001089,-0.028515,0.001916,0.000209,-0.000461
91225,0.00239,0.002492,-0.041757,0.0,-0.0,-0.0,3.0,0.334046,0.322536,0.317882,0.329612,0.0,-0.0,-0.0,-0.0,0.0,-0.0,0.000601,-0.001085,-0.028524,0.001132,0.000221,-0.00046
91245,0.002387,0.002614,-0.041879,0.0,-0.0,-0.0,3.0,0.332274,0.322566,0.319764,0.329583,0.0,-0.0,-0.0,-0.0,-0.0,-0.0,0.000644,-0.00108,-0.028534,0.000514,0.000233,-0.000459
91265,0.002263,0.002734,-0.041879,0.0,-0.0,-0.0,3.0,0.331767,0.322759,0.320297,0.329396,0.0,-0.0,-0.0,-0.0,0.0,-0.0,0.000699,-0.001075,-0.028543,-0.000314,0.000257,-0.000458
91285,0.002382,0.002858,-0.04188,0.0,-0.0,-0.0,3.0,0.332248,0.322787,0.319791,0.329368,0.0,-0.0,-0.0,-0.0,-0.0,-0.0,0.000734,-0.00107,-0.028552,0.000877,0.000256,-0.000457
91305,0.002504,0.002861,-0.04188,0.0,-0.0,-0.0,3.0,0.33014,0.322882,0.321991,0.329276,0.0,-0.0,-0.0,-0.0,0.0,-0.0,0.000774,-0.001065,-0.028562,0.005259,0.000281,-0.000468
91325,0.002746,0.002988,-0.04188,0.0,-0.0,-0.0,3.0,0.329294,0.323045,0.322864,0.329117,0.0,-0.0,-0.0,-0.0,0.0,-0.0,0.000848,-0.001059,-0.028571,0.005918,0.000281,-0.00048
91345,0.002987,0.003115,-0.042003,0.0,-0.0,-0.0,3.0,0.329444,0.323099,0.322709,0.329064,0.0,-0.0,-0.0,-0.0,-0.0,-0.0,0.000933,-0.001054,-0.028581,0.004757,0.00028,-0.000491
91365,0.002982,0.003359,-0.042125,0.0,-0.0,-0.0,3.0,0.328177,0.323163,0.324006,0.329002,0.0,-0.0,-0.0,-0.0,0.0,-0.0,0.001027,-0.001049,-0.02859,0.005138,0.00028,-0.00049
91385,0.003106,0.00324,-0.042247,0.0,-0.0,-0.0,3.0,0.330643,0.323134,0.321469,0.329031,0.0,-0.0,-0.0,-0.0,-0.0,-0.0,0.001111,-0.001043,-0.0286,0.00568,0.000268,-0.000501
91405,0.003109,0.003118,-0.042369,0.0,-0.0,-0.0,3.0,0.334503,0.322965,0.317392,0.329195,0.0,-0.0,-0.0,-0.0,0.0,-0.0,0.001189,-0.001038,-0.02861,0.001354,0.000242,-0.000512
91425,0.002989,0.002994,-0.042368,0.0,-0.0,-0.0,3.0,0.334883,0.322958,0.316984,0.329201,0.0,-0.0,-0.0,-0.0,0.0,-0.0,0.001242,-0.001032,-0.02862,0.000592,0.000254,-0.000511
91445,0.002747,0.002867,-0.04249,0.0,-0.0,-0.0,3.0,0.336283,0.322676,0.315467,0.329477,0.0,-0.0,-0.0,-0.0,-0.0,-0.0,0.001258,-0.001027,-0.02863,0.000374,0.000253,-0.000523
91465,0.002867,0.002991,-0.042612,0.0,-0.0,-0.0,3.0,0.332546,0.322714,0.319476,0.32944,0.0,-0.0,-0.0,-0.0,0.0,-0.0,0.001264,-0.001021,-0.028641,0.00019,0.000289,-0.000522
91485,0.002867,0.002991,-0.042612,0.0,-0.0,-0.0,3.0,0.329022,0.322607,0.323142,0.329543,0.0,-0.0,-0.0,-0.0,-0.0,-0.0,0.001267,-0.001015,-0.028652,-0.003295,0.000325,-0.000533
91505,0.002737,0.003355,-0.042734,0.0,-0.0,-0.0,3.0,0.326367,0.322709,0.325833,0.329444,0.0,-0.0,-0.0,-0.0,-0.0,-0.0,0.001257,-0.001009,-0.028662,-0.001524,0.000337,-0.000544
91525,0.002731,0.003599,-0.042735,0.0,-0.0,-0.0,3.0,0.327279,0.32285,0.324915,0.329307,0.0,-0.0,-0.0,-0.0,0.0,-0.0,0.001256,-0.001003,-0.028673,0.001855,0.000324,-0.000555
91545,0.002848,0.003846,-0.042857,0.0,-0.0,-0.0,3.0,0.326766,0.322954,0.325432,0.329205,0.0,-0.0,-0.0,-0.0,-0.0,-0.0,0.001276,-0.000997,-0.028684,0.00324,0.000324,-0.000566
91565,0.003092,0.003852,-0.04298,0.0,-0.0,-0.0,3.0,0.332219,0.322867,0.319821,0.329291,0.0,-0.0,-0.0,-0.0,-0.0,-0.0,0.001289,-0.000991,-0.028696,0.003136,0.000299,-0.000577
91585,0.003216,0.003732,-0.043102,0.0,-0.0,-0.0,3.0,0.334335,0.322881,0.317573,0.329277,0.0,-0.0,-0.0,-0.0,-0.0,-0.0,0.001312,-0.000985,-0.028707,0.002815,0.000298,-0.000576
91605,0.003219,0.00361,-0.043223,0.0,-0.0,-0.0,3.0,0.334592,0.322755,0.317297,0.329399,0.0,-0.0,-0.0,-0.0,-0.0,-0.0,0.001336,-0.000978,-0.028718,0.002456,0.00031,-0.000587
91625,0.003216,0.003733,-0.043345,0.0,-0.0,-0.0,3.0,0.332765,0.322766,0.319245,0.329389,0.0,-0.0,-0.0,-0.0,0.0,-0.0,0.001368,-0.000971,-0.02873,0.000239,0.000346,-0.000586
91645,0.003213,0.003855,-0.043346,0.0,-0.0,-0.0,3.0,0.331923,0.322893,0.320133,0.329266,0.0,-0.0,-0.0,-0.0,-0.0,-0.0,0.001401,-0.000964,-0.028742,-0.001958,0.000369,-0.000597
91665,0.002964,0.004094,-0.043467,0.0,-0.0,-0.0,3.0,0.328045,0.323117,0.32414,0.329047,0.0,-0.0,-0.0,-0.0,-0.0,-0.0,0.001444,-0.000957,-0.028754,-0.002615,0.000393,-0.000596
91685,0.002839,0.004213,-0.043467,0.0,-0.0,-0.0,3.0,0.327714,0.323276,0.324475,0.328892,0.0,-0.0,-0.0,-0.0,0.0,-0.0,0.001477,-0.000949,-0.028766,0.000227,0.000405,-0.000607
91705,0.002956,0.00446,-0.043468,0.0,-0.0,-0.0,3.0,0.328768,0.323376,0.323402,0.328794,0.0,-0.0,-0.0,-0.0,-0.0,-0.0,0.001509,-0.000941,-0.028778,0.003165,0.000392,-0.000606
91725,0.0032,0.004465,-0.043468,0.0,-0.0,-0.0,3.0,0.330401,0.323455,0.321721,0.328717,0.0,-0.0,-0.0,-0.0,-0.0,-0.0,0.001545,-0.000934,-0.02879,0.005998,0.000392,-0.000604
91745,0.003447,0.004348,-0.043347,0.0,-0.0,-0.0,3.0,0.333058,0.32321,0.318934,0.328956,0.0,-0.0,-0.0,-0.0,0.0,-0.0,0.001577,-0.000926,-0.028802,0.005643,0.000367,-0.000603
91765,0.003571,0.004229,-0.043347,0.0,-0.0,-0.0,3.0,0.332271,0.323034,0.319766,0.329128,0.0,-0.0,-0.0,-0.0,-0.0,-0.0,0.001606,-0.000918,-0.028814,0.005211,0.000378,-0.00059
91785,0.003694,0.004231,-0.043225,0.0,-0.0,-0.0,3.0,0.33116,0.323059,0.320932,0.329103,0.0,-0.0,-0.0,-0.0,-0.0,-0.0,0.00165,-0.00091,-0.028826,0.002899,0.000389,-0.000589
91805,0.003691,0.004353,-0.043225,0.0,-0.0,-0.0,3.0,0.330622,0.322997,0.321491,0.329164,0.0,-0.0,-0.0,-0.0,0.0,-0.0,0.001693,-0.000903,-0.028837,-0.001005,0.000388,-0.000575
91825,0.003447,0.004348,-0.043103,0.0,-0.0,-0.0,3.0,0.330804,0.323242,0.321302,0.328925,0.0,-0.0,-0.0,-0.0,-0.0,-0.0,0.001743,-0.000895,-0.028849,-0.001689,0.000387,-0.000562
91845,0.003325,0.004345,-0.042981,0.0,-0.0,-0.0,3.0,0.3301,0.323277,0.322032,0.328891,0.0,-0.0,-0.0,-0.0,-0.0,-0.0,0.001775,-0.000887,-0.02886,-0.002123,0.000387,-0.000549
91865,0.003326,0.004345,-0.042859,0.0,-0.0,-0.0,3.0,0.330392,0.323616,0.32173,0.328559,0.0,-0.0,-0.0,-0.0,0.0,-0.0,0.001817,-0.00088,-0.028871,0.000642,0.000386,-0.000535
91885,0.003451,0.004225,-0.042737,0.0,-0.0,-0.0,3.0,0.332191,0.323731,0.319851,0.328447,0.0,-0.0,-0.0,-0.0,0.0,-0.0,0.001862,-0.000872,-0.028881,0.003392,0.000374,-0.000522
91905,0.003573,0.004228,-0.042615,0.0,-0.0,-0.0,3.0,0.33186,0.323595,0.320199,0.328579,0.0,-0.0,-0.0,-0.0,-0.0,-0.0,0.001901,-0.000864,-0.028892,0.004496,0.000386,-0.000509
91925,0.003695,0.00423,-0.042494,0.0,-0.0,-0.0,3.0,0.331621,0.323504,0.32045,0.328669,0.0,-0.0,-0.0,-0.0,0.0,-0.0,0.001936,-0.000857,-0.028902,0.005687,0.000385,-0.000496
91945,0.00382,0.00411,-0.042372,0.0,-0.0,-0.0,3.0,0.329808,0.323199,0.322334,0.328967,0.0,-0.0,-0.0,-0.0,0.0,-0.0,0.00196,-0.000849,-0.028912,0.001997,0.000396,-0.000483
91965,0.003818,0.004232,-0.042372,0.0,-0.0,-0.0,3.0,0.328317,0.323192,0.323862,0.328973,0.0,-0.0,-0.0,-0.0,-0.0,-0.0,0.001981,-0.000842,-0.028921,8.7e-05,0.000383,-0.000482
91985,0.003696,0.004229,-0.04225,0.0,-0.0,-0.0,3.0,0.329017,0.323186,0.323148,0.328979,0.0,-0.0,-0.0,-0.0,0.0,-0.0,0.001997,-0.000834,-0.028931,-0.001771,0.00037,-0.000481
92005,0.003576,0.004105,-0.042249,0.0,-0.0,-0.0,3.0,0.330811,0.323318,0.321296,0.328851,0.0,-0.0,-0.0,-0.0,0.0,-0.0,0.002013,-0.000828,-0.028941,-0.001874,0.000332,-0.000467
92025,0.003576,0.004105,-0.042249,0.0,-0.0,-0.0,3.0,0.332742,0.32336,0.31927,0.32881,0.0,-0.0,-0.0,-0.0,-0.0,-0.0,0.002018,-0.000821,-0.02895,-0.001911,0.000319,-0.000466
92045,0.003462,0.003736,-0.042126,0.0,-0.0,-0.0,3.0,0.336616,0.323407,0.315102,0.328763,0.0,-0.0,-0.0,-0.0,-0.0,-0.0,0.002022,-0.000814,-0.028959,-0.000224,0.000294,-0.000453
92065,0.003462,0.003736,-0.042004,0.0,-0.0,-0.0,3.0,0.333737,0.323396,0.318213,0.328774,0.0,-0.0,-0.0,-0.0,-0.0,-0.0,0.002017,-0.000807,-0.028968,0.00144,0.000318,-0.00044
92085,0.003587,0.003616,-0.042004,0.0,-0.0,-0.0,3.0,0.332417,0.323409,0.319613,0.328761,0.0,-0.0,-0.0,-0.0,0.0,-0.0,0.00202,-0.000801,-0.028977,0.001338,0.000342,-0.000427
92105,0.003709,0.003619,-0.041883,0.0,-0.0,-0.0,3.0,0.33034,0.323253,0.321785,0.328915,0.0,-0.0,-0.0,-0.0,-0.0,-0.0,0.002013,-0.000794,-0.028986,-0.000268,0.000353,-0.000414
92125,0.003585,0.003738,-0.041761,0.0,-0.0,-0.0,3.0,0.328187,0.323327,0.323995,0.328842,0.0,-0.0,-0.0,-0.0,-0.0,-0.0,0.002009,-0.000787,-0.028994,0.001452,0.000353,-0.000413
92145,0.003583,0.00386,-0.041639,0.0,-0.0,-0.0,3.0,0.326836,0.323246,0.325363,0.328921,0.0,-0.0,-0.0,-0.0,-0.0,-0.0,0.002006,-0.000781,-0.029002,-0.000133,0.00034,-0.000412
92165,0.003583,0.00386,-0.041639,0.0,-0.0,-0.0,3.0,0.328669,0.323225,0.323504,0.328941,0.0,-0.0,-0.0,-0.0,-0.0,-0.0,0.001997,-0.000775,-0.029011,-0.001606,0.000315,-0.000412
92185,0.003583,0.00386,-0.041639,0.0,-0.0,-0.0,3.0,0.331401,0.323455,0.32068,0.328716,0.0,-0.0,-0.0,-0.0,0.0,-0.0,0.001993,-0.000769,-0.029019,0.000219,0.000278,-0.000411
92205,0.003588,0.003616,-0.041639,0.0,-0.0,-0.0,3.0,0.334616,0.323381,0.317272,0.328789,0.0,-0.0,-0.0,-0.0,-0.0,-0.0,0.001988,-0.000763,-0.029027,0.000323,0.000265,-0.000398
92225,0.003715,0.003374,-0.041638,0.0,-0.0,-0.0,3.0,0.335705,0.323482,0.316094,0.32869,0.0,-0.0,-0.0,-0.0,-0.0,-0.0,0.001992,-0.000757,-0.029035,0.001961,0.000252,-0.000397
92245,0.003717,0.003252,-0.041638,0.0,-0.0,-0.0,3.0,0.33437,0.323507,0.317535,0.328666,0.0,-0.0,-0.0,-0.0,0.0,-0.0,0.002017,-0.00075,-0.029044,0.001592,0.000264,-0.000396
92265,0.00372,0.00313,-0.041516,0.0,-0.0,-0.0,3.0,0.334649,0.323553,0.317236,0.328621,0.0,-0.0,-0.0,-0.0,0.0,-0.0,0.002031,-0.000746,-0.02905,-0.000259,0.000263,-0.000383
92285,0.003598,0.003127,-0.041394,0.0,-0.0,-0.0,3.0,0.331426,0.323644,0.320653,0.328532,0.0,-0.0,-0.0,-0.0,-0.0,-0.0,0.002057,-0.000741,-0.029058,-0.000649,0.000275,-0.00037
92305,0.003479,0.003002,-0.041393,0.0,-0.0,-0.0,3.0,0.32961,0.323434,0.322539,0.328737,0.0,-0.0,-0.0,-0.0,0.0,-0.0,0.002054,-0.000735,-0.029065,-0.002269,0.000274,-0.000357
92325,0.003598,0.003127,-0.041272,0.0,-0.0,-0.0,3.0,0.329681,0.323525,0.322465,0.328648,0.0,-0.0,-0.0,-0.0,0.0,-0.0,0.002039,-0.00073,-0.029072,-0.00036,0.000262,-0.000357
92345,0.003477,0.003124,-0.04115,0.0,-0.0,-0.0,3.0,0.331157,0.323536,0.320934,0.328637,0.0,-0.0,-0.0,-0.0,-0.0,-0.0,0.002033,-0.000725,-0.02908,-0.000253,0.000249,-0.000356
92365,0.003477,0.003124,-0.04115,0.0,-0.0,-0.0,3.0,0.329955,0.323342,0.322183,0.328827,0.0,-0.0,-0.0,-0.0,0.0,-0.0,0.002006,-0.000721,-0.029087,0.000123,0.000248,-0.000343
92385,0.003477,0.003124,-0.04115,0.0,-0.0,-0.0,3.0,0.331001,0.323198,0.321097,0.328968,0.0,-0.0,-0.0,-0.0,0.0,-0.0,0.001969,-0.000716,-0.029093,-0.001008,0.000235,-0.000342
92405,0.003355,0.003122,-0.04115,0.0,-0.0,-0.0,3.0,0.331328,0.323132,0.320756,0.329032,0.0,-0.0,-0.0,-0.0,-0.0,-0.0,0.001927,-0.000711,-0.0291,-0.003737,0.000222,-0.000341
92425,0.003235,0.002997,-0.041149,0.0,-0.0,-0.0,3.0,0.331901,0.323127,0.320155,0.329037,0.0,-0.0,-0.0,-0.0,0.0,-0.0,0.001875,-0.000707,-0.029107,-0.002987,0.00021,-0.000341
92445,0.003118,0.00275,-0.041149,0.0,-0.0,-0.0,3.0,0.333053,0.323053,0.31894,0.329109,0.0,-0.0,-0.0,-0.0,0.0,-0.0,0.00182,-0.000702,-0.029114,-0.003872,0.000197,-0.00034
92465,0.002879,0.002501,-0.04127,0.0,-0.0,-0.0,3.0,0.335538,0.322954,0.316276,0.329206,0.0,-0.0,-0.0,-0.0,-0.0,-0.0,0.00175,-0.000698,-0.02912,-0.006175,0.000171,-0.000339
92485,0.002637,0.002374,-0.04127,0.0,-0.0,-0.0,3.0,0.334591,0.322651,0.317298,0.329501,0.0,-0.0,-0.0,-0.0,0.0,-0.0,0.00163,-0.000695,-0.029127,-0.006201,0.000171,-0.000339
92505,0.002401,0.002003,-0.041269,0.0,-0.0,-0.0,3.0,0.334314,0.322339,0.317596,0.329803,0.0,-0.0,-0.0,-0.0,0.0,-0.0,0.001478,-0.000691,-0.029134,-0.005792,0.00017,-0.000338
92525,0.002396,0.002247,-0.041147,0.0,-0.0,-0.0,3.0,0.329377,0.322262,0.322778,0.329878,0.0,-0.0,-0.0,-0.0,-0.0,-0.0,0.001326,-0.000688,-0.029141,-0.005459,0.000194,-0.000337
92545,0.002271,0.002367,-0.041147,0.0,-0.0,-0.0,3.0,0.328795,0.322122,0.323375,0.330013,0.0,-0.0,-0.0,-0.0,0.0,-0.0,0.001181,-0.000684,-0.029148,-0.010144,0.000193,-0.000337
92565,0.001898,0.002725,-0.041147,0.0,-0.0,-0.0,3.0,0.326066,0.322002,0.326135,0.33013,0.0,-0.0,-0.0,-0.0,0.0,-0.0,0.001015,-0.000681,-0.029155,-0.012869,0.000192,-0.000348
92585,0.001651,0.002842,-0.041269,0.0,-0.0,-0.0,3.0,0.32896,0.322115,0.323206,0.330021,0.0,-0.0,-0.0,-0.0,-0.0,-0.0,0.000838,-0.000678,-0.029162,-0.008756,0.000179,-0.000347
92605,0.001404,0.002959,-0.041391,0.0,-0.0,-0.0,3.0,0.331697,0.322145,0.32037,0.329991,0.0,-0.0,-0.0,-0.0,0.0,-0.0,0.00068,-0.000674,-0.029169,-0.008239,0.000167,-0.000359
92625,0.001406,0.002837,-0.041512,0.0,-0.0,-0.0,3.0,0.335016,0.32209,0.316841,0.330045,0.0,-0.0,-0.0,-0.0,-0.0,-0.0,0.000508,-0.00067,-0.029176,-0.005883,0.000166,-0.000358
92645,0.001289,0.002591,-0.041634,0.0,-0.0,-0.0,3.0,0.337133,0.32194,0.314536,0.330189,0.0,-0.0,-0.0,-0.0,-0.0,-0.0,0.000345,-0.000666,-0.029183,-0.007024,0.000177,-0.00037
92665,0.001287,0.002713,-0.041634,0.0,-0.0,-0.0,3.0,0.335201,0.321843,0.316641,0.330284,0.0,-0.0,-0.0,-0.0,0.0,-0.0,0.000176,-0.000661,-0.02919,-0.006494,0.000213,-0.000381
92685,0.001164,0.002711,-0.041756,0.0,-0.0,-0.0,3.0,0.332847,0.321874,0.319158,0.330253,0.0,-0.0,-0.0,-0.0,-0.0,-0.0,2.5e-05,-0.000656,-0.029198,-0.006204,0.000249,-0.00038
92705,0.001157,0.003077,-0.041878,0.0,-0.0,-0.0,3.0,0.327741,0.32197,0.324448,0.330161,0.0,-0.0,-0.0,-0.0,-0.0,-0.0,-0.000103,-0.000652,-0.029206,-0.006227,0.000285,-0.000392
92725,0.001032,0.003196,-0.041878,0.0,-0.0,-0.0,3.0,0.326285,0.322151,0.325915,0.329985,0.0,-0.0,-0.0,-0.0,0.0,-0.0,-0.000207,-0.000647,-0.029214,-0.004842,0.000297,-0.000403
92745,0.001144,0.003687,-0.042,0.0,-0.0,-0.0,3.0,0.323224,0.322683,0.328942,0.32947,0.0,-0.0,-0.0,-0.0,0.0,-0.0,-0.00026,-0.000642,-0.029222,-0.002494,0.000309,-0.000414
92765,0.001268,0.003568,-0.042123,0.0,-0.0,-0.0,3.0,0.328854,0.32315,0.323315,0.329015,0.0,-0.0,-0.0,-0.0,-0.0,-0.0,-0.000262,-0.000636,-0.029231,-0.000702,0.000272,-0.000438
92785,0.00139,0.00357,-0.042245,0.0,-0.0,-0.0,3.0,0.332098,0.323325,0.319949,0.328844,0.0,-0.0,-0.0,-0.0,-0.0,-0.0,-0.000249,-0.000631,-0.029239,0.004221,0.000235,-0.000437
92805,0.001639,0.003331,-0.042245,0.0,-0.0,-0.0,3.0,0.333135,0.323398,0.318853,0.328772,0.0,-0.0,-0.0,-0.0,0.0,-0.0,-0.000204,-0.000626,-0.029248,0.006945,0.000235,-0.000436
92825,0.001888,0.003092,-0.042245,0.0,-0.0,-0.0,3.0,0.334331,0.32324,0.317578,0.328927,0.0,-0.0,-0.0,-0.0,-0.0,-0.0,-0.000151,-0.000621,-0.029256,0.004584,0.000223,-0.000435
92845,0.001888,0.003092,-0.042123,0.0,-0.0,-0.0,3.0,0.334305,0.323219,0.317606,0.328948,0.0,-0.0,-0.0,-0.0,-0.0,-0.0,-9.4e-05,-0.000616,-0.029265,0.000479,0.000222,-0.000422
92865,0.001647,0.002965,-0.042001,0.0,-0.0,-0.0,3.0,0.33467,0.323052,0.317213,0.329111,0.0,-0.0,-0.0,-0.0,0.0,-0.0,-6.5e-05,-0.000611,-0.029273,-0.001577,0.000221,-0.000409
92885,0.001398,0.003204,-0.041757,0.0,-0.0,-0.0,3.0,0.330815,0.322917,0.321291,0.329242,0.0,-0.0,-0.0,-0.0,0.0,-0.0,-6.5e-05,-0.000606,-0.029281,-0.001676,0.000257,-0.000384
92905,0.001401,0.003082,-0.041635,0.0,-0.0,-0.0,3.0,0.33081,0.323049,0.321296,0.329113,0.0,-0.0,-0.0,-0.0,-0.0,-0.0,-6.4e-05,-0.000601,-0.029289,-0.00336,0.000256,-0.000359
92925,0.001523,0.003084,-0.041391,0.0,-0.0,-0.0,3.0,0.329557,0.32318,0.322593,0.328985,0.0,-0.0,-0.0,-0.0,0.0,-0.0,-6.7e-05,-0.000597,-0.029296,-0.003305,0.000256,-0.000346
92945,0.001404,0.002959,-0.041269,0.0,-0.0,-0.0,3.0,0.332352,0.323436,0.319681,0.328735,0.0,-0.0,-0.0,-0.0,0.0,-0.0,-5.5e-05,-0.000592,-0.029303,0.001587,0.000232,-0.000345
92965,0.001529,0.00284,-0.041147,0.0,-0.0,-0.0,3.0,0.331603,0.323452,0.320468,0.328719,0.0,-0.0,-0.0,-0.0,-0.0,-0.0,-3.9e-05,-0.000588,-0.02931,0.006442,0.000207,-0.000333
92985,0.001778,0.002601,-0.041147,0.0,-0.0,-0.0,3.0,0.331805,0.323358,0.320257,0.328811,0.0,-0.0,-0.0,-0.0,-0.0,-0.0,1e-06,-0.000584,-0.029317,0.004272,0.000195,-0.000332
93005,0.002025,0.002484,-0.041147,0.0,-0.0,-0.0,3.0,0.331417,0.32327,0.320663,0.328897,0.0,-0.0,-0.0,-0.0,0.0,-0.0,3.2e-05,-0.00058,-0.029323,0.002283,0.000157,-0.000319
93025,0.001903,0.002481,-0.041147,0.0,-0.0,-0.0,3.0,0.331036,0.323304,0.321061,0.328864,0.0,-0.0,-0.0,-0.0,0.0,-0.0,7.2e-05,-0.000577,-0.029329,0.001742,0.000157,-0.000318
93045,0.001783,0.002357,-0.041147,0.0,-0.0,-0.0,3.0,0.332538,0.323154,0.319485,0.329011,0.0,-0.0,-0.0,-0.0,-0.0,-0.0,9.4e-05,-0.000574,-0.029336,-0.000161,0.000132,-0.000318
93065,0.001908,0.002237,-0.041147,0.0,-0.0,-0.0,3.0,0.334999,0.32335,0.316859,0.328819,0.0,-0.0,-0.0,-0.0,-0.0,-0.0,0.000121,-0.000571,-0.029342,-0.000501,0.00012,-0.000317
93085,0.001669,0.001988,-0.041146,0.087266,-0.0,-0.0,3.0,0.336262,0.293072,0.315489,0.355106,0.000254,-0.0,-0.0,0.100591,-0.0,-0.0,0.000158,-0.000568,-0.029348,-0.000963,0.000107,-0.000304
93105,0.001793,0.001868,-0.041268,0.087266,-0.0,-0.0,3.0,0.333218,0.292634,0.318765,0.355443,0.003328,-0.0,-0.0,0.207268,-0.0,-0.0,0.000171,-0.000566,-0.029354,0.000449,0.000132,-0.000316
93125,0.002162,0.001754,-0.041268,0.087266,-0.0,-0.0,3.0,0.330956,0.292484,0.321144,0.355558,0.007475,-0.0,-0.0,0.19598,-0.0,-0.0,0.000211,-0.000563,-0.029361,0.003168,0.000156,-0.000315
93145,0.002891,0.001891,-0.041269,0.087266,-0.0,-0.0,3.0,0.330278,0.293061,0.321848,0.355114,0.011193,-0.0,-0.0,0.172464,-0.0,-0.0,0.000335,-0.000561,-0.029367,0.011546,0.000133,-0.000327
93165,0.004356,0.001922,-0.041392,0.087266,-0.0,-0.0,3.0,0.328128,0.294472,0.324055,0.354023,0.014567,-0.0,-0.0,0.16486,-0.0,-0.0,0.000641,-0.000558,-0.029374,0.025693,0.000136,-0.000326
93185,0.006677,0.001848,-0.041515,0.087266,-0.0,-0.0,3.0,0.330214,0.297195,0.321915,0.351883,0.017843,-0.0,-0.0,0.161969,-0.0,-0.0,0.001268,-0.000556,-0.029381,0.045593,9.1e-05,-0.00035
93205,0.009977,0.001673,-0.041638,0.087266,-0.0,-0.0,3.0,0.330845,0.300834,0.32126,0.348951,0.021053,-0.0,-0.0,0.157617,-0.0,-0.0,0.002324,-0.000555,-0.029388,0.069562,7.2e-05,-0.000361
93225,0.014135,0.001394,-0.041766,0.087266,-0.0,-0.0,3.0,0.334368,0.305567,0.317538,0.345011,0.024166,-0.0,-0.0,0.152443,-0.0,-0.0,0.003922,-0.000553,-0.029395,0.102829,4.4e-05,-0.000373
93245,0.019269,0.001137,-0.042005,0.087266,-0.0,-0.0,3.0,0.333047,0.310947,0.318946,0.340353,0.027177,-0.0,-0.0,0.147484,-0.0,-0.0,0.006167,-0.000552,-0.029402,0.137201,4.2e-05,-0.000385
93265,0.025373,0.001146,-0.042244,0.087266,-0.0,-0.0,3.0,0.329996,0.317279,0.32214,0.334608,0.030092,-0.0,-0.0,0.14282,-0.0,-0.0,0.009159,-0.000552,-0.02941,0.172991,5.4e-05,-0.000408
93285,0.032211,0.001175,-0.042609,0.087266,-0.0,-0.0,3.0,0.329224,0.32421,0.322935,0.327975,0.032914,-0.0,-0.0,0.138301,-0.0,-0.0,0.012941,-0.000551,-0.029419,0.211413,4.4e-05,-0.000444
93305,0.039534,0.00146,-0.042984,0.087266,-0.0,-0.0,3.0,0.327413,0.331494,0.32478,0.320582,0.035647,-0.0,-0.0,0.133888,-0.0,-0.0,0.017551,-0.000551,-0.029428,0.251786,6e-05,-0.000479
93325,0.047594,0.001401,-0.043461,0.087266,-0.0,-0.0,3.0,0.330704,0.338344,0.321406,0.313197,0.038292,-0.0,-0.0,0.129592,-0.0,-0.0,0.022924,-0.00055,-0.029438,0.29024,3e-05,-0.000526
93345,0.056384,0.001605,-0.043946,0.087266,-0.0,-0.0,3.0,0.330463,0.344659,0.321656,0.305981,0.040853,-0.0,-0.0,0.12542,-0.0,-0.0,0.028992,-0.000549,-0.029449,0.322397,3.7e-05,-0.000573
93365,0.065423,0.00158,-0.044541,0.087266,-0.0,-0.0,3.0,0.333972,0.350528,0.317961,0.298889,0.04333,-0.0,-0.0,0.121366,-0.0,-0.0,0.035678,-0.000548,-0.029461,0.357903,3.5e-05,-0.000632
93385,0.074341,0.001679,-0.045143,0.087266,-0.0,-0.0,3.0,0.335508,0.355629,0.316309,0.292391,0.045728,-0.0,-0.0,0.117426,-0.0,-0.0,0.042922,-0.000546,-0.029474,0.38066,5.7e-05,-0.000678
93405,0.083016,0.001773,-0.045619,0.087266,-0.0,-0.0,3.0,0.332606,0.35966,0.319414,0.287016,0.048048,-0.0,-0.0,0.113597,-0.0,-0.0,0.050545,-0.000545,-0.029488,0.386574,0.000101,-0.000726
93425,0.090953,0.002093,-0.045983,0.087266,-0.0,-0.0,3.0,0.331159,0.362913,0.320932,0.282511,0.050292,-0.0,-0.0,0.109876,-0.0,-0.0,0.058361,-0.000542,-0.029503,0.388204,0.000145,-0.000774
93445,0.097913,0.002515,-0.046355,0.087266,-0.0,-0.0,3.0,0.328368,0.365266,0.32381,0.279153,0.052462,-0.0,-0.0,0.106261,-0.0,-0.0,0.066214,-0.000539,-0.029519,0.384321,0.000188,-0.000809
93465,0.103772,0.002791,-0.046717,0.087266,-0.0,-0.0,3.0,0.328239,0.366044,0.323942,0.278024,0.05456,-0.0,-0.0,0.102748,-0.0,-0.0,0.07388,-0.000535,-0.029535,0.369757,0.000205,-0.000844
93485,0.108653,0.003162,-0.046968,0.087266,-0.0,-0.0,3.0,0.326278,0.36518,0.325922,0.279278,0.05659,-0.0,-0.0,0.099335,-0.0,-0.0,0.081111,-0.000532,-0.029552,0.341046,0.000231,-0.000878
93505,0.112078,0.003256,-0.047212,0.087266,-0.0,-0.0,3.0,0.32981,0.362721,0.322333,0.282782,0.058551,-0.0,-0.0,0.096019,-0.0,-0.0,0.087673,-0.000527,-0.02957,0.303253,0.000228,-0.0009
93525,0.114156,0.003312,-0.047331,0.087266,-0.0,-0.0,3.0,0.332847,0.358853,0.319158,0.288109,0.060447,-0.0,-0.0,0.092797,-0.0,-0.0,0.093384,-0.000522,-0.029588,0.260353,0.000223,-0.000909
93545,0.115136,0.003099,-0.047434,0.087266,-0.0,-0.0,3.0,0.332217,0.353994,0.319823,0.29451,0.06228,-0.0,-0.0,0.089668,-0.0,-0.0,0.098145,-0.000518,-0.029606,0.210286,0.000237,-0.00092
93565,0.114649,0.003087,-0.047437,0.087266,-0.0,-0.0,3.0,0.332261,0.348112,0.319777,0.301856,0.06405,-0.0,-0.0,0.086628,-0.0,-0.0,0.101874,-0.000513,-0.029625,0.15106,0.000236,-0.000918
93585,0.112696,0.002912,-0.04731,0.087266,-0.0,-0.0,3.0,0.331145,0.34156,0.320947,0.309575,0.06576,-0.0,-0.0,0.083675,-0.0,-0.0,0.104493,-0.000508,-0.029643,0.091937,0.00023,-0.000904
93605,0.110005,0.002964,-0.0472,0.087266,-0.0,-0.0,3.0,0.331483,0.334753,0.320594,0.317124,0.067412,-0.0,-0.0,0.080807,-0.0,-0.0,0.105998,-0.000504,-0.029661,0.038074,0.000211,-0.00089
93625,0.106953,0.002885,-0.047084,0.087266,-0.0,-0.0,3.0,0.331471,0.328367,0.320606,0.323812,0.069007,-0.0,-0.0,0.078022,-0.0,-0.0,0.1065,-0.0005,-0.029679,-0.005468,0.000205,-0.000889
93645,0.103771,0.002804,-0.046961,0.087266,-0.0,-0.0,3.0,0.331278,0.322445,0.320809,0.329701,0.070547,-0.0,-0.0,0.075317,-0.0,-0.0,0.106147,-0.000496,-0.029697,-0.044068,0.000195,-0.000863
93665,0.100472,0.002836,-0.04673,0.087266,-0.0,-0.0,3.0,0.331518,0.317149,0.320557,0.33473,0.072034,-0.0,-0.0,0.07269,-0.0,-0.0,0.105066,-0.000492,-0.029714,-0.070991,0.000187,-0.000849
93685,0.097419,0.002515,-0.046592,0.087266,-0.0,-0.0,3.0,0.335906,0.312926,0.315877,0.338588,0.073469,-0.0,-0.0,0.070139,-0.0,-0.0,0.103452,-0.000488,-0.029731,-0.087223,0.000155,-0.000835
93705,0.095469,0.002464,-0.046479,0.087266,-0.0,-0.0,3.0,0.33252,0.31018,0.319504,0.341029,0.074853,-0.0,-0.0,0.067662,-0.0,-0.0,0.101529,-0.000485,-0.029747,-0.096071,0.000172,-0.00081
93725,0.094125,0.002299,-0.046227,0.087266,-0.0,-0.0,3.0,0.330877,0.309273,0.321226,0.341823,0.076188,-0.0,-0.0,0.065257,-0.0,-0.0,0.099549,-0.000481,-0.029763,-0.095779,0.000178,-0.000785
93745,0.093513,0.002401,-0.046114,0.087266,-0.0,-0.0,3.0,0.328494,0.310196,0.323682,0.341015,0.077475,-0.0,-0.0,0.062922,-0.0,-0.0,0.097726,-0.000478,-0.029779,-0.082527,0.000175,-0.000771
93765,0.093882,0.002282,-0.045985,0.087266,-0.0,-0.0,3.0,0.330944,0.312884,0.321157,0.338627,0.078717,-0.0,-0.0,0.060655,-0.0,-0.0,0.096268,-0.000475,-0.029794,-0.057525,0.000139,-0.000768
93785,0.095603,0.001962,-0.04609,0.087266,-0.0,-0.0,3.0,0.332163,0.31696,0.31988,0.334905,0.079913,-0.0,-0.0,0.058455,-0.0,-0.0,0.095351,-0.000473,-0.029809,-0.026547,9.4e-05,-0.000763
93805,0.09818,0.001533,-0.046063,0.087266,-0.0,-0.0,3.0,0.335682,0.322178,0.31612,0.329959,0.081066,-0.0,-0.0,0.056319,-0.0,-0.0,0.09512,-0.000471,-0.029824,0.010159,3.8e-05,-0.000759
93825,0.101738,0.00089,-0.046138,0.087266,-0.0,-0.0,3.0,0.337447,0.327842,0.31419,0.324346,0.082177,-0.0,-0.0,0.054247,-0.0,-0.0,0.095624,-0.000471,-0.02984,0.050233,-1.4e-05,-0.000766
93845,0.106152,0.000395,-0.046342,0.087266,-0.0,-0.0,3.0,0.336304,0.333832,0.315443,0.318111,0.083247,-0.0,-0.0,0.052235,-0.0,-0.0,0.096921,-0.000471,-0.029855,0.08938,-4.1e-05,-0.000774
93865,0.111416,5e-05,-0.046665,0.087266,-0.0,-0.0,3.0,0.336169,0.339844,0.31559,0.311521,0.084276,-0.0,-0.0,0.050282,-0.0,-0.0,0.098996,-0.000471,-0.029871,0.126219,-6.4e-05,-0.000806
93885,0.116925,-4.3e-05,-0.047005,0.087266,-0.0,-0.0,3.0,0.334532,0.346031,0.317361,0.304359,0.085268,-0.0,-0.0,0.048388,-0.0,-0.0,0.101855,-0.000473,-0.029887,0.164004,-8.5e-05,-0.000837
93905,0.122677,-0.00012,-0.047462,0.087266,-0.0,-0.0,3.0,0.332736,0.35161,0.319275,0.297538,0.086222,-0.0,-0.0,0.04655,-0.0,-0.0,0.105406,-0.000475,-0.029904,0.197386,-9.2e-05,-0.000881
93925,0.128798,-0.000308,-0.047906,0.087266,-0.0,-0.0,3.0,0.332599,0.356661,0.319421,0.291036,0.087139,-0.0,-0.0,0.044766,-0.0,-0.0,0.109553,-0.000477,-0.029922,0.224396,-9.9e-05,-0.000925
93945,0.134921,-0.000249,-0.04837,0.087266,-0.0,-0.0,3.0,0.331667,0.360648,0.320401,0.285664,0.088021,-0.0,-0.0,0.043036,-0.0,-0.0,0.114138,-0.000479,-0.029941,0.243653,-0.000105,-0.000968
93965,0.140546,-7.7e-05,-0.048835,0.087266,-0.0,-0.0,3.0,0.330665,0.363711,0.321447,0.281383,0.08887,-0.0,-0.0,0.041357,-0.0,-0.0,0.11903,-0.000481,-0.029961,0.253666,-8.8e-05,-0.001013
93985,0.145684,7.6e-05,-0.049182,0.087266,-0.0,-0.0,3.0,0.329957,0.365769,0.322181,0.278423,0.089684,-0.0,-0.0,0.039729,-0.0,-0.0,0.124069,-0.000483,-0.029981,0.251691,-7.2e-05,-0.001058
94005,0.149727,0.000204,-0.049537,0.087266,-0.0,-0.0,3.0,0.330211,0.366805,0.321918,0.27691,0.090467,-0.0,-0.0,0.03815,-0.0,-0.0,0.12907,-0.000484,-0.030003,0.238608,-6e-05,-0.001079
94025,0.152534,0.000293,-0.049763,0.087266,-0.0,-0.0,3.0,0.33082,0.366903,0.321286,0.276765,0.091218,-0.0,-0.0,0.036618,-0.0,-0.0,0.133842,-0.000486,-0.030024,0.220257,-6.2e-05,-0.001099
94045,0.154247,0.000346,-0.049878,0.087266,-0.0,-0.0,3.0,0.330728,0.365603,0.321382,0.278665,0.09194,-0.0,-0.0,0.035133,-0.0,-0.0,0.138174,-0.000487,-0.030047,0.196134,-5.3e-05,-0.00112
94065,0.155102,0.00062,-0.050019,0.087266,-0.0,-0.0,3.0,0.330874,0.362761,0.32123,0.282725,0.092631,-0.0,-0.0,0.033693,-0.0,-0.0,0.141867,-0.000488,-0.030069,0.160789,-4.9e-05,-0.001129
94085,0.154618,0.000477,-0.049893,0.087266,-0.0,-0.0,3.0,0.334382,0.35853,0.317523,0.288545,0.093295,-0.0,-0.0,0.032297,-0.0,-0.0,0.144753,-0.000489,-0.030092,0.119772,-6.3e-05,-0.001114
94105,0.153152,0.000309,-0.049767,0.087266,-0.0,-0.0,3.0,0.333919,0.353422,0.318018,0.295243,0.09393,-0.0,-0.0,0.030943,-0.0,-0.0,0.146746,-0.00049,-0.030114,0.074125,-5.4e-05,-0.001113
94125,0.150822,0.00025,-0.04977,0.087266,-0.0,-0.0,3.0,0.333201,0.347719,0.318783,0.302333,0.094539,-0.0,-0.0,0.029631,-0.0,-0.0,0.147804,-0.000491,-0.030136,0.026299,-4.9e-05,-0.001101
94145,0.147394,0.000259,-0.049428,0.087266,-0.0,-0.0,3.0,0.332896,0.341869,0.319106,0.309221,0.095122,-0.0,-0.0,0.028359,-0.0,-0.0,0.147955,-0.000492,-0.030158,-0.021028,-4.7e-05,-0.001076
94165,0.143241,1.6e-05,-0.049195,0.087266,-0.0,-0.0,3.0,0.333195,0.335946,0.31879,0.315834,0.09568,-0.0,-0.0,0.027126,-0.0,-0.0,0.147223,-0.000493,-0.030179,-0.066054,-7.1e-05,-0.001038
94185,0.138827,0.000133,-0.04898,0.087266,-0.0,-0.0,3.0,0.331717,0.33046,0.320349,0.32166,0.096214,-0.0,-0.0,0.025931,-0.0,-0.0,0.145687,-0.000494,-0.0302,-0.10185,-7e-05,-0.001027
94205,0.134549,1.9e-05,-0.048876,0.087266,-0.0,-0.0,3.0,0.331869,0.325537,0.32019,0.326663,0.096724,-0.0,-0.0,0.024774,-0.0,-0.0,0.143481,-0.000496,-0.03022,-0.130257,-8.2e-05,-0.001001
94225,0.130382,2.2e-05,-0.048647,0.087266,-0.0,-0.0,3.0,0.331517,0.321588,0.320559,0.330529,0.097211,-0.0,-0.0,0.023652,-0.0,-0.0,0.140774,-0.000498,-0.03024,-0.148364,-9.4e-05,-0.000976
94245,0.126473,-0.000211,-0.048409,0.087266,-0.0,-0.0,3.0,0.335495,0.318518,0.316323,0.333451,0.097676,-0.0,-0.0,0.022566,-0.0,-0.0,0.137722,-0.0005,-0.030259,-0.156755,-0.000116,-0.000963
94265,0.123545,-0.000412,-0.048294,0.087266,-0.0,-0.0,3.0,0.334545,0.316476,0.317348,0.335353,0.098119,-0.0,-0.0,0.021513,-0.0,-0.0,0.134489,-0.000502,-0.030278,-0.156049,-0.000125,-0.000937
94285,0.121586,-0.000353,-0.048064,0.087266,-0.0,-0.0,3.0,0.331013,0.316222,0.321085,0.335588,0.098541,-0.0,-0.0,0.020494,-0.0,-0.0,0.131325,-0.000504,-0.030297,-0.149653,-9.6e-05,-0.000914
94305,0.120361,-0.000397,-0.047821,0.087266,-0.0,-0.0,3.0,0.332136,0.317569,0.319909,0.334339,0.098944,-0.0,-0.0,0.019507,-0.0,-0.0,0.128425,-0.000506,-0.030315,-0.133414,-0.000113,-0.0009
94325,0.119993,-0.000292,-0.047709,0.087266,-0.0,-0.0,3.0,0.329698,0.320368,0.322448,0.331698,0.099327,-0.0,-0.0,0.018551,-0.0,-0.0,0.125962,-0.000509,-0.030333,-0.106431,-0.000114,-0.000886
94345,0.120724,-0.000281,-0.047582,0.087266,-0.0,-0.0,3.0,0.330705,0.324497,0.321405,0.327692,0.099691,-0.0,-0.0,0.017626,-0.0,-0.0,0.124096,-0.000512,-0.03035,-0.072614,-0.000126,-0.000871
94365,0.122561,-0.000367,-0.047448,0.087266,-0.0,-0.0,3.0,0.333083,0.329494,0.318909,0.322658,0.100037,-0.0,-0.0,0.01673,-0.0,-0.0,0.122937,-0.000514,-0.030368,-0.034989,-0.000147,-0.000843
94385,0.125252,-0.000432,-0.047307,0.087266,-0.0,-0.0,3.0,0.333993,0.335105,0.317939,0.316744,0.100365,-0.0,-0.0,0.015863,-0.0,-0.0,0.12256,-0.000517,-0.030384,0.005221,-0.000154,-0.000828
94405,0.128686,-0.000715,-0.047275,0.087266,-0.0,-0.0,3.0,0.335715,0.34084,0.316084,0.310395,0.100676,-0.0,-0.0,0.015024,-0.0,-0.0,0.122981,-0.00052,-0.030401,0.044623,-0.000158,-0.000825
94425,0.132602,-0.000744,-0.047252,0.087266,-0.0,-0.0,3.0,0.334329,0.346144,0.317579,0.304223,0.10097,-0.0,-0.0,0.014211,-0.0,-0.0,0.124144,-0.000522,-0.030417,0.078833,-0.000149,-0.000822
94445,0.136891,-0.000746,-0.047478,0.087266,-0.0,-0.0,3.0,0.333595,0.351381,0.318364,0.297825,0.101248,-0.0,-0.0,0.013426,-0.0,-0.0,0.125997,-0.000525,-0.030434,0.111946,-0.000137,-0.00083
94465,0.141053,-0.000873,-0.047685,0.087266,-0.0,-0.0,3.0,0.332617,0.355886,0.319401,0.292055,0.101511,-0.0,-0.0,0.012666,-0.0,-0.0,0.128448,-0.000528,-0.030451,0.138728,-0.000149,-0.00085
94485,0.145463,-0.000862,-0.048028,0.087266,-0.0,-0.0,3.0,0.331017,0.359919,0.321081,0.286662,0.101759,-0.0,-0.0,0.01193,-0.0,-0.0,0.131377,-0.000532,-0.030468,0.162202,-0.000159,-0.000881
94505,0.149625,-0.000976,-0.048353,0.087266,-0.0,-0.0,3.0,0.3323,0.362699,0.319736,0.282813,0.101992,-0.0,-0.0,0.011219,-0.0,-0.0,0.134635,-0.000535,-0.030486,0.171373,-0.000183,-0.000912
94525,0.153184,-0.000983,-0.048701,0.087266,-0.0,-0.0,3.0,0.333742,0.364475,0.318207,0.280292,0.102211,-0.0,-0.0,0.010532,-0.0,-0.0,0.138039,-0.000539,-0.030504,0.173451,-0.000208,-0.000942
94545,0.155757,-0.001256,-0.049021,0.087266,-0.0,-0.0,3.0,0.335353,0.36521,0.316476,0.279234,0.102417,-0.0,-0.0,0.009867,-0.0,-0.0,0.14143,-0.000543,-0.030523,0.165659,-0.00021,-0.000975
94565,0.157594,-0.001313,-0.049244,0.087266,-0.0,-0.0,3.0,0.332835,0.364639,0.319171,0.280056,0.102609,-0.0,-0.0,0.009225,-0.0,-0.0,0.1446,-0.000547,-0.030543,0.145719,-0.000191,-0.000997
94585,0.158087,-0.001159,-0.049501,0.087266,-0.0,-0.0,3.0,0.330969,0.362996,0.321131,0.282394,0.102789,-0.0,-0.0,0.008604,-0.0,-0.0,0.14737,-0.000551,-0.030563,0.117948,-0.000174,-0.001033
94605,0.157594,-0.000909,-0.049768,0.087266,-0.0,-0.0,3.0,0.330418,0.360496,0.321704,0.285873,0.102957,-0.0,-0.0,0.008004,-0.0,-0.0,0.1496,-0.000554,-0.030584,0.08751,-0.000173,-0.001043
94625,0.156,-0.000828,-0.049785,0.087266,-0.0,-0.0,3.0,0.330503,0.357064,0.321615,0.290503,0.103112,-0.0,-0.0,0.007424,-0.0,-0.0,0.15117,-0.000558,-0.030605,0.054315,-0.000174,-0.001053
94645,0.153791,-0.000874,-0.04991,0.087266,-0.0,-0.0,3.0,0.332892,0.352662,0.319111,0.29621,0.103257,-0.0,-0.0,0.006864,-0.0,-0.0,0.151969,-0.000562,-0.030626,0.018403,-0.000189,-0.001063
94665,0.151226,-0.00093,-0.050048,0.087266,-0.0,-0.0,3.0,0.334042,0.34771,0.317886,0.302344,0.10339,-0.0,-0.0,0.006324,-0.0,-0.0,0.151984,-0.000565,-0.030648,-0.018601,-0.000195,-0.001062
94685,0.147803,-0.001148,-0.049933,0.087266,-0.0,-0.0,3.0,0.335621,0.342779,0.316186,0.308174,0.103512,-0.0,-0.0,0.005802,-0.0,-0.0,0.151267,-0.000569,-0.030669,-0.053905,-0.000203,-0.001061
94705,0.144125,-0.001241,-0.049942,0.087266,-0.0,-0.0,3.0,0.332828,0.337912,0.319179,0.313677,0.103625,-0.0,-0.0,0.005298,-0.0,-0.0,0.149863,-0.000573,-0.03069,-0.088241,-0.000189,-0.001063
94725,0.139844,-0.001227,-0.049973,0.087266,-0.0,-0.0,3.0,0.333683,0.33336,0.31827,0.318615,0.103727,-0.0,-0.0,0.004811,-0.0,-0.0,0.147854,-0.000576,-0.030711,-0.119329,-0.000198,-0.001074
94745,0.13519,-0.001215,-0.050118,0.087266,-0.0,-0.0,3.0,0.331644,0.328953,0.320425,0.323213,0.10382,-0.0,-0.0,0.004342,-0.0,-0.0,0.145292,-0.000581,-0.030733,-0.147784,-0.000198,-0.001063
94765,0.130787,-0.001205,-0.050147,0.087266,-0.0,-0.0,3.0,0.332222,0.325336,0.319818,0.326862,0.103903,-0.0,-0.0,0.003889,-0.0,-0.0,0.142266,-0.000585,-0.030754,-0.164978,-0.000208,-0.001074
