time_ms,roll,pitch,yaw,reference_roll,reference_pitch,reference_yaw,reference_throttle,throttle_1,throttle_2,throttle_3,throttle_4,roll_predicted,pitch_predicted,yaw_predicted,roll_rate_predicted,pitch_rate_predicted,yaw_rate_predicted,value1,value2,value3,value4,value5,value6
148925,0.001374,0.006397,-0.0668,0.0,-0.0,-0.0,3.0,0.325588,0.325069,0.326611,0.327127,-0.0,-0.0,-0.005434,0.0,0.0,-0.000118,9e-06,0.001577,-0.054911,-0.002985,0.000346,-0.000326
148945,0.001504,0.006158,-0.066922,0.0,-0.0,-0.0,3.0,0.330036,0.325077,0.322099,0.327119,-0.0,-0.0,-0.005436,0.0,0.0,-0.000118,-1.4e-05,0.001581,-0.054916,-0.000784,0.000297,-0.000337
148965,0.001504,0.006158,-0.066922,0.0,-0.0,-0.0,3.0,0.326308,0.325028,0.325892,0.327168,-0.0,-0.0,-0.005439,0.0,0.0,-0.000118,-5.4e-05,0.001589,-0.054924,-0.000349,0.000321,-0.000336
148985,0.001386,0.006032,-0.067044,0.0,-0.0,-0.0,3.0,0.329237,0.324986,0.322922,0.327209,-0.0,-0.0,-0.005442,0.0,0.0,-0.000118,-9.1e-05,0.001595,-0.054931,-0.00147,0.000307,-0.000348
149005,0.001385,0.006032,-0.067165,0.0,-0.0,-0.0,3.0,0.330469,0.32497,0.321651,0.327225,-0.0,-0.0,-0.005444,0.0,0.0,-0.000118,-0.000133,0.001602,-0.054938,-0.000892,0.000307,-0.000359
149025,0.001385,0.006032,-0.067165,0.0,-0.0,-0.0,3.0,0.333899,0.324896,0.31804,0.327298,-0.0,-0.0,-0.005446,0.0,0.0,-0.000118,-0.000176,0.001608,-0.054945,-0.000304,0.000306,-0.000359
149045,0.001381,0.006154,-0.067165,0.0,-0.0,-0.0,3.0,0.33266,0.324961,0.319357,0.327234,-0.0,-0.0,-0.005449,0.0,0.0,-0.000118,-0.000201,0.001615,-0.054952,-2.9e-05,0.000318,-0.000358
149065,0.001129,0.006389,-0.067287,0.0,-0.0,-0.0,3.0,0.332096,0.32497,0.319951,0.327225,-0.0,-0.0,-0.005451,0.0,0.0,-0.000118,-0.000204,0.001622,-0.054959,-0.003424,0.00034,-0.000369
149085,0.001124,0.006511,-0.067287,0.0,-0.0,-0.0,3.0,0.328797,0.325054,0.323373,0.327142,-0.0,-0.0,-0.005453,0.0,0.0,-0.000118,-0.000212,0.001628,-0.054967,-0.003378,0.000352,-0.000369
149105,0.001238,0.00676,-0.067409,0.0,-0.0,-0.0,3.0,0.326644,0.325128,0.325555,0.327068,-0.0,-0.0,-0.005456,0.0,0.0,-0.000118,-0.000218,0.001635,-0.054974,-0.00175,0.000376,-0.00038
149125,0.001242,0.006638,-0.067409,0.0,-0.0,-0.0,3.0,0.327261,0.325097,0.324934,0.327099,-0.0,-0.0,-0.005458,0.0,0.0,-0.000118,-0.000238,0.001642,-0.054982,-0.001416,0.000363,-0.000379
149145,0.001359,0.006764,-0.067531,0.0,-0.0,-0.0,3.0,0.327025,0.325184,0.325172,0.327013,-0.0,-0.0,-0.005461,0.0,0.0,-0.000118,-0.000261,0.001649,-0.054989,0.000499,0.000375,-0.000391
149165,0.001246,0.006516,-0.067531,0.0,-0.0,-0.0,3.0,0.333521,0.324945,0.318442,0.32725,-0.0,-0.0,-0.005462,0.0,0.0,-0.000118,-0.000294,0.001655,-0.054995,0.00113,0.000338,-0.000378
149185,0.001364,0.006642,-0.067531,0.0,-0.0,-0.0,3.0,0.330564,0.324896,0.321552,0.327298,-0.0,-0.0,-0.005465,0.0,0.0,-0.000118,-0.000342,0.001664,-0.055005,0.001666,0.000361,-0.000389
149205,0.001124,0.006512,-0.06753,0.0,-0.0,-0.0,3.0,0.333002,0.324731,0.318994,0.327462,-0.0,-0.0,-0.005468,0.0,0.0,-0.000118,-0.000393,0.001671,-0.055012,-0.000921,0.000348,-0.000388
149225,0.000749,0.006743,-0.067529,0.0,-0.0,-0.0,3.0,0.331397,0.324564,0.320684,0.327626,-0.0,-0.0,-0.00547,0.0,0.0,-0.000118,-0.000453,0.001679,-0.05502,-0.005213,0.00037,-0.000387
149245,0.000379,0.006853,-0.067528,0.0,-0.0,-0.0,3.0,0.330472,0.324441,0.321647,0.327748,-0.0,-0.0,-0.005472,0.0,0.0,-0.000118,-0.000534,0.001686,-0.055028,-0.00916,0.00038,-0.000387
149265,0.000249,0.007093,-0.067528,0.0,-0.0,-0.0,3.0,0.327627,0.324415,0.324563,0.327774,-0.0,-0.0,-0.005475,0.0,0.0,-0.000118,-0.000637,0.001694,-0.055036,-0.009522,0.000404,-0.000386
149285,0.000249,0.007093,-0.067528,0.0,-0.0,-0.0,3.0,0.327933,0.324381,0.324254,0.327807,-0.0,-0.0,-0.005477,0.0,0.0,-0.000118,-0.000761,0.001702,-0.055043,-0.007838,0.000403,-0.000385
149305,0.000127,0.007089,-0.067527,0.0,-0.0,-0.0,3.0,0.328474,0.324287,0.323703,0.3279,-0.0,-0.0,-0.005479,0.0,0.0,-0.000118,-0.0009,0.00171,-0.055051,-0.007606,0.000402,-0.000384
149325,0.000131,0.006967,-0.067527,0.0,-0.0,-0.0,3.0,0.330082,0.324213,0.322051,0.327973,-0.0,-0.0,-0.005482,0.0,0.0,-0.000118,-0.001058,0.001718,-0.055059,-0.005387,0.000389,-0.000383
149345,-0.000117,0.00708,-0.067648,0.0,-0.0,-0.0,3.0,0.328857,0.323957,0.323312,0.328225,-0.0,-0.0,-0.005484,0.0,0.0,-0.000118,-0.001233,0.001725,-0.055067,-0.006392,0.000399,-0.000395
149365,-0.000361,0.007072,-0.067647,0.0,-0.0,-0.0,3.0,0.329653,0.323698,0.322494,0.328479,-0.0,-0.0,-0.005487,0.0,0.0,-0.000118,-0.001427,0.001733,-0.055075,-0.007073,0.000398,-0.000394
149385,-0.000601,0.006942,-0.067646,0.0,-0.0,-0.0,3.0,0.329943,0.323606,0.322195,0.328568,-0.0,-0.0,-0.005489,0.0,0.0,-0.000118,-0.001611,0.001741,-0.055082,-0.007844,0.000384,-0.000393
149405,-0.001093,0.007047,-0.067645,0.0,-0.0,-0.0,3.0,0.32914,0.323426,0.323022,0.328745,-0.0,-0.0,-0.005491,0.0,0.0,-0.000118,-0.001793,0.001749,-0.05509,-0.012065,0.000393,-0.000392
149425,-0.001333,0.006917,-0.067644,0.0,-0.0,-0.0,3.0,0.329899,0.323446,0.322241,0.328726,-0.0,-0.0,-0.005494,0.0,0.0,-0.000118,-0.00198,0.001757,-0.055098,-0.012788,0.00038,-0.000391
149445,-0.001455,0.006913,-0.067643,0.0,-0.0,-0.0,3.0,0.330108,0.323449,0.322025,0.328723,-0.0,-0.0,-0.005496,0.0,0.0,-0.000118,-0.002165,0.001764,-0.055106,-0.011929,0.000379,-0.00039
149465,-0.001577,0.006909,-0.067643,0.0,-0.0,-0.0,3.0,0.330441,0.323378,0.32168,0.328792,-0.0,-0.0,-0.005498,0.0,0.0,-0.000118,-0.002365,0.001772,-0.055114,-0.01087,0.000377,-0.00039
149485,-0.001455,0.006913,-0.067522,0.0,-0.0,-0.0,3.0,0.331124,0.323617,0.320969,0.328558,-0.0,-0.0,-0.005501,0.0,0.0,-0.000118,-0.002529,0.00178,-0.055121,-0.006958,0.000377,-0.000377
149505,-0.001573,0.006787,-0.067521,0.0,-0.0,-0.0,3.0,0.332399,0.323445,0.319631,0.328726,-0.0,-0.0,-0.005503,0.0,0.0,-0.000118,-0.002701,0.001787,-0.055129,-0.006225,0.000364,-0.000376
149525,-0.001459,0.007035,-0.0674,0.0,-0.0,-0.0,3.0,0.328548,0.323596,0.323627,0.328579,-0.0,-0.0,-0.005506,0.0,0.0,-0.000118,-0.002843,0.001795,-0.055136,-0.002716,0.000388,-0.000363
149545,-0.001703,0.007027,-0.067399,0.0,-0.0,-0.0,3.0,0.328908,0.323491,0.323259,0.328681,-0.0,-0.0,-0.005508,0.0,0.0,-0.000118,-0.002955,0.001802,-0.055144,-0.004524,0.000386,-0.000362
149565,-0.001824,0.007023,-0.067277,0.0,-0.0,-0.0,3.0,0.327284,0.323424,0.32491,0.328747,-0.0,-0.0,-0.00551,0.0,0.0,-0.000118,-0.003068,0.00181,-0.055151,-0.004647,0.000385,-0.000349
149585,-0.001946,0.007019,-0.067276,0.0,-0.0,-0.0,3.0,0.32687,0.323501,0.325328,0.328672,-0.0,-0.0,-0.005513,0.0,0.0,-0.000118,-0.003152,0.001817,-0.055158,-0.005166,0.000384,-0.000348
149605,-0.002064,0.006893,-0.067276,0.0,-0.0,-0.0,3.0,0.32824,0.323657,0.323941,0.328519,-0.0,-0.0,-0.005515,0.0,0.0,-0.000118,-0.003212,0.001824,-0.055165,-0.005946,0.00037,-0.000348
149625,-0.00206,0.006771,-0.067276,0.0,-0.0,-0.0,3.0,0.3305,0.323675,0.321618,0.328501,-0.0,-0.0,-0.005517,0.0,0.0,-0.000118,-0.00328,0.001832,-0.055172,-0.004961,0.000358,-0.000347
149645,-0.001934,0.006653,-0.067277,0.0,-0.0,-0.0,3.0,0.332414,0.323773,0.319616,0.328405,-0.0,-0.0,-0.00552,0.0,0.0,-0.000118,-0.003331,0.001839,-0.055178,-0.002543,0.000345,-0.000346
149665,-0.001808,0.006535,-0.067277,0.0,-0.0,-0.0,3.0,0.33461,0.323751,0.317278,0.328427,-0.0,-0.0,-0.005522,0.0,0.0,-0.000118,-0.003387,0.001846,-0.055185,-6.8e-05,0.000332,-0.000346
149685,-0.001938,0.006775,-0.067277,0.0,-0.0,-0.0,3.0,0.331318,0.323703,0.320767,0.328474,-0.0,-0.0,-0.005525,0.0,0.0,-0.000118,-0.003435,0.001854,-0.055192,-0.001178,0.000356,-0.000345
149705,-0.00206,0.006771,-0.067154,0.0,-0.0,-0.0,3.0,0.330948,0.323618,0.321153,0.328557,-0.0,-0.0,-0.005527,0.0,0.0,-0.000118,-0.003481,0.001861,-0.055199,-0.002221,0.000355,-0.000332
149725,-0.002064,0.006893,-0.067154,0.0,-0.0,-0.0,3.0,0.32671,0.323653,0.325489,0.328523,-0.0,-0.0,-0.005529,0.0,0.0,-0.000118,-0.00352,0.001867,-0.055206,-0.001743,0.000366,-0.000331
149745,-0.002064,0.006893,-0.067154,0.0,-0.0,-0.0,3.0,0.324967,0.323668,0.327229,0.328508,-0.0,-0.0,-0.005532,0.0,0.0,-0.000118,-0.003549,0.001874,-0.055213,-0.001344,0.000366,-0.000331
149765,-0.002178,0.006645,-0.067276,0.0,-0.0,-0.0,3.0,0.326268,0.32365,0.325932,0.328525,-0.0,-0.0,-0.005534,0.0,0.0,-0.000118,-0.00357,0.001881,-0.055219,-0.002611,0.00034,-0.000342
149785,-0.002052,0.006527,-0.067276,0.0,-0.0,-0.0,3.0,0.328725,0.32381,0.323446,0.328369,-0.0,-0.0,-0.005536,0.0,0.0,-0.000118,-0.003585,0.001887,-0.055226,-0.00069,0.000328,-0.000342
149805,-0.002048,0.006405,-0.067276,0.0,-0.0,-0.0,3.0,0.33179,0.323802,0.320272,0.328377,-0.0,-0.0,-0.005539,0.0,0.0,-0.000118,-0.003591,0.001894,-0.055233,-0.000559,0.000315,-0.000341
149825,-0.001804,0.006413,-0.067277,0.0,-0.0,-0.0,3.0,0.333283,0.323834,0.318696,0.328346,-0.0,-0.0,-0.005541,0.0,0.0,-0.000118,-0.003603,0.001901,-0.055239,0.00294,0.000315,-0.00034
149845,-0.001922,0.006287,-0.067277,0.0,-0.0,-0.0,3.0,0.335076,0.323821,0.316776,0.328358,-0.0,-0.0,-0.005543,0.0,0.0,-0.000118,-0.003591,0.001908,-0.055246,0.001169,0.000302,-0.00034
149865,-0.002048,0.006405,-0.067276,0.0,-0.0,-0.0,3.0,0.33323,0.32374,0.318752,0.328438,-0.0,-0.0,-0.005546,0.0,0.0,-0.000118,-0.003588,0.001914,-0.055253,-0.000589,0.000313,-0.000339
149885,-0.002174,0.006523,-0.067276,0.0,-0.0,-0.0,3.0,0.330618,0.323694,0.321495,0.328483,-0.0,-0.0,-0.005548,0.0,0.0,-0.000118,-0.003585,0.001921,-0.05526,-0.002354,0.000324,-0.000338
149905,-0.002177,0.006645,-0.067154,0.0,-0.0,-0.0,3.0,0.328031,0.323625,0.324154,0.32855,-0.0,-0.0,-0.005551,0.0,0.0,-0.000118,-0.003604,0.001927,-0.055266,-0.002145,0.000335,-0.000325
149925,-0.002299,0.006641,-0.067154,0.0,-0.0,-0.0,3.0,0.326616,0.32354,0.325583,0.328634,-0.0,-0.0,-0.005553,0.0,0.0,-0.000118,-0.00364,0.001933,-0.055273,-0.003317,0.000334,-0.000325
149945,-0.002299,0.006641,-0.067154,0.0,-0.0,-0.0,3.0,0.326919,0.323665,0.325279,0.328511,-0.0,-0.0,-0.005555,0.0,0.0,-0.000118,-0.003666,0.001939,-0.05528,-0.002967,0.000334,-0.000324
149965,-0.002173,0.006523,-0.067154,0.0,-0.0,-0.0,3.0,0.328522,0.323636,0.323653,0.328539,-0.0,-0.0,-0.005558,0.0,0.0,-0.000118,-0.003701,0.001946,-0.055286,-0.00076,0.000321,-0.000323
149985,-0.001925,0.006409,-0.067155,0.0,-0.0,-0.0,3.0,0.330163,0.323678,0.321968,0.328499,-0.0,-0.0,-0.00556,0.0,0.0,-0.000118,-0.00373,0.001952,-0.055293,0.003014,0.000309,-0.000323
150005,-0.002043,0.006283,-0.067155,0.0,-0.0,-0.0,3.0,0.331591,0.323584,0.320481,0.328591,-0.0,-0.0,-0.005562,0.0,0.0,-0.000118,-0.003746,0.001959,-0.055299,0.001627,0.000296,-0.000322
150025,-0.002165,0.006279,-0.067154,0.0,-0.0,-0.0,3.0,0.330274,0.323525,0.321853,0.328648,-0.0,-0.0,-0.005565,0.0,0.0,-0.000118,-0.003764,0.001965,-0.055305,0.000208,0.000295,-0.000321
150045,-0.002283,0.006153,-0.067154,0.0,-0.0,-0.0,3.0,0.332444,0.323535,0.319584,0.328638,-0.0,-0.0,-0.005567,0.0,0.0,-0.000118,-0.003763,0.001971,-0.055312,-0.001424,0.000282,-0.000321
150065,-0.002401,0.006027,-0.067154,0.0,-0.0,-0.0,3.0,0.331539,0.323376,0.320535,0.328794,-0.0,-0.0,-0.00557,0.0,0.0,-0.000118,-0.003783,0.001976,-0.055318,-0.002759,0.000269,-0.00032
150085,-0.002409,0.006271,-0.067032,0.0,-0.0,-0.0,3.0,0.329473,0.323543,0.32268,0.328631,-0.0,-0.0,-0.005572,0.0,0.0,-0.000118,-0.003787,0.001982,-0.055324,-0.002804,0.000293,-0.000307
150105,-0.002409,0.006271,-0.067032,0.0,-0.0,-0.0,3.0,0.329005,0.323628,0.32316,0.328548,-0.0,-0.0,-0.005574,0.0,0.0,-0.000118,-0.00379,0.001988,-0.055331,-0.002771,0.000292,-0.000307
150125,-0.002291,0.006397,-0.067154,0.0,-0.0,-0.0,3.0,0.328909,0.323732,0.323258,0.328445,-0.0,-0.0,-0.005577,0.0,0.0,-0.000118,-0.003784,0.001993,-0.055337,-0.001248,0.000304,-0.000318
150145,-0.001921,0.006287,-0.067155,0.0,-0.0,-0.0,3.0,0.330036,0.323793,0.322099,0.328386,-0.0,-0.0,-0.005579,0.0,0.0,-0.000118,-0.003781,0.001999,-0.055343,0.003771,0.000292,-0.000318
150165,-0.001926,0.006409,-0.067277,0.0,-0.0,-0.0,3.0,0.327907,0.323781,0.324279,0.328398,-0.0,-0.0,-0.005581,0.0,0.0,-0.000118,-0.003759,0.002005,-0.05535,0.0034,0.000304,-0.000329
150185,-0.001922,0.006287,-0.067277,0.0,-0.0,-0.0,3.0,0.328712,0.323737,0.32346,0.32844,-0.0,-0.0,-0.005584,0.0,0.0,-0.000118,-0.003742,0.002011,-0.055356,0.003229,0.000291,-0.000329
150205,-0.001926,0.006409,-0.067277,0.0,-0.0,-0.0,3.0,0.326928,0.323771,0.32527,0.328407,-0.0,-0.0,-0.005586,0.0,0.0,-0.000118,-0.003699,0.002017,-0.055363,0.002594,0.000303,-0.000328
150225,-0.002039,0.006161,-0.067277,0.0,-0.0,-0.0,3.0,0.332529,0.32368,0.319495,0.328496,-0.0,-0.0,-0.005588,0.0,0.0,-0.000118,-0.003663,0.002021,-0.055368,-0.00273,0.000265,-0.000327
150245,-0.002044,0.006283,-0.067277,0.0,-0.0,-0.0,3.0,0.329628,0.323721,0.32252,0.328457,-0.0,-0.0,-0.005591,0.0,0.0,-0.000118,-0.003642,0.002028,-0.055376,0.000195,0.000289,-0.000327
150265,-0.002157,0.006035,-0.067276,0.0,-0.0,-0.0,3.0,0.33298,0.32365,0.319018,0.328526,-0.0,-0.0,-0.005593,0.0,0.0,-0.000118,-0.003616,0.002034,-0.055383,-0.001711,0.000264,-0.000326
150285,-0.001922,0.006287,-0.067277,0.0,-0.0,-0.0,3.0,0.330547,0.323862,0.32157,0.328318,-0.0,-0.0,-0.005596,0.0,0.0,-0.000118,-0.003593,0.00204,-0.055389,0.00119,0.000288,-0.000325
150305,-0.001917,0.006165,-0.067277,0.0,-0.0,-0.0,3.0,0.332403,0.323807,0.319627,0.328372,-0.0,-0.0,-0.005598,0.0,0.0,-0.000118,-0.003563,0.002046,-0.055396,0.000839,0.000276,-0.000325
150325,-0.001682,0.006417,-0.067278,0.0,-0.0,-0.0,3.0,0.328903,0.323817,0.323264,0.328362,-0.0,-0.0,-0.0056,0.0,0.0,-0.000118,-0.003554,0.002051,-0.055402,0.003943,0.0003,-0.000324
150345,-0.001804,0.006413,-0.067277,0.0,-0.0,-0.0,3.0,0.327497,0.323819,0.324695,0.32836,-0.0,-0.0,-0.005603,0.0,0.0,-0.000118,-0.003519,0.002057,-0.055409,0.001801,0.000299,-0.000323
150365,-0.001808,0.006535,-0.067399,0.0,-0.0,-0.0,3.0,0.324569,0.32366,0.327622,0.328516,-0.0,-0.0,-0.005605,0.0,0.0,-0.000118,-0.003508,0.002062,-0.055415,0.00159,0.000311,-0.000335
150385,-0.0018,0.006291,-0.067521,0.0,-0.0,-0.0,3.0,0.332509,0.323605,0.319515,0.32857,-0.0,-0.0,-0.005607,0.0,0.0,-0.000118,-0.003493,0.002067,-0.05542,-0.001727,0.000261,-0.000347
150405,-0.001796,0.006169,-0.067521,0.0,-0.0,-0.0,3.0,0.329493,0.323708,0.322659,0.328469,-0.0,-0.0,-0.00561,0.0,0.0,-0.000118,-0.003473,0.002074,-0.055429,0.001269,0.000273,-0.000346
150425,-0.001914,0.006043,-0.067521,0.0,-0.0,-0.0,3.0,0.331847,0.323715,0.320213,0.328462,-0.0,-0.0,-0.005612,0.0,0.0,-0.000118,-0.003436,0.002079,-0.055436,-0.000845,0.00026,-0.000345
150445,-0.001796,0.006169,-0.067521,0.0,-0.0,-0.0,3.0,0.331763,0.323851,0.320301,0.328329,-0.0,-0.0,-0.005615,0.0,0.0,-0.000118,-0.003398,0.002085,-0.055442,0.00025,0.000272,-0.000344
150465,-0.001548,0.006055,-0.067522,0.0,-0.0,-0.0,3.0,0.334033,0.323945,0.317896,0.328236,-0.0,-0.0,-0.005617,0.0,0.0,-0.000118,-0.003349,0.002091,-0.055449,0.002961,0.00026,-0.000344
150485,-0.00143,0.006181,-0.067522,0.0,-0.0,-0.0,3.0,0.331425,0.323962,0.320655,0.328219,-0.0,-0.0,-0.005619,0.0,0.0,-0.000118,-0.003296,0.002096,-0.055456,0.003852,0.000272,-0.000343
150505,-0.001556,0.006299,-0.067522,0.0,-0.0,-0.0,3.0,0.330613,0.324007,0.321501,0.328175,-0.0,-0.0,-0.005622,0.0,0.0,-0.000118,-0.003226,0.002102,-0.055463,0.001178,0.000283,-0.000342
150525,-0.00156,0.006421,-0.067522,0.0,-0.0,-0.0,3.0,0.327225,0.323863,0.32497,0.328317,-0.0,-0.0,-0.005624,0.0,0.0,-0.000118,-0.003189,0.002107,-0.05547,0.000606,0.000295,-0.000342
150545,-0.001316,0.006429,-0.067522,0.0,-0.0,-0.0,3.0,0.326945,0.324001,0.325252,0.328182,-0.0,-0.0,-0.005626,0.0,0.0,-0.000118,-0.003145,0.002113,-0.055477,0.003335,0.000295,-0.000341
150565,-0.001313,0.006307,-0.067644,0.0,-0.0,-0.0,3.0,0.327498,0.323899,0.324695,0.328282,-0.0,-0.0,-0.005629,0.0,0.0,-0.000118,-0.003106,0.002118,-0.055484,0.002858,0.000283,-0.000353
150585,-0.001187,0.006189,-0.067645,0.0,-0.0,-0.0,3.0,0.328784,0.323899,0.323386,0.328282,-0.0,-0.0,-0.005631,0.0,0.0,-0.000118,-0.003077,0.002124,-0.055491,0.004179,0.00027,-0.000352
150605,-0.001305,0.006063,-0.067766,0.0,-0.0,-0.0,3.0,0.331146,0.323898,0.320946,0.328282,-0.0,-0.0,-0.005634,0.0,0.0,-0.000118,-0.003033,0.002129,-0.055498,0.001967,0.000257,-0.000363
150625,-0.001305,0.006063,-0.067766,0.0,-0.0,-0.0,3.0,0.3304,0.323897,0.321722,0.328283,-0.0,-0.0,-0.005636,0.0,0.0,-0.000118,-0.00299,0.002134,-0.055505,0.00139,0.000257,-0.000363
150645,-0.001305,0.006063,-0.067766,0.0,-0.0,-0.0,3.0,0.331259,0.323882,0.320828,0.328299,-0.0,-0.0,-0.005638,0.0,0.0,-0.000118,-0.002951,0.00214,-0.055512,0.000853,0.000256,-0.000362
150665,-0.001183,0.006067,-0.067766,0.0,-0.0,-0.0,3.0,0.3309,0.323886,0.321203,0.328294,-0.0,-0.0,-0.005641,0.0,0.0,-0.000118,-0.002921,0.002145,-0.055519,0.002111,0.000256,-0.000361
150685,-0.001065,0.006193,-0.067645,0.0,-0.0,-0.0,3.0,0.329559,0.323983,0.322591,0.328199,-0.0,-0.0,-0.005643,0.0,0.0,-0.000118,-0.002883,0.00215,-0.055526,0.003208,0.000268,-0.000348
150705,-0.001065,0.006193,-0.067645,0.0,-0.0,-0.0,3.0,0.329553,0.324134,0.322597,0.32805,-0.0,-0.0,-0.005645,0.0,0.0,-0.000118,-0.002809,0.002156,-0.055534,0.002196,0.000267,-0.000348
150725,-0.000821,0.006202,-0.067646,0.0,-0.0,-0.0,3.0,0.329259,0.324183,0.3229,0.328002,-0.0,-0.0,-0.005647,0.0,0.0,-0.000118,-0.002762,0.00216,-0.055539,0.004879,0.000268,-0.000359
150745,-0.000577,0.00621,-0.067647,0.0,-0.0,-0.0,3.0,0.329062,0.324374,0.323102,0.327814,-0.0,-0.0,-0.00565,0.0,0.0,-0.000118,-0.002647,0.002166,-0.055548,0.006642,0.000268,-0.000346
150765,-0.000577,0.00621,-0.067768,0.0,-0.0,-0.0,3.0,0.329219,0.324268,0.322941,0.327918,-0.0,-0.0,-0.005652,0.0,0.0,-0.000118,-0.002558,0.002171,-0.055555,0.00543,0.000268,-0.000358
150785,-0.000329,0.006096,-0.067769,0.0,-0.0,-0.0,3.0,0.328686,0.324451,0.323486,0.327738,-0.0,-0.0,-0.005655,0.0,0.0,-0.000118,-0.002459,0.002176,-0.055562,0.007461,0.000256,-0.000357
150805,-0.000451,0.006092,-0.067769,0.0,-0.0,-0.0,3.0,0.328426,0.324521,0.323751,0.32767,-0.0,-0.0,-0.005657,0.0,0.0,-0.000118,-0.002324,0.002181,-0.055569,0.003953,0.000255,-0.000357
150825,-0.000325,0.005974,-0.067769,0.0,-0.0,-0.0,3.0,0.328968,0.324552,0.323198,0.327639,-0.0,-0.0,-0.00566,0.0,0.0,-0.000118,-0.002213,0.002186,-0.055576,0.004155,0.000242,-0.000356
150845,-7.6e-05,0.00586,-0.067648,0.0,-0.0,-0.0,3.0,0.330605,0.32464,0.321509,0.327552,-0.0,-0.0,-0.005662,0.0,0.0,-0.000118,-0.002092,0.002191,-0.055583,0.005894,0.000231,-0.000343
150865,-7.2e-05,0.005738,-0.067648,0.0,-0.0,-0.0,3.0,0.331821,0.324526,0.32024,0.327664,-0.0,-0.0,-0.005664,0.0,0.0,-0.000118,-0.001994,0.002196,-0.05559,0.004611,0.000218,-0.000342
150885,-7.6e-05,0.00586,-0.067526,0.0,-0.0,-0.0,3.0,0.331351,0.324533,0.320732,0.327657,-0.0,-0.0,-0.005667,0.0,0.0,-0.000118,-0.001911,0.002201,-0.055596,0.003434,0.00023,-0.00033
150905,-0.000193,0.005734,-0.067404,0.0,-0.0,-0.0,3.0,0.329128,0.324403,0.323034,0.327786,-0.0,-0.0,-0.005668,0.0,0.0,-0.000118,-0.001872,0.002204,-0.055601,0.004504,0.000242,-0.000329
150925,4.7e-05,0.005865,-0.067405,0.0,-0.0,-0.0,3.0,0.330009,0.324283,0.322127,0.327904,-0.0,-0.0,-0.005671,0.0,0.0,-0.000118,-0.001832,0.00221,-0.055609,0.004025,0.000229,-0.000316
150945,-0.000197,0.005856,-0.067404,0.0,-0.0,-0.0,3.0,0.329073,0.324201,0.32309,0.327985,-0.0,-0.0,-0.005674,0.0,0.0,-0.000118,-0.001798,0.002214,-0.055616,0.000223,0.000228,-0.000315
150965,-0.000319,0.005852,-0.067404,0.0,-0.0,-0.0,3.0,0.326812,0.323994,0.325386,0.328188,-0.0,-0.0,-0.005676,0.0,0.0,-0.000118,-0.001815,0.002218,-0.055622,-0.001204,0.000227,-0.000315
150985,-0.000315,0.00573,-0.067282,0.0,-0.0,-0.0,3.0,0.327094,0.32408,0.325102,0.328104,-0.0,-0.0,-0.005679,0.0,0.0,-0.000118,-0.001819,0.002222,-0.055628,-0.001092,0.000214,-0.000302
151005,-0.000307,0.005486,-0.067282,0.0,-0.0,-0.0,3.0,0.329126,0.323948,0.323036,0.328233,-0.0,-0.0,-0.005681,0.0,0.0,-0.000118,-0.001845,0.002226,-0.055634,-0.000617,0.00019,-0.000301
151025,-0.000298,0.005242,-0.06716,0.0,-0.0,-0.0,3.0,0.330792,0.324055,0.321314,0.328128,-0.0,-0.0,-0.005683,0.0,0.0,-0.000118,-0.001855,0.00223,-0.05564,-0.000366,0.000165,-0.000289
151045,-0.00029,0.004998,-0.067039,0.0,-0.0,-0.0,3.0,0.334369,0.324118,0.317536,0.328066,-0.0,-0.0,-0.005686,0.0,0.0,-0.000118,-0.001855,0.002234,-0.055645,-0.000257,0.00014,-0.000276
151065,-0.000159,0.004758,-0.066917,0.0,-0.0,-0.0,3.0,0.335322,0.324183,0.31651,0.328002,-0.0,-0.0,-0.005688,0.0,0.0,-0.000118,-0.001845,0.002237,-0.055651,0.001396,0.000116,-0.000263
151085,-4.5e-05,0.005006,-0.066796,0.0,-0.0,-0.0,3.0,0.33222,0.324168,0.319821,0.328017,-0.0,-0.0,-0.00569,0.0,0.0,-0.000118,-0.001838,0.00224,-0.055656,0.002855,0.00014,-0.000251
151105,-0.000289,0.004998,-0.066673,0.0,-0.0,-0.0,3.0,0.33124,0.324084,0.320848,0.3281,-0.0,-0.0,-0.005693,0.0,0.0,-0.000118,-0.001818,0.002242,-0.055661,-0.000742,0.000139,-0.000238
151125,-0.000171,0.005124,-0.066795,0.0,-0.0,-0.0,3.0,0.326963,0.324249,0.325235,0.327938,-0.0,-0.0,-0.005695,0.0,0.0,-0.000118,-0.001799,0.002245,-0.055666,0.000596,0.000152,-0.00025
151145,-0.000171,0.005124,-0.066795,0.0,-0.0,-0.0,3.0,0.324913,0.324363,0.327282,0.327825,-0.0,-0.0,-0.005697,0.0,0.0,-0.000118,-0.001746,0.002247,-0.055671,-0.000124,0.000151,-0.000249
151165,0.000203,0.004893,-0.066918,0.0,-0.0,-0.0,3.0,0.326518,0.324404,0.325681,0.327785,-0.0,-0.0,-0.0057,0.0,0.0,-0.000118,-0.001721,0.002249,-0.055676,0.004641,0.000128,-0.000261
151185,0.000328,0.004775,-0.06704,0.0,-0.0,-0.0,3.0,0.32906,0.324625,0.323104,0.327566,-0.0,-0.0,-0.005702,0.0,0.0,-0.000118,-0.001643,0.002252,-0.055681,0.005298,0.000116,-0.000272
151205,0.000215,0.004527,-0.06704,0.0,-0.0,-0.0,3.0,0.332767,0.324556,0.319243,0.327634,-0.0,-0.0,-0.005705,0.0,0.0,-0.000118,-0.001571,0.002254,-0.055687,0.002758,9.1e-05,-0.000272
151225,0.000455,0.004657,-0.06704,0.0,-0.0,-0.0,3.0,0.334492,0.324684,0.317405,0.327508,-0.0,-0.0,-0.005707,0.0,0.0,-0.000118,-0.001494,0.002257,-0.055692,0.004979,0.000104,-0.000271
151245,0.000573,0.004783,-0.067041,0.0,-0.0,-0.0,3.0,0.334488,0.324555,0.317409,0.327635,-0.0,-0.0,-0.005709,0.0,0.0,-0.000118,-0.001432,0.00226,-0.055697,0.005739,0.000116,-0.000271
151265,0.000556,0.005271,-0.067041,0.0,-0.0,-0.0,3.0,0.330834,0.324634,0.321271,0.327557,-0.0,-0.0,-0.005712,0.0,0.0,-0.000118,-0.001347,0.002263,-0.055703,0.004363,0.000164,-0.00027
151285,0.000426,0.005511,-0.067162,0.0,-0.0,-0.0,3.0,0.327568,0.324677,0.324623,0.327515,-0.0,-0.0,-0.005714,0.0,0.0,-0.000118,-0.001253,0.002266,-0.055709,0.001298,0.000188,-0.000282
151305,0.000539,0.005759,-0.067285,0.0,-0.0,-0.0,3.0,0.325076,0.324837,0.32712,0.327357,-0.0,-0.0,-0.005716,0.0,0.0,-0.000118,-0.001193,0.002268,-0.055713,0.005463,0.000189,-0.000306
151325,0.000787,0.005645,-0.067407,0.0,-0.0,-0.0,3.0,0.325791,0.324896,0.326409,0.327298,-0.0,-0.0,-0.005719,0.0,0.0,-0.000118,-0.001085,0.002273,-0.05572,0.003936,0.000201,-0.000305
151345,0.000913,0.005527,-0.067407,0.0,-0.0,-0.0,3.0,0.326602,0.324898,0.325598,0.327296,-0.0,-0.0,-0.005721,0.0,0.0,-0.000118,-0.00101,0.002276,-0.055726,0.004636,0.000189,-0.000305
151365,0.000925,0.005161,-0.067529,0.0,-0.0,-0.0,3.0,0.331065,0.324713,0.321031,0.32748,-0.0,-0.0,-0.005724,0.0,0.0,-0.000118,-0.000971,0.00228,-0.055732,0.004267,0.000152,-0.000316
151385,0.000803,0.005157,-0.067407,0.0,-0.0,-0.0,3.0,0.331523,0.324518,0.320552,0.327672,-0.0,-0.0,-0.005726,0.0,0.0,-0.000118,-0.000951,0.002283,-0.055738,0.002324,0.000151,-0.000303
151405,0.000807,0.005035,-0.067407,0.0,-0.0,-0.0,3.0,0.33477,0.32445,0.317106,0.327739,-0.0,-0.0,-0.005728,0.0,0.0,-0.000118,-0.000943,0.002287,-0.055745,0.002279,0.000139,-0.000303
151425,0.000804,0.005157,-0.067285,0.0,-0.0,-0.0,3.0,0.333185,0.324509,0.3188,0.327681,-0.0,-0.0,-0.005731,0.0,0.0,-0.000118,-0.000914,0.00229,-0.055751,0.001827,0.00015,-0.00029
151445,0.000677,0.005275,-0.067285,0.0,-0.0,-0.0,3.0,0.332775,0.324537,0.319235,0.327653,-0.0,-0.0,-0.005733,0.0,0.0,-0.000118,-0.000877,0.002294,-0.055757,-0.000405,0.000162,-0.000289
151465,0.000543,0.005637,-0.067284,0.0,-0.0,-0.0,3.0,0.326784,0.324631,0.325415,0.327561,-0.0,-0.0,-0.005735,0.0,0.0,-0.000118,-0.00083,0.002297,-0.055762,-0.00288,0.000198,-0.000289
151485,0.000665,0.005641,-0.067285,0.0,-0.0,-0.0,3.0,0.327622,0.324632,0.324569,0.327559,-0.0,-0.0,-0.005738,0.0,0.0,-0.000118,-0.00081,0.002301,-0.055768,-0.001488,0.000198,-0.000288
151505,0.000913,0.005527,-0.067407,0.0,-0.0,-0.0,3.0,0.327463,0.324806,0.32473,0.327387,-0.0,-0.0,-0.00574,0.0,0.0,-0.000118,-0.000786,0.002304,-0.055774,0.001566,0.000186,-0.0003
151525,0.001039,0.005409,-0.067407,0.0,-0.0,-0.0,3.0,0.329611,0.32481,0.322537,0.327383,-0.0,-0.0,-0.005742,0.0,0.0,-0.000118,-0.000762,0.002308,-0.05578,0.002967,0.000174,-0.000299
151545,0.001165,0.005292,-0.067529,0.0,-0.0,-0.0,3.0,0.330602,0.324752,0.321512,0.327441,-0.0,-0.0,-0.005745,0.0,0.0,-0.000118,-0.000746,0.002311,-0.055786,0.004468,0.000162,-0.000311
151565,0.001161,0.005414,-0.067529,0.0,-0.0,-0.0,3.0,0.329863,0.324608,0.322278,0.327583,-0.0,-0.0,-0.005747,0.0,0.0,-0.000118,-0.000737,0.002314,-0.055792,0.004287,0.000174,-0.00031
151585,0.001043,0.005287,-0.067529,0.0,-0.0,-0.0,3.0,0.331558,0.32463,0.320516,0.327561,-0.0,-0.0,-0.00575,0.0,0.0,-0.000118,-0.0007,0.002318,-0.055798,0.002178,0.000161,-0.00031
151605,0.00079,0.005523,-0.06765,0.0,-0.0,-0.0,3.0,0.328986,0.324541,0.32318,0.32765,-0.0,-0.0,-0.005752,0.0,0.0,-0.000118,-0.000672,0.002321,-0.055805,-0.001663,0.000184,-0.000321
151625,0.000668,0.005519,-0.06765,0.0,-0.0,-0.0,3.0,0.330139,0.324499,0.321992,0.327691,-0.0,-0.0,-0.005754,0.0,0.0,-0.000118,-0.000657,0.002325,-0.055811,-0.003532,0.000183,-0.00032
151645,0.000786,0.005645,-0.067772,0.0,-0.0,-0.0,3.0,0.32762,0.324659,0.324571,0.327533,-0.0,-0.0,-0.005757,0.0,0.0,-0.000118,-0.000643,0.002329,-0.055817,-0.002122,0.000195,-0.000332
151665,0.000912,0.005527,-0.067772,0.0,-0.0,-0.0,3.0,0.329101,0.32475,0.323062,0.327443,-0.0,-0.0,-0.005759,0.0,0.0,-0.000118,-0.000631,0.002332,-0.055824,-0.000551,0.000183,-0.000331
151685,0.000912,0.005527,-0.067772,0.0,-0.0,-0.0,3.0,0.329903,0.324717,0.322236,0.327476,-0.0,-0.0,-0.005761,0.0,0.0,-0.000118,-0.000624,0.002336,-0.055831,-0.000647,0.000183,-0.000331
151705,0.001156,0.005536,-0.067773,0.0,-0.0,-0.0,3.0,0.33031,0.324477,0.321816,0.327712,-0.0,-0.0,-0.005763,0.0,0.0,-0.000118,-0.000659,0.002339,-0.055836,0.001422,0.000195,-0.000342
151725,0.001151,0.005658,-0.067895,0.0,-0.0,-0.0,3.0,0.329509,0.324701,0.322643,0.327492,-0.0,-0.0,-0.005766,0.0,0.0,-0.000118,-0.000643,0.002344,-0.055844,0.002879,0.000195,-0.000342
151745,0.001147,0.00578,-0.067895,0.0,-0.0,-0.0,3.0,0.328969,0.324638,0.323197,0.327553,-0.0,-0.0,-0.005769,0.0,0.0,-0.000118,-0.000639,0.002348,-0.055851,0.002761,0.000207,-0.000341
151765,0.001147,0.00578,-0.067895,0.0,-0.0,-0.0,3.0,0.32897,0.324714,0.323195,0.327479,-0.0,-0.0,-0.005771,0.0,0.0,-0.000118,-0.000606,0.002352,-0.055858,0.002309,0.000206,-0.00034
151785,0.001021,0.005898,-0.067895,0.0,-0.0,-0.0,3.0,0.327029,0.324775,0.325168,0.327418,-0.0,-0.0,-0.005773,0.0,0.0,-0.000118,-0.000557,0.002356,-0.055865,-8e-05,0.000218,-0.00034
151805,0.001025,0.005776,-0.068016,0.0,-0.0,-0.0,3.0,0.327922,0.324938,0.324264,0.327257,-0.0,-0.0,-0.005776,0.0,0.0,-0.000118,-0.000494,0.00236,-0.055872,-0.000879,0.000205,-0.000351
151825,0.001025,0.005776,-0.068016,0.0,-0.0,-0.0,3.0,0.329071,0.324932,0.323092,0.327262,-0.0,-0.0,-0.005778,0.0,0.0,-0.000118,-0.000448,0.002364,-0.055879,-0.00152,0.000205,-0.00035
151845,0.001273,0.005662,-0.068017,0.0,-0.0,-0.0,3.0,0.331546,0.324935,0.320528,0.32726,-0.0,-0.0,-0.00578,0.0,0.0,-0.000118,-0.000445,0.002367,-0.055884,0.005119,0.000206,-0.000338
151865,0.001273,0.005662,-0.068017,0.0,-0.0,-0.0,3.0,0.332649,0.324882,0.319368,0.327312,-0.0,-0.0,-0.005783,0.0,0.0,-0.000118,-0.000409,0.002373,-0.055892,0.001338,0.000193,-0.000349
151885,0.001387,0.00591,-0.068017,0.0,-0.0,-0.0,3.0,0.330185,0.324812,0.321945,0.327382,-0.0,-0.0,-0.005785,0.0,0.0,-0.000118,-0.000416,0.002377,-0.055899,0.002996,0.000217,-0.000348
151905,0.001261,0.006028,-0.068017,0.0,-0.0,-0.0,3.0,0.325904,0.324653,0.326297,0.327539,-0.0,-0.0,-0.005787,0.0,0.0,-0.000118,-0.000415,0.00238,-0.055905,-0.00048,0.00024,-0.00036
151925,0.001138,0.006024,-0.068139,0.0,-0.0,-0.0,3.0,0.327997,0.324616,0.324189,0.327575,-0.0,-0.0,-0.00579,0.0,0.0,-0.000118,-0.000425,0.002386,-0.055914,-0.000283,0.000228,-0.000359
151945,0.001016,0.00602,-0.068138,0.0,-0.0,-0.0,3.0,0.326124,0.324536,0.326077,0.327655,-0.0,-0.0,-0.005792,0.0,0.0,-0.000118,-0.000444,0.00239,-0.055921,-0.00168,0.000227,-0.000358
151965,0.00102,0.005898,-0.06826,0.0,-0.0,-0.0,3.0,0.326608,0.324625,0.325592,0.327566,-0.0,-0.0,-0.005795,0.0,0.0,-0.000118,-0.000458,0.002394,-0.055928,-0.001449,0.000214,-0.00037
151985,0.001024,0.005776,-0.06826,0.0,-0.0,-0.0,3.0,0.328553,0.32481,0.323623,0.327383,-0.0,-0.0,-0.005797,0.0,0.0,-0.000118,-0.000443,0.002398,-0.055935,-0.001585,0.000201,-0.000369
152005,0.001155,0.005536,-0.06826,0.0,-0.0,-0.0,3.0,0.332493,0.324925,0.319532,0.32727,-0.0,-0.0,-0.005799,0.0,0.0,-0.000118,-0.000425,0.002402,-0.055943,-6.1e-05,0.000177,-0.000368
152025,0.001276,0.00554,-0.068382,0.0,-0.0,-0.0,3.0,0.334436,0.324889,0.317464,0.327306,-0.0,-0.0,-0.005802,0.0,0.0,-0.000118,-0.000413,0.002406,-0.05595,0.001439,0.000177,-0.00038
152045,0.001272,0.005662,-0.068382,0.0,-0.0,-0.0,3.0,0.329368,0.324653,0.322788,0.327538,-0.0,-0.0,-0.005804,0.0,0.0,-0.000118,-0.000427,0.002409,-0.055956,-0.000206,0.000213,-0.000367
152065,0.00126,0.006028,-0.068382,0.0,-0.0,-0.0,3.0,0.330156,0.324846,0.321975,0.327348,-0.0,-0.0,-0.005806,0.0,0.0,-0.000118,-0.000416,0.002414,-0.055965,0.001258,0.000225,-0.000378
152085,0.001142,0.005902,-0.068382,0.0,-0.0,-0.0,3.0,0.329696,0.324659,0.32245,0.327533,-0.0,-0.0,-0.005809,0.0,0.0,-0.000118,-0.000425,0.002419,-0.055973,-0.000238,0.000212,-0.000377
152105,0.001133,0.006146,-0.068504,0.0,-0.0,-0.0,3.0,0.325768,0.324688,0.326432,0.327505,-0.0,-0.0,-0.005811,0.0,0.0,-0.000118,-0.000429,0.002423,-0.055981,-0.000296,0.000236,-0.000389
152125,0.001019,0.005898,-0.068625,0.0,-0.0,-0.0,3.0,0.331386,0.324786,0.320695,0.327407,-0.0,-0.0,-0.005813,0.0,0.0,-0.000118,-0.000423,0.002426,-0.055987,-0.001768,0.000174,-0.0004
152145,0.001141,0.005902,-0.068625,0.0,-0.0,-0.0,3.0,0.324737,0.324874,0.327456,0.327321,-0.0,-0.0,-0.005816,0.0,0.0,-0.000118,-0.000422,0.00243,-0.055997,-0.000277,0.000211,-0.000399
152165,0.001154,0.005536,-0.068625,0.0,-0.0,-0.0,3.0,0.330784,0.324891,0.321323,0.327303,-0.0,-0.0,-0.005818,0.0,0.0,-0.000118,-0.000403,0.002434,-0.056004,-0.000369,0.000174,-0.000399
152185,0.001276,0.00554,-0.068625,0.0,-0.0,-0.0,3.0,0.332145,0.324869,0.3199,0.327325,-0.0,-0.0,-0.005821,0.0,0.0,-0.000118,-0.000411,0.002438,-0.056012,0.0014,0.000174,-0.000398
152205,0.001276,0.00554,-0.068625,0.0,-0.0,-0.0,3.0,0.334706,0.324832,0.317174,0.327362,-0.0,-0.0,-0.005823,0.0,0.0,-0.000118,-0.000412,0.002443,-0.05602,0.001413,0.000173,-0.000397
152225,0.001149,0.005658,-0.068625,0.0,-0.0,-0.0,3.0,0.333236,0.324674,0.318746,0.327518,-0.0,-0.0,-0.005825,0.0,0.0,-0.000118,-0.000428,0.002447,-0.056028,-8.3e-05,0.000185,-0.000396
152245,0.001141,0.005902,-0.068504,0.0,-0.0,-0.0,3.0,0.331508,0.324822,0.320568,0.327372,-0.0,-0.0,-0.005828,0.0,0.0,-0.000118,-0.000424,0.002451,-0.056036,-0.000248,0.000209,-0.000383
152265,0.001137,0.006024,-0.068504,0.0,-0.0,-0.0,3.0,0.328272,0.32476,0.323909,0.327433,-0.0,-0.0,-0.00583,0.0,0.0,-0.000118,-0.000421,0.002455,-0.056044,-0.000344,0.000221,-0.000383
152285,0.001133,0.006146,-0.068625,0.0,-0.0,-0.0,3.0,0.32509,0.324741,0.327107,0.327452,-0.0,-0.0,-0.005833,0.0,0.0,-0.000118,-0.000433,0.002459,-0.056052,-0.000242,0.000232,-0.000394
152305,0.000889,0.006138,-0.068625,0.0,-0.0,-0.0,3.0,0.323935,0.324805,0.328246,0.327389,-0.0,-0.0,-0.005835,0.0,0.0,-0.000118,-0.000426,0.002463,-0.05606,-0.003678,0.000231,-0.000393
152325,0.000892,0.006016,-0.068746,0.0,-0.0,-0.0,3.0,0.326408,0.324683,0.325792,0.327509,-0.0,-0.0,-0.005837,0.0,0.0,-0.000118,-0.000458,0.002467,-0.056067,-0.003182,0.000219,-0.000404
152345,0.001145,0.00578,-0.068747,0.0,-0.0,-0.0,3.0,0.329755,0.324691,0.322389,0.327501,-0.0,-0.0,-0.00584,0.0,0.0,-0.000118,-0.000506,0.002471,-0.056075,0.000921,0.000195,-0.000404
152365,0.001144,0.00578,-0.068869,0.0,-0.0,-0.0,3.0,0.331193,0.324652,0.320897,0.32754,-0.0,-0.0,-0.005842,0.0,0.0,-0.000118,-0.000545,0.002475,-0.056083,0.001449,0.000194,-0.000415
152385,0.000905,0.00565,-0.068868,0.0,-0.0,-0.0,3.0,0.333173,0.324513,0.318813,0.327677,-0.0,-0.0,-0.005844,0.0,0.0,-0.000118,-0.000584,0.002479,-0.056091,-0.001305,0.000181,-0.000414
152405,0.0009,0.005772,-0.068868,0.0,-0.0,-0.0,3.0,0.332053,0.324696,0.319996,0.327496,-0.0,-0.0,-0.005847,0.0,0.0,-0.000118,-0.000594,0.002484,-0.0561,-0.001216,0.000193,-0.000413
152425,0.000905,0.00565,-0.068868,0.0,-0.0,-0.0,3.0,0.332025,0.324728,0.320026,0.327465,-0.0,-0.0,-0.005849,0.0,0.0,-0.000118,-0.000587,0.002487,-0.056108,-0.001257,0.00018,-0.000413
152445,0.001014,0.00602,-0.068747,0.0,-0.0,-0.0,3.0,0.327729,0.324832,0.324461,0.327362,-0.0,-0.0,-0.005851,0.0,0.0,-0.000118,-0.000573,0.002491,-0.056116,4.4e-05,0.000217,-0.0004
152465,0.000892,0.006016,-0.068868,0.0,-0.0,-0.0,3.0,0.32847,0.324907,0.323706,0.327287,-0.0,-0.0,-0.005854,0.0,0.0,-0.000118,-0.000547,0.002495,-0.056124,-0.00198,0.000216,-0.000411
152485,0.00101,0.006142,-0.068869,0.0,-0.0,-0.0,3.0,0.327338,0.324984,0.324856,0.327212,-0.0,-0.0,-0.005856,0.0,0.0,-0.000118,-0.000541,0.0025,-0.056133,-0.000451,0.000228,-0.00041
152505,0.001131,0.006146,-0.068991,0.0,-0.0,-0.0,3.0,0.32811,0.324971,0.324073,0.327224,-0.0,-0.0,-0.005859,0.0,0.0,-0.000118,-0.000532,0.002504,-0.056141,0.001086,0.000228,-0.000422
152525,0.001258,0.006028,-0.068991,0.0,-0.0,-0.0,3.0,0.328229,0.324764,0.323953,0.32743,-0.0,-0.0,-0.005861,0.0,0.0,-0.000118,-0.000565,0.002508,-0.056149,0.003257,0.000216,-0.000421
152545,0.001136,0.006024,-0.068991,0.0,-0.0,-0.0,3.0,0.329716,0.324676,0.322429,0.327516,-0.0,-0.0,-0.005863,0.0,0.0,-0.000118,-0.000585,0.002513,-0.056158,0.001865,0.000215,-0.00042
152565,0.000896,0.005894,-0.06899,0.0,-0.0,-0.0,3.0,0.330113,0.324591,0.32202,0.3276,-0.0,-0.0,-0.005866,0.0,0.0,-0.000118,-0.000606,0.002517,-0.056166,-0.001114,0.000201,-0.000419
152585,0.000896,0.005894,-0.06899,0.0,-0.0,-0.0,3.0,0.330664,0.324619,0.321448,0.327573,-0.0,-0.0,-0.005868,0.0,0.0,-0.000118,-0.000629,0.002521,-0.056174,-0.000807,0.000201,-0.000418
152605,0.000769,0.006012,-0.069111,0.0,-0.0,-0.0,3.0,0.329264,0.324589,0.322894,0.327602,-0.0,-0.0,-0.00587,0.0,0.0,-0.000118,-0.000639,0.002525,-0.056183,-0.002401,0.000212,-0.000429
152625,0.000765,0.006134,-0.069111,0.0,-0.0,-0.0,3.0,0.328999,0.324738,0.323166,0.327455,-0.0,-0.0,-0.005873,0.0,0.0,-0.000118,-0.000644,0.00253,-0.056191,-0.002389,0.000224,-0.000429
152645,0.000765,0.006134,-0.069111,0.0,-0.0,-0.0,3.0,0.329753,0.324889,0.322391,0.327306,-0.0,-0.0,-0.005875,0.0,0.0,-0.000118,-0.000632,0.002534,-0.0562,-0.002555,0.000224,-0.000428
152665,0.001005,0.006264,-0.069112,0.0,-0.0,-0.0,3.0,0.329847,0.325011,0.322294,0.327185,-0.0,-0.0,-0.005878,0.0,0.0,-0.000118,-0.000623,0.002539,-0.056209,0.000598,0.000236,-0.000427
152685,0.001245,0.006395,-0.069113,0.0,-0.0,-0.0,3.0,0.328432,0.325031,0.323746,0.327165,-0.0,-0.0,-0.00588,0.0,0.0,-0.000118,-0.000611,0.002544,-0.056217,0.003713,0.000249,-0.000426
152705,0.00124,0.006517,-0.069113,0.0,-0.0,-0.0,3.0,0.328314,0.325018,0.323865,0.327178,-0.0,-0.0,-0.005882,0.0,0.0,-0.000118,-0.00059,0.002549,-0.056226,0.003366,0.00026,-0.000425
152725,0.001118,0.006512,-0.069113,0.0,-0.0,-0.0,3.0,0.327416,0.324876,0.324777,0.327319,-0.0,-0.0,-0.005885,0.0,0.0,-0.000118,-0.000583,0.002554,-0.056234,0.001599,0.00026,-0.000424
152745,0.001118,0.006512,-0.069113,0.0,-0.0,-0.0,3.0,0.32847,0.324922,0.323706,0.327272,-0.0,-0.0,-0.005887,0.0,0.0,-0.000118,-0.000555,0.002559,-0.056243,0.001221,0.000259,-0.000424
152765,0.001123,0.00639,-0.069113,0.0,-0.0,-0.0,3.0,0.328914,0.324862,0.323253,0.327332,-0.0,-0.0,-0.005889,0.0,0.0,-0.000118,-0.000542,0.002564,-0.056251,0.001098,0.000246,-0.000423
152785,0.000996,0.006508,-0.069112,0.0,-0.0,-0.0,3.0,0.329172,0.324914,0.322989,0.32728,-0.0,-0.0,-0.005892,0.0,0.0,-0.000118,-0.000516,0.002569,-0.05626,-0.000979,0.000258,-0.000422
152805,0.000883,0.00626,-0.069112,0.0,-0.0,-0.0,3.0,0.332022,0.32491,0.320029,0.327285,-0.0,-0.0,-0.005894,0.0,0.0,-0.000118,-0.000495,0.002574,-0.056268,-0.002808,0.000232,-0.000421
152825,0.001119,0.006512,-0.068991,0.0,-0.0,-0.0,3.0,0.329378,0.325172,0.322777,0.327025,-0.0,-0.0,-0.005897,0.0,0.0,-0.000118,-0.000468,0.002579,-0.056276,4.6e-05,0.000257,-0.000408
152845,0.001367,0.006399,-0.068992,0.0,-0.0,-0.0,3.0,0.331655,0.325186,0.320414,0.327011,-0.0,-0.0,-0.005899,0.0,0.0,-0.000118,-0.000444,0.002585,-0.056285,0.003098,0.000245,-0.000407
152865,0.00148,0.006647,-0.069114,0.0,-0.0,-0.0,3.0,0.328581,0.32513,0.323594,0.327067,-0.0,-0.0,-0.005901,0.0,0.0,-0.000118,-0.000427,0.00259,-0.056293,0.004409,0.000269,-0.000419
152885,0.001354,0.006765,-0.069114,0.0,-0.0,-0.0,3.0,0.327705,0.325127,0.324484,0.32707,-0.0,-0.0,-0.005904,0.0,0.0,-0.000118,-0.000393,0.002595,-0.056301,0.002225,0.000281,-0.000418
152905,0.001349,0.006887,-0.069235,0.0,-0.0,-0.0,3.0,0.325212,0.325058,0.326985,0.327138,-0.0,-0.0,-0.005906,0.0,0.0,-0.000118,-0.000368,0.0026,-0.05631,0.00182,0.000292,-0.000429
152925,0.001353,0.006765,-0.069357,0.0,-0.0,-0.0,3.0,0.326741,0.325029,0.325458,0.327166,-0.0,-0.0,-0.005908,0.0,0.0,-0.000118,-0.000342,0.002606,-0.056318,0.001526,0.00028,-0.00044
152945,0.001235,0.006639,-0.069491,0.0,-0.0,-0.0,3.0,0.327468,0.324988,0.324724,0.327207,-0.0,-0.0,-0.005911,0.0,0.0,-0.000118,-0.000322,0.002611,-0.056327,-0.000359,0.000266,-0.000453
152965,0.001121,0.006391,-0.069734,0.0,-0.0,-0.0,3.0,0.332012,0.325062,0.320039,0.327134,-0.0,-0.0,-0.005913,0.0,0.0,-0.000118,-0.000298,0.002616,-0.056336,-0.002248,0.000241,-0.000476
152985,0.001242,0.006395,-0.069856,0.0,-0.0,-0.0,3.0,0.331703,0.325134,0.320364,0.327062,-0.0,-0.0,-0.005915,0.0,0.0,-0.000118,-0.000286,0.002622,-0.056346,-0.000759,0.000241,-0.000488
153005,0.001364,0.0064,-0.069978,0.0,-0.0,-0.0,3.0,0.33196,0.325096,0.320093,0.3271,-0.0,-0.0,-0.005918,0.0,0.0,-0.000118,-0.000285,0.002627,-0.056356,0.000891,0.000241,-0.000499
153025,0.001481,0.006526,-0.0701,0.0,-0.0,-0.0,3.0,0.330628,0.325127,0.321486,0.32707,-0.0,-0.0,-0.00592,0.0,0.0,-0.000118,-0.000285,0.002632,-0.056366,0.002491,0.000253,-0.00051
153045,0.00135,0.006766,-0.070343,0.0,-0.0,-0.0,3.0,0.327402,0.32497,0.324792,0.327225,-0.0,-0.0,-0.005923,0.0,0.0,-0.000118,-0.000295,0.002637,-0.056376,0.000832,0.000277,-0.000533
153065,0.00134,0.00701,-0.070587,0.0,-0.0,-0.0,3.0,0.324217,0.32506,0.327969,0.327136,-0.0,-0.0,-0.005925,0.0,0.0,-0.000118,-0.000287,0.002642,-0.056387,0.000591,0.0003,-0.000557
153085,0.00134,0.00701,-0.07083,0.0,-0.0,-0.0,3.0,0.32457,0.325054,0.327621,0.327142,-0.0,-0.0,-0.005927,0.0,0.0,-0.000118,-0.000275,0.002648,-0.056398,0.000416,0.0003,-0.00058
153105,0.001461,0.007015,-0.071074,0.0,-0.0,-0.0,3.0,0.325105,0.325137,0.327092,0.327059,-0.0,-0.0,-0.00593,0.0,0.0,-0.000118,-0.000258,0.002653,-0.05641,0.001843,0.0003,-0.000603
153125,0.001229,0.00664,-0.071317,0.0,-0.0,-0.0,3.0,0.330871,0.325189,0.321233,0.327008,-0.0,-0.0,-0.005932,0.0,0.0,-0.000118,-0.000216,0.002659,-0.056422,-0.001893,0.000262,-0.000626
153145,0.001355,0.006523,-0.07156,0.0,-0.0,-0.0,3.0,0.331187,0.32522,0.320903,0.326977,-0.0,-0.0,-0.005934,0.0,0.0,-0.000118,-0.000204,0.002665,-0.056435,-0.000343,0.000249,-0.000649
153165,0.001476,0.006527,-0.071804,0.0,-0.0,-0.0,3.0,0.333842,0.325279,0.318101,0.326919,-0.0,-0.0,-0.005937,0.0,0.0,-0.000118,-0.000182,0.00267,-0.056448,0.00101,0.000249,-0.000672
153185,0.001593,0.006654,-0.072048,0.0,-0.0,-0.0,3.0,0.331544,0.325166,0.32053,0.327031,-0.0,-0.0,-0.005939,0.0,0.0,-0.000118,-0.000182,0.002676,-0.056461,0.0026,0.000261,-0.000695
153205,0.001461,0.006893,-0.072169,0.0,-0.0,-0.0,3.0,0.330149,0.325176,0.321982,0.32702,-0.0,-0.0,-0.005942,0.0,0.0,-0.000118,-0.000168,0.002681,-0.056476,0.000614,0.000285,-0.000706
153225,0.001329,0.007133,-0.072534,0.0,-0.0,-0.0,3.0,0.326746,0.325078,0.325453,0.327119,-0.0,-0.0,-0.005944,0.0,0.0,-0.000118,-0.000172,0.002687,-0.05649,-0.001129,0.000308,-0.000741
153245,0.001446,0.00726,-0.072778,0.0,-0.0,-0.0,3.0,0.326784,0.325081,0.325415,0.327115,-0.0,-0.0,-0.005946,0.0,0.0,-0.000118,-0.000184,0.002693,-0.056505,0.000634,0.00032,-0.000764
153265,0.001445,0.00726,-0.073035,0.0,-0.0,-0.0,3.0,0.329471,0.325109,0.322682,0.327087,-0.0,-0.0,-0.005948,0.0,0.0,-0.000118,-0.000174,0.002697,-0.056517,-0.00267,0.000282,-0.000788
153285,0.001326,0.007134,-0.073399,0.0,-0.0,-0.0,3.0,0.325831,0.325086,0.326369,0.327111,-0.0,-0.0,-0.005951,0.0,0.0,-0.000118,-0.000189,0.002705,-0.056537,-0.000943,0.000307,-0.000823
153305,0.001334,0.00689,-0.073642,0.0,-0.0,-0.0,3.0,0.328001,0.325148,0.324185,0.327049,-0.0,-0.0,-0.005953,0.0,0.0,-0.000118,-0.000188,0.002711,-0.056553,-0.000836,0.000282,-0.000845
153325,0.001338,0.006768,-0.073886,0.0,-0.0,-0.0,3.0,0.330866,0.325142,0.321238,0.327055,-0.0,-0.0,-0.005956,0.0,0.0,-0.000118,-0.000196,0.002716,-0.05657,-0.000679,0.000269,-0.000868
153345,0.001463,0.006651,-0.074251,0.0,-0.0,-0.0,3.0,0.332616,0.325158,0.319402,0.327039,-0.0,-0.0,-0.005958,0.0,0.0,-0.000118,-0.000202,0.002722,-0.056588,0.001117,0.000257,-0.000903
153365,0.001331,0.006891,-0.074494,0.0,-0.0,-0.0,3.0,0.331233,0.325018,0.320855,0.327177,-0.0,-0.0,-0.00596,0.0,0.0,-0.000118,-0.000217,0.002728,-0.056606,-0.000483,0.00028,-0.000925
153385,0.001082,0.007004,-0.074737,0.0,-0.0,-0.0,3.0,0.329204,0.324882,0.322956,0.327312,-0.0,-0.0,-0.005963,0.0,0.0,-0.000118,-0.00025,0.002734,-0.056624,-0.003433,0.000291,-0.000948
153405,0.001077,0.007126,-0.07498,0.0,-0.0,-0.0,3.0,0.328493,0.324934,0.323684,0.327261,-0.0,-0.0,-0.005965,0.0,0.0,-0.000118,-0.000282,0.002739,-0.056643,-0.003076,0.000302,-0.00097
153425,0.001198,0.00713,-0.075224,0.0,-0.0,-0.0,3.0,0.326534,0.324942,0.325665,0.327253,-0.0,-0.0,-0.005968,0.0,0.0,-0.000118,-0.000321,0.002745,-0.056663,-0.000891,0.000302,-0.000992
153445,0.00107,0.007248,-0.075588,0.0,-0.0,-0.0,3.0,0.324998,0.325018,0.327198,0.327177,-0.0,-0.0,-0.00597,0.0,0.0,-0.000118,-0.000335,0.002751,-0.056683,-0.002446,0.000313,-0.001027
153465,0.001078,0.007004,-0.075953,0.0,-0.0,-0.0,3.0,0.326269,0.325088,0.325932,0.327108,-0.0,-0.0,-0.005972,0.0,0.0,-0.000118,-0.000352,0.002756,-0.056704,-0.002108,0.000288,-0.001061
153485,0.00132,0.007014,-0.076333,0.0,-0.0,-0.0,3.0,0.328036,0.325173,0.324148,0.327024,-0.0,-0.0,-0.005975,0.0,0.0,-0.000118,-0.000366,0.002762,-0.056726,0.0014,0.000289,-0.001097
153505,0.001324,0.006892,-0.076576,0.0,-0.0,-0.0,3.0,0.330137,0.325075,0.321994,0.327121,-0.0,-0.0,-0.005977,0.0,0.0,-0.000118,-0.00038,0.002768,-0.056748,0.001645,0.000276,-0.001119
153525,0.001318,0.007014,-0.076941,0.0,-0.0,-0.0,3.0,0.330221,0.325077,0.321908,0.327119,-0.0,-0.0,-0.005979,0.0,0.0,-0.000118,-0.000391,0.002774,-0.05677,0.001719,0.000288,-0.001153
153545,0.001078,0.006883,-0.077183,0.0,-0.0,-0.0,3.0,0.332375,0.325061,0.319657,0.327135,-0.0,-0.0,-0.005982,0.0,0.0,-0.000118,-0.000386,0.00278,-0.056793,-0.001636,0.000274,-0.001175
153565,0.00119,0.007132,-0.077427,0.0,-0.0,-0.0,3.0,0.328947,0.325113,0.323219,0.327083,-0.0,-0.0,-0.005984,0.0,0.0,-0.000118,-0.000387,0.002786,-0.056817,-9.5e-05,0.000298,-0.001197
153585,0.001311,0.007137,-0.077671,0.0,-0.0,-0.0,3.0,0.328004,0.325273,0.324181,0.326925,-0.0,-0.0,-0.005987,0.0,0.0,-0.000118,-0.000358,0.002792,-0.056841,0.001155,0.000298,-0.001219
153605,0.001183,0.007254,-0.078036,0.0,-0.0,-0.0,3.0,0.326164,0.325271,0.326037,0.326927,-0.0,-0.0,-0.005989,0.0,0.0,-0.000118,-0.000327,0.002797,-0.056866,-0.001003,0.000309,-0.001253
153625,0.00106,0.007249,-0.0784,0.0,-0.0,-0.0,3.0,0.326097,0.325215,0.326103,0.326982,-0.0,-0.0,-0.005991,0.0,0.0,-0.000118,-0.00032,0.002803,-0.056892,-0.002795,0.000308,-0.001287
153645,0.001059,0.007249,-0.078643,0.0,-0.0,-0.0,3.0,0.327148,0.325149,0.325048,0.327048,-0.0,-0.0,-0.005994,0.0,0.0,-0.000118,-0.000337,0.002809,-0.056918,-0.00257,0.000308,-0.001309
153665,0.001424,0.007264,-0.078888,0.0,-0.0,-0.0,3.0,0.327492,0.32511,0.3247,0.327086,-0.0,-0.0,-0.005996,0.0,0.0,-0.000118,-0.00039,0.002815,-0.056944,0.003133,0.000309,-0.001331
153685,0.001423,0.007264,-0.079131,0.0,-0.0,-0.0,3.0,0.328945,0.325053,0.323221,0.327143,-0.0,-0.0,-0.005998,0.0,0.0,-0.000118,-0.000412,0.002822,-0.056971,0.003426,0.000308,-0.001352
153705,0.001178,0.007255,-0.079388,0.0,-0.0,-0.0,3.0,0.329149,0.324994,0.323012,0.327201,-0.0,-0.0,-0.006001,0.0,0.0,-0.000118,-0.000422,0.002828,-0.056998,0.000219,0.000306,-0.001375
153725,0.000934,0.007245,-0.079508,0.0,-0.0,-0.0,3.0,0.32985,0.325003,0.322291,0.327192,-0.0,-0.0,-0.006003,0.0,0.0,-0.000118,-0.00042,0.002834,-0.057025,-0.00314,0.000305,-0.001385
153745,0.000933,0.007245,-0.07963,0.0,-0.0,-0.0,3.0,0.32986,0.324971,0.322281,0.327224,-0.0,-0.0,-0.006006,0.0,0.0,-0.000118,-0.000433,0.00284,-0.057053,-0.002969,0.000304,-0.001394
153765,0.000927,0.007367,-0.079873,0.0,-0.0,-0.0,3.0,0.328363,0.32498,0.323816,0.327215,-0.0,-0.0,-0.006008,0.0,0.0,-0.000118,-0.000457,0.002846,-0.057081,-0.002723,0.000316,-0.001416
153785,0.000927,0.007368,-0.079995,0.0,-0.0,-0.0,3.0,0.328186,0.325052,0.323997,0.327144,-0.0,-0.0,-0.00601,0.0,0.0,-0.000118,-0.000486,0.002851,-0.057102,-0.000669,0.000316,-0.001426
153805,0.000926,0.007368,-0.080117,0.0,-0.0,-0.0,3.0,0.328498,0.325172,0.323678,0.327025,-0.0,-0.0,-0.006013,0.0,0.0,-0.000118,-0.000498,0.002859,-0.057138,-0.002181,0.000315,-0.001434
153825,0.00117,0.007377,-0.080239,0.0,-0.0,-0.0,3.0,0.328151,0.325185,0.324032,0.327012,-0.0,-0.0,-0.006015,0.0,0.0,-0.000118,-0.00052,0.002865,-0.057167,0.001449,0.000315,-0.001444
153845,0.001287,0.007504,-0.08024,0.0,-0.0,-0.0,3.0,0.327611,0.3251,0.32458,0.327096,-0.0,-0.0,-0.006017,0.0,0.0,-0.000118,-0.000548,0.002872,-0.057196,0.00343,0.000327,-0.001441
153865,0.001165,0.007499,-0.080361,0.0,-0.0,-0.0,3.0,0.327087,0.325061,0.325109,0.327135,-0.0,-0.0,-0.00602,0.0,0.0,-0.000118,-0.000563,0.002878,-0.057225,0.001962,0.000326,-0.00145
153885,0.001048,0.007373,-0.08036,0.0,-0.0,-0.0,3.0,0.32861,0.325055,0.323564,0.327141,-0.0,-0.0,-0.006022,0.0,0.0,-0.000118,-0.000566,0.002884,-0.057254,0.000412,0.000312,-0.001447
153905,0.00093,0.007246,-0.08036,0.0,-0.0,-0.0,3.0,0.329323,0.324995,0.322833,0.3272,-0.0,-0.0,-0.006024,0.0,0.0,-0.000118,-0.000569,0.00289,-0.057282,-0.001156,0.000299,-0.001444
153925,0.000926,0.007368,-0.08036,0.0,-0.0,-0.0,3.0,0.328068,0.325043,0.324117,0.327152,-0.0,-0.0,-0.006027,0.0,0.0,-0.000118,-0.000568,0.002896,-0.057311,-0.001225,0.000311,-0.001441
153945,0.000809,0.007241,-0.080359,0.0,-0.0,-0.0,3.0,0.329389,0.325095,0.322766,0.327101,-0.0,-0.0,-0.006029,0.0,0.0,-0.000118,-0.00056,0.002903,-0.05734,-0.002942,0.000297,-0.001438
153965,0.000804,0.007363,-0.080359,0.087266,-0.0,-0.0,3.0,0.3293,0.291012,0.322858,0.356679,0.000254,-0.0,-0.006031,0.100591,-0.0,-0.000118,-0.000577,0.002907,-0.057362,0.002287,0.000298,-0.001436
153985,0.001048,0.007373,-0.08036,0.087266,-0.0,-0.0,3.0,0.329568,0.290577,0.324641,0.356981,0.003328,-0.0,-0.006033,0.207268,-1e-06,-0.000118,-0.000582,0.002913,-0.05739,0.002228,0.000322,-0.001433
154005,0.001535,0.007392,-0.080362,0.087266,-0.0,-0.0,3.0,0.327744,0.290255,0.324445,0.357251,0.007475,-0.0,-0.006036,0.19598,-1e-06,-0.000118,-0.00058,0.00292,-0.057419,0.003866,0.000322,-0.001431
154025,0.002389,0.007427,-0.080486,0.087266,-0.0,-0.0,3.0,0.326904,0.290529,0.325294,0.357044,0.011193,-0.0,-0.006038,0.172464,-2e-06,-0.000118,-0.000487,0.002926,-0.057448,0.01091,0.000324,-0.00144
154045,0.003613,0.007354,-0.080612,0.087266,-0.0,-0.0,3.0,0.328671,0.291584,0.323502,0.356245,0.014567,-0.0,-0.00604,0.16486,-2e-06,-0.000118,-0.000188,0.002932,-0.057477,0.021942,0.000303,-0.001438
154065,0.00594,0.007204,-0.08074,0.087266,-0.0,-0.0,3.0,0.330013,0.293861,0.322123,0.354497,0.017843,-0.0,-0.006043,0.161969,-3e-06,-0.000118,0.000439,0.002938,-0.057505,0.041881,0.000275,-0.001459
154085,0.009111,0.007332,-0.080871,0.087266,-0.0,-0.0,3.0,0.329442,0.297034,0.322711,0.35201,0.021053,-0.0,-0.006045,0.157617,-3e-06,-0.000118,0.001536,0.002944,-0.057535,0.066926,0.000274,-0.00147
154105,0.013271,0.007136,-0.081244,0.087266,-0.0,-0.0,3.0,0.332502,0.301062,0.319523,0.348764,0.024166,-0.0,-0.006048,0.152443,-4e-06,-0.000118,0.003181,0.002949,-0.057564,0.102935,0.000254,-0.001492
154125,0.018526,0.007108,-0.08151,0.087266,-0.0,-0.0,3.0,0.331193,0.30573,0.320897,0.344873,0.027177,-0.0,-0.00605,0.147484,-4e-06,-0.000118,0.0055,0.002955,-0.057594,0.142944,0.000263,-0.001515
154145,0.025,0.00713,-0.081773,0.087266,-0.0,-0.0,3.0,0.330634,0.310987,0.321479,0.340317,0.030092,-0.0,-0.006052,0.14282,-4e-06,-0.000118,0.008582,0.002961,-0.057625,0.182511,0.000275,-0.00155
154165,0.032328,0.007193,-0.082276,0.087266,-0.0,-0.0,3.0,0.329467,0.316565,0.322685,0.335271,0.032914,-0.0,-0.006055,0.138301,-5e-06,-0.000118,0.012463,0.002967,-0.057656,0.221154,0.00029,-0.001585
154185,0.04027,0.007162,-0.082769,0.087266,-0.0,-0.0,3.0,0.330251,0.322536,0.321876,0.329612,0.035647,-0.0,-0.006057,0.133888,-5e-06,-0.000118,0.017177,0.002972,-0.057688,0.258562,0.000284,-0.001631
154205,0.048452,0.007271,-0.083393,0.087266,-0.0,-0.0,3.0,0.329084,0.32864,0.323079,0.323534,0.038292,-0.0,-0.006059,0.129592,-5e-06,-0.000118,0.022707,0.002978,-0.057721,0.2965,0.000282,-0.00169
154225,0.057499,0.007176,-0.084001,0.087266,-0.0,-0.0,3.0,0.329718,0.33482,0.322428,0.317052,0.040853,-0.0,-0.006062,0.12542,-5e-06,-0.000118,0.029004,0.002984,-0.057755,0.335701,0.000273,-0.001748
154245,0.066903,0.007355,-0.084862,0.087266,-0.0,-0.0,3.0,0.329399,0.340729,0.322756,0.310521,0.04333,-0.0,-0.006064,0.121366,-6e-06,-0.000118,0.036033,0.00299,-0.057791,0.366534,0.000277,-0.001818
154265,0.076573,0.007059,-0.085572,0.087266,-0.0,-0.0,3.0,0.330732,0.34623,0.321377,0.304121,0.045728,-0.0,-0.006067,0.117426,-6e-06,-0.000118,0.043651,0.002995,-0.057828,0.397719,0.000272,-0.001898
154285,0.086109,0.007019,-0.086521,0.087266,-0.0,-0.0,3.0,0.329403,0.351017,0.322751,0.29828,0.048048,-0.0,-0.006069,0.113597,-6e-06,-0.000118,0.051753,0.003001,-0.057866,0.422223,0.000281,-0.001978
154305,0.09565,0.006984,-0.087351,0.087266,-0.0,-0.0,3.0,0.329896,0.355146,0.322244,0.293021,0.050292,-0.0,-0.006071,0.109876,-6e-06,-0.000118,0.060203,0.003007,-0.057906,0.435394,0.000288,-0.002046
154325,0.104694,0.007179,-0.088185,0.087266,-0.0,-0.0,3.0,0.326527,0.358494,0.325673,0.288594,0.052462,-0.0,-0.006074,0.106261,-7e-06,-0.000118,0.06885,0.003012,-0.057948,0.435798,0.000305,-0.002138
154345,0.112646,0.007211,-0.089012,0.087266,-0.0,-0.0,3.0,0.325762,0.361024,0.326438,0.285146,0.05456,-0.0,-0.006076,0.102748,-7e-06,-0.000118,0.077503,0.003018,-0.057991,0.427887,0.000309,-0.002228
154365,0.119608,0.007579,-0.089983,0.087266,-0.0,-0.0,3.0,0.32422,0.362578,0.327966,0.282982,0.05659,-0.0,-0.006078,0.099335,-7e-06,-0.000118,0.085959,0.003024,-0.058036,0.409395,0.000308,-0.002307
154385,0.125362,0.007525,-0.090801,0.087266,-0.0,-0.0,3.0,0.327567,0.363416,0.324624,0.281801,0.058551,-0.0,-0.006081,0.096019,-7e-06,-0.000118,0.094045,0.00303,-0.058083,0.385946,0.000293,-0.002383
154405,0.130143,0.007431,-0.091624,0.087266,-0.0,-0.0,3.0,0.329043,0.363313,0.323121,0.281947,0.060447,-0.0,-0.006083,0.092797,-7e-06,-0.000118,0.10159,0.003036,-0.058132,0.353187,0.000284,-0.00246
154425,0.133578,0.007272,-0.092321,0.087266,-0.0,-0.0,3.0,0.33079,0.362167,0.321318,0.283558,0.06228,-0.0,-0.006086,0.089668,-8e-06,-0.000118,0.108409,0.003042,-0.058181,0.313552,0.000283,-0.002537
154445,0.135654,0.007303,-0.093153,0.087266,-0.0,-0.0,3.0,0.329069,0.359871,0.323094,0.286729,0.06405,-0.0,-0.006088,0.086628,-8e-06,-0.000118,0.114323,0.003047,-0.058233,0.269592,0.000288,-0.002604
154465,0.136521,0.007142,-0.093749,0.087266,-0.0,-0.0,3.0,0.328779,0.356679,0.323391,0.291013,0.06576,-0.0,-0.00609,0.083675,-8e-06,-0.000118,0.119236,0.003053,-0.058285,0.217522,0.000297,-0.002672
154485,0.136024,0.00729,-0.09449,0.087266,-0.0,-0.0,3.0,0.329003,0.35273,0.323161,0.296123,0.067412,-0.0,-0.006093,0.080807,-8e-06,-0.000118,0.123073,0.003059,-0.058339,0.156774,0.000298,-0.002728
154505,0.133943,0.007233,-0.095104,0.087266,-0.0,-0.0,3.0,0.328766,0.348018,0.323404,0.30197,0.069007,-0.0,-0.006095,0.078022,-8e-06,-0.000118,0.125739,0.003065,-0.058394,0.09521,0.000306,-0.002796
154525,0.130884,0.00725,-0.095737,0.087266,-0.0,-0.0,3.0,0.328026,0.342919,0.324159,0.308011,0.070547,-0.0,-0.006097,0.075317,-8e-06,-0.000118,0.127225,0.003071,-0.05845,0.034907,0.000294,-0.002841
154545,0.126843,0.00721,-0.096243,0.087266,-0.0,-0.0,3.0,0.328743,0.33766,0.323428,0.313956,0.072034,-0.0,-0.0061,0.07269,-9e-06,-0.000118,0.127574,0.003077,-0.058508,-0.018289,0.000281,-0.002896
154565,0.122431,0.007279,-0.096878,0.087266,-0.0,-0.0,3.0,0.327409,0.332491,0.324784,0.319535,0.073469,-0.0,-0.006102,0.070139,-9e-06,-0.000118,0.126886,0.003082,-0.058566,-0.067381,0.000276,-0.002953
154585,0.117537,0.007078,-0.097485,0.087266,-0.0,-0.0,3.0,0.330849,0.327597,0.321256,0.324594,0.074853,-0.0,-0.006105,0.067662,-9e-06,-0.000118,0.12528,0.003088,-0.058626,-0.105445,0.000245,-0.003008
154605,0.112765,0.007009,-0.098233,0.087266,-0.0,-0.0,3.0,0.330731,0.322835,0.321379,0.329321,0.076188,-0.0,-0.006107,0.065257,-9e-06,-0.000118,0.122876,0.003093,-0.058686,-0.136096,0.000238,-0.003065
154625,0.108129,0.006815,-0.098868,0.087266,-0.0,-0.0,3.0,0.329666,0.318471,0.322481,0.333494,0.077475,-0.0,-0.006109,0.062922,-9e-06,-0.000118,0.119847,0.003098,-0.058748,-0.163283,0.000241,-0.003122
154645,0.103601,0.006751,-0.099609,0.087266,-0.0,-0.0,3.0,0.331327,0.314985,0.320757,0.336724,0.078717,-0.0,-0.006112,0.060655,-9e-06,-0.000118,0.116374,0.003103,-0.058811,-0.181014,0.000233,-0.00319
154665,0.099566,0.006709,-0.100362,0.087266,-0.0,-0.0,3.0,0.329817,0.312324,0.322325,0.339128,0.079913,-0.0,-0.006114,0.058455,-9e-06,-0.000118,0.112635,0.003108,-0.058875,-0.18846,0.000239,-0.00326
154685,0.096017,0.006694,-0.101229,0.087266,-0.0,-0.0,3.0,0.328477,0.310874,0.3237,0.340417,0.081066,-0.0,-0.006116,0.056319,-1e-05,-0.000118,0.108858,0.003113,-0.058941,-0.188738,0.000248,-0.003329
154705,0.093194,0.00683,-0.101974,0.087266,-0.0,-0.0,3.0,0.325822,0.310216,0.326378,0.340997,0.082177,-0.0,-0.006119,0.054247,-1e-05,-0.000118,0.105165,0.003117,-0.059008,-0.180198,0.00026,-0.003409
154725,0.091344,0.007019,-0.10283,0.087266,-0.0,-0.0,3.0,0.323099,0.311055,0.329065,0.340257,0.083247,-0.0,-0.006121,0.052235,-1e-05,-0.000118,0.101765,0.003122,-0.059077,-0.158967,0.000267,-0.003499
154745,0.09048,0.007136,-0.10369,0.087266,-0.0,-0.0,3.0,0.325577,0.312718,0.326622,0.338776,0.084276,-0.0,-0.006124,0.050282,-1e-05,-0.000118,0.098822,0.003127,-0.059148,-0.133738,0.000252,-0.003577
154765,0.090608,0.007065,-0.104672,0.087266,-0.0,-0.0,3.0,0.328931,0.315046,0.323235,0.336668,0.085268,-0.0,-0.006126,0.048388,-1e-05,-0.000118,0.096405,0.003131,-0.05922,-0.098816,0.000221,-0.003667
154785,0.091832,0.007052,-0.105644,0.087266,-0.0,-0.0,3.0,0.328004,0.318144,0.324181,0.333802,0.086222,-0.0,-0.006128,0.04655,-1e-05,-0.000118,0.094654,0.003136,-0.059294,-0.061609,0.000229,-0.003746
154805,0.09405,0.006726,-0.10659,0.087266,-0.0,-0.0,3.0,0.329682,0.321731,0.322464,0.330392,0.087139,-0.0,-0.006131,0.044766,-1e-05,-0.000118,0.093638,0.003141,-0.059369,-0.024289,0.000218,-0.003834
154825,0.096748,0.006674,-0.107561,0.087266,-0.0,-0.0,3.0,0.331096,0.325594,0.320998,0.326605,0.088021,-0.0,-0.006133,0.043036,-1e-05,-0.000118,0.09338,0.003145,-0.059447,0.010987,0.00021,-0.003922
154845,0.099811,0.006521,-0.1085,0.087266,-0.0,-0.0,3.0,0.331298,0.329544,0.320787,0.322606,0.08887,-0.0,-0.006135,0.041357,-1e-05,-0.000118,0.093863,0.00315,-0.059526,0.041314,0.000192,-0.00401
154865,0.103368,0.006398,-0.109452,0.087266,-0.0,-0.0,3.0,0.330112,0.333603,0.32202,0.318355,0.089684,-0.0,-0.006138,0.039729,-1e-05,-0.000118,0.095027,0.003154,-0.059607,0.073808,0.000192,-0.004096
154885,0.107296,0.006184,-0.110511,0.087266,-0.0,-0.0,3.0,0.329655,0.337728,0.322493,0.31388,0.090467,-0.0,-0.00614,0.03815,-1.1e-05,-0.000118,0.096852,0.003158,-0.059689,0.105833,0.000183,-0.004196
154905,0.111461,0.006225,-0.111476,0.087266,-0.0,-0.0,3.0,0.326847,0.341531,0.325352,0.309608,0.091218,-0.0,-0.006143,0.036618,-1.1e-05,-0.000118,0.09925,0.003161,-0.059774,0.133186,0.000188,-0.004282
154925,0.115869,0.006175,-0.112649,0.087266,-0.0,-0.0,3.0,0.329384,0.344956,0.322771,0.305632,0.09194,-0.0,-0.006145,0.035133,-1.1e-05,-0.000118,0.102121,0.003165,-0.05986,0.157682,0.000171,-0.00438
154945,0.12027,0.006368,-0.113732,0.087266,-0.0,-0.0,3.0,0.327995,0.347531,0.32419,0.302559,0.092631,-0.0,-0.006147,0.033693,-1.1e-05,-0.000118,0.105321,0.003168,-0.059948,0.174073,0.000178,-0.004476
154965,0.124571,0.006186,-0.114671,0.087266,-0.0,-0.0,3.0,0.328393,0.349777,0.323785,0.299818,0.093295,-0.0,-0.00615,0.032297,-1.1e-05,-0.000118,0.108776,0.003172,-0.060039,0.183768,0.000184,-0.004575
154985,0.128471,0.006481,-0.115742,0.087266,-0.0,-0.0,3.0,0.325601,0.35134,0.326598,0.297876,0.09393,-0.0,-0.006152,0.030943,-1.1e-05,-0.000118,0.112357,0.003175,-0.060131,0.183235,0.000198,-0.004673
155005,0.131412,0.00648,-0.11681,0.087266,-0.0,-0.0,3.0,0.328371,0.352481,0.323808,0.296439,0.094539,-0.0,-0.006154,0.029631,-1.1e-05,-0.000118,0.115966,0.003179,-0.060225,0.172549,0.000185,-0.00477
155025,0.133495,0.006545,-0.117777,0.087266,-0.0,-0.0,3.0,0.328367,0.35291,0.323812,0.295895,0.095122,-0.0,-0.006157,0.028359,-1.1e-05,-0.000118,0.119412,0.003182,-0.060321,0.159021,0.000181,-0.004855
155045,0.134856,0.006326,-0.118718,0.087266,-0.0,-0.0,3.0,0.330191,0.352721,0.321938,0.296135,0.09568,-0.0,-0.006159,0.027126,-1.1e-05,-0.000118,0.122566,0.003186,-0.060419,0.142846,0.000175,-0.004942
155065,0.135709,0.006435,-0.11957,0.087266,-0.0,-0.0,3.0,0.328884,0.351851,0.323284,0.297235,0.096214,-0.0,-0.006162,0.025931,-1.1e-05,-0.000118,0.125312,0.00319,-0.060518,0.122085,0.000175,-0.005015
155085,0.135839,0.006256,-0.120396,0.087266,-0.0,-0.0,3.0,0.329607,0.350172,0.322541,0.29933,0.096724,-0.0,-0.006164,0.024774,-1.1e-05,-0.000118,0.127548,0.003193,-0.060619,0.094903,0.00017,-0.005089
155105,0.135104,0.006262,-0.121133,0.087266,-0.0,-0.0,3.0,0.331704,0.34792,0.320362,0.302089,0.097211,-0.0,-0.006166,0.023652,-1.1e-05,-0.000118,0.12919,0.003197,-0.060722,0.066085,0.000148,-0.005164
155125,0.133891,0.006115,-0.12187,0.087266,-0.0,-0.0,3.0,0.331542,0.345308,0.320532,0.305216,0.097676,-0.0,-0.006169,0.022566,-1.1e-05,-0.000118,0.130203,0.0032,-0.060825,0.037132,0.000146,-0.005226
155145,0.132054,0.006051,-0.122604,0.087266,-0.0,-0.0,3.0,0.32942,0.342484,0.322734,0.308514,0.098119,-0.0,-0.006171,0.021513,-1.1e-05,-0.000118,0.130615,0.003204,-0.06093,0.004674,0.000163,-0.005293
155165,0.129472,0.006184,-0.123365,0.087266,-0.0,-0.0,3.0,0.328712,0.33948,0.32346,0.31193,0.098541,-0.0,-0.006174,0.020494,-1.1e-05,-0.000118,0.130425,0.003207,-0.061037,-0.029726,0.000174,-0.005344
155185,0.12652,0.006407,-0.124018,0.087266,-0.0,-0.0,3.0,0.326641,0.336536,0.325558,0.31519,0.098944,-0.0,-0.006176,0.019507,-1.2e-05,-0.000118,0.129648,0.00321,-0.061144,-0.057665,0.000185,-0.005398
155205,0.123201,0.006605,-0.124674,0.087266,-0.0,-0.0,3.0,0.326468,0.333812,0.325731,0.318133,0.099327,-0.0,-0.006178,0.018551,-1.2e-05,-0.000118,0.128367,0.003214,-0.061253,-0.082058,0.000194,-0.005463
155225,0.119876,0.0068,-0.125306,0.087266,-0.0,-0.0,3.0,0.326608,0.331189,0.325591,0.320901,0.099691,-0.0,-0.006181,0.017626,-1.2e-05,-0.000118,0.126623,0.003218,-0.061362,-0.100125,0.000203,-0.005517
155245,0.116695,0.006758,-0.125942,0.087266,-0.0,-0.0,3.0,0.328253,0.328883,0.323928,0.323285,0.100037,-0.0,-0.006183,0.01673,-1.2e-05,-0.000118,0.124529,0.003222,-0.061473,-0.115063,0.000211,-0.00557
155265,0.113741,0.006973,-0.126586,0.087266,-0.0,-0.0,3.0,0.32849,0.326868,0.323687,0.32533,0.100365,-0.0,-0.006185,0.015863,-1.2e-05,-0.000118,0.122141,0.003226,-0.061585,-0.121026,0.00022,-0.005623
155285,0.111168,0.006966,-0.12721,0.087266,-0.0,-0.0,3.0,0.329631,0.325229,0.322516,0.326969,0.100676,-0.0,-0.006188,0.015024,-1.2e-05,-0.000118,0.119597,0.003231,-0.061697,-0.124839,0.000229,-0.005663
155305,0.108959,0.007096,-0.127737,0.087266,-0.0,-0.0,3.0,0.327953,0.324098,0.324233,0.328086,0.10097,-0.0,-0.00619,0.014211,-1.2e-05,-0.000118,0.117007,0.003236,-0.061811,-0.126478,0.000251,-0.005715
