time_ms,roll,pitch,yaw,roll_rate,pitch_rate,yaw_rate,reference_roll,reference_pitch,reference_yaw,reference_throttle,throttle_1,throttle_2,throttle_3,throttle_4,roll_predicted,pitch_predicted,yaw_predicted,roll_rate_predicted,pitch_rate_predicted,yaw_rate_predicted
166118,0.000639,0.011887,-0.098092,-0.0,-0.001064,-1e-06,0.0,-0.0,-0.0,2.0,0.282024,0.270708,0.282024,0.292722,,,,,,
166138,0.000638,0.011887,-0.098214,-0.001077,1e-06,-0.001064,6.5e-05,-0.0,-0.0,2.0,0.282024,0.270708,0.282024,0.292722,,,,,,
166158,0.000637,0.011887,-0.098335,-0.001064,0.0,0.0,0.005023,-0.0,-0.0,2.0,0.282024,0.270253,0.282024,0.293127,,,,,,
166178,0.000637,0.011887,-0.098335,-0.0,-0.001064,-1e-06,0.005023,-0.0,-0.0,2.0,0.282024,0.270207,0.282024,0.293169,,,,,,
166198,0.000516,0.011881,-0.098213,-1.3e-05,-0.001064,-0.001065,0.011238,-0.0,-0.0,2.0,0.282024,0.266353,0.282024,0.296532,,,,,,
166218,0.000643,0.011765,-0.098335,-0.001077,1e-06,-0.001064,0.014139,-0.0,-0.0,2.0,0.282024,0.265195,0.282024,0.297519,,,,,,
166238,0.000765,0.011771,-0.098457,0.0,0.0,0.0,0.017145,-0.0,-0.0,2.0,0.282024,0.265369,0.282024,0.297372,,,,,,
166258,0.000765,0.011771,-0.098457,-0.0,-0.001064,-1e-06,0.019176,-0.0,-0.0,2.0,0.282024,0.264412,0.282024,0.29818,,,,,,
166278,0.001008,0.011783,-0.09858,-1.3e-05,-0.001063,-0.001065,0.024608,-0.0,-0.0,2.0,0.282024,0.262183,0.282024,0.300034,,,,,,
166298,0.001367,0.011923,-0.098703,0.0,0.0,0.0,0.028473,-0.0,-0.0,2.0,0.282024,0.260567,0.282024,0.301355,,,,,,
166318,0.001854,0.011948,-0.098827,0.001064,0.0,0.0,0.032007,-0.0,-0.0,2.0,0.282024,0.260531,0.282024,0.301384,,,,,,
166338,0.002463,0.011978,-0.098831,0.001064,-0.001064,-3e-06,0.035398,-0.0,-0.0,2.0,0.282024,0.259078,0.282024,0.302554,,,,,,
166358,0.003322,0.011898,-0.098957,0.002116,-0.001061,-0.001068,0.037265,-0.0,-0.0,2.0,0.282024,0.258306,0.282024,0.303169,,,,,,
166378,0.004424,0.011831,-0.099205,0.002128,0.0,0.0,0.04117,-0.0,-0.0,2.0,0.282024,0.258306,0.282024,0.303168,,,,,,
166398,0.005892,0.011782,-0.099334,0.003193,0.0,0.0,0.043163,-0.0,-0.0,2.0,0.282024,0.259162,0.282024,0.302486,,,,,,
166418,0.007605,0.011745,-0.099463,0.004257,0.0,0.0,0.047552,-0.0,-0.0,2.0,0.282024,0.259155,0.282024,0.302492,,,,,,
166438,0.009561,0.011721,-0.099593,0.005321,-0.001064,-1e-05,0.049665,-0.0,-0.0,2.0,0.282024,0.258622,0.282024,0.302917,,,,,,
166458,0.01212,0.01185,-0.099865,0.005321,-0.001064,-1.3e-05,0.053267,-0.0,-0.0,2.0,0.282024,0.257766,0.282024,0.303596,,,,,,
166478,0.015057,0.011754,-0.100118,0.005321,0.0,0.0,0.054721,-0.0,-0.0,2.0,0.282024,0.260835,0.282024,0.301137,,,,,,
166498,0.018475,0.011805,-0.100372,0.007462,-2e-05,0.001064,0.057669,-0.0,-0.0,2.0,0.282024,0.26201,0.282024,0.300177,,,,,,
166518,0.022266,0.011751,-0.100504,0.009565,-0.00104,-0.001088,0.061089,-0.0,-0.0,2.0,0.282024,0.263177,0.282024,0.299212,,,,,,
166538,0.026916,0.011623,-0.100894,0.009565,-0.001035,-0.001093,0.061089,-0.0,-0.0,2.0,0.282024,0.265962,0.282024,0.296867,,,,,,
166558,0.032169,0.01165,-0.101283,0.011719,-3.4e-05,0.001064,0.065822,-0.0,-0.0,2.0,0.282024,0.267207,0.282024,0.295798,,,,,,
166578,0.037795,0.011574,-0.101666,0.012783,-4e-05,0.001064,0.067025,-0.0,-0.0,2.0,0.282024,0.271264,0.282024,0.292224,,,,,,
166598,0.044274,0.011541,-0.101923,0.014899,-0.001063,-4.7e-05,0.068982,-0.0,-0.0,2.0,0.282024,0.273956,0.282024,0.289773,,,,,,
166618,0.051121,0.011535,-0.102434,0.015963,-0.001063,-5.4e-05,0.072049,-0.0,-0.0,2.0,0.282024,0.276419,0.282024,0.287473,,,,,,
166638,0.058704,0.011452,-0.103053,0.015976,-6.2e-05,0.001062,0.074105,-0.0,-0.0,2.0,0.282024,0.279508,0.282024,0.284509,,,,,,
166658,0.067141,0.011412,-0.10354,0.018104,-7.1e-05,0.001062,0.075982,-0.0,-0.0,2.0,0.282024,0.284223,0.282024,0.2798,,,,,,
166678,0.075825,0.01139,-0.104033,0.019156,0.0,0.0,0.076873,-0.0,-0.0,2.0,0.282024,0.288059,0.282024,0.275798,,,,,,
166698,0.084881,0.011274,-0.104627,0.02022,0.0,0.0,0.077739,-0.0,-0.0,2.0,0.282024,0.290785,0.282024,0.272854,,,,,,
166718,0.09455,0.011202,-0.105343,0.020232,-0.0001,0.00106,0.079677,-0.0,-0.0,2.0,0.282024,0.294638,0.282024,0.268541,,,,,,
166738,0.104341,0.011136,-0.105921,0.020232,-0.000111,0.001059,0.081571,-0.0,-0.0,2.0,0.282024,0.298531,0.282024,0.263994,,,,,,
166758,0.114261,0.011084,-0.106501,0.021308,-0.000243,0.002115,0.082862,-0.0,-0.0,2.0,0.282024,0.301459,0.282024,0.260438,,,,,,
166778,0.124424,0.011051,-0.107062,0.022349,0.0,0.0,0.083501,-0.0,-0.0,2.0,0.282024,0.304719,0.282024,0.256333,,,,,,
166798,0.134715,0.011039,-0.107744,0.021285,0.0,0.0,0.084728,-0.0,-0.0,2.0,0.282024,0.307883,0.282024,0.252192,,,,,,
166818,0.144885,0.011028,-0.108409,0.021308,-0.000307,0.002106,0.08553,-0.0,-0.0,2.0,0.282024,0.31116,0.282024,0.247725,,,,,,
166838,0.155063,0.010884,-0.108805,0.021296,-0.000164,0.001052,0.086183,-0.0,-0.0,2.0,0.282024,0.314504,0.282024,0.242965,,,,,,
166858,0.164999,0.010865,-0.109337,0.021285,0.0,0.0,0.086684,-0.0,-0.0,2.0,0.282024,0.317865,0.282024,0.237958,,,,,,
166878,0.17482,0.010734,-0.109965,0.02022,0.0,0.0,0.086902,-0.0,-0.0,2.0,0.282024,0.320227,0.282024,0.234292,,,,,,
166898,0.18429,0.01057,-0.11036,0.019167,-0.000195,0.001046,0.087174,-0.0,-0.0,2.0,0.282024,0.322516,0.282024,0.230614,,,,,,
166918,0.193386,0.010389,-0.110725,0.018103,-0.000205,0.001044,0.087266,-0.0,-0.0,2.0,0.282024,0.32479,0.282024,0.226828,,,,,,
166938,0.20186,0.010421,-0.111114,0.017028,0.0,0.0,0.087233,-0.0,-0.0,2.0,0.282024,0.326986,0.282024,0.223037,,,,,,
166958,0.209857,0.01031,-0.111488,0.015963,0.0,0.0,0.086992,-0.0,-0.0,2.0,0.282024,0.329155,0.282024,0.219152,,,,,,
166978,0.217108,0.010269,-0.111742,0.013835,0.0,0.0,0.086567,-0.0,-0.0,2.0,0.282024,0.331225,0.282024,0.215302,,,,,,
166998,0.223624,0.010311,-0.112018,0.012771,0.0,0.0,0.086315,-0.0,-0.0,2.0,0.282024,0.332037,0.282024,0.21375,,,,,,
167018,0.229408,0.010436,-0.112321,0.01064,-0.001036,-0.000242,0.085677,-0.0,-0.0,2.0,0.282024,0.333833,0.282024,0.21023,,,,,,
167038,0.234444,0.010643,-0.112633,0.008511,-0.001035,-0.000247,0.084882,-0.0,-0.0,2.0,0.282024,0.333453,0.282024,0.210986,,,,,,
167058,0.238134,0.010774,-0.112958,0.006385,0.0,0.0,0.08432,-0.0,-0.0,2.0,0.282024,0.333732,0.282024,0.210432,,,,,,
167078,0.240966,0.010829,-0.113045,0.004257,0.0,0.0,0.083483,-0.0,-0.0,2.0,0.282024,0.333858,0.282024,0.210181,,,,,,
167098,0.242922,0.010833,-0.113115,0.001064,0.0,0.0,0.082373,-0.0,-0.0,2.0,0.282024,0.333861,0.282024,0.210175,,,,,,
167118,0.243666,0.010784,-0.11334,-0.001075,0.000257,-0.001033,0.080585,-0.0,-0.0,2.0,0.282024,0.333746,0.282024,0.210405,,,,,,
167138,0.243302,0.010778,-0.113471,-0.002128,0.0,0.0,0.079245,-0.0,-0.0,2.0,0.282024,0.333219,0.282024,0.211448,,,,,,
167158,0.242318,0.010737,-0.113599,-0.004257,0.0,0.0,0.077544,-0.0,-0.0,2.0,0.282024,0.332617,0.282024,0.212627,,,,,,
167178,0.240588,0.010759,-0.113622,-0.005324,-0.001034,-0.000254,0.075791,-0.0,-0.0,2.0,0.282024,0.332873,0.282024,0.212127,,,,,,
167198,0.23813,0.010754,-0.113786,-0.006388,-0.001034,-0.000251,0.073854,-0.0,-0.0,2.0,0.282024,0.332993,0.282024,0.211892,,,,,,
167218,0.23516,0.010963,-0.11397,-0.008517,-0.001035,-0.000248,0.072844,-0.0,-0.0,2.0,0.282024,0.3327,0.282024,0.212465,,,,,,
167238,0.231713,0.011022,-0.114152,-0.009581,-0.001036,-0.000244,0.071469,-0.0,-0.0,2.0,0.282024,0.332362,0.282024,0.213123,,,,,,
167258,0.227648,0.011032,-0.114207,-0.010645,-0.001037,-0.00024,0.067532,-0.0,-0.0,2.0,0.282024,0.33255,0.282024,0.212757,,,,,,
167278,0.222962,0.011263,-0.114422,-0.011721,-0.000803,-0.001273,0.066214,-0.0,-0.0,2.0,0.282024,0.330782,0.282024,0.216139,,,,,,
167298,0.217666,0.011323,-0.114495,-0.012785,-0.000809,-0.001269,0.063824,-0.0,-0.0,2.0,0.282024,0.330179,0.282024,0.217266,,,,,,
167318,0.211642,0.011342,-0.11458,-0.013837,-0.00104,-0.000224,0.061819,-0.0,-0.0,2.0,0.282024,0.329228,0.282024,0.219018,,,,,,
167338,0.204986,0.011567,-0.114678,-0.015966,-0.001042,-0.000217,0.058531,-0.0,-0.0,2.0,0.282024,0.327359,0.282024,0.222379,,,,,,
167358,0.197724,0.011759,-0.11478,-0.017042,-0.000834,-0.001253,0.055723,-0.0,-0.0,2.0,0.282024,0.326218,0.282024,0.224379,,,,,,
167378,0.189734,0.011909,-0.114887,-0.019171,-0.000844,-0.001246,0.052769,-0.0,-0.0,2.0,0.282024,0.324882,0.282024,0.226672,,,,,,
167398,0.180891,0.011877,-0.114847,-0.02022,0.0,0.0,0.051297,-0.0,-0.0,2.0,0.282024,0.321717,0.282024,0.231911,,,,,,
167418,0.171677,0.011957,-0.114932,-0.022349,0.0,0.0,0.047032,-0.0,-0.0,2.0,0.282024,0.319177,0.282024,0.235937,,,,,,
167438,0.161631,0.011859,-0.114907,-0.023425,0.000171,-0.00105,0.044064,-0.0,-0.0,2.0,0.282024,0.318149,0.282024,0.237523,,,,,,
167458,0.150968,0.011726,-0.114853,-0.02449,0.00016,-0.001052,0.042487,-0.0,-0.0,2.0,0.282024,0.31423,0.282024,0.243363,,,,,,
167478,0.139931,0.011704,-0.114917,-0.025554,0.000148,-0.001054,0.039066,-0.0,-0.0,2.0,0.282024,0.311753,0.282024,0.246895,,,,,,
167498,0.128174,0.011641,-0.114989,-0.026607,-0.001055,-0.000136,0.034707,-0.0,-0.0,2.0,0.282024,0.310405,0.282024,0.248771,,,,,,
167518,0.115924,0.011541,-0.114903,-0.027683,-0.000934,-0.00118,0.03128,-0.0,-0.0,2.0,0.282024,0.306226,0.282024,0.254381,,,,,,
167538,0.103438,0.011553,-0.114842,-0.028748,-0.000949,-0.001169,0.02779,-0.0,-0.0,2.0,0.282024,0.303,0.282024,0.258518,,,,,,
167558,0.090331,0.011647,-0.114622,-0.029812,-0.000964,-0.001156,0.025982,-0.0,-0.0,2.0,0.282024,0.300131,0.282024,0.262066,,,,,,
167578,0.076748,0.011718,-0.114416,-0.030876,-0.000979,-0.001143,0.022349,-0.0,-0.0,2.0,0.282024,0.2951,0.282024,0.268012,,,,,,
167598,0.062912,0.01189,-0.113919,-0.030876,-0.000995,-0.001129,0.018435,-0.0,-0.0,2.0,0.282024,0.291127,0.282024,0.272478,,,,,,
167618,0.048848,0.011933,-0.113304,-0.031953,-0.000959,-0.002178,0.018435,-0.0,-0.0,2.0,0.282024,0.288091,0.282024,0.275763,,,,,,
167638,0.034533,0.012091,-0.112657,-0.031953,-0.00099,-0.002164,0.011664,-0.0,-0.0,2.0,0.282024,0.284571,0.282024,0.279444,,,,,,
167658,0.0201,0.012249,-0.111751,-0.031953,4.3e-05,-0.002128,0.009861,-0.0,-0.0,2.0,0.282024,0.279112,0.282024,0.284893,,,,,,
167678,0.005675,0.012297,-0.110949,-0.031953,-0.001052,-0.002135,0.006244,-0.0,-0.0,2.0,0.282024,0.276731,0.282024,0.287178,,,,,,
167698,-0.008756,0.012477,-0.11001,-0.031953,-0.001083,-0.002119,0.001301,-0.0,-0.0,2.0,0.282024,0.273331,0.282024,0.290348,,,,,,
167718,-0.02295,0.012804,-0.109035,-0.030889,-0.001113,-0.002104,-0.00257,-0.0,-0.0,2.0,0.282024,0.269438,0.282024,0.29385,,,,,,
167738,-0.037262,0.013012,-0.108185,-0.03089,-0.001143,-0.002088,-0.00633,-0.0,-0.0,2.0,0.282024,0.266737,0.282024,0.296203,,,,,,
167758,-0.05133,0.013246,-0.107181,-0.03089,-0.001172,-0.002071,-0.010125,-0.0,-0.0,2.0,0.282024,0.262489,0.282024,0.299782,,,,,,
167778,-0.065273,0.013375,-0.106167,-0.029812,-0.001131,-0.000993,-0.012134,-0.0,-0.0,2.0,0.282024,0.257355,0.282024,0.303919,,,,,,
167798,-0.079098,0.013517,-0.105265,-0.029841,-0.000252,-0.003183,-0.016344,-0.0,-0.0,2.0,0.282024,0.254471,0.282024,0.306157,,,,,,
167818,-0.092436,0.013693,-0.10434,-0.028749,-9.8e-05,-0.00106,-0.018393,-0.0,-0.0,2.0,0.282024,0.249101,0.282024,0.310165,,,,,,
167838,-0.105644,0.013647,-0.103298,-0.028761,-0.001283,-0.002005,-0.023653,-0.0,-0.0,2.0,0.282024,0.246507,0.282024,0.31203,,,,,,
167858,-0.118378,0.013758,-0.102254,-0.027697,-0.001308,-0.001988,-0.02614,-0.0,-0.0,2.0,0.282024,0.241059,0.282024,0.315802,,,,,,
167878,-0.13076,0.014142,-0.101177,-0.0277,-0.000278,-0.00211,-0.029832,-0.0,-0.0,2.0,0.282024,0.239457,0.282024,0.316875,,,,,,
167898,-0.142528,0.014426,-0.100339,-0.025572,-0.000302,-0.002107,-0.033342,-0.0,-0.0,2.0,0.282024,0.236153,0.282024,0.319038,,,,,,
167918,-0.153929,0.014754,-0.099246,-0.02449,-0.001215,-0.000889,-0.036733,-0.0,-0.0,2.0,0.282024,0.232802,0.282024,0.321164,,,,,,
167938,-0.164974,0.015099,-0.09828,-0.023458,-0.001574,-0.002975,-0.038421,-0.0,-0.0,2.0,0.282024,0.228629,0.282024,0.323719,,,,,,
167958,-0.175279,0.015235,-0.097457,-0.022378,-0.001419,-0.00191,-0.040175,-0.0,-0.0,2.0,0.282024,0.224615,0.282024,0.326082,,,,,,
167978,-0.185219,0.015405,-0.096508,-0.021301,-0.000196,-0.001046,-0.044358,-0.0,-0.0,2.0,0.282024,0.221721,0.282024,0.32773,,,,,,
167998,-0.194667,0.015496,-0.095451,-0.02132,0.000632,-0.002294,-0.049056,-0.0,-0.0,2.0,0.282024,0.219232,0.282024,0.329111,,,,,,
168018,-0.203023,0.015638,-0.094537,-0.019208,0.000399,-0.003342,-0.050834,-0.0,-0.0,2.0,0.282024,0.217618,0.282024,0.329989,,,,,,
168038,-0.210998,0.015655,-0.093862,-0.01706,-0.000446,-0.002082,-0.053153,-0.0,-0.0,2.0,0.282024,0.216365,0.282024,0.330661,,,,,,
168058,-0.218258,0.015726,-0.093099,-0.015992,-0.0015,-0.001848,-0.05658,-0.0,-0.0,2.0,0.282024,0.214027,0.282024,0.331893,,,,,,
168078,-0.224764,0.015836,-0.092321,-0.01386,-0.002549,-0.001601,-0.059336,-0.0,-0.0,2.0,0.282024,0.211604,0.282024,0.33314,,,,,,
168098,-0.230562,0.016094,-0.091685,-0.011715,-0.002315,-0.00055,-0.061979,-0.0,-0.0,2.0,0.282024,0.211442,0.282024,0.333222,,,,,,
168118,-0.235727,0.016383,-0.091033,-0.010668,-0.002567,-0.001573,-0.064755,-0.0,-0.0,2.0,0.282024,0.209596,0.282024,0.33415,,,,,,
168138,-0.240027,0.016353,-0.09045,-0.008527,-0.001287,-0.000781,-0.066733,-0.0,-0.0,2.0,0.282024,0.207725,0.282024,0.335074,,,,,,
168158,-0.24347,0.016487,-0.089865,-0.006402,-0.000257,-0.001033,-0.068861,-0.0,-0.0,2.0,0.282024,0.208422,0.282024,0.334732,,,,,,
168178,-0.246182,0.016537,-0.089319,-0.005338,-0.000259,-0.001032,-0.070866,-0.0,-0.0,2.0,0.282024,0.209472,0.282024,0.334212,,,,,,
168198,-0.247905,0.0165,-0.088928,-0.004295,0.000509,-0.002325,-0.072114,-0.0,-0.0,2.0,0.282024,0.208598,0.282024,0.334645,,,,,,
168218,-0.248741,0.016232,-0.088806,-0.002149,0.000769,-0.001294,-0.07485,-0.0,-0.0,2.0,0.282024,0.211057,0.282024,0.333417,,,,,,
168238,-0.248741,0.016262,-0.088565,-0.001085,0.000769,-0.001294,-0.076671,-0.0,-0.0,2.0,0.282024,0.213458,0.282024,0.332188,,,,,,
168258,-0.248256,0.016301,-0.088462,0.001047,-0.000261,-0.001032,-0.078337,-0.0,-0.0,2.0,0.282024,0.214031,0.282024,0.331891,,,,,,
168278,-0.247026,0.016238,-0.088505,0.002116,-0.001292,-0.000772,-0.079142,-0.0,-0.0,2.0,0.282024,0.216565,0.282024,0.330555,,,,,,
168298,-0.245543,0.016309,-0.088525,0.00318,-0.001291,-0.000774,-0.080723,-0.0,-0.0,2.0,0.282024,0.215688,0.282024,0.33102,,,,,,
168318,-0.243698,0.016382,-0.088679,0.004261,-0.001033,0.000257,-0.082049,-0.0,-0.0,2.0,0.282024,0.216875,0.282024,0.330388,,,,,,
168338,-0.241721,0.016233,-0.088745,0.005329,-0.002067,0.00051,-0.083176,-0.0,-0.0,2.0,0.282024,0.21611,0.282024,0.330797,,,,,,
168358,-0.23926,0.016094,-0.088949,0.005325,-0.001034,0.000252,-0.084017,-0.0,-0.0,2.0,0.282024,0.215488,0.282024,0.331126,,,,,,
168378,-0.236536,0.015845,-0.089158,0.006389,-0.001035,0.000249,-0.085205,-0.0,-0.0,2.0,0.282024,0.217199,0.282024,0.330215,,,,,,
168398,-0.233697,0.015723,-0.089355,0.006389,-0.001035,0.000246,-0.085713,-0.0,-0.0,2.0,0.282024,0.216688,0.282024,0.330488,,,,,,
168418,-0.230253,0.015632,-0.089571,0.006385,0.0,0.0,-0.086326,-0.0,-0.0,2.0,0.282024,0.218599,0.282024,0.329457,,,,,,
168438,-0.226814,0.015647,-0.089893,0.007446,0.001037,-0.000239,-0.086796,-0.0,-0.0,2.0,0.282024,0.220441,0.282024,0.328445,,,,,,
168458,-0.222891,0.015674,-0.09035,0.00745,0.0,0.0,-0.086965,-0.0,-0.0,2.0,0.282024,0.22051,0.282024,0.328406,,,,,,
168478,-0.218712,0.015713,-0.090798,0.00745,0.0,0.0,-0.087182,-0.0,-0.0,2.0,0.282024,0.22268,0.282024,0.327189,,,,,,
168498,-0.214546,0.015741,-0.09138,0.008514,0.0,0.0,-0.087266,-0.0,-0.0,2.0,0.282024,0.224804,0.282024,0.325972,,,,,,
168518,-0.209877,0.015673,-0.091973,0.009578,0.0,0.0,-0.087142,-0.0,-0.0,2.0,0.282024,0.225266,0.282024,0.325704,,,,,,
168538,-0.205075,0.01537,-0.092591,0.010646,-0.001042,0.000217,-0.087022,-0.0,-0.0,2.0,0.282024,0.227699,0.282024,0.324274,,,,,,
168558,-0.200146,0.014954,-0.093221,0.010661,-0.000831,0.001255,-0.086494,-0.0,-0.0,2.0,0.282024,0.228202,0.282024,0.323974,,,,,,
168578,-0.19498,0.014662,-0.093962,0.011728,-0.001882,0.001457,-0.086066,-0.0,-0.0,2.0,0.282024,0.228921,0.282024,0.323543,,,,,,
168598,-0.189687,0.014257,-0.094714,0.01066,-0.000844,0.001246,-0.08527,-0.0,-0.0,2.0,0.282024,0.22959,0.282024,0.323139,,,,,,
168618,-0.184163,0.014099,-0.095566,0.011724,-0.000851,0.001241,-0.084402,-0.0,-0.0,2.0,0.282024,0.230385,0.282024,0.322656,,,,,,
168638,-0.178523,0.014072,-0.096405,0.011721,0.000189,0.001047,-0.08337,-0.0,-0.0,2.0,0.282024,0.232972,0.282024,0.321057,,,,,,
168658,-0.172763,0.014033,-0.097486,0.010654,0.001231,0.000866,-0.082163,-0.0,-0.0,2.0,0.282024,0.23383,0.282024,0.320519,,,,,,
168678,-0.166892,0.014007,-0.098584,0.011719,0.001226,0.000873,-0.081308,-0.0,-0.0,2.0,0.282024,0.236656,0.282024,0.318713,,,,,,
168698,-0.161004,0.013864,-0.099669,0.012785,0.000171,0.001051,-0.079543,-0.0,-0.0,2.0,0.282024,0.23744,0.282024,0.318203,,,,,,
168718,-0.15487,0.013497,-0.100793,0.012785,0.000164,0.001052,-0.078747,-0.0,-0.0,2.0,0.282024,0.238796,0.282024,0.317313,,,,,,
168738,-0.14849,0.013251,-0.10213,0.013865,-0.000738,0.002263,-0.077276,-0.0,-0.0,2.0,0.282024,0.240005,0.282024,0.31651,,,,,,
168758,-0.142349,0.012773,-0.103248,0.013864,-0.000751,0.002258,-0.074928,-0.0,-0.0,2.0,0.282024,0.242425,0.282024,0.314874,,,,,,
168778,-0.135734,0.012563,-0.104474,0.013863,-0.000766,0.002253,-0.072971,-0.0,-0.0,2.0,0.282024,0.241962,0.282024,0.31519,,,,,,
168798,-0.128868,0.012364,-0.1058,0.013861,0.000274,0.002111,-0.07089,-0.0,-0.0,2.0,0.282024,0.246498,0.282024,0.312036,,,,,,
168818,-0.122138,0.012295,-0.107007,0.014925,0.000259,0.002113,-0.069803,-0.0,-0.0,2.0,0.282024,0.248183,0.282024,0.31083,,,,,,
168838,-0.114921,0.012254,-0.108338,0.014925,0.000244,0.002115,-0.068253,-0.0,-0.0,2.0,0.282024,0.249906,0.282024,0.309577,,,,,,
168858,-0.107704,0.0121,-0.109687,0.01599,-0.000829,0.002231,-0.064926,-0.0,-0.0,2.0,0.282024,0.252515,0.282024,0.30764,,,,,,
168878,-0.100229,0.011864,-0.110656,0.01599,-0.000846,0.002224,-0.064926,-0.0,-0.0,2.0,0.282024,0.255036,0.282024,0.305723,,,,,,
168898,-0.092402,0.011898,-0.111609,0.015977,-0.000961,0.001158,-0.059456,-0.0,-0.0,2.0,0.282024,0.254058,0.282024,0.306472,,,,,,
168918,-0.084453,0.011824,-0.112581,0.015976,9e-05,0.001061,-0.057239,-0.0,-0.0,2.0,0.282024,0.258961,0.282024,0.302647,,,,,,
168938,-0.076497,0.011766,-0.11328,0.01704,8.1e-05,0.001061,-0.055142,-0.0,-0.0,2.0,0.282024,0.26093,0.282024,0.30106,,,,,,
168958,-0.068302,0.01173,-0.113871,0.018091,0.001062,-7.3e-05,-0.05196,-0.0,-0.0,2.0,0.282024,0.264073,0.282024,0.298464,,,,,,
168978,-0.059971,0.011461,-0.114459,0.018092,0.0,0.0,-0.048872,-0.0,-0.0,2.0,0.282024,0.265877,0.282024,0.296939,,,,,,
168998,-0.051396,0.011216,-0.114795,0.018092,0.0,0.0,-0.045755,-0.0,-0.0,2.0,0.282024,0.267798,0.282024,0.295286,,,,,,
169018,-0.042823,0.010974,-0.115137,0.018091,0.001063,-4.6e-05,-0.042554,-0.0,-0.0,2.0,0.282024,0.269724,0.282024,0.293597,,,,,,
169038,-0.034,0.010625,-0.115469,0.018092,0.0,0.0,-0.039999,-0.0,-0.0,2.0,0.282024,0.273386,0.282024,0.290298,,,,,,
169058,-0.025183,0.010399,-0.115783,0.019156,0.0,0.0,-0.036145,-0.0,-0.0,2.0,0.282024,0.275225,0.282024,0.288596,,,,,,
169078,-0.016481,0.010047,-0.116082,0.019156,0.0,0.0,-0.033468,-0.0,-0.0,2.0,0.282024,0.277478,0.282024,0.286468,,,,,,
169098,-0.007537,0.00971,-0.116509,0.018092,0.0,0.0,-0.031529,-0.0,-0.0,2.0,0.282024,0.278789,0.282024,0.285206,,,,,,
169118,0.001401,0.009498,-0.116919,0.018092,0.0,0.0,-0.027245,-0.0,-0.0,2.0,0.282024,0.281966,0.282024,0.282082,,,,,,
169138,0.010094,0.009275,-0.117312,0.018092,0.0,0.0,-0.023389,-0.0,-0.0,2.0,0.282024,0.28389,0.282024,0.280141,,,,,,
169158,0.018666,0.009047,-0.117711,0.018092,0.0,0.0,-0.019825,-0.0,-0.0,2.0,0.282024,0.284629,0.282024,0.279384,,,,,,
169178,0.027116,0.008818,-0.118217,0.018092,0.0,0.0,-0.016222,-0.0,-0.0,2.0,0.282024,0.28665,0.282024,0.277287,,,,,,
169198,0.035559,0.008716,-0.118831,0.017037,-3.8e-05,0.001064,-0.013882,-0.0,-0.0,2.0,0.282024,0.289109,0.282024,0.274673,,,,,,
169218,0.043875,0.008729,-0.119214,0.017036,-0.00111,0.001017,-0.011866,-0.0,-0.0,2.0,0.282024,0.290404,0.282024,0.273269,,,,,,
169238,0.051955,0.008611,-0.119704,0.017027,-0.001063,-5.5e-05,-0.007587,-0.0,-0.0,2.0,0.282024,0.292171,0.282024,0.271323,,,,,,
169258,0.059897,0.008741,-0.120431,0.015963,0.0,0.0,-0.002251,-0.0,-0.0,2.0,0.282024,0.292337,0.282024,0.271137,,,,,,
169278,0.06761,0.008615,-0.121019,0.015972,-0.001134,0.00099,0.000198,-0.0,-0.0,2.0,0.282024,0.294629,0.282024,0.268551,,,,,,
169298,0.075074,0.008591,-0.12136,0.014899,0.0,0.0,0.004231,-0.0,-0.0,2.0,0.282024,0.296337,0.282024,0.266581,,,,,,
169318,0.082168,0.008679,-0.121962,0.014899,0.0,0.0,0.007999,-0.0,-0.0,2.0,0.282024,0.296831,0.282024,0.266004,,,,,,
169338,0.089035,0.008509,-0.122426,0.013835,0.0,0.0,0.011685,-0.0,-0.0,2.0,0.282024,0.297318,0.282024,0.265432,,,,,,
169358,0.095654,0.008314,-0.122618,0.01278,-0.000102,0.001059,0.013761,-0.0,-0.0,2.0,0.282024,0.299456,0.282024,0.262884,,,,,,
169378,0.10215,0.008236,-0.122831,0.012771,0.0,0.0,0.016292,-0.0,-0.0,2.0,0.282024,0.300248,0.282024,0.261923,,,,,,
169398,0.108045,0.008001,-0.123037,0.011706,0.0,0.0,0.020473,-0.0,-0.0,2.0,0.282024,0.300355,0.282024,0.261793,,,,,,
169418,0.113691,0.007751,-0.123216,0.011698,0.000121,-0.001057,0.024154,-0.0,-0.0,2.0,0.282024,0.301747,0.282024,0.260082,,,,,,
169438,0.118978,0.007481,-0.123416,0.010642,0.0,0.0,0.027438,-0.0,-0.0,2.0,0.282024,0.30198,0.282024,0.259792,,,,,,
169458,0.123894,0.007304,-0.123501,0.009578,0.0,0.0,0.029983,-0.0,-0.0,2.0,0.282024,0.30235,0.282024,0.259333,,,,,,
169478,0.128552,0.007234,-0.12357,0.008514,0.0,0.0,0.034169,-0.0,-0.0,2.0,0.282024,0.302128,0.282024,0.259609,,,,,,
169498,0.132722,0.007142,-0.123764,0.008514,0.0,0.0,0.037678,-0.0,-0.0,2.0,0.282024,0.30317,0.282024,0.258303,,,,,,
169518,0.136536,0.00703,-0.123983,0.00745,0.0,0.0,0.041145,-0.0,-0.0,2.0,0.282024,0.302931,0.282024,0.258604,,,,,,
169538,0.139848,0.007009,-0.124193,0.006385,0.0,0.0,0.044411,-0.0,-0.0,2.0,0.282024,0.302601,0.282024,0.259018,,,,,,
169558,0.142787,0.006965,-0.124386,0.005321,0.0,0.0,0.047053,-0.0,-0.0,2.0,0.282024,0.30235,0.282024,0.259332,,,,,,
169578,0.145247,0.006901,-0.124729,0.004256,-0.001053,-0.000154,0.049687,-0.0,-0.0,2.0,0.282024,0.301956,0.282024,0.259823,,,,,,
169598,0.147327,0.006927,-0.124944,0.003193,0.0,0.0,0.052418,-0.0,-0.0,2.0,0.282024,0.301416,0.282024,0.260492,,,,,,
169618,0.149296,0.006938,-0.125063,0.002127,-0.001052,-0.000158,0.055421,-0.0,-0.0,2.0,0.282024,0.301917,0.282024,0.259871,,,,,,
169638,0.150639,0.007041,-0.1253,0.002128,0.0,0.0,0.057962,-0.0,-0.0,2.0,0.282024,0.301181,0.282024,0.260781,,,,,,
169658,0.151861,0.007005,-0.125387,0.001056,-0.000891,-0.001213,0.060905,-0.0,-0.0,2.0,0.282024,0.301456,0.282024,0.260442,,,,,,
169678,0.152847,0.006964,-0.125621,0.001063,-0.001052,-0.000162,0.063484,-0.0,-0.0,2.0,0.282024,0.300569,0.282024,0.261532,,,,,,
169698,0.153577,0.007142,-0.125759,0.001064,0.0,0.0,0.064733,-0.0,-0.0,2.0,0.282024,0.301198,0.282024,0.26076,,,,,,
169718,0.153942,0.007155,-0.125631,0.0,0.0,0.0,0.066062,-0.0,-0.0,2.0,0.282024,0.300485,0.282024,0.261634,,,,,,
169738,0.154306,0.007178,-0.125623,-9e-06,-0.000888,-0.001215,0.069731,-0.0,-0.0,2.0,0.282024,0.300214,0.282024,0.261965,,,,,,
169758,0.154548,0.007203,-0.125739,-9e-06,-0.000888,-0.001215,0.072221,-0.0,-0.0,2.0,0.282024,0.300261,0.282024,0.261908,,,,,,
169778,0.154678,0.007089,-0.125727,-0.001064,0.0,0.0,0.072221,-0.0,-0.0,2.0,0.282024,0.301038,0.282024,0.260956,,,,,,
169798,0.154679,0.00708,-0.125606,-0.001065,-0.001052,-0.000164,0.075512,-0.0,-0.0,2.0,0.282024,0.29952,0.282024,0.262807,,,,,,
169818,0.154679,0.00708,-0.125606,-0.001073,-0.000888,-0.001216,0.07752,-0.0,-0.0,2.0,0.282024,0.299586,0.282024,0.262726,,,,,,
169838,0.154548,0.007203,-0.125739,-0.001072,0.000164,-0.001052,0.078348,-0.0,-0.0,2.0,0.282024,0.299981,0.282024,0.262248,,,,,,
169858,0.154548,0.007203,-0.125739,-0.001065,-0.001052,-0.000164,0.079926,-0.0,-0.0,2.0,0.282024,0.30016,0.282024,0.26203,,,,,,
169878,0.154555,0.007091,-0.12585,-0.001065,-0.001052,-0.000164,0.081318,-0.0,-0.0,2.0,0.282024,0.301575,0.282024,0.260296,,,,,,
169898,0.154677,0.007098,-0.125847,-1e-06,-0.001052,-0.000164,0.082029,-0.0,-0.0,2.0,0.282024,0.30203,0.282024,0.259731,,,,,,
169918,0.154677,0.007098,-0.125847,-9e-06,-0.000888,-0.001216,0.08389,-0.0,-0.0,2.0,0.282024,0.302083,0.282024,0.259665,,,,,,
169938,0.154806,0.007116,-0.125988,-9e-06,-0.000887,-0.001216,0.084382,-0.0,-0.0,2.0,0.282024,0.302606,0.282024,0.259012,,,,,,
169958,0.154806,0.007116,-0.125988,0.0,0.0,0.0,0.085488,-0.0,-0.0,2.0,0.282024,0.30288,0.282024,0.258669,,,,,,
169978,0.154814,0.006995,-0.125979,-0.001064,0.0,0.0,0.086004,-0.0,-0.0,2.0,0.282024,0.302153,0.282024,0.259578,,,,,,
169998,0.154806,0.007116,-0.125988,-0.001065,-0.001051,-0.000164,0.086645,-0.0,-0.0,2.0,0.282024,0.302548,0.282024,0.259084,,,,,,
170018,0.154685,0.007109,-0.125991,-0.001073,-0.000888,-0.001216,0.087006,-0.0,-0.0,2.0,0.282024,0.303001,0.282024,0.258517,,,,,,
170038,0.154684,0.007118,-0.126111,-0.001072,0.000164,-0.001052,0.087212,-0.0,-0.0,2.0,0.282024,0.303542,0.282024,0.257834,,,,,,
170058,0.154684,0.007118,-0.126111,-0.001065,-0.001052,-0.000164,0.087258,-0.0,-0.0,2.0,0.282024,0.304124,0.282024,0.257095,,,,,,
170078,0.154562,0.00711,-0.126114,-0.001064,0.0,0.0,0.0872,-0.0,-0.0,2.0,0.282024,0.305862,0.282024,0.254856,,,,,,
170098,0.154561,0.006988,-0.126082,-0.001064,0.0,0.0,0.0872,-0.0,-0.0,2.0,0.282024,0.305278,0.282024,0.255613,,,,,,
170118,0.154439,0.00698,-0.126084,-0.001073,-0.000888,-0.001215,0.086706,-0.0,-0.0,2.0,0.282024,0.305985,0.282024,0.254695,,,,,,
170138,0.154438,0.00699,-0.126205,-0.001073,-0.000888,-0.001215,0.086257,-0.0,-0.0,2.0,0.282024,0.306723,0.282024,0.253729,,,,,,
170158,0.154317,0.006982,-0.126207,-0.001064,0.0,0.0,0.0858,-0.0,-0.0,2.0,0.282024,0.307421,0.282024,0.252806,,,,,,
170178,0.154195,0.006974,-0.12621,-0.001064,0.0,0.0,0.084915,-0.0,-0.0,2.0,0.282024,0.308251,0.282024,0.251699,,,,,,
170198,0.154082,0.006845,-0.126203,-0.001073,-0.000888,-0.001215,0.083989,-0.0,-0.0,2.0,0.282024,0.309092,0.282024,0.250566,,,,,,
170218,0.153831,0.006951,-0.126217,-0.001073,-0.000889,-0.001215,0.082911,-0.0,-0.0,2.0,0.282024,0.30995,0.282024,0.249395,,,,,,
170238,0.153587,0.006945,-0.126343,-0.001073,-0.000889,-0.001215,0.082318,-0.0,-0.0,2.0,0.282024,0.310673,0.282024,0.248401,,,,,,
170258,0.153336,0.007051,-0.126357,-0.001065,-0.001052,-0.000163,0.080305,-0.0,-0.0,2.0,0.282024,0.31182,0.282024,0.246802,,,,,,
170278,0.153093,0.007036,-0.126362,-0.001064,0.0,0.0,0.078843,-0.0,-0.0,2.0,0.282024,0.312812,0.282024,0.245399,,,,,,
170298,0.152598,0.007004,-0.126349,-0.001064,0.0,0.0,0.07802,-0.0,-0.0,2.0,0.282024,0.312407,0.282024,0.245975,,,,,,
170318,0.152233,0.006991,-0.126477,-0.002137,-0.000891,-0.001213,0.07646,-0.0,-0.0,2.0,0.282024,0.313408,0.282024,0.244548,,,,,,
170338,0.151755,0.006838,-0.126478,-0.002137,-0.000891,-0.001213,0.073886,-0.0,-0.0,2.0,0.282024,0.31468,0.282024,0.242708,,,,,,
170358,0.151017,0.006923,-0.126623,-0.00213,-0.001052,-0.00016,0.071814,-0.0,-0.0,2.0,0.282024,0.315736,0.282024,0.241156,,,,,,
170378,0.150279,0.006876,-0.126615,-0.00213,-0.001052,-0.000159,0.070755,-0.0,-0.0,2.0,0.282024,0.316487,0.282024,0.240039,,,,,,
170398,0.149421,0.006943,-0.126641,-0.002136,0.000158,-0.001052,0.068546,-0.0,-0.0,2.0,0.282024,0.317561,0.282024,0.238421,,,,,,
170418,0.148439,0.00689,-0.126758,-0.003193,0.0,0.0,0.065947,-0.0,-0.0,2.0,0.282024,0.317604,0.282024,0.238355,,,,,,
170438,0.147086,0.006926,-0.126771,-0.003194,-0.001053,-0.000156,0.064297,-0.0,-0.0,2.0,0.282024,0.318379,0.282024,0.237171,,,,,,
170458,0.14562,0.006823,-0.126656,-0.004265,-0.000899,-0.001207,0.062093,-0.0,-0.0,2.0,0.282024,0.318186,0.282024,0.237466,,,,,,
170478,0.143887,0.007079,-0.126693,-0.004265,-0.000901,-0.001206,0.058612,-0.0,-0.0,2.0,0.282024,0.319398,0.282024,0.235593,,,,,,
170498,0.141927,0.007068,-0.126595,-0.00533,-0.000903,-0.001204,0.057054,-0.0,-0.0,2.0,0.282024,0.318893,0.282024,0.236378,,,,,,
170518,0.139603,0.007034,-0.126504,-0.006394,-0.000906,-0.001202,0.052802,-0.0,-0.0,2.0,0.282024,0.320166,0.282024,0.234388,,,,,,
170538,0.13689,0.007219,-0.126411,-0.006393,0.000145,-0.001054,0.049856,-0.0,-0.0,2.0,0.282024,0.319863,0.282024,0.234865,,,,,,
170558,0.133813,0.007374,-0.126203,-0.007458,-0.000913,-0.001197,0.048328,-0.0,-0.0,2.0,0.282024,0.319038,0.282024,0.236153,,,,,,
170578,0.130502,0.007393,-0.125988,-0.008523,-0.000917,-0.001194,0.045132,-0.0,-0.0,2.0,0.282024,0.318622,0.282024,0.236796,,,,,,
170598,0.126574,0.007503,-0.12591,-0.009587,-0.000921,-0.00119,0.041314,-0.0,-0.0,2.0,0.282024,0.318208,0.282024,0.237433,,,,,,
170618,0.122281,0.007584,-0.125712,-0.010651,-0.000926,-0.001186,0.041314,-0.0,-0.0,2.0,0.282024,0.317657,0.282024,0.238274,,,,,,
170638,0.117609,0.007763,-0.125501,-0.011716,-0.000932,-0.001182,0.034689,-0.0,-0.0,2.0,0.282024,0.316714,0.282024,0.2397,,,,,,
170658,0.112458,0.007915,-0.125314,-0.01278,-0.000938,-0.001177,0.032995,-0.0,-0.0,2.0,0.282024,0.316391,0.282024,0.240183,,,,,,
170678,0.106684,0.00815,-0.125113,-0.013844,-0.000945,-0.001172,0.028207,-0.0,-0.0,2.0,0.282024,0.315667,0.282024,0.241259,,,,,,
170698,0.100545,0.008364,-0.124909,-0.014909,-0.000952,-0.001166,0.026081,-0.0,-0.0,2.0,0.282024,0.3129,0.282024,0.245275,,,,,,
170718,0.093927,0.008545,-0.124603,-0.015973,-0.00096,-0.001159,0.021668,-0.0,-0.0,2.0,0.282024,0.311754,0.282024,0.246895,,,,,,
170738,0.086686,0.008812,-0.124275,-0.017047,-0.000876,-0.002213,0.018077,-0.0,-0.0,2.0,0.282024,0.310142,0.282024,0.249132,,,,,,
170758,0.07896,0.009046,-0.123819,-0.018112,-0.000893,-0.002206,0.016247,-0.0,-0.0,2.0,0.282024,0.307795,0.282024,0.252308,,,,,,
170778,0.070746,0.009258,-0.123474,-0.019167,-0.000986,-0.001137,0.012616,-0.0,-0.0,2.0,0.282024,0.305773,0.282024,0.254971,,,,,,
170798,0.061936,0.009311,-0.123015,-0.020241,-0.00093,-0.00219,0.008532,-0.0,-0.0,2.0,0.282024,0.30367,0.282024,0.257671,,,,,,
170818,0.05275,0.009464,-0.122403,-0.021305,-0.000951,-0.002182,0.005854,-0.0,-0.0,2.0,0.282024,0.300926,0.282024,0.261094,,,,,,
170838,0.043071,0.00972,-0.122041,-0.02236,-0.001017,-0.001109,0.001462,-0.0,-0.0,2.0,0.282024,0.298473,0.282024,0.264063,,,,,,
170858,0.032792,0.009817,-0.121416,-0.023434,7e-05,-0.002127,-0.00039,-0.0,-0.0,2.0,0.282024,0.294926,0.282024,0.268212,,,,,,
170878,0.022142,0.010022,-0.120914,-0.023434,4.7e-05,-0.002128,-0.003821,-0.0,-0.0,2.0,0.282024,0.291644,0.282024,0.271907,,,,,,
170898,0.011255,0.010095,-0.120389,-0.025552,-0.001052,-0.001076,-0.00896,-0.0,-0.0,2.0,0.282024,0.288741,0.282024,0.275069,,,,,,
170918,-0.000241,0.010136,-0.119838,-0.025563,-0.001065,-0.002128,-0.012694,-0.0,-0.0,2.0,0.282024,0.286341,0.282024,0.27761,,,,,,
170938,-0.011994,0.010412,-0.119161,-0.025552,-0.001077,-0.001051,-0.016394,-0.0,-0.0,2.0,0.282024,0.282426,0.282024,0.281621,,,,,,
170958,-0.023985,0.010558,-0.118598,-0.027692,-0.001115,-0.002102,-0.020039,-0.0,-0.0,2.0,0.282024,0.279559,0.282024,0.284459,,,,,,
170978,-0.036235,0.010938,-0.118001,-0.027681,-0.001102,-0.001025,-0.022309,-0.0,-0.0,2.0,0.282024,0.274653,0.282024,0.289128,,,,,,
170998,-0.048844,0.011183,-0.117272,-0.027681,-0.001115,-0.001011,-0.025965,-0.0,-0.0,2.0,0.282024,0.271268,0.282024,0.292221,,,,,,
171018,-0.061578,0.011424,-0.116653,-0.028758,-0.001193,-0.002059,-0.028777,-0.0,-0.0,2.0,0.282024,0.265927,0.282024,0.296897,,,,,,
171038,-0.074434,0.011667,-0.115881,-0.028746,-0.00114,-0.000982,-0.031087,-0.0,-0.0,2.0,0.282024,0.261546,0.282024,0.300557,,,,,,
171058,-0.087537,0.011903,-0.115093,-0.028758,-0.001246,-0.002027,-0.036595,-0.0,-0.0,2.0,0.282024,0.258136,0.282024,0.303303,,,,,,
171078,-0.100402,0.01216,-0.1143,-0.028746,-0.001166,-0.000952,-0.038952,-0.0,-0.0,2.0,0.282024,0.253342,0.282024,0.307016,,,,,,
171098,-0.11326,0.012301,-0.113482,-0.02876,-0.000241,-0.002115,-0.042573,-0.0,-0.0,2.0,0.282024,0.248857,0.282024,0.310342,,,,,,
171118,-0.126003,0.012457,-0.112659,-0.027683,-0.000134,-0.001056,-0.045824,-0.0,-0.0,2.0,0.282024,0.245591,0.282024,0.312677,,,,,,
171138,-0.138632,0.012642,-0.111589,-0.027695,-0.001348,-0.001961,-0.0474,-0.0,-0.0,2.0,0.282024,0.239819,0.282024,0.316634,,,,,,
171158,-0.151011,0.01272,-0.110628,-0.027695,-0.001372,-0.001944,-0.050674,-0.0,-0.0,2.0,0.282024,0.234581,0.282024,0.320043,,,,,,
171178,-0.163282,0.013055,-0.109625,-0.026633,-0.000346,-0.0021,-0.053105,-0.0,-0.0,2.0,0.282024,0.230474,0.282024,0.322601,,,,,,
171198,-0.17519,0.013307,-0.108516,-0.026634,-0.000371,-0.002096,-0.055738,-0.0,-0.0,2.0,0.282024,0.226348,0.282024,0.325073,,,,,,
171218,-0.186734,0.013588,-0.107393,-0.02557,-0.000395,-0.002092,-0.05956,-0.0,-0.0,2.0,0.282024,0.222742,0.282024,0.327154,,,,,,
171238,-0.197919,0.013777,-0.106291,-0.023453,-0.001671,-0.002921,-0.061392,-0.0,-0.0,2.0,0.282024,0.216182,0.282024,0.330759,,,,,,
171258,-0.208479,0.013873,-0.105304,-0.022375,-0.001482,-0.001862,-0.064173,-0.0,-0.0,2.0,0.282024,0.212044,0.282024,0.332915,,,,,,
171278,-0.218559,0.01415,-0.104062,-0.021296,-0.00127,-0.000808,-0.066697,-0.0,-0.0,2.0,0.282024,0.207701,0.282024,0.335086,,,,,,
171298,-0.22818,0.014705,-0.102813,-0.020247,-0.001518,-0.001833,-0.067959,-0.0,-0.0,2.0,0.282024,0.202594,0.282024,0.337518,,,,,,
171318,-0.237168,0.015073,-0.101459,-0.019203,-0.00075,-0.003104,-0.070332,-0.0,-0.0,2.0,0.282024,0.200481,0.282024,0.338487,,,,,,
171338,-0.245431,0.015474,-0.10024,-0.01814,-0.000776,-0.003097,-0.072276,-0.0,-0.0,2.0,0.282024,0.196132,0.282024,0.340415,,,,,,
171358,-0.252703,0.015798,-0.099165,-0.015996,-0.000532,-0.002061,-0.073825,-0.0,-0.0,2.0,0.282024,0.194212,0.282024,0.341238,,,,,,
171378,-0.25947,0.016064,-0.097859,-0.013868,-0.000546,-0.002057,-0.076533,-0.0,-0.0,2.0,0.282024,0.19322,0.282024,0.341656,,,,,,
171398,-0.265511,0.016375,-0.096575,-0.011757,-0.000838,-0.003081,-0.077439,-0.0,-0.0,2.0,0.282024,0.191407,0.282024,0.342409,,,,,,
171418,-0.270436,0.016474,-0.095587,-0.010671,-0.001594,-0.001767,-0.079408,-0.0,-0.0,2.0,0.282024,0.188508,0.282024,0.343583,,,,,,
171438,-0.274509,0.016535,-0.094408,-0.008543,-0.001601,-0.001761,-0.080882,-0.0,-0.0,2.0,0.282024,0.188186,0.282024,0.343711,,,,,,
171458,-0.27783,0.016758,-0.093206,-0.005351,-0.001607,-0.001755,-0.082216,-0.0,-0.0,2.0,0.282024,0.188205,0.282024,0.343703,,,,,,
171478,-0.280156,0.016793,-0.092061,-0.004303,-0.001906,-0.002774,-0.083411,-0.0,-0.0,2.0,0.282024,0.186266,0.282024,0.344464,,,,,,
171498,-0.281625,0.016976,-0.091038,-0.002158,-0.001614,-0.001749,-0.083993,-0.0,-0.0,2.0,0.282024,0.18702,0.282024,0.34417,,,,,,
171518,-0.28237,0.017198,-0.090044,-3e-05,-0.001615,-0.001748,-0.084781,-0.0,-0.0,2.0,0.282024,0.188344,0.282024,0.343648,,,,,,
171538,-0.282104,0.017227,-0.089093,0.002098,-0.001615,-0.001748,-0.085507,-0.0,-0.0,2.0,0.282024,0.187751,0.282024,0.343883,,,,,,
171558,-0.280992,0.017297,-0.088175,0.003162,-0.001613,-0.00175,-0.086412,-0.0,-0.0,2.0,0.282024,0.190424,0.282024,0.342812,,,,,,
171578,-0.279496,0.017246,-0.087393,0.004222,-0.000587,-0.002046,-0.086762,-0.0,-0.0,2.0,0.282024,0.190495,0.282024,0.342783,,,,,,
171598,-0.277511,0.017459,-0.08658,0.004221,-0.000583,-0.002047,-0.087111,-0.0,-0.0,2.0,0.282024,0.188399,0.282024,0.343626,,,,,,
171618,-0.275037,0.017573,-0.085803,0.005285,-0.000578,-0.002049,-0.087204,-0.0,-0.0,2.0,0.282024,0.189067,0.282024,0.343359,,,,,,
171638,-0.272173,0.017459,-0.085056,0.00635,-0.000572,-0.00205,-0.087266,-0.0,-0.0,2.0,0.282024,0.192401,0.282024,0.341998,,,,,,
171658,-0.268842,0.017729,-0.084276,0.007413,-0.000565,-0.002052,-0.087173,-0.0,-0.0,2.0,0.282024,0.191079,0.282024,0.342544,,,,,,
171678,-0.264896,0.017766,-0.083671,0.007413,-0.000557,-0.002055,-0.086809,-0.0,-0.0,2.0,0.282024,0.192534,0.282024,0.341943,,,,,,
171698,-0.260446,0.017685,-0.083201,0.009537,0.00048,-0.002331,-0.086809,-0.0,-0.0,2.0,0.282024,0.194551,0.282024,0.341094,,,,,,
171718,-0.255616,0.017633,-0.082606,0.010601,0.000491,-0.002329,-0.086208,-0.0,-0.0,2.0,0.282024,0.196458,0.282024,0.340273,,,,,,
171738,-0.250315,0.017463,-0.082175,0.010602,0.000504,-0.002326,-0.085231,-0.0,-0.0,2.0,0.282024,0.198462,0.282024,0.339393,,,,,,
171758,-0.24464,0.017412,-0.081841,0.011684,0.000775,-0.00129,-0.084584,-0.0,-0.0,2.0,0.282024,0.203123,0.282024,0.337272,,,,,,
171778,-0.238582,0.017252,-0.081515,0.012731,0.000531,-0.00232,-0.083458,-0.0,-0.0,2.0,0.282024,0.205511,0.282024,0.336144,,,,,,
171798,-0.231807,0.017001,-0.081235,0.012731,0.000547,-0.002316,-0.082291,-0.0,-0.0,2.0,0.282024,0.206199,0.282024,0.335815,,,,,,
171818,-0.224535,0.016739,-0.081189,0.014882,-0.000237,-0.001038,-0.080966,-0.0,-0.0,2.0,0.282024,0.211342,0.282024,0.333273,,,,,,
171838,-0.217262,0.016488,-0.081014,0.015946,-0.000229,-0.001039,-0.080265,-0.0,-0.0,2.0,0.282024,0.214701,0.282024,0.331541,,,,,,
171858,-0.209258,0.016131,-0.080984,0.017011,-0.000221,-0.001041,-0.078126,-0.0,-0.0,2.0,0.282024,0.215737,0.282024,0.330995,,,,,,
171878,-0.200773,0.015901,-0.081066,0.019139,-0.000212,-0.001043,-0.078126,-0.0,-0.0,2.0,0.282024,0.222028,0.282024,0.327558,,,,,,
171898,-0.192041,0.01557,-0.081034,0.01914,-0.000203,-0.001045,-0.075226,-0.0,-0.0,2.0,0.282024,0.223184,0.282024,0.326903,,,,,,
171918,-0.182823,0.015234,-0.081245,0.020223,-0.001046,0.000194,-0.073432,-0.0,-0.0,2.0,0.282024,0.225202,0.282024,0.325742,,,,,,
171938,-0.173125,0.015029,-0.081565,0.021287,-0.001048,0.000183,-0.07188,-0.0,-0.0,2.0,0.282024,0.231237,0.282024,0.322133,,,,,,
171958,-0.163174,0.014602,-0.081776,0.022349,0.0,0.0,-0.069403,-0.0,-0.0,2.0,0.282024,0.23334,0.282024,0.320827,,,,,,
171978,-0.152625,0.014433,-0.082087,0.022349,0.0,0.0,-0.067102,-0.0,-0.0,2.0,0.282024,0.235891,0.282024,0.319207,,,,,,
171998,-0.141838,0.014144,-0.082533,0.023396,0.000903,-0.001204,-0.064579,-0.0,-0.0,2.0,0.282024,0.240198,0.282024,0.31638,,,,,,
172018,-0.130924,0.013733,-0.083093,0.023409,0.00211,-0.000278,-0.063324,-0.0,-0.0,2.0,0.282024,0.245069,0.282024,0.313044,,,,,,
172038,-0.119645,0.01334,-0.083642,0.02341,0.002113,-0.000254,-0.061818,-0.0,-0.0,2.0,0.282024,0.24839,0.282024,0.310681,,,,,,
172058,-0.108369,0.012821,-0.084313,0.024476,0.001058,-0.000115,-0.056949,-0.0,-0.0,2.0,0.282024,0.251917,0.282024,0.308089,,,,,,
172078,-0.096717,0.012074,-0.085103,0.025554,0.000103,0.001059,-0.05473,-0.0,-0.0,2.0,0.282024,0.256669,0.282024,0.304457,,,,,,
172098,-0.085071,0.011332,-0.085882,0.025553,9e-05,0.00106,-0.053015,-0.0,-0.0,2.0,0.282024,0.260108,0.282024,0.301726,,,,,,
172118,-0.073175,0.010485,-0.086644,0.025553,-0.000984,0.001139,-0.048742,-0.0,-0.0,2.0,0.282024,0.262679,0.282024,0.299626,,,,,,
172138,-0.060924,0.009778,-0.087515,0.025552,6.5e-05,0.001062,-0.045669,-0.0,-0.0,2.0,0.282024,0.265916,0.282024,0.296906,,,,,,
172158,-0.048802,0.009196,-0.088371,0.02555,0.002178,0.000959,-0.04247,-0.0,-0.0,2.0,0.282024,0.269084,0.282024,0.294162,,,,,,
172178,-0.036431,0.008511,-0.089205,0.02555,0.002166,0.000986,-0.040778,-0.0,-0.0,2.0,0.282024,0.274287,0.282024,0.289468,,,,,,
172198,-0.024056,0.007712,-0.09015,0.026613,0.002153,0.001013,-0.037313,-0.0,-0.0,2.0,0.282024,0.277529,0.282024,0.286418,,,,,,
172218,-0.011669,0.006678,-0.091066,0.026613,0.001077,0.001052,-0.034165,-0.0,-0.0,2.0,0.282024,0.28089,0.282024,0.283151,,,,,,
172238,0.000833,0.005782,-0.092087,0.025548,0.001063,0.001065,-0.030698,-0.0,-0.0,2.0,0.282024,0.282929,0.282024,0.281115,,,,,,
172258,0.013221,0.004771,-0.093092,0.025547,0.002114,0.001092,-0.028907,-0.0,-0.0,2.0,0.282024,0.286855,0.282024,0.277071,,,,,,
172278,0.025366,0.003758,-0.093942,0.02555,0.002074,0.002182,-0.023162,-0.0,-0.0,2.0,0.282024,0.28938,0.282024,0.274381,,,,,,
172298,0.037391,0.002753,-0.094898,0.025547,0.000984,0.002167,-0.021197,-0.0,-0.0,2.0,0.282024,0.293159,0.282024,0.270218,,,,,,
172318,0.049179,0.001626,-0.095819,0.024479,0.002074,0.001168,-0.01731,-0.0,-0.0,2.0,0.282024,0.295041,0.282024,0.26808,,,,,,
172338,0.060848,0.000509,-0.096846,0.023414,0.001995,0.002254,-0.013689,-0.0,-0.0,2.0,0.282024,0.298229,0.282024,0.264353,,,,,,
172358,0.072279,-0.000616,-0.097618,0.023412,0.001969,0.002277,-0.009869,-0.0,-0.0,2.0,0.282024,0.300115,0.282024,0.262085,,,,,,
172378,0.08323,-0.00187,-0.098479,0.023413,0.002121,0.000177,-0.007871,-0.0,-0.0,2.0,0.282024,0.303658,0.282024,0.257688,,,,,,
172398,0.09406,-0.003113,-0.099431,0.022341,0.002979,0.002419,-0.005326,-0.0,-0.0,2.0,0.282024,0.305852,0.282024,0.254869,,,,,,
172418,0.10441,-0.004368,-0.100377,0.021274,0.001895,0.002339,-0.000991,-0.0,-0.0,2.0,0.282024,0.307395,0.282024,0.25284,,,,,,
172438,0.114287,-0.005893,-0.101045,0.020212,0.00305,0.001421,0.001405,-0.0,-0.0,2.0,0.282024,0.310581,0.282024,0.248528,,,,,,
172458,0.123788,-0.007169,-0.101947,0.019146,0.003037,0.00145,0.007667,-0.0,-0.0,2.0,0.282024,0.310227,0.282024,0.249015,,,,,,
172478,0.132809,-0.008587,-0.102704,0.01807,0.002883,0.002533,0.009707,-0.0,-0.0,2.0,0.282024,0.312173,0.282024,0.246305,,,,,,
172498,0.141223,-0.01002,-0.10357,0.017002,0.002861,0.002557,0.013667,-0.0,-0.0,2.0,0.282024,0.313419,0.282024,0.244533,,,,,,
172518,0.148909,-0.01149,-0.104309,0.015934,0.002842,0.002579,0.017402,-0.0,-0.0,2.0,0.282024,0.314537,0.282024,0.242917,,,,,,
172538,0.156116,-0.013099,-0.105031,0.013815,0.002988,0.001548,0.02098,-0.0,-0.0,2.0,0.282024,0.315574,0.282024,0.241397,,,,,,
172558,0.162711,-0.014602,-0.10588,0.012748,0.002978,0.001568,0.02316,-0.0,-0.0,2.0,0.282024,0.315774,0.282024,0.2411,,,,,,
172578,0.168584,-0.016259,-0.106724,0.010616,0.002969,0.001585,0.026027,-0.0,-0.0,2.0,0.282024,0.316703,0.282024,0.239715,,,,,,
172598,0.173586,-0.017713,-0.107582,0.009531,0.002777,0.002648,0.029308,-0.0,-0.0,2.0,0.282024,0.316189,0.282024,0.240484,,,,,,
172618,0.178084,-0.018835,-0.108355,0.007407,0.00067,0.002284,0.034301,-0.0,-0.0,2.0,0.282024,0.316123,0.282024,0.240582,,,,,,
172638,0.181682,-0.019262,-0.109316,0.006365,-0.000192,0.001047,0.036899,-0.0,-0.0,2.0,0.282024,0.315371,0.282024,0.241696,,,,,,
172658,0.184622,-0.019003,-0.11022,0.004221,-0.001437,0.001897,0.040899,-0.0,-0.0,2.0,0.282024,0.315156,0.282024,0.242013,,,,,,
172678,0.186792,-0.018068,-0.111095,0.003166,-0.003532,0.001499,0.044117,-0.0,-0.0,2.0,0.282024,0.31381,0.282024,0.24397,,,,,,
172698,0.18822,-0.016943,-0.111898,0.001057,-0.003335,0.000448,0.047246,-0.0,-0.0,2.0,0.282024,0.313398,0.282024,0.244563,,,,,,
172718,0.189028,-0.01583,-0.112945,0.001054,-0.002291,0.000645,0.048781,-0.0,-0.0,2.0,0.282024,0.313229,0.282024,0.244804,,,,,,
172738,0.189372,-0.015121,-0.113854,-2.9e-05,-0.001446,0.00189,0.050871,-0.0,-0.0,2.0,0.282024,0.312776,0.282024,0.245451,,,,,,
172758,0.189609,-0.014904,-0.114702,-0.00108,-0.000201,0.001045,0.053214,-0.0,-0.0,2.0,0.282024,0.31218,0.282024,0.246295,,,,,,
172778,0.189254,-0.014978,-0.115426,-0.002144,-0.0002,0.001045,0.057486,-0.0,-0.0,2.0,0.282024,0.311943,0.282024,0.246629,,,,,,
172798,0.188541,-0.015207,-0.116032,-0.002144,-0.000199,0.001045,0.060013,-0.0,-0.0,2.0,0.282024,0.310952,0.282024,0.248014,,,,,,
172818,0.187836,-0.015547,-0.116747,-0.003209,-0.000199,0.001046,0.062003,-0.0,-0.0,2.0,0.282024,0.310091,0.282024,0.249202,,,,,,
172838,0.186748,-0.015799,-0.117345,-0.003209,-0.000198,0.001046,0.064875,-0.0,-0.0,2.0,0.282024,0.309968,0.282024,0.249371,,,,,,
172858,0.18543,-0.016068,-0.117973,-0.003209,-0.000196,0.001046,0.067333,-0.0,-0.0,2.0,0.282024,0.309865,0.282024,0.249512,,,,,,
172878,0.184214,-0.016208,-0.118586,-0.004257,0.0,0.0,0.070094,-0.0,-0.0,2.0,0.282024,0.309668,0.282024,0.249782,,,,,,
172898,0.182763,-0.016475,-0.119318,-0.004274,-0.000193,0.001047,0.071726,-0.0,-0.0,2.0,0.282024,0.309713,0.282024,0.249721,,,,,,
172918,0.181283,-0.016268,-0.119973,-0.004271,-0.001239,0.000855,0.071726,-0.0,-0.0,2.0,0.282024,0.310217,0.282024,0.24903,,,,,,
172938,0.179806,-0.015941,-0.12066,-0.004271,-0.001237,0.000857,0.075029,-0.0,-0.0,2.0,0.282024,0.308568,0.282024,0.251273,,,,,,
172958,0.178189,-0.015523,-0.121098,-0.004254,-0.001047,-0.000189,0.076809,-0.0,-0.0,2.0,0.282024,0.308416,0.282024,0.251478,,,,,,
172978,0.176572,-0.015083,-0.121776,-0.00427,-0.001235,0.000861,0.077757,-0.0,-0.0,2.0,0.282024,0.308523,0.282024,0.251334,,,,,,
172998,0.174947,-0.014545,-0.122222,-0.004269,-0.001233,0.000863,0.080354,-0.0,-0.0,2.0,0.282024,0.308077,0.282024,0.251932,,,,,,
173018,0.173101,-0.014376,-0.122765,-0.004257,0.0,0.0,0.081259,-0.0,-0.0,2.0,0.282024,0.308051,0.282024,0.251967,,,,,,
173038,0.171377,-0.014201,-0.123303,-0.004272,-0.000181,0.001049,0.08263,-0.0,-0.0,2.0,0.282024,0.30789,0.282024,0.252182,,,,,,
173058,0.169661,-0.014147,-0.12383,-0.004257,0.0,0.0,0.083738,-0.0,-0.0,2.0,0.282024,0.307774,0.282024,0.252336,,,,,,
173078,0.167959,-0.014337,-0.124336,-0.004257,0.0,0.0,0.084705,-0.0,-0.0,2.0,0.282024,0.307698,0.282024,0.252438,,,,,,
173098,0.166121,-0.014293,-0.124866,-0.004269,-0.001226,0.000874,0.085275,-0.0,-0.0,2.0,0.282024,0.307695,0.282024,0.252442,,,,,,
173118,0.16429,-0.014391,-0.125145,-0.004254,-0.00105,-0.000174,0.086036,-0.0,-0.0,2.0,0.282024,0.307602,0.282024,0.252566,,,,,,
173138,0.162687,-0.014221,-0.125555,-0.00424,-0.000878,-0.001223,0.086656,-0.0,-0.0,2.0,0.282024,0.307598,0.282024,0.252572,,,,,,
173158,0.160947,-0.013827,-0.125868,-0.004255,-0.00105,-0.000171,0.086656,-0.0,-0.0,2.0,0.282024,0.307723,0.282024,0.252405,,,,,,
173178,0.159206,-0.013452,-0.125938,-0.00424,-0.000882,-0.00122,0.087174,-0.0,-0.0,2.0,0.282024,0.307675,0.282024,0.252469,,,,,,
173198,0.15757,-0.012948,-0.12599,-0.004241,-0.000884,-0.001218,0.087251,-0.0,-0.0,2.0,0.282024,0.307789,0.282024,0.252317,,,,,,
173218,0.15608,-0.012679,-0.12604,-0.003191,-0.001051,-0.000165,0.087241,-0.0,-0.0,2.0,0.282024,0.307942,0.282024,0.252113,,,,,,
173238,0.154468,-0.012427,-0.125973,-0.004244,0.000164,-0.001052,0.087072,-0.0,-0.0,2.0,0.282024,0.308096,0.282024,0.251907,,,,,,
173258,0.152986,-0.012279,-0.126013,-0.004242,-0.00089,-0.001214,0.086748,-0.0,-0.0,2.0,0.282024,0.308323,0.282024,0.251603,,,,,,
173278,0.151528,-0.012374,-0.126057,-0.003178,-0.000891,-0.001213,0.086529,-0.0,-0.0,2.0,0.282024,0.309664,0.282024,0.249788,,,,,,
173298,0.150061,-0.012478,-0.125957,-0.00318,0.000159,-0.001052,0.086101,-0.0,-0.0,2.0,0.282024,0.309894,0.282024,0.249473,,,,,,
173318,0.148837,-0.012557,-0.125971,-0.003179,0.000158,-0.001053,0.084907,-0.0,-0.0,2.0,0.282024,0.310451,0.282024,0.248707,,,,,,
173338,0.147506,-0.012896,-0.125849,-0.003177,-0.000896,-0.001209,0.084223,-0.0,-0.0,2.0,0.282024,0.310804,0.282024,0.248219,,,,,,
173358,0.146169,-0.013104,-0.125857,-0.003179,0.000155,-0.001053,0.083631,-0.0,-0.0,2.0,0.282024,0.311121,0.282024,0.247779,,,,,,
173378,0.144944,-0.013192,-0.125749,-0.003179,0.000154,-0.001053,0.081685,-0.0,-0.0,2.0,0.282024,0.31188,0.282024,0.246717,,,,,,
173398,0.143607,-0.013288,-0.125668,-0.003179,0.000152,-0.001053,0.080736,-0.0,-0.0,2.0,0.282024,0.312303,0.282024,0.246122,,,,,,
173418,0.142254,-0.013253,-0.125693,-0.003179,0.000151,-0.001054,0.079105,-0.0,-0.0,2.0,0.282024,0.311797,0.282024,0.246834,,,,,,
173438,0.140908,-0.013357,-0.125467,-0.003179,0.000149,-0.001054,0.077483,-0.0,-0.0,2.0,0.282024,0.312423,0.282024,0.245952,,,,,,
173458,0.139563,-0.013452,-0.125362,-0.003177,-0.000906,-0.001202,0.07662,-0.0,-0.0,2.0,0.282024,0.313942,0.282024,0.243781,,,,,,
173478,0.138088,-0.013433,-0.125268,-0.004243,0.000146,-0.001054,0.074133,-0.0,-0.0,2.0,0.282024,0.31366,0.282024,0.244186,,,,,,
173498,0.136362,-0.0133,-0.12531,-0.004243,0.000145,-0.001054,0.072399,-0.0,-0.0,2.0,0.282024,0.314208,0.282024,0.243395,,,,,,
173518,0.134774,-0.01341,-0.125211,-0.004255,-0.001055,-0.000143,0.071157,-0.0,-0.0,2.0,0.282024,0.314647,0.282024,0.242757,,,,,,
173538,0.132813,-0.013422,-0.125129,-0.004243,0.000141,-0.001055,0.06922,-0.0,-0.0,2.0,0.282024,0.315165,0.282024,0.241999,,,,,,
173558,0.13073,-0.013433,-0.12517,-0.005319,-0.001055,-0.000139,0.066183,-0.0,-0.0,2.0,0.282024,0.31489,0.282024,0.242402,,,,,,
173578,0.128404,-0.013468,-0.125097,-0.006384,-0.001055,-0.000136,0.063343,-0.0,-0.0,2.0,0.282024,0.314476,0.282024,0.243006,,,,,,
173598,0.125713,-0.013647,-0.125002,-0.006369,-0.000922,-0.001189,0.06201,-0.0,-0.0,2.0,0.282024,0.31461,0.282024,0.24281,,,,,,
173618,0.122772,-0.013592,-0.12507,-0.007433,-0.000926,-0.001187,0.059245,-0.0,-0.0,2.0,0.282024,0.313999,0.282024,0.243698,,,,,,
173638,0.119572,-0.013437,-0.125007,-0.008498,-0.00093,-0.001184,0.056411,-0.0,-0.0,2.0,0.282024,0.314434,0.282024,0.243067,,,,,,
173658,0.116015,-0.013426,-0.124943,-0.008498,-0.000934,-0.00118,0.05488,-0.0,-0.0,2.0,0.282024,0.313229,0.282024,0.244805,,,,,,
173678,0.112079,-0.013189,-0.12502,-0.009563,-0.000939,-0.001177,0.052105,-0.0,-0.0,2.0,0.282024,0.312296,0.282024,0.246132,,,,,,
173698,0.107784,-0.013102,-0.124974,-0.010627,-0.000944,-0.001173,0.049356,-0.0,-0.0,2.0,0.282024,0.311217,0.282024,0.247645,,,,,,
173718,0.102881,-0.01306,-0.124817,-0.011691,-0.000949,-0.001168,0.045132,-0.0,-0.0,2.0,0.282024,0.310373,0.282024,0.248814,,,,,,
173738,0.097727,-0.012905,-0.124788,-0.012756,-0.000955,-0.001163,0.042777,-0.0,-0.0,2.0,0.282024,0.308898,0.282024,0.250827,,,,,,
173758,0.092086,-0.012785,-0.124641,-0.01382,-0.000962,-0.001158,0.039202,-0.0,-0.0,2.0,0.282024,0.308754,0.282024,0.251022,,,,,,
173778,0.085961,-0.01281,-0.124591,-0.014872,0.000183,-0.002121,0.035718,-0.0,-0.0,2.0,0.282024,0.307262,0.282024,0.253017,,,,,,
173798,0.079338,-0.012627,-0.124454,-0.014886,8.4e-05,-0.001061,0.032348,-0.0,-0.0,2.0,0.282024,0.30438,0.282024,0.256768,,,,,,
173818,0.072239,-0.01272,-0.124164,-0.015949,-0.000985,-0.001138,0.02886,-0.0,-0.0,2.0,0.282024,0.302517,0.282024,0.259124,,,,,,
173838,0.064642,-0.012598,-0.123904,-0.017001,0.000137,-0.002124,0.02886,-0.0,-0.0,2.0,0.282024,0.299297,0.282024,0.263075,,,,,,
173858,0.056679,-0.012495,-0.123637,-0.018065,0.000121,-0.002125,0.022032,-0.0,-0.0,2.0,0.282024,0.299296,0.282024,0.263076,,,,,,
173878,0.048351,-0.012411,-0.123362,-0.019142,-0.001012,-0.001115,0.018989,-0.0,-0.0,2.0,0.282024,0.296719,0.282024,0.266136,,,,,,
173898,0.039528,-0.012235,-0.122961,-0.020194,-0.000979,-0.002169,0.016986,-0.0,-0.0,2.0,0.282024,0.29354,0.282024,0.269788,,,,,,
173918,0.030585,-0.012062,-0.122568,-0.020207,-0.001031,-0.001096,0.012037,-0.0,-0.0,2.0,0.282024,0.292469,0.282024,0.270991,,,,,,
173938,0.021024,-0.011799,-0.122143,-0.021259,-0.001019,-0.002151,0.008332,-0.0,-0.0,2.0,0.282024,0.289451,0.282024,0.274305,,,,,,
173958,0.011351,-0.01166,-0.121722,-0.022324,-0.00104,-0.002141,0.004627,-0.0,-0.0,2.0,0.282024,0.286323,0.282024,0.277629,,,,,,
173978,0.001297,-0.011295,-0.121306,-0.022325,-0.001061,-0.00213,0.000947,-0.0,-0.0,2.0,0.282024,0.284226,0.282024,0.279798,,,,,,
173998,-0.008984,-0.011184,-0.120992,-0.022337,-0.001074,-0.001055,-0.001377,-0.0,-0.0,2.0,0.282024,0.280176,0.282024,0.283855,,,,,,
174018,-0.019388,-0.011074,-0.120537,-0.02339,-0.001105,-0.002108,-0.003959,-0.0,-0.0,2.0,0.282024,0.27735,0.282024,0.286589,,,,,,
174038,-0.029915,-0.010967,-0.120084,-0.02339,-0.001127,-0.002096,-0.008657,-0.0,-0.0,2.0,0.282024,0.275128,0.282024,0.288686,,,,,,
174058,-0.040686,-0.010869,-0.119609,-0.023402,-0.001107,-0.00102,-0.012387,-0.0,-0.0,2.0,0.282024,0.272375,0.282024,0.29122,,,,,,
174078,-0.051474,-0.010519,-0.119008,-0.024455,-0.001172,-0.002071,-0.014457,-0.0,-0.0,2.0,0.282024,0.267459,0.282024,0.29558,,,,,,
174098,-0.062132,-0.010281,-0.118508,-0.023403,-0.001128,-0.000996,-0.018673,-0.0,-0.0,2.0,0.282024,0.264662,0.282024,0.29797,,,,,,
174118,-0.072917,-0.010041,-0.117886,-0.023403,-0.001139,-0.000984,-0.022413,-0.0,-0.0,2.0,0.282024,0.26295,0.282024,0.299401,,,,,,
174138,-0.083823,-0.009801,-0.117241,-0.024446,-0.000267,-0.003182,-0.025951,-0.0,-0.0,2.0,0.282024,0.258071,0.282024,0.303354,,,,,,
174158,-0.094369,-0.009533,-0.116597,-0.023404,-0.00116,-0.000959,-0.029511,-0.0,-0.0,2.0,0.282024,0.256154,0.282024,0.304859,,,,,,
174178,-0.105031,-0.009382,-0.115816,-0.022329,-0.000223,-0.002117,-0.031595,-0.0,-0.0,2.0,0.282024,0.253484,0.282024,0.306909,,,,,,
174198,-0.115442,-0.009324,-0.114904,-0.02233,-0.001302,-0.001992,-0.033977,-0.0,-0.0,2.0,0.282024,0.247783,0.282024,0.311118,,,,,,
174218,-0.125502,-0.009122,-0.114113,-0.022321,-0.001455,-0.003034,-0.038518,-0.0,-0.0,2.0,0.282024,0.246072,0.282024,0.312338,,,,,,
174238,-0.135313,-0.009013,-0.113194,-0.021265,-0.000287,-0.002109,-0.041553,-0.0,-0.0,2.0,0.282024,0.243743,0.282024,0.313968,,,,,,
174258,-0.144998,-0.008993,-0.112028,-0.021266,-0.000308,-0.002106,-0.04336,-0.0,-0.0,2.0,0.282024,0.239158,0.282024,0.317074,,,,,,
174278,-0.154209,-0.008692,-0.110837,-0.020194,-0.001542,-0.002991,-0.047646,-0.0,-0.0,2.0,0.282024,0.237375,0.282024,0.318246,,,,,,
174298,-0.163156,-0.008743,-0.109786,-0.01913,-0.001569,-0.002978,-0.050742,-0.0,-0.0,2.0,0.282024,0.235082,0.282024,0.319725,,,,,,
174318,-0.171632,-0.008494,-0.108471,-0.018067,-0.001594,-0.002964,-0.053715,-0.0,-0.0,2.0,0.282024,0.231083,0.282024,0.322229,,,,,,
174338,-0.179616,-0.00832,-0.107044,-0.018066,-0.00057,-0.003141,-0.056559,-0.0,-0.0,2.0,0.282024,0.230649,0.282024,0.322495,,,,,,
174358,-0.187248,-0.008106,-0.105513,-0.016992,0.000253,-0.004381,-0.058016,-0.0,-0.0,2.0,0.282024,0.227857,0.282024,0.32418,,,,,,
174378,-0.194237,-0.008102,-0.104093,-0.014864,0.000223,-0.004382,-0.059958,-0.0,-0.0,2.0,0.282024,0.225494,0.282024,0.325572,,,,,,
174398,-0.200739,-0.008295,-0.1026,-0.013799,0.000194,-0.004384,-0.063874,-0.0,-0.0,2.0,0.282024,0.224217,0.282024,0.326311,,,,,,
174418,-0.206617,-0.008568,-0.101111,-0.012744,-0.000655,-0.003125,-0.066013,-0.0,-0.0,2.0,0.282024,0.222323,0.282024,0.327391,,,,,,
174438,-0.212019,-0.008661,-0.099377,-0.011681,-0.001712,-0.002897,-0.06747,-0.0,-0.0,2.0,0.282024,0.220257,0.282024,0.328546,,,,,,
174458,-0.216707,-0.008467,-0.097631,-0.009543,-0.000915,-0.004157,-0.070409,-0.0,-0.0,2.0,0.282024,0.219234,0.282024,0.32911,,,,,,
174478,-0.220764,-0.008463,-0.095784,-0.008479,-0.000932,-0.004154,-0.072694,-0.0,-0.0,2.0,0.282024,0.220051,0.282024,0.32866,,,,,,
174498,-0.224086,-0.008296,-0.093922,-0.007413,9.2e-05,-0.004387,-0.074727,-0.0,-0.0,2.0,0.282024,0.21919,0.282024,0.329134,,,,,,
174518,-0.226677,-0.008197,-0.091968,-0.006349,8e-05,-0.004387,-0.075659,-0.0,-0.0,2.0,0.282024,0.220043,0.282024,0.328665,,,,,,
174538,-0.228877,-0.008332,-0.090154,-0.004212,-0.000171,-0.005424,-0.07761,-0.0,-0.0,2.0,0.282024,0.219666,0.282024,0.328873,,,,,,
174558,-0.230096,-0.008405,-0.088225,-0.003147,-0.000177,-0.005424,-0.079359,-0.0,-0.0,2.0,0.282024,0.219668,0.282024,0.328872,,,,,,
174578,-0.231066,-0.008601,-0.086436,-0.001026,6.1e-05,-0.004388,-0.080297,-0.0,-0.0,2.0,0.282024,0.221305,0.282024,0.327963,,,,,,
174598,-0.231317,-0.008614,-0.084408,3.6e-05,-0.000976,-0.004144,-0.082179,-0.0,-0.0,2.0,0.282024,0.219987,0.282024,0.328696,,,,,,
174618,-0.231183,-0.008761,-0.082626,0.001098,-0.002011,-0.0039,-0.083147,-0.0,-0.0,2.0,0.282024,0.220318,0.282024,0.328513,,,,,,
174638,-0.230571,-0.008753,-0.080719,0.001098,-0.002009,-0.003901,-0.083745,-0.0,-0.0,2.0,0.282024,0.22072,0.282024,0.328289,,,,,,
174658,-0.229592,-0.008489,-0.078775,0.002162,-0.002005,-0.003903,-0.084791,-0.0,-0.0,2.0,0.282024,0.219662,0.282024,0.328875,,,,,,
174678,-0.228632,-0.008093,-0.076711,0.002162,-0.000965,-0.004146,-0.085611,-0.0,-0.0,2.0,0.282024,0.218482,0.282024,0.329521,,,,,,
174698,-0.227404,-0.007945,-0.074785,0.002172,-0.000163,-0.005424,-0.086255,-0.0,-0.0,2.0,0.282024,0.219296,0.282024,0.329076,,,,,,
174718,-0.225933,-0.007791,-0.072863,0.003235,-0.000155,-0.005424,-0.086778,-0.0,-0.0,2.0,0.282024,0.218277,0.282024,0.329632,,,,,,
174738,-0.224454,-0.007882,-0.070967,0.003235,-0.000147,-0.005425,-0.08702,-0.0,-0.0,2.0,0.282024,0.219055,0.282024,0.329208,,,,,,
174758,-0.222726,-0.008102,-0.069209,0.003228,9.8e-05,-0.004387,-0.087163,-0.0,-0.0,2.0,0.282024,0.218024,0.282024,0.329769,,,,,,
174778,-0.220758,-0.008304,-0.067331,0.004302,-0.000127,-0.005425,-0.087256,-0.0,-0.0,2.0,0.282024,0.219043,0.282024,0.329215,,,,,,
174798,-0.218781,-0.008388,-0.065427,0.0043,-0.001155,-0.005194,-0.087167,-0.0,-0.0,2.0,0.282024,0.218077,0.282024,0.329741,,,,,,
174818,-0.216574,-0.008482,-0.063657,0.00429,-0.001954,-0.003929,-0.086862,-0.0,-0.0,2.0,0.282024,0.217139,0.282024,0.330247,,,,,,
174838,-0.214362,-0.008324,-0.061726,0.005354,-0.001945,-0.003933,-0.086665,-0.0,-0.0,2.0,0.282024,0.216277,0.282024,0.330708,,,,,,
174858,-0.2118,-0.008147,-0.059689,0.005353,-0.001935,-0.003938,-0.086147,-0.0,-0.0,2.0,0.282024,0.215472,0.282024,0.331135,,,,,,
174878,-0.209109,-0.007755,-0.057858,0.005353,-0.000884,-0.004164,-0.085447,-0.0,-0.0,2.0,0.282024,0.2166,0.282024,0.330536,,,,,,
174898,-0.206411,-0.007597,-0.05593,0.005362,-4.9e-05,-0.005426,-0.085037,-0.0,-0.0,2.0,0.282024,0.217916,0.282024,0.329828,,,,,,
174918,-0.203473,-0.007317,-0.053991,0.005353,0.000182,-0.004384,-0.084169,-0.0,-0.0,2.0,0.282024,0.215259,0.282024,0.331247,,,,,,
174938,-0.200289,-0.007169,-0.052187,0.006424,-1.6e-05,-0.005427,-0.082593,-0.0,-0.0,2.0,0.282024,0.216278,0.282024,0.330708,,,,,,
174958,-0.197097,-0.007271,-0.050405,0.006425,2e-06,-0.005427,-0.081417,-0.0,-0.0,2.0,0.282024,0.217543,0.282024,0.330029,,,,,,
174978,-0.19354,-0.007381,-0.048746,0.007482,0.000226,-0.004382,-0.080231,-0.0,-0.0,2.0,0.282024,0.217069,0.282024,0.330284,,,,,,
174998,-0.189739,-0.007602,-0.046975,0.007481,-0.000803,-0.004181,-0.078604,-0.0,-0.0,2.0,0.282024,0.218456,0.282024,0.329535,,,,,,
175018,-0.185801,-0.00796,-0.045326,0.008547,-0.000786,-0.004184,-0.077555,-0.0,-0.0,2.0,0.282024,0.218335,0.282024,0.329601,,,,,,
175038,-0.181638,-0.008077,-0.043662,0.009602,-0.001623,-0.002948,-0.075626,-0.0,-0.0,2.0,0.282024,0.217903,0.282024,0.329835,,,,,,
175058,-0.177099,-0.008193,-0.041988,0.009611,-0.001798,-0.004003,-0.073665,-0.0,-0.0,2.0,0.282024,0.219606,0.282024,0.328906,,,,,,
175078,-0.172452,-0.008204,-0.04043,0.010667,-0.001596,-0.002963,-0.072613,-0.0,-0.0,2.0,0.282024,0.219941,0.282024,0.328721,,,,,,
175098,-0.167426,-0.008336,-0.038873,0.010668,-0.000532,-0.003148,-0.070625,-0.0,-0.0,2.0,0.282024,0.220043,0.282024,0.328665,,,,,,
175118,-0.162039,-0.008349,-0.037305,0.010679,0.000364,-0.004373,-0.068293,-0.0,-0.0,2.0,0.282024,0.222081,0.282024,0.327528,,,,,,
175138,-0.156285,-0.008382,-0.035978,0.011734,0.000554,-0.00332,-0.065082,-0.0,-0.0,2.0,0.282024,0.223878,0.282024,0.326506,,,,,,
175158,-0.150285,-0.008541,-0.034657,0.0128,0.001626,-0.003475,-0.06346,-0.0,-0.0,2.0,0.282024,0.226568,0.282024,0.324943,,,,,,
175178,-0.14404,-0.008835,-0.033464,0.012809,0.000442,-0.004366,-0.061951,-0.0,-0.0,2.0,0.282024,0.229453,0.282024,0.323222,,,,,,
175198,-0.137188,-0.009005,-0.032257,0.014928,-0.000437,-0.003163,-0.057704,-0.0,-0.0,2.0,0.282024,0.231321,0.282024,0.322082,,,,,,
175218,-0.130213,-0.009311,-0.031176,0.015993,-0.000415,-0.003166,-0.054489,-0.0,-0.0,2.0,0.282024,0.233752,0.282024,0.320568,,,,,,
175238,-0.122753,-0.009382,-0.030196,0.015982,-0.001317,-0.001982,-0.052978,-0.0,-0.0,2.0,0.282024,0.235504,0.282024,0.319455,,,,,,
175258,-0.114926,-0.009577,-0.029219,0.01811,-0.002358,-0.00187,-0.049994,-0.0,-0.0,2.0,0.282024,0.238459,0.282024,0.317535,,,,,,
175278,-0.106985,-0.009663,-0.028357,0.018111,-0.001285,-0.002003,-0.046832,-0.0,-0.0,2.0,0.282024,0.239754,0.282024,0.316678,,,,,,
175298,-0.098306,-0.009751,-0.027607,0.018112,-0.000209,-0.002118,-0.04477,-0.0,-0.0,2.0,0.282024,0.241906,0.282024,0.315228,,,,,,
175318,-0.089263,-0.009725,-0.026968,0.019177,-0.00019,-0.00212,-0.042154,-0.0,-0.0,2.0,0.282024,0.247227,0.282024,0.311517,,,,,,
175338,-0.079977,-0.009949,-0.026462,0.020232,0.000976,-0.001146,-0.037267,-0.0,-0.0,2.0,0.282024,0.250058,0.282024,0.309465,,,,,,
175358,-0.070326,-0.010056,-0.026066,0.021295,-7.5e-05,-0.001062,-0.033933,-0.0,-0.0,2.0,0.282024,0.252132,0.282024,0.307927,,,,,,
175378,-0.060184,-0.010289,-0.025912,0.02236,-6.4e-05,-0.001062,-0.03145,-0.0,-0.0,2.0,0.282024,0.256306,0.282024,0.304741,,,,,,
175398,-0.049923,-0.010526,-0.025877,0.022348,-0.001063,5.3e-05,-0.027661,-0.0,-0.0,2.0,0.282024,0.26001,0.282024,0.301805,,,,,,
175418,-0.039298,-0.010635,-0.025832,0.023413,-0.001063,4.2e-05,-0.023947,-0.0,-0.0,2.0,0.282024,0.262432,0.282024,0.299829,,,,,,
175438,-0.028306,-0.010865,-0.026031,0.023413,0.0,0.0,-0.020392,-0.0,-0.0,2.0,0.282024,0.266519,0.282024,0.29639,,,,,,
175458,-0.016947,-0.010967,-0.026463,0.024466,0.001082,0.001046,-0.018568,-0.0,-0.0,2.0,0.282024,0.27137,0.282024,0.292129,,,,,,
