time_ms,roll,pitch,yaw,reference_roll,reference_pitch,reference_yaw,reference_throttle,throttle_1,throttle_2,throttle_3,throttle_4,roll_predicted,pitch_predicted,yaw_predicted,roll_rate_predicted,pitch_rate_predicted,yaw_rate_predicted,value1,value2,value3,value4,value5,value6
190910,-0.002648,-0.003075,-0.106393,-0.0,-0.0,-0.0,3.0,0.337097,0.32028,0.314575,0.331782,-0.0,-0.0,-0.0,-0.0,0.0,-0.0,-0.024523,-0.000917,-0.04257,0.015736,-0.000266,0.000606
190930,-0.00216,-0.003049,-0.106393,0.0,-0.0,-0.0,3.0,0.33615,0.320329,0.315611,0.331736,-0.0,-0.0,-0.0,0.0,-0.0,-0.0,-0.024241,-0.000922,-0.042558,0.017377,-0.000251,0.000604
190950,-0.001679,-0.002901,-0.106513,0.0,-0.0,-0.0,3.0,0.334101,0.320589,0.317823,0.331488,-0.0,-0.0,-0.0,0.0,0.0,-0.0,-0.023919,-0.000927,-0.042546,0.018017,-0.000224,0.000603
190970,-0.001429,-0.00301,-0.106513,0.0,-0.0,-0.0,3.0,0.333434,0.320507,0.318536,0.331566,-0.0,-0.0,-0.0,0.0,0.0,-0.0,-0.023608,-0.000932,-0.042534,0.016599,-0.000222,0.000602
190990,-0.00132,-0.00276,-0.106634,0.0,-0.0,-0.0,3.0,0.329916,0.320408,0.322223,0.33166,-0.0,-0.0,-0.0,0.0,0.0,-0.0,-0.023331,-0.000937,-0.042522,0.015777,-0.000208,0.000589
191010,-0.001326,-0.002638,-0.106634,0.0,-0.0,-0.0,3.0,0.332234,0.32017,0.319806,0.331888,-0.0,-0.0,-0.0,0.0,-0.0,-0.0,-0.023104,-0.000942,-0.042511,0.008524,-0.000221,0.000576
191030,-0.001326,-0.002638,-0.106634,0.0,-0.0,-0.0,3.0,0.333417,0.319763,0.318553,0.332274,-0.0,-0.0,-0.0,0.0,0.0,-0.0,-0.022991,-0.000946,-0.042499,0.006284,-0.000233,0.000562
191050,-0.001442,-0.002766,-0.106634,0.0,-0.0,-0.0,3.0,0.334043,0.319403,0.317885,0.332616,-0.0,-0.0,-0.0,0.0,0.0,-0.0,-0.022934,-0.000951,-0.042488,0.0025,-0.000233,0.000561
191070,-0.001442,-0.002766,-0.106634,0.0,-0.0,-0.0,3.0,0.333987,0.319089,0.317945,0.332912,-0.0,-0.0,-0.0,0.0,-0.0,-0.0,-0.022941,-0.000956,-0.042477,-0.002509,-0.000234,0.00056
191090,-0.001698,-0.002536,-0.106634,0.0,-0.0,-0.0,3.0,0.33371,0.318952,0.318241,0.333042,-0.0,-0.0,-0.0,0.0,0.0,-0.0,-0.022977,-0.00096,-0.042465,-0.007051,-0.000222,0.000571
191110,-0.002064,-0.002555,-0.106634,0.0,-0.0,-0.0,3.0,0.33572,0.318696,0.316079,0.333283,-0.0,-0.0,-0.0,0.0,-0.0,-0.0,-0.023066,-0.000965,-0.042454,-0.010181,-0.000235,0.00057
191130,-0.002302,-0.00269,-0.106514,0.0,-0.0,-0.0,3.0,0.335681,0.318675,0.316121,0.333303,-0.0,-0.0,-0.0,0.0,-0.0,-0.0,-0.023183,-0.000969,-0.042442,-0.010273,-0.000235,0.000569
191150,-0.002667,-0.002709,-0.106514,0.0,-0.0,-0.0,3.0,0.337563,0.318519,0.314062,0.333449,-0.0,-0.0,-0.0,0.0,0.0,-0.0,-0.023338,-0.000974,-0.042431,-0.009587,-0.000236,0.00058
191170,-0.002905,-0.002844,-0.106514,0.0,-0.0,-0.0,3.0,0.337591,0.318304,0.314031,0.333651,-0.0,-0.0,-0.0,0.0,0.0,-0.0,-0.023537,-0.000978,-0.042419,-0.00795,-0.000236,0.000578
191190,-0.00302,-0.002973,-0.106515,0.0,-0.0,-0.0,3.0,0.336248,0.31814,0.315504,0.333805,-0.0,-0.0,-0.0,0.0,-0.0,-0.0,-0.023754,-0.000982,-0.042408,-0.006075,-0.000224,0.000589
191210,-0.003148,-0.002857,-0.106515,0.0,-0.0,-0.0,3.0,0.3326,0.31769,0.319419,0.334226,-0.0,-0.0,-0.0,0.0,0.0,-0.0,-0.024,-0.000987,-0.042396,-0.011613,-0.000189,0.000588
191230,-0.003399,-0.002748,-0.106515,0.0,-0.0,-0.0,3.0,0.332691,0.317496,0.319324,0.334406,-0.0,-0.0,-0.0,0.0,0.0,-0.0,-0.024267,-0.000991,-0.042384,-0.01112,-0.00019,0.000587
191250,-0.003784,-0.002402,-0.106514,0.0,-0.0,-0.0,3.0,0.330717,0.317371,0.321393,0.334523,-0.0,-0.0,-0.0,0.0,-0.0,-0.0,-0.024525,-0.000995,-0.042373,-0.010817,-0.000191,0.000574
191270,-0.004156,-0.0023,-0.106514,0.0,-0.0,-0.0,3.0,0.330528,0.317184,0.321589,0.334697,-0.0,-0.0,-0.0,0.0,0.0,-0.0,-0.024791,-0.001,-0.042361,-0.015639,-0.000181,0.000573
191290,-0.004393,-0.002435,-0.106515,0.0,-0.0,-0.0,3.0,0.333213,0.31714,0.318771,0.334738,-0.0,-0.0,-0.0,0.0,-0.0,-0.0,-0.025075,-0.001004,-0.04235,-0.016942,-0.000219,0.000559
191310,-0.004522,-0.00232,-0.106636,0.0,-0.0,-0.0,3.0,0.333174,0.317154,0.318811,0.334725,-0.0,-0.0,-0.0,0.0,0.0,-0.0,-0.025355,-0.001008,-0.042339,-0.011169,-0.000207,0.000558
191330,-0.004631,-0.00257,-0.106636,0.0,-0.0,-0.0,3.0,0.337822,0.317205,0.313776,0.334678,-0.0,-0.0,-0.0,0.0,-0.0,-0.0,-0.025573,-0.001012,-0.042328,-0.008866,-0.000231,0.000557
191350,-0.004631,-0.00257,-0.106636,0.0,-0.0,-0.0,3.0,0.337021,0.317395,0.314659,0.334501,-0.0,-0.0,-0.0,0.0,0.0,-0.0,-0.02574,-0.001016,-0.042316,-0.005321,-0.000231,0.000556
191370,-0.004509,-0.002564,-0.106757,0.0,-0.0,-0.0,3.0,0.336679,0.317712,0.315034,0.334205,-0.0,-0.0,-0.0,0.0,0.0,-0.0,-0.025822,-0.001021,-0.042305,-0.003583,-0.00023,0.000555
191390,-0.004374,-0.002801,-0.106758,0.0,-0.0,-0.0,3.0,0.33812,0.318085,0.313446,0.333856,-0.0,-0.0,-0.0,0.0,-0.0,-0.0,-0.025827,-0.001025,-0.042294,-0.000763,-0.000242,0.000554
191410,-0.00413,-0.002788,-0.106758,0.0,-0.0,-0.0,3.0,0.337317,0.318319,0.314334,0.333638,-0.0,-0.0,-0.0,0.0,0.0,-0.0,-0.025785,-0.001029,-0.042283,0.00078,-0.000228,0.000553
191430,-0.00413,-0.002788,-0.106758,0.0,-0.0,-0.0,3.0,0.337997,0.318525,0.313582,0.333443,-0.0,-0.0,-0.0,0.0,0.0,-0.0,-0.025705,-0.001033,-0.042272,0.006817,-0.000226,0.000552
191450,-0.003879,-0.002897,-0.106758,0.0,-0.0,-0.0,3.0,0.337142,0.318596,0.314526,0.333377,-0.0,-0.0,-0.0,0.0,0.0,-0.0,-0.025603,-0.001037,-0.042261,0.012269,-0.000211,0.000551
191470,-0.003405,-0.002627,-0.106636,0.0,-0.0,-0.0,3.0,0.3313,0.318843,0.320786,0.333144,-0.0,-0.0,-0.0,0.0,0.0,-0.0,-0.025429,-0.001042,-0.042251,0.013194,-0.000161,0.00055
191490,-0.003039,-0.002607,-0.106635,0.0,-0.0,-0.0,3.0,0.331074,0.319078,0.321021,0.332923,-0.0,-0.0,-0.0,0.0,-0.0,-0.0,-0.025198,-0.001045,-0.04224,0.01089,-0.00016,0.000548
191510,-0.002809,-0.00235,-0.106635,0.0,-0.0,-0.0,3.0,0.328535,0.319199,0.323641,0.332809,-0.0,-0.0,-0.0,0.0,-0.0,-0.0,-0.024959,-0.001049,-0.042229,0.010984,-0.000158,0.000547
191530,-0.002571,-0.002215,-0.106634,0.0,-0.0,-0.0,3.0,0.328892,0.31955,0.323275,0.332477,-0.0,-0.0,-0.0,0.0,0.0,-0.0,-0.024669,-0.001053,-0.042218,0.010147,-0.000169,0.000534
191550,-0.002443,-0.002331,-0.106634,0.0,-0.0,-0.0,3.0,0.333365,0.319598,0.318609,0.332431,-0.0,-0.0,-0.0,0.0,-0.0,-0.0,-0.024394,-0.001057,-0.042207,0.010045,-0.000216,0.000533
191570,-0.002071,-0.002433,-0.106634,0.0,-0.0,-0.0,3.0,0.335799,0.319836,0.315993,0.332205,-0.0,-0.0,-0.0,0.0,-0.0,-0.0,-0.024126,-0.001062,-0.042196,0.017541,-0.000236,0.000532
191590,-0.001814,-0.002664,-0.106513,0.0,-0.0,-0.0,3.0,0.338256,0.319778,0.313295,0.33226,-0.0,-0.0,-0.0,0.0,0.0,-0.0,-0.023842,-0.001066,-0.042186,0.016826,-0.000247,0.000543
191610,-0.001442,-0.002766,-0.106513,0.0,-0.0,-0.0,3.0,0.337242,0.319574,0.314415,0.332454,-0.0,-0.0,-0.0,0.0,0.0,-0.0,-0.023596,-0.00107,-0.042174,0.011484,-0.000234,0.000554
191630,-0.001198,-0.002753,-0.106512,0.0,-0.0,-0.0,3.0,0.337539,0.319702,0.314089,0.332332,-0.0,-0.0,-0.0,0.0,-0.0,-0.0,-0.023358,-0.001075,-0.042163,0.011599,-0.000233,0.000553
191650,-0.001191,-0.002875,-0.106513,0.0,-0.0,-0.0,3.0,0.338273,0.319586,0.313277,0.332442,-0.0,-0.0,-0.0,0.0,-0.0,-0.0,-0.023133,-0.001079,-0.042152,0.009408,-0.000231,0.000564
191670,-0.000948,-0.002862,-0.106512,0.0,-0.0,-0.0,3.0,0.335626,0.31966,0.31618,0.332372,-0.0,-0.0,-0.0,0.0,-0.0,-0.0,-0.022929,-0.001083,-0.042141,0.010115,-0.000218,0.000551
191690,-0.000826,-0.002856,-0.106512,0.0,-0.0,-0.0,3.0,0.336453,0.319831,0.31528,0.33221,-0.0,-0.0,-0.0,0.0,-0.0,-0.0,-0.022699,-0.001087,-0.04213,0.007827,-0.000216,0.00055
191710,-0.000575,-0.002965,-0.106633,0.0,-0.0,-0.0,3.0,0.334628,0.320023,0.317259,0.332028,-0.0,-0.0,-0.0,0.0,0.0,-0.0,-0.022481,-0.001092,-0.042119,0.010823,-0.000202,0.000549
191730,-0.000216,-0.002823,-0.106632,0.0,-0.0,-0.0,3.0,0.331959,0.320042,0.320095,0.332009,0.0,-0.0,-0.0,0.0,-0.0,-0.0,-0.022256,-0.001096,-0.042108,0.011092,-0.000188,0.000536
191750,0.000137,-0.00256,-0.106753,0.0,-0.0,-0.0,3.0,0.330569,0.320322,0.321546,0.331742,0.0,-0.0,-0.0,0.0,-0.0,-0.0,-0.022002,-0.0011,-0.042098,0.015901,-0.000173,0.000522
191770,0.000368,-0.002303,-0.106874,0.0,-0.0,-0.0,3.0,0.331523,0.320582,0.320552,0.331494,0.0,-0.0,-0.0,0.0,0.0,-0.0,-0.021688,-0.001104,-0.042087,0.014544,-0.000183,0.000509
191790,0.000727,-0.002162,-0.106874,0.0,-0.0,-0.0,3.0,0.330222,0.320817,0.321907,0.33127,0.0,-0.0,-0.0,0.0,-0.0,-0.0,-0.021374,-0.001108,-0.042077,0.018211,-0.00018,0.000496
191810,0.001099,-0.002264,-0.106994,0.0,-0.0,-0.0,3.0,0.334424,0.320787,0.317477,0.331299,0.0,-0.0,-0.0,0.0,-0.0,-0.0,-0.021058,-0.001112,-0.042067,0.014402,-0.000204,0.000483
191830,0.001465,-0.002244,-0.107115,0.0,-0.0,-0.0,3.0,0.336885,0.320968,0.314808,0.331125,0.0,-0.0,-0.0,0.0,-0.0,-0.0,-0.020755,-0.001116,-0.042057,0.018441,-0.000213,0.000482
191850,0.001728,-0.002597,-0.107115,0.0,-0.0,-0.0,3.0,0.341092,0.320975,0.310108,0.331118,0.0,-0.0,-0.0,0.0,-0.0,-0.0,-0.020447,-0.001119,-0.042048,0.017228,-0.000223,0.000481
191870,0.001985,-0.002828,-0.107114,0.0,-0.0,-0.0,3.0,0.339296,0.320805,0.312136,0.331281,0.0,-0.0,-0.0,0.0,0.0,-0.0,-0.020173,-0.001123,-0.042038,0.014001,-0.000222,0.00048
191890,0.002229,-0.002814,-0.107114,0.0,-0.0,-0.0,3.0,0.338516,0.320801,0.313006,0.331285,0.0,-0.0,-0.0,0.0,-0.0,-0.0,-0.019918,-0.001127,-0.042028,0.011058,-0.000209,0.000479
191910,0.002235,-0.002937,-0.106992,0.0,-0.0,-0.0,3.0,0.335953,0.320808,0.315825,0.331279,0.0,-0.0,-0.0,0.0,-0.0,-0.0,-0.019676,-0.001131,-0.042019,0.005781,-0.000196,0.000491
191930,0.002229,-0.002815,-0.106992,0.0,-0.0,-0.0,3.0,0.333655,0.32073,0.3183,0.331353,0.0,-0.0,-0.0,0.0,0.0,-0.0,-0.019493,-0.001135,-0.042009,0.004501,-0.000195,0.00049
191950,0.002351,-0.002808,-0.106871,0.0,-0.0,-0.0,3.0,0.333046,0.320891,0.318948,0.331199,0.0,-0.0,-0.0,0.0,-0.0,-0.0,-0.019317,-0.001139,-0.041999,0.00335,-0.000194,0.000501
191970,0.0021,-0.002699,-0.106872,0.0,-0.0,-0.0,3.0,0.331483,0.320755,0.320594,0.331329,0.0,-0.0,-0.0,0.0,0.0,-0.0,-0.019185,-0.001144,-0.041989,0.002995,-0.000181,0.0005
191990,0.002222,-0.002693,-0.10675,0.0,-0.0,-0.0,3.0,0.333739,0.32054,0.31821,0.331535,0.0,-0.0,-0.0,0.0,-0.0,-0.0,-0.019136,-0.001148,-0.041979,0.007401,-0.000204,0.000511
192010,0.002459,-0.002558,-0.10675,0.0,-0.0,-0.0,3.0,0.332445,0.320476,0.319584,0.331595,0.0,-0.0,-0.0,0.0,0.0,-0.0,-0.019076,-0.001152,-0.041969,0.005983,-0.000191,0.00051
192030,0.002581,-0.002552,-0.106628,0.0,-0.0,-0.0,3.0,0.332445,0.320361,0.319583,0.331705,0.0,-0.0,-0.0,0.0,-0.0,-0.0,-0.019029,-0.001156,-0.041959,0.002415,-0.000191,0.000509
192050,0.002459,-0.002558,-0.106629,0.0,-0.0,-0.0,3.0,0.333907,0.320248,0.318031,0.331813,0.0,-0.0,-0.0,0.0,-0.0,-0.0,-0.01901,-0.00116,-0.041949,0.002278,-0.000215,0.000508
192070,0.002459,-0.002558,-0.10675,0.0,-0.0,-0.0,3.0,0.335472,0.320297,0.316348,0.331767,0.0,-0.0,-0.0,0.0,0.0,-0.0,-0.018984,-0.001164,-0.041938,0.001879,-0.000227,0.000495
192090,0.002351,-0.002808,-0.106871,0.0,-0.0,-0.0,3.0,0.339336,0.320107,0.312091,0.331947,0.0,-0.0,-0.0,0.0,0.0,-0.0,-0.018993,-0.001169,-0.041928,-0.00024,-0.000252,0.000506
192110,0.002601,-0.002917,-0.10687,0.0,-0.0,-0.0,3.0,0.338803,0.320275,0.312687,0.331787,0.0,-0.0,-0.0,0.0,-0.0,-0.0,-0.018993,-0.001173,-0.041918,0.0022,-0.000238,0.000505
192130,0.002608,-0.003039,-0.10687,0.0,-0.0,-0.0,3.0,0.338454,0.320463,0.313075,0.331608,0.0,-0.0,-0.0,0.0,0.0,-0.0,-0.01893,-0.001177,-0.041908,0.00059,-0.000214,0.000504
192150,0.002608,-0.003039,-0.10687,0.0,-0.0,-0.0,3.0,0.335855,0.320405,0.315933,0.331664,0.0,-0.0,-0.0,0.0,0.0,-0.0,-0.018898,-0.001181,-0.041898,-0.002795,-0.000202,0.000503
192170,0.002588,-0.002673,-0.106871,0.0,-0.0,-0.0,3.0,0.332241,0.320595,0.319798,0.331482,0.0,-0.0,-0.0,0.0,-0.0,-0.0,-0.01885,-0.001185,-0.041888,-0.0015,-0.000176,0.00049
192190,0.00246,-0.002558,-0.106992,0.0,-0.0,-0.0,3.0,0.331677,0.320673,0.320391,0.331408,0.0,-0.0,-0.0,0.0,0.0,-0.0,-0.018802,-0.001189,-0.041879,0.002501,-0.000162,0.000489
192210,0.002582,-0.002551,-0.106992,0.0,-0.0,-0.0,3.0,0.332087,0.320724,0.31996,0.331359,0.0,-0.0,-0.0,0.0,0.0,-0.0,-0.01875,-0.001193,-0.041869,0.00154,-0.000174,0.000476
192230,0.002703,-0.002545,-0.106992,0.0,-0.0,-0.0,3.0,0.333978,0.320973,0.317955,0.33112,0.0,-0.0,-0.0,0.0,-0.0,-0.0,-0.018691,-0.001197,-0.04186,0.008299,-0.000196,0.000475
192250,0.002954,-0.002654,-0.106991,0.0,-0.0,-0.0,3.0,0.335191,0.320837,0.316651,0.331251,0.0,-0.0,-0.0,0.0,0.0,-0.0,-0.018627,-0.001201,-0.04185,0.007087,-0.000208,0.000474
192270,0.003197,-0.002641,-0.10687,0.0,-0.0,-0.0,3.0,0.332688,0.320833,0.319326,0.331254,0.0,-0.0,-0.0,0.0,0.0,-0.0,-0.018564,-0.001205,-0.041841,0.008191,-0.000195,0.000473
192290,0.003441,-0.002628,-0.106869,0.0,-0.0,-0.0,3.0,0.335277,0.320824,0.316558,0.331263,0.0,-0.0,-0.0,0.0,0.0,-0.0,-0.018484,-0.001209,-0.041831,0.006639,-0.000207,0.000472
192310,0.003319,-0.002634,-0.106869,0.0,-0.0,-0.0,3.0,0.33534,0.320881,0.316491,0.331208,0.0,-0.0,-0.0,0.0,-0.0,-0.0,-0.018377,-0.001213,-0.041822,0.004377,-0.000206,0.000483
192330,0.003204,-0.002763,-0.106748,0.0,-0.0,-0.0,3.0,0.336562,0.320784,0.315161,0.331301,0.0,-0.0,-0.0,0.0,0.0,-0.0,-0.018306,-0.001217,-0.041812,0.000561,-0.000231,0.000494
192350,0.003326,-0.002756,-0.106748,0.0,-0.0,-0.0,3.0,0.336533,0.321018,0.315194,0.331077,0.0,-0.0,-0.0,0.0,0.0,-0.0,-0.01823,-0.001221,-0.041802,-0.001181,-0.000218,0.000493
192370,0.003345,-0.003122,-0.106626,0.0,-0.0,-0.0,3.0,0.339603,0.321035,0.311792,0.331061,0.0,-0.0,-0.0,0.0,-0.0,-0.0,-0.01817,-0.001225,-0.041792,-0.002172,-0.000242,0.000504
192390,0.003223,-0.003129,-0.106627,0.0,-0.0,-0.0,3.0,0.336215,0.320964,0.315541,0.331129,0.0,-0.0,-0.0,0.0,-0.0,-0.0,-0.018142,-0.00123,-0.041782,0.002117,-0.000216,0.000516
192410,0.003101,-0.003135,-0.106506,0.0,-0.0,-0.0,3.0,0.334312,0.320925,0.317597,0.331166,0.0,-0.0,-0.0,0.0,-0.0,-0.0,-0.018105,-0.001234,-0.041771,-0.001395,-0.000204,0.000515
192430,0.003217,-0.003007,-0.106505,0.0,-0.0,-0.0,3.0,0.332821,0.320867,0.319186,0.331222,0.0,-0.0,-0.0,0.0,0.0,-0.0,-0.018122,-0.001239,-0.041761,0.001544,-0.000203,0.000514
192450,0.00321,-0.002885,-0.106384,0.0,-0.0,-0.0,3.0,0.331476,0.321087,0.320601,0.331011,0.0,-0.0,-0.0,0.0,-0.0,-0.0,-0.018088,-0.001243,-0.041751,0.003406,-0.000202,0.000513
192470,0.003447,-0.00275,-0.106384,0.0,-0.0,-0.0,3.0,0.331581,0.321221,0.320492,0.330882,0.0,-0.0,-0.0,0.0,0.0,-0.0,-0.018043,-0.001248,-0.041741,0.005179,-0.000213,0.000512
192490,0.003576,-0.002866,-0.106505,0.0,-0.0,-0.0,3.0,0.334871,0.321175,0.316996,0.330926,0.0,-0.0,-0.0,0.0,0.0,-0.0,-0.017997,-0.001252,-0.04173,0.004479,-0.000237,0.000511
192510,0.003576,-0.002866,-0.106505,0.0,-0.0,-0.0,3.0,0.335497,0.321086,0.316321,0.331012,0.0,-0.0,-0.0,0.0,-0.0,-0.0,-0.01797,-0.001257,-0.04172,0.006482,-0.000236,0.00051
192530,0.003698,-0.002859,-0.106505,0.0,-0.0,-0.0,3.0,0.336915,0.320938,0.314775,0.331153,0.0,-0.0,-0.0,0.0,0.0,-0.0,-0.017948,-0.001261,-0.04171,0.006018,-0.000235,0.000509
192550,0.00382,-0.002853,-0.106505,0.0,-0.0,-0.0,3.0,0.334907,0.320884,0.316958,0.331206,0.0,-0.0,-0.0,0.0,-0.0,-0.0,-0.017925,-0.001265,-0.0417,0.002665,-0.000211,0.000507
192570,0.003698,-0.002859,-0.106626,0.0,-0.0,-0.0,3.0,0.335996,0.321014,0.315779,0.331081,0.0,-0.0,-0.0,0.0,0.0,-0.0,-0.017874,-0.00127,-0.04169,-0.000977,-0.000211,0.000494
192590,0.003704,-0.002981,-0.106626,0.0,-0.0,-0.0,3.0,0.336551,0.321043,0.315174,0.331053,0.0,-0.0,-0.0,0.0,0.0,-0.0,-0.017847,-0.001274,-0.04168,-0.003988,-0.000224,0.000493
192610,0.003582,-0.002987,-0.106626,0.0,-0.0,-0.0,3.0,0.336319,0.321267,0.315427,0.330838,0.0,-0.0,-0.0,0.0,-0.0,-0.0,-0.017801,-0.001278,-0.04167,-0.004969,-0.000223,0.000492
192630,0.003461,-0.002994,-0.106747,0.0,-0.0,-0.0,3.0,0.336237,0.321335,0.315516,0.330772,0.0,-0.0,-0.0,-0.0,-0.0,-0.0,-0.01778,-0.001282,-0.04166,-0.002827,-0.000222,0.000479
192650,0.003223,-0.003129,-0.106748,0.0,-0.0,-0.0,3.0,0.335382,0.321258,0.316446,0.330847,0.0,-0.0,-0.0,0.0,-0.0,-0.0,-0.017781,-0.001287,-0.041651,-0.000361,-0.000209,0.00049
192670,0.00346,-0.002994,-0.106626,0.0,-0.0,-0.0,3.0,0.333441,0.321079,0.318528,0.331019,0.0,-0.0,-0.0,0.0,0.0,-0.0,-0.017829,-0.001291,-0.041641,0.000506,-0.000196,0.000489
192690,0.003454,-0.002872,-0.106626,0.0,-0.0,-0.0,3.0,0.332199,0.321083,0.319843,0.331015,0.0,-0.0,-0.0,0.0,-0.0,-0.0,-0.017863,-0.001295,-0.041631,0.001086,-0.000184,0.000488
192710,0.003325,-0.002757,-0.106506,0.0,-0.0,-0.0,3.0,0.331053,0.32092,0.321043,0.331171,0.0,-0.0,-0.0,0.0,0.0,-0.0,-0.01791,-0.001299,-0.041621,-0.000496,-0.000184,0.000487
192730,0.003312,-0.002513,-0.106506,0.0,-0.0,-0.0,3.0,0.33265,0.320844,0.319367,0.331244,0.0,-0.0,-0.0,-0.0,0.0,-0.0,-0.017973,-0.001303,-0.041612,-0.001601,-0.000196,0.000486
192750,0.003319,-0.002635,-0.106506,0.0,-0.0,-0.0,3.0,0.336509,0.320665,0.31522,0.331415,0.0,-0.0,-0.0,0.0,-0.0,-0.0,-0.018062,-0.001307,-0.041602,-0.002027,-0.000221,0.000485
192770,0.003204,-0.002763,-0.106627,0.0,-0.0,-0.0,3.0,0.336597,0.320871,0.315124,0.331218,0.0,-0.0,-0.0,-0.0,0.0,-0.0,-0.018114,-0.001311,-0.041592,-0.000923,-0.000221,0.000484
192790,0.003339,-0.003,-0.106626,0.0,-0.0,-0.0,3.0,0.338535,0.32089,0.312985,0.3312,0.0,-0.0,-0.0,0.0,-0.0,-0.0,-0.018159,-0.001315,-0.041582,0.00017,-0.000232,0.000484
192810,0.003339,-0.003,-0.106748,0.0,-0.0,-0.0,3.0,0.33618,0.321014,0.315579,0.331081,0.0,-0.0,-0.0,-0.0,0.0,-0.0,-0.018152,-0.00132,-0.041572,-0.005404,-0.000209,0.000482
192830,0.003454,-0.002872,-0.106748,0.0,-0.0,-0.0,3.0,0.336093,0.321235,0.315674,0.330869,0.0,-0.0,-0.0,0.0,-0.0,-0.0,-0.018141,-0.001324,-0.041563,-0.005639,-0.000209,0.000469
192850,0.003204,-0.002763,-0.106748,0.0,-0.0,-0.0,3.0,0.334083,0.321464,0.317843,0.330649,0.0,-0.0,-0.0,-0.0,0.0,-0.0,-0.018089,-0.001328,-0.041554,-0.004443,-0.000183,0.000468
192870,0.00296,-0.002776,-0.10687,0.0,-0.0,-0.0,3.0,0.334406,0.321451,0.317497,0.330661,0.0,-0.0,-0.0,-0.0,-0.0,-0.0,-0.018068,-0.001331,-0.041544,-0.002296,-0.000182,0.000455
192890,0.002954,-0.002654,-0.106991,0.0,-0.0,-0.0,3.0,0.334659,0.321382,0.317225,0.330727,0.0,-0.0,-0.0,-0.0,-0.0,-0.0,-0.01809,-0.001335,-0.041535,0.000745,-0.000181,0.000455
192910,0.002954,-0.002654,-0.106991,0.0,-0.0,-0.0,3.0,0.335844,0.321238,0.315944,0.330866,0.0,-0.0,-0.0,-0.0,0.0,-0.0,-0.018133,-0.001339,-0.041526,0.001647,-0.000181,0.000442
192930,0.003076,-0.002647,-0.107112,0.0,-0.0,-0.0,3.0,0.334041,0.321124,0.317888,0.330976,0.0,-0.0,-0.0,-0.0,-0.0,-0.0,-0.018195,-0.001342,-0.041517,0.002834,-0.000168,0.000429
192950,0.003076,-0.002647,-0.107112,0.0,-0.0,-0.0,3.0,0.332722,0.320905,0.319291,0.331185,0.0,-0.0,-0.0,-0.0,0.0,-0.0,-0.018263,-0.001346,-0.041509,-0.001034,-0.000157,0.000428
192970,0.002819,-0.002416,-0.107113,0.0,-0.0,-0.0,3.0,0.332882,0.320726,0.319121,0.331357,0.0,-0.0,-0.0,0.0,-0.0,-0.0,-0.01835,-0.001349,-0.0415,-0.004329,-0.000158,0.000415
192990,0.002575,-0.002429,-0.107235,0.0,-0.0,-0.0,3.0,0.334669,0.320509,0.317214,0.331564,0.0,-0.0,-0.0,-0.0,0.0,-0.0,-0.018484,-0.001353,-0.041492,-0.003806,-0.000183,0.000414
193010,0.002569,-0.002307,-0.107235,0.0,-0.0,-0.0,3.0,0.33416,0.320558,0.317761,0.331517,0.0,-0.0,-0.0,-0.0,-0.0,-0.0,-0.0186,-0.001356,-0.041484,-0.006656,-0.000171,0.000413
193030,0.00246,-0.002557,-0.107235,0.0,-0.0,-0.0,3.0,0.338225,0.320696,0.31333,0.331386,0.0,-0.0,-0.0,-0.0,-0.0,-0.0,-0.018693,-0.001359,-0.041476,-0.009562,-0.000197,0.000412
193050,0.002467,-0.002679,-0.107235,0.0,-0.0,-0.0,3.0,0.338003,0.320679,0.313576,0.331402,0.0,-0.0,-0.0,-0.0,0.0,-0.0,-0.018806,-0.001363,-0.041467,-0.007316,-0.000184,0.000411
193070,0.002229,-0.002814,-0.107235,0.0,-0.0,-0.0,3.0,0.338381,0.320912,0.313156,0.331179,0.0,-0.0,-0.0,-0.0,-0.0,-0.0,-0.018865,-0.001366,-0.041459,-0.006067,-0.000184,0.000422
193090,0.002107,-0.002821,-0.107235,0.0,-0.0,-0.0,3.0,0.336098,0.320817,0.315668,0.33127,0.0,-0.0,-0.0,-0.0,0.0,-0.0,-0.018946,-0.001369,-0.041451,-0.007068,-0.000172,0.000422
193110,0.002101,-0.002699,-0.107114,0.0,-0.0,-0.0,3.0,0.33345,0.320996,0.318519,0.331098,0.0,-0.0,-0.0,-0.0,-0.0,-0.0,-0.019016,-0.001373,-0.041442,-0.000558,-0.000158,0.000421
193130,0.002101,-0.002699,-0.107235,0.0,-0.0,-0.0,3.0,0.333007,0.321226,0.318988,0.330877,0.0,-0.0,-0.0,-0.0,-0.0,-0.0,-0.019019,-0.001376,-0.041434,-0.000499,-0.000158,0.000408
193150,0.00246,-0.002557,-0.107235,0.0,-0.0,-0.0,3.0,0.333732,0.321283,0.318217,0.330823,0.0,-0.0,-0.0,-0.0,0.0,-0.0,-0.01903,-0.00138,-0.041426,-0.000128,-0.00017,0.000419
193170,0.002453,-0.002436,-0.107235,0.0,-0.0,-0.0,3.0,0.333907,0.321503,0.318031,0.330611,0.0,-0.0,-0.0,-0.0,-0.0,-0.0,-0.019007,-0.001383,-0.041418,0.006978,-0.000155,0.000418
193190,0.002473,-0.002801,-0.107113,0.0,-0.0,-0.0,3.0,0.334955,0.321247,0.316906,0.330858,0.0,-0.0,-0.0,-0.0,-0.0,-0.0,-0.018992,-0.001387,-0.041409,0.006801,-0.000167,0.000418
193210,0.002338,-0.002564,-0.107114,0.0,-0.0,-0.0,3.0,0.332935,0.320872,0.319065,0.331217,0.0,-0.0,-0.0,-0.0,-0.0,-0.0,-0.019017,-0.00139,-0.041401,0.002175,-0.000168,0.000417
193230,0.002331,-0.002442,-0.107114,0.0,-0.0,-0.0,3.0,0.334319,0.320708,0.31759,0.331374,0.0,-0.0,-0.0,-0.0,0.0,-0.0,-0.019077,-0.001394,-0.041393,-0.001709,-0.000169,0.000416
193250,0.001972,-0.002584,-0.107114,0.0,-0.0,-0.0,3.0,0.334856,0.320508,0.317013,0.331565,0.0,-0.0,-0.0,-0.0,-0.0,-0.0,-0.019158,-0.001397,-0.041385,-0.01018,-0.000183,0.000415
193270,0.001728,-0.002597,-0.107115,0.0,-0.0,-0.0,3.0,0.334014,0.320534,0.317917,0.33154,0.0,-0.0,-0.0,-0.0,0.0,-0.0,-0.019274,-0.001401,-0.041376,-0.015457,-0.000185,0.000414
193290,0.001363,-0.002616,-0.107115,0.0,-0.0,-0.0,3.0,0.337415,0.32053,0.314225,0.331544,0.0,-0.0,-0.0,-0.0,-0.0,-0.0,-0.019424,-0.001404,-0.041368,-0.012155,-0.000197,0.000413
193310,0.000882,-0.002764,-0.107116,0.0,-0.0,-0.0,3.0,0.339073,0.320228,0.312385,0.331832,0.0,-0.0,-0.0,-0.0,0.0,-0.0,-0.019625,-0.001408,-0.04136,-0.010475,-0.000197,0.000412
193330,0.00076,-0.002771,-0.107116,0.0,-0.0,-0.0,3.0,0.337843,0.320102,0.313753,0.331953,0.0,-0.0,-0.0,-0.0,-0.0,-0.0,-0.019852,-0.001411,-0.041351,-0.008383,-0.000185,0.000424
193350,0.00076,-0.002771,-0.107116,0.0,-0.0,-0.0,3.0,0.334361,0.320056,0.317546,0.331996,0.0,-0.0,-0.0,-0.0,-0.0,-0.0,-0.020066,-0.001415,-0.041343,-0.009433,-0.00015,0.000423
193370,0.000516,-0.002784,-0.107116,0.0,-0.0,-0.0,3.0,0.333584,0.319842,0.318376,0.3322,0.0,-0.0,-0.0,-0.0,0.0,-0.0,-0.020295,-0.001418,-0.041335,-0.009754,-0.000151,0.00041
193390,0.000625,-0.002534,-0.107116,0.0,-0.0,-0.0,3.0,0.330943,0.320052,0.321157,0.332,0.0,-0.0,-0.0,-0.0,0.0,-0.0,-0.02049,-0.001421,-0.041327,-0.00576,-0.000138,0.000409
193410,0.000618,-0.002412,-0.107116,0.0,-0.0,-0.0,3.0,0.332083,0.320308,0.319965,0.331756,0.0,-0.0,-0.0,-0.0,0.0,-0.0,-0.020606,-0.001425,-0.041319,-0.003178,-0.00015,0.000408
193430,0.000618,-0.002412,-0.107116,0.0,-0.0,-0.0,3.0,0.332787,0.32041,0.319222,0.331659,0.0,-0.0,-0.0,-0.0,-0.0,-0.0,-0.020692,-0.001428,-0.041311,0.001363,-0.000161,0.000395
193450,0.00074,-0.002405,-0.107116,0.0,-0.0,-0.0,3.0,0.332227,0.320618,0.319813,0.33146,0.0,-0.0,-0.0,-0.0,-0.0,-0.0,-0.020715,-0.001431,-0.041302,0.004302,-0.000148,0.000395
193470,0.000862,-0.002399,-0.107116,0.0,-0.0,-0.0,3.0,0.333559,0.320656,0.318402,0.331423,0.0,-0.0,-0.0,-0.0,0.0,-0.0,-0.020701,-0.001434,-0.041294,0.001423,-0.000148,0.000406
193490,0.000977,-0.00227,-0.107116,0.0,-0.0,-0.0,3.0,0.334506,0.320724,0.31739,0.331358,0.0,-0.0,-0.0,-0.0,0.0,-0.0,-0.020678,-0.001438,-0.041286,-0.001514,-0.000161,0.000393
193510,0.000727,-0.002161,-0.107237,0.0,-0.0,-0.0,3.0,0.334308,0.320804,0.317602,0.331282,0.0,-0.0,-0.0,-0.0,-0.0,-0.0,-0.020638,-0.001441,-0.041278,-0.005061,-0.000149,0.000392
193530,0.00049,-0.002296,-0.107359,0.0,-0.0,-0.0,3.0,0.337161,0.320761,0.314505,0.331323,0.0,-0.0,-0.0,-0.0,-0.0,-0.0,-0.020644,-0.001443,-0.04127,-0.004661,-0.000173,0.000379
193550,0.000253,-0.002431,-0.107359,0.0,-0.0,-0.0,3.0,0.339944,0.320701,0.311409,0.331381,0.0,-0.0,-0.0,-0.0,0.0,-0.0,-0.02068,-0.001446,-0.041263,-0.003758,-0.000185,0.000378
193570,2.9e-05,-0.00281,-0.107481,0.0,-0.0,-0.0,3.0,0.339351,0.320381,0.312074,0.331686,0.0,-0.0,-0.0,-0.0,-0.0,-0.0,-0.020783,-0.001449,-0.041255,-0.00417,-0.000185,0.000378
193590,3.5e-05,-0.002932,-0.107481,0.0,-0.0,-0.0,3.0,0.337726,0.320116,0.313882,0.331939,0.0,-0.0,-0.0,-0.0,0.0,-0.0,-0.020925,-0.001453,-0.041248,-0.00645,-0.000174,0.000377
193610,-0.0001,-0.002695,-0.107481,0.0,-0.0,-0.0,3.0,0.33288,0.319754,0.319124,0.332283,0.0,-0.0,-0.0,-0.0,-0.0,-0.0,-0.021119,-0.001456,-0.04124,-0.007925,-0.000138,0.000376
193630,-0.000478,-0.002471,-0.107481,0.0,-0.0,-0.0,3.0,0.331329,0.319499,0.320756,0.332525,0.0,-0.0,-0.0,-0.0,-0.0,-0.0,-0.021325,-0.001459,-0.041233,-0.011577,-0.000116,0.000375
193650,-0.000864,-0.002125,-0.107481,0.0,-0.0,-0.0,3.0,0.330068,0.319178,0.322066,0.332829,0.0,-0.0,-0.0,-0.0,0.0,-0.0,-0.02159,-0.001462,-0.041226,-0.011125,-0.000117,0.000362
193670,-0.001121,-0.001894,-0.107481,0.0,-0.0,-0.0,3.0,0.329866,0.319165,0.322275,0.332841,0.0,-0.0,-0.0,-0.0,-0.0,-0.0,-0.021837,-0.001465,-0.041219,-0.013898,-9.4e-05,0.00035
193690,-0.001236,-0.002023,-0.107603,0.0,-0.0,-0.0,3.0,0.333918,0.319164,0.318019,0.332841,0.0,-0.0,-0.0,-0.0,-0.0,-0.0,-0.022093,-0.001467,-0.041212,-0.013237,-0.000132,0.000349
193710,-0.001236,-0.002023,-0.107603,0.0,-0.0,-0.0,3.0,0.334432,0.319311,0.317469,0.332703,0.0,-0.0,-0.0,-0.0,0.0,-0.0,-0.022309,-0.00147,-0.041205,-0.008672,-0.000131,0.000336
193730,-0.001358,-0.002029,-0.107724,0.0,-0.0,-0.0,3.0,0.335173,0.319557,0.316672,0.33247,0.0,-0.0,-0.0,-0.0,0.0,-0.0,-0.022448,-0.001472,-0.041198,-0.005726,-0.000131,0.000323
193750,-0.001236,-0.002023,-0.107845,0.0,-0.0,-0.0,3.0,0.335914,0.319709,0.315868,0.332325,0.0,-0.0,-0.0,-0.0,-0.0,-0.0,-0.022548,-0.001475,-0.041191,-0.003612,-0.000131,0.000323
193770,-0.001235,-0.002023,-0.107966,0.0,-0.0,-0.0,3.0,0.336693,0.319869,0.315018,0.332174,0.0,-0.0,-0.0,-0.0,0.0,-0.0,-0.022591,-0.001477,-0.041185,-0.002704,-0.000131,0.00031
193790,-0.001235,-0.002023,-0.108088,0.0,-0.0,-0.0,3.0,0.337828,0.32022,0.313769,0.33184,0.0,-0.0,-0.0,-0.0,-0.0,-0.0,-0.02257,-0.001479,-0.041179,-0.00055,-0.00013,0.000297
193810,-0.001222,-0.002267,-0.108229,0.0,-0.0,-0.0,3.0,0.339724,0.320092,0.311656,0.331962,0.0,-0.0,-0.0,-0.0,0.0,-0.0,-0.022572,-0.001481,-0.041173,-0.002956,-0.000143,0.000296
193830,-0.001215,-0.002389,-0.10835,0.0,-0.0,-0.0,3.0,0.338115,0.320256,0.313452,0.331806,0.0,-0.0,-0.0,-0.0,0.0,-0.0,-0.022568,-0.001483,-0.041167,0.001972,-0.000129,0.000284
193850,-0.001331,-0.002517,-0.10835,0.0,-0.0,-0.0,3.0,0.337206,0.320009,0.314455,0.332041,0.0,-0.0,-0.0,-0.0,-0.0,-0.0,-0.022584,-0.001486,-0.041161,0.002185,-0.000116,0.000281
193870,-0.001215,-0.002389,-0.10835,0.0,-0.0,-0.0,3.0,0.3324,0.319813,0.319631,0.332227,0.0,-0.0,-0.0,-0.0,0.0,-0.0,-0.022628,-0.001488,-0.041156,0.002841,-9.2e-05,0.000269
193890,-0.001364,-0.001908,-0.108471,0.0,-0.0,-0.0,3.0,0.330245,0.319593,0.321882,0.332436,0.0,-0.0,-0.0,-0.0,-0.0,-0.0,-0.022672,-0.00149,-0.041151,-0.00424,-6.9e-05,0.000256
193910,-0.00162,-0.001677,-0.108592,0.0,-0.0,-0.0,3.0,0.327933,0.319412,0.324254,0.332607,0.0,-0.0,-0.0,-0.0,-0.0,-0.0,-0.022766,-0.001492,-0.041146,-0.007694,-4.6e-05,0.000243
193930,-0.001762,-0.001318,-0.108713,0.0,-0.0,-0.0,3.0,0.327514,0.319323,0.324678,0.332691,0.0,-0.0,-0.0,-0.0,0.0,-0.0,-0.022879,-0.001494,-0.041141,-0.010456,-4.7e-05,0.000231
193950,-0.002006,-0.001332,-0.108834,0.0,-0.0,-0.0,3.0,0.332818,0.319353,0.31919,0.332663,0.0,-0.0,-0.0,-0.0,-0.0,-0.0,-0.022996,-0.001495,-0.041136,-0.010278,-7.2e-05,0.000206
193970,-0.002378,-0.00123,-0.109077,0.0,-0.0,-0.0,3.0,0.335512,0.319189,0.316305,0.332818,0.0,-0.0,-0.0,-0.0,0.0,-0.0,-0.02315,-0.001497,-0.041132,-0.006872,-8.4e-05,0.000194
193990,-0.002243,-0.001467,-0.109198,0.0,-0.0,-0.0,3.0,0.337345,0.31917,0.314302,0.332836,0.0,-0.0,-0.0,-0.0,0.0,-0.0,-0.023307,-0.001498,-0.041128,-0.003558,-8.4e-05,0.000181
194010,-0.002229,-0.001711,-0.10932,0.0,-0.0,-0.0,3.0,0.337608,0.319226,0.314013,0.332783,0.0,-0.0,-0.0,-0.0,-0.0,-0.0,-0.023407,-0.001499,-0.041125,-0.00659,-8.5e-05,0.000169
194030,-0.002114,-0.001583,-0.109441,0.0,-0.0,-0.0,3.0,0.337974,0.319398,0.313608,0.332621,0.0,-0.0,-0.0,-0.0,0.0,-0.0,-0.023488,-0.0015,-0.041121,-0.00488,-8.5e-05,0.000156
194050,-0.002236,-0.00159,-0.109562,0.0,-0.0,-0.0,3.0,0.337312,0.31946,0.314339,0.332561,0.0,-0.0,-0.0,-0.0,-0.0,-0.0,-0.023533,-0.001501,-0.041118,-0.001624,-6e-05,0.000144
194070,-0.002357,-0.001596,-0.109683,0.0,-0.0,-0.0,3.0,0.336945,0.319532,0.314742,0.332493,0.0,-0.0,-0.0,-0.0,0.0,-0.0,-0.023552,-0.001502,-0.041115,-0.001225,-6e-05,0.000143
194090,-0.002242,-0.001468,-0.109804,0.0,-0.0,-0.0,3.0,0.334687,0.319663,0.317195,0.332369,0.0,-0.0,-0.0,-0.0,-0.0,-0.0,-0.023562,-0.001503,-0.041112,0.001286,-3.5e-05,0.000131
194110,-0.002127,-0.00134,-0.109925,0.0,-0.0,-0.0,3.0,0.334728,0.319787,0.317151,0.332252,0.0,-0.0,-0.0,-0.0,0.0,-0.0,-0.023529,-0.001504,-0.04111,0.000302,-1e-05,0.000131
194130,-0.001998,-0.001455,-0.109925,0.0,-0.0,-0.0,3.0,0.331944,0.319768,0.320111,0.33227,0.0,-0.0,-0.0,-0.0,-0.0,-0.0,-0.023509,-0.001504,-0.041108,0.002306,2e-06,0.000118
194150,-0.00189,-0.001204,-0.110046,0.0,-0.0,-0.0,3.0,0.328918,0.31984,0.323249,0.332201,0.0,-0.0,-0.0,-0.0,-0.0,-0.0,-0.023461,-0.001505,-0.041106,0.001161,1.5e-05,9.4e-05
194170,-0.002025,-0.000967,-0.110167,0.0,-0.0,-0.0,3.0,0.329982,0.319874,0.322154,0.332169,0.0,-0.0,-0.0,-0.0,-0.0,-0.0,-0.02341,-0.001505,-0.041104,0.002797,3e-06,7e-05
194190,-0.002032,-0.000846,-0.110409,0.0,-0.0,-0.0,3.0,0.331003,0.319752,0.321096,0.332285,0.0,-0.0,-0.0,-0.0,-0.0,-0.0,-0.023378,-0.001506,-0.041103,0.002406,-2.1e-05,5.5e-05
194210,-0.001923,-0.000595,-0.11055,0.0,-0.0,-0.0,3.0,0.331959,0.319773,0.320094,0.332265,0.0,-0.0,-0.0,-0.0,0.0,-0.0,-0.023347,-0.001506,-0.041102,0.001623,-9e-06,3.1e-05
194230,-0.00191,-0.000839,-0.110793,0.0,-0.0,-0.0,3.0,0.33657,0.319832,0.315153,0.332209,0.0,-0.0,-0.0,-0.0,-0.0,-0.0,-0.023308,-0.001506,-0.041101,0.001083,-3.3e-05,1.9e-05
194250,-0.001794,-0.000711,-0.111035,0.0,-0.0,-0.0,3.0,0.337725,0.319664,0.313884,0.332368,0.0,-0.0,-0.0,-0.0,0.0,-0.0,-0.023309,-0.001506,-0.041101,0.003545,-2e-05,7e-06
194270,-0.001781,-0.000955,-0.111277,0.0,-0.0,-0.0,3.0,0.339886,0.319661,0.311473,0.332371,0.0,-0.0,-0.0,-0.0,0.0,-0.0,-0.023284,-0.001506,-0.0411,0.002861,-8e-06,-5e-06
194290,-0.001781,-0.000955,-0.111398,0.0,-0.0,-0.0,3.0,0.339566,0.319398,0.311833,0.33262,0.0,-0.0,-0.0,-0.0,-0.0,-0.0,-0.023292,-0.001505,-0.041101,-0.002264,2e-06,-1.7e-05
194310,-0.001896,-0.001084,-0.111399,0.0,-0.0,-0.0,3.0,0.336512,0.319428,0.315216,0.332592,0.0,-0.0,-0.0,-0.0,0.0,-0.0,-0.023304,-0.001504,-0.041101,-0.002296,2.7e-05,-4.2e-05
194330,-0.002018,-0.001091,-0.11152,0.0,-0.0,-0.0,3.0,0.335455,0.319469,0.316366,0.332553,0.0,-0.0,-0.0,-0.0,-0.0,-0.0,-0.023309,-0.001504,-0.041102,-0.002179,2.7e-05,-5.4e-05
194350,-0.002024,-0.000969,-0.111641,0.0,-0.0,-0.0,3.0,0.333337,0.319664,0.318639,0.332368,0.0,-0.0,-0.0,-0.0,-0.0,-0.0,-0.023295,-0.001504,-0.041104,-0.002489,2.7e-05,-6.6e-05
194370,-0.002031,-0.000847,-0.111762,0.0,-0.0,-0.0,3.0,0.331518,0.319784,0.320557,0.332255,0.0,-0.0,-0.0,-0.0,-0.0,-0.0,-0.023272,-0.001503,-0.041105,-0.000529,3.9e-05,-6.5e-05
194390,-0.002146,-0.000976,-0.111762,0.0,-0.0,-0.0,3.0,0.332328,0.319615,0.319706,0.332415,0.0,-0.0,-0.0,-0.0,-0.0,-0.0,-0.023287,-0.001503,-0.041106,0.002362,4e-05,-7.7e-05
194410,-0.001923,-0.000597,-0.111762,0.0,-0.0,-0.0,3.0,0.330707,0.319683,0.321404,0.33235,0.0,-0.0,-0.0,-0.0,0.0,-0.0,-0.023283,-0.001503,-0.041108,0.004864,4.1e-05,-7.7e-05
194430,-0.001801,-0.00059,-0.11164,0.0,-0.0,-0.0,3.0,0.331952,0.319604,0.320102,0.332426,0.0,-0.0,-0.0,-0.0,0.0,-0.0,-0.023266,-0.001502,-0.04111,0.001915,4e-05,-7.7e-05
194450,-0.001801,-0.00059,-0.11164,0.0,-0.0,-0.0,3.0,0.332427,0.319362,0.319602,0.332654,0.0,-0.0,-0.0,-0.0,-0.0,-0.0,-0.023278,-0.001502,-0.041111,-0.000263,2.7e-05,-7.7e-05
194470,-0.001801,-0.00059,-0.11164,0.0,-0.0,-0.0,3.0,0.333292,0.319401,0.318686,0.332617,0.0,-0.0,-0.0,-0.0,0.0,-0.0,-0.023294,-0.001501,-0.041112,0.002805,1.6e-05,-7.7e-05
194490,-0.001916,-0.000718,-0.111641,0.0,-0.0,-0.0,3.0,0.33696,0.319364,0.314726,0.332652,0.0,-0.0,-0.0,-0.0,-0.0,-0.0,-0.023285,-0.001501,-0.041114,-0.002264,-1e-05,-6.5e-05
194510,-0.002153,-0.000854,-0.111641,0.0,-0.0,-0.0,3.0,0.338743,0.319069,0.312754,0.332931,0.0,-0.0,-0.0,-0.0,0.0,-0.0,-0.023344,-0.001501,-0.041115,-0.003448,-2.3e-05,-6.5e-05
194530,-0.002024,-0.000969,-0.111641,0.0,-0.0,-0.0,3.0,0.338093,0.319166,0.313477,0.33284,0.0,-0.0,-0.0,-0.0,0.0,-0.0,-0.0234,-0.0015,-0.041116,-0.002542,1e-06,-6.4e-05
194550,-0.002139,-0.001098,-0.11152,0.0,-0.0,-0.0,3.0,0.336889,0.319045,0.314804,0.332954,0.0,-0.0,-0.0,-0.0,-0.0,-0.0,-0.023441,-0.0015,-0.041117,-0.007128,2.4e-05,-5.2e-05
194570,-0.002153,-0.000854,-0.11152,0.0,-0.0,-0.0,3.0,0.334169,0.319236,0.317751,0.332774,0.0,-0.0,-0.0,-0.0,0.0,-0.0,-0.02348,-0.001499,-0.041118,-0.006449,3.6e-05,-5.2e-05
194590,-0.002289,-0.000617,-0.111519,0.0,-0.0,-0.0,3.0,0.332202,0.319426,0.31984,0.332594,0.0,-0.0,-0.0,-0.0,-0.0,-0.0,-0.023484,-0.001499,-0.04112,-0.001494,6.2e-05,-5.2e-05
194610,-0.002289,-0.000617,-0.111519,0.0,-0.0,-0.0,3.0,0.332466,0.319599,0.319561,0.332431,0.0,-0.0,-0.0,-0.0,-0.0,-0.0,-0.023454,-0.001498,-0.041121,0.000599,5e-05,-5.2e-05
194630,-0.002167,-0.00061,-0.111519,0.0,-0.0,-0.0,3.0,0.331933,0.319755,0.320122,0.332282,0.0,-0.0,-0.0,-0.0,0.0,-0.0,-0.023411,-0.001497,-0.041122,0.002265,5.1e-05,-5.2e-05
194650,-0.002045,-0.000603,-0.111519,0.0,-0.0,-0.0,3.0,0.333536,0.319714,0.318427,0.332321,0.0,-0.0,-0.0,-0.0,0.0,-0.0,-0.023388,-0.001496,-0.041123,0.007069,4e-05,-5.2e-05
194670,-0.001923,-0.000596,-0.11164,0.0,-0.0,-0.0,3.0,0.333825,0.3194,0.318119,0.332618,0.0,-0.0,-0.0,-0.0,-0.0,-0.0,-0.023381,-0.001496,-0.041124,0.004348,3.9e-05,-6.4e-05
194690,-0.001801,-0.00059,-0.11164,0.0,-0.0,-0.0,3.0,0.332761,0.319199,0.31925,0.332808,0.0,-0.0,-0.0,-0.0,0.0,-0.0,-0.0234,-0.001495,-0.041125,0.002041,5.1e-05,-6.3e-05
194710,-0.001815,-0.000346,-0.11164,0.0,-0.0,-0.0,3.0,0.332917,0.319058,0.319084,0.332942,0.0,-0.0,-0.0,-0.0,0.0,-0.0,-0.023415,-0.001494,-0.041127,-0.000226,5e-05,-6.3e-05
194730,-0.001937,-0.000353,-0.11164,0.0,-0.0,-0.0,3.0,0.333272,0.319039,0.318707,0.33296,0.0,-0.0,-0.0,-0.0,-0.0,-0.0,-0.023425,-0.001493,-0.041128,-2.4e-05,5e-05,-6.3e-05
194750,-0.002058,-0.00036,-0.11164,0.0,-0.0,-0.0,3.0,0.335294,0.319044,0.31654,0.332955,0.0,-0.0,-0.0,-0.0,0.0,-0.0,-0.023429,-0.001492,-0.041129,-0.004945,3.6e-05,-6.3e-05
194770,-0.001923,-0.000597,-0.111762,0.0,-0.0,-0.0,3.0,0.337495,0.31915,0.314138,0.332855,0.0,-0.0,-0.0,-0.0,0.0,-0.0,-0.023447,-0.001491,-0.041131,-0.006999,2.3e-05,-6.3e-05
194790,-0.002052,-0.000482,-0.111761,0.0,-0.0,-0.0,3.0,0.336885,0.319423,0.314808,0.332597,0.0,-0.0,-0.0,-0.0,-0.0,-0.0,-0.023433,-0.00149,-0.041132,0.000288,3.7e-05,-6.3e-05
194810,-0.00216,-0.000732,-0.111762,0.0,-0.0,-0.0,3.0,0.337897,0.319554,0.313694,0.332472,0.0,-0.0,-0.0,-0.0,-0.0,-0.0,-0.023384,-0.001489,-0.041133,0.001827,3.8e-05,-6.3e-05
194830,-0.001923,-0.000597,-0.111762,0.0,-0.0,-0.0,3.0,0.336504,0.319438,0.315225,0.332582,0.0,-0.0,-0.0,-0.0,0.0,-0.0,-0.023364,-0.001488,-0.041135,0.001264,5e-05,-6.2e-05
194850,-0.001801,-0.00059,-0.111762,0.0,-0.0,-0.0,3.0,0.333457,0.319666,0.318511,0.332366,0.0,-0.0,-0.0,-0.0,-0.0,-0.0,-0.023295,-0.001487,-0.041136,0.004676,7.6e-05,-6.2e-05
194870,-0.001801,-0.00059,-0.11164,0.0,-0.0,-0.0,3.0,0.332228,0.31975,0.319812,0.332287,0.0,-0.0,-0.0,-0.0,-0.0,-0.0,-0.023207,-0.001486,-0.041137,0.005536,6.4e-05,-6.2e-05
194890,-0.001564,-0.000454,-0.111761,0.0,-0.0,-0.0,3.0,0.332021,0.319735,0.32003,0.332301,0.0,-0.0,-0.0,-0.0,0.0,-0.0,-0.023128,-0.001485,-0.041139,0.003867,6.4e-05,-6.2e-05
194910,-0.001686,-0.000461,-0.111761,0.0,-0.0,-0.0,3.0,0.333253,0.319526,0.318728,0.332499,0.0,-0.0,-0.0,-0.0,-0.0,-0.0,-0.023082,-0.001484,-0.04114,0.003034,5.2e-05,-6.2e-05
194930,-0.001679,-0.000583,-0.11164,0.0,-0.0,-0.0,3.0,0.334435,0.319292,0.317465,0.332721,0.0,-0.0,-0.0,-0.0,-0.0,-0.0,-0.023088,-0.001483,-0.041141,0.005883,4e-05,-6.2e-05
194950,-0.001449,-0.000325,-0.11164,0.0,-0.0,-0.0,3.0,0.330503,0.319296,0.321616,0.332717,0.0,-0.0,-0.0,-0.0,-0.0,-0.0,-0.023071,-0.001482,-0.041143,0.005086,7.7e-05,-6.2e-05
194970,-0.001327,-0.000319,-0.11164,0.0,-0.0,-0.0,3.0,0.331621,0.319245,0.320449,0.332766,0.0,-0.0,-0.0,-0.0,-0.0,-0.0,-0.023042,-0.001481,-0.041144,0.001911,7.6e-05,-7.4e-05
194990,-0.001334,-0.000197,-0.11164,0.0,-0.0,-0.0,3.0,0.332206,0.319493,0.319835,0.332531,0.0,-0.0,-0.0,-0.0,-0.0,-0.0,-0.022973,-0.00148,-0.041146,0.000588,6.4e-05,-7.3e-05
195010,-0.001334,-0.000197,-0.111761,0.0,-0.0,-0.0,3.0,0.333466,0.319692,0.318501,0.332342,0.0,-0.0,-0.0,-0.0,0.0,-0.0,-0.02288,-0.001479,-0.041147,-0.001239,5.1e-05,-7.3e-05
195030,-0.001205,-0.000312,-0.111761,0.0,-0.0,-0.0,3.0,0.336514,0.319806,0.315214,0.332234,0.0,-0.0,-0.0,-0.0,-0.0,-0.0,-0.022796,-0.001478,-0.041148,0.00243,2.8e-05,-7.3e-05
195050,-0.00132,-0.000441,-0.111883,0.0,-0.0,-0.0,3.0,0.338275,0.320015,0.313274,0.332035,0.0,-0.0,-0.0,-0.0,0.0,-0.0,-0.022675,-0.001477,-0.04115,0.005179,1.7e-05,-7.3e-05
195070,-0.001063,-0.000671,-0.111883,0.0,-0.0,-0.0,3.0,0.339661,0.320026,0.311727,0.332025,0.0,-0.0,-0.0,-0.0,0.0,-0.0,-0.022578,-0.001475,-0.041151,0.00828,1.8e-05,-7.3e-05
195090,-0.000684,-0.000894,-0.111883,0.0,-0.0,-0.0,3.0,0.336142,0.320189,0.31562,0.33187,0.0,-0.0,-0.0,-0.0,-0.0,-0.0,-0.022449,-0.001475,-0.041153,0.010424,4.4e-05,-7.3e-05
195110,-0.000332,-0.00063,-0.111882,0.0,-0.0,-0.0,3.0,0.333069,0.320273,0.318923,0.33179,0.0,-0.0,-0.0,-0.0,0.0,-0.0,-0.022281,-0.001474,-0.041154,0.009154,6.9e-05,-7.3e-05
195130,-0.000338,-0.000508,-0.111882,0.0,-0.0,-0.0,3.0,0.332046,0.320259,0.320003,0.331802,0.0,-0.0,-0.0,-0.0,-0.0,-0.0,-0.022112,-0.001473,-0.041156,0.010598,8.2e-05,-7.2e-05
195150,-0.000108,-0.000251,-0.111761,0.0,-0.0,-0.0,3.0,0.328729,0.320276,0.323443,0.331787,0.0,-0.0,-0.0,-0.0,0.0,-0.0,-0.021949,-0.001472,-0.041158,0.009566,9.5e-05,-8.4e-05
195170,7e-06,-0.000122,-0.111761,0.0,-0.0,-0.0,3.0,0.331393,0.320328,0.320688,0.331737,0.0,-0.0,-0.0,-0.0,0.0,-0.0,-0.02178,-0.00147,-0.041159,0.006138,8.3e-05,-8.4e-05
195190,-0.000108,-0.000251,-0.111761,0.0,-0.0,-0.0,3.0,0.331585,0.320122,0.320487,0.331934,0.0,-0.0,-0.0,-0.0,-0.0,-0.0,-0.021671,-0.001469,-0.041161,0.003994,7.1e-05,-8.4e-05
195210,-0.000101,-0.000372,-0.111761,0.0,-0.0,-0.0,3.0,0.334051,0.319962,0.317877,0.332086,0.0,-0.0,-0.0,-0.0,-0.0,-0.0,-0.021613,-0.001468,-0.041162,0.005619,4.7e-05,-8.4e-05
195230,-9.5e-05,-0.000494,-0.111882,0.0,-0.0,-0.0,3.0,0.334587,0.319806,0.317302,0.332234,0.0,-0.0,-0.0,-0.0,0.0,-0.0,-0.021564,-0.001467,-0.041164,-0.000428,3.3e-05,-8.4e-05
195250,-0.000223,-0.000379,-0.111882,0.0,-0.0,-0.0,3.0,0.335364,0.319581,0.316465,0.332447,0.0,-0.0,-0.0,-0.0,0.0,-0.0,-0.021573,-0.001466,-0.041166,-0.002655,2e-05,-8.4e-05
195270,-0.000223,-0.000379,-0.111882,0.0,-0.0,-0.0,3.0,0.334294,0.319568,0.317617,0.33246,0.0,-0.0,-0.0,-0.0,-0.0,-0.0,-0.0216,-0.001466,-0.041167,-0.00224,3.2e-05,-8.3e-05
195290,-0.00021,-0.000623,-0.111882,0.0,-0.0,-0.0,3.0,0.337316,0.319722,0.314334,0.332314,0.0,-0.0,-0.0,-0.0,0.0,-0.0,-0.021595,-0.001465,-0.041169,-0.002201,2e-05,-8.3e-05
195310,-8.1e-05,-0.000738,-0.111882,0.0,-0.0,-0.0,3.0,0.339046,0.31982,0.312416,0.33222,0.0,-0.0,-0.0,-0.0,0.0,-0.0,-0.021589,-0.001464,-0.04117,0.000405,8e-06,-8.3e-05
195330,-7.4e-05,-0.00086,-0.111882,0.0,-0.0,-0.0,3.0,0.338605,0.320064,0.312907,0.331988,0.0,-0.0,-0.0,-0.0,-0.0,-0.0,-0.021542,-0.001463,-0.041172,0.006996,2.3e-05,-7.1e-05
195350,0.00042,-0.000955,-0.111882,0.0,-0.0,-0.0,3.0,0.334949,0.32026,0.316913,0.331802,0.0,-0.0,-0.0,-0.0,0.0,-0.0,-0.021447,-0.001462,-0.041174,0.009852,4.8e-05,-7.1e-05
195370,0.000779,-0.000812,-0.111882,0.0,-0.0,-0.0,3.0,0.333145,0.320552,0.318842,0.331523,0.0,-0.0,-0.0,-0.0,0.0,-0.0,-0.021276,-0.001462,-0.041175,0.011381,5e-05,-7e-05
195390,0.000894,-0.000684,-0.111882,0.0,-0.0,-0.0,3.0,0.330041,0.320711,0.322094,0.331371,0.0,-0.0,-0.0,-0.0,-0.0,-0.0,-0.021066,-0.001461,-0.041177,0.009387,6.2e-05,-8.2e-05
195410,0.001124,-0.000426,-0.111882,0.0,-0.0,-0.0,3.0,0.327714,0.320986,0.324476,0.331108,0.0,-0.0,-0.0,-0.0,0.0,-0.0,-0.020838,-0.001461,-0.041179,0.009713,6.4e-05,-8.2e-05
195430,0.001232,-0.000176,-0.111882,0.0,-0.0,-0.0,3.0,0.329857,0.321061,0.322283,0.331036,0.0,-0.0,-0.0,-0.0,-0.0,-0.0,-0.020606,-0.00146,-0.04118,0.007527,5.2e-05,-9.4e-05
195450,0.001476,-0.000162,-0.111882,0.0,-0.0,-0.0,3.0,0.333609,0.321198,0.318349,0.330904,0.0,-0.0,-0.0,-0.0,-0.0,-0.0,-0.020403,-0.001459,-0.041182,0.013825,3e-05,-9.4e-05
195470,0.001612,-0.000399,-0.112003,0.0,-0.0,-0.0,3.0,0.336382,0.321144,0.315358,0.330956,0.0,-0.0,-0.0,-0.0,0.0,-0.0,-0.020192,-0.001458,-0.041184,0.012086,1.9e-05,-9.4e-05
195490,0.001741,-0.000514,-0.112003,0.0,-0.0,-0.0,3.0,0.336497,0.32091,0.315233,0.331181,0.0,-0.0,-0.0,-0.0,0.0,-0.0,-0.020025,-0.001458,-0.041186,0.005978,1.8e-05,-9.4e-05
195510,0.001876,-0.000751,-0.112124,0.0,-0.0,-0.0,3.0,0.338176,0.320651,0.313385,0.331428,0.0,-0.0,-0.0,-0.0,-0.0,-0.0,-0.019928,-0.001457,-0.041188,0.001497,5e-06,-9.3e-05
195530,0.001632,-0.000764,-0.112124,0.0,-0.0,-0.0,3.0,0.337366,0.320667,0.31428,0.331413,0.0,-0.0,-0.0,-0.0,0.0,-0.0,-0.019839,-0.001456,-0.041189,0.002205,6e-06,-9.3e-05
195550,0.001639,-0.000886,-0.112124,0.0,-0.0,-0.0,3.0,0.337325,0.320588,0.314324,0.331489,0.0,-0.0,-0.0,-0.0,0.0,-0.0,-0.019783,-0.001456,-0.041191,0.001006,6e-06,-9.3e-05
195570,0.001876,-0.000751,-0.112003,0.0,-0.0,-0.0,3.0,0.334529,0.320791,0.317365,0.331295,0.0,-0.0,-0.0,-0.0,-0.0,-0.0,-0.01972,-0.001455,-0.041193,0.00455,3.1e-05,-9.3e-05
195590,0.002113,-0.000615,-0.112003,0.0,-0.0,-0.0,3.0,0.334436,0.321036,0.317465,0.33106,0.0,-0.0,-0.0,-0.0,0.0,-0.0,-0.019608,-0.001455,-0.041195,0.007049,5.7e-05,-9.3e-05
195610,0.002357,-0.000601,-0.112002,0.0,-0.0,-0.0,3.0,0.332006,0.321188,0.320046,0.330914,0.0,-0.0,-0.0,-0.0,0.0,-0.0,-0.019463,-0.001453,-0.041197,0.00885,8.3e-05,-9.2e-05
195630,0.002702,-0.000215,-0.112003,0.0,-0.0,-0.0,3.0,0.328881,0.321359,0.323287,0.33075,0.0,-0.0,-0.0,-0.0,-0.0,-0.0,-0.019295,-0.001452,-0.041199,0.01015,0.000108,-9.2e-05
195650,0.002817,-8.7e-05,-0.112003,0.0,-0.0,-0.0,3.0,0.328212,0.321695,0.32397,0.330426,0.0,-0.0,-0.0,-0.0,-0.0,-0.0,-0.019066,-0.001451,-0.041201,0.010459,0.00011,-0.000104
195670,0.003183,-6.6e-05,-0.112124,0.0,-0.0,-0.0,3.0,0.331627,0.321822,0.320443,0.330303,0.0,-0.0,-0.0,-0.0,0.0,-0.0,-0.018841,-0.00145,-0.041203,0.014012,6.3e-05,-0.000116
195690,0.003548,-4.5e-05,-0.112245,0.0,-0.0,-0.0,3.0,0.333027,0.322263,0.318968,0.329877,0.0,-0.0,-0.0,-0.0,-0.0,-0.0,-0.018538,-0.001449,-0.041206,0.015628,4e-05,-0.000128
195710,0.004049,-0.000261,-0.112365,0.0,-0.0,-0.0,3.0,0.338821,0.32247,0.312667,0.329677,0.0,-0.0,-0.0,-0.0,-0.0,-0.0,-0.018235,-0.001448,-0.041208,0.017403,6e-06,-0.000127
195730,0.004429,-0.000485,-0.112364,0.0,-0.0,-0.0,3.0,0.338942,0.322769,0.312532,0.329386,0.0,-0.0,-0.0,-0.0,0.0,-0.0,-0.017887,-0.001447,-0.04121,0.020334,8e-06,-0.000127
195750,0.00493,-0.000701,-0.112363,0.0,-0.0,-0.0,3.0,0.339495,0.322863,0.311913,0.329295,0.0,-0.0,-0.0,-0.0,0.0,-0.0,-0.017537,-0.001446,-0.041213,0.023105,2.3e-05,-0.000115
195770,0.005174,-0.000687,-0.112242,0.0,-0.0,-0.0,3.0,0.339111,0.322845,0.312344,0.329312,0.0,-0.0,-0.0,-0.0,-0.0,-0.0,-0.017175,-0.001444,-0.041215,0.017886,3.6e-05,-0.000115
195790,0.005411,-0.000552,-0.112242,0.0,-0.0,-0.0,3.0,0.33394,0.322949,0.317996,0.329211,0.0,-0.0,-0.0,-0.0,-0.0,-0.0,-0.016839,-0.001443,-0.041217,0.015503,7.4e-05,-0.000102
195810,0.005411,-0.000552,-0.112121,0.0,-0.0,-0.0,3.0,0.331503,0.322948,0.320573,0.329212,0.0,-0.0,-0.0,-0.0,0.0,-0.0,-0.016527,-0.001442,-0.04122,0.011192,9.9e-05,-0.000102
195830,0.005526,-0.000423,-0.112121,0.0,-0.0,-0.0,3.0,0.330068,0.32287,0.322066,0.329287,0.0,-0.0,-0.0,-0.0,0.0,-0.0,-0.016278,-0.001441,-0.041222,0.006079,8.6e-05,-0.000102
195850,0.005512,-0.00018,-0.112122,0.0,-0.0,-0.0,3.0,0.329857,0.322796,0.322283,0.329359,0.0,-0.0,-0.0,-0.0,-0.0,-0.0,-0.016096,-0.00144,-0.041224,0.007383,8.8e-05,-0.000102
195870,0.005397,-0.000309,-0.112,0.0,-0.0,-0.0,3.0,0.333473,0.322657,0.318493,0.329495,0.0,-0.0,-0.0,-0.0,0.0,-0.0,-0.015961,-0.001439,-0.041226,0.007536,5.2e-05,-0.000101
195890,0.005763,-0.000288,-0.112,0.0,-0.0,-0.0,3.0,0.332144,0.32246,0.3199,0.329686,0.0,-0.0,-0.0,-0.0,0.0,-0.0,-0.015886,-0.001438,-0.041228,0.008521,5.2e-05,-0.000101
195910,0.005884,-0.000281,-0.112,0.0,-0.0,-0.0,3.0,0.332934,0.322468,0.319066,0.329679,0.0,-0.0,-0.0,-0.0,-0.0,-0.0,-0.015786,-0.001437,-0.04123,0.003832,5.1e-05,-0.000101
195930,0.005999,-0.000153,-0.112,0.087266,-0.0,-0.0,3.0,0.334299,0.291683,0.317611,0.35617,0.000254,-0.0,-0.0,0.100591,-0.0,-0.0,-0.015746,-0.001436,-0.041231,0.005696,4e-05,-0.000101
195950,0.006006,-0.000274,-0.112121,0.087266,-0.0,-0.0,3.0,0.336614,0.291307,0.315105,0.356455,0.003328,-0.0,-0.0,0.207268,-0.0,-0.0,-0.015655,-0.001435,-0.041233,0.003791,4e-05,-0.000101
195970,0.006379,-0.000375,-0.112241,0.087266,-0.0,-0.0,3.0,0.33902,0.291056,0.312445,0.356646,0.007475,-0.0,-0.0,0.19598,-0.0,-0.0,-0.01555,-0.001433,-0.041235,0.006855,2.9e-05,-0.0001
195990,0.007124,-0.000578,-0.11224,0.087266,-0.0,-0.0,3.0,0.338332,0.291483,0.313212,0.356322,0.011193,-0.0,-0.0,0.172464,-0.0,-0.0,-0.015319,-0.001432,-0.041237,0.017444,3.3e-05,-0.000112
196010,0.008722,-0.000732,-0.112378,0.087266,-0.0,-0.0,3.0,0.337994,0.292715,0.313586,0.355381,0.014567,-0.0,-0.0,0.16486,-0.0,-0.0,-0.014832,-0.001431,-0.04124,0.038078,4.1e-05,-0.000112
196030,0.011174,-0.000838,-0.112493,0.087266,-0.0,-0.0,3.0,0.334899,0.294746,0.316967,0.353809,0.017843,-0.0,-0.0,0.161969,-0.0,-0.0,-0.013917,-0.00143,-0.041242,0.062551,5.3e-05,-0.000137
196050,0.014471,-0.000774,-0.112607,0.087266,-0.0,-0.0,3.0,0.331957,0.29793,0.320097,0.351297,0.021053,-0.0,-0.0,0.157617,-0.0,-0.0,-0.012412,-0.00143,-0.041245,0.095296,5.8e-05,-0.000149
196070,0.0185,-0.000667,-0.112837,0.087266,-0.0,-0.0,3.0,0.330833,0.301783,0.321272,0.348172,0.024166,-0.0,-0.0,0.152443,-0.0,-0.0,-0.010192,-0.001429,-0.041248,0.131103,5.5e-05,-0.000171
196090,0.023756,-0.000611,-0.11308,0.087266,-0.0,-0.0,3.0,0.332044,0.306476,0.320006,0.344238,0.027177,-0.0,-0.0,0.147484,-0.0,-0.0,-0.007189,-0.001429,-0.041251,0.176452,3.6e-05,-0.000195
196110,0.030122,-0.000736,-0.11331,0.087266,-0.0,-0.0,3.0,0.335515,0.311718,0.316301,0.339668,0.030092,-0.0,-0.0,0.14282,-0.0,-0.0,-0.003293,-0.001428,-0.041255,0.221084,9e-06,-0.000204
196130,0.037342,-0.000811,-0.113528,0.087266,-0.0,-0.0,3.0,0.334657,0.317359,0.317227,0.334534,0.032914,-0.0,-0.0,0.138301,-0.0,-0.0,0.001515,-0.001428,-0.04126,0.274527,1.4e-05,-0.000228
196150,0.045414,-0.000833,-0.113852,0.087266,-0.0,-0.0,3.0,0.335732,0.32277,0.316066,0.329385,0.035647,-0.0,-0.0,0.133888,-0.0,-0.0,0.007223,-0.001427,-0.041264,0.321804,2.3e-05,-0.00026
196170,0.054341,-0.000799,-0.114299,0.087266,-0.0,-0.0,3.0,0.335142,0.328039,0.316705,0.324145,0.038292,-0.0,-0.0,0.129592,-0.0,-0.0,0.013784,-0.001427,-0.04127,0.356239,3.4e-05,-0.000293
196190,0.063523,-0.000868,-0.114747,0.087266,-0.0,-0.0,3.0,0.334104,0.333422,0.31782,0.318549,0.040853,-0.0,-0.0,0.12542,-0.0,-0.0,0.021133,-0.001426,-0.041276,0.389634,3.8e-05,-0.000336
196210,0.072698,-0.000811,-0.115184,0.087266,-0.0,-0.0,3.0,0.33158,0.338571,0.320493,0.312945,0.04333,-0.0,-0.0,0.121366,-0.0,-0.0,0.029183,-0.001426,-0.041283,0.418561,4.5e-05,-0.000392
196230,0.08236,-0.000716,-0.115723,0.087266,-0.0,-0.0,3.0,0.331529,0.343285,0.320546,0.307587,0.045728,-0.0,-0.0,0.117426,-0.0,-0.0,0.037769,-0.001425,-0.041291,0.438876,4.1e-05,-0.000433
196250,0.091905,-0.000627,-0.116147,0.087266,-0.0,-0.0,3.0,0.332095,0.347334,0.319952,0.302798,0.048048,-0.0,-0.0,0.113597,-0.0,-0.0,0.046716,-0.001425,-0.041301,0.451829,2.6e-05,-0.000486
196270,0.101199,-0.000419,-0.116687,0.087266,-0.0,-0.0,3.0,0.330037,0.350874,0.322098,0.298458,0.050292,-0.0,-0.0,0.109876,-0.0,-0.0,0.055868,-0.001425,-0.041311,0.465142,4.9e-05,-0.000539
196290,0.110372,-0.00022,-0.117094,0.087266,-0.0,-0.0,3.0,0.331635,0.353404,0.320435,0.295265,0.052462,-0.0,-0.0,0.106261,-0.0,-0.0,0.065056,-0.001424,-0.041322,0.462394,5.7e-05,-0.00059
196310,0.118814,-5.2e-05,-0.117621,0.087266,-0.0,-0.0,3.0,0.33479,0.35546,0.317084,0.292611,0.05456,-0.0,-0.0,0.102748,-0.0,-0.0,0.074144,-0.001423,-0.041334,0.446481,4.8e-05,-0.000629
196330,0.126169,-7.3e-05,-0.118028,0.087266,-0.0,-0.0,3.0,0.335689,0.35673,0.316112,0.290945,0.05659,-0.0,-0.0,0.099335,-0.0,-0.0,0.082917,-0.001421,-0.041347,0.42163,4.7e-05,-0.000668
196350,0.132566,-0.000392,-0.118429,0.087266,-0.0,-0.0,3.0,0.337103,0.357264,0.314569,0.290237,0.058551,-0.0,-0.0,0.096019,-0.0,-0.0,0.091182,-0.00142,-0.04136,0.392105,4.2e-05,-0.000707
196370,0.138325,-0.000388,-0.118715,0.087266,-0.0,-0.0,3.0,0.337188,0.357068,0.314476,0.290498,0.060447,-0.0,-0.0,0.092797,-0.0,-0.0,0.09878,-0.001419,-0.041375,0.355787,4.3e-05,-0.000734
196390,0.142876,-0.000577,-0.119013,0.087266,-0.0,-0.0,3.0,0.33673,0.356071,0.314978,0.291813,0.06228,-0.0,-0.0,0.089668,-0.0,-0.0,0.105578,-0.001418,-0.04139,0.315677,5e-05,-0.000764
196410,0.146303,-0.000474,-0.119215,0.087266,-0.0,-0.0,3.0,0.334429,0.354331,0.317472,0.294075,0.06405,-0.0,-0.0,0.086628,-0.0,-0.0,0.111476,-0.001417,-0.041405,0.268734,6.3e-05,-0.000796
196430,0.148491,-0.000202,-0.119438,0.087266,-0.0,-0.0,3.0,0.331945,0.352086,0.32011,0.296938,0.06576,-0.0,-0.0,0.083675,-0.0,-0.0,0.116414,-0.001415,-0.041421,0.213157,9.1e-05,-0.000817
196450,0.149342,-1.1e-05,-0.119691,0.087266,-0.0,-0.0,3.0,0.331711,0.349266,0.320355,0.300447,0.067412,-0.0,-0.0,0.080807,-0.0,-0.0,0.120286,-0.001414,-0.041438,0.151869,0.00011,-0.000828
196470,0.149077,0.000348,-0.119844,0.087266,-0.0,-0.0,3.0,0.329764,0.346135,0.32238,0.304234,0.069007,-0.0,-0.0,0.078022,-0.0,-0.0,0.12304,-0.001412,-0.041454,0.098424,0.000137,-0.000852
196490,0.147966,0.000412,-0.119976,0.087266,-0.0,-0.0,3.0,0.332205,0.34268,0.319836,0.308288,0.070547,-0.0,-0.0,0.075317,-0.0,-0.0,0.124709,-0.001409,-0.041472,0.050439,0.000122,-0.000862
196510,0.146377,0.000315,-0.119989,0.087266,-0.0,-0.0,3.0,0.334744,0.339321,0.317133,0.312108,0.072034,-0.0,-0.0,0.07269,-0.0,-0.0,0.12539,-0.001407,-0.041489,0.007736,0.000101,-0.000861
196530,0.144431,7.5e-05,-0.120001,0.087266,-0.0,-0.0,3.0,0.338333,0.336156,0.31321,0.315605,0.073469,-0.0,-0.0,0.070139,-0.0,-0.0,0.125209,-0.001405,-0.041506,-0.02701,7.8e-05,-0.00086
196550,0.142478,-4.3e-05,-0.120021,0.087266,-0.0,-0.0,3.0,0.337052,0.333173,0.314625,0.318813,0.074853,-0.0,-0.0,0.067662,-0.0,-0.0,0.1243,-0.001403,-0.041523,-0.054542,8.8e-05,-0.000862
196570,0.140389,7.4e-05,-0.12006,0.087266,-0.0,-0.0,3.0,0.334495,0.331029,0.317402,0.321068,0.076188,-0.0,-0.0,0.065257,-0.0,-0.0,0.122929,-0.001401,-0.041541,-0.075231,0.000111,-0.000864
196590,0.13817,0.000297,-0.119988,0.087266,-0.0,-0.0,3.0,0.334401,0.32951,0.317502,0.322641,0.077475,-0.0,-0.0,0.062922,-0.0,-0.0,0.121266,-0.001398,-0.041558,-0.091941,0.000119,-0.000855
196610,0.136065,0.000535,-0.120012,0.087266,-0.0,-0.0,3.0,0.33347,0.328854,0.318497,0.323314,0.078717,-0.0,-0.0,0.060655,-0.0,-0.0,0.11946,-0.001396,-0.041575,-0.098131,0.00013,-0.000854
196630,0.134462,0.000674,-0.119917,0.087266,-0.0,-0.0,3.0,0.332329,0.328924,0.319705,0.323243,0.079913,-0.0,-0.0,0.058455,-0.0,-0.0,0.11766,-0.001393,-0.041592,-0.091372,0.000157,-0.000846
196650,0.133505,0.000364,-0.1198,0.087266,-0.0,-0.0,3.0,0.335279,0.329629,0.316557,0.322518,0.081066,-0.0,-0.0,0.056319,-0.0,-0.0,0.116019,-0.00139,-0.041609,-0.079813,0.000137,-0.000831
196670,0.133255,0.000463,-0.119692,0.087266,-0.0,-0.0,3.0,0.333109,0.330971,0.318881,0.321129,0.082177,-0.0,-0.0,0.054247,-0.0,-0.0,0.114653,-0.001387,-0.041625,-0.053489,0.000135,-0.000818
196690,0.133399,9.7e-05,-0.119544,0.087266,-0.0,-0.0,3.0,0.334195,0.332409,0.317722,0.319622,0.083247,-0.0,-0.0,0.052235,-0.0,-0.0,0.113687,-0.001385,-0.041642,-0.030321,0.000124,-0.000815
196710,0.134128,0.000149,-0.119651,0.087266,-0.0,-0.0,3.0,0.333061,0.334215,0.318931,0.317702,0.084276,-0.0,-0.0,0.050282,-0.0,-0.0,0.113143,-0.001383,-0.041658,-0.008241,0.000102,-0.000811
196730,0.135109,0.000209,-0.119653,0.087266,-0.0,-0.0,3.0,0.333459,0.336087,0.318508,0.31568,0.085268,-0.0,-0.0,0.048388,-0.0,-0.0,0.113042,-0.001381,-0.041674,0.004332,9.3e-05,-0.000808
196750,0.136081,0.000267,-0.119633,0.087266,-0.0,-0.0,3.0,0.334671,0.338063,0.317212,0.31351,0.086222,-0.0,-0.0,0.04655,-0.0,-0.0,0.113319,-0.001379,-0.04169,0.021951,8.7e-05,-0.000805
196770,0.137184,0.000334,-0.119633,0.087266,-0.0,-0.0,3.0,0.335522,0.339883,0.316294,0.311476,0.087139,-0.0,-0.0,0.044766,-0.0,-0.0,0.113918,-0.001377,-0.041706,0.037744,9.5e-05,-0.000803
196790,0.138293,0.000288,-0.119745,0.087266,-0.0,-0.0,3.0,0.336788,0.341236,0.314915,0.309945,0.088021,-0.0,-0.0,0.043036,-0.0,-0.0,0.11474,-0.001375,-0.041722,0.043499,0.000101,-0.000799
196810,0.139523,0.000118,-0.119703,0.087266,-0.0,-0.0,3.0,0.336792,0.341969,0.314909,0.309106,0.08887,-0.0,-0.0,0.041357,-0.0,-0.0,0.115614,-0.001372,-0.041738,0.050886,0.000109,-0.000809
196830,0.140633,7.2e-05,-0.119814,0.087266,-0.0,-0.0,3.0,0.3328,0.342498,0.319208,0.308498,0.089684,-0.0,-0.0,0.039729,-0.0,-0.0,0.116541,-0.00137,-0.041754,0.051851,0.000128,-0.000821
196850,0.141361,0.000133,-0.12004,0.087266,-0.0,-0.0,3.0,0.333229,0.342855,0.318753,0.308085,0.090467,-0.0,-0.0,0.03815,-0.0,-0.0,0.117485,-0.001368,-0.041771,0.042311,0.000119,-0.000829
196870,0.141734,0.000156,-0.120054,0.087266,-0.0,-0.0,3.0,0.331644,0.342977,0.320426,0.307944,0.091218,-0.0,-0.0,0.036618,-0.0,-0.0,0.118327,-0.001366,-0.041788,0.0298,0.000109,-0.000838
196890,0.141362,0.000264,-0.120191,0.087266,-0.0,-0.0,3.0,0.33319,0.342941,0.318795,0.307986,0.09194,-0.0,-0.0,0.035133,-0.0,-0.0,0.119013,-0.001364,-0.041805,0.023339,0.0001,-0.000849
196910,0.14111,0.000248,-0.120174,0.087266,-0.0,-0.0,3.0,0.332999,0.342537,0.318998,0.308452,0.092631,-0.0,-0.0,0.033693,-0.0,-0.0,0.119461,-0.001362,-0.041821,0.013852,0.0001,-0.000848
196930,0.140974,0.000476,-0.120073,0.087266,-0.0,-0.0,3.0,0.33496,0.342017,0.316901,0.309051,0.093295,-0.0,-0.0,0.032297,-0.0,-0.0,0.119653,-0.00136,-0.041838,0.009809,9.9e-05,-0.000834
196950,0.14061,0.000445,-0.11996,0.087266,-0.0,-0.0,3.0,0.334279,0.341208,0.317633,0.309977,0.09393,-0.0,-0.0,0.030943,-0.0,-0.0,0.119638,-0.001357,-0.041855,-0.000646,0.00012,-0.000833
196970,0.140124,0.000407,-0.119849,0.087266,-0.0,-0.0,3.0,0.335816,0.340419,0.315974,0.310872,0.094539,-0.0,-0.0,0.029631,-0.0,-0.0,0.119422,-0.001355,-0.041871,-0.014053,0.000114,-0.000821
196990,0.139144,0.000339,-0.119727,0.087266,-0.0,-0.0,3.0,0.336391,0.339844,0.315349,0.311521,0.095122,-0.0,-0.0,0.028359,-0.0,-0.0,0.119028,-0.001352,-0.041888,-0.024038,0.000119,-0.000795
197010,0.138285,0.000279,-0.119602,0.087266,-0.0,-0.0,3.0,0.336502,0.339398,0.315227,0.312021,0.09568,-0.0,-0.0,0.027126,-0.0,-0.0,0.118493,-0.00135,-0.041904,-0.033441,0.000111,-0.00077
197030,0.137314,0.000203,-0.119381,0.087266,-0.0,-0.0,3.0,0.334742,0.339167,0.317136,0.31228,0.096214,-0.0,-0.0,0.025931,-0.0,-0.0,0.117857,-0.001347,-0.041919,-0.038132,0.000117,-0.000758
197050,0.136333,0.000136,-0.119258,0.087266,-0.0,-0.0,3.0,0.334125,0.33898,0.317798,0.31249,0.096724,-0.0,-0.0,0.024774,-0.0,-0.0,0.117135,-0.001345,-0.041934,-0.041027,0.00011,-0.000744
197070,0.135719,0.000212,-0.119158,0.087266,-0.0,-0.0,3.0,0.33364,0.338799,0.318315,0.312692,0.097211,-0.0,-0.0,0.023652,-0.0,-0.0,0.116333,-0.001343,-0.041949,-0.039322,9.3e-05,-0.000732
197090,0.134981,0.00016,-0.11903,0.087266,-0.0,-0.0,3.0,0.333097,0.339022,0.318893,0.312443,0.097676,-0.0,-0.0,0.022566,-0.0,-0.0,0.115579,-0.001342,-0.041964,-0.036382,0.000101,-0.000732
197110,0.134374,0.000123,-0.119042,0.087266,-0.0,-0.0,3.0,0.33568,0.339054,0.316122,0.312407,0.098119,-0.0,-0.0,0.021513,-0.0,-0.0,0.114837,-0.00134,-0.041978,-0.033562,8.4e-05,-0.000717
197130,0.134131,0.0001,-0.118926,0.087266,-0.0,-0.0,3.0,0.333892,0.339495,0.318047,0.311913,0.098541,-0.0,-0.0,0.020494,-0.0,-0.0,0.114179,-0.001338,-0.041992,-0.030236,0.000105,-0.000706
197150,0.13363,0.000184,-0.118802,0.087266,-0.0,-0.0,3.0,0.332714,0.339899,0.319299,0.311459,0.098944,-0.0,-0.0,0.019507,-0.0,-0.0,0.113616,-0.001336,-0.042006,-0.028931,0.000114,-0.000704
197170,0.133265,0.000162,-0.118809,0.087266,-0.0,-0.0,3.0,0.333253,0.340207,0.318727,0.311111,0.099327,-0.0,-0.0,0.018551,-0.0,-0.0,0.113089,-0.001334,-0.04202,-0.022771,9.9e-05,-0.00069
197190,0.133014,0.000269,-0.118822,0.087266,-0.0,-0.0,3.0,0.333531,0.340636,0.318432,0.310627,0.099691,-0.0,-0.0,0.017626,-0.0,-0.0,0.112654,-0.001332,-0.042034,-0.021289,9.7e-05,-0.00069
197210,0.132665,-4e-06,-0.118692,0.087266,-0.0,-0.0,3.0,0.33657,0.340909,0.315152,0.310316,0.100037,-0.0,-0.0,0.01673,-0.0,-0.0,0.112254,-0.00133,-0.042048,-0.017657,7e-05,-0.000675
197230,0.132429,-0.00014,-0.118689,0.087266,-0.0,-0.0,3.0,0.336616,0.341111,0.315103,0.310087,0.100365,-0.0,-0.0,0.015863,-0.0,-0.0,0.111878,-0.001328,-0.042061,-0.014842,6.8e-05,-0.000674
197250,0.132308,-0.000155,-0.11857,0.087266,-0.0,-0.0,3.0,0.334444,0.341565,0.317456,0.309569,0.100676,-0.0,-0.0,0.015024,-0.0,-0.0,0.111585,-0.001326,-0.042075,-0.014095,9e-05,-0.000663
197270,0.131928,-6.4e-05,-0.118443,0.087266,-0.0,-0.0,3.0,0.33225,0.341662,0.319788,0.309457,0.10097,-0.0,-0.0,0.014211,-0.0,-0.0,0.111298,-0.001325,-0.042088,-0.018615,9.9e-05,-0.000661
197290,0.131184,0.000135,-0.118473,0.087266,-0.0,-0.0,3.0,0.329619,0.341625,0.322529,0.3095,0.101248,-0.0,-0.0,0.013426,-0.0,-0.0,0.11097,-0.001323,-0.042101,-0.022135,0.000108,-0.000662
197310,0.130569,0.000221,-0.118493,0.087266,-0.0,-0.0,3.0,0.332649,0.341647,0.319367,0.309475,0.101511,-0.0,-0.0,0.012666,-0.0,-0.0,0.110588,-0.001322,-0.042114,-0.024016,8e-05,-0.000648
197330,0.129953,0.000176,-0.118362,0.087266,-0.0,-0.0,3.0,0.334627,0.341572,0.317259,0.30956,0.101759,-0.0,-0.0,0.01193,-0.0,-0.0,0.110134,-0.00132,-0.042127,-0.021978,6.6e-05,-0.000646
197350,0.129224,0.000132,-0.118376,0.087266,-0.0,-0.0,3.0,0.335713,0.341285,0.316086,0.309889,0.101992,-0.0,-0.0,0.011219,-0.0,-0.0,0.109613,-0.001318,-0.04214,-0.024126,7.2e-05,-0.000621
197370,0.128502,-0.000171,-0.118112,0.087266,-0.0,-0.0,3.0,0.337427,0.340718,0.314212,0.310534,0.102211,-0.0,-0.0,0.010532,-0.0,-0.0,0.108975,-0.001317,-0.042152,-0.031197,6.6e-05,-0.000609
197390,0.127522,-0.000115,-0.118017,0.087266,-0.0,-0.0,3.0,0.334665,0.340012,0.317219,0.311332,0.102417,-0.0,-0.0,0.009867,-0.0,-0.0,0.108199,-0.001315,-0.042164,-0.038389,8.2e-05,-0.000597
197410,0.126291,-7.4e-05,-0.117905,0.087266,-0.0,-0.0,3.0,0.333758,0.33939,0.31819,0.312031,0.102609,-0.0,-0.0,0.009225,-0.0,-0.0,0.107313,-0.001314,-0.042176,-0.048254,8.6e-05,-0.000585
197430,0.124825,-0.000169,-0.11779,0.087266,-0.0,-0.0,3.0,0.334657,0.338821,0.317228,0.312667,0.102789,-0.0,-0.0,0.008604,-0.0,-0.0,0.10631,-0.001312,-0.042188,-0.057898,6.4e-05,-0.000572
197450,0.123115,-0.000278,-0.117679,0.087266,-0.0,-0.0,3.0,0.334879,0.338254,0.316989,0.313298,0.102957,-0.0,-0.0,0.008004,-0.0,-0.0,0.105187,-0.001311,-0.042199,-0.065013,5.5e-05,-0.000573
197470,0.121656,-0.000372,-0.117585,0.087266,-0.0,-0.0,3.0,0.335457,0.337734,0.316364,0.313874,0.103112,-0.0,-0.0,0.007424,-0.0,-0.0,0.103934,-0.00131,-0.042211,-0.069513,4.5e-05,-0.000549
197490,0.120053,-0.00023,-0.117486,0.087266,-0.0,-0.0,3.0,0.334228,0.337141,0.317688,0.314527,0.103257,-0.0,-0.0,0.006864,-0.0,-0.0,0.102567,-0.001309,-0.042222,-0.069367,6e-05,-0.000537
197510,0.118465,-0.000339,-0.11725,0.087266,-0.0,-0.0,3.0,0.333978,0.336165,0.317955,0.315595,0.10339,-0.0,-0.0,0.006324,-0.0,-0.0,0.101074,-0.001308,-0.042232,-0.071514,6.2e-05,-0.000525
197530,0.116991,-0.000304,-0.117262,0.087266,-0.0,-0.0,3.0,0.333476,0.335582,0.318491,0.316228,0.103512,-0.0,-0.0,0.005802,-0.0,-0.0,0.099534,-0.001307,-0.042243,-0.07511,5.1e-05,-0.000513
197550,0.115152,-0.000297,-0.117158,0.087266,-0.0,-0.0,3.0,0.3345,0.335122,0.317396,0.316727,0.103625,-0.0,-0.0,0.005298,-0.0,-0.0,0.097977,-0.001306,-0.042253,-0.080919,4e-05,-0.000501
197570,0.11345,-0.000527,-0.117038,0.087266,-0.0,-0.0,3.0,0.336914,0.334601,0.314776,0.317287,0.103727,-0.0,-0.0,0.004811,-0.0,-0.0,0.096355,-0.001305,-0.042263,-0.082627,1.7e-05,-0.000488
197590,0.112104,-0.000491,-0.116946,0.087266,-0.0,-0.0,3.0,0.335953,0.334647,0.315826,0.317238,0.10382,-0.0,-0.0,0.004342,-0.0,-0.0,0.094776,-0.001304,-0.042273,-0.077686,2e-05,-0.000478
