time_ms,roll,pitch,yaw,reference_roll,reference_pitch,reference_yaw,reference_throttle,throttle_1,throttle_2,throttle_3,throttle_4,roll_predicted,pitch_predicted,yaw_predicted,roll_rate_predicted,pitch_rate_predicted,yaw_rate_predicted,value1,value2,value3,value4,value5,value6
223925,0.005877,-0.00019,-0.101619,0.0,-0.0,-0.0,3.0,0.334286,0.32912,0.317625,0.323042,-0.0,-0.0,-0.019993,0.0,0.0,-0.000213,0.004443,-0.002008,-0.084707,-0.0003,3.4e-05,-0.000815
223945,0.005999,-0.000184,-0.10174,0.0,-0.0,-0.0,3.0,0.333715,0.329193,0.318236,0.322967,-0.0,-0.0,-0.019997,0.0,0.0,-0.000213,0.004421,-0.002007,-0.084724,0.001583,4.7e-05,-0.000826
223965,0.005999,-0.000183,-0.101862,0.0,-0.0,-0.0,3.0,0.333056,0.329114,0.318937,0.323048,-0.0,-0.0,-0.020001,0.0,0.0,-0.000213,0.004401,-0.002006,-0.084741,0.001773,5.9e-05,-0.000849
223985,0.005993,-6.1e-05,-0.102104,0.0,-0.0,-0.0,3.0,0.332126,0.32904,0.319919,0.323124,-0.0,-0.0,-0.020005,0.0,0.0,-0.000213,0.004377,-0.002005,-0.084758,0.000351,7e-05,-0.000859
224005,0.005749,-7.3e-05,-0.102226,0.0,-0.0,-0.0,3.0,0.330726,0.328901,0.321383,0.323266,-0.0,-0.0,-0.02001,0.0,0.0,-0.000213,0.004344,-0.002004,-0.084775,-0.002526,6.9e-05,-0.000869
224025,0.005749,-7.3e-05,-0.102226,0.0,-0.0,-0.0,3.0,0.33143,0.328892,0.320649,0.323276,-0.0,-0.0,-0.020014,0.0,0.0,-0.000213,0.004291,-0.002003,-0.084793,-0.003389,5.6e-05,-0.00088
224045,0.005499,3.7e-05,-0.102348,0.0,-0.0,-0.0,3.0,0.33147,0.328943,0.320608,0.323224,-0.0,-0.0,-0.020018,0.0,0.0,-0.000213,0.004254,-0.002002,-0.08481,-0.006205,5.5e-05,-0.00089
224065,0.005377,3.1e-05,-0.102348,0.0,-0.0,-0.0,3.0,0.333118,0.328945,0.318871,0.323221,-0.0,-0.0,-0.020022,0.0,0.0,-0.000213,0.004189,-0.002001,-0.084828,-0.006981,5.4e-05,-0.000888
224085,0.005017,-0.00011,-0.102348,0.0,-0.0,-0.0,3.0,0.334162,0.328823,0.317759,0.323346,-0.0,-0.0,-0.020027,0.0,0.0,-0.000213,0.004093,-0.001999,-0.084846,-0.005671,5.4e-05,-0.000874
224105,0.005133,1.8e-05,-0.102227,0.0,-0.0,-0.0,3.0,0.332658,0.328786,0.319359,0.323384,-0.0,-0.0,-0.020031,0.0,0.0,-0.000213,0.003967,-0.001998,-0.084864,-0.000711,6.7e-05,-0.000873
224125,0.005139,-0.000104,-0.102105,0.0,-0.0,-0.0,3.0,0.331955,0.328766,0.3201,0.323405,-0.0,-0.0,-0.020035,0.0,0.0,-0.000213,0.003883,-0.001996,-0.084881,-0.002984,7.8e-05,-0.000871
224145,0.005261,-9.8e-05,-0.102105,0.0,-0.0,-0.0,3.0,0.331654,0.328664,0.320415,0.323509,-0.0,-0.0,-0.020039,0.0,0.0,-0.000213,0.003785,-0.001995,-0.084898,-0.004881,6.4e-05,-0.000857
224165,0.005011,1.1e-05,-0.101984,0.0,-0.0,-0.0,3.0,0.331125,0.328671,0.320968,0.323502,-0.0,-0.0,-0.020044,0.0,0.0,-0.000213,0.003696,-0.001994,-0.084915,-0.005337,6.4e-05,-0.000843
224185,0.004889,5e-06,-0.101863,0.0,-0.0,-0.0,3.0,0.332034,0.328647,0.320016,0.323526,-0.0,-0.0,-0.020048,0.0,0.0,-0.000213,0.0036,-0.001993,-0.084932,-0.005604,5.1e-05,-0.00083
224205,0.004767,-2e-06,-0.10162,0.0,-0.0,-0.0,3.0,0.332979,0.328765,0.319018,0.323405,-0.0,-0.0,-0.020052,0.0,0.0,-0.000213,0.003521,-0.001992,-0.084949,-0.004523,5.1e-05,-0.000816
224225,0.004773,-0.000124,-0.101499,0.0,-0.0,-0.0,3.0,0.334114,0.328885,0.31781,0.323283,-0.0,-0.0,-0.020056,0.0,0.0,-0.000213,0.003454,-0.001991,-0.084965,-0.003607,5e-05,-0.00079
224245,0.004652,-0.000131,-0.101256,0.0,-0.0,-0.0,3.0,0.333263,0.328967,0.318718,0.323199,-0.0,-0.0,-0.020061,0.0,0.0,-0.000213,0.003403,-0.001989,-0.08498,-0.003,6.2e-05,-0.000764
224265,0.004651,-0.000132,-0.100995,0.0,-0.0,-0.0,3.0,0.332611,0.328936,0.319408,0.323231,-0.0,-0.0,-0.020065,0.0,0.0,-0.000213,0.003342,-0.001988,-0.084996,-0.002171,6.2e-05,-0.000749
224285,0.004761,0.000118,-0.100753,0.0,-0.0,-0.0,3.0,0.329989,0.329119,0.322147,0.323043,-0.0,-0.0,-0.020069,0.0,0.0,-0.000213,0.003305,-0.001987,-0.08501,-8.6e-05,7.5e-05,-0.000723
224305,0.004767,-4e-06,-0.100632,0.0,-0.0,-0.0,3.0,0.331102,0.329131,0.320992,0.32303,-0.0,-0.0,-0.020074,0.0,0.0,-0.000213,0.003282,-0.001986,-0.085025,0.00031,6.3e-05,-0.000709
224325,0.004883,0.000123,-0.100389,0.0,-0.0,-0.0,3.0,0.33121,0.329181,0.320879,0.322979,-0.0,-0.0,-0.020078,0.0,0.0,-0.000213,0.003266,-0.001985,-0.085039,0.000613,5e-05,-0.000684
224345,0.005005,0.000129,-0.100268,0.0,-0.0,-0.0,3.0,0.333397,0.329285,0.318574,0.322872,-0.0,-0.0,-0.020082,0.0,0.0,-0.000213,0.003268,-0.001984,-0.085052,0.000589,5e-05,-0.00067
224365,0.004895,-0.000121,-0.100146,0.0,-0.0,-0.0,3.0,0.336407,0.32926,0.315331,0.322898,-0.0,-0.0,-0.020086,0.0,0.0,-0.000213,0.003268,-0.001983,-0.085065,0.000752,2.5e-05,-0.000645
224385,0.004901,-0.000244,-0.099903,0.0,-0.0,-0.0,3.0,0.335753,0.329268,0.316043,0.32289,-0.0,-0.0,-0.020091,0.0,0.0,-0.000213,0.003261,-0.001981,-0.085078,0.002429,3.8e-05,-0.000619
224405,0.004901,-0.000244,-0.099782,0.0,-0.0,-0.0,3.0,0.332304,0.329184,0.319732,0.322976,-0.0,-0.0,-0.020095,0.0,0.0,-0.000213,0.00327,-0.00198,-0.08509,-0.002934,7.3e-05,-0.000594
224425,0.004895,-0.000123,-0.099539,0.0,-0.0,-0.0,3.0,0.329008,0.329162,0.323157,0.322999,-0.0,-0.0,-0.020099,0.0,0.0,-0.000213,0.003249,-0.001979,-0.085102,-0.004477,9.6e-05,-0.00058
224445,0.004511,0.000224,-0.099419,0.0,-0.0,-0.0,3.0,0.328592,0.329342,0.323583,0.322814,-0.0,-0.0,-0.020103,0.0,0.0,-0.000213,0.003242,-0.001978,-0.085114,-0.002716,9.7e-05,-0.000579
224465,0.004499,0.000468,-0.099298,0.0,-0.0,-0.0,3.0,0.328693,0.3294,0.323479,0.322754,-0.0,-0.0,-0.020108,0.0,0.0,-0.000213,0.003222,-0.001976,-0.085125,-0.000694,8.5e-05,-0.000566
224485,0.004499,0.000468,-0.099298,0.0,-0.0,-0.0,3.0,0.332821,0.329455,0.319186,0.322698,-0.0,-0.0,-0.020112,0.0,0.0,-0.000213,0.003204,-0.001975,-0.085137,0.001378,6.1e-05,-0.000553
224505,0.004755,0.000236,-0.099176,0.0,-0.0,-0.0,3.0,0.333791,0.32944,0.318155,0.322714,-0.0,-0.0,-0.020116,0.0,0.0,-0.000213,0.003183,-0.001973,-0.085147,0.001754,4.9e-05,-0.000551
224525,0.004767,-8e-06,-0.099176,0.0,-0.0,-0.0,3.0,0.336127,0.329421,0.315636,0.322733,-0.0,-0.0,-0.02012,0.0,0.0,-0.000213,0.003172,-0.001972,-0.085158,0.001904,4.9e-05,-0.000538
224545,0.004779,-0.000252,-0.099175,0.0,-0.0,-0.0,3.0,0.336628,0.329273,0.315089,0.322885,-0.0,-0.0,-0.020125,0.0,0.0,-0.000213,0.003147,-0.00197,-0.085169,0.000576,4.8e-05,-0.000525
224565,0.004779,-0.000252,-0.099175,0.0,-0.0,-0.0,3.0,0.334198,0.329285,0.31772,0.322872,-0.0,-0.0,-0.020129,0.0,0.0,-0.000213,0.00313,-0.001969,-0.08518,-0.001023,7.1e-05,-0.000524
224585,0.004529,-0.000142,-0.099054,0.0,-0.0,-0.0,3.0,0.332336,0.329171,0.319698,0.32299,-0.0,-0.0,-0.020133,0.0,0.0,-0.000213,0.003103,-0.001968,-0.08519,-0.004057,8.2e-05,-0.000523
224605,0.004517,0.000102,-0.099055,0.0,-0.0,-0.0,3.0,0.326651,0.329308,0.325548,0.322849,-0.0,-0.0,-0.020137,0.0,0.0,-0.000213,0.003064,-0.001966,-0.085201,-0.002024,0.000107,-0.000534
224625,0.004505,0.000346,-0.099177,0.0,-0.0,-0.0,3.0,0.327509,0.329389,0.324683,0.322765,-0.0,-0.0,-0.020142,0.0,0.0,-0.000213,0.003047,-0.001965,-0.085211,-0.003468,0.000106,-0.000545
224645,0.004371,0.000584,-0.099299,0.0,-0.0,-0.0,3.0,0.330789,0.329449,0.321318,0.322704,-0.0,-0.0,-0.020146,0.0,0.0,-0.000213,0.00302,-0.001963,-0.085222,-0.001259,8.2e-05,-0.000556
224665,0.004377,0.000462,-0.09942,0.0,-0.0,-0.0,3.0,0.332369,0.329383,0.319663,0.322772,-0.0,-0.0,-0.02015,0.0,0.0,-0.000213,0.002981,-0.001961,-0.085233,-0.00073,8.2e-05,-0.000555
224685,0.004383,0.000341,-0.099541,0.0,-0.0,-0.0,3.0,0.33472,0.329436,0.317159,0.322717,-0.0,-0.0,-0.020154,0.0,0.0,-0.000213,0.002951,-0.00196,-0.085244,0.001429,7.1e-05,-0.000566
224705,0.004511,0.000225,-0.099662,0.0,-0.0,-0.0,3.0,0.335671,0.329299,0.316132,0.322859,-0.0,-0.0,-0.020159,0.0,0.0,-0.000213,0.002918,-0.001958,-0.085256,-0.00146,6.9e-05,-0.000565
224725,0.004511,0.000225,-0.099662,0.0,-0.0,-0.0,3.0,0.334541,0.329341,0.317352,0.322815,-0.0,-0.0,-0.020163,0.0,0.0,-0.000213,0.002889,-0.001956,-0.085267,-0.002802,8.1e-05,-0.000564
224745,0.004267,0.000213,-0.099783,0.0,-0.0,-0.0,3.0,0.3317,0.329348,0.320366,0.322808,-0.0,-0.0,-0.020167,0.0,0.0,-0.000213,0.002859,-0.001954,-0.085278,-0.002565,0.000105,-0.000575
224765,0.004011,0.000445,-0.099784,0.0,-0.0,-0.0,3.0,0.329673,0.329374,0.322473,0.322781,-0.0,-0.0,-0.020171,0.0,0.0,-0.000213,0.002822,-0.001952,-0.08529,-0.002143,0.000117,-0.000586
224785,0.004011,0.000445,-0.099784,0.0,-0.0,-0.0,3.0,0.330562,0.329232,0.321554,0.322927,-0.0,-0.0,-0.020176,0.0,0.0,-0.000213,0.002763,-0.00195,-0.085302,-0.004583,0.000103,-0.000597
224805,0.003993,0.000811,-0.099906,0.0,-0.0,-0.0,3.0,0.330627,0.329271,0.321486,0.322887,-0.0,-0.0,-0.02018,0.0,0.0,-0.000213,0.002689,-0.001948,-0.085314,-0.001987,0.000116,-0.000608
224825,0.003877,0.000683,-0.100027,0.0,-0.0,-0.0,3.0,0.334212,0.329283,0.317705,0.322875,-0.0,-0.0,-0.020184,0.0,0.0,-0.000213,0.002629,-0.001946,-0.085326,-0.001081,0.000103,-0.000607
224845,0.003993,0.000811,-0.100148,0.0,-0.0,-0.0,3.0,0.331893,0.329227,0.320164,0.322932,-0.0,-0.0,-0.020188,0.0,0.0,-0.000213,0.002568,-0.001943,-0.085338,-0.002084,0.000127,-0.000618
224865,0.003877,0.000683,-0.100148,0.0,-0.0,-0.0,3.0,0.333486,0.329185,0.31848,0.322975,-0.0,-0.0,-0.020193,0.0,0.0,-0.000213,0.002513,-0.001941,-0.08535,-0.004664,0.000125,-0.000616
224885,0.003511,0.000665,-0.10027,0.0,-0.0,-0.0,3.0,0.33054,0.329055,0.321577,0.323109,-0.0,-0.0,-0.020197,0.0,0.0,-0.000213,0.002435,-0.001938,-0.085363,-0.007098,0.000148,-0.000615
224905,0.003383,0.000781,-0.10027,0.0,-0.0,-0.0,3.0,0.331733,0.328895,0.320332,0.323273,-0.0,-0.0,-0.020201,0.0,0.0,-0.000213,0.002316,-0.001935,-0.085375,-0.00713,0.000147,-0.000614
224925,0.003127,0.001012,-0.100149,0.0,-0.0,-0.0,3.0,0.331577,0.328763,0.320496,0.323407,-0.0,-0.0,-0.020206,0.0,0.0,-0.000213,0.002179,-0.001932,-0.085387,-0.006935,0.000147,-0.000613
224945,0.002877,0.001122,-0.100149,0.0,-0.0,-0.0,3.0,0.330711,0.328623,0.321399,0.323551,-0.0,-0.0,-0.02021,0.0,0.0,-0.000213,0.002021,-0.001929,-0.0854,-0.00661,0.00017,-0.000611
224965,0.002749,0.001238,-0.100149,0.0,-0.0,-0.0,3.0,0.330511,0.328392,0.321607,0.323786,-0.0,-0.0,-0.020214,0.0,0.0,-0.000213,0.001839,-0.001926,-0.085412,-0.009202,0.00018,-0.00061
224985,0.002377,0.001341,-0.100149,0.0,-0.0,-0.0,3.0,0.329058,0.328213,0.323106,0.323969,-0.0,-0.0,-0.020218,0.0,0.0,-0.000213,0.001641,-0.001922,-0.085424,-0.011656,0.000202,-0.000609
225005,0.001999,0.001567,-0.100149,0.0,-0.0,-0.0,3.0,0.331692,0.327962,0.320375,0.324224,-0.0,-0.0,-0.020223,0.0,0.0,-0.000213,0.001407,-0.001918,-0.085436,-0.01345,0.0002,-0.000608
225025,0.001506,0.001664,-0.100028,0.0,-0.0,-0.0,3.0,0.331765,0.327783,0.320299,0.324406,-0.0,-0.0,-0.020227,0.0,0.0,-0.000213,0.001146,-0.001914,-0.085449,-0.013306,0.000211,-0.000607
225045,0.001134,0.001768,-0.100028,0.0,-0.0,-0.0,3.0,0.33032,0.327638,0.321805,0.324553,-0.0,-0.0,-0.020231,0.0,0.0,-0.000213,0.000874,-0.00191,-0.08546,-0.014747,0.000233,-0.000593
225065,0.00089,0.001756,-0.099906,0.0,-0.0,-0.0,3.0,0.332247,0.327323,0.319792,0.324871,-0.0,-0.0,-0.020235,0.0,0.0,-0.000213,0.000561,-0.001905,-0.085472,-0.017129,0.00023,-0.00058
225085,0.000634,0.001987,-0.099785,0.0,-0.0,-0.0,3.0,0.332616,0.327192,0.319402,0.325004,-0.0,-0.0,-0.02024,0.0,0.0,-0.000213,0.000227,-0.0019,-0.085484,-0.015981,0.00024,-0.000567
225105,0.000147,0.001963,-0.099663,0.0,-0.0,-0.0,3.0,0.33198,0.326897,0.320073,0.325301,-0.0,-0.0,-0.020244,0.0,0.0,-0.000213,-0.00012,-0.001895,-0.085495,-0.016407,0.000262,-0.000565
225125,-0.000103,0.002073,-0.099663,0.0,-0.0,-0.0,3.0,0.330718,0.326695,0.321392,0.325504,-0.0,-0.0,-0.020248,0.0,0.0,-0.000213,-0.00048,-0.00189,-0.085506,-0.014897,0.000273,-0.000552
225145,-0.000359,0.002304,-0.099541,0.0,-0.0,-0.0,3.0,0.328278,0.326594,0.323902,0.325606,-0.0,-0.0,-0.020252,0.0,0.0,-0.000213,-0.000805,-0.001884,-0.085517,-0.018951,0.000294,-0.000539
225165,-0.000731,0.002408,-0.099419,0.0,-0.0,-0.0,3.0,0.328996,0.326527,0.323169,0.325672,-0.0,-0.0,-0.020257,0.0,0.0,-0.000213,-0.00113,-0.001879,-0.085528,-0.021162,0.000291,-0.000538
225185,-0.001219,0.002384,-0.099419,0.0,-0.0,-0.0,3.0,0.330997,0.326612,0.321102,0.325587,-0.0,-0.0,-0.020261,0.0,0.0,-0.000213,-0.001449,-0.001873,-0.085539,-0.018392,0.000277,-0.000525
225205,-0.001462,0.002372,-0.099297,0.0,-0.0,-0.0,3.0,0.33118,0.326727,0.320911,0.325472,-0.0,-0.0,-0.020265,0.0,0.0,-0.000213,-0.001749,-0.001868,-0.085549,-0.0143,0.000277,-0.000511
225225,-0.001578,0.002244,-0.099297,0.0,-0.0,-0.0,3.0,0.333408,0.326729,0.318563,0.32547,-0.0,-0.0,-0.020269,0.0,0.0,-0.000213,-0.002021,-0.001862,-0.085559,-0.013823,0.000263,-0.000498
225245,-0.0017,0.002238,-0.099175,0.0,-0.0,-0.0,3.0,0.334066,0.326663,0.317861,0.325536,-0.0,-0.0,-0.020274,0.0,0.0,-0.000213,-0.002295,-0.001857,-0.085569,-0.010079,0.000262,-0.000485
225265,-0.001694,0.002116,-0.099054,0.0,-0.0,-0.0,3.0,0.333617,0.326712,0.318341,0.325487,-0.0,-0.0,-0.020278,0.0,0.0,-0.000213,-0.002534,-0.001851,-0.085579,-0.006899,0.000274,-0.000484
225285,-0.0017,0.002238,-0.098933,0.0,-0.0,-0.0,3.0,0.331506,0.326557,0.32057,0.325643,-0.0,-0.0,-0.020282,0.0,0.0,-0.000213,-0.002746,-0.001846,-0.085589,-0.009079,0.000284,-0.000471
225305,-0.001828,0.002354,-0.098811,0.0,-0.0,-0.0,3.0,0.328862,0.32657,0.323307,0.32563,-0.0,-0.0,-0.020286,0.0,0.0,-0.000213,-0.002935,-0.00184,-0.085598,-0.009993,0.000306,-0.00047
225325,-0.002199,0.002458,-0.098811,0.0,-0.0,-0.0,3.0,0.327623,0.326428,0.324568,0.325772,-0.0,-0.0,-0.020291,0.0,0.0,-0.000213,-0.003122,-0.001834,-0.085607,-0.014099,0.000303,-0.000457
225345,-0.002443,0.002446,-0.098671,0.0,-0.0,-0.0,3.0,0.328735,0.326624,0.323436,0.325576,-0.0,-0.0,-0.020295,0.0,0.0,-0.000213,-0.003304,-0.001829,-0.085616,-0.009869,0.000291,-0.000456
225365,-0.002809,0.002428,-0.09867,0.0,-0.0,-0.0,3.0,0.333408,0.326629,0.318563,0.325571,-0.0,-0.0,-0.020299,0.0,0.0,-0.000213,-0.003465,-0.001823,-0.085625,-0.009086,0.000253,-0.000441
225385,-0.002809,0.002428,-0.098549,0.0,-0.0,-0.0,3.0,0.333777,0.326639,0.318169,0.32556,-0.0,-0.0,-0.020303,0.0,0.0,-0.000213,-0.003637,-0.001818,-0.085634,-0.006733,0.000253,-0.000428
225405,-0.002918,0.002178,-0.098428,0.0,-0.0,-0.0,3.0,0.334471,0.326599,0.317427,0.3256,-0.0,-0.0,-0.020308,0.0,0.0,-0.000213,-0.003793,-0.001812,-0.085642,-0.006358,0.000264,-0.000415
225425,-0.002912,0.002057,-0.098307,0.0,-0.0,-0.0,3.0,0.332401,0.326521,0.31963,0.325679,-0.0,-0.0,-0.020312,0.0,0.0,-0.000213,-0.003955,-0.001807,-0.085651,-0.004222,0.000276,-0.000402
225445,-0.002918,0.002179,-0.098064,0.0,-0.0,-0.0,3.0,0.330858,0.326394,0.321246,0.325807,-0.0,-0.0,-0.020316,0.0,0.0,-0.000213,-0.004102,-0.001801,-0.085659,-0.005629,0.000286,-0.000389
225465,-0.003174,0.002411,-0.097942,0.0,-0.0,-0.0,3.0,0.331122,0.326186,0.320971,0.326014,-0.0,-0.0,-0.020321,0.0,0.0,-0.000213,-0.004259,-0.001796,-0.085666,-0.00681,0.000284,-0.000364
225485,-0.003295,0.002406,-0.097699,0.0,-0.0,-0.0,3.0,0.328306,0.326158,0.323874,0.326043,-0.0,-0.0,-0.020325,0.0,0.0,-0.000213,-0.004405,-0.00179,-0.085674,-0.008221,0.000295,-0.000351
225505,-0.003417,0.0024,-0.097577,0.0,-0.0,-0.0,3.0,0.330332,0.326222,0.321792,0.325979,-0.0,-0.0,-0.020329,0.0,0.0,-0.000213,-0.004535,-0.001785,-0.08568,-0.009608,0.000269,-0.000338
225525,-0.003533,0.002272,-0.097334,0.0,-0.0,-0.0,3.0,0.331986,0.326312,0.320067,0.325888,-0.0,-0.0,-0.020333,0.0,0.0,-0.000213,-0.004653,-0.001779,-0.085687,-0.009578,0.000255,-0.000313
225545,-0.003771,0.002139,-0.097213,0.0,-0.0,-0.0,3.0,0.335464,0.326322,0.316357,0.325878,-0.0,-0.0,-0.020338,0.0,0.0,-0.000213,-0.00478,-0.001774,-0.085693,-0.004347,0.000232,-0.000301
225565,-0.003643,0.002023,-0.097092,0.0,-0.0,-0.0,3.0,0.334719,0.32644,0.31716,0.32576,-0.0,-0.0,-0.020342,0.0,0.0,-0.000213,-0.004876,-0.001769,-0.085699,-0.001376,0.000232,-0.000276
225585,-0.003509,0.001785,-0.096971,0.0,-0.0,-0.0,3.0,0.333479,0.326477,0.318488,0.325723,-0.0,-0.0,-0.020346,0.0,0.0,-0.000213,-0.004933,-0.001764,-0.085704,-0.002331,0.000243,-0.000251
225605,-0.003393,0.001913,-0.09685,0.0,-0.0,-0.0,3.0,0.330292,0.326472,0.321834,0.325727,-0.0,-0.0,-0.02035,0.0,0.0,-0.000213,-0.00499,-0.001759,-0.085709,-0.001635,0.000255,-0.000251
225625,-0.003642,0.002023,-0.096849,0.0,-0.0,-0.0,3.0,0.330444,0.326478,0.321676,0.325722,-0.0,-0.0,-0.020355,0.0,0.0,-0.000213,-0.005027,-0.001755,-0.085714,-0.001131,0.000254,-0.00025
225645,-0.003648,0.002145,-0.096849,0.0,-0.0,-0.0,3.0,0.328775,0.326415,0.323396,0.325785,-0.0,-0.0,-0.020359,0.0,0.0,-0.000213,-0.005077,-0.00175,-0.085719,-0.000452,0.000254,-0.00025
225665,-0.003648,0.002145,-0.09697,0.0,-0.0,-0.0,3.0,0.332236,0.326396,0.319804,0.325804,-0.0,-0.0,-0.020363,0.0,0.0,-0.000213,-0.005115,-0.001745,-0.085724,-0.001435,0.000228,-0.000261
225685,-0.003643,0.002023,-0.097092,0.0,-0.0,-0.0,3.0,0.332955,0.326302,0.319044,0.325898,-0.0,-0.0,-0.020367,0.0,0.0,-0.000213,-0.005158,-0.00174,-0.08573,-0.004107,0.000214,-0.000273
225705,-0.003515,0.001907,-0.097092,0.0,-0.0,-0.0,3.0,0.333599,0.326498,0.31836,0.325701,-0.0,-0.0,-0.020372,0.0,0.0,-0.000213,-0.005187,-0.001736,-0.085735,-0.000377,0.000215,-0.000272
225725,-0.003631,0.001779,-0.097214,0.0,-0.0,-0.0,3.0,0.333542,0.326446,0.31842,0.325754,-0.0,-0.0,-0.020376,0.0,0.0,-0.000213,-0.005189,-0.001731,-0.085741,-0.002021,0.000214,-0.000284
225745,-0.003637,0.001901,-0.097214,0.0,-0.0,-0.0,3.0,0.332552,0.326525,0.31947,0.325675,-0.0,-0.0,-0.02038,0.0,0.0,-0.000213,-0.005196,-0.001727,-0.085746,-0.000341,0.000226,-0.000271
225765,-0.003759,0.001895,-0.097092,0.0,-0.0,-0.0,3.0,0.332174,0.326468,0.319869,0.325732,-0.0,-0.0,-0.020384,0.0,0.0,-0.000213,-0.005195,-0.001722,-0.085752,-0.00209,0.000238,-0.000258
225785,-0.003759,0.001895,-0.097092,0.0,-0.0,-0.0,3.0,0.330416,0.326433,0.321706,0.325767,-0.0,-0.0,-0.020389,0.0,0.0,-0.000213,-0.005223,-0.001717,-0.085757,-4e-05,0.000238,-0.000258
225805,-0.003886,0.002011,-0.09697,0.0,-0.0,-0.0,3.0,0.330367,0.326365,0.321756,0.325835,-0.0,-0.0,-0.020393,0.0,0.0,-0.000213,-0.005246,-0.001713,-0.085762,-0.001399,0.000237,-0.000257
225825,-0.004124,0.001878,-0.09697,0.0,-0.0,-0.0,3.0,0.331231,0.326086,0.320858,0.326114,-0.0,-0.0,-0.020397,0.0,0.0,-0.000213,-0.005309,-0.001708,-0.085768,-0.002117,0.000223,-0.000257
225845,-0.004124,0.001878,-0.09697,0.0,-0.0,-0.0,3.0,0.331527,0.325922,0.320549,0.326278,-0.0,-0.0,-0.020401,0.0,0.0,-0.000213,-0.005402,-0.001704,-0.085773,-0.000845,0.000223,-0.000256
225865,-0.004002,0.001884,-0.09697,0.0,-0.0,-0.0,3.0,0.331707,0.325916,0.32036,0.326284,-0.0,-0.0,-0.020406,0.0,0.0,-0.000213,-0.005465,-0.001699,-0.085778,-0.003324,0.000221,-0.000268
225885,-0.00388,0.001889,-0.09697,0.0,-0.0,-0.0,3.0,0.331867,0.325915,0.320191,0.326285,-0.0,-0.0,-0.02041,0.0,0.0,-0.000213,-0.005518,-0.001695,-0.085783,-0.005933,0.00022,-0.000267
225905,-0.004246,0.001871,-0.097091,0.0,-0.0,-0.0,3.0,0.331528,0.325987,0.320547,0.326214,-0.0,-0.0,-0.020414,0.0,0.0,-0.000213,-0.005555,-0.001691,-0.085788,-0.005416,0.000219,-0.000267
225925,-0.00449,0.00186,-0.097091,0.0,-0.0,-0.0,3.0,0.332161,0.326024,0.319882,0.326176,-0.0,-0.0,-0.020418,0.0,0.0,-0.000213,-0.005605,-0.001686,-0.085794,-0.002991,0.000207,-0.000266
225945,-0.004362,0.001744,-0.097091,0.0,-0.0,-0.0,3.0,0.332327,0.326139,0.319707,0.326062,-0.0,-0.0,-0.020423,0.0,0.0,-0.000213,-0.005642,-0.001682,-0.085799,-0.00082,0.000207,-0.000254
225965,-0.004362,0.001744,-0.097091,0.0,-0.0,-0.0,3.0,0.333622,0.325973,0.318335,0.326227,-0.0,-0.0,-0.020427,0.0,0.0,-0.000213,-0.005687,-0.001678,-0.085804,-0.001788,0.000194,-0.000253
225985,-0.004362,0.001744,-0.09697,0.0,-0.0,-0.0,3.0,0.333335,0.325895,0.31864,0.326305,-0.0,-0.0,-0.020431,0.0,0.0,-0.000213,-0.005752,-0.001674,-0.085809,0.000684,0.000207,-0.000253
226005,-0.004356,0.001622,-0.09697,0.0,-0.0,-0.0,3.0,0.332402,0.325686,0.319629,0.326513,-0.0,-0.0,-0.020436,0.0,0.0,-0.000213,-0.005819,-0.00167,-0.085814,-6.7e-05,0.000206,-0.00024
226025,-0.004356,0.001622,-0.096849,0.0,-0.0,-0.0,3.0,0.331189,0.325564,0.320901,0.326636,-0.0,-0.0,-0.02044,0.0,0.0,-0.000213,-0.005883,-0.001666,-0.085819,-0.002519,0.000204,-0.00024
226045,-0.004478,0.001616,-0.096849,0.0,-0.0,-0.0,3.0,0.330198,0.325401,0.321932,0.326798,-0.0,-0.0,-0.020444,0.0,0.0,-0.000213,-0.005953,-0.001662,-0.085824,-0.006564,0.000202,-0.000239
226065,-0.004728,0.001726,-0.096848,0.0,-0.0,-0.0,3.0,0.329432,0.325524,0.322721,0.326675,-0.0,-0.0,-0.020448,0.0,0.0,-0.000213,-0.006016,-0.001658,-0.085829,-0.0057,0.000202,-0.000239
226085,-0.004972,0.001715,-0.096848,0.0,-0.0,-0.0,3.0,0.33189,0.325398,0.320168,0.326801,-0.0,-0.0,-0.020453,0.0,0.0,-0.000213,-0.006087,-0.001654,-0.085833,-0.007908,0.000176,-0.00025
226105,-0.005094,0.001708,-0.096969,0.0,-0.0,-0.0,3.0,0.332644,0.325461,0.319373,0.326738,-0.0,-0.0,-0.020457,0.0,0.0,-0.000213,-0.006175,-0.001651,-0.085838,-0.005038,0.000176,-0.00025
226125,-0.00521,0.00158,-0.096969,0.0,-0.0,-0.0,3.0,0.333718,0.325446,0.318233,0.326753,-0.0,-0.0,-0.020461,0.0,0.0,-0.000213,-0.006258,-0.001647,-0.085843,-0.003899,0.000175,-0.000237
226145,-0.005082,0.001464,-0.09697,0.0,-0.0,-0.0,3.0,0.333442,0.325367,0.318527,0.326831,-0.0,-0.0,-0.020465,0.0,0.0,-0.000213,-0.006352,-0.001643,-0.085848,-0.000951,0.000176,-0.000237
226165,-0.005082,0.001465,-0.096848,0.0,-0.0,-0.0,3.0,0.331062,0.325283,0.321033,0.326914,-0.0,-0.0,-0.02047,0.0,0.0,-0.000213,-0.006425,-0.001639,-0.085853,-0.001779,0.000199,-0.000236
226185,-0.005082,0.001465,-0.096848,0.0,-0.0,-0.0,3.0,0.332074,0.325075,0.319974,0.327121,-0.0,-0.0,-0.020474,0.0,0.0,-0.000213,-0.006511,-0.001636,-0.085858,-0.003852,0.000185,-0.000236
226205,-0.005088,0.001587,-0.096848,0.0,-0.0,-0.0,3.0,0.32933,0.325193,0.322826,0.327004,-0.0,-0.0,-0.020478,0.0,0.0,-0.000213,-0.006581,-0.001632,-0.085862,-0.001319,0.000198,-0.000235
226225,-0.00521,0.001581,-0.096848,0.0,-0.0,-0.0,3.0,0.330022,0.325228,0.322113,0.32697,-0.0,-0.0,-0.020482,0.0,0.0,-0.000213,-0.006619,-0.001628,-0.085867,-0.002383,0.000185,-0.000247
226245,-0.005088,0.001587,-0.096848,0.0,-0.0,-0.0,3.0,0.33116,0.325333,0.320931,0.326865,-0.0,-0.0,-0.020487,0.0,0.0,-0.000213,-0.006644,-0.001625,-0.085872,-0.003551,0.000159,-0.000246
226265,-0.005204,0.001459,-0.096848,0.0,-0.0,-0.0,3.0,0.334447,0.325483,0.317453,0.326716,-0.0,-0.0,-0.020491,0.0,0.0,-0.000213,-0.006646,-0.001622,-0.085877,-0.001766,0.000147,-0.000234
226285,-0.005198,0.001337,-0.096848,0.0,-0.0,-0.0,3.0,0.334828,0.325478,0.317043,0.326721,-0.0,-0.0,-0.020495,0.0,0.0,-0.000213,-0.006657,-0.001618,-0.085881,0.001708,0.000148,-0.000233
226305,-0.004954,0.001349,-0.096849,0.0,-0.0,-0.0,3.0,0.331765,0.325516,0.320298,0.326683,-0.0,-0.0,-0.020499,0.0,0.0,-0.000213,-0.006644,-0.001615,-0.085886,0.001286,0.000184,-0.000221
226325,-0.004948,0.001227,-0.096728,0.0,-0.0,-0.0,3.0,0.332581,0.325438,0.319439,0.32676,-0.0,-0.0,-0.020504,0.0,0.0,-0.000213,-0.006627,-0.001611,-0.08589,-0.000524,0.000171,-0.00022
226345,-0.00496,0.001471,-0.096727,0.0,-0.0,-0.0,3.0,0.329515,0.325452,0.322636,0.326747,-0.0,-0.0,-0.020508,0.0,0.0,-0.000213,-0.006629,-0.001608,-0.085895,0.002663,0.000197,-0.00022
226365,-0.005082,0.001465,-0.096727,0.0,-0.0,-0.0,3.0,0.329056,0.32532,0.323107,0.326878,-0.0,-0.0,-0.020512,0.0,0.0,-0.000213,-0.006617,-0.001605,-0.085899,0.000922,0.000183,-0.000219
226385,-0.00485,0.001721,-0.096727,0.0,-0.0,-0.0,3.0,0.327772,0.325342,0.324417,0.326856,-0.0,-0.0,-0.020516,0.0,0.0,-0.000213,-0.006613,-0.001601,-0.085904,0.000866,0.000183,-0.000219
226405,-0.00496,0.001471,-0.096727,0.0,-0.0,-0.0,3.0,0.332218,0.32536,0.319822,0.326838,-0.0,-0.0,-0.020521,0.0,0.0,-0.000213,-0.006589,-0.001598,-0.085908,-0.000967,0.000158,-0.000231
226425,-0.004844,0.001599,-0.096848,0.0,-0.0,-0.0,3.0,0.332347,0.325254,0.319687,0.326943,-0.0,-0.0,-0.020525,0.0,0.0,-0.000213,-0.0066,-0.001595,-0.085913,0.000847,0.000158,-0.00023
226445,-0.00496,0.001471,-0.096848,0.0,-0.0,-0.0,3.0,0.333294,0.325356,0.318684,0.326842,-0.0,-0.0,-0.020529,0.0,0.0,-0.000213,-0.006572,-0.001591,-0.085917,0.000389,0.00017,-0.00023
226465,-0.004838,0.001477,-0.096849,0.0,-0.0,-0.0,3.0,0.33443,0.325281,0.317471,0.326917,-0.0,-0.0,-0.020533,0.0,0.0,-0.000213,-0.006566,-0.001588,-0.085922,0.000384,0.000157,-0.000229
226485,-0.00496,0.001471,-0.096848,0.0,-0.0,-0.0,3.0,0.332204,0.325414,0.319837,0.326784,-0.0,-0.0,-0.020538,-0.0,0.0,-0.000213,-0.00653,-0.001584,-0.085926,-0.000272,0.000181,-0.000229
226505,-0.005192,0.001215,-0.096849,0.0,-0.0,-0.0,3.0,0.331724,0.325163,0.320341,0.327034,-0.0,-0.0,-0.020542,0.0,0.0,-0.000213,-0.006533,-0.001581,-0.085931,-0.001809,0.000168,-0.000228
226525,-0.005082,0.001465,-0.096848,0.0,-0.0,-0.0,3.0,0.329652,0.325227,0.322495,0.32697,-0.0,-0.0,-0.020546,0.0,0.0,-0.000213,-0.006547,-0.001578,-0.085935,4.1e-05,0.000169,-0.000228
226545,-0.005076,0.001343,-0.096849,0.0,-0.0,-0.0,3.0,0.332108,0.325087,0.319938,0.327109,-0.0,-0.0,-0.020551,0.0,0.0,-0.000213,-0.00656,-0.001574,-0.08594,-0.001359,0.000155,-0.000227
226565,-0.005088,0.001587,-0.096848,0.0,-0.0,-0.0,3.0,0.332072,0.324919,0.319976,0.327275,-0.0,-0.0,-0.020555,-0.0,0.0,-0.000213,-0.006609,-0.001571,-0.085945,0.000966,0.000156,-0.000227
226585,-0.004966,0.001593,-0.096848,0.0,-0.0,-0.0,3.0,0.332289,0.325138,0.319747,0.327058,-0.0,-0.0,-0.02056,0.0,0.0,-0.000213,-0.006612,-0.001567,-0.08595,0.000851,0.00018,-0.000226
226605,-0.004722,0.001604,-0.096848,0.0,-0.0,-0.0,3.0,0.330734,0.324998,0.321376,0.327198,-0.0,-0.0,-0.020563,0.0,0.0,-0.000213,-0.006617,-0.001564,-0.085954,-0.000833,0.000191,-0.000238
226625,-0.004606,0.001732,-0.09697,0.0,-0.0,-0.0,3.0,0.331184,0.325225,0.320907,0.326973,-0.0,-0.0,-0.020568,0.0,0.0,-0.000213,-0.006577,-0.00156,-0.085959,0.000292,0.000191,-0.000238
226645,-0.004838,0.001476,-0.09697,0.0,-0.0,-0.0,3.0,0.334367,0.325372,0.317538,0.326826,-0.0,-0.0,-0.020572,-0.0,0.0,-0.000213,-0.006509,-0.001557,-0.085963,0.00127,0.000155,-0.000237
226665,-0.004716,0.001482,-0.09697,0.0,-0.0,-0.0,3.0,0.332148,0.325469,0.319896,0.326729,-0.0,-0.0,-0.020576,-0.0,0.0,-0.000213,-0.006447,-0.001554,-0.085968,0.003746,0.000156,-0.000237
226685,-0.004704,0.001238,-0.097092,0.0,-0.0,-0.0,3.0,0.333974,0.325469,0.317959,0.32673,-0.0,-0.0,-0.02058,-0.0,0.0,-0.000213,-0.00637,-0.00155,-0.085973,0.001121,0.000143,-0.000236
226705,-0.00471,0.00136,-0.097092,0.0,-0.0,-0.0,3.0,0.331565,0.325273,0.320508,0.326925,-0.0,-0.0,-0.020585,0.0,0.0,-0.000213,-0.00635,-0.001547,-0.085978,0.002424,0.000155,-0.000236
226725,-0.00471,0.00136,-0.097092,0.0,-0.0,-0.0,3.0,0.332334,0.325147,0.3197,0.32705,-0.0,-0.0,-0.020589,0.0,0.0,-0.000213,-0.006339,-0.001544,-0.085982,0.003856,0.000167,-0.000235
226745,-0.004716,0.001482,-0.09697,0.0,-0.0,-0.0,3.0,0.330421,0.324817,0.321701,0.327376,-0.0,-0.0,-0.020593,0.0,0.0,-0.000213,-0.006348,-0.001541,-0.085987,0.000575,0.000178,-0.000235
226765,-0.0046,0.00161,-0.09697,0.0,-0.0,-0.0,3.0,0.330335,0.324773,0.321789,0.32742,-0.0,-0.0,-0.020597,0.0,0.0,-0.000213,-0.00637,-0.001537,-0.085992,-0.000877,0.000189,-0.000234
226785,-0.004838,0.001476,-0.09697,0.0,-0.0,-0.0,3.0,0.330859,0.324661,0.321245,0.327531,-0.0,-0.0,-0.020602,-0.0,0.0,-0.000213,-0.006386,-0.001534,-0.085997,-0.003907,0.000176,-0.000246
226805,-0.004844,0.001598,-0.097091,0.0,-0.0,-0.0,3.0,0.328669,0.324777,0.323503,0.327416,-0.0,-0.0,-0.020606,-0.0,0.0,-0.000213,-0.006408,-0.001531,-0.086002,-0.00194,0.000176,-0.000246
226825,-0.00496,0.00147,-0.097091,0.0,-0.0,-0.0,3.0,0.333604,0.324977,0.318354,0.327218,-0.0,-0.0,-0.02061,-0.0,0.0,-0.000213,-0.006386,-0.001527,-0.086007,-0.001991,0.000139,-0.000257
226845,-0.004826,0.001232,-0.097213,0.0,-0.0,-0.0,3.0,0.335996,0.325078,0.315778,0.327118,-0.0,-0.0,-0.020614,-0.0,0.0,-0.000213,-0.006374,-0.001524,-0.086012,0.001417,0.000103,-0.000245
226865,-0.004693,0.000994,-0.097214,0.0,-0.0,-0.0,3.0,0.334786,0.325209,0.317088,0.326988,-0.0,-0.0,-0.020619,-0.0,0.0,-0.000213,-0.006335,-0.001522,-0.086017,0.004133,0.000116,-0.000244
226885,-0.004443,0.000884,-0.097093,0.0,-0.0,-0.0,3.0,0.333811,0.325165,0.318133,0.327032,-0.0,-0.0,-0.020623,-0.0,0.0,-0.000213,-0.006285,-0.001519,-0.086021,0.00337,0.000128,-0.000232
226905,-0.004339,0.001256,-0.096971,0.0,-0.0,-0.0,3.0,0.328911,0.325129,0.323256,0.327067,-0.0,-0.0,-0.020627,-0.0,0.0,-0.000213,-0.006241,-0.001516,-0.086026,0.004181,0.000165,-0.000231
226925,-0.004345,0.001378,-0.096971,0.0,-0.0,-0.0,3.0,0.332444,0.325235,0.319585,0.326963,-0.0,-0.0,-0.020632,-0.0,0.0,-0.000213,-0.006154,-0.001513,-0.086032,0.003084,0.000153,-0.00023
226945,-0.004228,0.001506,-0.096849,0.0,-0.0,-0.0,3.0,0.33013,0.325196,0.32369,0.327095,-0.0,-0.0,-0.020636,-0.0,0.0,-0.000213,-0.006118,-0.001511,-0.086036,0.004179,0.000165,-0.00023
226965,-0.004107,0.001512,-0.09685,0.0,-0.0,-0.0,3.0,0.330976,0.325219,0.321124,0.326979,-0.0,-0.0,-0.02064,-0.0,0.0,-0.000213,-0.006034,-0.001508,-0.08604,0.001439,0.000152,-0.00023
226985,-0.004223,0.001384,-0.096971,0.0,-0.0,-0.0,3.0,0.332848,0.325052,0.319158,0.327144,-0.0,-0.0,-0.020644,-0.0,0.0,-0.000213,-0.005984,-0.001505,-0.086044,-0.000741,0.000127,-0.000229
227005,-0.004345,0.001378,-0.096971,0.0,-0.0,-0.0,3.0,0.330104,0.325028,0.322028,0.327117,-0.0,-0.0,-0.020648,0.0,0.0,-0.000213,-0.005953,-0.001502,-0.086049,0.002164,0.000128,-0.000229
227025,-0.004333,0.001134,-0.096971,0.0,-0.0,-0.0,3.0,0.336245,0.325093,0.315507,0.327103,-0.0,-0.0,-0.020653,0.0,0.0,-0.000213,-0.005916,-0.001499,-0.086053,0.003405,0.000116,-0.000228
227045,-0.004217,0.001262,-0.097093,0.0,-0.0,-0.0,3.0,0.332967,0.324956,0.319032,0.327239,-0.0,-0.0,-0.020657,0.0,0.0,-0.000213,-0.005889,-0.001496,-0.086058,0.001129,0.000152,-0.000228
227065,-0.004211,0.00114,-0.097093,0.0,-0.0,-0.0,3.0,0.332158,0.324945,0.319885,0.32725,-0.0,-0.0,-0.020661,0.0,0.0,-0.000213,-0.00586,-0.001493,-0.086063,-0.000931,0.000151,-0.000227
227085,-0.004339,0.001256,-0.096971,0.0,-0.0,-0.0,3.0,0.33367,0.324789,0.318284,0.327405,-0.0,-0.0,-0.020667,0.0,0.0,-0.000213,-0.005865,-0.001489,-0.086068,-0.000787,0.000138,-0.000227
227105,-0.00435,0.0015,-0.096971,0.0,-0.0,-0.0,3.0,0.331563,0.324768,0.320511,0.327425,-0.0,-0.0,-0.020671,0.0,0.0,-0.000213,-0.005865,-0.001486,-0.086073,-0.000945,0.000162,-0.000226
227125,-0.004234,0.001628,-0.09697,0.0,-0.0,-0.0,3.0,0.329517,0.324783,0.322634,0.327411,-0.0,-0.0,-0.020675,0.0,0.0,-0.000213,-0.005873,-0.001483,-0.086078,0.000743,0.000175,-0.000226
227145,-0.004107,0.001512,-0.096971,0.0,-0.0,-0.0,3.0,0.330499,0.324915,0.321619,0.32728,-0.0,-0.0,-0.020679,0.0,0.0,-0.000213,-0.005856,-0.00148,-0.086082,0.00226,0.000163,-0.000225
227165,-0.004095,0.001268,-0.096971,0.0,-0.0,-0.0,3.0,0.33312,0.324813,0.318869,0.327381,-0.0,-0.0,-0.020683,0.0,0.0,-0.000213,-0.00584,-0.001478,-0.086086,0.000533,0.000138,-0.000225
227185,-0.003979,0.001396,-0.096971,0.0,-0.0,-0.0,3.0,0.330812,0.324769,0.321294,0.327424,-0.0,-0.0,-0.020687,0.0,0.0,-0.000213,-0.005823,-0.001475,-0.08609,0.000227,0.00015,-0.000237
227205,-0.004101,0.00139,-0.096971,0.0,-0.0,-0.0,3.0,0.331196,0.324811,0.320894,0.327382,-0.0,-0.0,-0.020692,0.0,0.0,-0.000213,-0.005782,-0.001471,-0.086096,0.001337,0.00015,-0.000224
227225,-0.004351,0.0015,-0.097092,0.0,-0.0,-0.0,3.0,0.331412,0.324739,0.320668,0.327453,-0.0,-0.0,-0.020695,0.0,0.0,-0.000213,-0.005764,-0.001469,-0.086099,-0.00058,0.000149,-0.000224
227245,-0.004229,0.001506,-0.097092,0.0,-0.0,-0.0,3.0,0.331611,0.324735,0.32046,0.327457,-0.0,-0.0,-0.0207,0.0,0.0,-0.000213,-0.005759,-0.001466,-0.086104,-0.000729,0.000161,-0.000223
227265,-0.004223,0.001384,-0.096971,0.0,-0.0,-0.0,3.0,0.333194,0.324555,0.31879,0.327636,-0.0,-0.0,-0.020705,0.0,0.0,-0.000213,-0.005775,-0.001462,-0.086109,-0.000424,0.000148,-0.000223
227285,-0.00435,0.0015,-0.096971,0.0,-0.0,-0.0,3.0,0.331101,0.324623,0.320993,0.327568,-0.0,-0.0,-0.020708,0.0,0.0,-0.000213,-0.00579,-0.001459,-0.086113,0.00128,0.000173,-0.000222
227305,-0.004466,0.001372,-0.096971,0.0,-0.0,-0.0,3.0,0.332723,0.324514,0.31929,0.327677,-0.0,-0.0,-0.020713,0.0,0.0,-0.000213,-0.005804,-0.001455,-0.086118,-0.003366,0.000146,-0.000222
227325,-0.004228,0.001506,-0.096849,0.0,-0.0,-0.0,3.0,0.332407,0.324394,0.319624,0.327795,-0.0,-0.0,-0.020718,0.0,0.0,-0.000213,-0.005858,-0.001452,-0.086123,0.000627,0.00016,-0.000209
227345,-0.004223,0.001384,-0.096971,0.0,-0.0,-0.0,3.0,0.332564,0.324304,0.319458,0.327883,-0.0,-0.0,-0.020722,0.0,0.0,-0.000213,-0.005901,-0.001449,-0.086127,0.001292,0.000147,-0.000221
227365,-0.004234,0.001628,-0.09697,0.0,-0.0,-0.0,3.0,0.329642,0.324339,0.322506,0.327848,-0.0,-0.0,-0.020726,0.0,0.0,-0.000213,-0.005925,-0.001446,-0.086131,0.001458,0.000171,-0.000221
227385,-0.004478,0.001616,-0.09697,0.0,-0.0,-0.0,3.0,0.330052,0.32441,0.322083,0.327778,-0.0,-0.0,-0.02073,0.0,0.0,-0.000213,-0.005913,-0.001443,-0.086136,-0.002031,0.00017,-0.00022
227405,-0.004484,0.001738,-0.097091,0.0,-0.0,-0.0,3.0,0.326769,0.324404,0.32543,0.327785,-0.0,-0.0,-0.020735,0.0,0.0,-0.000213,-0.00591,-0.00144,-0.08614,-0.002165,0.000181,-0.000232
227425,-0.004351,0.0015,-0.097092,0.0,-0.0,-0.0,3.0,0.331852,0.324507,0.320207,0.327683,-0.0,-0.0,-0.020739,0.0,0.0,-0.000213,-0.0059,-0.001437,-0.086145,-0.000464,0.000157,-0.000231
227445,-0.004339,0.001256,-0.097092,0.0,-0.0,-0.0,3.0,0.334211,0.324509,0.317706,0.327681,-0.0,-0.0,-0.020743,0.0,0.0,-0.000213,-0.005885,-0.001433,-0.086149,-0.000514,0.000133,-0.000231
227465,-0.004339,0.001256,-0.097092,0.0,-0.0,-0.0,3.0,0.335368,0.324401,0.31646,0.327787,-0.0,-0.0,-0.020747,0.0,0.0,-0.000213,-0.005896,-0.00143,-0.086154,-0.000356,0.000132,-0.00023
227485,-0.004339,0.001256,-0.096971,0.0,-0.0,-0.0,3.0,0.334712,0.324358,0.317167,0.32783,-0.0,-0.0,-0.020752,0.0,0.0,-0.000213,-0.005912,-0.001427,-0.086158,-0.000146,0.000132,-0.000218
227505,-0.004472,0.001494,-0.09697,0.0,-0.0,-0.0,3.0,0.332806,0.324132,0.319202,0.328053,-0.0,-0.0,-0.020756,-0.0,0.0,-0.000213,-0.005948,-0.001424,-0.086163,-0.001479,0.000156,-0.000217
227525,-0.004478,0.001616,-0.09697,0.0,-0.0,-0.0,3.0,0.331304,0.323965,0.320781,0.328216,-0.0,-0.0,-0.02076,0.0,0.0,-0.000213,-0.006007,-0.001421,-0.086167,-0.000755,0.000167,-0.000217
227545,-0.004734,0.001848,-0.097091,0.0,-0.0,-0.0,3.0,0.328335,0.323778,0.323844,0.3284,-0.0,-0.0,-0.020765,-0.0,0.0,-0.000213,-0.006068,-0.001418,-0.086172,-0.003416,0.00019,-0.000228
227565,-0.004978,0.001836,-0.09709,0.0,-0.0,-0.0,3.0,0.327706,0.323679,0.324484,0.328498,-0.0,-0.0,-0.020769,-0.0,0.0,-0.000213,-0.006143,-0.001415,-0.086177,-0.005718,0.000189,-0.000228
227585,-0.005222,0.001824,-0.097211,0.0,-0.0,-0.0,3.0,0.334483,0.323773,0.317415,0.328405,-0.0,-0.0,-0.020772,-0.0,0.0,-0.000213,-0.006205,-0.001412,-0.08618,-0.00288,0.00014,-0.00024
227605,-0.005216,0.001701,-0.097333,0.0,-0.0,-0.0,3.0,0.332286,0.323657,0.319751,0.328518,-0.0,-0.0,-0.020777,-0.0,0.0,-0.000213,-0.006309,-0.001408,-0.086186,-0.006696,0.000175,-0.000251
227625,-0.005094,0.001707,-0.097333,0.0,-0.0,-0.0,3.0,0.334004,0.323565,0.317928,0.328609,-0.0,-0.0,-0.020782,-0.0,0.0,-0.000213,-0.006417,-0.001404,-0.086191,-0.003566,0.000175,-0.000251
227645,-0.005222,0.001823,-0.097454,0.0,-0.0,-0.0,3.0,0.335463,0.323385,0.316357,0.328785,-0.0,-0.0,-0.020786,-0.0,0.0,-0.000213,-0.006532,-0.001399,-0.086196,-0.003743,0.000186,-0.000262
227665,-0.005472,0.001933,-0.097575,0.0,-0.0,-0.0,3.0,0.334859,0.323203,0.31701,0.328963,-0.0,-0.0,-0.02079,0.0,0.0,-0.000213,-0.006657,-0.001395,-0.086201,-0.005443,0.000196,-0.000274
227685,-0.005484,0.002177,-0.097574,0.0,-0.0,-0.0,3.0,0.332281,0.323353,0.319756,0.328816,-0.0,-0.0,-0.020794,-0.0,0.0,-0.000213,-0.00675,-0.001391,-0.086207,-0.004343,0.00022,-0.000273
227705,-0.00549,0.002298,-0.097695,0.0,-0.0,-0.0,3.0,0.330058,0.323316,0.322076,0.328853,-0.0,-0.0,-0.020799,-0.0,0.0,-0.000213,-0.006828,-0.001387,-0.086213,-0.00335,0.000232,-0.000285
227725,-0.005496,0.00242,-0.097816,0.0,-0.0,-0.0,3.0,0.327163,0.323371,0.325033,0.328799,-0.0,-0.0,-0.020803,-0.0,0.0,-0.000213,-0.006894,-0.001382,-0.086219,-0.002542,0.000244,-0.000296
227745,-0.005618,0.002413,-0.097937,0.0,-0.0,-0.0,3.0,0.328566,0.323464,0.323609,0.328708,-0.0,-0.0,-0.020807,-0.0,0.0,-0.000213,-0.006936,-0.001378,-0.086225,-0.003628,0.000243,-0.000308
227765,-0.005496,0.002419,-0.098059,0.0,-0.0,-0.0,3.0,0.328417,0.323578,0.323761,0.328596,-0.0,-0.0,-0.020811,-0.0,0.0,-0.000213,-0.006967,-0.001373,-0.086231,-0.001538,0.000243,-0.000319
227785,-0.005374,0.002425,-0.098059,0.0,-0.0,-0.0,3.0,0.33094,0.323417,0.321161,0.328754,-0.0,-0.0,-0.020816,-0.0,0.0,-0.000213,-0.007012,-0.001369,-0.086237,0.000728,0.000243,-0.000319
227805,-0.005368,0.002303,-0.098059,0.0,-0.0,-0.0,3.0,0.332546,0.323373,0.319476,0.328797,-0.0,-0.0,-0.02082,-0.0,0.0,-0.000213,-0.007046,-0.001364,-0.086243,0.001279,0.00023,-0.000318
227825,-0.005618,0.002413,-0.098058,0.0,-0.0,-0.0,3.0,0.333086,0.323246,0.318905,0.328921,-0.0,-0.0,-0.020824,-0.0,0.0,-0.000213,-0.007081,-0.001359,-0.08625,-0.001656,0.000241,-0.000317
227845,-0.00574,0.002407,-0.098058,0.0,-0.0,-0.0,3.0,0.332871,0.323292,0.319133,0.328876,-0.0,-0.0,-0.020828,-0.0,0.0,-0.000213,-0.007097,-0.001354,-0.086256,-0.003094,0.00024,-0.000317
227865,-0.005868,0.002523,-0.098058,0.0,-0.0,-0.0,3.0,0.331614,0.3232,0.320457,0.328966,-0.0,-0.0,-0.020833,-0.0,0.0,-0.000213,-0.007117,-0.001349,-0.086262,-0.00457,0.000251,-0.000316
227885,-0.005868,0.002523,-0.098058,0.0,-0.0,-0.0,3.0,0.331497,0.323157,0.320579,0.329007,-0.0,-0.0,-0.020837,-0.0,0.0,-0.000213,-0.007161,-0.001344,-0.086269,-0.003973,0.00025,-0.000315
227905,-0.006118,0.002633,-0.097935,0.0,-0.0,-0.0,3.0,0.331861,0.322921,0.320198,0.329238,-0.0,-0.0,-0.020841,-0.0,0.0,-0.000213,-0.007233,-0.001338,-0.086275,-0.006394,0.000261,-0.000303
227925,-0.006118,0.002633,-0.097935,0.0,-0.0,-0.0,3.0,0.33091,0.322853,0.321192,0.329304,-0.0,-0.0,-0.020845,-0.0,0.0,-0.000213,-0.007331,-0.001333,-0.086281,-0.005056,0.00026,-0.000302
227945,-0.006252,0.002871,-0.098056,0.0,-0.0,-0.0,3.0,0.32857,0.322652,0.323605,0.3295,-0.0,-0.0,-0.02085,-0.0,0.0,-0.000213,-0.007445,-0.001328,-0.086288,-0.005334,0.000284,-0.000313
227965,-0.006734,0.002725,-0.098055,0.0,-0.0,-0.0,3.0,0.329042,0.322095,0.323122,0.33004,-0.0,-0.0,-0.020854,-0.0,0.0,-0.000213,-0.007617,-0.001323,-0.086294,-0.009563,0.000268,-0.000313
227985,-0.006849,0.002597,-0.098055,0.0,-0.0,-0.0,3.0,0.329877,0.321854,0.322264,0.330273,-0.0,-0.0,-0.020858,-0.0,0.0,-0.000213,-0.007835,-0.001318,-0.0863,-0.008171,0.000255,-0.000312
228005,-0.007331,0.002451,-0.098176,0.0,-0.0,-0.0,3.0,0.33123,0.321651,0.320859,0.330468,-0.0,-0.0,-0.020862,-0.0,0.0,-0.000213,-0.008037,-0.001313,-0.086306,-0.011983,0.00024,-0.000324
228025,-0.007691,0.002311,-0.098176,0.0,-0.0,-0.0,3.0,0.331737,0.321409,0.320328,0.330702,-0.0,-0.0,-0.020867,-0.0,0.0,-0.000213,-0.008277,-0.001308,-0.086313,-0.013616,0.000226,-0.000323
228045,-0.008051,0.002172,-0.098054,0.0,-0.0,-0.0,3.0,0.334411,0.321347,0.317491,0.330762,-0.0,-0.0,-0.02087,-0.0,0.0,-0.000213,-0.008462,-0.001305,-0.086317,-0.012756,0.000225,-0.00031
228065,-0.008295,0.00216,-0.098054,0.0,-0.0,-0.0,3.0,0.33534,0.320984,0.316491,0.33111,-0.0,-0.0,-0.020875,-0.0,0.0,-0.000213,-0.008803,-0.001299,-0.086325,-0.014677,0.00021,-0.000309
228085,-0.008423,0.002275,-0.098053,0.0,-0.0,-0.0,3.0,0.335089,0.320892,0.316761,0.331198,-0.0,-0.0,-0.02088,-0.0,0.0,-0.000213,-0.009087,-0.001294,-0.086331,-0.012547,0.000221,-0.000309
228105,-0.0088,0.002502,-0.09793,0.0,-0.0,-0.0,3.0,0.3312,0.320821,0.32089,0.331266,-0.0,-0.0,-0.020884,-0.0,0.0,-0.000213,-0.009345,-0.001289,-0.086337,-0.014177,0.000243,-0.000296
228125,-0.009056,0.002734,-0.097928,0.0,-0.0,-0.0,3.0,0.328342,0.320682,0.323837,0.331399,-0.0,-0.0,-0.020888,-0.0,0.0,-0.000213,-0.009608,-0.001285,-0.086343,-0.014085,0.000266,-0.000295
228145,-0.008928,0.002618,-0.097929,0.0,-0.0,-0.0,3.0,0.327871,0.320819,0.324316,0.331268,-0.0,-0.0,-0.020892,-0.0,0.0,-0.000213,-0.009842,-0.00128,-0.086349,-0.009144,0.000253,-0.000295
228165,-0.008812,0.002746,-0.097807,0.0,-0.0,-0.0,3.0,0.32642,0.320976,0.32578,0.331117,-0.0,-0.0,-0.020897,-0.0,0.0,-0.000213,-0.010027,-0.001276,-0.086355,-0.005033,0.000266,-0.000282
228185,-0.009044,0.002491,-0.097808,0.0,-0.0,-0.0,3.0,0.330042,0.321072,0.322092,0.331026,-0.0,-0.0,-0.020901,-0.0,0.0,-0.000213,-0.010153,-0.001271,-0.086361,-0.006474,0.00024,-0.000281
228205,-0.00891,0.002253,-0.097809,0.0,-0.0,-0.0,3.0,0.332154,0.321077,0.31989,0.331021,-0.0,-0.0,-0.020905,-0.0,0.0,-0.000213,-0.010285,-0.001266,-0.086366,-0.002853,0.000216,-0.000281
228225,-0.008776,0.002015,-0.097689,0.0,-0.0,-0.0,3.0,0.335173,0.32121,0.316671,0.330893,-0.0,-0.0,-0.020908,-0.0,0.0,-0.000213,-0.010327,-0.001263,-0.08637,-0.00386,0.000202,-0.000268
228245,-0.008764,0.001771,-0.09769,0.0,-0.0,-0.0,3.0,0.335559,0.321268,0.316253,0.330837,-0.0,-0.0,-0.020914,-0.0,0.0,-0.000213,-0.010391,-0.001258,-0.086377,0.000587,0.000167,-0.000268
228265,-0.008904,0.002132,-0.097567,0.0,-0.0,-0.0,3.0,0.332855,0.321422,0.31915,0.330689,-0.0,-0.0,-0.020918,-0.0,0.0,-0.000213,-0.010378,-0.001254,-0.086382,-0.001497,0.000202,-0.000255
228285,-0.009142,0.001998,-0.097567,0.0,-0.0,-0.0,3.0,0.333085,0.321381,0.318906,0.330729,-0.0,-0.0,-0.020922,-0.0,0.0,-0.000213,-0.010359,-0.00125,-0.086387,-0.005002,0.000188,-0.000255
228305,-0.009038,0.00237,-0.097566,0.0,-0.0,-0.0,3.0,0.33022,0.321374,0.321908,0.330736,-0.0,-0.0,-0.020926,-0.0,0.0,-0.000213,-0.010359,-0.001245,-0.086392,-0.003587,0.000225,-0.000254
228325,-0.009032,0.002248,-0.097566,0.0,-0.0,-0.0,3.0,0.331858,0.321303,0.320201,0.330803,-0.0,-0.0,-0.020931,-0.0,0.0,-0.000213,-0.010375,-0.001241,-0.086398,-0.003284,0.000213,-0.000253
228345,-0.008922,0.002498,-0.097565,0.0,-0.0,-0.0,3.0,0.329275,0.321299,0.322883,0.330808,-0.0,-0.0,-0.020935,-0.0,0.0,-0.000213,-0.010409,-0.001237,-0.086403,-0.001323,0.000237,-0.000253
228365,-0.008788,0.00226,-0.097567,0.0,-0.0,-0.0,3.0,0.333411,0.321293,0.31856,0.330813,-0.0,-0.0,-0.020939,-0.0,0.0,-0.000213,-0.01043,-0.001232,-0.086408,0.000802,0.000213,-0.000253
228385,-0.008672,0.002388,-0.097566,0.0,-0.0,-0.0,3.0,0.33101,0.321217,0.321088,0.330886,-0.0,-0.0,-0.020943,-0.0,0.0,-0.000213,-0.010454,-0.001228,-0.086413,0.002713,0.000225,-0.000252
228405,-0.008666,0.002266,-0.097567,0.0,-0.0,-0.0,3.0,0.332512,0.321176,0.319513,0.330926,-0.0,-0.0,-0.020948,-0.0,0.0,-0.000213,-0.010452,-0.001223,-0.086418,0.002765,0.000213,-0.000252
228425,-0.008794,0.002382,-0.097566,0.0,-0.0,-0.0,3.0,0.32901,0.321023,0.323155,0.331072,-0.0,-0.0,-0.020952,-0.0,0.0,-0.000213,-0.010457,-0.001219,-0.086423,0.00108,0.000224,-0.000251
228445,-0.008922,0.002497,-0.097687,0.0,-0.0,-0.0,3.0,0.32815,0.32101,0.324033,0.331085,-0.0,-0.0,-0.020956,-0.0,0.0,-0.000213,-0.010438,-0.001215,-0.086428,-0.000924,0.000235,-0.000262
228465,-0.009044,0.002492,-0.097565,0.0,-0.0,-0.0,3.0,0.33368,0.321025,0.318274,0.331071,-0.0,-0.0,-0.020959,-0.0,0.0,-0.000213,-0.010434,-0.001212,-0.086432,-0.002402,0.000197,-0.00025
228485,-0.009166,0.002486,-0.097565,0.0,-0.0,-0.0,3.0,0.330819,0.320959,0.321287,0.331134,-0.0,-0.0,-0.020965,-0.0,0.0,-0.000213,-0.010436,-0.001206,-0.086438,-0.004278,0.000233,-0.000249
228505,-0.009154,0.002242,-0.097566,0.0,-0.0,-0.0,3.0,0.334412,0.320878,0.31749,0.331211,-0.0,-0.0,-0.020969,-0.0,0.0,-0.000213,-0.010451,-0.001201,-0.086443,-0.003908,0.000208,-0.000249
228525,-0.00891,0.002254,-0.097566,0.0,-0.0,-0.0,3.0,0.334638,0.320892,0.317248,0.331197,-0.0,-0.0,-0.020973,-0.0,0.0,-0.000213,-0.010477,-0.001196,-0.086448,-0.000227,0.000209,-0.000248
228545,-0.008904,0.002132,-0.097446,0.0,-0.0,-0.0,3.0,0.335003,0.320789,0.316854,0.331296,-0.0,-0.0,-0.020977,-0.0,0.0,-0.000213,-0.010505,-0.001192,-0.086453,0.000233,0.000196,-0.000236
228565,-0.008915,0.002377,-0.097323,0.0,-0.0,-0.0,3.0,0.326936,0.320609,0.325262,0.331469,-0.0,-0.0,-0.020981,-0.0,0.0,-0.000213,-0.010534,-0.001189,-0.086456,0.000309,0.000245,-0.000235
228585,-0.009031,0.002249,-0.097323,0.0,-0.0,-0.0,3.0,0.33234,0.320606,0.319694,0.331472,-0.0,-0.0,-0.020986,-0.0,0.0,-0.000213,-0.010547,-0.001184,-0.086462,-0.000937,0.000207,-0.000223
228605,-0.008921,0.002499,-0.097323,0.0,-0.0,-0.0,3.0,0.327613,0.320471,0.324578,0.3316,-0.0,-0.0,-0.02099,-0.0,0.0,-0.000213,-0.010587,-0.00118,-0.086467,0.00111,0.000232,-0.000222
228625,-0.009165,0.002487,-0.097322,0.0,-0.0,-0.0,3.0,0.327118,0.320388,0.325078,0.331679,-0.0,-0.0,-0.020995,-0.0,0.0,-0.000213,-0.01061,-0.001176,-0.086471,-0.001895,0.00023,-0.000222
228645,-0.009281,0.002359,-0.097322,0.0,-0.0,-0.0,3.0,0.328073,0.320296,0.324111,0.331767,-0.0,-0.0,-0.020999,-0.0,0.0,-0.000213,-0.010649,-0.001172,-0.086476,-0.002945,0.000217,-0.000221
228665,-0.009031,0.002249,-0.097323,0.0,-0.0,-0.0,3.0,0.330267,0.320521,0.32186,0.331553,-0.0,-0.0,-0.021003,-0.0,0.0,-0.000213,-0.010662,-0.001167,-0.08648,0.000643,0.000205,-0.000221
228685,-0.00902,0.002005,-0.097324,0.0,-0.0,-0.0,3.0,0.333512,0.320465,0.318452,0.331606,-0.0,-0.0,-0.021007,-0.0,0.0,-0.000213,-0.010659,-0.001163,-0.086484,0.000764,0.000181,-0.000221
228705,-0.00902,0.002005,-0.097324,0.0,-0.0,-0.0,3.0,0.333005,0.320437,0.318991,0.331633,-0.0,-0.0,-0.021012,-0.0,0.0,-0.000213,-0.010655,-0.001159,-0.086489,0.000707,0.00018,-0.00022
228725,-0.009136,0.001877,-0.097325,0.0,-0.0,-0.0,3.0,0.335021,0.320325,0.316835,0.33174,-0.0,-0.0,-0.021016,-0.0,0.0,-0.000213,-0.010653,-0.001156,-0.086493,-0.000911,0.000167,-0.00022
228745,-0.009269,0.002115,-0.097323,0.0,-0.0,-0.0,3.0,0.333027,0.320271,0.318967,0.331791,-0.0,-0.0,-0.02102,-0.0,0.0,-0.000213,-0.010649,-0.001152,-0.086498,-0.002782,0.00019,-0.000219
228765,-0.009275,0.002237,-0.097323,0.0,-0.0,-0.0,3.0,0.333009,0.320168,0.318987,0.33189,-0.0,-0.0,-0.021024,-0.0,0.0,-0.000213,-0.010663,-0.001148,-0.086502,-0.002673,0.000202,-0.000219
228785,-0.009165,0.002487,-0.097322,0.0,-0.0,-0.0,3.0,0.330177,0.320181,0.321953,0.331877,-0.0,-0.0,-0.021029,-0.0,0.0,-0.000213,-0.010681,-0.001143,-0.086506,-0.000932,0.000227,-0.000218
228805,-0.009159,0.002365,-0.097323,0.0,-0.0,-0.0,3.0,0.332214,0.320193,0.319827,0.331865,-0.0,-0.0,-0.021033,-0.0,0.0,-0.000213,-0.010688,-0.001139,-0.086511,-0.000752,0.000214,-0.000218
228825,-0.009043,0.002493,-0.097322,0.0,-0.0,-0.0,3.0,0.329913,0.320243,0.322225,0.331818,-0.0,-0.0,-0.021037,-0.0,0.0,-0.000213,-0.010692,-0.001135,-0.086516,0.000879,0.000226,-0.000217
228845,-0.008922,0.002498,-0.097444,0.0,-0.0,-0.0,3.0,0.328699,0.320376,0.323473,0.331692,-0.0,-0.0,-0.021041,-0.0,0.0,-0.000213,-0.010657,-0.001131,-0.08652,0.002067,0.000227,-0.000229
228865,-0.00891,0.002254,-0.097445,0.0,-0.0,-0.0,3.0,0.330051,0.320143,0.322083,0.331913,-0.0,-0.0,-0.021046,-0.0,0.0,-0.000213,-0.010654,-0.001127,-0.086525,0.002196,0.000202,-0.000229
228885,-0.00891,0.002254,-0.097445,0.0,-0.0,-0.0,3.0,0.328711,0.32013,0.32346,0.331926,-0.0,-0.0,-0.02105,-0.0,0.0,-0.000213,-0.010636,-0.001123,-0.086529,0.001947,0.000201,-0.000228
228905,-0.00891,0.002254,-0.097445,0.0,-0.0,-0.0,3.0,0.329146,0.320011,0.323016,0.332039,-0.0,-0.0,-0.021054,-0.0,0.0,-0.000213,-0.010624,-0.001119,-0.086534,0.001784,0.000201,-0.000228
228925,-0.008904,0.002132,-0.097567,0.0,-0.0,-0.0,3.0,0.330693,0.320022,0.321418,0.332028,-0.0,-0.0,-0.021058,-0.0,0.0,-0.000213,-0.010607,-0.001115,-0.086538,0.001632,0.000188,-0.000239
228945,-0.009026,0.002126,-0.097445,0.0,-0.0,-0.0,3.0,0.334208,0.319945,0.317709,0.332101,-0.0,-0.0,-0.021062,-0.0,0.0,-0.000213,-0.010595,-0.001112,-0.086542,-0.000203,0.000188,-0.000227
228965,-0.00902,0.002004,-0.097446,0.087266,-0.0,-0.0,3.0,0.331582,0.284858,0.320491,0.361232,0.000254,-0.0,-0.021066,0.100591,-0.0,-0.000213,-0.010576,-0.001108,-0.086546,-0.000613,0.000212,-0.000226
228985,-0.00891,0.002254,-0.097566,0.087266,-0.0,-0.0,3.0,0.329025,0.284324,0.32314,0.361617,0.003328,-0.0,-0.02107,0.207268,-1e-06,-0.000213,-0.010562,-0.001104,-0.086551,-0.000968,0.000235,-0.000238
229005,-0.008788,0.002259,-0.097688,0.087266,-0.0,-0.0,3.0,0.328725,0.284017,0.323446,0.361838,0.007475,-0.0,-0.021074,0.19598,-2e-06,-0.000213,-0.010536,-0.0011,-0.086556,0.003749,0.000225,-0.000238
229025,-0.007941,0.002422,-0.097811,0.087266,-0.0,-0.0,3.0,0.326407,0.284217,0.325794,0.361694,0.011193,-0.0,-0.021079,0.172464,-3e-06,-0.000213,-0.010432,-0.001096,-0.086561,0.013969,0.000228,-0.000249
229045,-0.0061,0.002268,-0.097937,0.087266,-0.0,-0.0,3.0,0.328203,0.285433,0.323978,0.360816,0.014567,-0.0,-0.021083,0.16486,-4e-06,-0.000213,-0.010101,-0.001092,-0.086566,0.027929,0.00021,-0.000274
229065,-0.003406,0.002155,-0.098063,0.087266,-0.0,-0.0,3.0,0.331459,0.287593,0.320619,0.359235,0.017843,-0.0,-0.021087,0.161969,-5e-06,-0.000213,-0.009425,-0.001088,-0.086572,0.048983,0.000172,-0.000286
229085,0.000154,0.001841,-0.098189,0.087266,-0.0,-0.0,3.0,0.333127,0.290916,0.318862,0.356752,0.021053,-0.0,-0.021091,0.157617,-6e-06,-0.000213,-0.008254,-0.001085,-0.086577,0.079846,0.000151,-0.000298
229105,0.004811,0.001581,-0.098312,0.087266,-0.0,-0.0,3.0,0.333428,0.295088,0.318542,0.353543,0.024166,-0.0,-0.021096,0.152443,-7e-06,-0.000213,-0.006463,-0.001082,-0.086583,0.115561,0.000136,-0.000297
229125,0.010688,0.001382,-0.098448,0.087266,-0.0,-0.0,3.0,0.331316,0.300232,0.320769,0.349442,0.027177,-0.0,-0.0211,0.147484,-7e-06,-0.000213,-0.003916,-0.001079,-0.086589,0.152522,0.000137,-0.000309
229145,0.017539,0.001232,-0.098559,0.087266,-0.0,-0.0,3.0,0.330019,0.306323,0.322116,0.344369,0.030092,-0.0,-0.021104,0.14282,-8e-06,-0.000213,-0.000524,-0.001077,-0.086596,0.194838,0.000108,-0.000333
229165,0.025239,0.001248,-0.0988,0.087266,-0.0,-0.0,3.0,0.328705,0.313054,0.323467,0.338473,0.032914,-0.0,-0.021108,0.138301,-8e-06,-0.000213,0.003789,-0.001075,-0.086603,0.242739,0.00011,-0.000357
229185,0.033921,0.001194,-0.099148,0.087266,-0.0,-0.0,3.0,0.329873,0.319957,0.322267,0.332091,0.035647,-0.0,-0.021113,0.133888,-9e-06,-0.000213,0.009033,-0.001074,-0.08661,0.289746,9.2e-05,-0.000379
229205,0.043585,0.001074,-0.099617,0.087266,-0.0,-0.0,3.0,0.331059,0.32688,0.321037,0.325318,0.038292,-0.0,-0.021117,0.129592,-9e-06,-0.000213,0.01519,-0.001072,-0.086618,0.334274,7.8e-05,-0.000412
229225,0.053859,0.000988,-0.100067,0.087266,-0.0,-0.0,3.0,0.332487,0.333815,0.319539,0.318129,0.040853,-0.0,-0.021121,0.12542,-1e-05,-0.000213,0.022214,-0.001071,-0.086626,0.382089,5.9e-05,-0.00047
229245,0.064752,0.000821,-0.100631,0.087266,-0.0,-0.0,3.0,0.332375,0.340233,0.319657,0.311082,0.04333,-0.0,-0.021125,0.121366,-1e-05,-0.000213,0.030043,-0.001069,-0.086636,0.422032,6.6e-05,-0.000524
229265,0.076008,0.000806,-0.101316,0.087266,-0.0,-0.0,3.0,0.329819,0.346269,0.322323,0.304075,0.045728,-0.0,-0.02113,0.117426,-1.1e-05,-0.000213,0.038602,-0.001068,-0.086647,0.450436,7.3e-05,-0.000593
229285,0.087003,0.001035,-0.102097,0.087266,-0.0,-0.0,3.0,0.329599,0.351818,0.32255,0.297276,0.048048,-0.0,-0.021134,0.113597,-1.1e-05,-0.000213,0.047751,-0.001067,-0.08666,0.47074,8.1e-05,-0.000658
229305,0.097399,0.001231,-0.102663,0.087266,-0.0,-0.0,3.0,0.328896,0.35675,0.323272,0.290918,0.050292,-0.0,-0.021138,0.109876,-1.2e-05,-0.000213,0.057329,-0.001066,-0.086673,0.485332,7.7e-05,-0.000711
229325,0.107303,0.001415,-0.103322,0.087266,-0.0,-0.0,3.0,0.329341,0.360944,0.322816,0.285256,0.052462,-0.0,-0.021143,0.106261,-1.2e-05,-0.000213,0.067162,-0.001064,-0.086688,0.491444,8.5e-05,-0.000777
229345,0.116732,0.001452,-0.103866,0.087266,-0.0,-0.0,3.0,0.331956,0.364254,0.320099,0.280608,0.05456,-0.0,-0.021147,0.102748,-1.2e-05,-0.000213,0.077051,-0.001062,-0.086704,0.486923,7.7e-05,-0.000841
229365,0.125181,0.001444,-0.104391,0.087266,-0.0,-0.0,3.0,0.334211,0.366536,0.317706,0.277304,0.05659,-0.0,-0.021151,0.099335,-1.3e-05,-0.000213,0.086775,-0.00106,-0.086721,0.476163,7.8e-05,-0.000879
229385,0.132536,0.001367,-0.104681,0.087266,-0.0,-0.0,3.0,0.333744,0.367868,0.318205,0.275337,0.058551,-0.0,-0.021155,0.096019,-1.3e-05,-0.000213,0.096162,-0.001058,-0.086739,0.45657,0.000111,-0.000922
229405,0.138891,0.001728,-0.105012,0.087266,-0.0,-0.0,3.0,0.330297,0.36801,0.321828,0.275125,0.060447,-0.0,-0.02116,0.092797,-1.3e-05,-0.000213,0.104998,-0.001055,-0.086758,0.425919,0.000148,-0.000963
229425,0.143786,0.001891,-0.105338,0.087266,-0.0,-0.0,3.0,0.330713,0.367082,0.321397,0.276502,0.06228,-0.0,-0.021164,0.089668,-1.4e-05,-0.000213,0.113123,-0.001052,-0.086778,0.380164,0.000163,-0.000982
229445,0.146964,0.002069,-0.10544,0.087266,-0.0,-0.0,3.0,0.330269,0.365293,0.321857,0.279114,0.06405,-0.0,-0.021168,0.086628,-1.4e-05,-0.000213,0.120357,-0.001049,-0.086797,0.328204,0.000169,-0.000988
229465,0.148323,0.001898,-0.105416,0.087266,-0.0,-0.0,3.0,0.331588,0.362512,0.320484,0.283075,0.06576,-0.0,-0.021172,0.083675,-1.4e-05,-0.000213,0.12654,-0.001046,-0.086817,0.272417,0.000157,-0.000997
229485,0.14856,0.002032,-0.10542,0.087266,-0.0,-0.0,3.0,0.328166,0.358828,0.324016,0.288143,0.067412,-0.0,-0.021177,0.080807,-1.5e-05,-0.000213,0.131551,-0.001043,-0.086837,0.210565,0.000171,-0.000995
229505,0.147093,0.001936,-0.105187,0.087266,-0.0,-0.0,3.0,0.33259,0.354349,0.319431,0.294053,0.069007,-0.0,-0.021181,0.078022,-1.5e-05,-0.000213,0.135318,-0.00104,-0.086857,0.144176,0.000152,-0.00098
229525,0.144767,0.001795,-0.104949,0.087266,-0.0,-0.0,3.0,0.331871,0.349302,0.320187,0.300404,0.070547,-0.0,-0.021185,0.075317,-1.5e-05,-0.000213,0.137769,-0.001037,-0.086876,0.084063,0.000139,-0.000955
229545,0.141212,0.001825,-0.104628,0.087266,-0.0,-0.0,3.0,0.331131,0.343865,0.320962,0.306913,0.072034,-0.0,-0.021189,0.07269,-1.5e-05,-0.000213,0.13898,-0.001034,-0.086895,0.025552,0.000158,-0.000934
229565,0.137292,0.001845,-0.104432,0.087266,-0.0,-0.0,3.0,0.33121,0.33838,0.320879,0.313158,0.073469,-0.0,-0.021194,0.070139,-1.6e-05,-0.000213,0.13902,-0.001031,-0.086913,-0.028518,0.000146,-0.000885
229585,0.132756,0.001818,-0.103983,0.087266,-0.0,-0.0,3.0,0.330906,0.333127,0.321196,0.318862,0.074853,-0.0,-0.021198,0.067662,-1.6e-05,-0.000213,0.138042,-0.001028,-0.086931,-0.078725,0.000155,-0.000854
229605,0.127856,0.001774,-0.103536,0.087266,-0.0,-0.0,3.0,0.331744,0.32815,0.32032,0.324033,0.076188,-0.0,-0.021202,0.065257,-1.6e-05,-0.000213,0.136159,-0.001025,-0.086948,-0.121486,0.000137,-0.000807
229625,0.122841,0.001734,-0.103227,0.087266,-0.0,-0.0,3.0,0.329889,0.323802,0.322251,0.328376,0.077475,-0.0,-0.021207,0.062922,-1.6e-05,-0.000213,0.133526,-0.001022,-0.086963,-0.149219,0.000147,-0.000773
229645,0.11819,0.001586,-0.102762,0.087266,-0.0,-0.0,3.0,0.332943,0.320079,0.319056,0.331974,0.078717,-0.0,-0.021211,0.060655,-1.7e-05,-0.000213,0.130357,-0.001019,-0.086978,-0.170914,0.000119,-0.000726
229665,0.114033,0.001472,-0.102427,0.087266,-0.0,-0.0,3.0,0.331772,0.317255,0.320291,0.334631,0.079913,-0.0,-0.021215,0.058455,-1.7e-05,-0.000213,0.126834,-0.001017,-0.086993,-0.183075,0.000118,-0.000691
229685,0.110376,0.001141,-0.10207,0.087266,-0.0,-0.0,3.0,0.333833,0.315467,0.318111,0.336283,0.081066,-0.0,-0.021219,0.056319,-1.7e-05,-0.000213,0.123164,-0.001015,-0.087006,-0.184568,9.7e-05,-0.000668
229705,0.107819,0.000881,-0.101958,0.087266,-0.0,-0.0,3.0,0.332416,0.314809,0.319614,0.336884,0.082177,-0.0,-0.021224,0.054247,-1.7e-05,-0.000213,0.119532,-0.001013,-0.087019,-0.17337,8.1e-05,-0.000631
229725,0.106109,0.000781,-0.101719,0.087266,-0.0,-0.0,3.0,0.330942,0.31539,0.321158,0.336353,0.083247,-0.0,-0.021228,0.052235,-1.8e-05,-0.000213,0.11619,-0.001011,-0.087032,-0.156167,8.1e-05,-0.000607
229745,0.105385,0.000615,-0.101601,0.087266,-0.0,-0.0,3.0,0.331927,0.317044,0.320129,0.334827,0.084276,-0.0,-0.021232,0.050282,-1.8e-05,-0.000213,0.113281,-0.001011,-0.087044,-0.129495,3.8e-05,-0.000593
229765,0.105994,0.000646,-0.101593,0.087266,-0.0,-0.0,3.0,0.330383,0.320096,0.32174,0.331958,0.085268,-0.0,-0.021236,0.048388,-1.8e-05,-0.000213,0.110988,-0.00101,-0.087056,-0.089796,2.9e-05,-0.00059
229785,0.107474,0.000478,-0.10158,0.087266,-0.0,-0.0,3.0,0.329484,0.32364,0.322669,0.328536,0.086222,-0.0,-0.021241,0.04655,-1.8e-05,-0.000213,0.109445,-0.00101,-0.087067,-0.051944,1.2e-05,-0.000598
229805,0.110286,0.000513,-0.101796,0.087266,-0.0,-0.0,3.0,0.331591,0.327641,0.320481,0.32455,0.087139,-0.0,-0.021245,0.044766,-1.8e-05,-0.000213,0.108664,-0.00101,-0.087079,-0.009282,-1.2e-05,-0.000608
229825,0.113469,0.000446,-0.101998,0.087266,-0.0,-0.0,3.0,0.334746,0.33218,0.317131,0.319863,0.088021,-0.0,-0.021249,0.043036,-1.8e-05,-0.000213,0.108749,-0.00101,-0.087092,0.033019,-1.9e-05,-0.000615
229845,0.11764,0.000437,-0.102343,0.087266,-0.0,-0.0,3.0,0.33393,0.336656,0.318007,0.315058,0.08887,-0.0,-0.021254,0.041357,-1.9e-05,-0.000213,0.109637,-0.00101,-0.087104,0.072664,-1e-05,-0.000647
229865,0.122284,0.000577,-0.102667,0.087266,-0.0,-0.0,3.0,0.332629,0.34131,0.319389,0.309859,0.089684,-0.0,-0.021258,0.039729,-1.9e-05,-0.000213,0.111351,-0.00101,-0.087118,0.104184,2.6e-05,-0.000693
229885,0.126935,0.000727,-0.103127,0.087266,-0.0,-0.0,3.0,0.331821,0.345739,0.320239,0.304706,0.090467,-0.0,-0.021262,0.03815,-1.9e-05,-0.000213,0.11377,-0.001009,-0.087132,0.134658,4e-05,-0.000726
229905,0.131681,0.001249,-0.103587,0.087266,-0.0,-0.0,3.0,0.328514,0.350048,0.323662,0.299484,0.091218,-0.0,-0.021266,0.036618,-1.9e-05,-0.000213,0.11681,-0.001008,-0.087146,0.16635,9.5e-05,-0.000771
229925,0.13669,0.001544,-0.104044,0.087266,-0.0,-0.0,3.0,0.32818,0.353825,0.324003,0.294727,0.09194,-0.0,-0.021271,0.035133,-1.9e-05,-0.000213,0.120364,-0.001006,-0.087162,0.191214,0.000125,-0.000803
229945,0.141808,0.002083,-0.104393,0.087266,-0.0,-0.0,3.0,0.328434,0.356784,0.323744,0.290873,0.092631,-0.0,-0.021275,0.033693,-1.9e-05,-0.000213,0.124272,-0.001003,-0.087179,0.204578,0.000154,-0.000847
229965,0.146331,0.002356,-0.104854,0.087266,-0.0,-0.0,3.0,0.329654,0.359124,0.322493,0.287744,0.093295,-0.0,-0.021279,0.032297,-2e-05,-0.000213,0.128387,-0.001,-0.087196,0.21347,0.000182,-0.000891
229985,0.150361,0.002719,-0.105209,0.087266,-0.0,-0.0,3.0,0.329336,0.360588,0.32282,0.285746,0.09393,-0.0,-0.021284,0.030943,-2e-05,-0.000213,0.132549,-0.000996,-0.087214,0.211552,0.000218,-0.000922
230005,0.153423,0.002788,-0.105544,0.087266,-0.0,-0.0,3.0,0.33112,0.361394,0.320974,0.284634,0.094539,-0.0,-0.021288,0.029631,-2e-05,-0.000213,0.136628,-0.000991,-0.087233,0.197574,0.000237,-0.000955
230025,0.155496,0.002926,-0.105887,0.087266,-0.0,-0.0,3.0,0.330665,0.361178,0.321447,0.284933,0.095122,-0.0,-0.021292,0.028359,-2e-05,-0.000213,0.140398,-0.000986,-0.087252,0.17454,0.00025,-0.000989
230045,0.156477,0.002988,-0.106008,0.087266,-0.0,-0.0,3.0,0.330365,0.360349,0.321758,0.286075,0.09568,-0.0,-0.021296,0.027126,-2e-05,-0.000213,0.143729,-0.000981,-0.087272,0.145774,0.000258,-0.001011
230065,0.156362,0.00287,-0.106122,0.087266,-0.0,-0.0,3.0,0.330443,0.358662,0.321677,0.288368,0.096214,-0.0,-0.021301,0.025931,-2e-05,-0.000213,0.146461,-0.000976,-0.087292,0.113537,0.000247,-0.001007
230085,0.155374,0.002929,-0.10601,0.087266,-0.0,-0.0,3.0,0.329996,0.356475,0.32214,0.291282,0.096724,-0.0,-0.021305,0.024774,-2e-05,-0.000213,0.14852,-0.000972,-0.087312,0.078882,0.000233,-0.001017
230105,0.153663,0.002838,-0.106023,0.087266,-0.0,-0.0,3.0,0.33167,0.353543,0.320398,0.295087,0.097211,-0.0,-0.021309,0.023652,-2e-05,-0.000213,0.149815,-0.000967,-0.087333,0.041171,0.000224,-0.001004
230125,0.151211,0.002932,-0.105826,0.087266,-0.0,-0.0,3.0,0.331768,0.350206,0.320296,0.299288,0.097676,-0.0,-0.021313,0.022566,-2e-05,-0.000213,0.150317,-0.000962,-0.087353,0.004026,0.000235,-0.000992
230145,0.148014,0.003109,-0.105631,0.087266,-0.0,-0.0,3.0,0.330979,0.346512,0.32112,0.303785,0.098119,-0.0,-0.021318,0.021513,-2.1e-05,-0.000213,0.150045,-0.000957,-0.087372,-0.035981,0.000263,-0.00096
230165,0.144196,0.003359,-0.105192,0.087266,-0.0,-0.0,3.0,0.328297,0.342576,0.323883,0.308408,0.098541,-0.0,-0.021322,0.020494,-2.1e-05,-0.000213,0.148995,-0.000952,-0.087391,-0.07375,0.000301,-0.000929
230185,0.13989,0.003593,-0.104879,0.087266,-0.0,-0.0,3.0,0.329203,0.338615,0.322957,0.312897,0.098944,-0.0,-0.021326,0.019507,-2.1e-05,-0.000213,0.147223,-0.000946,-0.087409,-0.109991,0.000323,-0.000896
230205,0.134985,0.003797,-0.10459,0.087266,-0.0,-0.0,3.0,0.327851,0.334855,0.324337,0.317014,0.099327,-0.0,-0.021331,0.018551,-2.1e-05,-0.000213,0.144813,-0.000939,-0.087427,-0.140844,0.000344,-0.000863
230225,0.130084,0.00376,-0.104261,0.087266,-0.0,-0.0,3.0,0.329127,0.331168,0.323035,0.320923,0.099691,-0.0,-0.021335,0.017626,-2.1e-05,-0.000213,0.141825,-0.000933,-0.087444,-0.168605,0.000338,-0.000817
230245,0.12519,0.003602,-0.103921,0.087266,-0.0,-0.0,3.0,0.331742,0.327981,0.320323,0.324205,0.100037,-0.0,-0.021339,0.01673,-2.1e-05,-0.000213,0.138376,-0.000926,-0.08746,-0.188148,0.00031,-0.000794
