time_ms,roll,pitch,yaw,reference_roll,reference_pitch,reference_yaw,reference_throttle,throttle_1,throttle_2,throttle_3,throttle_4,roll_predicted,pitch_predicted,yaw_predicted,roll_rate_predicted,pitch_rate_predicted,yaw_rate_predicted,value1,value2,value3,value4,value5,value6
571817,-0.000163,-0.018343,-0.3301,0.0,-0.0,-0.0,2.0,0.282024,0.272954,0.282024,0.290693,,,,,,,0.000568,-0.012919,-0.230708,-9.9e-05,-2e-05,-0.000126
571837,-4.3e-05,-0.018323,-0.330099,0.0,-0.0,-0.0,2.0,0.282024,0.27624,0.282024,0.287643,,,,,,,0.000567,-0.01292,-0.230711,-0.0,-2e-05,-0.000126
571857,0.000218,-0.018404,-0.330098,0.0,-0.0,-0.0,2.0,0.282024,0.280021,0.282024,0.284007,,,,,,,0.000808,-0.01292,-0.230713,0.024083,-1.3e-05,-0.000125
571877,0.000439,-0.018243,-0.330096,0.0,-0.0,-0.0,2.0,0.282024,0.28032,0.282024,0.283714,,,,,,,0.001068,-0.01292,-0.230716,0.000116,-2.3e-05,-0.000125
571897,0.000579,-0.018344,-0.330095,0.0,-0.0,-0.0,2.0,0.282024,0.276481,0.282024,0.287415,,,,,,,0.00119,-0.012921,-0.230718,-0.004093,-9e-06,-0.000125
571917,0.000339,-0.018384,-0.330097,0.0,-0.0,-0.0,2.0,0.282024,0.278419,0.282024,0.285564,,,,,,,0.001289,-0.012921,-0.230721,-0.023901,-9e-06,-0.000124
571937,0.000198,-0.018283,-0.330098,0.0,-0.0,-0.0,2.0,0.282024,0.275639,0.282024,0.288208,,,,,,,0.001049,-0.012921,-0.230723,-0.023984,-1.3e-05,-0.000124
571957,-6.3e-05,-0.018203,-0.330099,0.0,-0.0,-0.0,2.0,0.282024,0.27475,0.282024,0.289037,,,,,,,0.000808,-0.012921,-0.230726,-0.027978,-5e-06,-0.000124
571977,-0.000183,-0.018223,-0.3301,0.0,-0.0,-0.0,2.0,0.282024,0.275959,0.282024,0.287908,,,,,,,0.000668,-0.012922,-0.230728,-0.024203,-7e-06,-0.000113
571997,-6.3e-05,-0.018203,-0.330099,0.0,-0.0,-0.0,2.0,0.282024,0.276163,0.282024,0.287715,,,,,,,0.000547,-0.012922,-0.23073,0.023984,-5e-06,-0.000124
572017,0.000198,-0.018283,-0.330098,0.0,-0.0,-0.0,2.0,0.282024,0.280075,0.282024,0.283954,,,,,,,0.000807,-0.012922,-0.230733,0.000115,-1.5e-05,-0.000124
572037,0.000439,-0.018243,-0.330096,0.0,-0.0,-0.0,2.0,0.282024,0.279078,0.282024,0.284926,,,,,,,0.001049,-0.012922,-0.230735,0.023984,-9e-06,-0.000123
572057,0.000459,-0.018364,-0.330096,0.0,-0.0,-0.0,2.0,0.282024,0.27987,0.282024,0.284155,,,,,,,0.00129,-0.012922,-0.230738,8.3e-05,-7e-06,-0.000134
572077,0.00044,-0.018243,-0.33021,0.0,-0.0,-0.0,2.0,0.282024,0.275125,0.282024,0.288689,,,,,,,0.001191,-0.012923,-0.23074,-9.9e-05,-2.1e-05,-0.000134
572097,0.000199,-0.018283,-0.330211,0.0,-0.0,-0.0,2.0,0.282024,0.272086,0.282024,0.291483,,,,,,,0.000929,-0.012923,-0.230743,0.000103,-1.3e-05,-0.000134
572117,-4.3e-05,-0.018323,-0.330099,0.0,-0.0,-0.0,2.0,0.282024,0.274909,0.282024,0.28889,,,,,,,0.000809,-0.012923,-0.230746,-0.024203,-1.7e-05,-0.000122
572137,-0.000163,-0.018343,-0.3301,0.0,-0.0,-0.0,2.0,0.282024,0.276121,0.282024,0.287754,,,,,,,0.000688,-0.012924,-0.230748,0.0,-1.7e-05,-0.000122
572157,-2.3e-05,-0.018444,-0.3301,0.0,-0.0,-0.0,2.0,0.282024,0.27632,0.282024,0.287567,,,,,,,0.000587,-0.012924,-0.230751,0.024001,-2.9e-05,-0.000122
572177,0.000218,-0.018404,-0.330098,0.0,-0.0,-0.0,2.0,0.282024,0.278561,0.282024,0.285427,,,,,,,0.000828,-0.012925,-0.230753,1.6e-05,-2.7e-05,-0.000122
572197,0.000439,-0.018243,-0.330096,0.0,-0.0,-0.0,2.0,0.282024,0.281673,0.282024,0.282375,,,,,,,0.001189,-0.012925,-0.230755,-0.003895,-9e-06,-0.000121
572217,0.00056,-0.018223,-0.330209,0.0,-0.0,-0.0,2.0,0.282024,0.279884,0.282024,0.284141,,,,,,,0.00129,-0.012925,-0.230758,0.0001,-7e-06,-0.000132
572237,0.00044,-0.018243,-0.33021,0.0,-0.0,-0.0,2.0,0.282024,0.274285,0.282024,0.289469,,,,,,,0.00117,-0.012925,-0.230761,-0.0001,-9e-06,-0.00012
572257,0.000178,-0.018163,-0.330097,0.0,-0.0,-0.0,2.0,0.282024,0.273822,0.282024,0.289896,,,,,,,0.00105,-0.012926,-0.230763,-0.028078,-1e-06,-0.000132
572277,-4.3e-05,-0.018323,-0.330099,0.0,-0.0,-0.0,2.0,0.282024,0.276102,0.282024,0.287772,,,,,,,0.00091,-0.012926,-0.230766,-0.019988,-1.5e-05,-0.000132
572297,-4.3e-05,-0.018323,-0.330099,0.0,-0.0,-0.0,2.0,0.282024,0.274357,0.282024,0.289403,,,,,,,0.000567,-0.012926,-0.230768,1.7e-05,-1.9e-05,-0.00012
572317,-4.3e-05,-0.018323,-0.330099,0.0,-0.0,-0.0,2.0,0.282024,0.274345,0.282024,0.289413,,,,,,,0.000568,-0.012926,-0.230771,-9.9e-05,-1.9e-05,-0.00012
572337,0.000198,-0.018283,-0.330098,0.0,-0.0,-0.0,2.0,0.282024,0.282635,0.282024,0.281411,,,,,,,0.000927,-0.012927,-0.230773,0.004192,-2.5e-05,-0.000119
572357,0.00056,-0.018223,-0.330209,0.0,-0.0,-0.0,2.0,0.282024,0.280324,0.282024,0.28371,,,,,,,0.001068,-0.012927,-0.230775,0.020106,-9e-06,-0.000119
572377,0.000579,-0.018344,-0.330095,0.0,-0.0,-0.0,2.0,0.282024,0.278347,0.282024,0.285634,,,,,,,0.00131,-0.012927,-0.230778,-0.003994,-7e-06,-0.000119
572397,0.000439,-0.018243,-0.330096,0.0,-0.0,-0.0,2.0,0.282024,0.278256,0.282024,0.285722,,,,,,,0.001411,-0.012927,-0.23078,-0.020208,-1.9e-05,-0.000118
572417,0.00032,-0.018263,-0.330211,0.0,-0.0,-0.0,2.0,0.282024,0.27584,0.282024,0.288019,,,,,,,0.00117,-0.012928,-0.230783,-0.023983,-1.1e-05,-0.00013
572437,5.9e-05,-0.018183,-0.330212,0.0,-0.0,-0.0,2.0,0.282024,0.271656,0.282024,0.291871,,,,,,,0.000789,-0.012928,-0.230785,-0.000115,-3e-06,-0.000118
572457,-6.3e-05,-0.018203,-0.330099,0.0,-0.0,-0.0,2.0,0.282024,0.273552,0.282024,0.290145,,,,,,,0.000668,-0.012928,-0.230788,0.003894,-1.7e-05,-0.000118
572477,-4.3e-05,-0.018323,-0.330099,0.0,-0.0,-0.0,2.0,0.282024,0.279388,0.282024,0.284625,,,,,,,0.000809,-0.012928,-0.23079,-0.003896,-3e-06,-0.000129
572497,0.00032,-0.018263,-0.330211,0.0,-0.0,-0.0,2.0,0.282024,0.279899,0.282024,0.284127,,,,,,,0.000908,-0.012928,-0.230792,8.2e-05,-1e-06,-0.000117
572517,0.000559,-0.018223,-0.330095,0.0,-0.0,-0.0,2.0,0.282024,0.276757,0.282024,0.287154,,,,,,,0.001049,-0.012928,-0.230795,0.0239,-9e-06,-0.000117
572537,0.00068,-0.018203,-0.330094,0.0,-0.0,-0.0,2.0,0.282024,0.280762,0.282024,0.283279,,,,,,,0.001411,-0.012929,-0.230797,0.0001,-5e-06,-0.000128
572557,0.000661,-0.018082,-0.330208,0.0,-0.0,-0.0,2.0,0.282024,0.276752,0.282024,0.287158,,,,,,,0.00139,-0.012929,-0.2308,-0.023785,5e-06,-0.000128
572577,0.000419,-0.018123,-0.330095,0.0,-0.0,-0.0,2.0,0.282024,0.273167,0.282024,0.290498,,,,,,,0.00115,-0.012928,-0.230802,0.024101,5e-06,-0.000128
572597,0.000178,-0.018163,-0.330097,0.0,-0.0,-0.0,2.0,0.282024,0.27347,0.282024,0.29022,,,,,,,0.00103,-0.012928,-0.230805,-0.0243,-1e-06,-0.000116
572617,3.9e-05,-0.018062,-0.330212,0.0,-0.0,-0.0,2.0,0.282024,0.276238,0.282024,0.287645,,,,,,,0.000908,-0.012928,-0.230807,0.0,-1e-06,-0.000116
572637,0.000158,-0.018043,-0.330097,0.0,-0.0,-0.0,2.0,0.282024,0.275939,0.282024,0.287926,,,,,,,0.000768,-0.012928,-0.230809,0.023984,1.1e-05,-0.000116
572657,0.000278,-0.018022,-0.330096,0.0,-0.0,-0.0,2.0,0.282024,0.277073,0.282024,0.286853,,,,,,,0.000888,-0.012928,-0.230812,-0.0,1.1e-05,-0.000116
572677,0.000539,-0.018103,-0.330095,0.0,-0.0,-0.0,2.0,0.282024,0.278994,0.282024,0.285008,,,,,,,0.001129,-0.012928,-0.230814,0.003993,3e-06,-0.000115
572697,0.000661,-0.018082,-0.330208,0.0,-0.0,-0.0,2.0,0.282024,0.277932,0.282024,0.286033,,,,,,,0.00127,-0.012928,-0.230816,0.020205,1.9e-05,-0.000126
572717,0.00054,-0.018103,-0.330209,0.0,-0.0,-0.0,2.0,0.282024,0.277528,0.282024,0.28642,,,,,,,0.00139,-0.012927,-0.230819,0.000216,7e-06,-0.000126
572737,0.000419,-0.018123,-0.330095,0.0,-0.0,-0.0,2.0,0.282024,0.274693,0.282024,0.289091,,,,,,,0.00125,-0.012927,-0.230821,-0.020091,3e-06,-0.000114
572757,0.000158,-0.018043,-0.330097,0.0,-0.0,-0.0,2.0,0.282024,0.275094,0.282024,0.288717,,,,,,,0.00103,-0.012927,-0.230824,-0.003995,1.3e-05,-0.000126
572777,3.8e-05,-0.018063,-0.330098,0.0,-0.0,-0.0,2.0,0.282024,0.274284,0.282024,0.28947,,,,,,,0.000768,-0.012927,-0.230826,-1.6e-05,9e-06,-0.000114
572797,3.8e-05,-0.018063,-0.330098,0.0,-0.0,-0.0,2.0,0.282024,0.273861,0.282024,0.289861,,,,,,,0.000648,-0.012927,-0.230828,0.023885,9e-06,-0.000114
572817,0.000178,-0.018163,-0.330097,0.0,-0.0,-0.0,2.0,0.282024,0.279717,0.282024,0.284305,,,,,,,0.000889,-0.012927,-0.230831,0.003878,-1e-06,-0.000114
572837,0.00056,-0.018223,-0.330209,0.0,-0.0,-0.0,2.0,0.282024,0.27857,0.282024,0.285418,,,,,,,0.001029,-0.012927,-0.230833,0.028195,-9e-06,-0.000125
572857,0.00068,-0.018203,-0.330094,0.0,-0.0,-0.0,2.0,0.282024,0.278294,0.282024,0.285685,,,,,,,0.00129,-0.012927,-0.230835,0.024201,-5e-06,-0.000124
572877,0.000559,-0.018223,-0.330095,0.0,-0.0,-0.0,2.0,0.282024,0.277467,0.282024,0.286478,,,,,,,0.00141,-0.012927,-0.230838,-0.023985,-7e-06,-0.000113
572897,0.000319,-0.018263,-0.330097,0.0,-0.0,-0.0,2.0,0.282024,0.273953,0.282024,0.289776,,,,,,,0.00117,-0.012927,-0.23084,0.000119,-9e-06,-0.000124
572917,7.8e-05,-0.018303,-0.330098,0.0,-0.0,-0.0,2.0,0.282024,0.27455,0.282024,0.289224,,,,,,,0.000928,-0.012927,-0.230842,-0.023984,-1.5e-05,-0.000113
572937,-4.3e-05,-0.018323,-0.330099,0.0,-0.0,-0.0,2.0,0.282024,0.273285,0.282024,0.29039,,,,,,,0.000668,-0.012927,-0.230844,0.003895,-1.7e-05,-0.000112
572957,-0.000164,-0.018344,-0.329986,0.0,-0.0,-0.0,2.0,0.282024,0.277932,0.282024,0.286033,,,,,,,0.000687,-0.012928,-0.230847,9.9e-05,-1.7e-05,-0.000112
572977,0.000218,-0.018404,-0.330098,0.0,-0.0,-0.0,2.0,0.282024,0.278039,0.282024,0.28593,,,,,,,0.000708,-0.012928,-0.230849,0.024,-2.7e-05,-0.000112
572997,0.000479,-0.018484,-0.330096,0.0,-0.0,-0.0,2.0,0.282024,0.278519,0.282024,0.285468,,,,,,,0.000968,-0.012929,-0.230851,0.024001,-3.5e-05,-0.000112
573017,0.000599,-0.018464,-0.330095,0.0,-0.0,-0.0,2.0,0.282024,0.28091,0.282024,0.283132,,,,,,,0.001329,-0.012929,-0.230853,9.9e-05,-3.1e-05,-0.000111
573037,0.000599,-0.018464,-0.330095,0.0,-0.0,-0.0,2.0,0.282024,0.277361,0.282024,0.286579,,,,,,,0.00133,-0.01293,-0.230856,0.0,-3.1e-05,-0.000111
573057,0.00048,-0.018484,-0.33021,0.0,-0.0,-0.0,2.0,0.282024,0.274343,0.282024,0.289416,,,,,,,0.00121,-0.012931,-0.230858,-9.9e-05,-3.2e-05,-0.000111
573077,0.000218,-0.018404,-0.330098,0.0,-0.0,-0.0,2.0,0.282024,0.272599,0.282024,0.291016,,,,,,,0.000969,-0.012931,-0.23086,-0.004093,-2.4e-05,-0.000111
573097,-2.3e-05,-0.018444,-0.3301,0.0,-0.0,-0.0,2.0,0.282024,0.275125,0.282024,0.288689,,,,,,,0.000829,-0.012932,-0.230862,-0.02021,-4e-05,-0.000111
573117,-3e-06,-0.018564,-0.3301,0.0,-0.0,-0.0,2.0,0.282024,0.276524,0.282024,0.287374,,,,,,,0.000728,-0.012933,-0.230865,-0.0,-4e-05,-0.000111
573137,0.000118,-0.018544,-0.330099,0.0,-0.0,-0.0,2.0,0.282024,0.276561,0.282024,0.287339,,,,,,,0.000728,-0.012933,-0.230867,-1.7e-05,-4e-05,-0.00011
573157,0.000499,-0.018604,-0.330096,0.0,-0.0,-0.0,2.0,0.282024,0.279425,0.282024,0.28459,,,,,,,0.000989,-0.012934,-0.230869,1.6e-05,-4.8e-05,-0.00011
573177,0.00064,-0.018705,-0.330095,0.0,-0.0,-0.0,2.0,0.282024,0.27874,0.282024,0.285254,,,,,,,0.001229,-0.012935,-0.230871,0.048189,-4e-05,-0.000121
573197,0.000641,-0.018705,-0.330209,0.0,-0.0,-0.0,2.0,0.282024,0.276931,0.282024,0.286988,,,,,,,0.00135,-0.012936,-0.230873,0.003977,-5.4e-05,-0.000109
573217,0.000499,-0.018604,-0.330096,0.0,-0.0,-0.0,2.0,0.282024,0.274569,0.282024,0.289206,,,,,,,0.00125,-0.012937,-0.230876,-0.024067,-5.8e-05,-0.000109
573237,0.000278,-0.018765,-0.330098,0.0,-0.0,-0.0,2.0,0.282024,0.275774,0.282024,0.288081,,,,,,,0.00111,-0.012938,-0.230878,1e-06,-4.6e-05,-0.00012
573257,0.000139,-0.018664,-0.330213,0.0,-0.0,-0.0,2.0,0.282024,0.274893,0.282024,0.288905,,,,,,,0.000888,-0.012939,-0.23088,1e-06,-6.2e-05,-0.000109
573277,5.8e-05,-0.018925,-0.3301,0.0,-0.0,-0.0,2.0,0.282024,0.274109,0.282024,0.289632,,,,,,,0.000768,-0.01294,-0.230882,-9.9e-05,-6.4e-05,-0.000109
573297,0.000298,-0.018885,-0.330098,0.0,-0.0,-0.0,2.0,0.282024,0.277814,0.282024,0.286146,,,,,,,0.000889,-0.012942,-0.230885,0.003752,-7.3e-05,-0.000108
573317,0.000539,-0.018845,-0.330096,0.0,-0.0,-0.0,2.0,0.282024,0.280623,0.282024,0.283415,,,,,,,0.001149,-0.012943,-0.230887,0.024308,-6.7e-05,-0.000119
573337,0.0008,-0.018926,-0.330095,0.0,-0.0,-0.0,2.0,0.282024,0.280468,0.282024,0.283568,,,,,,,0.001389,-0.012945,-0.230889,9.9e-05,-6.5e-05,-0.000108
573357,0.00092,-0.018906,-0.330094,0.0,-0.0,-0.0,2.0,0.282024,0.278074,0.282024,0.285896,,,,,,,0.00151,-0.012946,-0.230891,0.003993,-7.5e-05,-0.000107
573377,0.00078,-0.018805,-0.330094,0.0,-0.0,-0.0,2.0,0.282024,0.276293,0.282024,0.287593,,,,,,,0.00151,-0.012947,-0.230893,0.003978,-7.5e-05,-0.000107
573397,0.00068,-0.018946,-0.330096,0.0,-0.0,-0.0,2.0,0.282024,0.274649,0.282024,0.289132,,,,,,,0.001411,-0.012949,-0.230895,-0.004092,-6.5e-05,-0.000107
573417,0.000558,-0.018966,-0.329983,0.0,-0.0,-0.0,2.0,0.282024,0.274347,0.282024,0.289412,,,,,,,0.001289,-0.01295,-0.230898,-0.0001,-7.9e-05,-9.5e-05
573437,0.000418,-0.018866,-0.329983,0.0,-0.0,-0.0,2.0,0.282024,0.277002,0.282024,0.286921,,,,,,,0.00129,-0.012952,-0.2309,-0.023983,-8.1e-05,-0.000107
573457,0.000539,-0.018845,-0.330096,0.0,-0.0,-0.0,2.0,0.282024,0.27652,0.282024,0.287378,,,,,,,0.001148,-0.012953,-0.230901,0.023968,-6.6e-05,-9.5e-05
573477,0.000799,-0.018926,-0.329981,0.0,-0.0,-0.0,2.0,0.282024,0.278044,0.282024,0.285925,,,,,,,0.001288,-0.012955,-0.230903,0.024001,-7.6e-05,-9.5e-05
573497,0.00092,-0.018906,-0.330094,0.0,-0.0,-0.0,2.0,0.282024,0.278462,0.282024,0.285522,,,,,,,0.00153,-0.012956,-0.230905,-0.0,-7.4e-05,-0.000106
573517,0.00092,-0.018906,-0.330094,0.0,-0.0,-0.0,2.0,0.282024,0.280956,0.282024,0.283087,,,,,,,0.001771,-0.012958,-0.230908,9.9e-05,-7e-05,-0.000105
573537,0.001021,-0.018765,-0.330092,0.0,-0.0,-0.0,2.0,0.282024,0.275404,0.282024,0.288428,,,,,,,0.00163,-0.012959,-0.23091,0.003892,-7.2e-05,-9.4e-05
573557,0.00078,-0.018805,-0.330094,0.0,-0.0,-0.0,2.0,0.282024,0.276975,0.282024,0.286947,,,,,,,0.00165,-0.01296,-0.230912,-0.027737,-6.2e-05,-0.000105
573577,0.000679,-0.018946,-0.329982,0.0,-0.0,-0.0,2.0,0.282024,0.27671,0.282024,0.287198,,,,,,,0.00151,-0.012961,-0.230914,-0.024225,-6.4e-05,-9.4e-05
573597,0.00066,-0.018825,-0.330095,0.0,-0.0,-0.0,2.0,0.282024,0.276856,0.282024,0.28706,,,,,,,0.001389,-0.012963,-0.230916,0.000224,-6.3e-05,-0.000105
573617,0.00078,-0.018805,-0.330094,0.0,-0.0,-0.0,2.0,0.282024,0.277429,0.282024,0.286514,,,,,,,0.00139,-0.012964,-0.230918,0.023985,-6.1e-05,-0.000105
573637,0.001021,-0.018765,-0.330092,0.0,-0.0,-0.0,2.0,0.282024,0.279222,0.282024,0.284787,,,,,,,0.001631,-0.012965,-0.23092,-1e-06,-5.9e-05,-0.000104
573657,0.001141,-0.018745,-0.330091,0.0,-0.0,-0.0,2.0,0.282024,0.2812,0.282024,0.282844,,,,,,,0.001871,-0.012966,-0.230922,0.024083,-5.3e-05,-0.000104
573677,0.001262,-0.018725,-0.33009,0.0,-0.0,-0.0,2.0,0.282024,0.280323,0.282024,0.283711,,,,,,,0.001992,-0.012968,-0.230924,9.9e-05,-5.3e-05,-0.000104
573697,0.001141,-0.018745,-0.330091,0.0,-0.0,-0.0,2.0,0.282024,0.275591,0.282024,0.288253,,,,,,,0.001891,-0.012969,-0.230926,0.00014,-6.7e-05,-0.000104
573717,0.000919,-0.018906,-0.32998,0.0,-0.0,-0.0,2.0,0.282024,0.274928,0.282024,0.288872,,,,,,,0.001772,-0.01297,-0.230928,-9.9e-05,-6.9e-05,-0.000103
573737,0.0008,-0.018926,-0.330095,0.0,-0.0,-0.0,2.0,0.282024,0.276691,0.282024,0.287216,,,,,,,0.001651,-0.012971,-0.23093,-0.027978,-6.1e-05,-0.000103
573757,0.0008,-0.018926,-0.330095,0.0,-0.0,-0.0,2.0,0.282024,0.274654,0.282024,0.289128,,,,,,,0.00141,-0.012973,-0.230932,-8.2e-05,-7.4e-05,-0.000103
573777,0.00092,-0.018906,-0.330094,0.0,-0.0,-0.0,2.0,0.282024,0.278134,0.282024,0.285838,,,,,,,0.00153,-0.012974,-0.230934,0.01999,-5.8e-05,-0.000103
573797,0.001161,-0.018865,-0.330092,0.0,-0.0,-0.0,2.0,0.282024,0.279126,0.282024,0.28488,,,,,,,0.001751,-0.012975,-0.230936,0.027961,-6.6e-05,-0.000103
573817,0.001402,-0.018825,-0.33009,0.0,-0.0,-0.0,2.0,0.282024,0.281031,0.282024,0.283012,,,,,,,0.002012,-0.012977,-0.230938,9.9e-05,-6.4e-05,-0.000102
573837,0.001401,-0.018826,-0.329976,0.0,-0.0,-0.0,2.0,0.282024,0.278839,0.282024,0.285159,,,,,,,0.002132,-0.012978,-0.23094,-0.000223,-6.2e-05,-9.1e-05
573857,0.001281,-0.018846,-0.329977,0.0,-0.0,-0.0,2.0,0.282024,0.277979,0.282024,0.285987,,,,,,,0.002132,-0.012979,-0.230942,-0.023984,-6.4e-05,-0.000102
573877,0.001262,-0.018725,-0.33009,0.0,-0.0,-0.0,2.0,0.282024,0.277616,0.282024,0.286335,,,,,,,0.002012,-0.01298,-0.230944,1e-06,-6.4e-05,-0.000102
573897,0.001021,-0.018765,-0.330092,0.0,-0.0,-0.0,2.0,0.282024,0.273534,0.282024,0.290162,,,,,,,0.001751,-0.012982,-0.230946,-9.9e-05,-5.6e-05,-9e-05
573917,0.000899,-0.018785,-0.329979,0.0,-0.0,-0.0,2.0,0.282024,0.277497,0.282024,0.286449,,,,,,,0.001751,-0.012983,-0.230948,-0.023984,-5.7e-05,-0.000102
573937,0.001141,-0.018745,-0.330091,0.0,-0.0,-0.0,2.0,0.282024,0.278924,0.282024,0.285076,,,,,,,0.001751,-0.012984,-0.23095,0.027977,-6.5e-05,-0.000101
573957,0.001382,-0.018705,-0.330089,0.0,-0.0,-0.0,2.0,0.282024,0.278783,0.282024,0.285213,,,,,,,0.001892,-0.012985,-0.230952,0.020007,-5.1e-05,-0.000101
573977,0.001502,-0.018685,-0.330088,0.0,-0.0,-0.0,2.0,0.282024,0.280436,0.282024,0.2836,,,,,,,0.002233,-0.012986,-0.230954,-0.023985,-4.9e-05,-0.000101
573997,0.001502,-0.018685,-0.330088,0.0,-0.0,-0.0,2.0,0.282024,0.28139,0.282024,0.282656,,,,,,,0.002353,-0.012987,-0.230956,9.9e-05,-4.5e-05,-0.0001
574017,0.001382,-0.018705,-0.330089,0.0,-0.0,-0.0,2.0,0.282024,0.27627,0.282024,0.287614,,,,,,,0.002112,-0.012988,-0.230958,1e-06,-4.9e-05,-0.0001
574037,0.001021,-0.018765,-0.330092,0.0,-0.0,-0.0,2.0,0.282024,0.273782,0.282024,0.289934,,,,,,,0.001872,-0.012989,-0.23096,-9.8e-05,-5.3e-05,-0.0001
574057,0.00078,-0.018805,-0.330094,0.0,-0.0,-0.0,2.0,0.282024,0.277168,0.282024,0.286763,,,,,,,0.001751,-0.01299,-0.230962,-0.023968,-5.7e-05,-0.0001
574077,0.0009,-0.018785,-0.330093,0.0,-0.0,-0.0,2.0,0.282024,0.276821,0.282024,0.287093,,,,,,,0.00151,-0.012991,-0.230964,0.01999,-4.4e-05,-0.0001
574097,0.001021,-0.018765,-0.330092,0.0,-0.0,-0.0,2.0,0.282024,0.278312,0.282024,0.285668,,,,,,,0.001631,-0.012992,-0.230966,0.023984,-5.4e-05,-0.0001
574117,0.001262,-0.018725,-0.33009,0.0,-0.0,-0.0,2.0,0.282024,0.282952,0.282024,0.281092,,,,,,,0.002012,-0.012993,-0.230968,0.000115,-6.2e-05,-9.9e-05
574137,0.001643,-0.018785,-0.330087,0.0,-0.0,-0.0,2.0,0.282024,0.282553,0.282024,0.281494,,,,,,,0.002232,-0.012994,-0.23097,0.024303,-4.4e-05,-0.00011
574157,0.001624,-0.018665,-0.330201,0.0,-0.0,-0.0,2.0,0.282024,0.280193,0.282024,0.283838,,,,,,,0.002353,-0.012995,-0.230972,0.00032,-4.4e-05,-0.00011
574177,0.001383,-0.018705,-0.330203,0.0,-0.0,-0.0,2.0,0.282024,0.275669,0.282024,0.28818,,,,,,,0.002234,-0.012996,-0.230974,-0.024304,-4.8e-05,-9.8e-05
574197,0.001042,-0.018885,-0.330206,0.0,-0.0,-0.0,2.0,0.282024,0.276351,0.282024,0.287538,,,,,,,0.001993,-0.012997,-0.230976,1e-06,-5e-05,-0.00011
574217,0.000902,-0.018785,-0.330207,0.0,-0.0,-0.0,2.0,0.282024,0.277797,0.282024,0.286162,,,,,,,0.001752,-0.012998,-0.230979,-0.023883,-5.6e-05,-0.00011
574237,0.000902,-0.018785,-0.330207,0.0,-0.0,-0.0,2.0,0.282024,0.274877,0.282024,0.28892,,,,,,,0.001511,-0.012999,-0.230981,-0.0001,-5.8e-05,-9.8e-05
574257,0.001021,-0.018765,-0.330092,0.0,-0.0,-0.0,2.0,0.282024,0.281296,0.282024,0.28275,,,,,,,0.001752,-0.013,-0.230983,9.9e-05,-5.4e-05,-0.000109
574277,0.001504,-0.018685,-0.330202,0.0,-0.0,-0.0,2.0,0.282024,0.282509,0.282024,0.281538,,,,,,,0.001993,-0.013001,-0.230985,9.9e-05,-4.9e-05,-0.000109
574297,0.001624,-0.018665,-0.330201,0.0,-0.0,-0.0,2.0,0.282024,0.280028,0.282024,0.284,,,,,,,0.002233,-0.013002,-0.230987,0.00022,-4.5e-05,-0.000109
574317,0.001504,-0.018685,-0.330202,0.0,-0.0,-0.0,2.0,0.282024,0.279303,0.282024,0.284708,,,,,,,0.002354,-0.013003,-0.230989,-0.0,-4.3e-05,-0.000108
574337,0.001383,-0.018705,-0.330203,0.0,-0.0,-0.0,2.0,0.282024,0.277848,0.282024,0.286113,,,,,,,0.002234,-0.013004,-0.230991,0.0,-4.5e-05,-0.000108
574357,0.001263,-0.018725,-0.330204,0.0,-0.0,-0.0,2.0,0.282024,0.274935,0.282024,0.288866,,,,,,,0.001994,-0.013005,-0.230994,-9.8e-05,-4.9e-05,-0.000108
574377,0.001021,-0.018765,-0.330092,0.0,-0.0,-0.0,2.0,0.282024,0.276897,0.282024,0.287021,,,,,,,0.001873,-0.013006,-0.230996,-0.02419,-5.3e-05,-9.7e-05
574397,0.001022,-0.018765,-0.330206,0.0,-0.0,-0.0,2.0,0.282024,0.277628,0.282024,0.286324,,,,,,,0.001732,-0.013007,-0.230998,1e-06,-4.1e-05,-0.000108
574417,0.001122,-0.018624,-0.330205,0.0,-0.0,-0.0,2.0,0.282024,0.277975,0.282024,0.285991,,,,,,,0.001732,-0.013008,-0.231,0.023747,-3.9e-05,-9.6e-05
574437,0.001362,-0.018585,-0.330089,0.0,-0.0,-0.0,2.0,0.282024,0.280135,0.282024,0.283896,,,,,,,0.001972,-0.013009,-0.231002,0.023983,-3.5e-05,-9.6e-05
574457,0.001482,-0.018564,-0.330088,0.0,-0.0,-0.0,2.0,0.282024,0.280458,0.282024,0.283578,,,,,,,0.002214,-0.013009,-0.231004,0.023984,-3.1e-05,-0.000107
574477,0.001604,-0.018544,-0.330201,0.0,-0.0,-0.0,2.0,0.282024,0.279801,0.282024,0.284223,,,,,,,0.002334,-0.01301,-0.231006,-1e-06,-3.1e-05,-0.000107
574497,0.001363,-0.018584,-0.330203,0.0,-0.0,-0.0,2.0,0.282024,0.277759,0.282024,0.286199,,,,,,,0.002233,-0.013011,-0.231008,-0.003758,-3.2e-05,-0.000106
574517,0.001141,-0.018745,-0.330091,0.0,-0.0,-0.0,2.0,0.282024,0.274999,0.282024,0.288807,,,,,,,0.001974,-0.013011,-0.23101,-0.00032,-3.6e-05,-9.5e-05
574537,0.00088,-0.018665,-0.330093,0.0,-0.0,-0.0,2.0,0.282024,0.27466,0.282024,0.289122,,,,,,,0.001732,-0.013012,-0.231012,0.003895,-5.2e-05,-9.5e-05
574557,0.00088,-0.018665,-0.330093,0.0,-0.0,-0.0,2.0,0.282024,0.277822,0.282024,0.286138,,,,,,,0.001631,-0.013013,-0.231014,-0.003977,-4.2e-05,-9.5e-05
574577,0.001001,-0.018645,-0.330092,0.0,-0.0,-0.0,2.0,0.282024,0.276992,0.282024,0.28693,,,,,,,0.001611,-0.013014,-0.231016,0.023885,-4e-05,-9.5e-05
574597,0.001242,-0.018605,-0.33009,0.0,-0.0,-0.0,2.0,0.282024,0.282824,0.282024,0.281221,,,,,,,0.001971,-0.013015,-0.231018,9.8e-05,-3.6e-05,-9.4e-05
574617,0.001482,-0.018564,-0.330088,0.0,-0.0,-0.0,2.0,0.282024,0.280343,0.282024,0.283691,,,,,,,0.002092,-0.013015,-0.23102,0.023984,-3.2e-05,-9.4e-05
574637,0.001482,-0.018564,-0.330088,0.0,-0.0,-0.0,2.0,0.282024,0.278964,0.282024,0.285038,,,,,,,0.002213,-0.013016,-0.231021,-1.7e-05,-3.2e-05,-9.4e-05
574657,0.001242,-0.018605,-0.33009,0.0,-0.0,-0.0,2.0,0.282024,0.275937,0.282024,0.287928,,,,,,,0.002093,-0.013017,-0.231023,-0.024083,-3.6e-05,-9.4e-05
574677,0.001001,-0.018645,-0.330092,0.0,-0.0,-0.0,2.0,0.282024,0.275347,0.282024,0.288481,,,,,,,0.001852,-0.013018,-0.231025,-0.004093,-2.6e-05,-9.4e-05
574697,0.00076,-0.018685,-0.330094,0.0,-0.0,-0.0,2.0,0.282024,0.27622,0.282024,0.287662,,,,,,,0.001611,-0.013018,-0.231027,-0.023983,-4.4e-05,-9.4e-05
574717,0.00086,-0.018544,-0.330093,0.0,-0.0,-0.0,2.0,0.282024,0.278161,0.282024,0.285812,,,,,,,0.00149,-0.013019,-0.231029,1.7e-05,-4.4e-05,-9.4e-05
574737,0.000879,-0.018665,-0.329979,0.0,-0.0,-0.0,2.0,0.282024,0.278876,0.282024,0.285123,,,,,,,0.001591,-0.01302,-0.231031,0.023968,-2.8e-05,-9.3e-05
574757,0.001242,-0.018605,-0.33009,0.0,-0.0,-0.0,2.0,0.282024,0.282517,0.282024,0.28153,,,,,,,0.001851,-0.013021,-0.231032,0.024083,-3.6e-05,-9.3e-05
574777,0.001502,-0.018685,-0.330088,0.0,-0.0,-0.0,2.0,0.282024,0.278497,0.282024,0.285489,,,,,,,0.001992,-0.013021,-0.231034,0.023901,-4.5e-05,-9.2e-05
574797,0.001382,-0.018705,-0.330089,0.0,-0.0,-0.0,2.0,0.282024,0.279372,0.282024,0.284641,,,,,,,0.002213,-0.013022,-0.231036,-0.020007,-4.5e-05,-9.2e-05
574817,0.001242,-0.018605,-0.33009,0.0,-0.0,-0.0,2.0,0.282024,0.278293,0.282024,0.285686,,,,,,,0.002092,-0.013023,-0.231038,-0.023984,-3.5e-05,-9.2e-05
574837,0.00088,-0.018665,-0.330093,0.0,-0.0,-0.0,2.0,0.282024,0.274183,0.282024,0.289564,,,,,,,0.001732,-0.013024,-0.23104,-9.8e-05,-3.9e-05,-9.2e-05
574857,0.00064,-0.018705,-0.330095,0.0,-0.0,-0.0,2.0,0.282024,0.274323,0.282024,0.289434,,,,,,,0.001471,-0.013024,-0.231042,-0.020106,-4.5e-05,-9.2e-05
574877,0.00064,-0.018705,-0.330095,0.0,-0.0,-0.0,2.0,0.282024,0.280685,0.282024,0.283354,,,,,,,0.00149,-0.013025,-0.231044,9.9e-05,-4.3e-05,-9.2e-05
574897,0.0009,-0.018785,-0.330093,0.0,-0.0,-0.0,2.0,0.282024,0.280705,0.282024,0.283334,,,,,,,0.00149,-0.013026,-0.231045,0.0001,-4.3e-05,-9.2e-05
574917,0.001121,-0.018625,-0.330091,0.0,-0.0,-0.0,2.0,0.282024,0.278077,0.282024,0.285893,,,,,,,0.001611,-0.013027,-0.231047,0.027878,-5.1e-05,-9.2e-05
574937,0.001242,-0.018605,-0.33009,0.0,-0.0,-0.0,2.0,0.282024,0.282424,0.282024,0.281623,,,,,,,0.001971,-0.013028,-0.231049,9.9e-05,-3.5e-05,-9.1e-05
574957,0.001242,-0.018605,-0.33009,0.0,-0.0,-0.0,2.0,0.282024,0.281762,0.282024,0.282286,,,,,,,0.002092,-0.013029,-0.231051,-0.023885,-3.5e-05,-9.1e-05
574977,0.001102,-0.018504,-0.330205,0.0,-0.0,-0.0,2.0,0.282024,0.275724,0.282024,0.288128,,,,,,,0.001832,-0.013029,-0.231053,0.003895,-3.7e-05,-9.1e-05
574997,0.00074,-0.018564,-0.330094,0.0,-0.0,-0.0,2.0,0.282024,0.274557,0.282024,0.289218,,,,,,,0.001611,-0.01303,-0.231055,-0.004093,-2.9e-05,-9.1e-05
575017,0.000519,-0.018725,-0.330096,0.0,-0.0,-0.0,2.0,0.282024,0.27508,0.282024,0.288731,,,,,,,0.00137,-0.013031,-0.231056,-0.004093,-3.3e-05,-9.1e-05
575037,0.00064,-0.018705,-0.330095,0.0,-0.0,-0.0,2.0,0.282024,0.277682,0.282024,0.286272,,,,,,,0.00125,-0.013031,-0.231058,0.0,-4.6e-05,-9.1e-05
575057,0.00064,-0.018705,-0.330095,0.0,-0.0,-0.0,2.0,0.282024,0.276521,0.282024,0.287377,,,,,,,0.00125,-0.013032,-0.23106,0.023885,-4.4e-05,-9.1e-05
575077,0.001001,-0.018645,-0.330092,0.0,-0.0,-0.0,2.0,0.282024,0.283017,0.282024,0.281027,,,,,,,0.00161,-0.013033,-0.231062,0.024083,-3.8e-05,-9e-05
575097,0.001242,-0.018605,-0.33009,0.0,-0.0,-0.0,2.0,0.282024,0.282221,0.282024,0.281827,,,,,,,0.001851,-0.013034,-0.231064,0.024083,-3.4e-05,-9e-05
575117,0.001121,-0.018625,-0.330091,0.0,-0.0,-0.0,2.0,0.282024,0.278151,0.282024,0.285822,,,,,,,0.001852,-0.013035,-0.231065,0.019991,-2.2e-05,-8.9e-05
575137,0.00086,-0.018544,-0.330093,0.0,-0.0,-0.0,2.0,0.282024,0.277421,0.282024,0.286521,,,,,,,0.001853,-0.013035,-0.231067,-0.024288,-3.8e-05,-8.9e-05
575157,0.000621,-0.018584,-0.330209,0.0,-0.0,-0.0,2.0,0.282024,0.277593,0.282024,0.286358,,,,,,,0.001592,-0.013036,-0.231069,1e-06,-2.8e-05,-0.000101
575177,0.000499,-0.018604,-0.330096,0.0,-0.0,-0.0,2.0,0.282024,0.275783,0.282024,0.288073,,,,,,,0.001229,-0.013037,-0.231071,1e-06,-3.4e-05,-8.9e-05
575197,0.000499,-0.018604,-0.330096,0.0,-0.0,-0.0,2.0,0.282024,0.27836,0.282024,0.285621,,,,,,,0.001229,-0.013037,-0.231073,-0.023985,-3.6e-05,-8.9e-05
575217,0.00062,-0.018584,-0.330095,0.0,-0.0,-0.0,2.0,0.282024,0.281672,0.282024,0.282376,,,,,,,0.001349,-0.013038,-0.231075,-0.003895,-2e-05,-8.9e-05
575237,0.000982,-0.018524,-0.330206,0.0,-0.0,-0.0,2.0,0.282024,0.283939,0.282024,0.28009,,,,,,,0.00157,-0.013038,-0.231076,0.004175,-2.8e-05,-8.9e-05
575257,0.001102,-0.018504,-0.330205,0.0,-0.0,-0.0,2.0,0.282024,0.278684,0.282024,0.285308,,,,,,,0.001712,-0.013039,-0.231078,0.023884,-2.4e-05,-8.8e-05
575277,0.001122,-0.018624,-0.330205,0.0,-0.0,-0.0,2.0,0.282024,0.282499,0.282024,0.281548,,,,,,,0.001973,-0.013039,-0.23108,0.000115,-3.4e-05,-9.9e-05
575297,0.001002,-0.018644,-0.330206,0.0,-0.0,-0.0,2.0,0.282024,0.278495,0.282024,0.28549,,,,,,,0.001853,-0.01304,-0.231082,-0.023984,-3.8e-05,-9.9e-05
575317,0.000621,-0.018584,-0.330209,0.0,-0.0,-0.0,2.0,0.282024,0.275854,0.282024,0.288006,,,,,,,0.00149,-0.013041,-0.231084,-0.027961,-3.1e-05,-8.8e-05
575337,0.000359,-0.018504,-0.330097,0.0,-0.0,-0.0,2.0,0.282024,0.274878,0.282024,0.288919,,,,,,,0.001211,-0.013041,-0.231086,-0.02432,-2.3e-05,-8.8e-05
575357,0.00036,-0.018504,-0.330211,0.0,-0.0,-0.0,2.0,0.282024,0.278054,0.282024,0.285916,,,,,,,0.001089,-0.013042,-0.231088,0.000221,-2.3e-05,-9.9e-05
575377,0.000479,-0.018484,-0.330096,0.0,-0.0,-0.0,2.0,0.282024,0.278816,0.282024,0.285181,,,,,,,0.001109,-0.013042,-0.23109,-0.003994,-2.3e-05,-8.8e-05
575397,0.00062,-0.018584,-0.330095,0.0,-0.0,-0.0,2.0,0.282024,0.279655,0.282024,0.284365,,,,,,,0.001231,-0.013043,-0.231092,0.023762,-3.1e-05,-8.7e-05
575417,0.000881,-0.018664,-0.330207,0.0,-0.0,-0.0,2.0,0.282024,0.280689,0.282024,0.28335,,,,,,,0.001471,-0.013044,-0.231094,0.027978,-3.9e-05,-9.8e-05
575437,0.000861,-0.018544,-0.330207,0.0,-0.0,-0.0,2.0,0.282024,0.279512,0.282024,0.284505,,,,,,,0.001612,-0.013044,-0.231095,0.019989,-2.5e-05,-9.8e-05
575457,0.000741,-0.018564,-0.330208,0.0,-0.0,-0.0,2.0,0.282024,0.278751,0.282024,0.285243,,,,,,,0.001612,-0.013045,-0.231097,-0.027979,-2.9e-05,-9.8e-05
575477,0.00048,-0.018484,-0.33021,0.0,-0.0,-0.0,2.0,0.282024,0.275648,0.282024,0.2882,,,,,,,0.001351,-0.013046,-0.231099,-0.024083,-3.3e-05,-9.8e-05
575497,0.00036,-0.018504,-0.330211,0.0,-0.0,-0.0,2.0,0.282024,0.27533,0.282024,0.288498,,,,,,,0.001091,-0.013046,-0.231101,-9.9e-05,-2.3e-05,-9.8e-05
575517,0.00034,-0.018383,-0.330211,0.0,-0.0,-0.0,2.0,0.282024,0.277037,0.282024,0.286888,,,,,,,0.000969,-0.013047,-0.231103,0.000221,-2.5e-05,-9.8e-05
575537,0.00036,-0.018504,-0.330211,0.0,-0.0,-0.0,2.0,0.282024,0.279622,0.282024,0.284397,,,,,,,0.00109,-0.013047,-0.231105,1.6e-05,-2.3e-05,-9.8e-05
575557,0.000621,-0.018584,-0.330209,0.0,-0.0,-0.0,2.0,0.282024,0.280188,0.282024,0.283844,,,,,,,0.001211,-0.013047,-0.231107,-1e-06,-2.1e-05,-9.7e-05
575577,0.000841,-0.018424,-0.330207,0.0,-0.0,-0.0,2.0,0.282024,0.282684,0.282024,0.281363,,,,,,,0.001471,-0.013048,-0.231109,0.000116,-2.9e-05,-9.7e-05
575597,0.000841,-0.018424,-0.330207,0.0,-0.0,-0.0,2.0,0.282024,0.279799,0.282024,0.284224,,,,,,,0.001572,-0.013048,-0.231111,-0.0,-1.5e-05,-9.7e-05
575617,0.000601,-0.018464,-0.330209,0.0,-0.0,-0.0,2.0,0.282024,0.278995,0.282024,0.285007,,,,,,,0.001572,-0.013049,-0.231113,-0.023984,-1.7e-05,-9.6e-05
575637,0.00046,-0.018363,-0.33021,0.0,-0.0,-0.0,2.0,0.282024,0.275082,0.282024,0.288729,,,,,,,0.001211,-0.013049,-0.231115,-9.9e-05,-2.1e-05,-9.6e-05
575657,0.000239,-0.018524,-0.330212,0.0,-0.0,-0.0,2.0,0.282024,0.274481,0.282024,0.289287,,,,,,,0.00097,-0.013049,-0.231117,-9.9e-05,-2.5e-05,-9.6e-05
575677,0.000239,-0.018524,-0.330212,0.0,-0.0,-0.0,2.0,0.282024,0.278371,0.282024,0.285611,,,,,,,0.00097,-0.01305,-0.231119,-0.023984,-2.7e-05,-9.6e-05
575697,0.00036,-0.018504,-0.330211,0.0,-0.0,-0.0,2.0,0.282024,0.279091,0.282024,0.284914,,,,,,,0.00097,-0.01305,-0.231121,0.023984,-2.2e-05,-9.6e-05
575717,0.000601,-0.018464,-0.330209,0.0,-0.0,-0.0,2.0,0.282024,0.28193,0.282024,0.282118,,,,,,,0.00121,-0.013051,-0.231123,0.024083,-1.8e-05,-9.6e-05
575737,0.000841,-0.018424,-0.330207,0.0,-0.0,-0.0,2.0,0.282024,0.279534,0.282024,0.284483,,,,,,,0.001452,-0.013051,-0.231125,-0.0001,-1.6e-05,-9.5e-05
575757,0.000841,-0.018424,-0.330207,0.0,-0.0,-0.0,2.0,0.282024,0.282482,0.282024,0.281565,,,,,,,0.001692,-0.013051,-0.231126,-0.003896,-0.0,-9.5e-05
575777,0.000701,-0.018323,-0.330208,0.0,-0.0,-0.0,2.0,0.282024,0.2786,0.282024,0.285389,,,,,,,0.001572,-0.013052,-0.231128,-0.023984,-1.6e-05,-9.5e-05
575797,0.00034,-0.018383,-0.330211,0.0,-0.0,-0.0,2.0,0.282024,0.272939,0.282024,0.290706,,,,,,,0.001191,-0.013052,-0.23113,0.003797,-2e-05,-9.5e-05
575817,9.9e-05,-0.018424,-0.330213,0.0,-0.0,-0.0,2.0,0.282024,0.274915,0.282024,0.288884,,,,,,,0.00095,-0.013052,-0.231132,-9.9e-05,-1.2e-05,-9.5e-05
575837,9.9e-05,-0.018424,-0.330213,0.0,-0.0,-0.0,2.0,0.282024,0.277992,0.282024,0.285975,,,,,,,0.000849,-0.013052,-0.231134,-0.003995,-1.4e-05,-9.5e-05
575857,0.000219,-0.018404,-0.330212,0.0,-0.0,-0.0,2.0,0.282024,0.279111,0.282024,0.284895,,,,,,,0.000849,-0.013053,-0.231136,0.024,-2.4e-05,-9.5e-05
575877,0.00048,-0.018484,-0.33021,0.0,-0.0,-0.0,2.0,0.282024,0.280495,0.282024,0.283541,,,,,,,0.00107,-0.013053,-0.231138,0.027978,-2e-05,-9.4e-05
575897,0.000841,-0.018424,-0.330207,0.0,-0.0,-0.0,2.0,0.282024,0.283588,0.282024,0.280448,,,,,,,0.001451,-0.013053,-0.23114,0.024082,-1.4e-05,-9.4e-05
575917,0.000983,-0.018524,-0.33032,0.0,-0.0,-0.0,2.0,0.282024,0.279976,0.282024,0.284052,,,,,,,0.001592,-0.013054,-0.231142,-0.0,-2.6e-05,-9.4e-05
575937,0.000722,-0.018443,-0.330322,0.0,-0.0,-0.0,2.0,0.282024,0.276853,0.282024,0.287063,,,,,,,0.001572,-0.013054,-0.231144,-0.024083,-1.6e-05,-9.3e-05
575957,0.00036,-0.018504,-0.330211,0.0,-0.0,-0.0,2.0,0.282024,0.276884,0.282024,0.287032,,,,,,,0.001332,-0.013055,-0.231146,-0.023999,-2e-05,-0.000105
575977,0.00024,-0.018524,-0.330326,0.0,-0.0,-0.0,2.0,0.282024,0.275405,0.282024,0.288427,,,,,,,0.00099,-0.013055,-0.231147,-8.2e-05,-3.6e-05,-9.3e-05
575997,1.9e-05,-0.018684,-0.330214,0.0,-0.0,-0.0,2.0,0.282024,0.274255,0.282024,0.289497,,,,,,,0.000729,-0.013056,-0.231149,-9.8e-05,-2.8e-05,-9.3e-05
576017,0.000119,-0.018544,-0.330213,0.0,-0.0,-0.0,2.0,0.282024,0.280977,0.282024,0.283065,,,,,,,0.000849,-0.013056,-0.231151,-0.023885,-2.8e-05,-9.3e-05
576037,0.00036,-0.018504,-0.330211,0.0,-0.0,-0.0,2.0,0.282024,0.283365,0.282024,0.280674,,,,,,,0.00109,-0.013057,-0.231153,9.8e-05,-2.2e-05,-9.3e-05
576057,0.000621,-0.018584,-0.330209,0.0,-0.0,-0.0,2.0,0.282024,0.281102,0.282024,0.282942,,,,,,,0.00123,-0.013057,-0.231155,0.020004,-1.8e-05,-9.2e-05
576077,0.000741,-0.018564,-0.330208,0.0,-0.0,-0.0,2.0,0.282024,0.280972,0.282024,0.283071,,,,,,,0.001471,-0.013058,-0.231157,-1e-06,-2.8e-05,-9.2e-05
576097,0.000621,-0.018584,-0.330209,0.0,-0.0,-0.0,2.0,0.282024,0.279725,0.282024,0.284297,,,,,,,0.001492,-0.013058,-0.231159,1.7e-05,-4e-05,-0.000103
576117,0.000381,-0.018624,-0.330325,0.0,-0.0,-0.0,2.0,0.282024,0.276876,0.282024,0.28704,,,,,,,0.001231,-0.013059,-0.231161,1e-06,-3.2e-05,-9.2e-05
576137,0.000139,-0.018664,-0.330213,0.0,-0.0,-0.0,2.0,0.282024,0.273884,0.282024,0.28984,,,,,,,0.00087,-0.01306,-0.231163,-9.8e-05,-3.8e-05,-9.2e-05
576157,-0.000102,-0.018705,-0.330215,0.0,-0.0,-0.0,2.0,0.282024,0.275658,0.282024,0.28819,,,,,,,0.000749,-0.01306,-0.231164,-0.024083,-4.2e-05,-9.2e-05
576177,1.9e-05,-0.018684,-0.330214,0.0,-0.0,-0.0,2.0,0.282024,0.278214,0.282024,0.285761,,,,,,,0.000629,-0.013061,-0.231166,0.023984,-3.9e-05,-9.2e-05
576197,0.000259,-0.018644,-0.330212,0.0,-0.0,-0.0,2.0,0.282024,0.281848,0.282024,0.282201,,,,,,,0.000869,-0.013062,-0.231168,0.024083,-3.5e-05,-9.1e-05
576217,0.000641,-0.018705,-0.330209,0.0,-0.0,-0.0,2.0,0.282024,0.282234,0.282024,0.281814,,,,,,,0.001231,-0.013063,-0.23117,0.003994,-4.3e-05,-9.1e-05
576237,0.000641,-0.018705,-0.330209,0.0,-0.0,-0.0,2.0,0.282024,0.279863,0.282024,0.284162,,,,,,,0.001351,-0.013063,-0.231172,0.024205,-2.7e-05,-0.000102
576257,0.000622,-0.018584,-0.330323,0.0,-0.0,-0.0,2.0,0.282024,0.278399,0.282024,0.285583,,,,,,,0.001351,-0.013064,-0.231174,-0.024,-3.1e-05,-9.1e-05
576277,0.000259,-0.018644,-0.330212,0.0,-0.0,-0.0,2.0,0.282024,0.275107,0.282024,0.288706,,,,,,,0.001111,-0.013065,-0.231176,-0.024083,-3.5e-05,-9.1e-05
576297,-0.000102,-0.018705,-0.330215,0.0,-0.0,-0.0,2.0,0.282024,0.276862,0.282024,0.287054,,,,,,,0.00087,-0.013066,-0.231177,-0.024206,-3.9e-05,-9.1e-05
576317,-0.000102,-0.018705,-0.330215,0.0,-0.0,-0.0,2.0,0.282024,0.277502,0.282024,0.286444,,,,,,,0.000629,-0.013066,-0.231179,-0.023984,-4.3e-05,-9.1e-05
576337,-8.2e-05,-0.018825,-0.330215,0.0,-0.0,-0.0,2.0,0.282024,0.27755,0.282024,0.286398,,,,,,,0.000508,-0.013067,-0.231181,1e-06,-4.3e-05,-9e-05
576357,3.9e-05,-0.018805,-0.330214,0.0,-0.0,-0.0,2.0,0.282024,0.282386,0.282024,0.281662,,,,,,,0.000768,-0.013068,-0.231183,0.000116,-5.1e-05,-9e-05
576377,0.0004,-0.018745,-0.330211,0.0,-0.0,-0.0,2.0,0.282024,0.280495,0.282024,0.283541,,,,,,,0.000889,-0.013069,-0.231185,0.023983,-4.7e-05,-9e-05
576397,0.00054,-0.018845,-0.33021,0.0,-0.0,-0.0,2.0,0.282024,0.280402,0.282024,0.283633,,,,,,,0.00115,-0.01307,-0.231186,0.023984,-5.5e-05,-8.9e-05
576417,0.0004,-0.018745,-0.330211,0.0,-0.0,-0.0,2.0,0.282024,0.279664,0.282024,0.284356,,,,,,,0.001272,-0.013071,-0.231188,-0.024192,-5.7e-05,-8.9e-05
576437,0.000279,-0.018765,-0.330212,0.0,-0.0,-0.0,2.0,0.282024,0.275811,0.282024,0.288047,,,,,,,0.00101,-0.013072,-0.23119,0.000126,-4.6e-05,-0.000101
576457,3.9e-05,-0.018805,-0.330214,0.0,-0.0,-0.0,2.0,0.282024,0.277023,0.282024,0.2869,,,,,,,0.000889,-0.013073,-0.231192,-0.024,-5e-05,-8.9e-05
576477,-8.2e-05,-0.018825,-0.330215,0.0,-0.0,-0.0,2.0,0.282024,0.276018,0.282024,0.287852,,,,,,,0.000669,-0.013074,-0.231194,-0.004079,-5.2e-05,-8.9e-05
576497,-6.2e-05,-0.018945,-0.330215,0.0,-0.0,-0.0,2.0,0.282024,0.278515,0.282024,0.285471,,,,,,,0.000649,-0.013075,-0.231196,0.000226,-5.2e-05,-0.0001
576517,0.00018,-0.018905,-0.330327,0.0,-0.0,-0.0,2.0,0.282024,0.281583,0.282024,0.282464,,,,,,,0.000789,-0.013076,-0.231197,9.9e-05,-6.2e-05,-8.9e-05
576537,0.00042,-0.018865,-0.330211,0.0,-0.0,-0.0,2.0,0.282024,0.279784,0.282024,0.284239,,,,,,,0.000909,-0.013078,-0.231199,0.023983,-5.8e-05,-8.8e-05
576557,0.00044,-0.018986,-0.330211,0.0,-0.0,-0.0,2.0,0.282024,0.282833,0.282024,0.281212,,,,,,,0.001271,-0.013079,-0.231201,0.0001,-5.4e-05,-9.9e-05
576577,0.000421,-0.018865,-0.330325,0.0,-0.0,-0.0,2.0,0.282024,0.27988,0.282024,0.284145,,,,,,,0.001271,-0.01308,-0.231203,0.000224,-5.4e-05,-9.9e-05
576597,0.000301,-0.018885,-0.330326,0.0,-0.0,-0.0,2.0,0.282024,0.275631,0.282024,0.288215,,,,,,,0.001031,-0.013081,-0.231205,-9.9e-05,-5.8e-05,-9.9e-05
576617,-6.1e-05,-0.018945,-0.330329,0.0,-0.0,-0.0,2.0,0.282024,0.277274,0.282024,0.286662,,,,,,,0.000911,-0.013082,-0.231207,-0.023983,-6.1e-05,-9.9e-05
576637,-0.000181,-0.018965,-0.33033,0.0,-0.0,-0.0,2.0,0.282024,0.277594,0.282024,0.286357,,,,,,,0.00067,-0.013083,-0.231209,-0.023983,-6.5e-05,-9.9e-05
576657,-6.1e-05,-0.018945,-0.330329,0.0,-0.0,-0.0,2.0,0.282024,0.2783,0.282024,0.285679,,,,,,,0.000549,-0.013085,-0.231211,0.0,-6.5e-05,-9.9e-05
576677,6e-05,-0.018925,-0.330328,0.0,-0.0,-0.0,2.0,0.282024,0.279426,0.282024,0.284589,,,,,,,0.00067,-0.013086,-0.231213,-0.0,-6.3e-05,-9.9e-05
576697,0.000301,-0.018885,-0.330326,0.0,-0.0,-0.0,2.0,0.282024,0.283677,0.282024,0.280357,,,,,,,0.001031,-0.013087,-0.231215,9.8e-05,-5.7e-05,-9.8e-05
576717,0.000421,-0.018865,-0.330325,0.0,-0.0,-0.0,2.0,0.282024,0.281789,0.282024,0.282259,,,,,,,0.001151,-0.013088,-0.231217,8.2e-05,-5.5e-05,-9.8e-05
576737,0.000301,-0.018885,-0.330326,0.0,-0.0,-0.0,2.0,0.282024,0.278261,0.282024,0.285716,,,,,,,0.001051,-0.01309,-0.231219,1.7e-05,-6.9e-05,-9.8e-05
576757,8e-05,-0.019046,-0.330328,0.0,-0.0,-0.0,2.0,0.282024,0.275987,0.282024,0.28788,,,,,,,0.000911,-0.013091,-0.231221,-0.024082,-6.1e-05,-9.8e-05
576777,-0.000181,-0.018965,-0.33033,0.0,-0.0,-0.0,2.0,0.282024,0.276793,0.282024,0.28712,,,,,,,0.00067,-0.013092,-0.231223,1e-06,-6.2e-05,-9.8e-05
576797,-0.000321,-0.018865,-0.330331,0.0,-0.0,-0.0,2.0,0.282024,0.276429,0.282024,0.287464,,,,,,,0.000429,-0.013093,-0.231225,-0.023982,-6.8e-05,-9.8e-05
576817,-0.000301,-0.018985,-0.330331,0.0,-0.0,-0.0,2.0,0.282024,0.275938,0.282024,0.287927,,,,,,,0.000288,-0.013095,-0.231226,0.003895,-6.8e-05,-8.6e-05
576837,-6.1e-05,-0.018945,-0.330329,0.087266,-0.0,-0.0,2.0,0.282024,0.226028,0.282024,0.32526,,,,,,,0.000529,-0.013096,-0.231228,0.004096,-6.4e-05,-9.7e-05
576857,0.000321,-0.019005,-0.330326,0.087266,-0.0,-0.0,2.0,0.282024,0.222156,0.282024,0.327485,,,,,,,0.00069,-0.013097,-0.23123,0.043986,-5.8e-05,-9.7e-05
576877,0.000702,-0.019066,-0.330324,0.087266,-0.0,-0.0,2.0,0.282024,0.22459,0.282024,0.326096,,,,,,,0.001171,-0.013098,-0.231232,0.028079,-7.6e-05,-9.6e-05
576897,0.001806,-0.019005,-0.330314,0.087266,-0.0,-0.0,2.0,0.282024,0.230607,0.282024,0.32252,,,,,,,0.001913,-0.0131,-0.231234,0.051934,-7.4e-05,-8.4e-05
576917,0.003552,-0.019086,-0.330299,0.087266,-0.0,-0.0,2.0,0.282024,0.240515,0.282024,0.316168,,,,,,,0.003297,-0.013101,-0.231236,0.096344,-7.2e-05,-9.4e-05
576937,0.006403,-0.019106,-0.330444,0.087266,-0.0,-0.0,2.0,0.282024,0.251228,0.282024,0.308602,,,,,,,0.005525,-0.013103,-0.231238,0.172384,-7.7e-05,-0.000102
576957,0.010218,-0.018964,-0.330629,0.087266,-0.0,-0.0,2.0,0.282024,0.264895,0.282024,0.297773,,,,,,,0.008877,-0.013104,-0.23124,0.192589,-6.9e-05,-0.000116
576977,0.015078,-0.01914,-0.330964,0.087266,-0.0,-0.0,2.0,0.282024,0.278369,0.282024,0.285612,,,,,,,0.013214,-0.013106,-0.231243,0.240734,-6.7e-05,-0.000144
576997,0.020803,-0.019293,-0.331386,0.087266,-0.0,-0.0,2.0,0.282024,0.293859,0.282024,0.269428,,,,,,,0.018674,-0.013108,-0.231246,0.2972,-9.4e-05,-0.000186
577017,0.027411,-0.01954,-0.331888,0.087266,-0.0,-0.0,2.0,0.282024,0.302446,0.282024,0.259212,,,,,,,0.024758,-0.013109,-0.23125,0.34977,-0.000111,-0.000231
577037,0.034402,-0.019845,-0.332303,0.087266,-0.0,-0.0,2.0,0.282024,0.309643,0.282024,0.249816,,,,,,,0.031488,-0.013112,-0.231255,0.369454,-0.000119,-0.000279
577057,0.041374,-0.020023,-0.33281,0.087266,-0.0,-0.0,2.0,0.282024,0.314371,0.282024,0.243159,,,,,,,0.038581,-0.013115,-0.231261,0.353299,-0.00016,-0.000329
577077,0.047984,-0.020257,-0.333303,0.087266,-0.0,-0.0,2.0,0.282024,0.314979,0.282024,0.242271,,,,,,,0.045473,-0.013118,-0.231268,0.325191,-0.000194,-0.000378
577097,0.054093,-0.020447,-0.333791,0.087266,-0.0,-0.0,2.0,0.282024,0.315175,0.282024,0.241985,,,,,,,0.051964,-0.013122,-0.231276,0.297831,-0.000208,-0.000432
577117,0.059439,-0.020519,-0.334177,0.087266,-0.0,-0.0,2.0,0.282024,0.30693,0.282024,0.253456,,,,,,,0.057552,-0.013126,-0.231285,0.253652,-0.000227,-0.000469
577137,0.063682,-0.020656,-0.334477,0.087266,-0.0,-0.0,2.0,0.282024,0.29912,0.282024,0.263288,,,,,,,0.062297,-0.013131,-0.231294,0.220658,-0.000222,-0.000503
577157,0.066817,-0.02085,-0.334864,0.087266,-0.0,-0.0,2.0,0.282024,0.289796,0.282024,0.273931,,,,,,,0.06604,-0.013135,-0.231305,0.144382,-0.000225,-0.000535
577177,0.068929,-0.02085,-0.335179,0.087266,-0.0,-0.0,2.0,0.282024,0.282424,0.282024,0.281624,,,,,,,0.068794,-0.01314,-0.231316,0.10051,-0.000254,-0.000575
577197,0.07032,-0.020968,-0.335633,0.087266,-0.0,-0.0,2.0,0.282024,0.270809,0.282024,0.292631,,,,,,,0.070406,-0.013145,-0.231327,0.076338,-0.000252,-0.000607
577217,0.070947,-0.020977,-0.335894,0.087266,-0.0,-0.0,2.0,0.282024,0.260693,0.282024,0.301253,,,,,,,0.071315,-0.01315,-0.23134,0.024187,-0.000264,-0.000632
577237,0.07109,-0.021063,-0.336227,0.087266,-0.0,-0.0,2.0,0.282024,0.254065,0.282024,0.306467,,,,,,,0.071699,-0.013156,-0.231353,0.00406,-0.000282,-0.000663
577257,0.071236,-0.02115,-0.336619,0.087266,-0.0,-0.0,2.0,0.282024,0.255429,0.282024,0.305421,,,,,,,0.071966,-0.013161,-0.231366,-0.00386,-0.000264,-0.000713
577277,0.071724,-0.02105,-0.337115,0.087266,-0.0,-0.0,2.0,0.282024,0.256059,0.282024,0.304932,,,,,,,0.072207,-0.013167,-0.23138,0.02506,-0.000268,-0.000738
577297,0.072608,-0.021137,-0.337302,0.087266,-0.0,-0.0,2.0,0.282024,0.257828,0.282024,0.303547,,,,,,,0.072715,-0.013172,-0.231396,0.048128,-0.000268,-0.000768
577317,0.074098,-0.02112,-0.337526,0.087266,-0.0,-0.0,2.0,0.282024,0.268822,0.282024,0.294392,,,,,,,0.074064,-0.013177,-0.231411,0.052279,-0.000268,-0.000801
577337,0.076455,-0.02107,-0.337997,0.087266,-0.0,-0.0,2.0,0.282024,0.279085,0.282024,0.28492,,,,,,,0.075954,-0.013183,-0.231427,0.120379,-0.000265,-0.000829
577357,0.07947,-0.021285,-0.338141,0.087266,-0.0,-0.0,2.0,0.282024,0.283838,0.282024,0.280194,,,,,,,0.078447,-0.013188,-0.231444,0.15345,-0.000292,-0.00085
577377,0.083091,-0.02139,-0.338428,0.087266,-0.0,-0.0,2.0,0.282024,0.295864,0.282024,0.267131,,,,,,,0.081948,-0.013194,-0.231461,0.17651,-0.000302,-0.000871
577397,0.087475,-0.02161,-0.338666,0.087266,-0.0,-0.0,2.0,0.282024,0.306928,0.282024,0.253458,,,,,,,0.08609,-0.0132,-0.231479,0.196665,-0.000313,-0.000905
577417,0.09222,-0.021759,-0.338991,0.087266,-0.0,-0.0,2.0,0.282024,0.310275,0.282024,0.248949,,,,,,,0.090453,-0.013206,-0.231497,0.273672,-0.000328,-0.000931
577437,0.097091,-0.021885,-0.339358,0.087266,-0.0,-0.0,2.0,0.282024,0.316988,0.282024,0.239287,,,,,,,0.095443,-0.013213,-0.231516,0.224728,-0.000342,-0.000949
577457,0.101814,-0.021921,-0.339438,0.087266,-0.0,-0.0,2.0,0.282024,0.317332,0.282024,0.238767,,,,,,,0.100189,-0.01322,-0.231535,0.245613,-0.000343,-0.000972
577477,0.106304,-0.021992,-0.339694,0.087266,-0.0,-0.0,2.0,0.282024,0.318031,0.282024,0.237704,,,,,,,0.104798,-0.013227,-0.231555,0.220409,-0.000349,-0.00099
577497,0.110166,-0.022044,-0.339918,0.087266,-0.0,-0.0,2.0,0.282024,0.316318,0.282024,0.240292,,,,,,,0.109042,-0.013234,-0.231575,0.173819,-0.000363,-0.001027
577517,0.113187,-0.022248,-0.340069,0.087266,-0.0,-0.0,2.0,0.282024,0.311728,0.282024,0.246931,,,,,,,0.112523,-0.013241,-0.231595,0.152516,-0.000376,-0.001032
577537,0.115559,-0.022316,-0.340201,0.087266,-0.0,-0.0,2.0,0.282024,0.304768,0.282024,0.256271,,,,,,,0.115164,-0.013249,-0.231616,0.100319,-0.000383,-0.001038
577557,0.116929,-0.022318,-0.340286,0.087266,-0.0,-0.0,2.0,0.282024,0.297407,0.282024,0.265327,,,,,,,0.117057,-0.013257,-0.231637,0.048153,-0.000389,-0.001065
577577,0.117458,-0.022453,-0.340646,0.087266,-0.0,-0.0,2.0,0.282024,0.289282,0.282024,0.274487,,,,,,,0.118068,-0.013265,-0.231659,0.024051,-0.000396,-0.001086
577597,0.117599,-0.022537,-0.340859,0.087266,-0.0,-0.0,2.0,0.282024,0.282864,0.282024,0.281181,,,,,,,0.118329,-0.013273,-0.23168,-0.004105,-0.000393,-0.001083
577617,0.117098,-0.022494,-0.341007,0.087266,-0.0,-0.0,2.0,0.282024,0.276102,0.282024,0.287773,,,,,,,0.118069,-0.013281,-0.231702,-0.024009,-0.000396,-0.001117
577637,0.116597,-0.022444,-0.341268,0.087266,-0.0,-0.0,2.0,0.282024,0.274736,0.282024,0.289051,,,,,,,0.117568,-0.013288,-0.231725,-0.024006,-0.00039,-0.00114
577657,0.116344,-0.022351,-0.341576,0.087266,-0.0,-0.0,2.0,0.282024,0.275118,0.282024,0.288695,,,,,,,0.117067,-0.013296,-0.231747,0.004059,-0.000395,-0.001163
577677,0.116464,-0.022316,-0.341796,0.087266,-0.0,-0.0,2.0,0.282024,0.279498,0.282024,0.284518,,,,,,,0.116954,-0.013304,-0.231771,0.02392,-0.000381,-0.001179
577697,0.117114,-0.022436,-0.342036,0.087266,-0.0,-0.0,2.0,0.282024,0.288212,0.282024,0.275634,,,,,,,0.117455,-0.013312,-0.231795,0.024141,-0.000382,-0.001207
577717,0.118364,-0.022451,-0.34224,0.087266,-0.0,-0.0,2.0,0.282024,0.293256,0.282024,0.270109,,,,,,,0.118344,-0.013319,-0.231819,0.07196,-0.000385,-0.001225
577737,0.119874,-0.022543,-0.342423,0.087266,-0.0,-0.0,2.0,0.282024,0.29861,0.282024,0.263899,,,,,,,0.119734,-0.013327,-0.231844,0.095993,-0.000393,-0.001241
577757,0.121787,-0.022811,-0.342569,0.087266,-0.0,-0.0,2.0,0.282024,0.305502,0.282024,0.255324,,,,,,,0.121626,-0.013335,-0.231868,0.077788,-0.000422,-0.001249
577777,0.124018,-0.022775,-0.342704,0.087266,-0.0,-0.0,2.0,0.282024,0.308553,0.282024,0.251294,,,,,,,0.123624,-0.013344,-0.231894,0.100201,-0.00042,-0.001261
577797,0.126116,-0.02264,-0.342913,0.087266,-0.0,-0.0,2.0,0.282024,0.309608,0.282024,0.249864,,,,,,,0.125735,-0.013352,-0.231919,0.125635,-0.000414,-0.001289
577817,0.128115,-0.022637,-0.343233,0.087266,-0.0,-0.0,2.0,0.282024,0.31132,0.282024,0.247502,,,,,,,0.127875,-0.01336,-0.231945,0.096058,-0.000414,-0.001301
577837,0.129886,-0.022804,-0.343385,0.087266,-0.0,-0.0,2.0,0.282024,0.309367,0.282024,0.250192,,,,,,,0.129705,-0.013369,-0.231971,0.10422,-0.000416,-0.001314
577857,0.131115,-0.022704,-0.343475,0.087266,-0.0,-0.0,2.0,0.282024,0.308793,0.282024,0.250969,,,,,,,0.131335,-0.013377,-0.231998,0.048121,-0.000403,-0.001319
577877,0.131976,-0.022667,-0.343527,0.087266,-0.0,-0.0,2.0,0.282024,0.305086,0.282024,0.255861,,,,,,,0.132346,-0.013385,-0.232024,0.024112,-0.000409,-0.00135
577897,0.132266,-0.022848,-0.343784,0.087266,-0.0,-0.0,2.0,0.282024,0.301989,0.282024,0.259782,,,,,,,0.132996,-0.013393,-0.232051,0.000119,-0.000423,-0.00136
577917,0.132047,-0.023003,-0.343906,0.087266,-0.0,-0.0,2.0,0.282024,0.294269,0.282024,0.268962,,,,,,,0.132898,-0.013402,-0.232078,-0.00424,-0.000424,-0.001358
577937,0.131426,-0.022989,-0.343952,0.087266,-0.0,-0.0,2.0,0.282024,0.288815,0.282024,0.27499,,,,,,,0.132398,-0.01341,-0.232106,-0.024119,-0.000433,-0.001371
577957,0.130677,-0.022988,-0.344058,0.087266,-0.0,-0.0,2.0,0.282024,0.288196,0.282024,0.275652,,,,,,,0.131769,-0.013419,-0.232133,-0.024122,-0.00043,-0.001378
577977,0.129915,-0.022868,-0.344232,0.087266,-0.0,-0.0,2.0,0.282024,0.287883,0.282024,0.275985,,,,,,,0.131007,-0.013427,-0.232161,-0.024098,-0.000417,-0.001392
577997,0.129514,-0.022684,-0.344382,0.087266,-0.0,-0.0,2.0,0.282024,0.291334,0.282024,0.272249,,,,,,,0.130406,-0.013436,-0.232189,-0.02815,-0.000415,-0.001394
578017,0.129295,-0.022846,-0.344391,0.087266,-0.0,-0.0,2.0,0.282024,0.295642,0.282024,0.267387,,,,,,,0.130145,-0.013444,-0.232217,0.0,-0.000415,-0.001403
578037,0.129436,-0.022937,-0.344489,0.087266,-0.0,-0.0,2.0,0.282024,0.299759,0.282024,0.262517,,,,,,,0.130144,-0.013452,-0.232245,9.9e-05,-0.000414,-0.001412
578057,0.129796,-0.022865,-0.344579,0.087266,-0.0,-0.0,2.0,0.282024,0.302447,0.282024,0.259211,,,,,,,0.130405,-0.013461,-0.232273,0.023983,-0.000417,-0.001417
578077,0.130445,-0.022999,-0.344587,0.087266,-0.0,-0.0,2.0,0.282024,0.306438,0.282024,0.254103,,,,,,,0.130914,-0.013469,-0.232301,0.028268,-0.000432,-0.001416
578097,0.131066,-0.023012,-0.344541,0.087266,-0.0,-0.0,2.0,0.282024,0.30592,0.282024,0.25478,,,,,,,0.131436,-0.013478,-0.23233,0.047916,-0.000433,-0.001409
578117,0.131447,-0.023068,-0.344511,0.087266,-0.0,-0.0,2.0,0.282024,0.305436,0.282024,0.255409,,,,,,,0.131937,-0.013487,-0.232358,0.01983,-0.000425,-0.001403
578137,0.131546,-0.022935,-0.344397,0.087266,-0.0,-0.0,2.0,0.282024,0.302992,0.282024,0.258528,,,,,,,0.132165,-0.013495,-0.232386,0.026438,-0.000432,-0.001398
578157,0.131426,-0.022956,-0.344405,0.087266,-0.0,-0.0,2.0,0.282024,0.302899,0.282024,0.258645,,,,,,,0.132277,-0.013504,-0.232414,3e-06,-0.000419,-0.001396
578177,0.131165,-0.022887,-0.344315,0.087266,-0.0,-0.0,2.0,0.282024,0.301291,0.282024,0.260645,,,,,,,0.132037,-0.013512,-0.232441,1e-06,-0.000424,-0.001372
578197,0.130656,-0.02286,-0.344178,0.087266,-0.0,-0.0,2.0,0.282024,0.298774,0.282024,0.263704,,,,,,,0.131656,-0.01352,-0.232469,-0.024017,-0.000421,-0.001362
578217,0.129936,-0.022996,-0.344112,0.087266,-0.0,-0.0,2.0,0.282024,0.296275,0.282024,0.266653,,,,,,,0.131028,-0.013529,-0.232496,-0.028266,-0.000408,-0.001347
578237,0.129286,-0.02287,-0.34399,0.087266,-0.0,-0.0,2.0,0.282024,0.297765,0.282024,0.264905,,,,,,,0.130385,-0.013537,-0.232523,-0.02402,-0.000406,-0.001338
578257,0.128806,-0.022963,-0.343907,0.087266,-0.0,-0.0,2.0,0.282024,0.298653,0.282024,0.263848,,,,,,,0.129777,-0.013545,-0.232549,-0.024,-0.000417,-0.001322
578277,0.128397,-0.022803,-0.343657,0.087266,-0.0,-0.0,2.0,0.282024,0.299503,0.282024,0.262827,,,,,,,0.129276,-0.013554,-0.232576,-9.8e-05,-0.000411,-0.001311
578297,0.128016,-0.022755,-0.343573,0.087266,-0.0,-0.0,2.0,0.282024,0.300264,0.282024,0.261903,,,,,,,0.128887,-0.013562,-0.232602,-0.000101,-0.000406,-0.001282
578317,0.127776,-0.022805,-0.343475,0.087266,-0.0,-0.0,2.0,0.282024,0.302169,0.282024,0.259558,,,,,,,0.128647,-0.01357,-0.232627,-0.00426,-0.000398,-0.001271
578337,0.127776,-0.022805,-0.343475,0.087266,-0.0,-0.0,2.0,0.282024,0.30496,0.282024,0.256024,,,,,,,0.128506,-0.013578,-0.232653,0.0,-0.0004,-0.001269
578357,0.127776,-0.022813,-0.343362,0.087266,-0.0,-0.0,2.0,0.282024,0.306125,0.282024,0.254512,,,,,,,0.128498,-0.013586,-0.232678,0.001572,-0.0004,-0.001255
578377,0.127627,-0.022722,-0.343202,0.087266,-0.0,-0.0,2.0,0.282024,0.305747,0.282024,0.255005,,,,,,,0.128378,-0.013594,-0.232703,1.8e-05,-0.000402,-0.001236
578397,0.127627,-0.02273,-0.343089,0.087266,-0.0,-0.0,2.0,0.282024,0.307364,0.282024,0.252882,,,,,,,0.128378,-0.013602,-0.232728,-6e-06,-0.000402,-0.001222
578417,0.127527,-0.022871,-0.34309,0.087266,-0.0,-0.0,2.0,0.282024,0.305547,0.282024,0.255265,,,,,,,0.128258,-0.01361,-0.232752,-0.004251,-0.000391,-0.001221
578437,0.127147,-0.022823,-0.343006,0.087266,-0.0,-0.0,2.0,0.282024,0.30652,0.282024,0.253996,,,,,,,0.128117,-0.013618,-0.232776,-0.023924,-0.000395,-0.001209
578457,0.126758,-0.022774,-0.342861,0.087266,-0.0,-0.0,2.0,0.282024,0.304629,0.282024,0.256449,,,,,,,0.127729,-0.013626,-0.2328,-0.024027,-0.00039,-0.001192
578477,0.126257,-0.022747,-0.342785,0.087266,-0.0,-0.0,2.0,0.282024,0.30393,0.282024,0.257341,,,,,,,0.127228,-0.013633,-0.232824,-0.024009,-0.000386,-0.001182
578497,0.125487,-0.022641,-0.342669,0.087266,-0.0,-0.0,2.0,0.282024,0.30288,0.282024,0.258669,,,,,,,0.126607,-0.013641,-0.232848,-0.02556,-0.000385,-0.001167
578517,0.124746,-0.022656,-0.342608,0.087266,-0.0,-0.0,2.0,0.282024,0.301601,0.282024,0.260263,,,,,,,0.125879,-0.013649,-0.232871,-0.052158,-0.000388,-0.001159
578537,0.123778,-0.022833,-0.342492,0.087266,-0.0,-0.0,2.0,0.282024,0.3,0.282024,0.262226,,,,,,,0.124989,-0.013656,-0.232894,-0.024124,-0.000388,-0.001144
578557,0.122789,-0.02289,-0.342384,0.087266,-0.0,-0.0,2.0,0.282024,0.298942,0.282024,0.263502,,,,,,,0.124008,-0.013664,-0.232917,-0.049556,-0.000395,-0.001132
578577,0.121646,-0.022727,-0.342356,0.087266,-0.0,-0.0,2.0,0.282024,0.296492,0.282024,0.2664,,,,,,,0.122879,-0.013672,-0.23294,-0.024226,-0.000388,-0.001126
578597,0.120537,-0.022805,-0.342254,0.087266,-0.0,-0.0,2.0,0.282024,0.298428,0.282024,0.264117,,,,,,,0.121869,-0.01368,-0.232962,-0.04804,-0.000383,-0.001114
578617,0.119527,-0.022741,-0.34215,0.087266,-0.0,-0.0,2.0,0.282024,0.299542,0.282024,0.262779,,,,,,,0.120867,-0.013687,-0.232984,-0.073444,-0.000378,-0.001102
578637,0.118497,-0.022557,-0.342052,0.087266,-0.0,-0.0,2.0,0.282024,0.298832,0.282024,0.263634,,,,,,,0.119758,-0.013695,-0.233006,-0.052167,-0.00037,-0.001107
578657,0.117657,-0.022705,-0.342102,0.087266,-0.0,-0.0,2.0,0.282024,0.299333,0.282024,0.263032,,,,,,,0.118769,-0.013702,-0.233028,-0.028247,-0.000373,-0.001093
578677,0.116788,-0.022739,-0.341983,0.087266,-0.0,-0.0,2.0,0.282024,0.301772,0.282024,0.260051,,,,,,,0.118006,-0.01371,-0.23305,-0.052068,-0.000364,-0.001085
578697,0.116167,-0.022732,-0.341911,0.087266,-0.0,-0.0,2.0,0.282024,0.302729,0.282024,0.258858,,,,,,,0.117258,-0.013717,-0.233072,-0.047951,-0.000376,-0.00107
578717,0.115545,-0.022724,-0.341839,0.087266,-0.0,-0.0,2.0,0.282024,0.303668,0.282024,0.257674,,,,,,,0.116636,-0.013725,-0.233093,-0.0438,-0.000386,-0.001071
578737,0.115157,-0.022667,-0.341805,0.087266,-0.0,-0.0,2.0,0.282024,0.305385,0.282024,0.255475,,,,,,,0.116149,-0.013732,-0.233114,-0.024,-0.00038,-0.001054
578757,0.114917,-0.022717,-0.341705,0.087266,-0.0,-0.0,2.0,0.282024,0.304584,0.282024,0.256506,,,,,,,0.115647,-0.01374,-0.233135,-9.8e-05,-0.000375,-0.001044
578777,0.114536,-0.02266,-0.341732,0.087266,-0.0,-0.0,2.0,0.282024,0.3057,0.282024,0.255066,,,,,,,0.115407,-0.013747,-0.233156,-0.028149,-0.000368,-0.001044
578797,0.114154,-0.02261,-0.341646,0.087266,-0.0,-0.0,2.0,0.282024,0.305234,0.282024,0.25567,,,,,,,0.115006,-0.013755,-0.233177,-0.000115,-0.00036,-0.001044
578817,0.113907,-0.022652,-0.341599,0.087266,-0.0,-0.0,2.0,0.282024,0.306308,0.282024,0.254273,,,,,,,0.114745,-0.013762,-0.233198,-0.021349,-0.000366,-0.001027
578837,0.113526,-0.022595,-0.341626,0.087266,-0.0,-0.0,2.0,0.282024,0.307116,0.282024,0.253211,,,,,,,0.114497,-0.013769,-0.233218,-0.024018,-0.000358,-0.001027
578857,0.113145,-0.022538,-0.341652,0.087266,-0.0,-0.0,2.0,0.282024,0.30826,0.282024,0.251687,,,,,,,0.114136,-0.013776,-0.233239,-0.023905,-0.000363,-0.001027
578877,0.112644,-0.022502,-0.341686,0.087266,-0.0,-0.0,2.0,0.282024,0.30341,0.282024,0.258001,,,,,,,0.113516,-0.013783,-0.23326,-0.000234,-0.00036,-0.001017
578897,0.112036,-0.022614,-0.341545,0.087266,-0.0,-0.0,2.0,0.282024,0.303632,0.282024,0.25772,,,,,,,0.113036,-0.013791,-0.23328,-0.02964,-0.000357,-0.001024
578917,0.111295,-0.022614,-0.341705,0.087266,-0.0,-0.0,2.0,0.282024,0.303968,0.282024,0.257294,,,,,,,0.112386,-0.013798,-0.2333,-0.024037,-0.000354,-0.001026
578937,0.110434,-0.022648,-0.341645,0.087266,-0.0,-0.0,2.0,0.282024,0.303144,0.282024,0.258337,,,,,,,0.111624,-0.013805,-0.233321,-0.043831,-0.000357,-0.001018
578957,0.109545,-0.022555,-0.341642,0.087266,-0.0,-0.0,2.0,0.282024,0.300603,0.282024,0.26149,,,,,,,0.110657,-0.013812,-0.233341,-0.028254,-0.000347,-0.001016
578977,0.108662,-0.022462,-0.3417,0.087266,-0.0,-0.0,2.0,0.282024,0.303057,0.282024,0.258446,,,,,,,0.109894,-0.013819,-0.233362,-0.047946,-0.000349,-0.001019
578997,0.107653,-0.02239,-0.341704,0.087266,-0.0,-0.0,2.0,0.282024,0.300683,0.282024,0.261392,,,,,,,0.108913,-0.013826,-0.233382,-0.048029,-0.000353,-0.001023
579017,0.106672,-0.022431,-0.341875,0.087266,-0.0,-0.0,2.0,0.282024,0.30018,0.282024,0.262007,,,,,,,0.107925,-0.013833,-0.233403,-0.05631,-0.000333,-0.001033
579037,0.105831,-0.022579,-0.34192,0.087266,-0.0,-0.0,2.0,0.282024,0.299863,0.282024,0.262391,,,,,,,0.106923,-0.013839,-0.233423,-0.052182,-0.000337,-0.001036
579057,0.104942,-0.022485,-0.341916,0.087266,-0.0,-0.0,2.0,0.282024,0.299683,0.282024,0.262609,,,,,,,0.106034,-0.013846,-0.233444,-0.048068,-0.000339,-0.001033
579077,0.10394,-0.022407,-0.342091,0.087266,-0.0,-0.0,2.0,0.282024,0.300564,0.282024,0.261538,,,,,,,0.105151,-0.013853,-0.233465,-0.043851,-0.000341,-0.001036
579097,0.103219,-0.022533,-0.342129,0.087266,-0.0,-0.0,2.0,0.282024,0.300831,0.282024,0.261212,,,,,,,0.104311,-0.01386,-0.233486,-0.048034,-0.000342,-0.00105
579117,0.10245,-0.022419,-0.342117,0.087266,-0.0,-0.0,2.0,0.282024,0.301214,0.282024,0.260741,,,,,,,0.103569,-0.013866,-0.233507,-0.024107,-0.00034,-0.001052
579137,0.101949,-0.022377,-0.342261,0.087266,-0.0,-0.0,2.0,0.282024,0.302883,0.282024,0.258664,,,,,,,0.102941,-0.013873,-0.233528,-0.028178,-0.000326,-0.001048
579157,0.101448,-0.022341,-0.342291,0.087266,-0.0,-0.0,2.0,0.282024,0.301387,0.282024,0.260528,,,,,,,0.10232,-0.01388,-0.233549,-0.028258,-0.000323,-0.001061
579177,0.100848,-0.022446,-0.342323,0.087266,-0.0,-0.0,2.0,0.282024,0.302689,0.282024,0.258909,,,,,,,0.101798,-0.013886,-0.23357,0.004023,-0.000329,-0.001061
579197,0.100466,-0.022389,-0.342346,0.087266,-0.0,-0.0,2.0,0.282024,0.302899,0.282024,0.258644,,,,,,,0.101297,-0.013893,-0.233591,0.004021,-0.000325,-0.001062
579217,0.100079,-0.022332,-0.342309,0.087266,-0.0,-0.0,2.0,0.282024,0.304278,0.282024,0.256897,,,,,,,0.100957,-0.013899,-0.233612,-0.024009,-0.000332,-0.001062
579237,0.099598,-0.022422,-0.342221,0.087266,-0.0,-0.0,2.0,0.282024,0.30432,0.282024,0.256844,,,,,,,0.10057,-0.013906,-0.233633,-9.8e-05,-0.000324,-0.001056
579257,0.099217,-0.022365,-0.342244,0.087266,-0.0,-0.0,2.0,0.282024,0.305838,0.282024,0.254886,,,,,,,0.100208,-0.013912,-0.233654,-0.028067,-0.00032,-0.001045
579277,0.098715,-0.022336,-0.342161,0.087266,-0.0,-0.0,2.0,0.282024,0.303737,0.282024,0.257587,,,,,,,0.099708,-0.013919,-0.233675,-0.028164,-0.000316,-0.001046
579297,0.098208,-0.022299,-0.342129,0.087266,-0.0,-0.0,2.0,0.282024,0.303106,0.282024,0.258384,,,,,,,0.099186,-0.013925,-0.233696,-0.024047,-0.000312,-0.001047
579317,0.097586,-0.022284,-0.342165,0.087266,-0.0,-0.0,2.0,0.282024,0.302998,0.282024,0.258521,,,,,,,0.098678,-0.013931,-0.233717,-0.019909,-0.00032,-0.00103
579337,0.096985,-0.022395,-0.342082,0.087266,-0.0,-0.0,2.0,0.282024,0.302556,0.282024,0.259075,,,,,,,0.098077,-0.013938,-0.233737,-0.04796,-0.000321,-0.001021
579357,0.096217,-0.022287,-0.341954,0.087266,-0.0,-0.0,2.0,0.282024,0.302517,0.282024,0.259124,,,,,,,0.097455,-0.013944,-0.233758,-0.049163,-0.000319,-0.001016
579377,0.095595,-0.022278,-0.341875,0.087266,-0.0,-0.0,2.0,0.282024,0.302179,0.282024,0.259545,,,,,,,0.096728,-0.01395,-0.233778,-0.052147,-0.00032,-0.000995
579397,0.094747,-0.02243,-0.341742,0.087266,-0.0,-0.0,2.0,0.282024,0.298582,0.282024,0.263933,,,,,,,0.095866,-0.013957,-0.233798,-0.056327,-0.00031,-0.000999
579417,0.093745,-0.022358,-0.341799,0.087266,-0.0,-0.0,2.0,0.282024,0.297744,0.282024,0.264929,,,,,,,0.094977,-0.013963,-0.233818,-0.052192,-0.000312,-0.000984
579437,0.092877,-0.02239,-0.34167,0.087266,-0.0,-0.0,2.0,0.282024,0.296454,0.282024,0.266444,,,,,,,0.093974,-0.013969,-0.233837,-0.048081,-0.000317,-0.000976
579457,0.091894,-0.022444,-0.341608,0.087266,-0.0,-0.0,2.0,0.282024,0.297895,0.282024,0.264751,,,,,,,0.093106,-0.013976,-0.233857,-0.047983,-0.00032,-0.000961
579477,0.090985,-0.022236,-0.341489,0.087266,-0.0,-0.0,2.0,0.282024,0.297495,0.282024,0.265223,,,,,,,0.092244,-0.013982,-0.233876,-0.048132,-0.000322,-0.000952
579497,0.090243,-0.022241,-0.341527,0.087266,-0.0,-0.0,2.0,0.282024,0.296918,0.282024,0.265902,,,,,,,0.091356,-0.013988,-0.233895,-0.024133,-0.00031,-0.000948
579517,0.089642,-0.022352,-0.341442,0.087266,-0.0,-0.0,2.0,0.282024,0.299234,0.282024,0.263151,,,,,,,0.090733,-0.013994,-0.233914,-0.052194,-0.000299,-0.000928
579537,0.089114,-0.0222,-0.3413,0.087266,-0.0,-0.0,2.0,0.282024,0.299534,0.282024,0.262789,,,,,,,0.090106,-0.014,-0.233932,-0.024039,-0.000307,-0.000923
579557,0.088633,-0.022284,-0.341322,0.087266,-0.0,-0.0,2.0,0.282024,0.299614,0.282024,0.262693,,,,,,,0.089604,-0.014007,-0.233951,-0.024053,-0.000303,-0.000923
579577,0.088251,-0.022232,-0.34123,0.087266,-0.0,-0.0,2.0,0.282024,0.302378,0.282024,0.259298,,,,,,,0.089243,-0.014013,-0.233969,-0.028044,-0.000297,-0.000912
