time_ms,roll,pitch,yaw,reference_roll,reference_pitch,reference_yaw,reference_throttle,throttle_1,throttle_2,throttle_3,throttle_4,roll_predicted,pitch_predicted,yaw_predicted,roll_rate_predicted,pitch_rate_predicted,yaw_rate_predicted,value1,value2,value3,value4,value5,value6
223974,-5e-06,-0.017213,-0.013553,-0.0,-0.0,-0.0,3.0,0.3261,0.312755,0.3261,0.338742,-0.0,-938.829815,-0.0,-0.0,-10.906189,-0.0,-0.001219,-0.018321,-0.009342,-0.048536,-1.8e-05,-3.3e-05
223994,-0.000373,-0.016971,-0.013556,0.0,-0.0,-0.0,3.0,0.3261,0.31496,0.3261,0.336746,-0.0,-939.048694,-0.0,-0.0,-10.997733,-0.0,-0.001098,-0.018321,-0.009343,-0.071916,-6e-06,-3.3e-05
224014,-0.000862,-0.016852,-0.01356,0.0,-0.0,-0.0,3.0,0.3261,0.314615,0.3261,0.337061,-0.0,-939.269063,-0.0,-0.0,-11.042971,-0.0,-0.001216,-0.018321,-0.009343,-0.04926,-6e-06,-3.3e-05
224034,-0.000985,-0.016975,-0.013439,0.0,-0.0,-0.0,3.0,0.3261,0.317729,0.3261,0.334189,-0.0,-939.489973,-0.0,-0.0,-11.039482,-0.0,-0.001225,-0.018322,-0.009344,-0.047753,-6e-06,-2.1e-05
224054,-0.001106,-0.017098,-0.01344,0.0,-0.0,-0.0,3.0,0.3261,0.319444,0.3261,0.332577,-0.0,-939.710447,-0.0,-0.0,-10.987398,-0.0,-0.001359,-0.018322,-0.009344,-0.068755,-6e-06,-2.1e-05
224074,-0.00135,-0.0171,-0.013442,0.0,-0.0,-0.0,3.0,0.3261,0.318822,0.3261,0.333164,-0.0,-939.929528,-0.0,-0.0,-10.889404,-0.0,-0.00173,-0.018322,-0.009345,-0.020993,-1.9e-05,-9e-06
224094,-0.001472,-0.0171,-0.013443,0.0,-0.0,-0.0,3.0,0.3261,0.314938,0.3261,0.336766,-0.0,-940.146334,-0.0,-0.0,-10.750523,-0.0,-0.00233,-0.018323,-0.009345,0.047764,-4.3e-05,-9e-06
224114,-0.001594,-0.017223,-0.013322,0.0,-0.0,-0.0,3.0,0.3261,0.313376,0.3261,0.338183,-0.0,-940.360095,-0.0,-0.0,-10.5777,-0.0,-0.002566,-0.018324,-0.009346,0.04587,-7e-06,-2.1e-05
224134,-0.001718,-0.01698,-0.013323,0.0,-0.0,-0.0,3.0,0.3261,0.312683,0.3261,0.338806,-0.0,-940.570194,-0.0,-0.0,-10.379271,-0.0,-0.002809,-0.018324,-0.009346,0.022046,5e-06,-2.1e-05
224154,-0.001841,-0.016859,-0.013324,0.0,-0.0,-0.0,3.0,0.3261,0.313131,0.3261,0.338404,-0.0,-940.776186,-0.0,-0.0,-10.164368,-0.0,-0.002931,-0.018325,-0.009346,-0.001271,-7e-06,-2.2e-05
224174,-0.001963,-0.016737,-0.013447,0.0,-0.0,-0.0,3.0,0.3261,0.31422,0.3261,0.33742,0.0,-940.977812,-0.0,0.0,-9.942357,-0.0,-0.00293,-0.018325,-0.009347,0.022233,-1.9e-05,-2.1e-05
224194,-0.001963,-0.016737,-0.013447,0.0,-0.0,-0.0,3.0,0.3261,0.313862,0.3261,0.337745,0.0,-941.174999,-0.0,-0.0,-9.722332,-0.0,-0.002926,-0.018325,-0.009347,0.044888,-1.9e-05,-2.1e-05
224214,-0.00184,-0.016859,-0.013446,0.0,-0.0,-0.0,3.0,0.3261,0.31363,0.3261,0.337954,0.0,-941.367851,-0.0,-0.0,-9.512733,-0.0,-0.002925,-0.018326,-0.009347,0.044899,-3.1e-05,-2.1e-05
224234,-0.00184,-0.016859,-0.013446,0.0,-0.0,-0.0,3.0,0.3261,0.314553,0.3261,0.337118,-0.0,-941.556635,-0.0,-0.0,-9.321073,-0.0,-0.002808,-0.018326,-0.009348,-0.024225,-5.6e-05,-2.2e-05
224254,-0.001838,-0.017103,-0.013446,0.0,-0.0,-0.0,3.0,0.3261,0.315416,0.3261,0.336329,-0.0,-941.741759,-0.0,-0.0,-9.153771,-0.0,-0.002815,-0.018327,-0.009348,-0.046654,-4.3e-05,-2.2e-05
224274,-0.002082,-0.017104,-0.013448,0.0,-0.0,-0.0,3.0,0.3261,0.315018,0.3261,0.336693,-0.0,-941.923752,-0.0,-0.0,-9.01608,-0.0,-0.002812,-0.018327,-0.009349,-0.023916,-4.3e-05,-9e-06
224294,-0.002203,-0.017349,-0.013449,0.0,-0.0,-0.0,3.0,0.3261,0.316175,0.3261,0.335631,-0.0,-942.103238,-0.0,-0.0,-8.912077,-0.0,-0.002817,-0.018327,-0.009349,-0.04632,-4.3e-05,-9e-06
224314,-0.002326,-0.017351,-0.013331,0.0,-0.0,-0.0,3.0,0.3261,0.316104,0.3261,0.335697,-0.0,-942.280916,-0.0,-0.0,-8.844687,-0.0,-0.002939,-0.018328,-0.009349,0.000482,-4.3e-05,-9e-06
224334,-0.002325,-0.017351,-0.013453,0.0,-0.0,-0.0,3.0,0.3261,0.315614,0.3261,0.336147,-0.0,-942.457531,-0.0,-0.0,-8.815721,-0.0,-0.003061,-0.018329,-0.009349,0.000318,-1.9e-05,-9e-06
224354,-0.002204,-0.017227,-0.013449,0.0,-0.0,-0.0,3.0,0.3261,0.31659,0.3261,0.335248,-0.0,-942.633861,-0.0,-0.0,-8.825916,-0.0,-0.003065,-0.018329,-0.00935,-0.022606,-7e-06,-9e-06
224374,-0.002449,-0.016985,-0.013451,0.0,-0.0,-0.0,3.0,0.3261,0.314921,0.3261,0.336782,-0.0,-942.810687,-0.0,-0.0,-8.874957,-0.0,-0.003182,-0.01833,-0.00935,-0.023729,6e-06,-9e-06
224394,-0.002571,-0.016986,-0.013452,0.0,-0.0,-0.0,3.0,0.3261,0.313738,0.3261,0.337857,-0.0,-942.988778,-0.0,-0.0,-8.961481,-0.0,-0.00342,-0.01833,-0.00935,0.022054,6e-06,-9e-06
224414,-0.002573,-0.016863,-0.01333,0.0,-0.0,-0.0,3.0,0.3261,0.315244,0.3261,0.336486,-0.0,-943.168867,-0.0,-0.0,-9.083062,-0.0,-0.003298,-0.01833,-0.009351,-0.001529,6e-06,-9e-06
224434,-0.002453,-0.016618,-0.013329,0.0,-0.0,-0.0,3.0,0.3261,0.320033,0.3261,0.332018,-0.0,-943.351631,-0.0,-0.0,-9.236186,-0.0,-0.003075,-0.018331,-0.009351,-0.067527,6e-06,-2.1e-05
224454,-0.002573,-0.016863,-0.01333,0.0,-0.0,-0.0,3.0,0.3261,0.319955,0.3261,0.332092,-0.0,-943.537667,-0.0,-0.0,-9.416223,-0.0,-0.003075,-0.018331,-0.009352,0.003259,-1.9e-05,-2.1e-05
224474,-0.002452,-0.016741,-0.013329,0.0,-0.0,-0.0,3.0,0.3261,0.316242,0.3261,0.335569,-0.0,-943.727472,-0.0,-0.0,-9.617426,-0.0,-0.003307,-0.018331,-0.009352,0.094687,-1.8e-05,-2.1e-05
224494,-0.002083,-0.016982,-0.013448,0.0,-0.0,-0.0,3.0,0.3261,0.312547,0.3261,0.338929,-0.0,-943.921421,-0.0,-0.0,-9.832959,-0.0,-0.003541,-0.018332,-0.009352,0.1165,-3.1e-05,-2.1e-05
224514,-0.00184,-0.016859,-0.013446,0.0,-0.0,-0.0,3.0,0.3261,0.313107,0.3261,0.338426,0.0,-944.119742,-0.0,0.0,-10.055006,-0.0,-0.003424,-0.018332,-0.009353,0.070204,-6e-06,-2.1e-05
224534,-0.002083,-0.016982,-0.013448,0.0,-0.0,-0.0,3.0,0.3261,0.310825,0.3261,0.34046,0.0,-944.322502,-0.0,-0.0,-10.27496,-0.0,-0.003416,-0.018332,-0.009353,0.021903,-3.1e-05,-2.1e-05
224554,-0.002083,-0.016982,-0.013448,0.0,-0.0,-0.0,3.0,0.3261,0.310407,0.3261,0.340829,0.0,-944.529591,-0.0,-0.0,-10.483716,-0.0,-0.003407,-0.018332,-0.009353,-0.003495,-3.1e-05,-9e-06
224574,-0.002205,-0.016983,-0.013449,0.0,-0.0,-0.0,3.0,0.3261,0.314361,0.3261,0.337292,-0.0,-944.740717,-0.0,-0.0,-10.67209,-0.0,-0.00305,-0.018333,-0.009354,-0.072225,-1.9e-05,-2.1e-05
224594,-0.002206,-0.016983,-0.013327,0.0,-0.0,-0.0,3.0,0.3261,0.316781,0.3261,0.335071,-0.0,-944.955405,-0.0,-0.0,-10.831315,-0.0,-0.002811,-0.018333,-0.009354,-0.071079,-1.8e-05,-2.1e-05
224614,-0.002205,-0.016983,-0.013449,0.0,-0.0,-0.0,3.0,0.3261,0.320689,0.3261,0.331392,-0.0,-945.173012,-0.0,-0.0,-10.953615,-0.0,-0.002459,-0.018333,-0.009354,-0.068245,-3e-05,-2.1e-05
224634,-0.001961,-0.016982,-0.013447,0.0,-0.0,-0.0,3.0,0.3261,0.320529,0.3261,0.331545,-0.0,-945.392749,-0.0,-0.0,-11.032773,-0.0,-0.002464,-0.018334,-0.009355,-0.020215,-3e-05,-2e-05
224654,-0.001716,-0.017102,-0.013445,0.0,-0.0,-0.0,3.0,0.3261,0.320292,0.3261,0.331771,-0.0,-945.61372,-0.0,-0.0,-11.064634,-0.0,-0.002343,-0.018334,-0.009355,0.026558,-5e-06,-2e-05
224674,-0.00135,-0.0171,-0.013442,0.0,-0.0,-0.0,3.0,0.3261,0.315998,0.3261,0.335794,-0.0,-945.83496,-0.0,-0.0,-11.047466,-0.0,-0.002452,-0.018334,-0.009355,0.094253,-5e-06,-8e-06
224694,-0.000985,-0.016975,-0.013439,0.0,-0.0,-0.0,3.0,0.3261,0.314419,0.3261,0.337239,-0.0,-946.055493,-0.0,-0.0,-10.982126,-0.0,-0.002324,-0.018334,-0.009356,0.069289,7e-06,5e-06
224714,-0.000742,-0.016973,-0.013315,0.0,-0.0,-0.0,3.0,0.3261,0.31582,0.3261,0.335958,-0.0,-946.274376,-0.0,-0.0,-10.871996,-0.0,-0.002088,-0.018334,-0.009356,0.000455,1.9e-05,-8e-06
224734,-0.000864,-0.016852,-0.013316,0.0,-0.0,-0.0,3.0,0.3261,0.315921,0.3261,0.335865,-0.0,-946.490752,-0.0,-0.0,-10.722706,-0.0,-0.001837,-0.018335,-0.009356,-0.024175,1.9e-05,-2e-05
224754,-0.000987,-0.016731,-0.013316,0.0,-0.0,-0.0,3.0,0.3261,0.315157,0.3261,0.336566,-0.0,-946.703891,-0.0,-0.0,-10.541677,-0.0,-0.001832,-0.018335,-0.009357,0.022102,-5e-06,-2e-05
224774,-0.000867,-0.016486,-0.013315,0.0,-0.0,-0.0,3.0,0.3261,0.315961,0.3261,0.335829,-0.0,-946.913223,-0.0,-0.0,-10.337561,-0.0,-0.001709,-0.018336,-0.009357,0.022014,-5e-06,-1.9e-05
224794,-0.00062,-0.016728,-0.013436,0.0,-0.0,-0.0,3.0,0.3261,0.318233,0.3261,0.333718,-0.0,-947.118354,-0.0,-0.0,-10.119646,-0.0,-0.001474,-0.018336,-0.009357,0.000695,-2.9e-05,-3.1e-05
224814,-0.000497,-0.016728,-0.013557,0.0,-0.0,-0.0,3.0,0.3261,0.319173,0.3261,0.332833,0.0,-947.319079,-0.0,0.0,-9.897298,-0.0,-0.001362,-0.018336,-0.009358,0.002854,-5.3e-05,-1.9e-05
224834,-0.000373,-0.016971,-0.013556,0.0,-0.0,-0.0,3.0,0.3261,0.315623,0.3261,0.336139,0.0,-947.515378,-0.0,-0.0,-9.679493,-0.0,-0.001471,-0.018336,-0.009358,0.023955,-6.6e-05,-1.9e-05
224854,-0.000128,-0.017335,-0.013432,0.0,-0.0,-0.0,3.0,0.3261,0.313839,0.3261,0.337765,-0.0,-947.707404,-0.0,-0.0,-9.474454,-0.0,-0.001463,-0.018337,-0.009358,0.045637,-4.1e-05,-1.9e-05
224874,-0.000128,-0.017335,-0.013432,0.0,-0.0,-0.0,3.0,0.3261,0.313386,0.3261,0.338175,-0.0,-947.895469,-0.0,-0.0,-9.289417,-0.0,-0.001341,-0.018337,-0.009359,-0.024836,-4.1e-05,-1.9e-05
224894,-0.00025,-0.017336,-0.013433,0.0,-0.0,-0.0,3.0,0.3261,0.315871,0.3261,0.335911,-0.0,-948.08002,-0.0,-0.0,-9.130487,-0.0,-0.001104,-0.018338,-0.009359,-0.047374,-1.7e-05,-1.9e-05
224914,-0.000251,-0.017214,-0.013433,0.0,-0.0,-0.0,3.0,0.3261,0.316745,0.3261,0.335104,-0.0,-948.261619,-0.0,-0.0,-9.002589,-0.0,-0.000981,-0.018338,-0.009359,-0.024202,-1.6e-05,-7e-06
224934,-0.000375,-0.017093,-0.013311,0.0,-0.0,-0.0,3.0,0.3261,0.317848,0.3261,0.334078,-0.0,-948.440916,-0.0,-0.0,-8.90947,-0.0,-0.000736,-0.018339,-0.00936,-0.04794,-4e-06,-6e-06
224954,-0.00013,-0.016969,-0.013431,0.0,-0.0,-0.0,3.0,0.3261,0.319138,0.3261,0.332867,-0.0,-948.618627,-0.0,-0.0,-8.853723,-0.0,-0.000745,-0.018339,-0.00936,-0.022822,-4e-06,-6e-06
224974,-8e-06,-0.016968,-0.01343,0.0,-0.0,-0.0,3.0,0.3261,0.319767,0.3261,0.332271,-0.0,-948.795513,-0.0,-0.0,-8.836838,-0.0,-0.000627,-0.01834,-0.00936,-0.021855,-1.6e-05,-6e-06
224994,0.000114,-0.016968,-0.013429,0.0,-0.0,-0.0,3.0,0.3261,0.319757,0.3261,0.33228,-0.0,-948.972357,-0.0,-0.0,-8.859225,-0.0,-0.000631,-0.01834,-0.00936,0.002479,-1.6e-05,-6e-06
225014,0.000114,-0.01709,-0.013307,0.0,-0.0,-0.0,3.0,0.3261,0.319253,0.3261,0.332758,-0.0,-949.14994,-0.0,-0.0,-8.920241,-0.0,-0.000629,-0.01834,-0.009361,0.025782,-1.6e-05,-1.8e-05
225034,0.000236,-0.016967,-0.013428,0.0,-0.0,-0.0,3.0,0.3261,0.316885,0.3261,0.334975,-0.0,-949.329023,-0.0,-0.0,-9.018181,-0.0,-0.000742,-0.018341,-0.009361,0.047682,-1.6e-05,-3e-05
225054,0.000479,-0.016843,-0.013426,0.0,-0.0,-0.0,3.0,0.3261,0.314436,0.3261,0.337224,-0.0,-949.510327,-0.0,-0.0,-9.150263,-0.0,-0.000855,-0.018341,-0.009362,0.092848,-1.6e-05,-3e-05
225074,0.00048,-0.016843,-0.013548,0.0,-0.0,-0.0,3.0,0.3261,0.314265,0.3261,0.337379,-0.0,-949.694506,-0.0,-0.0,-9.312597,-0.0,-0.000734,-0.018342,-0.009362,0.06934,-3e-06,-3e-05
225094,0.000724,-0.016841,-0.013546,0.0,-0.0,-0.0,3.0,0.3261,0.315482,0.3261,0.336269,-0.0,-949.88213,-0.0,-0.0,-9.500168,-0.0,-0.000616,-0.018342,-0.009363,0.023326,-1.6e-05,-3e-05
225114,0.000723,-0.016841,-0.013424,0.0,-0.0,-0.0,3.0,0.3261,0.314875,0.3261,0.336823,-0.0,-950.073659,-0.0,-0.0,-9.706841,-0.0,-0.000491,-0.018342,-0.009363,-0.000948,-1.6e-05,-1.8e-05
225134,0.000723,-0.016841,-0.013424,0.0,-0.0,-0.0,3.0,0.3261,0.314875,0.3261,0.336824,-0.0,-950.269422,-0.0,0.0,-9.925415,-0.0,-0.000364,-0.018342,-0.009363,0.021682,-2.8e-05,-5e-06
225154,0.000845,-0.016963,-0.013301,0.0,-0.0,-0.0,3.0,0.3261,0.31664,0.3261,0.335202,0.0,-950.469599,-0.0,0.0,-10.147753,-0.0,-0.0,-0.018342,-0.009364,-0.048375,-2.8e-05,-5e-06
225174,0.000724,-0.017086,-0.013302,0.0,-0.0,-0.0,3.0,0.3261,0.319377,0.3261,0.33264,0.0,-950.674199,-0.0,-0.0,-10.365011,-0.0,0.000231,-0.018343,-0.009364,-0.092831,-2.8e-05,-5e-06
225194,0.000724,-0.017086,-0.013302,0.0,-0.0,-0.0,3.0,0.3261,0.321769,0.3261,0.330354,-0.0,-950.883051,-0.0,-0.0,-10.567975,-0.0,0.000342,-0.018343,-0.009364,-0.067208,-2.7e-05,-5e-06
225214,0.000603,-0.017209,-0.013303,0.0,-0.0,-0.0,3.0,0.3261,0.319345,0.3261,0.33267,-0.0,-951.0958,-0.0,-0.0,-10.747507,-0.0,0.000228,-0.018343,-0.009364,0.001443,-1.5e-05,-5e-06
225234,0.000848,-0.017329,-0.013301,0.0,-0.0,-0.0,3.0,0.3261,0.317154,0.3261,0.334725,-0.0,-951.311913,-0.0,-0.0,-10.895081,-0.0,-8e-06,-0.018344,-0.009364,0.047008,-1.5e-05,-5e-06
225254,0.000968,-0.016962,-0.013422,0.0,-0.0,-0.0,3.0,0.3261,0.317892,0.3261,0.334037,-0.0,-951.530693,-0.0,-0.0,-11.003363,-0.0,-1.8e-05,-0.018344,-0.009364,0.025062,9e-06,-5e-06
225274,0.000845,-0.016841,-0.013423,0.0,-0.0,-0.0,3.0,0.3261,0.316877,0.3261,0.334982,-0.0,-951.751309,-0.0,-0.0,-11.066766,-0.0,-0.000139,-0.018345,-0.009364,0.001533,9e-06,-1.7e-05
225294,0.000844,-0.016597,-0.013423,0.0,-0.0,-0.0,3.0,0.3261,0.313509,0.3261,0.338064,-0.0,-951.972835,-0.0,-0.0,-11.081919,-0.0,-0.000364,-0.018345,-0.009365,0.04461,2.1e-05,-1.7e-05
225314,0.000722,-0.016597,-0.013424,0.0,-0.0,-0.0,3.0,0.3261,0.312949,0.3261,0.338568,-0.0,-952.194295,-0.0,-0.0,-11.047966,-0.0,-0.000358,-0.018345,-0.009365,0.020138,2.1e-05,-3e-05
225334,0.000721,-0.016475,-0.013424,0.0,-0.0,-0.0,3.0,0.3261,0.31563,0.3261,0.336133,-0.0,-952.414716,-0.0,-0.0,-10.966656,-0.0,-0.000244,-0.018345,-0.009366,-0.024849,-3e-06,-3e-05
225354,0.000478,-0.016599,-0.013426,0.0,-0.0,-0.0,3.0,0.3261,0.317358,0.3261,0.334535,-0.0,-952.633179,-0.0,-0.0,-10.8422,-0.0,-0.000127,-0.018345,-0.009366,-0.023614,-2.7e-05,-3e-05
225374,0.00048,-0.016843,-0.013548,0.0,-0.0,-0.0,3.0,0.3261,0.318598,0.3261,0.333375,-0.0,-952.848865,-0.0,-0.0,-10.680929,-0.0,-0.000132,-0.018345,-0.009367,0.00117,-5.2e-05,-2.9e-05
225394,0.000847,-0.016963,-0.013545,0.0,-0.0,-0.0,3.0,0.3261,0.318498,0.3261,0.333469,-0.0,-953.061096,-0.0,-0.0,-10.490784,-0.0,-0.000135,-0.018345,-0.009367,0.024942,-3.9e-05,-1.7e-05
225414,0.000848,-0.017207,-0.013423,0.0,-0.0,-0.0,3.0,0.3261,0.314961,0.3261,0.336745,-0.0,-953.26936,-0.0,-0.0,-10.280737,-0.0,-0.000249,-0.018345,-0.009367,0.04703,-5.2e-05,-1.7e-05
225434,0.000848,-0.017207,-0.013423,0.0,-0.0,-0.0,3.0,0.3261,0.314035,0.3261,0.337588,-0.0,-953.473329,-0.0,0.0,-10.060194,-0.0,-0.000373,-0.018346,-0.009367,0.046619,-1.5e-05,-5e-06
225454,0.000847,-0.017207,-0.013301,0.0,-0.0,-0.0,3.0,0.3261,0.314442,0.3261,0.337218,0.0,-953.672865,-0.0,0.0,-9.838468,-0.0,-0.000246,-0.018346,-0.009368,-0.001358,-3e-06,-5e-06
225474,0.000846,-0.017085,-0.013301,0.0,-0.0,-0.0,3.0,0.3261,0.316755,0.3261,0.335095,0.0,-953.86801,-0.0,0.0,-9.624335,0.0,-5e-06,-0.018346,-0.009368,-0.048054,2.1e-05,-5e-06
225494,0.000481,-0.017087,-0.013426,0.0,-0.0,-0.0,3.0,0.3261,0.317313,0.3261,0.334577,0.0,-954.058977,-0.0,-0.0,-9.425721,0.0,0.000118,-0.018346,-0.009368,-0.071512,9e-06,-5e-06
225514,0.00048,-0.016965,-0.013426,0.0,-0.0,-0.0,3.0,0.3261,0.319142,0.3261,0.332863,0.0,-954.24613,-0.0,-0.0,-9.249496,0.0,0.000115,-0.018346,-0.009368,-0.0237,-3e-06,-1.7e-05
225534,0.000602,-0.016964,-0.013425,0.0,-0.0,-0.0,3.0,0.3261,0.321665,0.3261,0.330455,0.0,-954.429961,-0.0,0.0,-9.101368,0.0,0.000225,-0.018347,-0.009369,-0.044713,-1.5e-05,-1.7e-05
225554,0.000846,-0.016963,-0.013423,0.0,-0.0,-0.0,3.0,0.3261,0.323372,0.3261,0.328798,0.0,-954.611069,-0.0,0.0,-8.985854,0.0,0.000212,-0.018347,-0.009369,0.005022,-2.7e-05,-1.7e-05
225574,0.000847,-0.017085,-0.013423,0.0,-0.0,-0.0,3.0,0.3261,0.317988,0.3261,0.333947,0.0,-954.790131,-0.0,0.0,-8.906291,0.0,-0.000141,-0.018348,-0.00937,0.073253,-3.9e-05,-2.9e-05
225594,0.000969,-0.017084,-0.013422,0.0,-0.0,-0.0,3.0,0.3261,0.312371,0.3261,0.339086,0.0,-954.967885,-0.0,0.0,-8.864872,0.0,-0.000484,-0.018349,-0.00937,0.115559,-2.7e-05,-2.9e-05
225614,0.00109,-0.016961,-0.013421,0.0,-0.0,-0.0,3.0,0.3261,0.313075,0.3261,0.338454,0.0,-955.145105,-0.0,0.0,-8.86269,0.0,-0.000362,-0.018349,-0.00937,0.044954,-1.5e-05,-2.9e-05
225634,0.00109,-0.016839,-0.013421,0.0,-0.0,-0.0,3.0,0.3261,0.315151,0.3261,0.336571,0.0,-955.322576,-0.0,0.0,-8.899759,0.0,-0.000124,-0.018349,-0.009371,-0.024745,-3e-06,-1.7e-05
225654,0.000723,-0.016841,-0.013424,0.0,-0.0,-0.0,3.0,0.3261,0.314485,0.3261,0.337179,0.0,-955.501077,-0.0,0.0,-8.975032,0.0,-0.000119,-0.01835,-0.009371,-0.001823,-2.7e-05,-1.7e-05
225674,0.000845,-0.016841,-0.013423,0.0,-0.0,-0.0,3.0,0.3261,0.316284,0.3261,0.335531,0.0,-955.681359,-0.0,0.0,-9.086386,0.0,3e-06,-0.01835,-0.009371,-0.001715,-2.7e-05,-1.7e-05
225694,0.00097,-0.017084,-0.013544,0.0,-0.0,-0.0,3.0,0.3261,0.318546,0.3261,0.333424,0.0,-955.86412,-0.0,0.0,-9.230603,0.0,0.000238,-0.01835,-0.009372,-0.046894,-3.9e-05,-1.7e-05
225714,0.000849,-0.017207,-0.013545,0.0,-0.0,-0.0,3.0,0.3261,0.319227,0.3261,0.332782,0.0,-956.049987,-0.0,-0.0,-9.40334,0.0,0.000227,-0.018351,-0.009372,-0.044665,-3.9e-05,-1.7e-05
225734,0.00085,-0.017329,-0.013545,0.0,-0.0,-0.0,3.0,0.3261,0.31834,0.3261,0.333617,0.0,-956.239491,-0.0,-0.0,-9.59912,0.0,0.000109,-0.018351,-0.009373,0.025008,-5.1e-05,-1.6e-05
225754,0.000972,-0.017328,-0.013544,0.0,-0.0,-0.0,3.0,0.3261,0.317558,0.3261,0.334349,0.0,-956.433045,-0.0,-0.0,-9.811353,0.0,0.00024,-0.018352,-0.009373,0.02295,-1.4e-05,-1.6e-05
225774,0.001216,-0.017326,-0.013542,0.0,-0.0,-0.0,3.0,0.3261,0.31819,0.3261,0.333758,0.0,-956.630922,-0.0,-0.0,-10.032419,0.0,0.000358,-0.018352,-0.009373,-1e-06,-2e-06,-1.6e-05
225794,0.001335,-0.017081,-0.013419,0.0,-0.0,-0.0,3.0,0.3261,0.318777,0.3261,0.333206,-0.0,-956.833238,-0.0,0.0,-10.253837,0.0,0.000476,-0.018352,-0.009374,0.000531,2.3e-05,-1.6e-05
225814,0.001334,-0.016837,-0.013419,0.0,-0.0,-0.0,3.0,0.3261,0.320346,0.3261,0.33172,-0.0,-957.039931,-0.0,0.0,-10.466536,0.0,0.000715,-0.018353,-0.009374,-0.021851,1e-05,-1.6e-05
225834,0.001577,-0.016836,-0.013295,0.0,-0.0,-0.0,3.0,0.3261,0.319949,0.3261,0.332098,-0.0,-957.250757,-0.0,0.0,-10.66124,0.0,0.000717,-0.018353,-0.009375,0.001323,1.1e-05,-1.6e-05
225854,0.001699,-0.016835,-0.013294,0.0,-0.0,-0.0,3.0,0.3261,0.31837,0.3261,0.333589,-0.0,-957.465289,-0.0,0.0,-10.828957,0.0,0.000723,-0.018353,-0.009375,0.023737,-1e-06,-1.6e-05
225874,0.00182,-0.016712,-0.013293,0.0,-0.0,-0.0,3.0,0.3261,0.315594,0.3261,0.336166,-0.0,-957.682923,-0.0,0.0,-10.961543,0.0,0.00061,-0.018354,-0.009375,0.069052,-1.4e-05,-1.5e-05
225894,0.001821,-0.016712,-0.013415,0.0,-0.0,-0.0,3.0,0.3261,0.315136,0.3261,0.336586,-0.0,-957.902904,-0.0,0.0,-11.052281,0.0,0.000736,-0.018354,-0.009375,0.045021,-2.6e-05,-1.5e-05
225914,0.001822,-0.016834,-0.013415,0.0,-0.0,-0.0,3.0,0.3261,0.316943,0.3261,0.334921,-0.0,-958.124356,-0.0,0.0,-11.096416,0.0,0.000849,-0.018354,-0.009376,-0.023325,-5e-05,-1.6e-05
225934,0.0017,-0.016835,-0.013416,0.0,-0.0,-0.0,3.0,0.3261,0.317259,0.3261,0.334627,-0.0,-958.346325,-0.0,0.0,-11.091564,0.0,0.000847,-0.018355,-0.009376,-0.023137,-2.6e-05,-2.8e-05
225954,0.001703,-0.017079,-0.013538,0.0,-0.0,-0.0,3.0,0.3261,0.317117,0.3261,0.334759,-0.0,-958.567829,-0.0,0.0,-11.037929,0.0,0.00085,-0.018355,-0.009376,0.023442,-3.8e-05,-2.7e-05
225974,0.001825,-0.0172,-0.013537,0.0,-0.0,-0.0,3.0,0.3261,0.316696,0.3261,0.33515,-0.0,-958.787909,-0.0,0.0,-10.938304,0.0,0.00085,-0.018355,-0.009377,0.023076,-2.6e-05,-1.5e-05
225994,0.001826,-0.017323,-0.013539,0.0,-0.0,-0.0,3.0,0.3261,0.316825,0.3261,0.33503,-0.0,-959.00568,-0.0,0.0,-10.797836,0.0,0.000845,-0.018355,-0.009377,-0.023012,-1.4e-05,-1.5e-05
226014,0.001702,-0.017201,-0.013416,0.0,-0.0,-0.0,3.0,0.3261,0.317926,0.3261,0.334005,-0.0,-959.220376,-0.0,0.0,-10.623607,0.0,0.000841,-0.018355,-0.009377,-0.022499,-1e-06,-1.5e-05
226034,0.001579,-0.01708,-0.013417,0.0,-0.0,-0.0,3.0,0.3261,0.31645,0.3261,0.335378,-0.0,-959.431385,-0.0,0.0,-10.424083,0.0,0.000856,-0.018356,-0.009378,-0.001977,-1e-06,-3e-06
226054,0.001579,-0.017202,-0.013295,0.0,-0.0,-0.0,3.0,0.3261,0.316551,0.3261,0.335284,-0.0,-959.638267,-0.0,0.0,-10.208517,0.0,0.000856,-0.018356,-0.009378,-0.002103,-1e-06,-3e-06
226074,0.0017,-0.016957,-0.013294,0.0,-0.0,-0.0,3.0,0.3261,0.322218,0.3261,0.329921,0.0,-959.840774,-0.0,0.0,-9.98637,0.0,0.001201,-0.018357,-0.009378,-0.09187,-1e-06,-3e-06
226094,0.001577,-0.016836,-0.013295,0.0,-0.0,-0.0,3.0,0.3261,0.322635,0.3261,0.329516,0.0,-960.038844,-0.0,0.0,-9.76681,0.0,0.001197,-0.018357,-0.009378,-0.04369,-1.3e-05,-1.5e-05
226114,0.001699,-0.016835,-0.013294,0.0,-0.0,-0.0,3.0,0.3261,0.321364,0.3261,0.330744,0.0,-960.232593,-0.0,0.0,-9.558324,0.0,0.00108,-0.018358,-0.009379,0.026043,-3.7e-05,-1.5e-05
226134,0.001944,-0.016955,-0.013292,0.0,-0.0,-0.0,3.0,0.3261,0.318676,0.3261,0.333301,0.0,-960.422301,-0.0,0.0,-9.368441,0.0,0.000965,-0.018358,-0.009379,0.095032,-2.5e-05,-1.5e-05
226154,0.002312,-0.017075,-0.013411,0.0,-0.0,-0.0,3.0,0.3261,0.316697,0.3261,0.335149,0.0,-960.60839,-0.0,0.0,-9.203576,0.0,0.000845,-0.018359,-0.009379,0.094773,-3.7e-05,-1.5e-05
226174,0.002435,-0.017196,-0.013409,0.0,-0.0,-0.0,3.0,0.3261,0.315902,0.3261,0.335883,0.0,-960.791401,-0.0,0.0,-9.068957,0.0,0.000971,-0.018359,-0.009379,0.07052,-3.7e-05,-1.5e-05
226194,0.002557,-0.017073,-0.013531,0.0,-0.0,-0.0,3.0,0.3261,0.313142,0.3261,0.338394,0.0,-960.971971,-0.0,0.0,-8.968609,0.0,0.000985,-0.01836,-0.009379,0.044368,-4.9e-05,-1.5e-05
226214,0.002678,-0.017072,-0.013407,0.0,-0.0,-0.0,3.0,0.3261,0.316006,0.3261,0.335787,0.0,-961.15081,-0.0,0.0,-8.905389,0.0,0.001472,-0.018361,-0.00938,-0.026164,-2.5e-05,-1.5e-05
226234,0.002556,-0.017073,-0.013408,0.0,-0.0,-0.0,3.0,0.3261,0.317925,0.3261,0.334006,0.0,-961.328673,-0.0,0.0,-8.881016,0.0,0.001834,-0.018361,-0.00938,-0.072199,-2.5e-05,-1.4e-05
226254,0.002435,-0.017074,-0.013532,0.0,-0.0,-0.0,3.0,0.3261,0.32154,0.3261,0.330575,0.0,-961.506345,-0.0,0.0,-8.896114,0.0,0.002191,-0.018362,-0.00938,-0.070137,-3.7e-05,-2.7e-05
226274,0.002679,-0.017072,-0.01353,0.0,-0.0,-0.0,3.0,0.3261,0.323189,0.3261,0.328977,0.0,-961.684613,-0.0,0.0,-8.95023,0.0,0.002302,-0.018362,-0.009381,-0.044511,-3.6e-05,-2.6e-05
226294,0.002924,-0.017194,-0.01353,0.0,-0.0,-0.0,3.0,0.3261,0.324177,0.3261,0.328008,0.0,-961.864248,-0.0,0.0,-9.041836,0.0,0.002415,-0.018363,-0.009381,-0.019656,-2.4e-05,-1.4e-05
226314,0.003046,-0.017193,-0.013529,0.0,-0.0,-0.0,3.0,0.3261,0.320769,0.3261,0.331316,0.0,-962.045981,-0.0,0.0,-9.168311,0.0,0.002176,-0.018363,-0.009382,0.049733,-1.2e-05,-1.4e-05
226334,0.003167,-0.017192,-0.013406,0.0,-0.0,-0.0,3.0,0.3261,0.316851,0.3261,0.335007,0.0,-962.230485,-0.0,0.0,-9.325918,0.0,0.001946,-0.018363,-0.009382,0.117463,-2.4e-05,-1.3e-05
226354,0.003166,-0.017069,-0.013403,0.0,-0.0,-0.0,3.0,0.3261,0.314845,0.3261,0.336851,0.0,-962.418345,-0.0,0.0,-9.509783,0.0,0.001955,-0.018363,-0.009382,0.044915,1.3e-05,-1.4e-05
226374,0.002922,-0.017071,-0.013405,0.0,-0.0,-0.0,3.0,0.3261,0.31649,0.3261,0.33534,0.0,-962.610045,-0.0,0.0,-9.713893,0.0,0.001949,-0.018364,-0.009383,-0.047558,0.0,-2.6e-05
226394,0.002432,-0.01683,-0.01341,0.0,-0.0,-0.0,3.0,0.3261,0.315216,0.3261,0.336512,0.0,-962.805938,-0.0,-0.0,-9.931143,0.0,0.001714,-0.018364,-0.009383,-0.02566,-1.2e-05,-2.6e-05
226414,0.002066,-0.01671,-0.013535,0.0,-0.0,-0.0,3.0,0.3261,0.315087,0.3261,0.336631,-0.0,-963.006227,-0.0,0.0,-10.153464,0.0,0.001477,-0.018365,-0.009384,0.02034,-3.6e-05,-2.6e-05
226434,0.002067,-0.016832,-0.013535,0.0,-0.0,-0.0,3.0,0.3261,0.319351,0.3261,0.332664,-0.0,-963.210949,-0.0,0.0,-10.37203,0.0,0.001584,-0.018366,-0.009384,-0.047175,-3.7e-05,-2.7e-05
226454,0.002068,-0.016954,-0.013535,0.0,-0.0,-0.0,3.0,0.3261,0.319492,0.3261,0.332532,-0.0,-963.419959,-0.0,0.0,-10.577587,0.0,0.001329,-0.018366,-0.009385,-0.0448,-6.1e-05,-2.7e-05
226474,0.001948,-0.017199,-0.013536,0.0,-0.0,-0.0,3.0,0.3261,0.319573,0.3261,0.332455,-0.0,-963.632927,-0.0,0.0,-10.760893,0.0,0.001204,-0.018366,-0.009385,0.002428,-6.1e-05,-1.4e-05
226494,0.002069,-0.017321,-0.013412,0.0,-0.0,-0.0,3.0,0.3261,0.315502,0.3261,0.33625,-0.0,-963.849342,-0.0,0.0,-10.913247,0.0,0.00085,-0.018367,-0.009385,0.046814,-4.9e-05,-1.4e-05
226514,0.001948,-0.017445,-0.013416,0.0,-0.0,-0.0,3.0,0.3261,0.315686,0.3261,0.336082,-0.0,-964.068526,-0.0,0.0,-11.027073,0.0,0.000976,-0.018367,-0.009386,-0.000995,-3.7e-05,-1.4e-05
226534,0.00207,-0.017444,-0.013415,0.0,-0.0,-0.0,3.0,0.3261,0.31823,0.3261,0.333721,-0.0,-964.289661,-0.0,0.0,-11.096489,0.0,0.001089,-0.018368,-0.009386,-0.023352,0.0,-2e-06
226554,0.001825,-0.017322,-0.013415,0.0,-0.0,-0.0,3.0,0.3261,0.319461,0.3261,0.332561,0.0,-964.511828,-0.0,0.0,-11.117798,0.0,0.001334,-0.018368,-0.009386,-0.046815,-1.2e-05,-2e-06
226574,0.001824,-0.017078,-0.013415,0.0,-0.0,-0.0,3.0,0.3261,0.318361,0.3261,0.333598,0.0,-964.73405,-0.0,0.0,-11.08981,0.0,0.001218,-0.018369,-0.009386,-0.001206,0.0,-2e-06
226594,0.001946,-0.017077,-0.013414,0.0,-0.0,-0.0,3.0,0.3261,0.321108,0.3261,0.330991,0.0,-964.95535,-0.0,0.0,-11.013968,0.0,0.001328,-0.01837,-0.009386,-0.022129,0.0,-1.4e-05
226614,0.001944,-0.016833,-0.013414,0.0,-0.0,-0.0,3.0,0.3261,0.321457,0.3261,0.330655,0.0,-965.174796,-0.0,0.0,-10.894228,0.0,0.001323,-0.01837,-0.009387,0.002212,1e-06,-1.4e-05
226634,0.001943,-0.016833,-0.013292,0.0,-0.0,-0.0,3.0,0.3261,0.319038,0.3261,0.332961,0.0,-965.391552,-0.0,0.0,-10.736734,0.0,0.001085,-0.01837,-0.009387,0.024891,-2.4e-05,-1.4e-05
226654,0.001944,-0.016955,-0.013292,0.0,-0.0,-0.0,3.0,0.3261,0.318027,0.3261,0.33391,0.0,-965.604921,-0.0,0.0,-10.549323,0.0,0.000968,-0.018371,-0.009387,0.047628,-3.6e-05,-1.4e-05
226674,0.002067,-0.017077,-0.013291,0.0,-0.0,-0.0,3.0,0.3261,0.31602,0.3261,0.335775,0.0,-965.81437,-0.0,0.0,-10.34094,0.0,0.000855,-0.018371,-0.009388,0.069553,-3.6e-05,-2.6e-05
226694,0.002069,-0.017321,-0.013412,0.0,-0.0,-0.0,3.0,0.3261,0.316482,0.3261,0.335347,0.0,-966.019551,-0.0,0.0,-10.12104,0.0,0.000976,-0.018372,-0.009388,0.046238,-4.8e-05,-1.4e-05
226714,0.002191,-0.017198,-0.013411,0.0,-0.0,-0.0,3.0,0.3261,0.316258,0.3261,0.335555,-0.0,-966.220302,-0.0,0.0,-9.899032,0.0,0.000977,-0.018373,-0.009388,0.02259,-4.8e-05,-1.4e-05
226734,0.002314,-0.01732,-0.013413,0.0,-0.0,-0.0,3.0,0.3261,0.318236,0.3261,0.333715,-0.0,-966.416652,-0.0,0.0,-9.683832,0.0,0.001214,-0.018374,-0.009388,-0.046631,-4.8e-05,-1.4e-05
226754,0.002313,-0.017197,-0.01341,0.0,-0.0,-0.0,3.0,0.3261,0.31863,0.3261,0.333345,-0.0,-966.608797,-0.0,0.0,-9.483522,0.0,0.001335,-0.018374,-0.009388,-0.046639,-3.6e-05,-1.4e-05
226774,0.002069,-0.017199,-0.013413,0.0,-0.0,-0.0,3.0,0.3261,0.315517,0.3261,0.336236,-0.0,-966.79709,-0.0,0.0,-9.305136,0.0,0.001227,-0.018375,-0.009389,-0.002333,-3.6e-05,-1.4e-05
226794,0.002068,-0.016954,-0.013535,0.0,-0.0,-0.0,3.0,0.3261,0.3184,0.3261,0.333561,-0.0,-966.982016,-0.0,0.0,-9.15454,0.0,0.001466,-0.018375,-0.009389,-0.025048,-1.1e-05,-1.4e-05
226814,0.00207,-0.017199,-0.013535,0.0,-0.0,-0.0,3.0,0.3261,0.320879,0.3261,0.331211,0.0,-967.164167,-0.0,0.0,-9.036393,0.0,0.001702,-0.018376,-0.009389,-0.094025,-1.1e-05,-1.4e-05
226834,0.002069,-0.017076,-0.013535,0.0,-0.0,-0.0,3.0,0.3261,0.324398,0.3261,0.327791,0.0,-967.34422,-0.0,0.0,-8.954159,0.0,0.001807,-0.018376,-0.00939,-0.067165,-1.1e-05,-1.4e-05
226854,0.001948,-0.017199,-0.013536,0.0,-0.0,-0.0,3.0,0.3261,0.321934,0.3261,0.330195,0.0,-967.522912,-0.0,0.0,-8.910138,0.0,0.001568,-0.018376,-0.00939,0.002862,-3.5e-05,-2.6e-05
226874,0.002313,-0.017197,-0.01341,0.0,-0.0,-0.0,3.0,0.3261,0.321031,0.3261,0.331065,0.0,-967.701018,-0.0,0.0,-8.905507,0.0,0.00145,-0.018377,-0.009391,0.072265,-2.3e-05,-2.5e-05
226894,0.00268,-0.017318,-0.01341,0.0,-0.0,-0.0,3.0,0.3261,0.319586,0.3261,0.332442,0.0,-967.879329,-0.0,0.0,-8.940351,0.0,0.001452,-0.018378,-0.009391,0.048378,-2.3e-05,-2.5e-05
226914,0.002923,-0.017071,-0.013527,0.0,-0.0,-0.0,3.0,0.3261,0.317858,0.3261,0.334068,0.0,-968.058627,-0.0,0.0,-9.01367,0.0,0.001457,-0.018379,-0.009392,0.047419,-2.3e-05,-2.5e-05
226934,0.002801,-0.017071,-0.013528,0.0,-0.0,-0.0,3.0,0.3261,0.314938,0.3261,0.336766,0.0,-968.239668,-0.0,0.0,-9.123376,0.0,0.001471,-0.018379,-0.009392,0.044926,-3.5e-05,-2.6e-05
226954,0.002679,-0.017072,-0.01353,0.0,-0.0,-0.0,3.0,0.3261,0.314524,0.3261,0.337144,0.0,-968.423159,-0.0,0.0,-9.266269,0.0,0.001602,-0.01838,-0.009393,-0.003732,-3.5e-05,-2.6e-05
226974,0.002803,-0.017194,-0.013653,0.0,-0.0,-0.0,3.0,0.3261,0.318641,0.3261,0.333335,0.0,-968.609731,-0.0,0.0,-9.43801,0.0,0.00196,-0.018381,-0.009393,-0.072274,-4.7e-05,-3.8e-05
226994,0.002681,-0.017195,-0.013654,0.0,-0.0,-0.0,3.0,0.3261,0.322378,0.3261,0.329765,0.0,-968.799923,-0.0,0.0,-9.633112,0.0,0.002311,-0.018382,-0.009394,-0.092602,-5.9e-05,-3.7e-05
227014,0.002683,-0.017439,-0.013654,0.0,-0.0,-0.0,3.0,0.3261,0.321395,0.3261,0.330715,0.0,-968.994153,-0.0,0.0,-9.844962,0.0,0.002189,-0.018383,-0.009394,-0.021847,-8.3e-05,-3.7e-05
227034,0.002808,-0.017682,-0.013774,0.0,-0.0,-0.0,3.0,0.3261,0.322703,0.3261,0.32945,0.0,-969.192702,-0.0,-0.0,-10.065903,0.0,0.002306,-0.018384,-0.009395,0.002343,-7.1e-05,-3.7e-05
227054,0.003052,-0.017681,-0.013772,0.0,-0.0,-0.0,3.0,0.3261,0.319595,0.3261,0.332434,-0.0,-969.395687,-0.0,0.0,-10.287405,0.0,0.002067,-0.018385,-0.009396,0.048174,-5.8e-05,-3.7e-05
227074,0.003174,-0.01768,-0.013771,0.0,-0.0,-0.0,3.0,0.3261,0.318346,0.3261,0.333612,-0.0,-969.603053,-0.0,0.0,-10.500337,0.0,0.002071,-0.018386,-0.009397,0.047043,-3.4e-05,-3.7e-05
227094,0.003172,-0.017436,-0.013771,0.0,-0.0,-0.0,3.0,0.3261,0.316304,0.3261,0.335512,-0.0,-969.814558,-0.0,0.0,-10.695359,0.0,0.001955,-0.018387,-0.009398,0.022303,-2.2e-05,-3.7e-05
227114,0.002925,-0.017194,-0.013652,0.0,-0.0,-0.0,3.0,0.3261,0.317546,0.3261,0.33436,-0.0,-970.029774,-0.0,0.0,-10.863412,0.0,0.002079,-0.018388,-0.009399,-0.025143,3e-06,-4.9e-05
227134,0.002802,-0.017072,-0.013653,0.0,-0.0,-0.0,3.0,0.3261,0.317604,0.3261,0.334306,-0.0,-970.2481,-0.0,0.0,-10.996286,0.0,0.001958,-0.018389,-0.0094,-0.02524,-1e-05,-4.9e-05
227154,0.002678,-0.016828,-0.013652,0.0,-0.0,-0.0,3.0,0.3261,0.319999,0.3261,0.33205,0.0,-970.468777,-0.0,0.0,-11.087212,0.0,0.002076,-0.018389,-0.009401,-0.000612,-3.4e-05,-4.9e-05
227174,0.002678,-0.016828,-0.013652,0.0,-0.0,-0.0,3.0,0.3261,0.319975,0.3261,0.332074,0.0,-970.690929,-0.0,0.0,-11.131398,0.0,0.002075,-0.01839,-0.009402,-0.000251,-4.6e-05,-4.9e-05
227194,0.002802,-0.017072,-0.013653,0.0,-0.0,-0.0,3.0,0.3261,0.321331,0.3261,0.330777,0.0,-970.913597,-0.0,0.0,-11.126443,0.0,0.002066,-0.018391,-0.009402,0.002046,-8.2e-05,-4.9e-05
227214,0.003048,-0.017193,-0.013773,0.0,-0.0,-0.0,3.0,0.3261,0.321754,0.3261,0.33037,0.0,-971.135797,-0.0,0.0,-11.072558,0.0,0.002059,-0.018392,-0.009403,0.026487,-7e-05,-3.6e-05
227234,0.00305,-0.017437,-0.013772,0.0,-0.0,-0.0,3.0,0.3261,0.315029,0.3261,0.336683,0.0,-971.356566,-0.0,0.0,-10.972565,0.0,0.001714,-0.018392,-0.009404,0.069405,-8.2e-05,-3.6e-05
227254,0.00305,-0.017437,-0.013772,0.0,-0.0,-0.0,3.0,0.3261,0.313925,0.3261,0.337687,0.0,-971.57502,-0.0,0.0,-10.831661,0.0,0.001722,-0.018393,-0.009405,0.043859,-3.3e-05,-3.6e-05
227274,0.002806,-0.017438,-0.013775,0.0,-0.0,-0.0,3.0,0.3261,0.315985,0.3261,0.335807,0.0,-971.790389,-0.0,0.0,-10.65699,0.0,0.001835,-0.018394,-0.009406,-0.072106,-2.2e-05,-3.7e-05
227294,0.00256,-0.017196,-0.013777,0.0,-0.0,-0.0,3.0,0.3261,0.319885,0.3261,0.332159,0.0,-972.002062,-0.0,0.0,-10.457088,0.0,0.002074,-0.018394,-0.009406,-0.071324,3e-06,-3.6e-05
227314,0.002193,-0.017076,-0.01378,0.0,-0.0,-0.0,3.0,0.3261,0.318727,0.3261,0.333254,0.0,-972.209603,-0.0,0.0,-10.241279,0.0,0.001959,-0.018395,-0.009407,-0.049234,3e-06,-3.6e-05
227334,0.00207,-0.017077,-0.013659,0.0,-0.0,-0.0,3.0,0.3261,0.321185,0.3261,0.330917,-0.0,-972.412765,-0.0,-0.0,-10.019088,0.0,0.001823,-0.018395,-0.009408,-0.04639,-9e-06,-3.6e-05
227354,0.002069,-0.016954,-0.013657,0.0,-0.0,-0.0,3.0,0.3261,0.322488,0.3261,0.329659,-0.0,-972.61149,-0.0,0.0,-9.799741,0.0,0.001566,-0.018396,-0.009409,-0.04393,-9e-06,-3.6e-05
227374,0.001824,-0.016956,-0.013537,0.0,-0.0,-0.0,3.0,0.3261,0.320395,0.3261,0.331673,-0.0,-972.805901,-0.0,0.0,-9.591766,0.0,0.001203,-0.018396,-0.00941,0.02612,-2.1e-05,-3.6e-05
227394,0.001823,-0.016834,-0.013537,0.0,-0.0,-0.0,3.0,0.3261,0.316358,0.3261,0.335462,-0.0,-972.996283,-0.0,0.0,-9.402722,0.0,0.000728,-0.018396,-0.00941,0.070387,-2.1e-05,-3.6e-05
227414,0.001703,-0.017079,-0.013538,0.0,-0.0,-0.0,3.0,0.3261,0.314227,0.3261,0.337414,-0.0,-973.183066,-0.0,0.0,-9.239039,0.0,0.000493,-0.018396,-0.009411,0.068595,-9e-06,-3.6e-05
227434,0.001701,-0.016835,-0.013538,0.0,-0.0,-0.0,3.0,0.3261,0.314367,0.3261,0.337286,-0.0,-973.366797,-0.0,0.0,-9.105943,0.0,0.00037,-0.018397,-0.009412,0.044992,3e-06,-3.6e-05
227454,0.001335,-0.016837,-0.013541,0.0,-0.0,-0.0,3.0,0.3261,0.316352,0.3261,0.335468,0.0,-973.548121,-0.0,0.0,-9.007448,0.0,0.000487,-0.018397,-0.009412,-0.024423,-1e-05,-2.4e-05
227474,0.001335,-0.016837,-0.013541,0.0,-0.0,-0.0,3.0,0.3261,0.315546,0.3261,0.33621,0.0,-973.727752,-0.0,0.0,-8.946379,0.0,0.000247,-0.018397,-0.009412,-0.001765,-1e-05,-2.4e-05
227494,0.001336,-0.016959,-0.013541,0.0,-0.0,-0.0,3.0,0.3261,0.318421,0.3261,0.333542,0.0,-973.906453,-0.0,0.0,-8.924414,0.0,0.000486,-0.018397,-0.009413,-0.024146,-2.2e-05,-2.4e-05
227514,0.001336,-0.017081,-0.013541,0.0,-0.0,-0.0,3.0,0.3261,0.318017,0.3261,0.33392,0.0,-974.085012,-0.0,0.0,-8.942116,0.0,0.000486,-0.018397,-0.009413,-0.023988,-3.4e-05,-2.4e-05
227534,0.001093,-0.017205,-0.013543,0.0,-0.0,-0.0,3.0,0.3261,0.317986,0.3261,0.333949,0.0,-974.26422,-0.0,0.0,-8.998955,0.0,0.000486,-0.018398,-0.009414,-0.023843,-4.6e-05,-2.4e-05
227554,0.001216,-0.017327,-0.013544,0.0,-0.0,-0.0,3.0,0.3261,0.320282,0.3261,0.331781,0.0,-974.44485,-0.0,0.0,-9.093308,0.0,0.000604,-0.018398,-0.009414,-0.022912,-4.6e-05,-2.4e-05
227574,0.001217,-0.017327,-0.013666,0.0,-0.0,-0.0,3.0,0.3261,0.321093,0.3261,0.331005,0.0,-974.627633,-0.0,0.0,-9.222442,0.0,0.000722,-0.018399,-0.009415,-0.046024,-2.2e-05,-2.4e-05
227594,0.001095,-0.017328,-0.013668,0.0,-0.0,-0.0,3.0,0.3261,0.320243,0.3261,0.331818,0.0,-974.813238,-0.0,0.0,-9.38249,0.0,0.0006,-0.018399,-0.009415,0.000877,-9e-06,-2.4e-05
227614,0.001216,-0.017204,-0.013664,0.0,-0.0,-0.0,3.0,0.3261,0.320483,0.3261,0.331589,0.0,-975.002246,-0.0,0.0,-9.568429,0.0,0.000475,-0.0184,-0.009416,0.025274,-2.1e-05,-3.6e-05
227634,0.001459,-0.017204,-0.013542,0.0,-0.0,-0.0,3.0,0.3261,0.320308,0.3261,0.331756,0.0,-975.195132,-0.0,0.0,-9.774088,0.0,0.000474,-0.018401,-0.009417,0.025243,-9e-06,-3.6e-05
227654,0.001337,-0.017203,-0.013541,0.0,-0.0,-0.0,3.0,0.3261,0.317198,0.3261,0.334684,0.0,-975.392236,-0.0,-0.0,-9.992205,0.0,0.000238,-0.018401,-0.009417,0.023941,-2.1e-05,-3.6e-05
227674,0.001214,-0.017082,-0.013542,0.0,-0.0,-0.0,3.0,0.3261,0.314517,0.3261,0.33715,-0.0,-975.593748,-0.0,-0.0,-10.214554,0.0,8e-06,-0.018402,-0.009418,0.044775,-3.4e-05,-3.6e-05
227694,0.000971,-0.017206,-0.013544,0.0,-0.0,-0.0,3.0,0.3261,0.313807,0.3261,0.337794,-0.0,-975.799686,-0.0,0.0,-10.432183,0.0,-0.000109,-0.018403,-0.009419,0.043925,-4.6e-05,-3.6e-05
227714,0.000971,-0.017206,-0.013544,0.0,-0.0,-0.0,3.0,0.3261,0.316328,0.3261,0.33549,-0.0,-976.009886,-0.0,0.0,-10.63575,0.0,1e-05,-0.018404,-0.009419,-0.025559,-7e-05,-3.7e-05
227734,0.000849,-0.017085,-0.013667,0.0,-0.0,-0.0,3.0,0.3261,0.320265,0.3261,0.331797,-0.0,-976.223996,-0.0,0.0,-10.815983,0.0,0.000237,-0.018405,-0.00942,-0.069315,-7e-05,-3.7e-05
227754,0.000606,-0.017208,-0.013669,0.0,-0.0,-0.0,3.0,0.3261,0.319739,0.3261,0.332297,-0.0,-976.441484,-0.0,0.0,-10.964222,0.0,0.000114,-0.018406,-0.00942,-0.045366,-8.2e-05,-3.6e-05
227774,0.000608,-0.017454,-0.013672,0.0,-0.0,-0.0,3.0,0.3261,0.318488,0.3261,0.333479,-0.0,-976.661651,-0.0,0.0,-11.073016,0.0,-0.000128,-0.018407,-0.009421,0.024365,-5.8e-05,-3.6e-05
227794,0.000609,-0.017698,-0.013672,0.0,-0.0,-0.0,3.0,0.3261,0.316895,0.3261,0.334965,0.0,-976.883662,-0.0,0.0,-11.136686,0.0,-0.000372,-0.018407,-0.009422,0.024296,-5.8e-05,-3.6e-05
227814,0.000609,-0.017698,-0.013672,0.0,-0.0,-0.0,3.0,0.3261,0.318123,0.3261,0.333821,0.0,-977.106587,-0.0,0.0,-11.151809,0.0,-0.000377,-0.018408,-0.009422,-0.022182,-3.4e-05,-2.4e-05
227834,0.000366,-0.017821,-0.013674,0.0,-0.0,-0.0,3.0,0.3261,0.315578,0.3261,0.33618,0.0,-977.329442,-0.0,0.0,-11.117519,0.0,-0.000609,-0.018409,-0.009423,-0.024352,-4.6e-05,-2.4e-05
227854,0.000121,-0.017701,-0.013676,0.0,-0.0,-0.0,3.0,0.3261,0.314846,0.3261,0.33685,0.0,-977.55125,-0.0,0.0,-11.035606,0.0,-0.000721,-0.018411,-0.009424,-0.003081,-3.3e-05,-2.4e-05
227874,-4e-06,-0.017458,-0.013555,0.0,-0.0,-0.0,3.0,0.3261,0.317952,0.3261,0.333981,0.0,-977.771086,-0.0,0.0,-10.910361,0.0,-0.000606,-0.018412,-0.009425,-0.025044,-3.3e-05,-3.6e-05
227894,-4e-06,-0.017213,-0.013675,0.0,-0.0,-0.0,3.0,0.3261,0.321335,0.3261,0.330773,0.0,-977.988129,-0.0,0.0,-10.748228,0.0,-0.00037,-0.018413,-0.009425,-0.046833,-3.3e-05,-3.6e-05
227914,0.000117,-0.01709,-0.013674,0.0,-0.0,-0.0,3.0,0.3261,0.322365,0.3261,0.329779,0.0,-978.2017,-0.0,0.0,-10.557282,0.0,-0.000379,-0.018415,-0.009426,-0.021429,-4.5e-05,-3.6e-05
227934,0.00024,-0.017211,-0.013672,0.0,-0.0,-0.0,3.0,0.3261,0.321986,0.3261,0.330145,0.0,-978.411289,-0.0,0.0,-10.346637,0.0,-0.00038,-0.018415,-0.009427,0.026258,-6.9e-05,-4.8e-05
227954,0.000485,-0.017332,-0.013673,0.0,-0.0,-0.0,3.0,0.3261,0.317549,0.3261,0.334358,0.0,-978.616574,-0.0,-0.0,-10.125837,0.0,-0.000738,-0.018417,-0.009428,0.118493,-6.9e-05,-4.8e-05
227974,0.00061,-0.017576,-0.013794,0.0,-0.0,-0.0,3.0,0.3261,0.313952,0.3261,0.337663,-0.0,-978.817423,-0.0,0.0,-9.904312,0.0,-0.000847,-0.018418,-0.009428,0.116099,-8.1e-05,-4.8e-05
227994,0.000733,-0.017819,-0.013793,0.0,-0.0,-0.0,3.0,0.3261,0.312768,0.3261,0.338731,-0.0,-979.01389,-0.0,0.0,-9.690938,0.0,-0.000841,-0.018419,-0.009429,0.020887,-8.2e-05,-3.6e-05
228014,0.00061,-0.017698,-0.013794,0.0,-0.0,-0.0,3.0,0.3261,0.31526,0.3261,0.336472,-0.0,-979.206199,-0.0,0.0,-9.493711,0.0,-0.000602,-0.01842,-0.00943,-0.072147,-8.2e-05,-3.6e-05
228034,0.000121,-0.017579,-0.013798,0.0,-0.0,-0.0,3.0,0.3261,0.316,0.3261,0.335793,-0.0,-979.394726,-0.0,0.0,-9.319543,0.0,-0.000475,-0.018422,-0.009431,-0.073138,-6.9e-05,-3.6e-05
228054,-0.000124,-0.017459,-0.0138,0.0,-0.0,-0.0,3.0,0.3261,0.317954,0.3261,0.333979,0.0,-979.579977,-0.0,0.0,-9.174156,0.0,-0.00048,-0.018423,-0.009432,-0.048676,-6.9e-05,-3.6e-05
228074,-0.000246,-0.017459,-0.013801,0.0,-0.0,-0.0,3.0,0.3261,0.321449,0.3261,0.330663,0.0,-979.762565,-0.0,0.0,-9.06205,0.0,-0.000373,-0.018425,-0.009432,-0.069445,-5.7e-05,-3.6e-05
228094,-0.000123,-0.017581,-0.0138,0.0,-0.0,-0.0,3.0,0.3261,0.323092,0.3261,0.329071,0.0,-979.94318,-0.0,0.0,-8.986518,0.0,-0.000509,-0.018426,-0.009433,-0.043171,-6.9e-05,-3.6e-05
228114,-0.000244,-0.017704,-0.013801,0.0,-0.0,-0.0,3.0,0.3261,0.320038,0.3261,0.332013,0.0,-980.122573,-0.0,0.0,-8.94968,0.0,-0.00087,-0.018427,-0.009434,0.026258,-6.9e-05,-3.6e-05
228134,-0.000245,-0.017704,-0.013679,0.0,-0.0,-0.0,3.0,0.3261,0.317047,0.3261,0.334825,0.0,-980.301525,-0.0,0.0,-8.952522,0.0,-0.001226,-0.018428,-0.009435,0.071245,-5.6e-05,-3.6e-05
228154,-0.000122,-0.017825,-0.013678,0.0,-0.0,-0.0,3.0,0.3261,0.316173,0.3261,0.335633,0.0,-980.480833,-0.0,0.0,-8.994921,0.0,-0.001217,-0.01843,-0.009436,0.022362,-5.6e-05,-3.6e-05
228174,-0.000246,-0.017704,-0.013557,0.0,-0.0,-0.0,3.0,0.3261,0.315883,0.3261,0.3359,0.0,-980.661278,-0.0,0.0,-9.075657,0.0,-0.001341,-0.018431,-0.009437,-0.000779,-4.4e-05,-3.6e-05
228194,-0.00037,-0.01746,-0.013558,0.0,-0.0,-0.0,3.0,0.3261,0.316197,0.3261,0.335611,0.0,-980.843613,-0.0,0.0,-9.192396,0.0,-0.001337,-0.018433,-0.009437,-0.001416,-5.6e-05,-3.6e-05
228214,-0.000371,-0.017093,-0.013678,0.0,-0.0,-0.0,3.0,0.3261,0.316056,0.3261,0.335741,0.0,-981.028533,-0.0,0.0,-9.341674,0.0,-0.001333,-0.018434,-0.009438,0.044708,-5.6e-05,-3.6e-05
228234,-0.000248,-0.017337,-0.013679,0.0,-0.0,-0.0,3.0,0.3261,0.317125,0.3261,0.334752,0.0,-981.216656,-0.0,0.0,-9.518868,0.0,-0.001215,-0.018436,-0.009439,0.022311,-6.8e-05,-3.5e-05
228254,-0.000126,-0.017213,-0.013676,0.0,-0.0,-0.0,3.0,0.3261,0.318062,0.3261,0.333878,0.0,-981.408499,-0.0,0.0,-9.718192,0.0,-0.001098,-0.018437,-0.009439,-0.000136,-8e-05,-3.5e-05
228274,-2e-06,-0.017458,-0.013799,0.0,-0.0,-0.0,3.0,0.3261,0.317463,0.3261,0.334437,0.0,-981.604454,-0.0,0.0,-9.932738,0.0,-0.001099,-0.018438,-0.00944,-0.023169,-9.2e-05,-3.5e-05
228294,-1e-06,-0.017702,-0.013677,0.0,-0.0,-0.0,3.0,0.3261,0.3166,0.3261,0.335238,-0.0,-981.804768,-0.0,-0.0,-10.154572,0.0,-0.001096,-0.018439,-0.009441,-0.000434,-9.2e-05,-3.5e-05
228314,-0.000244,-0.017948,-0.013679,0.0,-0.0,-0.0,3.0,0.3261,0.317108,0.3261,0.334768,-0.0,-982.009521,-0.0,0.0,-10.374932,0.0,-0.000975,-0.01844,-0.009441,-0.023701,-9.2e-05,-3.5e-05
228334,-0.000366,-0.017949,-0.01368,0.0,-0.0,-0.0,3.0,0.3261,0.317707,0.3261,0.33421,-0.0,-982.218616,-0.0,0.0,-10.584536,0.0,-0.000976,-0.018442,-0.009442,-0.023665,-7.9e-05,-3.5e-05
228354,-0.000366,-0.017826,-0.01368,0.0,-0.0,-0.0,3.0,0.3261,0.318127,0.3261,0.333817,-0.0,-982.431766,-0.0,0.0,-10.773997,0.0,-0.000976,-0.018443,-0.009443,-0.024177,-5.5e-05,-2.3e-05
228374,-0.000245,-0.017826,-0.013557,0.0,-0.0,-0.0,3.0,0.3261,0.319506,0.3261,0.332518,-0.0,-982.648501,-0.0,0.0,-10.934344,0.0,-0.000985,-0.018445,-0.009443,-0.022776,-4.2e-05,-1e-05
228394,-0.000248,-0.017459,-0.013557,0.0,-0.0,-0.0,3.0,0.3261,0.319947,0.3261,0.3321,0.0,-982.868176,-0.0,0.0,-11.057611,0.0,-0.000989,-0.018446,-0.009444,0.001395,-3e-05,-1e-05
228414,-0.00025,-0.017336,-0.013433,0.0,-0.0,-0.0,3.0,0.3261,0.317678,0.3261,0.334237,0.0,-983.089999,-0.0,0.0,-11.137424,0.0,-0.001101,-0.018447,-0.009444,0.022951,-3e-05,-1e-05
228434,-0.000251,-0.017214,-0.013433,0.0,-0.0,-0.0,3.0,0.3261,0.317738,0.3261,0.334181,0.0,-983.313064,-0.0,0.0,-11.169521,0.0,-0.0011,-0.018448,-0.009444,0.023001,-4.2e-05,-2.2e-05
228454,-0.000129,-0.017213,-0.013431,0.0,-0.0,-0.0,3.0,0.3261,0.319143,0.3261,0.332862,0.0,-983.536402,-0.0,0.0,-11.152128,0.0,-0.000982,-0.018449,-0.009445,-0.023051,-4.2e-05,-2.3e-05
228474,-0.000129,-0.017213,-0.013431,0.0,-0.0,-0.0,3.0,0.3261,0.319597,0.3261,0.332432,0.0,-983.759023,-0.0,0.0,-11.086129,0.0,-0.000986,-0.01845,-0.009445,0.001663,-6.6e-05,-3.5e-05
228494,-0.000372,-0.017215,-0.013556,0.0,-0.0,-0.0,3.0,0.3261,0.317286,0.3261,0.334602,0.0,-983.979979,-0.0,0.0,-10.975001,0.0,-0.001101,-0.018451,-0.009446,0.023637,-7.8e-05,-2.2e-05
228514,-0.000125,-0.017581,-0.013556,0.0,-0.0,-0.0,3.0,0.3261,0.315848,0.3261,0.335933,0.0,-984.198406,-0.0,0.0,-10.824523,0.0,-0.001341,-0.018452,-0.009446,0.069937,-7.8e-05,-2.2e-05
228534,0.00012,-0.017701,-0.013554,0.0,-0.0,-0.0,3.0,0.3261,0.316067,0.3261,0.335731,0.0,-984.413573,-0.0,0.0,-10.642308,0.0,-0.00122,-0.018454,-0.009446,0.023089,-7.8e-05,-2.3e-05
228554,-2e-06,-0.017702,-0.013555,0.0,-0.0,-0.0,3.0,0.3261,0.315877,0.3261,0.335906,0.0,-984.62491,-0.0,0.0,-10.437214,0.0,-0.001227,-0.018455,-0.009446,0.000561,-6.6e-05,-1e-05
228574,-0.000246,-0.017704,-0.013557,0.0,-0.0,-0.0,3.0,0.3261,0.315742,0.3261,0.33603,0.0,-984.832029,-0.0,0.0,-10.218738,0.0,-0.00122,-0.018456,-0.009447,-0.024139,-6.6e-05,-1e-05
228594,-0.000369,-0.017704,-0.013436,0.0,-0.0,-0.0,3.0,0.3261,0.314729,0.3261,0.336957,-0.0,-985.034735,-0.0,-0.0,-9.996436,0.0,-0.001207,-0.018457,-0.009447,-0.0034,-5.4e-05,-1e-05
228614,-0.000491,-0.017705,-0.013437,0.0,-0.0,-0.0,3.0,0.3261,0.317796,0.3261,0.334127,-0.0,-985.233021,-0.0,0.0,-9.779444,0.0,-0.000971,-0.018459,-0.009447,-0.048839,-5.3e-05,-1e-05
228634,-0.000492,-0.017583,-0.013437,0.0,-0.0,-0.0,3.0,0.3261,0.323068,0.3261,0.329094,-0.0,-985.427058,-0.0,0.0,-9.57611,0.0,-0.000622,-0.01846,-0.009448,-0.092387,-5.3e-05,-1e-05
228654,-0.000371,-0.01746,-0.013436,0.0,-0.0,-0.0,3.0,0.3261,0.323262,0.3261,0.328906,-0.0,-985.617174,-0.0,0.0,-9.393749,0.0,-0.000752,-0.018461,-0.009448,-0.043536,-7.7e-05,-1e-05
228674,-0.000127,-0.017459,-0.013434,0.0,-0.0,-0.0,3.0,0.3261,0.323077,0.3261,0.329086,-0.0,-985.803838,-0.0,0.0,-9.238504,0.0,-0.000753,-0.018463,-0.009448,0.026741,-5.3e-05,-1e-05
228694,0.00024,-0.017578,-0.013431,0.0,-0.0,-0.0,3.0,0.3261,0.320327,0.3261,0.331738,-0.0,-985.987631,-0.0,0.0,-9.115296,0.0,-0.00087,-0.018464,-0.009449,0.073114,-6.5e-05,-2.2e-05
228714,0.000606,-0.017576,-0.013428,0.0,-0.0,-0.0,3.0,0.3261,0.317682,0.3261,0.334233,0.0,-986.169223,-0.0,0.0,-9.027819,0.0,-0.000861,-0.018465,-0.009449,0.094601,-5.2e-05,-2.2e-05
228734,0.00085,-0.017574,-0.013425,0.0,-0.0,-0.0,3.0,0.3261,0.315485,0.3261,0.336266,0.0,-986.349349,-0.0,0.0,-8.978578,0.0,-0.00073,-0.018466,-0.009449,0.045981,-5.2e-05,-2.2e-05
228754,0.000973,-0.017573,-0.013424,0.0,-0.0,-0.0,3.0,0.3261,0.316339,0.3261,0.33548,0.0,-986.528785,-0.0,0.0,-8.968921,0.0,-0.000357,-0.018468,-0.00945,-0.00214,-6.4e-05,-2.2e-05
228774,0.000972,-0.017451,-0.013424,0.0,-0.0,-0.0,3.0,0.3261,0.31769,0.3261,0.334226,0.0,-986.708328,-0.0,0.0,-8.999073,0.0,9e-06,-0.018469,-0.00945,-0.025566,-6.4e-05,-2.1e-05
228794,0.000973,-0.017451,-0.013546,0.0,-0.0,-0.0,3.0,0.3261,0.319932,0.3261,0.332114,0.0,-986.888768,-0.0,0.0,-9.068151,0.0,0.00037,-0.01847,-0.00945,-0.047727,-8.8e-05,-2.1e-05
228814,0.001095,-0.01745,-0.013545,0.0,-0.0,-0.0,3.0,0.3261,0.322089,0.3261,0.330045,0.0,-987.070871,-0.0,0.0,-9.174158,0.0,0.000603,-0.018472,-0.00945,-0.045766,-7.5e-05,-2.1e-05
228834,0.001219,-0.017694,-0.013544,0.0,-0.0,-0.0,3.0,0.3261,0.322531,0.3261,0.329618,0.0,-987.255353,-0.0,0.0,-9.313962,0.0,0.000594,-0.018473,-0.009451,0.003254,-0.0001,-2.1e-05
228854,0.001462,-0.01757,-0.013542,0.0,-0.0,-0.0,3.0,0.3261,0.322651,0.3261,0.3295,0.0,-987.442859,-0.0,0.0,-9.483273,0.0,0.000714,-0.018474,-0.009451,0.026525,-6.3e-05,-8e-06
228874,0.001464,-0.017814,-0.013542,0.0,-0.0,-0.0,3.0,0.3261,0.317,0.3261,0.334868,0.0,-987.633942,-0.0,0.0,-9.67663,0.0,0.000487,-0.018475,-0.009451,0.046498,-5.1e-05,-8e-06
228894,0.001464,-0.017814,-0.013542,0.0,-0.0,-0.0,3.0,0.3261,0.316301,0.3261,0.335515,0.0,-987.829034,-0.0,0.0,-9.887424,0.0,0.000366,-0.018476,-0.009452,0.022641,-3.8e-05,-8e-06
228914,0.001461,-0.01757,-0.01342,0.0,-0.0,-0.0,3.0,0.3261,0.318274,0.3261,0.33368,0.0,-988.028428,-0.0,-0.0,-10.107979,0.0,0.000484,-0.018477,-0.009452,-0.02405,-2e-06,-8e-06
228934,0.001215,-0.017326,-0.01342,0.0,-0.0,-0.0,3.0,0.3261,0.319897,0.3261,0.332147,-0.0,-988.232256,-0.0,-0.0,-10.329719,0.0,0.000603,-0.018478,-0.009452,-0.04644,-2.6e-05,-2e-05
228954,0.001213,-0.017082,-0.01342,0.0,-0.0,-0.0,3.0,0.3261,0.318609,0.3261,0.333365,-0.0,-988.440473,-0.0,0.0,-10.543442,0.0,0.000492,-0.018479,-0.009453,0.021967,-2.6e-05,-2e-05
228974,0.001337,-0.017326,-0.013419,0.0,-0.0,-0.0,3.0,0.3261,0.31987,0.3261,0.332173,-0.0,-988.652849,-0.0,0.0,-10.739708,0.0,0.000611,-0.01848,-0.009453,0.023079,-6.2e-05,-2e-05
228994,0.001579,-0.01708,-0.013417,0.0,-0.0,-0.0,3.0,0.3261,0.320443,0.3261,0.331627,-0.0,-988.868964,-0.0,0.0,-10.909338,0.0,0.000601,-0.018482,-0.009453,0.00133,-5e-05,-2e-05
229014,0.001582,-0.017325,-0.013541,0.087266,-0.0,-0.0,3.0,0.3261,0.270877,0.3261,0.370813,0.000254,-989.088221,-0.0,0.100591,-11.04399,4.1e-05,0.000605,-0.018482,-0.009454,0.024533,-8.6e-05,-2e-05
229034,0.001583,-0.017325,-0.013663,0.087266,-0.0,-0.0,3.0,0.3261,0.265087,0.3261,0.37449,0.003219,-989.309866,0.00028,0.206884,-11.13675,0.000542,0.000372,-0.018483,-0.009454,0.045838,-7.4e-05,-3.2e-05
229054,0.001951,-0.017689,-0.013538,0.087266,-0.0,-0.0,3.0,0.3261,0.266855,0.3261,0.373385,0.007148,-989.533019,0.001335,0.194561,-11.182692,0.00122,0.000615,-0.018484,-0.009454,0.022204,-6.2e-05,-2e-05
229074,0.00305,-0.017681,-0.013528,0.087266,-0.0,-0.0,3.0,0.3261,0.272174,0.3261,0.369967,0.010872,-989.756717,0.003223,0.169819,-11.179301,0.001826,0.001338,-0.018485,-0.009455,0.023882,-4.9e-05,-1.9e-05
229094,0.005003,-0.017668,-0.013511,0.087266,-0.0,-0.0,3.0,0.3261,0.282393,0.3261,0.362997,0.01486,-989.979967,0.006021,0.160451,-11.126711,0.002369,0.003027,-0.018486,-0.009455,0.051318,-4.8e-05,-1.8e-05
229114,0.008299,-0.017523,-0.013604,0.087266,-0.0,-0.0,3.0,0.3261,0.293538,0.3261,0.354747,0.019866,-990.201798,0.010105,0.154186,-11.027699,0.002885,0.005822,-0.018487,-0.009455,0.124232,-4.5e-05,-1.5e-05
229134,0.012816,-0.017369,-0.013686,0.087266,-0.0,-0.0,3.0,0.3261,0.301338,0.3261,0.348538,0.026868,-990.421306,0.016381,0.143325,-10.887459,0.003372,0.00973,-0.018488,-0.009456,0.19455,-3e-05,-3.6e-05
229154,0.018556,-0.017325,-0.014001,0.087266,-0.0,-0.0,3.0,0.3261,0.312474,0.3261,0.338994,0.038057,-990.637695,0.027083,0.125597,-10.713173,0.003809,0.01484,-0.018488,-0.009457,0.268797,-3.8e-05,-5.5e-05
229174,0.025272,-0.017274,-0.014187,0.087266,-0.0,-0.0,3.0,0.3261,0.323147,0.3261,0.329018,0.060502,-990.850278,0.049381,0.09423,-10.513444,0.00417,0.021176,-0.018489,-0.009458,0.295176,-4.5e-05,-7.4e-05
229194,0.032847,-0.017333,-0.014607,0.087266,-0.0,-0.0,3.0,0.3261,0.332024,0.3261,0.320027,0.136336,-991.058264,0.125703,0.01731,-10.297686,0.004392,0.028374,-0.01849,-0.00946,0.320857,-6.4e-05,-0.000115
229214,0.040911,-0.017503,-0.01514,0.087266,-0.0,-0.0,3.0,0.3261,0.339469,0.3261,0.311942,0.277321,-991.19981,0.268075,-0.516463,-10.0755,-0.018263,0.036183,-0.018491,-0.009463,0.393389,-6.8e-05,-0.000168
229234,0.049221,-0.017544,-0.015673,0.087266,-0.0,-0.0,3.0,0.3261,0.343444,0.3261,0.307403,-0.041183,-991.396138,-0.040881,-0.143689,-9.853934,-0.037347,0.044246,-0.018492,-0.009466,0.46355,-6e-05,-0.000221
229254,0.057775,-0.017703,-0.016076,0.087266,-0.0,-0.0,3.0,0.3261,0.345186,0.3261,0.305361,-0.021798,-991.591523,-0.020733,0.188013,-9.641329,-0.046066,0.052444,-0.018493,-0.009471,0.46173,-7.6e-05,-0.000261
229274,0.06572,-0.017863,-0.016482,0.087266,-0.0,-0.0,3.0,0.3261,0.347222,0.3261,0.302932,-0.012153,-991.782835,-0.015233,0.266108,-9.445572,-0.0454,0.060629,-0.018494,-0.009477,0.368233,-8e-05,-0.000302
229294,0.072566,-0.018029,-0.016896,0.087266,-0.0,-0.0,3.0,0.3261,0.346113,0.3261,0.30426,-0.006032,-991.970412,-0.013754,0.213659,-9.273132,-0.044717,0.067972,-0.018496,-0.009483,0.319559,-9.7e-05,-0.000343
229314,0.078553,-0.018203,-0.017192,0.087266,-0.0,-0.0,3.0,0.3261,0.344498,0.3261,0.306171,-0.002072,-992.15475,-0.013833,0.185792,-9.129539,-0.044174,0.074713,-0.018498,-0.00949,0.292315,-8.9e-05,-0.000372
229334,0.083567,-0.01839,-0.017377,0.087266,-0.0,-0.0,3.0,0.3261,0.341391,0.3261,0.309768,0.001205,-992.33646,-0.014669,0.183745,-9.019241,-0.043682,0.08047,-0.0185,-0.009498,0.243206,-0.000107,-0.00039
229354,0.087846,-0.018222,-0.017464,0.087266,-0.0,-0.0,3.0,0.3261,0.342487,0.3261,0.308511,0.004429,-992.51623,-0.01605,0.182998,-8.94547,-0.043196,0.085477,-0.018502,-0.009506,0.149734,-0.000114,-0.000408
229374,0.091026,-0.018303,-0.01767,0.087266,-0.0,-0.0,3.0,0.3261,0.337637,0.3261,0.313981,0.007765,-992.694806,-0.017947,0.178613,-8.910275,-0.042719,0.089027,-0.018505,-0.009514,0.126494,-0.000134,-0.000427
229394,0.093105,-0.018149,-0.0179,0.087266,-0.0,-0.0,3.0,0.3261,0.332453,0.3261,0.319575,0.01135,-992.872967,-0.02042,0.173032,-8.91459,-0.042257,0.09148,-0.018508,-0.009523,0.125703,-0.000154,-0.000447
229414,0.094204,-0.01826,-0.017882,0.087266,-0.0,-0.0,3.0,0.3261,0.32298,0.3261,0.329181,0.015402,-993.0515,-0.023619,0.166974,-8.95826,-0.041808,0.092726,-0.018511,-0.009532,0.120431,-0.00014,-0.000458
229434,0.094693,-0.018371,-0.017992,0.087266,-0.0,-0.0,3.0,0.3261,0.316205,0.3261,0.335604,0.02025,-993.231179,-0.027838,0.159628,-9.040042,-0.041374,0.093227,-0.018513,-0.009541,0.094212,-0.000127,-0.000457
229454,0.09457,-0.018251,-0.017999,0.087266,-0.0,-0.0,3.0,0.3261,0.31275,0.3261,0.338747,0.026451,-993.412744,-0.033632,0.149864,-9.157599,-0.040957,0.093352,-0.018515,-0.00955,0.022862,-0.000115,-0.000445
229474,0.093838,-0.018264,-0.017886,0.087266,-0.0,-0.0,3.0,0.3261,0.309061,0.3261,0.342008,0.035101,-993.596868,-0.042127,0.136023,-9.307471,-0.040564,0.092997,-0.018518,-0.009559,-0.026465,-9.1e-05,-0.000446
229494,0.093226,-0.018154,-0.017776,0.087266,-0.0,-0.0,3.0,0.3261,0.308692,0.3261,0.34233,0.048767,-993.784129,-0.055963,0.114642,-9.485052,-0.040209,0.092515,-0.01852,-0.009568,-0.050949,-0.000104,-0.000445
229514,0.092859,-0.018036,-0.017786,0.087266,-0.0,-0.0,3.0,0.3261,0.313739,0.3261,0.337856,0.075252,-993.974936,-0.0831,0.076681,-9.684581,-0.039921,0.092381,-0.018523,-0.009576,-0.071851,-0.000116,-0.000444
229534,0.092859,-0.018036,-0.017786,0.087266,-0.0,-0.0,3.0,0.3261,0.315944,0.3261,0.335844,0.154439,-994.169202,-0.16381,-0.01152,-9.899168,-0.039776,0.092257,-0.018526,-0.009585,-0.000325,-0.000152,-0.000441
229554,0.093471,-0.018273,-0.017768,0.087266,-0.0,-0.0,3.0,0.3261,0.320461,0.3261,0.33161,-186.170726,-994.35422,186.157955,-0.384219,-10.12084,-0.05109,0.092607,-0.018528,-0.009594,0.002789,-0.000177,-0.000426
229574,0.094447,-0.018385,-0.017751,0.087266,-0.0,-0.0,3.0,0.3261,0.321803,0.3261,0.330322,-204.721781,-994.293427,204.711822,0.907555,-10.344001,-0.124765,0.09309,-0.018531,-0.009602,0.050751,-0.000175,-0.000425
229594,0.095431,-0.01862,-0.017732,0.087266,-0.0,-0.0,3.0,0.3261,0.321312,0.3261,0.330795,-204.135643,-994.105465,204.154677,2.075698,-10.572242,-0.194613,0.093822,-0.018534,-0.009611,0.098434,-0.000162,-0.000424
229614,0.096773,-0.018601,-0.017838,0.087266,-0.0,-0.0,3.0,0.3261,0.320888,0.3261,0.331202,-204.145749,-993.892904,204.216803,3.132331,-10.80274,-0.260842,0.094812,-0.018537,-0.009619,0.118995,-0.000161,-0.000422
229634,0.09812,-0.018588,-0.017826,0.087266,-0.0,-0.0,3.0,0.3261,0.322517,0.3261,0.329631,-204.113175,-993.676044,204.259501,4.082068,-11.029083,-0.323649,0.096279,-0.018539,-0.009628,0.070821,-0.00011,-0.000434
229654,0.099582,-0.018323,-0.017943,0.087266,-0.0,-0.0,3.0,0.3261,0.328371,0.3261,0.323808,-204.060176,-993.45592,204.306474,4.92831,-11.244326,-0.383252,0.098101,-0.018542,-0.009637,0.002782,-8.3e-05,-0.000445
229674,0.10105,-0.018059,-0.018064,0.087266,-0.0,-0.0,3.0,0.3261,0.331947,0.3261,0.320108,-203.989095,-993.234137,204.36331,5.673674,-11.441773,-0.439894,0.099932,-0.018544,-0.009646,-0.020109,-8.1e-05,-0.000443
229694,0.102514,-0.018037,-0.018169,0.087266,-0.0,-0.0,3.0,0.3261,0.333568,0.3261,0.318393,-203.898457,-993.013258,204.434301,6.320821,-11.615897,-0.493849,0.101517,-0.018546,-0.009655,0.052165,-0.000103,-0.000451
229714,0.104228,-0.018142,-0.018146,0.087266,-0.0,-0.0,3.0,0.3261,0.334822,0.3261,0.31705,-203.784286,-992.797215,204.524769,6.873363,-11.763255,-0.54542,0.102979,-0.018549,-0.009664,0.076175,-0.000113,-0.00046
229734,0.105576,-0.018251,-0.018128,0.087266,-0.0,-0.0,3.0,0.3261,0.331024,0.3261,0.321073,-203.639871,-992.59199,204.642118,7.336626,-11.883257,-0.594927,0.103967,-0.018551,-0.009673,0.099049,-0.000135,-0.000469
229754,0.106554,-0.018356,-0.018232,0.087266,-0.0,-0.0,3.0,0.3261,0.325858,0.3261,0.326342,-203.455521,-992.406707,204.796326,7.718123,-11.978669,-0.642691,0.104718,-0.018554,-0.009682,0.142469,-0.000158,-0.000465
229774,0.107172,-0.018466,-0.018344,0.087266,-0.0,-0.0,3.0,0.3261,0.321211,0.3261,0.330892,-203.220081,-992.255061,204.998521,8.02762,-12.055716,-0.689012,0.105346,-0.018557,-0.009692,0.092186,-0.000157,-0.000476
229794,0.107418,-0.018579,-0.018456,0.087266,-0.0,-0.0,3.0,0.3261,0.31928,0.3261,0.332732,-202.928123,-992.155892,205.253835,8.276768,-12.123809,-0.73415,0.105844,-0.01856,-0.009701,0.020015,-0.000156,-0.000487
229814,0.107173,-0.018459,-0.018465,0.087266,-0.0,-0.0,3.0,0.3261,0.322828,0.3261,0.329328,-202.594805,-992.129178,205.546542,8.478409,-12.194972,-0.778302,0.106449,-0.018563,-0.009711,-0.07318,-0.00013,-0.0005
229834,0.106802,-0.018584,-0.01846,0.087266,-0.0,-0.0,3.0,0.3261,0.322785,0.3261,0.32937,-202.261449,-992.184766,205.834344,8.645824,-12.283115,-0.821591,0.106449,-0.018565,-0.009721,-0.073127,-0.000143,-0.000486
229854,0.106679,-0.018463,-0.018468,0.087266,-0.0,-0.0,3.0,0.3261,0.32395,0.3261,0.328232,-201.968216,-992.314146,206.075472,8.79184,-12.403026,-0.864056,0.106322,-0.018568,-0.009731,-0.048963,-0.00013,-0.000485
229874,0.106557,-0.018465,-0.018469,0.087266,-0.0,-0.0,3.0,0.3261,0.325821,0.3261,0.32638,-201.726432,-992.498011,206.256042,8.927575,-12.568922,-0.905656,0.10618,-0.018571,-0.00974,-0.045281,-0.000131,-0.000472
229894,0.106555,-0.018478,-0.018225,0.087266,-0.0,-0.0,3.0,0.3261,0.325981,0.3261,0.326219,-201.525343,-992.718548,206.382525,9.061314,-12.792834,-0.946269,0.105932,-0.018574,-0.00975,0.002466,-0.000143,-0.000459
229914,0.106674,-0.018361,-0.018109,0.087266,-0.0,-0.0,3.0,0.3261,0.324426,0.3261,0.327763,-201.347667,-992.963669,206.46433,9.197817,-13.083236,-0.985715,0.105818,-0.018577,-0.009759,0.024131,-0.000131,-0.000458
229934,0.107041,-0.018479,-0.018098,0.087266,-0.0,-0.0,3.0,0.3261,0.32368,0.3261,0.328496,-201.174335,-993.225584,206.504498,9.337875,-13.443941,-1.023777,0.105824,-0.01858,-0.009768,0.046703,-0.000143,-0.000457
229954,0.10729,-0.018356,-0.018105,0.087266,-0.0,-0.0,3.0,0.3261,0.324706,0.3261,0.327486,-200.978692,-993.497824,206.492345,9.478056,-13.873217,-1.060224,0.106062,-0.018582,-0.009777,0.049022,-0.000142,-0.000456
229974,0.107536,-0.018468,-0.018217,0.087266,-0.0,-0.0,3.0,0.3261,0.324346,0.3261,0.327842,-200.701851,-993.769981,206.380649,9.610592,-14.363216,-1.094849,0.106317,-0.018585,-0.009786,0.023894,-0.000166,-0.000453
229994,0.107904,-0.01858,-0.018328,0.087266,-0.0,-0.0,3.0,0.3261,0.324088,0.3261,0.328096,-200.143937,-994.007448,205.979255,9.72323,-14.900013,-1.127508,0.106566,-0.018588,-0.009795,0.046209,-0.000153,-0.000453
230014,0.107906,-0.018824,-0.018315,0.087266,-0.0,-0.0,3.0,0.3261,0.322949,0.3261,0.329211,-198.883443,-994.048895,204.876696,9.799537,-15.464935,-1.158162,0.106815,-0.018591,-0.009804,-0.001386,-0.000165,-0.000463
230034,0.108027,-0.018572,-0.018449,0.087266,-0.0,-0.0,3.0,0.3261,0.326233,0.3261,0.325968,-198.194708,-993.788233,204.357381,9.824126,-16.034801,-1.186918,0.10717,-0.018594,-0.009813,-0.046478,-0.000152,-0.000463
230054,0.107906,-0.018695,-0.018444,0.087266,-0.0,-0.0,3.0,0.3261,0.325671,0.3261,0.326528,-197.949733,-993.464879,204.299349,9.79191,-16.582082,-1.214032,0.107298,-0.018597,-0.009823,-0.024108,-0.000151,-0.000462
230074,0.107904,-0.01858,-0.018328,0.087266,-0.0,-0.0,3.0,0.3261,0.326205,0.3261,0.325995,-197.777656,-993.13094,204.343143,9.699339,-17.082902,-1.239881,0.107294,-0.0186,-0.009832,-0.023619,-0.000139,-0.000461
230094,0.107903,-0.018458,-0.018335,0.087266,-0.0,-0.0,3.0,0.3261,0.329832,0.3261,0.32231,-197.608779,-992.798579,204.441216,9.545203,-17.519951,-1.264946,0.107525,-0.018603,-0.009841,-0.068227,-0.000126,-0.000461
230114,0.107781,-0.018459,-0.018336,0.087266,-0.0,-0.0,3.0,0.3261,0.32839,0.3261,0.323789,-197.407423,-992.480981,204.597854,9.333988,-17.885419,-1.289762,0.107282,-0.018606,-0.009851,0.002474,-0.000138,-0.000472
230134,0.108024,-0.018335,-0.01834,0.087266,-0.0,-0.0,3.0,0.3261,0.326301,0.3261,0.325899,-197.131672,-992.201245,204.8428,9.076142,-18.182872,-1.314849,0.107047,-0.018609,-0.00986,0.0947,-0.000149,-0.00047
230154,0.108026,-0.018579,-0.018327,0.087266,-0.0,-0.0,3.0,0.3261,0.3225,0.3261,0.329648,-196.727807,-992.004689,205.223633,8.786582,-18.426931,-1.340643,0.106812,-0.018612,-0.009869,0.069614,-0.000149,-0.000469
230174,0.108269,-0.018454,-0.018331,0.087266,-0.0,-0.0,3.0,0.3261,0.322453,0.3261,0.329692,-196.200732,-991.96353,205.731852,8.481825,-18.640968,-1.367443,0.10669,-0.018615,-0.009878,0.045932,-0.00015,-0.000456
230194,0.107904,-0.01858,-0.018328,0.087266,-0.0,-0.0,3.0,0.3261,0.321589,0.3261,0.330528,-195.7223,-992.113013,206.193275,8.177378,-18.854405,-1.395387,0.106692,-0.018617,-0.009887,-0.001293,-0.00015,-0.000456
230214,0.107658,-0.018467,-0.018216,0.087266,-0.0,-0.0,3.0,0.3261,0.321034,0.3261,0.331062,-195.407164,-992.39257,206.4917,7.885555,-19.09889,-1.424457,0.106579,-0.01862,-0.009896,-0.003421,-0.000138,-0.000444
230234,0.107536,-0.018468,-0.018217,0.087266,-0.0,-0.0,3.0,0.3261,0.325298,0.3261,0.3269,-195.209058,-992.734957,206.672656,7.612695,-19.401104,-1.45451,0.106939,-0.018623,-0.009905,-0.049711,-0.000126,-0.000431
230254,0.107414,-0.01847,-0.018219,0.087266,-0.0,-0.0,3.0,0.3261,0.328016,0.3261,0.324169,-195.072566,-993.108901,206.790065,7.359014,-19.776827,-1.485336,0.107048,-0.018626,-0.009914,-0.070685,-0.000126,-0.00043
230274,0.107412,-0.018354,-0.018103,0.087266,-0.0,-0.0,3.0,0.3261,0.332091,0.3261,0.319956,-194.965758,-993.502384,206.870883,7.119214,-20.227919,-1.516721,0.107278,-0.018628,-0.009923,-0.044321,-0.000125,-0.000441
230294,0.107536,-0.018468,-0.018217,0.087266,-0.0,-0.0,3.0,0.3261,0.331519,0.3261,0.320557,-194.862299,-993.910558,206.919231,6.883336,-20.741214,-1.548515,0.107153,-0.018631,-0.009932,0.003438,-0.000136,-0.000439
230314,0.107902,-0.018465,-0.018213,0.087266,-0.0,-0.0,3.0,0.3261,0.327761,0.3261,0.324428,-194.529628,-994.329433,206.720939,6.637713,-21.289496,-1.580682,0.106797,-0.018634,-0.00994,0.095577,-0.000148,-0.000438
