time_ms,roll,pitch,yaw,reference_roll,reference_pitch,reference_yaw,reference_throttle,throttle_1,throttle_2,throttle_3,throttle_4,roll_predicted,pitch_predicted,yaw_predicted,roll_rate_predicted,pitch_rate_predicted,yaw_rate_predicted,value1,value2,value3,value4,value5,value6
435140,0.001907,-0.016744,0.020164,0.0,-0.0,-0.0,3.0,0.3261,0.318446,0.3261,0.333518,,,,,,,0.000571,-0.017773,0.026471,0.023324,-2e-06,0.000135
435160,0.002152,-0.016625,0.020165,0.0,-0.0,-0.0,3.0,0.3261,0.317591,0.3261,0.334318,,,,,,,0.000575,-0.017772,0.026473,0.047595,3.4e-05,0.000135
435180,0.002151,-0.016747,0.020166,0.0,-0.0,-0.0,3.0,0.3261,0.31713,0.3261,0.334747,,,,,,,0.000696,-0.017772,0.026476,-0.024657,4.7e-05,0.000122
435200,0.002278,-0.01626,0.020166,0.0,-0.0,-0.0,3.0,0.3261,0.320474,0.3261,0.331597,,,,,,,0.000939,-0.017772,0.026478,-0.048329,7.1e-05,0.000122
435220,0.002034,-0.016257,0.020164,0.0,-0.0,-0.0,3.0,0.3261,0.320435,0.3261,0.331635,,,,,,,0.001059,-0.017771,0.02648,-0.048088,5.8e-05,0.000122
435240,0.002156,-0.016137,0.020287,0.0,-0.0,-0.0,3.0,0.3261,0.324992,0.3261,0.327203,,,,,,,0.0013,-0.017771,0.026483,-0.047646,4.6e-05,0.000122
435260,0.002156,-0.016259,0.020165,0.0,-0.0,-0.0,3.0,0.3261,0.322745,0.3261,0.329409,,,,,,,0.001174,-0.01777,0.026485,-0.023379,9e-06,0.000122
435280,0.002399,-0.016383,0.020167,0.0,-0.0,-0.0,3.0,0.3261,0.32292,0.3261,0.329238,,,,,,,0.001051,-0.01777,0.026488,0.024858,-1.5e-05,0.000122
435300,0.002642,-0.016508,0.020169,0.0,-0.0,-0.0,3.0,0.3261,0.319103,0.3261,0.332899,,,,,,,0.000932,-0.01777,0.02649,0.097106,-2.8e-05,0.000122
435320,0.002639,-0.016752,0.02017,0.0,-0.0,-0.0,3.0,0.3261,0.314464,0.3261,0.337198,,,,,,,0.000812,-0.01777,0.026493,0.072349,-2.7e-05,0.000121
435340,0.002762,-0.016631,0.02017,0.0,-0.0,-0.0,3.0,0.3261,0.313855,0.3261,0.337751,,,,,,,0.000813,-0.01777,0.026495,0.023868,-3e-06,0.000121
435360,0.002643,-0.016508,0.020047,0.0,-0.0,-0.0,3.0,0.3261,0.315854,0.3261,0.335926,,,,,,,0.00106,-0.01777,0.026498,-0.048871,2.2e-05,0.000108
435380,0.002398,-0.016505,0.020045,0.0,-0.0,-0.0,3.0,0.3261,0.317291,0.3261,0.334598,,,,,,,0.00118,-0.01777,0.0265,-0.048869,-3e-06,0.000108
435400,0.002154,-0.016503,0.020043,0.0,-0.0,-0.0,3.0,0.3261,0.317892,0.3261,0.334037,,,,,,,0.00118,-0.01777,0.026502,-0.048385,2.2e-05,0.000108
435420,0.002275,-0.016626,0.020044,0.0,-0.0,-0.0,3.0,0.3261,0.322031,0.3261,0.330102,,,,,,,0.0013,-0.017769,0.026504,-0.024317,-3e-06,0.00012
435440,0.002397,-0.016627,0.020045,0.0,-0.0,-0.0,3.0,0.3261,0.325981,0.3261,0.326219,,,,,,,0.001542,-0.01777,0.026507,-0.072886,-1.5e-05,0.00012
435460,0.002639,-0.016752,0.02017,0.0,-0.0,-0.0,3.0,0.3261,0.325379,0.3261,0.326819,,,,,,,0.001421,-0.01777,0.026509,-4.6e-05,-1.6e-05,0.00012
435480,0.00264,-0.01663,0.020169,0.0,-0.0,-0.0,3.0,0.3261,0.323237,0.3261,0.32893,,,,,,,0.001422,-0.01777,0.026511,0.024171,-3e-06,0.00012
435500,0.002761,-0.016753,0.020171,0.0,-0.0,-0.0,3.0,0.3261,0.319874,0.3261,0.332169,,,,,,,0.001301,-0.01777,0.026513,0.048728,9e-06,0.000107
435520,0.002764,-0.016509,0.02017,0.0,-0.0,-0.0,3.0,0.3261,0.316276,0.3261,0.335538,,,,,,,0.001179,-0.01777,0.026515,0.024702,2.1e-05,0.000107
435540,0.002888,-0.016388,0.020049,0.0,-0.0,-0.0,3.0,0.3261,0.318911,0.3261,0.33308,,,,,,,0.001301,-0.01777,0.026518,0.024803,2.1e-05,0.000107
435560,0.002765,-0.016509,0.020048,0.0,-0.0,-0.0,3.0,0.3261,0.314939,0.3261,0.336766,,,,,,,0.001178,-0.01777,0.02652,0.024357,-3e-06,0.000106
435580,0.002887,-0.01651,0.020049,0.0,-0.0,-0.0,3.0,0.3261,0.317794,0.3261,0.334129,,,,,,,0.001298,-0.01777,0.026522,0.02466,-1.6e-05,0.000106
435600,0.002885,-0.016632,0.020049,0.0,-0.0,-0.0,3.0,0.3261,0.31799,0.3261,0.333946,,,,,,,0.00142,-0.01777,0.026524,-0.000141,-4e-05,0.000106
435620,0.002884,-0.016754,0.02005,0.0,-0.0,-0.0,3.0,0.3261,0.3188,0.3261,0.333185,,,,,,,0.001543,-0.01777,0.026527,-0.024661,-2.8e-05,0.000118
435640,0.002761,-0.016875,0.020049,0.0,-0.0,-0.0,3.0,0.3261,0.31962,0.3261,0.33241,,,,,,,0.001544,-0.017771,0.026529,-0.0246,-2.8e-05,0.000106
435660,0.002884,-0.016754,0.02005,0.0,-0.0,-0.0,3.0,0.3261,0.321303,0.3261,0.330804,,,,,,,0.001668,-0.017771,0.026531,-0.024801,-1.6e-05,0.000105
435680,0.002761,-0.016875,0.020049,0.0,-0.0,-0.0,3.0,0.3261,0.320415,0.3261,0.331654,,,,,,,0.001669,-0.017771,0.026533,-0.025003,-3e-06,0.000117
435700,0.002884,-0.016754,0.02005,0.0,-0.0,-0.0,3.0,0.3261,0.320939,0.3261,0.331153,,,,,,,0.001668,-0.017771,0.026535,-0.0002,9e-06,0.000117
435720,0.003005,-0.016756,0.020173,0.0,-0.0,-0.0,3.0,0.3261,0.323173,0.3261,0.328992,,,,,,,0.001788,-0.017771,0.026537,-0.023867,9e-06,0.000105
435740,0.003005,-0.016756,0.020173,0.0,-0.0,-0.0,3.0,0.3261,0.321573,0.3261,0.330543,,,,,,,0.001663,-0.017772,0.02654,0.000895,9e-06,0.000105
435760,0.003009,-0.016511,0.02005,0.0,-0.0,-0.0,3.0,0.3261,0.318755,0.3261,0.333227,,,,,,,0.001542,-0.017772,0.026542,0.024803,-3e-06,0.000104
435780,0.002886,-0.01651,0.020171,0.0,-0.0,-0.0,3.0,0.3261,0.315801,0.3261,0.335976,,,,,,,0.001421,-0.017772,0.026544,0.048913,-3e-06,0.000104
435800,0.002886,-0.01651,0.020171,0.0,-0.0,-0.0,3.0,0.3261,0.316309,0.3261,0.335508,,,,,,,0.00142,-0.017772,0.026546,0.024598,-1.5e-05,0.000104
435820,0.002887,-0.01651,0.020049,0.0,-0.0,-0.0,3.0,0.3261,0.321563,0.3261,0.330553,,,,,,,0.001663,-0.017773,0.026548,-0.048284,-2.7e-05,0.000104
435840,0.003007,-0.016633,0.02005,0.0,-0.0,-0.0,3.0,0.3261,0.321727,0.3261,0.330395,,,,,,,0.001664,-0.017773,0.02655,-0.024703,-5.2e-05,0.000104
435860,0.002884,-0.016754,0.02005,0.0,-0.0,-0.0,3.0,0.3261,0.318107,0.3261,0.333836,,,,,,,0.001545,-0.017773,0.026553,0.023437,-4e-05,0.000103
435880,0.002758,-0.017119,0.020049,0.0,-0.0,-0.0,3.0,0.3261,0.317279,0.3261,0.334609,,,,,,,0.001421,-0.017773,0.026555,0.023883,-4e-05,0.000103
435900,0.002882,-0.016998,0.02005,0.0,-0.0,-0.0,3.0,0.3261,0.318336,0.3261,0.333621,,,,,,,0.001424,-0.017773,0.026557,0.023676,-1.5e-05,0.000115
435920,0.003003,-0.017122,0.020051,0.0,-0.0,-0.0,3.0,0.3261,0.319871,0.3261,0.332172,,,,,,,0.001546,-0.017774,0.026559,-0.024802,-3e-06,0.000115
435940,0.002882,-0.016876,0.020172,0.0,-0.0,-0.0,3.0,0.3261,0.318506,0.3261,0.333461,,,,,,,0.001546,-0.017774,0.026561,-0.024365,2.1e-05,0.000114
435960,0.002762,-0.016631,0.02017,0.0,-0.0,-0.0,3.0,0.3261,0.318971,0.3261,0.333024,,,,,,,0.001545,-0.017774,0.026563,0.00019,2.1e-05,0.000114
435980,0.002764,-0.016509,0.02017,0.0,-0.0,-0.0,3.0,0.3261,0.322213,0.3261,0.329925,,,,,,,0.001786,-0.017775,0.026566,-0.047651,2.1e-05,0.000102
436000,0.002765,-0.016387,0.02017,0.0,-0.0,-0.0,3.0,0.3261,0.323924,0.3261,0.328257,,,,,,,0.001784,-0.017775,0.026568,-0.023137,9e-06,0.000102
436020,0.002886,-0.01651,0.020171,0.0,-0.0,-0.0,3.0,0.3261,0.3248,0.3261,0.327393,,,,,,,0.001783,-0.017775,0.02657,0.000994,-1.5e-05,0.000102
436040,0.002886,-0.01651,0.020171,0.0,-0.0,-0.0,3.0,0.3261,0.321185,0.3261,0.330916,,,,,,,0.00154,-0.017775,0.026572,0.048827,-2.8e-05,0.000114
436060,0.003005,-0.016756,0.020173,0.0,-0.0,-0.0,3.0,0.3261,0.317481,0.3261,0.334421,,,,,,,0.001298,-0.017775,0.026575,0.096761,-4e-05,0.000114
436080,0.003248,-0.01688,0.020175,0.0,-0.0,-0.0,3.0,0.3261,0.316146,0.3261,0.335658,,,,,,,0.001299,-0.017776,0.026577,0.048035,-4e-05,0.000113
436100,0.003125,-0.017001,0.020174,0.0,-0.0,-0.0,3.0,0.3261,0.314485,0.3261,0.337179,,,,,,,0.001302,-0.017776,0.026579,-0.000689,-1.5e-05,0.000113
436120,0.00276,-0.016875,0.020171,0.0,-0.0,-0.0,3.0,0.3261,0.314322,0.3261,0.337327,,,,,,,0.0013,-0.017776,0.026581,-0.024613,-1.5e-05,0.000112
436140,0.002517,-0.016751,0.020169,0.0,-0.0,-0.0,3.0,0.3261,0.31614,0.3261,0.335664,,,,,,,0.0013,-0.017777,0.026584,-0.024369,-2e-06,0.000112
436160,0.002518,-0.01675,0.020047,0.0,-0.0,-0.0,3.0,0.3261,0.323384,0.3261,0.328786,,,,,,,0.001664,-0.017777,0.026586,-0.048627,-1.5e-05,0.000112
436180,0.002517,-0.016873,0.020047,0.0,-0.0,-0.0,3.0,0.3261,0.324544,0.3261,0.327646,,,,,,,0.001785,-0.017777,0.026588,-0.072841,-2.7e-05,0.000112
436200,0.002882,-0.016876,0.020172,0.0,-0.0,-0.0,3.0,0.3261,0.328351,0.3261,0.323828,,,,,,,0.001783,-0.017778,0.02659,-0.023813,-2.7e-05,0.000112
436220,0.002882,-0.016876,0.020172,0.0,-0.0,-0.0,3.0,0.3261,0.323876,0.3261,0.328304,,,,,,,0.001663,-0.017778,0.026592,0.048683,-2.7e-05,0.000112
436240,0.003125,-0.017001,0.020174,0.0,-0.0,-0.0,3.0,0.3261,0.318392,0.3261,0.333568,,,,,,,0.00142,-0.017779,0.026595,0.097008,-2.7e-05,0.000112
436260,0.003245,-0.017124,0.020297,0.0,-0.0,-0.0,3.0,0.3261,0.315473,0.3261,0.336276,,,,,,,0.00142,-0.01778,0.026597,0.07274,-2.7e-05,0.000111
436280,0.00337,-0.016881,0.020176,0.0,-0.0,-0.0,3.0,0.3261,0.317034,0.3261,0.334836,,,,,,,0.001542,-0.01778,0.026599,0.02446,-1.5e-05,0.000111
436300,0.003127,-0.016757,0.020174,0.0,-0.0,-0.0,3.0,0.3261,0.316579,0.3261,0.335259,,,,,,,0.001664,-0.017781,0.026601,-0.024268,-2.7e-05,9.8e-05
436320,0.003131,-0.016512,0.020051,0.0,-0.0,-0.0,3.0,0.3261,0.319655,0.3261,0.332377,,,,,,,0.001786,-0.017781,0.026603,-0.023925,-1.5e-05,9.8e-05
436340,0.00325,-0.016758,0.020053,0.0,-0.0,-0.0,3.0,0.3261,0.321433,0.3261,0.330679,,,,,,,0.002029,-0.017782,0.026605,-0.02421,-3.9e-05,9.8e-05
436360,0.003372,-0.016759,0.020054,0.0,-0.0,-0.0,3.0,0.3261,0.323036,0.3261,0.329126,,,,,,,0.002151,-0.017782,0.026607,-0.048568,-3.9e-05,9.8e-05
436380,0.00337,-0.017003,0.020054,0.0,-0.0,-0.0,3.0,0.3261,0.322535,0.3261,0.329614,,,,,,,0.002152,-0.017782,0.026609,-0.000639,-5.2e-05,0.00011
436400,0.003491,-0.017126,0.020055,0.0,-0.0,-0.0,3.0,0.3261,0.323124,0.3261,0.32904,,,,,,,0.002276,-0.017783,0.026612,-0.000637,-4e-05,0.00011
436420,0.00349,-0.017248,0.020056,0.0,-0.0,-0.0,3.0,0.3261,0.319158,0.3261,0.332847,,,,,,,0.002155,-0.017784,0.026614,-0.000794,-2.7e-05,0.00011
436440,0.003612,-0.017128,0.020178,0.0,-0.0,-0.0,3.0,0.3261,0.322491,0.3261,0.329656,,,,,,,0.002277,-0.017784,0.026616,-0.000345,-1.5e-05,0.00011
436460,0.003614,-0.016884,0.020178,0.0,-0.0,-0.0,3.0,0.3261,0.32368,0.3261,0.328497,,,,,,,0.002397,-0.017785,0.026618,-0.023865,-3e-06,9.7e-05
436480,0.003617,-0.016761,0.020056,0.0,-0.0,-0.0,3.0,0.3261,0.323484,0.3261,0.328688,,,,,,,0.002394,-0.017786,0.02662,-0.023377,-3e-06,9.7e-05
436500,0.003619,-0.016517,0.020055,0.0,-0.0,-0.0,3.0,0.3261,0.320575,0.3261,0.331501,,,,,,,0.002273,-0.017786,0.026622,0.025046,-3e-06,9.7e-05
436520,0.00362,-0.016395,0.020055,0.0,-0.0,-0.0,3.0,0.3261,0.318363,0.3261,0.333596,,,,,,,0.002152,-0.017786,0.026624,0.049256,-3e-06,9.7e-05
436540,0.003619,-0.016517,0.020055,0.0,-0.0,-0.0,3.0,0.3261,0.31848,0.3261,0.333486,,,,,,,0.002152,-0.017786,0.026625,0.048767,-2.7e-05,9.7e-05
436560,0.003862,-0.016642,0.020057,0.0,-0.0,-0.0,3.0,0.3261,0.320416,0.3261,0.331653,,,,,,,0.002275,-0.017787,0.026627,-0.024559,-3.9e-05,9.6e-05
436580,0.003858,-0.016886,0.02018,0.0,-0.0,-0.0,3.0,0.3261,0.320863,0.3261,0.331225,,,,,,,0.002396,-0.017787,0.02663,-0.024598,-5.1e-05,9.6e-05
436600,0.003612,-0.017128,0.020178,0.0,-0.0,-0.0,3.0,0.3261,0.320535,0.3261,0.331539,,,,,,,0.002398,-0.017787,0.026632,-0.000773,-5.1e-05,9.6e-05
436620,0.003735,-0.017129,0.020057,0.0,-0.0,-0.0,3.0,0.3261,0.320351,0.3261,0.331715,,,,,,,0.002397,-0.017788,0.026634,0.02372,-3.9e-05,0.000108
436640,0.003857,-0.01713,0.020058,0.0,-0.0,-0.0,3.0,0.3261,0.320646,0.3261,0.331433,,,,,,,0.002522,-0.017788,0.026636,-0.000591,-1.5e-05,0.000108
436660,0.003982,-0.016887,0.020059,0.0,-0.0,-0.0,3.0,0.3261,0.322824,0.3261,0.329332,,,,,,,0.002642,-0.017789,0.026638,-0.048278,1e-05,0.000108
436680,0.003861,-0.016642,0.02018,0.0,-0.0,-0.0,3.0,0.3261,0.320502,0.3261,0.331571,,,,,,,0.002521,-0.017789,0.02664,-0.024065,2.2e-05,0.000107
436700,0.00374,-0.016519,0.020178,0.0,-0.0,-0.0,3.0,0.3261,0.321147,0.3261,0.330953,,,,,,,0.002519,-0.017789,0.026642,0.000738,2.2e-05,0.000107
436720,0.00374,-0.016397,0.0203,0.0,-0.0,-0.0,3.0,0.3261,0.319395,0.3261,0.332623,,,,,,,0.002397,-0.017789,0.026644,0.000431,1e-05,0.000107
436740,0.003863,-0.016398,0.020179,0.0,-0.0,-0.0,3.0,0.3261,0.324781,0.3261,0.327412,,,,,,,0.002639,-0.01779,0.026646,-0.023381,-2e-06,9.5e-05
436760,0.003739,-0.016641,0.020179,0.0,-0.0,-0.0,3.0,0.3261,0.321963,0.3261,0.330168,,,,,,,0.002517,-0.01779,0.026648,0.024411,-3.9e-05,9.5e-05
436780,0.003984,-0.016643,0.020058,0.0,-0.0,-0.0,3.0,0.3261,0.322378,0.3261,0.329766,,,,,,,0.002516,-0.01779,0.02665,0.048687,-5.1e-05,9.5e-05
436800,0.004226,-0.01689,0.020061,0.0,-0.0,-0.0,3.0,0.3261,0.320226,0.3261,0.331834,,,,,,,0.00252,-0.01779,0.026652,0.048096,-3.9e-05,9.4e-05
436820,0.004104,-0.016888,0.02006,0.0,-0.0,-0.0,3.0,0.3261,0.317991,0.3261,0.333944,,,,,,,0.002521,-0.01779,0.026654,-0.000636,-2.7e-05,0.000106
436840,0.00398,-0.017009,0.020059,0.0,-0.0,-0.0,3.0,0.3261,0.317838,0.3261,0.334087,,,,,,,0.0024,-0.017791,0.026657,-0.000391,-2e-06,0.000106
436860,0.003861,-0.016764,0.020058,0.0,-0.0,-0.0,3.0,0.3261,0.318921,0.3261,0.333071,,,,,,,0.002524,-0.017791,0.026659,-0.024757,1e-05,0.000106
436880,0.003738,-0.016763,0.020179,0.0,-0.0,-0.0,3.0,0.3261,0.319176,0.3261,0.33283,,,,,,,0.002524,-0.017791,0.026661,-0.049025,2.2e-05,0.000117
436900,0.003617,-0.01664,0.020178,0.0,-0.0,-0.0,3.0,0.3261,0.322982,0.3261,0.329178,,,,,,,0.002642,-0.017791,0.026663,-0.048093,2.2e-05,0.000105
436920,0.003616,-0.01664,0.0203,0.0,-0.0,-0.0,3.0,0.3261,0.32718,0.3261,0.325016,,,,,,,0.002884,-0.017791,0.026665,-0.072453,-2e-06,0.000105
436940,0.003739,-0.016641,0.020179,0.0,-0.0,-0.0,3.0,0.3261,0.326742,0.3261,0.325457,,,,,,,0.002759,-0.017792,0.026667,-0.023768,-2.7e-05,0.000105
436960,0.003983,-0.016643,0.020181,0.0,-0.0,-0.0,3.0,0.3261,0.325382,0.3261,0.326817,,,,,,,0.002637,-0.017792,0.026669,0.048926,-3.9e-05,0.000105
436980,0.004104,-0.016767,0.020182,0.0,-0.0,-0.0,3.0,0.3261,0.320128,0.3261,0.331927,,,,,,,0.002395,-0.017792,0.026671,0.097353,-2.7e-05,0.000105
437000,0.004347,-0.016891,0.020184,0.0,-0.0,-0.0,3.0,0.3261,0.317767,0.3261,0.334154,,,,,,,0.002396,-0.017793,0.026673,0.072797,-2.7e-05,0.000104
437020,0.004347,-0.016891,0.020184,0.0,-0.0,-0.0,3.0,0.3261,0.315777,0.3261,0.335998,,,,,,,0.002398,-0.017793,0.026675,0.023867,-1.4e-05,0.000116
437040,0.004103,-0.016889,0.020182,0.0,-0.0,-0.0,3.0,0.3261,0.318168,0.3261,0.333778,,,,,,,0.002642,-0.017793,0.026678,-0.048869,-1.4e-05,0.000104
437060,0.003738,-0.016763,0.020179,0.0,-0.0,-0.0,3.0,0.3261,0.3181,0.3261,0.333842,,,,,,,0.002641,-0.017794,0.02668,-0.048681,-1.4e-05,0.000103
437080,0.003614,-0.016884,0.020178,0.0,-0.0,-0.0,3.0,0.3261,0.322644,0.3261,0.329507,,,,,,,0.002761,-0.017794,0.026682,-0.048483,-2.6e-05,0.000103
437100,0.003614,-0.016884,0.020178,0.0,-0.0,-0.0,3.0,0.3261,0.32391,0.3261,0.32827,,,,,,,0.002759,-0.017795,0.026684,-0.048383,-3.9e-05,0.000103
437120,0.003735,-0.017007,0.020179,0.0,-0.0,-0.0,3.0,0.3261,0.327878,0.3261,0.324309,,,,,,,0.002757,-0.017796,0.026686,-0.048226,-5.1e-05,0.000103
437140,0.003857,-0.017008,0.02018,0.0,-0.0,-0.0,3.0,0.3261,0.326912,0.3261,0.325285,,,,,,,0.002639,-0.017797,0.026688,0.048332,-5.1e-05,0.000103
437160,0.003979,-0.017009,0.020181,0.0,-0.0,-0.0,3.0,0.3261,0.320954,0.3261,0.331138,,,,,,,0.002395,-0.017797,0.02669,0.097109,-3.9e-05,0.000103
437180,0.004221,-0.017134,0.020306,0.0,-0.0,-0.0,3.0,0.3261,0.316522,0.3261,0.335311,,,,,,,0.002275,-0.017798,0.026692,0.097052,-2.6e-05,0.000103
437200,0.004347,-0.016891,0.020184,0.0,-0.0,-0.0,3.0,0.3261,0.316651,0.3261,0.335192,,,,,,,0.002395,-0.017799,0.026694,0.024605,-1.4e-05,0.000102
437220,0.004104,-0.016767,0.020182,0.0,-0.0,-0.0,3.0,0.3261,0.319457,0.3261,0.332565,,,,,,,0.002639,-0.017799,0.026696,-0.024166,-2.6e-05,0.000102
437240,0.003982,-0.016765,0.020181,0.0,-0.0,-0.0,3.0,0.3261,0.319174,0.3261,0.332832,,,,,,,0.00264,-0.0178,0.026698,-0.024267,-2.6e-05,0.000102
437260,0.003981,-0.016887,0.020181,0.0,-0.0,-0.0,3.0,0.3261,0.320702,0.3261,0.33138,,,,,,,0.002761,-0.0178,0.0267,-0.02431,-3.8e-05,0.000102
437280,0.003981,-0.016887,0.020181,0.0,-0.0,-0.0,3.0,0.3261,0.322262,0.3261,0.329878,,,,,,,0.002758,-0.017801,0.026703,-0.024109,-5e-05,0.000101
437300,0.003982,-0.016887,0.020059,0.0,-0.0,-0.0,3.0,0.3261,0.325452,0.3261,0.326746,,,,,,,0.002884,-0.017802,0.026705,-0.024605,-3.8e-05,0.000101
437320,0.003857,-0.017008,0.02018,0.0,-0.0,-0.0,3.0,0.3261,0.321191,0.3261,0.330911,,,,,,,0.002642,-0.017802,0.026707,-0.000736,-3.8e-05,0.000101
437340,0.003856,-0.01713,0.020181,0.0,-0.0,-0.0,3.0,0.3261,0.321203,0.3261,0.3309,,,,,,,0.00252,-0.017802,0.026709,0.024068,-1.4e-05,0.000101
437360,0.003857,-0.016886,0.020302,0.0,-0.0,-0.0,3.0,0.3261,0.323442,0.3261,0.328729,,,,,,,0.00264,-0.017803,0.026711,0.000347,-1e-06,0.000101
437380,0.003981,-0.016766,0.020303,0.0,-0.0,-0.0,3.0,0.3261,0.323359,0.3261,0.32881,,,,,,,0.00264,-0.017803,0.026713,0.000348,-1e-06,0.0001
437400,0.004105,-0.016644,0.020182,0.0,-0.0,-0.0,3.0,0.3261,0.321883,0.3261,0.330245,,,,,,,0.00264,-0.017804,0.026715,0.000493,-1e-06,0.0001
437420,0.004105,-0.016644,0.020182,0.0,-0.0,-0.0,3.0,0.3261,0.321341,0.3261,0.330767,,,,,,,0.002639,-0.017804,0.026717,0.024806,-1.3e-05,0.0001
437440,0.004106,-0.016522,0.020181,0.0,-0.0,-0.0,3.0,0.3261,0.321052,0.3261,0.331045,,,,,,,0.002639,-0.017804,0.026719,0.024803,-1.3e-05,0.0001
437460,0.004105,-0.016644,0.020182,0.0,-0.0,-0.0,3.0,0.3261,0.32006,0.3261,0.331992,,,,,,,0.002639,-0.017805,0.026721,0.024456,-2.6e-05,0.0001
437480,0.004105,-0.016644,0.020182,0.0,-0.0,-0.0,3.0,0.3261,0.316922,0.3261,0.334941,,,,,,,0.002519,-0.017805,0.026723,-0.000344,-2.5e-05,9.9e-05
437500,0.003978,-0.01701,0.020303,0.0,-0.0,-0.0,3.0,0.3261,0.321481,0.3261,0.330633,,,,,,,0.00264,-0.017805,0.026725,-0.024602,-3.8e-05,9.9e-05
437520,0.003856,-0.017008,0.020302,0.0,-0.0,-0.0,3.0,0.3261,0.32405,0.3261,0.328133,,,,,,,0.002762,-0.017806,0.026727,-0.048774,-2.5e-05,0.000111
437540,0.003734,-0.017129,0.020179,0.0,-0.0,-0.0,3.0,0.3261,0.322538,0.3261,0.32961,,,,,,,0.002641,-0.017806,0.026729,-0.025054,-3.7e-05,0.000111
437560,0.003734,-0.017007,0.020301,0.0,-0.0,-0.0,3.0,0.3261,0.322215,0.3261,0.329924,,,,,,,0.002518,-0.017807,0.026731,-0.000246,-2.5e-05,0.000111
437580,0.003856,-0.017008,0.020302,0.0,-0.0,-0.0,3.0,0.3261,0.324406,0.3261,0.327783,,,,,,,0.002516,-0.017807,0.026734,0.00045,-1.3e-05,0.00011
437600,0.003857,-0.016886,0.020302,0.0,-0.0,-0.0,3.0,0.3261,0.324042,0.3261,0.328141,,,,,,,0.002514,-0.017808,0.026736,0.000943,-1e-06,0.00011
437620,0.003738,-0.016641,0.020301,0.0,-0.0,-0.0,3.0,0.3261,0.31909,0.3261,0.332912,,,,,,,0.002272,-0.017809,0.026738,0.049021,-1.3e-05,0.00011
437640,0.003738,-0.016641,0.020301,0.0,-0.0,-0.0,3.0,0.3261,0.31875,0.3261,0.333232,,,,,,,0.002273,-0.017809,0.02674,0.0244,-1.3e-05,0.00011
437660,0.003737,-0.016763,0.020301,0.0,-0.0,-0.0,3.0,0.3261,0.321814,0.3261,0.330312,,,,,,,0.002392,-0.017809,0.026742,-0.048137,-3.7e-05,9.7e-05
437680,0.003614,-0.016884,0.020178,0.0,-0.0,-0.0,3.0,0.3261,0.323276,0.3261,0.328891,,,,,,,0.002393,-0.01781,0.026744,-0.048567,-4.9e-05,9.7e-05
437700,0.00349,-0.017127,0.020177,0.0,-0.0,-0.0,3.0,0.3261,0.321979,0.3261,0.330152,,,,,,,0.002271,-0.017811,0.026746,-0.000532,-7.3e-05,9.7e-05
437720,0.003366,-0.017247,0.020177,0.0,-0.0,-0.0,3.0,0.3261,0.320474,0.3261,0.331598,,,,,,,0.002152,-0.017811,0.026748,0.023433,-6.1e-05,9.7e-05
437740,0.003487,-0.017371,0.020178,0.0,-0.0,-0.0,3.0,0.3261,0.321081,0.3261,0.331017,,,,,,,0.00203,-0.017812,0.02675,0.023572,-4.9e-05,0.000108
437760,0.003489,-0.017249,0.020178,0.0,-0.0,-0.0,3.0,0.3261,0.321075,0.3261,0.331022,,,,,,,0.002032,-0.017813,0.026752,-0.024759,-1.2e-05,0.000108
437780,0.003368,-0.017125,0.020176,0.0,-0.0,-0.0,3.0,0.3261,0.319591,0.3261,0.332438,,,,,,,0.001909,-0.017814,0.026754,-0.0003,-1.2e-05,0.000108
437800,0.00337,-0.016759,0.020298,0.0,-0.0,-0.0,3.0,0.3261,0.321273,0.3261,0.330832,,,,,,,0.002031,-0.017814,0.026756,-0.02412,1.3e-05,0.000108
437820,0.003126,-0.016757,0.020296,0.0,-0.0,-0.0,3.0,0.3261,0.321009,0.3261,0.331086,,,,,,,0.002027,-0.017815,0.026758,-0.047744,1e-06,9.5e-05
437840,0.003129,-0.016513,0.020295,0.0,-0.0,-0.0,3.0,0.3261,0.325318,0.3261,0.32688,,,,,,,0.002147,-0.017815,0.02676,-0.023231,-1.2e-05,9.5e-05
437860,0.00313,-0.016513,0.020173,0.0,-0.0,-0.0,3.0,0.3261,0.323834,0.3261,0.328345,,,,,,,0.002025,-0.017816,0.026762,0.000589,-3.6e-05,9.5e-05
437880,0.003249,-0.016758,0.020175,0.0,-0.0,-0.0,3.0,0.3261,0.325984,0.3261,0.326217,,,,,,,0.002024,-0.017816,0.026764,0.02461,-6e-05,9.5e-05
437900,0.003369,-0.017003,0.020176,0.0,-0.0,-0.0,3.0,0.3261,0.323404,0.3261,0.328766,,,,,,,0.001904,-0.017817,0.026766,0.024227,-6e-05,9.5e-05
437920,0.00349,-0.017127,0.020177,0.0,-0.0,-0.0,3.0,0.3261,0.318333,0.3261,0.333624,,,,,,,0.001664,-0.017817,0.026768,0.072059,-6e-05,9.4e-05
437940,0.003368,-0.017125,0.020176,0.0,-0.0,-0.0,3.0,0.3261,0.316957,0.3261,0.334908,,,,,,,0.001667,-0.017818,0.02677,0.023373,-2.3e-05,0.000106
437960,0.003368,-0.017125,0.020176,0.0,-0.0,-0.0,3.0,0.3261,0.319809,0.3261,0.332231,,,,,,,0.001788,-0.017818,0.026772,-0.049218,-1.1e-05,0.000106
437980,0.003125,-0.016879,0.020296,0.0,-0.0,-0.0,3.0,0.3261,0.320306,0.3261,0.331758,,,,,,,0.001912,-0.017818,0.026774,-0.073337,1.4e-05,0.000105
438000,0.00276,-0.016753,0.020293,0.0,-0.0,-0.0,3.0,0.3261,0.322085,0.3261,0.330049,,,,,,,0.001908,-0.017819,0.026776,-0.048437,1e-06,0.000105
438020,0.002761,-0.016631,0.020293,0.0,-0.0,-0.0,3.0,0.3261,0.326424,0.3261,0.325776,,,,,,,0.002028,-0.017819,0.026778,-0.04779,1e-06,9.3e-05
438040,0.00276,-0.016753,0.020293,0.0,-0.0,-0.0,3.0,0.3261,0.329068,0.3261,0.323096,,,,,,,0.002025,-0.01782,0.02678,-0.047734,-2.3e-05,9.3e-05
438060,0.002882,-0.016754,0.020294,0.0,-0.0,-0.0,3.0,0.3261,0.323394,0.3261,0.328776,,,,,,,0.001538,-0.01782,0.026782,0.048825,-3.5e-05,0.000105
438080,0.002883,-0.016632,0.020294,0.0,-0.0,-0.0,3.0,0.3261,0.319611,0.3261,0.332418,,,,,,,0.001297,-0.01782,0.026784,0.097005,-2.3e-05,0.000105
438100,0.002881,-0.016877,0.020294,0.0,-0.0,-0.0,3.0,0.3261,0.315694,0.3261,0.336074,,,,,,,0.001057,-0.01782,0.026786,0.072246,-1.1e-05,0.000104
438120,0.00276,-0.016753,0.020293,0.0,-0.0,-0.0,3.0,0.3261,0.316559,0.3261,0.335276,,,,,,,0.001055,-0.017821,0.026789,-0.000446,-1e-05,0.000104
438140,0.002515,-0.016873,0.020291,0.0,-0.0,-0.0,3.0,0.3261,0.318786,0.3261,0.333198,,,,,,,0.001055,-0.017821,0.026791,-0.048768,-1e-05,9.1e-05
438160,0.002028,-0.016746,0.020287,0.0,-0.0,-0.0,3.0,0.3261,0.31746,0.3261,0.33444,,,,,,,0.000933,-0.017821,0.026793,-0.024613,-1e-05,0.000103
438180,0.001904,-0.016867,0.020286,0.0,-0.0,-0.0,3.0,0.3261,0.320646,0.3261,0.331433,,,,,,,0.000932,-0.017821,0.026795,-0.024516,-1e-05,0.000103
438200,0.001904,-0.016867,0.020286,0.0,-0.0,-0.0,3.0,0.3261,0.323227,0.3261,0.328939,,,,,,,0.000929,-0.017821,0.026797,-0.048381,-1e-05,0.000115
438220,0.001784,-0.016743,0.020285,0.0,-0.0,-0.0,3.0,0.3261,0.323669,0.3261,0.328507,,,,,,,0.000807,-0.017822,0.026799,-0.02417,-1e-05,0.000115
438240,0.001783,-0.016743,0.020407,0.0,-0.0,-0.0,3.0,0.3261,0.324447,0.3261,0.327743,,,,,,,0.000686,-0.017822,0.026801,-2e-06,-1e-05,0.000114
438260,0.001659,-0.016742,0.020528,0.0,-0.0,-0.0,3.0,0.3261,0.32368,0.3261,0.328497,,,,,,,0.000563,-0.017822,0.026803,0.0002,-9e-06,0.000114
438280,0.001415,-0.01674,0.020526,0.0,-0.0,-0.0,3.0,0.3261,0.318511,0.3261,0.333457,,,,,,,7.6e-05,-0.017823,0.026806,0.024563,3e-06,0.000113
438300,0.001415,-0.01674,0.020526,0.0,-0.0,-0.0,3.0,0.3261,0.317958,0.3261,0.333975,,,,,,,-0.000168,-0.017823,0.026808,0.07284,-9e-06,0.000113
438320,0.001172,-0.016737,0.020402,0.0,-0.0,-0.0,3.0,0.3261,0.314115,0.3261,0.337515,,,,,,,-0.000412,-0.017823,0.02681,0.024261,-9e-06,0.000113
438340,0.000928,-0.016735,0.0204,0.0,-0.0,-0.0,3.0,0.3261,0.317235,0.3261,0.334649,,,,,,,-0.000538,-0.017823,0.026813,-0.024207,-3.3e-05,0.000112
438360,0.00044,-0.01673,0.020395,0.0,-0.0,-0.0,3.0,0.3261,0.31624,0.3261,0.335571,,,,,,,-0.000779,-0.017824,0.026815,-0.073184,-2e-05,0.000111
438380,-5e-05,-0.016847,0.020391,0.0,-0.0,-0.0,3.0,0.3261,0.316607,0.3261,0.335233,,,,,,,-0.001146,-0.017824,0.026817,-0.024559,-3.2e-05,0.000111
438400,-0.000416,-0.016843,0.020388,0.0,-0.0,-0.0,3.0,0.3261,0.317519,0.3261,0.334385,,,,,,,-0.001388,-0.017824,0.02682,-0.049076,-1.9e-05,0.000111
438420,-0.000539,-0.016964,0.020387,0.0,-0.0,-0.0,3.0,0.3261,0.32324,0.3261,0.328927,,,,,,,-0.00139,-0.017824,0.026822,-0.073336,-3.1e-05,0.00011
438440,-0.000782,-0.016839,0.020385,0.0,-0.0,-0.0,3.0,0.3261,0.323233,0.3261,0.328934,,,,,,,-0.001634,-0.017825,0.026824,-0.072738,-7e-06,0.00011
438460,-0.000904,-0.016838,0.020384,0.0,-0.0,-0.0,3.0,0.3261,0.321347,0.3261,0.330761,,,,,,,-0.001997,-0.017825,0.026826,0.02392,-7e-06,0.00011
438480,-0.000903,-0.016716,0.020384,0.0,-0.0,-0.0,3.0,0.3261,0.32007,0.3261,0.331982,,,,,,,-0.002243,-0.017825,0.026828,0.024415,6e-06,0.000109
438500,-0.000901,-0.016472,0.020506,0.0,-0.0,-0.0,3.0,0.3261,0.320877,0.3261,0.331212,,,,,,,-0.002364,-0.017825,0.02683,0.000452,3e-05,0.000109
438520,-0.001146,-0.016469,0.020504,0.0,-0.0,-0.0,3.0,0.3261,0.318506,0.3261,0.333461,,,,,,,-0.00261,-0.017825,0.026833,0.000601,3.1e-05,0.000121
438540,-0.001388,-0.016223,0.020625,0.0,-0.0,-0.0,3.0,0.3261,0.315299,0.3261,0.336436,,,,,,,-0.002853,-0.017824,0.026835,0.024612,3.1e-05,0.00012
438560,-0.001635,-0.016464,0.020622,0.0,-0.0,-0.0,3.0,0.3261,0.313662,0.3261,0.337925,,,,,,,-0.003098,-0.017824,0.026838,0.024059,7e-06,0.000132
438580,-0.002001,-0.01646,0.020619,0.0,-0.0,-0.0,3.0,0.3261,0.316332,0.3261,0.335486,,,,,,,-0.003103,-0.017824,0.02684,-0.072392,-5e-06,0.000131
438600,-0.002123,-0.016459,0.020618,0.0,-0.0,-0.0,3.0,0.3261,0.321,0.3261,0.331095,,,,,,,-0.003223,-0.017824,0.026843,-0.073091,-1.7e-05,0.000131
438620,-0.002613,-0.016576,0.020614,0.0,-0.0,-0.0,3.0,0.3261,0.318214,0.3261,0.333736,,,,,,,-0.003588,-0.017824,0.026846,-0.024864,-2.9e-05,0.000131
438640,-0.002737,-0.016819,0.020613,0.0,-0.0,-0.0,3.0,0.3261,0.320002,0.3261,0.332048,,,,,,,-0.003831,-0.017824,0.026848,-0.000452,-1.7e-05,0.00013
438660,-0.002982,-0.016939,0.020611,0.0,-0.0,-0.0,3.0,0.3261,0.317171,0.3261,0.334709,,,,,,,-0.004196,-0.017824,0.026851,-0.000553,-4e-06,0.00013
438680,-0.003104,-0.016938,0.020488,0.0,-0.0,-0.0,3.0,0.3261,0.316464,0.3261,0.335364,,,,,,,-0.004438,-0.017823,0.026854,0.023711,2e-05,0.000142
438700,-0.003102,-0.016816,0.020488,0.0,-0.0,-0.0,3.0,0.3261,0.314487,0.3261,0.337177,,,,,,,-0.00468,-0.017823,0.026856,-0.00084,3.3e-05,0.000141
438720,-0.003224,-0.016692,0.020609,0.0,-0.0,-0.0,3.0,0.3261,0.318564,0.3261,0.333407,,,,,,,-0.004561,-0.017823,0.026859,-0.048321,4.5e-05,0.000128
438740,-0.003466,-0.016445,0.020607,0.0,-0.0,-0.0,3.0,0.3261,0.319346,0.3261,0.33267,,,,,,,-0.004563,-0.017823,0.026861,-0.023518,4.5e-05,0.000116
438760,-0.003463,-0.016323,0.020485,0.0,-0.0,-0.0,3.0,0.3261,0.321143,0.3261,0.330957,,,,,,,-0.004443,-0.017823,0.026863,-0.023524,2e-05,0.000116
438780,-0.003341,-0.016202,0.020609,0.0,-0.0,-0.0,3.0,0.3261,0.322672,0.3261,0.32948,,,,,,,-0.004445,-0.017823,0.026866,-0.023368,8e-06,0.000116
438800,-0.00322,-0.016326,0.020609,0.0,-0.0,-0.0,3.0,0.3261,0.323342,0.3261,0.328827,,,,,,,-0.004446,-0.017823,0.026868,0.02511,-4e-06,0.000116
438820,-0.003222,-0.016448,0.020609,0.0,-0.0,-0.0,3.0,0.3261,0.318389,0.3261,0.333571,,,,,,,-0.004687,-0.017823,0.026871,0.07324,-4e-06,0.000115
438840,-0.003102,-0.016693,0.02061,0.0,-0.0,-0.0,3.0,0.3261,0.314468,0.3261,0.337194,,,,,,,-0.004929,-0.017822,0.026873,0.0964,-2.9e-05,0.000127
438860,-0.003102,-0.016693,0.02061,0.0,-0.0,-0.0,3.0,0.3261,0.312215,0.3261,0.339226,,,,,,,-0.00505,-0.017822,0.026876,0.023412,-4e-06,0.000139
438880,-0.003471,-0.016811,0.020729,0.0,-0.0,-0.0,3.0,0.3261,0.313221,0.3261,0.338323,,,,,,,-0.005051,-0.017822,0.026878,-0.024813,-4e-06,0.000126
438900,-0.003836,-0.016808,0.020604,0.0,-0.0,-0.0,3.0,0.3261,0.315253,0.3261,0.336478,,,,,,,-0.005053,-0.017822,0.026881,-0.048875,-1.6e-05,0.000126
438920,-0.004202,-0.016804,0.0206,0.0,-0.0,-0.0,3.0,0.3261,0.314051,0.3261,0.337573,,,,,,,-0.005297,-0.017823,0.026884,-0.024614,-1.5e-05,0.000125
438940,-0.004203,-0.016926,0.0206,0.0,-0.0,-0.0,3.0,0.3261,0.321311,0.3261,0.330796,,,,,,,-0.005056,-0.017823,0.026886,-0.048629,-2.8e-05,0.000125
438960,-0.004203,-0.016926,0.0206,0.0,-0.0,-0.0,3.0,0.3261,0.32297,0.3261,0.329191,,,,,,,-0.005057,-0.017824,0.026889,-0.048176,-1.6e-05,0.000125
438980,-0.004203,-0.016926,0.0206,0.0,-0.0,-0.0,3.0,0.3261,0.323043,0.3261,0.329119,,,,,,,-0.005178,-0.017824,0.026891,-0.024719,-4e-05,0.000137
439000,-0.004082,-0.016927,0.020723,0.0,-0.0,-0.0,3.0,0.3261,0.32039,0.3261,0.331678,,,,,,,-0.00542,-0.017824,0.026894,0.048375,-1.6e-05,0.000137
439020,-0.003962,-0.01705,0.020846,0.0,-0.0,-0.0,3.0,0.3261,0.318939,0.3261,0.333054,,,,,,,-0.00542,-0.017825,0.026896,0.048525,-3e-06,0.000137
439040,-0.00396,-0.016806,0.020847,0.0,-0.0,-0.0,3.0,0.3261,0.316145,0.3261,0.335659,,,,,,,-0.005545,-0.017825,0.026899,0.024817,-3e-06,0.000136
439060,-0.003959,-0.016806,0.020725,0.0,-0.0,-0.0,3.0,0.3261,0.316725,0.3261,0.335123,,,,,,,-0.005545,-0.017826,0.026902,0.024566,-1.5e-05,0.000136
439080,-0.00408,-0.016683,0.020724,0.0,-0.0,-0.0,3.0,0.3261,0.314718,0.3261,0.336967,,,,,,,-0.005545,-0.017826,0.026904,0.024617,-1.5e-05,0.000135
439100,-0.004078,-0.016561,0.020724,0.0,-0.0,-0.0,3.0,0.3261,0.315088,0.3261,0.336629,,,,,,,-0.005546,-0.017827,0.026907,0.049177,-1.5e-05,0.000135
439120,-0.003958,-0.016684,0.020725,0.0,-0.0,-0.0,3.0,0.3261,0.316799,0.3261,0.335054,,,,,,,-0.005424,-0.017827,0.02691,0.000147,-2.7e-05,0.000135
439140,-0.003958,-0.016684,0.020725,0.0,-0.0,-0.0,3.0,0.3261,0.317346,0.3261,0.334547,,,,,,,-0.005423,-0.017827,0.026913,-0.024566,-3.9e-05,0.000134
439160,-0.00396,-0.016928,0.020724,0.0,-0.0,-0.0,3.0,0.3261,0.318735,0.3261,0.333246,,,,,,,-0.005297,-0.017827,0.026915,-0.02532,-3.9e-05,0.000134
439180,-0.003961,-0.01705,0.020724,0.0,-0.0,-0.0,3.0,0.3261,0.320329,0.3261,0.331736,,,,,,,-0.005178,-0.017828,0.026918,-0.024767,-4e-05,0.000134
439200,-0.003842,-0.017173,0.020847,0.0,-0.0,-0.0,3.0,0.3261,0.320079,0.3261,0.331974,,,,,,,-0.005054,-0.017828,0.026921,-0.00076,-2.7e-05,0.000146
439220,-0.003721,-0.017297,0.020848,0.0,-0.0,-0.0,3.0,0.3261,0.319869,0.3261,0.332174,,,,,,,-0.004933,-0.017829,0.026924,-0.000504,-2.8e-05,0.000146
439240,-0.003721,-0.017297,0.020848,0.0,-0.0,-0.0,3.0,0.3261,0.31876,0.3261,0.333223,,,,,,,-0.004934,-0.017829,0.026927,-0.02431,-1.5e-05,0.000146
439260,-0.003474,-0.017055,0.02085,0.0,-0.0,-0.0,3.0,0.3261,0.321959,0.3261,0.330171,,,,,,,-0.004815,-0.01783,0.02693,-0.023805,-3e-06,0.000158
439280,-0.003595,-0.016932,0.02085,0.0,-0.0,-0.0,3.0,0.3261,0.319616,0.3261,0.332414,,,,,,,-0.004815,-0.017831,0.026933,-0.023908,-1.5e-05,0.000157
439300,-0.003595,-0.01681,0.020972,0.0,-0.0,-0.0,3.0,0.3261,0.317997,0.3261,0.333939,,,,,,,-0.004938,-0.017832,0.026936,0.025074,-1.5e-05,0.000145
439320,-0.003471,-0.016689,0.020973,0.0,-0.0,-0.0,3.0,0.3261,0.316857,0.3261,0.335001,,,,,,,-0.004937,-0.017833,0.026938,0.024763,-1.5e-05,0.000145
439340,-0.003348,-0.01669,0.020852,0.0,-0.0,-0.0,3.0,0.3261,0.320298,0.3261,0.331766,,,,,,,-0.004695,-0.017833,0.026941,0.000601,-4e-05,0.000132
439360,-0.003347,-0.016691,0.02073,0.0,-0.0,-0.0,3.0,0.3261,0.319304,0.3261,0.33271,,,,,,,-0.004693,-0.017834,0.026944,0.024411,-5.2e-05,0.000132
439380,-0.003228,-0.016936,0.020731,0.0,-0.0,-0.0,3.0,0.3261,0.317968,0.3261,0.333966,,,,,,,-0.004693,-0.017834,0.026947,0.024266,-5.2e-05,0.000132
439400,-0.002986,-0.017183,0.020732,0.0,-0.0,-0.0,3.0,0.3261,0.316372,0.3261,0.335449,,,,,,,-0.004691,-0.017835,0.02695,0.023661,-6.4e-05,0.000132
439420,-0.003107,-0.017059,0.020731,0.0,-0.0,-0.0,3.0,0.3261,0.315185,0.3261,0.336541,,,,,,,-0.004691,-0.017835,0.026952,-0.000403,-3.9e-05,0.000143
439440,-0.002988,-0.017304,0.020854,0.0,-0.0,-0.0,3.0,0.3261,0.317913,0.3261,0.334018,,,,,,,-0.004568,-0.017836,0.026955,-0.025076,-3.9e-05,0.000155
439460,-0.00323,-0.017058,0.020852,0.0,-0.0,-0.0,3.0,0.3261,0.315328,0.3261,0.33641,,,,,,,-0.004567,-0.017837,0.026958,-0.024766,-1.5e-05,0.000155
439480,-0.003353,-0.017056,0.020973,0.0,-0.0,-0.0,3.0,0.3261,0.315215,0.3261,0.336513,,,,,,,-0.004565,-0.017837,0.026961,-0.000248,1e-05,0.000155
439500,-0.00335,-0.016812,0.020974,0.0,-0.0,-0.0,3.0,0.3261,0.319457,0.3261,0.332565,,,,,,,-0.004325,-0.017837,0.026964,-0.048422,-3e-06,0.000155
439520,-0.003227,-0.016691,0.020975,0.0,-0.0,-0.0,3.0,0.3261,0.325167,0.3261,0.32703,,,,,,,-0.004083,-0.017838,0.026967,-0.072334,-3e-06,0.000154
439540,-0.003106,-0.016815,0.020976,0.0,-0.0,-0.0,3.0,0.3261,0.325331,0.3261,0.326867,,,,,,,-0.004084,-0.017838,0.02697,-0.023659,-2.7e-05,0.000142
439560,-0.002984,-0.016816,0.020977,0.0,-0.0,-0.0,3.0,0.3261,0.324445,0.3261,0.327744,,,,,,,-0.004085,-0.017839,0.026973,0.025174,-2.8e-05,0.000142
439580,-0.002743,-0.017063,0.020979,0.0,-0.0,-0.0,3.0,0.3261,0.316453,0.3261,0.335375,,,,,,,-0.00445,-0.017839,0.026976,0.121771,-4e-05,0.000142
439600,-0.002618,-0.016942,0.020858,0.0,-0.0,-0.0,3.0,0.3261,0.31232,0.3261,0.339132,,,,,,,-0.004568,-0.01784,0.026979,0.121364,-2.7e-05,0.000141
439620,-0.002496,-0.016943,0.020859,0.0,-0.0,-0.0,3.0,0.3261,0.310888,0.3261,0.340405,,,,,,,-0.004567,-0.01784,0.026982,0.072639,-1.5e-05,0.000141
439640,-0.002617,-0.01682,0.020858,0.0,-0.0,-0.0,3.0,0.3261,0.313764,0.3261,0.337833,,,,,,,-0.004324,-0.017841,0.026985,-0.024258,-1.5e-05,0.00014
439660,-0.002737,-0.016575,0.020857,0.0,-0.0,-0.0,3.0,0.3261,0.316515,0.3261,0.335318,,,,,,,-0.004079,-0.017841,0.026988,-0.072886,-2e-06,0.00014
439680,-0.002859,-0.016573,0.020856,0.0,-0.0,-0.0,3.0,0.3261,0.317778,0.3261,0.334144,,,,,,,-0.003958,-0.017841,0.026991,-0.048624,-1.5e-05,0.00014
439700,-0.002737,-0.016575,0.020857,0.0,-0.0,-0.0,3.0,0.3261,0.323674,0.3261,0.328502,,,,,,,-0.003592,-0.017841,0.026994,-0.07264,-3e-06,0.00014
439720,-0.002372,-0.016701,0.02086,0.0,-0.0,-0.0,3.0,0.3261,0.327344,0.3261,0.32485,,,,,,,-0.003349,-0.017841,0.026997,-0.048736,-2.8e-05,0.000152
439740,-0.00213,-0.016825,0.020984,0.0,-0.0,-0.0,3.0,0.3261,0.324035,0.3261,0.328148,,,,,,,-0.003347,-0.017841,0.026999,-0.000209,-1.6e-05,0.000152
439760,-0.001887,-0.01695,0.020986,0.0,-0.0,-0.0,3.0,0.3261,0.317474,0.3261,0.334427,,,,,,,-0.003589,-0.017841,0.027003,0.096541,-4e-06,0.000164
439780,-0.001765,-0.016829,0.021109,0.0,-0.0,-0.0,3.0,0.3261,0.318078,0.3261,0.333863,,,,,,,-0.003345,-0.017841,0.027006,0.04843,2.1e-05,0.000164
439800,-0.001763,-0.016707,0.021109,0.0,-0.0,-0.0,3.0,0.3261,0.316967,0.3261,0.334898,,,,,,,-0.003345,-0.017841,0.027009,0.000313,3.3e-05,0.000151
439820,-0.001882,-0.016339,0.021109,0.0,-0.0,-0.0,3.0,0.3261,0.31839,0.3261,0.33357,,,,,,,-0.003224,-0.017841,0.027012,-0.023748,3.3e-05,0.000151
439840,-0.002001,-0.016094,0.021108,0.0,-0.0,-0.0,3.0,0.3261,0.315705,0.3261,0.336064,,,,,,,-0.003348,-0.017841,0.027015,0.025132,3.3e-05,0.000151
439860,-0.002003,-0.016338,0.020986,0.0,-0.0,-0.0,3.0,0.3261,0.316978,0.3261,0.334889,,,,,,,-0.003349,-0.017841,0.027018,0.024973,9e-06,0.00015
439880,-0.001879,-0.016217,0.020987,0.0,-0.0,-0.0,3.0,0.3261,0.320067,0.3261,0.331986,,,,,,,-0.003228,-0.017841,0.027021,0.000352,-1.6e-05,0.00015
439900,-0.001761,-0.016585,0.020987,0.0,-0.0,-0.0,3.0,0.3261,0.319498,0.3261,0.332525,,,,,,,-0.003227,-0.01784,0.027024,-0.00021,-2.8e-05,0.00015
439920,-0.00152,-0.016831,0.020989,0.0,-0.0,-0.0,3.0,0.3261,0.31814,0.3261,0.333805,,,,,,,-0.003224,-0.01784,0.027027,0.047805,-2.8e-05,0.00015
439940,-0.001765,-0.016951,0.020987,0.0,-0.0,-0.0,3.0,0.3261,0.314436,0.3261,0.337223,,,,,,,-0.003221,-0.01784,0.02703,0.023085,-1.6e-05,0.000161
439960,-0.001765,-0.016951,0.020987,0.0,-0.0,-0.0,3.0,0.3261,0.317473,0.3261,0.334428,,,,,,,-0.0031,-0.01784,0.027033,-0.024926,8e-06,0.000161
439980,-0.001884,-0.016705,0.020986,0.0,-0.0,-0.0,3.0,0.3261,0.31971,0.3261,0.332325,,,,,,,-0.002976,-0.01784,0.027037,-0.049077,3.3e-05,0.000161
440000,-0.001883,-0.016583,0.020986,0.0,-0.0,-0.0,3.0,0.3261,0.320121,0.3261,0.331934,,,,,,,-0.002977,-0.01784,0.02704,-0.024509,3.3e-05,0.000161
440020,-0.002004,-0.01646,0.020986,0.0,-0.0,-0.0,3.0,0.3261,0.319848,0.3261,0.332194,,,,,,,-0.00298,-0.017839,0.027043,-0.024,3.3e-05,0.00016
440040,-0.001882,-0.016461,0.020987,0.0,-0.0,-0.0,3.0,0.3261,0.322273,0.3261,0.329867,,,,,,,-0.002982,-0.017839,0.027046,-0.023602,2e-05,0.000148
440060,-0.001883,-0.016461,0.021109,0.0,-0.0,-0.0,3.0,0.3261,0.32089,0.3261,0.3312,,,,,,,-0.003105,-0.017839,0.027048,0.00071,8e-06,0.000147
440080,-0.001883,-0.016461,0.021109,0.0,-0.0,-0.0,3.0,0.3261,0.319114,0.3261,0.332889,,,,,,,-0.003227,-0.017839,0.027051,0.049235,8e-06,0.000147
440100,-0.001761,-0.016463,0.02111,0.0,-0.0,-0.0,3.0,0.3261,0.318977,0.3261,0.333018,,,,,,,-0.003227,-0.017839,0.027054,0.048979,-4e-06,0.000147
440120,-0.00176,-0.016463,0.020988,0.0,-0.0,-0.0,3.0,0.3261,0.316415,0.3261,0.335409,,,,,,,-0.003346,-0.017839,0.027058,0.048627,8e-06,0.000147
440140,-0.00176,-0.016463,0.020988,0.0,-0.0,-0.0,3.0,0.3261,0.31575,0.3261,0.336023,,,,,,,-0.003344,-0.017838,0.027061,0.048271,8e-06,0.000146
440160,-0.001635,-0.016342,0.020867,0.0,-0.0,-0.0,3.0,0.3261,0.314633,0.3261,0.337044,,,,,,,-0.003342,-0.017838,0.027064,0.023857,2e-05,0.000146
440180,-0.001394,-0.016589,0.020868,0.087266,-0.0,-0.0,3.0,0.3261,0.26712,0.3261,0.373218,,,,,,,-0.003221,-0.017837,0.027066,-0.000412,2e-05,0.000146
440200,-0.001639,-0.016708,0.020866,0.087266,-0.0,-0.0,3.0,0.3261,0.264974,0.3261,0.37456,,,,,,,-0.003098,-0.017837,0.027069,-0.024822,8e-06,0.000133
440220,-0.001517,-0.016709,0.020867,0.087266,-0.0,-0.0,3.0,0.3261,0.26795,0.3261,0.372693,,,,,,,-0.002978,-0.017837,0.027072,-0.000356,8e-06,0.000145
440240,-0.00054,-0.016598,0.020998,0.087266,-0.0,-0.0,3.0,0.3261,0.27782,0.3261,0.366183,,,,,,,-0.002124,-0.017837,0.027075,-0.000101,1.9e-05,0.000146
440260,0.001536,-0.016619,0.020893,0.087266,-0.0,-0.0,3.0,0.3261,0.292431,0.3261,0.355599,,,,,,,-0.000418,-0.017836,0.027078,0.049426,1.7e-05,0.000135
440280,0.004952,-0.016777,0.020921,0.087266,-0.0,-0.0,3.0,0.3261,0.307556,0.3261,0.343312,,,,,,,0.002388,-0.017836,0.02708,0.12241,2e-06,0.000137
440300,0.009838,-0.016704,0.020717,0.087266,-0.0,-0.0,3.0,0.3261,0.318225,0.3261,0.333726,,,,,,,0.006294,-0.017836,0.027083,0.244375,-3e-06,0.000116
440320,0.015819,-0.017007,0.0204,0.087266,-0.0,-0.0,3.0,0.3261,0.326804,0.3261,0.325395,,,,,,,0.011424,-0.017836,0.027085,0.341473,-9e-06,8.4e-05
440340,0.023149,-0.016953,0.019973,0.087266,-0.0,-0.0,3.0,0.3261,0.336164,0.3261,0.315596,,,,,,,0.017773,-0.017836,0.027087,0.41497,-1.5e-05,5.3e-05
440360,0.031086,-0.017387,0.019434,0.087266,-0.0,-0.0,3.0,0.3261,0.34444,0.3261,0.30624,,,,,,,0.025222,-0.017837,0.027088,0.414904,-4.6e-05,1e-05
440380,0.039149,-0.017451,0.018891,0.087266,-0.0,-0.0,3.0,0.3261,0.350711,0.3261,0.298661,,,,,,,0.033404,-0.017838,0.027087,0.366782,-5.2e-05,-4.4e-05
440400,0.046844,-0.017629,0.018347,0.087266,-0.0,-0.0,3.0,0.3261,0.353364,0.3261,0.295317,,,,,,,0.041589,-0.017839,0.027086,0.366347,-8.2e-05,-0.00011
440420,0.054541,-0.017924,0.017809,0.087266,-0.0,-0.0,3.0,0.3261,0.359148,0.3261,0.287712,,,,,,,0.049772,-0.017841,0.027083,0.342742,-0.0001,-0.000164
440440,0.061508,-0.017964,0.017259,0.087266,-0.0,-0.0,3.0,0.3261,0.362395,0.3261,0.28324,,,,,,,0.057469,-0.017844,0.02708,0.244848,-0.000128,-0.000218
440460,0.067618,-0.017874,0.016817,0.087266,-0.0,-0.0,3.0,0.3261,0.362394,0.3261,0.28324,,,,,,,0.064067,-0.017846,0.027075,0.221519,-0.000119,-0.000273
440480,0.072506,-0.017894,0.016368,0.087266,-0.0,-0.0,3.0,0.3261,0.351629,0.3261,0.297514,,,,,,,0.069083,-0.017849,0.027069,0.269111,-0.000121,-0.000317
440500,0.076054,-0.018152,0.016044,0.087266,-0.0,-0.0,3.0,0.3261,0.336885,0.3261,0.314808,,,,,,,0.072753,-0.017851,0.027063,0.268283,-0.000135,-0.000349
440520,0.07825,-0.018402,0.015826,0.087266,-0.0,-0.0,3.0,0.3261,0.323807,0.3261,0.328371,,,,,,,0.075322,-0.017854,0.027056,0.194891,-0.000159,-0.00037
440540,0.079233,-0.0184,0.015593,0.087266,-0.0,-0.0,3.0,0.3261,0.313482,0.3261,0.338088,,,,,,,0.076913,-0.017858,0.027048,0.04849,-0.000147,-0.000381
440560,0.079111,-0.018399,0.015592,0.087266,-0.0,-0.0,3.0,0.3261,0.309632,0.3261,0.34151,,,,,,,0.077644,-0.017861,0.02704,-0.04849,-0.000158,-0.000392
440580,0.07862,-0.018268,0.015458,0.087266,-0.0,-0.0,3.0,0.3261,0.305589,0.3261,0.344992,,,,,,,0.077645,-0.017865,0.027032,-0.072793,-0.000158,-0.000404
440600,0.078135,-0.018138,0.015328,0.087266,-0.0,-0.0,3.0,0.3261,0.306554,0.3261,0.344171,,,,,,,0.077399,-0.017868,0.027024,-0.048201,-0.000181,-0.000414
440620,0.078381,-0.018013,0.015203,0.087266,-0.0,-0.0,3.0,0.3261,0.312588,0.3261,0.338892,,,,,,,0.0774,-0.017872,0.027016,-0.048102,-0.000168,-0.000426
440640,0.07899,-0.018256,0.015095,0.087266,-0.0,-0.0,3.0,0.3261,0.315171,0.3261,0.336554,,,,,,,0.077523,-0.017875,0.027008,0.024438,-0.000192,-0.000436
440660,0.08009,-0.018508,0.015116,0.087266,-0.0,-0.0,3.0,0.3261,0.318155,0.3261,0.333791,,,,,,,0.078139,-0.017878,0.026999,0.096804,-0.000193,-0.000422
440680,0.08204,-0.018648,0.015258,0.087266,-0.0,-0.0,3.0,0.3261,0.321272,0.3261,0.330833,,,,,,,0.07936,-0.017881,0.02699,0.169674,-0.000181,-0.00042
440700,0.084483,-0.018787,0.015285,0.087266,-0.0,-0.0,3.0,0.3261,0.323751,0.3261,0.328427,,,,,,,0.081441,-0.017884,0.026982,0.169858,-0.000146,-0.000419
440720,0.087662,-0.018443,0.015297,0.087266,-0.0,-0.0,3.0,0.3261,0.332433,0.3261,0.319596,,,,,,,0.084371,-0.017888,0.026974,0.146344,-0.000123,-0.000417
440740,0.090967,-0.018339,0.0152,0.087266,-0.0,-0.0,3.0,0.3261,0.340301,0.3261,0.311006,,,,,,,0.087912,-0.017891,0.026965,0.122207,-0.000125,-0.000413
440760,0.094635,-0.017875,0.015207,0.087266,-0.0,-0.0,3.0,0.3261,0.348124,0.3261,0.301842,,,,,,,0.091817,-0.017894,0.026957,0.148438,-0.000115,-0.000422
440780,0.09867,-0.018019,0.015125,0.087266,-0.0,-0.0,3.0,0.3261,0.351862,0.3261,0.297221,,,,,,,0.095729,-0.017897,0.026948,0.171671,-0.000141,-0.000429
440800,0.102703,-0.017795,0.015022,0.087266,-0.0,-0.0,3.0,0.3261,0.353914,0.3261,0.294612,,,,,,,0.099516,-0.0179,0.02694,0.221446,-0.000143,-0.000437
440820,0.106128,-0.018056,0.014943,0.087266,-0.0,-0.0,3.0,0.3261,0.351587,0.3261,0.297567,,,,,,,0.103065,-0.017903,0.026931,0.195277,-0.000181,-0.000443
440840,0.109059,-0.018197,0.014973,0.087266,-0.0,-0.0,3.0,0.3261,0.345344,0.3261,0.305174,,,,,,,0.106001,-0.017906,0.026922,0.195935,-0.00017,-0.00044
440860,0.111134,-0.018576,0.015011,0.087266,-0.0,-0.0,3.0,0.3261,0.340498,0.3261,0.310782,,,,,,,0.10857,-0.017909,0.026913,0.122622,-0.000171,-0.000438
440880,0.112847,-0.018587,0.015026,0.087266,-0.0,-0.0,3.0,0.3261,0.337131,0.3261,0.314538,,,,,,,0.110527,-0.017912,0.026904,0.072728,-0.00016,-0.000436
440900,0.113579,-0.018592,0.015031,0.087266,-0.0,-0.0,3.0,0.3261,0.333279,0.3261,0.318701,,,,,,,0.111874,-0.017915,0.026896,0.024272,-0.00016,-0.000434
440920,0.113945,-0.018472,0.015027,0.087266,-0.0,-0.0,3.0,0.3261,0.331422,0.3261,0.320658,,,,,,,0.112603,-0.017919,0.026887,-0.023841,-0.00016,-0.000433
440940,0.113945,-0.018357,0.015142,0.087266,-0.0,-0.0,3.0,0.3261,0.330413,0.3261,0.321709,,,,,,,0.112845,-0.017922,0.026879,-0.072325,-0.000173,-0.000419
440960,0.113459,-0.018232,0.015131,0.087266,-0.0,-0.0,3.0,0.3261,0.32611,0.3261,0.326091,,,,,,,0.112481,-0.017926,0.02687,-0.024274,-0.000172,-0.000419
440980,0.113215,-0.018346,0.015015,0.087266,-0.0,-0.0,3.0,0.3261,0.325897,0.3261,0.326303,,,,,,,0.112116,-0.017929,0.026862,0.024473,-0.00016,-0.000419
441000,0.113215,-0.018346,0.015015,0.087266,-0.0,-0.0,3.0,0.3261,0.325879,0.3261,0.326321,,,,,,,0.111875,-0.017932,0.026853,-0.00043,-0.000159,-0.000418
441020,0.113457,-0.018476,0.015145,0.087266,-0.0,-0.0,3.0,0.3261,0.332128,0.3261,0.319917,,,,,,,0.112117,-0.017935,0.026845,0.0003,-0.000158,-0.000429
441040,0.114068,-0.018351,0.015021,0.087266,-0.0,-0.0,3.0,0.3261,0.33204,0.3261,0.32001,,,,,,,0.112363,-0.017938,0.026836,0.072826,-0.000158,-0.00044
441060,0.114927,-0.018594,0.014922,0.087266,-0.0,-0.0,3.0,0.3261,0.330335,0.3261,0.32179,,,,,,,0.112849,-0.017942,0.026828,0.122562,-0.000182,-0.000437
441080,0.11627,-0.018473,0.014803,0.087266,-0.0,-0.0,3.0,0.3261,0.334622,0.3261,0.317264,,,,,,,0.113952,-0.017945,0.026819,0.097193,-0.000183,-0.000435
441100,0.117617,-0.018604,0.014822,0.087266,-0.0,-0.0,3.0,0.3261,0.338442,0.3261,0.313089,,,,,,,0.115291,-0.017949,0.02681,0.026227,-0.000182,-0.000446
441120,0.118715,-0.018481,0.014701,0.087266,-0.0,-0.0,3.0,0.3261,0.339218,0.3261,0.312223,,,,,,,0.11664,-0.017952,0.026801,0.024512,-0.000183,-0.000444
441140,0.119697,-0.018488,0.014711,0.087266,-0.0,-0.0,3.0,0.3261,0.339157,0.3261,0.312292,,,,,,,0.117991,-0.017956,0.026792,0.024268,-0.000159,-0.000443
441160,0.120924,-0.018374,0.014715,0.087266,-0.0,-0.0,3.0,0.3261,0.342129,0.3261,0.308922,,,,,,,0.119332,-0.017959,0.026783,0.026022,-0.000146,-0.000454
441180,0.122022,-0.018258,0.014715,0.087266,-0.0,-0.0,3.0,0.3261,0.34609,0.3261,0.304289,,,,,,,0.120679,-0.017962,0.026774,-0.023911,-0.000147,-0.000452
441200,0.122753,-0.018263,0.01472,0.087266,-0.0,-0.0,3.0,0.3261,0.345521,0.3261,0.304964,,,,,,,0.121532,-0.017965,0.026765,0.001992,-0.000159,-0.000462
441220,0.123248,-0.018381,0.014612,0.087266,-0.0,-0.0,3.0,0.3261,0.341668,0.3261,0.309451,,,,,,,0.121903,-0.017968,0.026756,0.048942,-0.000183,-0.000459
441240,0.12349,-0.018626,0.014628,0.087266,-0.0,-0.0,3.0,0.3261,0.336076,0.3261,0.315692,,,,,,,0.122027,-0.017972,0.026747,0.072706,-0.000183,-0.000458
441260,0.123611,-0.018627,0.014629,0.087266,-0.0,-0.0,3.0,0.3261,0.332229,0.3261,0.319811,,,,,,,0.121905,-0.017975,0.026738,0.048342,-0.000183,-0.000445
441280,0.123367,-0.018511,0.014742,0.087266,-0.0,-0.0,3.0,0.3261,0.329414,0.3261,0.32274,,,,,,,0.121664,-0.017979,0.026729,0.023784,-0.00017,-0.000445
441300,0.123002,-0.018509,0.014739,0.087266,-0.0,-0.0,3.0,0.3261,0.328365,0.3261,0.323814,,,,,,,0.121412,-0.017982,0.02672,-0.024509,-0.000146,-0.000434
441320,0.122508,-0.018269,0.01484,0.087266,-0.0,-0.0,3.0,0.3261,0.329396,0.3261,0.322759,,,,,,,0.121291,-0.017985,0.026711,-0.04888,-0.000145,-0.000433
441340,0.122142,-0.018267,0.014837,0.087266,-0.0,-0.0,3.0,0.3261,0.333152,0.3261,0.318835,,,,,,,0.121166,-0.017988,0.026702,-0.072555,-0.000145,-0.000433
441360,0.122021,-0.018266,0.014837,0.087266,-0.0,-0.0,3.0,0.3261,0.33481,0.3261,0.317062,,,,,,,0.121044,-0.017992,0.026694,-0.024176,-0.000168,-0.000443
441380,0.122263,-0.018504,0.014731,0.087266,-0.0,-0.0,3.0,0.3261,0.341193,0.3261,0.309993,,,,,,,0.121286,-0.017995,0.026685,-0.02416,-0.000193,-0.00044
441400,0.12275,-0.018628,0.014742,0.087266,-0.0,-0.0,3.0,0.3261,0.340046,0.3261,0.311294,,,,,,,0.121287,-0.017998,0.026676,0.025669,-0.000192,-0.000439
441420,0.123124,-0.018624,0.014626,0.087266,-0.0,-0.0,3.0,0.3261,0.338928,0.3261,0.312548,,,,,,,0.12141,-0.018002,0.026667,0.07421,-0.000168,-0.000439
441440,0.123734,-0.018505,0.014623,0.087266,-0.0,-0.0,3.0,0.3261,0.333012,0.3261,0.318983,,,,,,,0.121414,-0.018005,0.026658,0.122533,-0.000155,-0.000451
441460,0.124101,-0.018386,0.014618,0.087266,-0.0,-0.0,3.0,0.3261,0.334006,0.3261,0.317926,,,,,,,0.122032,-0.018008,0.026649,0.048338,-0.00013,-0.000451
441480,0.124223,-0.018265,0.014611,0.087266,-0.0,-0.0,3.0,0.3261,0.336796,0.3261,0.314906,,,,,,,0.12264,-0.018011,0.02664,-0.072517,-0.000129,-0.000463
441500,0.123981,-0.018141,0.014602,0.087266,-0.0,-0.0,3.0,0.3261,0.337534,0.3261,0.314095,,,,,,,0.123005,-0.018014,0.026631,-0.072384,-0.000129,-0.000461
441520,0.123981,-0.018141,0.014602,0.087266,-0.0,-0.0,3.0,0.3261,0.340229,0.3261,0.311087,,,,,,,0.123248,-0.018017,0.026622,-0.048442,-0.000142,-0.000447
441540,0.12398,-0.018263,0.014609,0.087266,-0.0,-0.0,3.0,0.3261,0.34401,0.3261,0.306743,,,,,,,0.123368,-0.018019,0.026613,-0.048234,-0.000154,-0.000446
441560,0.1241,-0.018271,0.014732,0.087266,-0.0,-0.0,3.0,0.3261,0.343022,0.3261,0.307892,,,,,,,0.123122,-0.018022,0.026604,0.000398,-0.000155,-0.000433
441580,0.123977,-0.018514,0.014746,0.087266,-0.0,-0.0,3.0,0.3261,0.337593,0.3261,0.314029,,,,,,,0.122636,-0.018025,0.026596,0.072371,-0.000179,-0.000418
441600,0.123854,-0.018521,0.014867,0.087266,-0.0,-0.0,3.0,0.3261,0.33234,0.3261,0.319694,,,,,,,0.122151,-0.018028,0.026587,0.072077,-0.000166,-0.000418
441620,0.123486,-0.018649,0.014994,0.087266,-0.0,-0.0,3.0,0.3261,0.32858,0.3261,0.323595,,,,,,,0.121786,-0.018032,0.026579,0.023476,-0.000166,-0.000418
441640,0.123243,-0.018525,0.014985,0.087266,-0.0,-0.0,3.0,0.3261,0.330708,0.3261,0.321402,,,,,,,0.12154,-0.018035,0.026571,-0.026058,-0.000141,-0.000407
441660,0.122749,-0.018399,0.014971,0.087266,-0.0,-0.0,3.0,0.3261,0.336197,0.3261,0.31556,,,,,,,0.121661,-0.018038,0.026562,-0.07439,-0.000141,-0.000406
441680,0.122507,-0.018276,0.014962,0.087266,-0.0,-0.0,3.0,0.3261,0.339521,0.3261,0.311884,,,,,,,0.12166,-0.018041,0.026554,-0.074095,-0.000141,-0.000405
441700,0.122264,-0.018153,0.014953,0.087266,-0.0,-0.0,3.0,0.3261,0.337948,0.3261,0.313637,,,,,,,0.121285,-0.018044,0.026546,0.000589,-0.00014,-0.000405
441720,0.122387,-0.018146,0.014832,0.087266,-0.0,-0.0,3.0,0.3261,0.341415,0.3261,0.309741,,,,,,,0.121284,-0.018047,0.026538,-0.023676,-0.000152,-0.000403
441740,0.122508,-0.018269,0.01484,0.087266,-0.0,-0.0,3.0,0.3261,0.338884,0.3261,0.312596,,,,,,,0.121043,-0.01805,0.02653,0.048434,-0.000164,-0.000402
441760,0.122506,-0.018398,0.014969,0.087266,-0.0,-0.0,3.0,0.3261,0.337781,0.3261,0.313821,,,,,,,0.121045,-0.018053,0.026522,0.047708,-0.000176,-0.0004
441780,0.122384,-0.018512,0.014854,0.087266,-0.0,-0.0,3.0,0.3261,0.335882,0.3261,0.315903,,,,,,,0.120925,-0.018056,0.026514,-0.00049,-0.000151,-0.000413
441800,0.122139,-0.018518,0.014974,0.087266,-0.0,-0.0,3.0,0.3261,0.336362,0.3261,0.31538,,,,,,,0.120803,-0.018059,0.026505,-0.000293,-0.000138,-0.000413
441820,0.122018,-0.018395,0.014966,0.087266,-0.0,-0.0,3.0,0.3261,0.33513,0.3261,0.316718,,,,,,,0.120559,-0.018062,0.026497,0.024072,-0.000138,-0.000412
441840,0.121776,-0.018386,0.014842,0.087266,-0.0,-0.0,3.0,0.3261,0.336197,0.3261,0.31556,,,,,,,0.120435,-0.018064,0.026489,-0.023937,-0.000125,-0.000413
441860,0.121532,-0.01827,0.014955,0.087266,-0.0,-0.0,3.0,0.3261,0.33904,0.3261,0.312422,,,,,,,0.120312,-0.018067,0.026481,-0.072314,-0.000125,-0.0004
441880,0.120923,-0.018267,0.014951,0.087266,-0.0,-0.0,3.0,0.3261,0.334637,0.3261,0.317249,,,,,,,0.119826,-0.01807,0.026473,-0.02447,-0.000149,-0.000398
441900,0.12055,-0.018378,0.014831,0.087266,-0.0,-0.0,3.0,0.3261,0.336316,0.3261,0.31543,,,,,,,0.119582,-0.018073,0.026465,-0.025937,-0.000149,-0.000397
441920,0.120306,-0.018262,0.014944,0.087266,-0.0,-0.0,3.0,0.3261,0.337794,0.3261,0.313807,,,,,,,0.119331,-0.018076,0.026457,-0.048441,-0.000136,-0.000398
441940,0.120063,-0.018261,0.014942,0.087266,-0.0,-0.0,3.0,0.3261,0.340036,0.3261,0.311304,,,,,,,0.119087,-0.018079,0.026449,-0.048439,-0.000147,-0.000408
441960,0.119575,-0.018372,0.014824,0.087266,-0.0,-0.0,3.0,0.3261,0.339354,0.3261,0.312071,,,,,,,0.118721,-0.018082,0.026441,-9.6e-05,-0.000171,-0.000406
441980,0.119454,-0.018486,0.014709,0.087266,-0.0,-0.0,3.0,0.3261,0.337548,0.3261,0.314078,,,,,,,0.118235,-0.018085,0.026433,0.048348,-0.00017,-0.000418
442000,0.11933,-0.018729,0.014722,0.087266,-0.0,-0.0,3.0,0.3261,0.335541,0.3261,0.316273,,,,,,,0.117869,-0.018088,0.026424,0.048485,-0.000169,-0.000417
442020,0.119209,-0.018721,0.0146,0.087266,-0.0,-0.0,3.0,0.3261,0.336328,0.3261,0.315417,,,,,,,0.117627,-0.018091,0.026416,-0.00019,-0.000156,-0.000417
442040,0.118843,-0.018841,0.014604,0.087266,-0.0,-0.0,3.0,0.3261,0.335332,0.3261,0.3165,,,,,,,0.117375,-0.018095,0.026408,-0.02476,-0.00018,-0.000416
442060,0.118471,-0.018716,0.014592,0.087266,-0.0,-0.0,3.0,0.3261,0.33615,0.3261,0.315611,,,,,,,0.117254,-0.018098,0.026399,-0.024517,-0.000155,-0.000416
442080,0.11835,-0.018593,0.014584,0.087266,-0.0,-0.0,3.0,0.3261,0.337267,0.3261,0.314389,,,,,,,0.117129,-0.018102,0.026391,-0.023898,-0.000166,-0.000427
442100,0.118109,-0.018463,0.014453,0.087266,-0.0,-0.0,3.0,0.3261,0.341083,0.3261,0.310119,,,,,,,0.117251,-0.018106,0.026382,-0.096512,-0.000165,-0.000439
442120,0.117986,-0.018584,0.014459,0.087266,-0.0,-0.0,3.0,0.3261,0.341728,0.3261,0.309382,,,,,,,0.117007,-0.018109,0.026373,-0.024172,-0.000201,-0.000435
442140,0.11774,-0.018941,0.014357,0.087266,-0.0,-0.0,3.0,0.3261,0.341638,0.3261,0.309485,,,,,,,0.116764,-0.018113,0.026365,1e-05,-0.000212,-0.000446
442160,0.117741,-0.019056,0.014242,0.087266,-0.0,-0.0,3.0,0.3261,0.340556,0.3261,0.310717,,,,,,,0.116401,-0.018117,0.026356,0.024336,-0.000199,-0.000458
442180,0.117495,-0.019298,0.014255,0.087266,-0.0,-0.0,3.0,0.3261,0.335161,0.3261,0.316684,,,,,,,0.115916,-0.01812,0.026347,0.047882,-0.000211,-0.000457
442200,0.117131,-0.019289,0.01413,0.087266,-0.0,-0.0,3.0,0.3261,0.330766,0.3261,0.321342,,,,,,,0.115429,-0.018125,0.026337,0.048147,-0.000197,-0.000469
442220,0.116637,-0.019278,0.014002,0.087266,-0.0,-0.0,3.0,0.3261,0.332556,0.3261,0.319466,,,,,,,0.115177,-0.018129,0.026328,-0.048662,-0.000208,-0.000481
442240,0.11603,-0.019146,0.013868,0.087266,-0.0,-0.0,3.0,0.3261,0.336492,0.3261,0.315238,,,,,,,0.115055,-0.018134,0.026318,-0.096926,-0.000206,-0.000492
442260,0.1153,-0.019135,0.013741,0.087266,-0.0,-0.0,3.0,0.3261,0.337231,0.3261,0.314429,,,,,,,0.11469,-0.018138,0.026308,-0.097109,-0.000229,-0.000502
442280,0.114814,-0.01924,0.0135,0.087266,-0.0,-0.0,3.0,0.3261,0.341512,0.3261,0.30963,,,,,,,0.114446,-0.018143,0.026298,-0.072642,-0.00024,-0.000513
442300,0.114693,-0.01924,0.013499,0.087266,-0.0,-0.0,3.0,0.3261,0.342414,0.3261,0.308595,,,,,,,0.113959,-0.018148,0.026288,-0.048347,-0.000239,-0.000524
442320,0.114693,-0.019469,0.01327,0.087266,-0.0,-0.0,3.0,0.3261,0.342797,0.3261,0.308153,,,,,,,0.113471,-0.018152,0.026277,0.02475,-0.000261,-0.000546
442340,0.114443,-0.019582,0.01315,0.087266,-0.0,-0.0,3.0,0.3261,0.336582,0.3261,0.31514,,,,,,,0.11286,-0.018157,0.026266,0.098241,-0.00026,-0.000557
442360,0.114321,-0.019818,0.013042,0.087266,-0.0,-0.0,3.0,0.3261,0.332167,0.3261,0.319876,,,,,,,0.112496,-0.018162,0.026255,0.072177,-0.000271,-0.000568
442380,0.114078,-0.01981,0.012918,0.087266,-0.0,-0.0,3.0,0.3261,0.330117,0.3261,0.322015,,,,,,,0.112254,-0.018168,0.026244,-0.0005,-0.000257,-0.000581
442400,0.113716,-0.019672,0.012664,0.087266,-0.0,-0.0,3.0,0.3261,0.337341,0.3261,0.314307,,,,,,,0.112498,-0.018173,0.026232,-0.097129,-0.000243,-0.000593
442420,0.113353,-0.01942,0.012525,0.087266,-0.0,-0.0,3.0,0.3261,0.340282,0.3261,0.311026,,,,,,,0.112497,-0.018178,0.02622,-0.072756,-0.000254,-0.000603
442440,0.113111,-0.019412,0.012401,0.087266,-0.0,-0.0,3.0,0.3261,0.340865,0.3261,0.310367,,,,,,,0.112377,-0.018183,0.026208,-0.023963,-0.000252,-0.000626
442460,0.113234,-0.019406,0.012281,0.087266,-0.0,-0.0,3.0,0.3261,0.345506,0.3261,0.304983,,,,,,,0.112374,-0.018189,0.026195,-0.023646,-0.000264,-0.000624
442480,0.113354,-0.01965,0.012295,0.087266,-0.0,-0.0,3.0,0.3261,0.34361,0.3261,0.30721,,,,,,,0.112133,-0.018194,0.026182,0.000134,-0.000287,-0.000633
442500,0.113354,-0.019765,0.01218,0.087266,-0.0,-0.0,3.0,0.3261,0.339302,0.3261,0.312129,,,,,,,0.11177,-0.018199,0.02617,0.072436,-0.000298,-0.000644
442520,0.113232,-0.019886,0.012186,0.087266,-0.0,-0.0,3.0,0.3261,0.335067,0.3261,0.316785,,,,,,,0.111529,-0.018204,0.026157,0.048027,-0.000273,-0.000644
442540,0.11311,-0.019886,0.012185,0.087266,-0.0,-0.0,3.0,0.3261,0.33557,0.3261,0.316241,,,,,,,0.111409,-0.01821,0.026144,0.023669,-0.000248,-0.000644
442560,0.112744,-0.019884,0.012182,0.087266,-0.0,-0.0,3.0,0.3261,0.335848,0.3261,0.31594,,,,,,,0.111408,-0.018215,0.026131,-0.024412,-0.000247,-0.000655
442580,0.112625,-0.019633,0.012046,0.087266,-0.0,-0.0,3.0,0.3261,0.338738,0.3261,0.31276,,,,,,,0.111407,-0.01822,0.026118,-0.049795,-0.000246,-0.000654
442600,0.112497,-0.019509,0.012035,0.087266,-0.0,-0.0,3.0,0.3261,0.339671,0.3261,0.311715,,,,,,,0.111284,-0.018226,0.026105,-0.049694,-0.000245,-0.000653
442620,0.112254,-0.019508,0.012033,0.087266,-0.0,-0.0,3.0,0.3261,0.340818,0.3261,0.31042,,,,,,,0.111161,-0.018231,0.026092,-0.025385,-0.000269,-0.000651
442640,0.112253,-0.01963,0.01204,0.087266,-0.0,-0.0,3.0,0.3261,0.343008,0.3261,0.307908,,,,,,,0.111153,-0.018236,0.026079,9.8e-05,-0.00027,-0.000637
442660,0.112252,-0.019637,0.012162,0.087266,-0.0,-0.0,3.0,0.3261,0.343077,0.3261,0.307829,,,,,,,0.111154,-0.018241,0.026066,-6.4e-05,-0.000269,-0.000636
442680,0.112373,-0.019759,0.01217,0.087266,-0.0,-0.0,3.0,0.3261,0.342175,0.3261,0.308869,,,,,,,0.111032,-0.018246,0.026053,-0.024175,-0.000256,-0.000635
442700,0.11225,-0.019644,0.012284,0.087266,-0.0,-0.0,3.0,0.3261,0.342486,0.3261,0.308512,,,,,,,0.111032,-0.018252,0.026041,-0.024174,-0.000256,-0.000634
442720,0.112128,-0.01988,0.012175,0.087266,-0.0,-0.0,3.0,0.3261,0.339431,0.3261,0.311985,,,,,,,0.110789,-0.018257,0.026028,0.024014,-0.000267,-0.000632
442740,0.112129,-0.019758,0.012168,0.087266,-0.0,-0.0,3.0,0.3261,0.339357,0.3261,0.312067,,,,,,,0.110667,-0.018262,0.026016,0.04845,-0.000267,-0.000631
442760,0.112006,-0.01988,0.012174,0.087266,-0.0,-0.0,3.0,0.3261,0.340471,0.3261,0.310814,,,,,,,0.110668,-0.018267,0.026003,-0.024436,-0.000254,-0.000631
442780,0.111764,-0.019635,0.012158,0.087266,-0.0,-0.0,3.0,0.3261,0.341687,0.3261,0.30943,,,,,,,0.110544,-0.018272,0.02599,-0.048202,-0.000241,-0.00063
442800,0.111399,-0.019511,0.012148,0.087266,-0.0,-0.0,3.0,0.3261,0.33795,0.3261,0.313635,,,,,,,0.110181,-0.018278,0.025978,-3.6e-05,-0.000241,-0.000629
442820,0.111035,-0.019266,0.012132,0.087266,-0.0,-0.0,3.0,0.3261,0.338132,0.3261,0.313433,,,,,,,0.109938,-0.018282,0.025965,-0.024397,-0.000216,-0.000617
442840,0.110546,-0.01927,0.01225,0.087266,-0.0,-0.0,3.0,0.3261,0.339635,0.3261,0.311755,,,,,,,0.109693,-0.018287,0.025953,-0.073016,-0.00024,-0.000615
442860,0.110173,-0.019389,0.012251,0.087266,-0.0,-0.0,3.0,0.3261,0.342992,0.3261,0.307927,,,,,,,0.109447,-0.018292,0.02594,-0.048291,-0.000239,-0.000614
442880,0.109806,-0.019516,0.012377,0.087266,-0.0,-0.0,3.0,0.3261,0.342429,0.3261,0.308577,,,,,,,0.108952,-0.018296,0.025928,-0.024241,-0.000263,-0.000612
442900,0.109439,-0.019637,0.012381,0.087266,-0.0,-0.0,3.0,0.3261,0.340856,0.3261,0.310377,,,,,,,0.108464,-0.018301,0.025916,0.024212,-0.000251,-0.000599
442920,0.109438,-0.019758,0.012387,0.087266,-0.0,-0.0,3.0,0.3261,0.337008,0.3261,0.314672,,,,,,,0.107855,-0.018306,0.025904,0.07273,-0.00025,-0.000598
442940,0.109194,-0.019642,0.012501,0.087266,-0.0,-0.0,3.0,0.3261,0.334793,0.3261,0.317081,,,,,,,0.107489,-0.018311,0.025892,0.048522,-0.000238,-0.000586
442960,0.108829,-0.019518,0.012491,0.087266,-0.0,-0.0,3.0,0.3261,0.335283,0.3261,0.316552,,,,,,,0.107247,-0.018316,0.025881,-0.000363,-0.000237,-0.000585
442980,0.108343,-0.019394,0.01248,0.087266,-0.0,-0.0,3.0,0.3261,0.335217,0.3261,0.316624,,,,,,,0.107003,-0.018321,0.025869,-0.050247,-0.000213,-0.000574
443000,0.107726,-0.019275,0.012589,0.087266,-0.0,-0.0,3.0,0.3261,0.337412,0.3261,0.314229,,,,,,,0.106753,-0.018325,0.025857,-0.073112,-0.0002,-0.000574
443020,0.107118,-0.01915,0.012577,0.087266,-0.0,-0.0,3.0,0.3261,0.338306,0.3261,0.31324,,,,,,,0.106386,-0.018329,0.025846,-0.048427,-0.000199,-0.000573
443040,0.106996,-0.019028,0.01257,0.087266,-0.0,-0.0,3.0,0.3261,0.341803,0.3261,0.309296,,,,,,,0.106141,-0.018334,0.025834,-0.048391,-0.000211,-0.000571
443060,0.106994,-0.019278,0.012705,0.087266,-0.0,-0.0,3.0,0.3261,0.345209,0.3261,0.305334,,,,,,,0.105895,-0.018338,0.025823,-0.024043,-0.000235,-0.000569
443080,0.106503,-0.019641,0.01272,0.087266,-0.0,-0.0,3.0,0.3261,0.340639,0.3261,0.310623,,,,,,,0.105407,-0.018342,0.025812,0.024227,-0.000259,-0.000567
443100,0.10638,-0.019884,0.012732,0.087266,-0.0,-0.0,3.0,0.3261,0.334281,0.3261,0.317631,,,,,,,0.104678,-0.018347,0.0258,0.096415,-0.000259,-0.000554
443120,0.106137,-0.019646,0.012839,0.087266,-0.0,-0.0,3.0,0.3261,0.333385,0.3261,0.318587,,,,,,,0.104428,-0.018352,0.025789,0.025089,-0.000222,-0.000543
443140,0.105642,-0.019527,0.012948,0.087266,-0.0,-0.0,3.0,0.3261,0.333836,0.3261,0.318107,,,,,,,0.104184,-0.018356,0.025779,-0.072971,-0.000197,-0.000544
443160,0.104914,-0.019036,0.012917,0.087266,-0.0,-0.0,3.0,0.3261,0.337701,0.3261,0.31391,,,,,,,0.104062,-0.018361,0.025768,-0.09722,-0.000185,-0.000531
443180,0.104305,-0.019033,0.012912,0.087266,-0.0,-0.0,3.0,0.3261,0.337589,0.3261,0.314034,,,,,,,0.103572,-0.018365,0.025757,-0.072531,-0.000184,-0.000531
443200,0.103816,-0.019037,0.01303,0.087266,-0.0,-0.0,3.0,0.3261,0.339622,0.3261,0.311771,,,,,,,0.103204,-0.018369,0.025747,-0.048077,-0.000208,-0.000529
