time_ms,roll,pitch,yaw,roll_rate,pitch_rate,yaw_rate,reference_roll,reference_pitch,reference_yaw,reference_throttle,throttle_1,throttle_2,throttle_3,throttle_4,roll_predicted,pitch_predicted,yaw_predicted,roll_rate_predicted,pitch_rate_predicted,yaw_rate_predicted
450638,-0.021597,-0.010459,-0.074955,1.1e-05,-2.3e-05,-0.001064,0.0,-0.0,-0.0,2.0,0.282024,0.273645,0.282024,0.29006,,,,,,
450658,-0.02148,-0.010332,-0.074953,-0.001064,0.0,0.0,8.8e-05,-0.0,-0.0,2.0,0.282024,0.273664,0.282024,0.290042,,,,,,
450678,-0.021724,-0.01034,-0.074832,-0.001064,0.0,0.0,0.00382,-0.0,-0.0,2.0,0.282024,0.269155,0.282024,0.294099,,,,,,
450698,-0.021973,-0.010226,-0.07471,-0.001054,-0.001087,-0.001041,0.006377,-0.0,-0.0,2.0,0.282024,0.267318,0.282024,0.295702,,,,,,
450718,-0.022096,-0.010229,-0.074589,-0.001053,-2.4e-05,-0.001064,0.008918,-0.0,-0.0,2.0,0.282024,0.265383,0.282024,0.29736,,,,,,
450738,-0.022223,-0.010111,-0.074588,-0.001064,0.0,0.0,0.012697,-0.0,-0.0,2.0,0.282024,0.264659,0.282024,0.297972,,,,,,
450758,-0.022097,-0.010228,-0.074467,-0.0,-0.001064,2.4e-05,0.015194,-0.0,-0.0,2.0,0.282024,0.262993,0.282024,0.299365,,,,,,
450778,-0.021853,-0.010217,-0.074345,0.001075,-0.001087,-0.001041,0.020993,-0.0,-0.0,2.0,0.282024,0.259007,0.282024,0.30261,,,,,,
450798,-0.021366,-0.010199,-0.074343,0.0,0.0,0.0,0.023185,-0.0,-0.0,2.0,0.282024,0.259776,0.282024,0.301994,,,,,,
450818,-0.020878,-0.010181,-0.074342,0.0,0.0,0.0,0.027121,-0.0,-0.0,2.0,0.282024,0.255176,0.282024,0.305616,,,,,,
450838,-0.020508,-0.010288,-0.07422,1.1e-05,-0.001086,-0.001042,0.030678,-0.0,-0.0,2.0,0.282024,0.255029,0.282024,0.305729,,,,,,
450858,-0.020021,-0.010269,-0.074097,0.001075,-2.1e-05,-0.001064,0.032387,-0.0,-0.0,2.0,0.282024,0.251981,0.282024,0.308041,,,,,,
450878,-0.019406,-0.010369,-0.074096,0.001075,-2.1e-05,-0.001064,0.035512,-0.0,-0.0,2.0,0.282024,0.252152,0.282024,0.307912,,,,,,
450898,-0.018552,-0.010337,-0.074093,0.001064,0.0,0.0,0.040495,-0.0,-0.0,2.0,0.282024,0.248928,0.282024,0.31029,,,,,,
450918,-0.017699,-0.010304,-0.073969,0.003192,-0.001064,1.9e-05,0.042188,-0.0,-0.0,2.0,0.282024,0.250381,0.282024,0.309227,,,,,,
450938,-0.016352,-0.010376,-0.073952,0.003204,-0.001081,-0.001047,0.046398,-0.0,-0.0,2.0,0.282024,0.248285,0.282024,0.310756,,,,,,
450958,-0.014513,-0.010553,-0.073947,0.003204,-0.00108,-0.001049,0.048529,-0.0,-0.0,2.0,0.282024,0.252214,0.282024,0.307866,,,,,,
450978,-0.012312,-0.010595,-0.07406,0.004257,0.0,0.0,0.052013,-0.0,-0.0,2.0,0.282024,0.251614,0.282024,0.308314,,,,,,
450998,-0.009868,-0.010626,-0.073929,0.006397,-1.1e-05,-0.001064,0.054922,-0.0,-0.0,2.0,0.282024,0.252982,0.282024,0.307289,,,,,,
451018,-0.00681,-0.010757,-0.073916,0.007461,-7e-06,-0.001064,0.057788,-0.0,-0.0,2.0,0.282024,0.255052,0.282024,0.305711,,,,,,
451038,-0.003262,-0.010871,-0.074143,0.008514,0.0,0.0,0.059797,-0.0,-0.0,2.0,0.282024,0.258279,0.282024,0.30319,,,,,,
451058,0.000783,-0.01121,-0.074243,0.009578,0.0,0.0,0.06199,-0.0,-0.0,2.0,0.282024,0.261659,0.282024,0.300465,,,,,,
451078,0.005554,-0.011399,-0.074215,0.009578,0.0,0.0,0.064997,-0.0,-0.0,2.0,0.282024,0.266678,0.282024,0.296254,,,,,,
451098,0.010692,-0.011573,-0.074424,0.010642,0.0,0.0,0.066786,-0.0,-0.0,2.0,0.282024,0.268877,0.282024,0.294344,,,,,,
451118,0.016079,-0.01186,-0.074518,0.012771,0.0,0.0,0.068232,-0.0,-0.0,2.0,0.282024,0.273385,0.282024,0.290298,,,,,,
451138,0.022067,-0.011876,-0.074835,0.012771,-0.001064,-2.3e-05,0.070648,-0.0,-0.0,2.0,0.282024,0.278588,0.282024,0.285401,,,,,,
451158,0.028309,-0.012127,-0.075034,0.012771,0.0,0.0,0.073142,-0.0,-0.0,2.0,0.282024,0.281003,0.282024,0.284046,,,,,,
451178,0.034665,-0.012125,-0.075352,0.012758,-3.7e-05,0.001064,0.075123,-0.0,-0.0,2.0,0.282024,0.284591,0.282024,0.279424,,,,,,
451198,0.041264,-0.012112,-0.075663,0.013835,0.0,0.0,0.076051,-0.0,-0.0,2.0,0.282024,0.288052,0.282024,0.275805,,,,,,
451218,0.047629,-0.012348,-0.075966,0.013835,0.0,0.0,0.077597,-0.0,-0.0,2.0,0.282024,0.291062,0.282024,0.272549,,,,,,
451238,0.054237,-0.012449,-0.076399,0.013822,-5.8e-05,0.001063,0.080029,-0.0,-0.0,2.0,0.282024,0.29188,0.282024,0.271646,,,,,,
451258,0.060478,-0.012563,-0.076708,0.012771,0.0,0.0,0.080915,-0.0,-0.0,2.0,0.282024,0.295176,0.282024,0.267924,,,,,,
451278,0.066472,-0.012684,-0.077002,0.011693,-7.1e-05,0.001062,0.081651,-0.0,-0.0,2.0,0.282024,0.298278,0.282024,0.264295,,,,,,
451298,0.071983,-0.012818,-0.077432,0.010643,-0.001061,-7.7e-05,0.083472,-0.0,-0.0,2.0,0.282024,0.297959,0.282024,0.264675,,,,,,
451318,0.076884,-0.012978,-0.077745,0.009592,8.2e-05,-0.001061,0.084474,-0.0,-0.0,2.0,0.282024,0.298546,0.282024,0.263976,,,,,,
451338,0.08165,-0.012892,-0.078173,0.0085,-8.7e-05,0.001061,0.085336,-0.0,-0.0,2.0,0.282024,0.299179,0.282024,0.263218,,,,,,
451358,0.085697,-0.013087,-0.078371,0.007436,-9.1e-05,0.00106,0.086025,-0.0,-0.0,2.0,0.282024,0.300563,0.282024,0.261539,,,,,,
451378,0.089248,-0.013173,-0.078686,0.006385,0.0,0.0,0.08631,-0.0,-0.0,2.0,0.282024,0.2997,0.282024,0.262588,,,,,,
451398,0.092306,-0.013161,-0.07889,0.005322,-0.00106,-9.8e-05,0.086842,-0.0,-0.0,2.0,0.282024,0.299502,0.282024,0.262829,,,,,,
451418,0.094881,-0.013284,-0.079217,0.004257,0.0,0.0,0.087129,-0.0,-0.0,2.0,0.282024,0.299164,0.282024,0.263235,,,,,,
451438,0.096715,-0.013204,-0.079324,0.003193,0.0,0.0,0.087261,-0.0,-0.0,2.0,0.282024,0.298483,0.282024,0.264052,,,,,,
451458,0.098066,-0.013272,-0.079311,0.00108,-0.000955,-0.001163,0.087244,-0.0,-0.0,2.0,0.282024,0.297623,0.282024,0.265072,,,,,,
451478,0.098919,-0.013237,-0.079297,1.5e-05,-0.000954,-0.001164,0.087117,-0.0,-0.0,2.0,0.282024,0.296407,0.282024,0.266499,,,,,,
451498,0.099158,-0.013099,-0.07942,-0.001064,0.0,0.0,0.086742,-0.0,-0.0,2.0,0.282024,0.295144,0.282024,0.267961,,,,,,
451518,0.099036,-0.01311,-0.079301,-0.001064,0.0,0.0,0.086467,-0.0,-0.0,2.0,0.282024,0.293539,0.282024,0.269789,,,,,,
451538,0.09867,-0.013131,-0.079185,-0.002113,-0.000954,-0.001164,0.085885,-0.0,-0.0,2.0,0.282024,0.293669,0.282024,0.269642,,,,,,
451558,0.098061,-0.013156,-0.079195,-0.002113,-0.000955,-0.001163,0.08516,-0.0,-0.0,2.0,0.282024,0.292007,0.282024,0.271506,,,,,,
451578,0.097447,-0.013059,-0.079211,-0.002115,0.000104,-0.001059,0.08474,-0.0,-0.0,2.0,0.282024,0.291868,0.282024,0.271659,,,,,,
451598,0.097075,-0.013073,-0.079202,-0.001064,0.0,0.0,0.083072,-0.0,-0.0,2.0,0.282024,0.294477,0.282024,0.268724,,,,,,
451618,0.096837,-0.013205,-0.0792,-0.001063,-0.001059,-0.000103,0.082348,-0.0,-0.0,2.0,0.282024,0.29469,0.282024,0.268482,,,,,,
451638,0.096588,-0.013093,-0.07921,-0.00105,0.000103,-0.001059,0.081648,-0.0,-0.0,2.0,0.282024,0.29496,0.282024,0.268173,,,,,,
451658,0.096715,-0.013204,-0.079324,0.0,0.0,0.0,0.079292,-0.0,-0.0,2.0,0.282024,0.298112,0.282024,0.264493,,,,,,
451678,0.096843,-0.013315,-0.079438,0.0,0.0,0.0,0.077698,-0.0,-0.0,2.0,0.282024,0.299124,0.282024,0.263284,,,,,,
451698,0.096847,-0.013437,-0.079432,0.0,0.0,0.0,0.07684,-0.0,-0.0,2.0,0.282024,0.299629,0.282024,0.262675,,,,,,
451718,0.097091,-0.013427,-0.079428,1.6e-05,-0.000956,-0.001162,0.075017,-0.0,-0.0,2.0,0.282024,0.299185,0.282024,0.263209,,,,,,
451738,0.097096,-0.013548,-0.079422,-0.001048,-0.000956,-0.001162,0.073078,-0.0,-0.0,2.0,0.282024,0.300298,0.282024,0.261863,,,,,,
451758,0.096848,-0.013431,-0.079553,-0.001064,0.0,0.0,0.070358,-0.0,-0.0,2.0,0.282024,0.301736,0.282024,0.260095,,,,,,
451778,0.096604,-0.013447,-0.079436,-0.001063,-0.001059,-0.000103,0.068604,-0.0,-0.0,2.0,0.282024,0.302631,0.282024,0.258981,,,,,,
451798,0.096116,-0.013472,-0.079322,-0.002113,-0.000957,-0.001162,0.067123,-0.0,-0.0,2.0,0.282024,0.303271,0.282024,0.258176,,,,,,
451818,0.095507,-0.013497,-0.079332,-0.002113,-0.000958,-0.001161,0.064878,-0.0,-0.0,2.0,0.282024,0.302543,0.282024,0.259091,,,,,,
451838,0.094771,-0.013405,-0.07935,-0.002114,0.000101,-0.00106,0.061793,-0.0,-0.0,2.0,0.282024,0.303824,0.282024,0.257476,,,,,,
451858,0.094034,-0.013435,-0.079347,-0.003193,0.0,0.0,0.058994,-0.0,-0.0,2.0,0.282024,0.305004,0.282024,0.255967,,,,,,
451878,0.092937,-0.013485,-0.079243,-0.003178,9.9e-05,-0.00106,0.056231,-0.0,-0.0,2.0,0.282024,0.304338,0.282024,0.256821,,,,,,
451898,0.091713,-0.013534,-0.079248,-0.003178,9.7e-05,-0.00106,0.053372,-0.0,-0.0,2.0,0.282024,0.305274,0.282024,0.255619,,,,,,
451918,0.09025,-0.013594,-0.079271,-0.004256,-0.00106,-9.6e-05,0.051831,-0.0,-0.0,2.0,0.282024,0.303657,0.282024,0.257689,,,,,,
451938,0.088412,-0.013546,-0.07929,-0.004257,0.0,0.0,0.051831,-0.0,-0.0,2.0,0.282024,0.302599,0.282024,0.259021,,,,,,
451958,0.086452,-0.013502,-0.079311,-0.00532,-0.00106,-9.2e-05,0.046715,-0.0,-0.0,2.0,0.282024,0.302791,0.282024,0.258781,,,,,,
451978,0.084127,-0.013358,-0.079235,-0.00637,-0.000971,-0.00115,0.042194,-0.0,-0.0,2.0,0.282024,0.304382,0.282024,0.256766,,,,,,
451998,0.081431,-0.013218,-0.079392,-0.00637,-0.000974,-0.001147,0.040166,-0.0,-0.0,2.0,0.282024,0.302421,0.282024,0.259243,,,,,,
452018,0.078613,-0.013087,-0.079428,-0.007448,-0.001061,-8.4e-05,0.035795,-0.0,-0.0,2.0,0.282024,0.301663,0.282024,0.260187,,,,,,
452038,0.075426,-0.012845,-0.079593,-0.008513,-0.001061,-8e-05,0.033777,-0.0,-0.0,2.0,0.282024,0.301072,0.282024,0.260915,,,,,,
452058,0.071994,-0.012617,-0.079639,-0.008513,-0.001061,-7.7e-05,0.030305,-0.0,-0.0,2.0,0.282024,0.298925,0.282024,0.263523,,,,,,
452078,0.068192,-0.012278,-0.079812,-0.008513,-0.001062,-7.3e-05,0.026595,-0.0,-0.0,2.0,0.282024,0.298849,0.282024,0.263613,,,,,,
452098,0.064272,-0.012067,-0.079981,-0.009577,-0.001062,-6.8e-05,0.024459,-0.0,-0.0,2.0,0.282024,0.296103,0.282024,0.266854,,,,,,
452118,0.059979,-0.011748,-0.08014,-0.010642,-0.001062,-6.4e-05,0.024459,-0.0,-0.0,2.0,0.282024,0.293533,0.282024,0.269796,,,,,,
452138,0.055572,-0.011556,-0.080308,-0.010642,-0.001063,-5.9e-05,0.016701,-0.0,-0.0,2.0,0.282024,0.293846,0.282024,0.269442,,,,,,
452158,0.050921,-0.011375,-0.080476,-0.010642,-0.001063,-5.4e-05,0.0133,-0.0,-0.0,2.0,0.282024,0.293073,0.282024,0.270314,,,,,,
452178,0.046025,-0.011081,-0.080781,-0.011694,-0.001014,-0.001112,0.008579,-0.0,-0.0,2.0,0.282024,0.291231,0.282024,0.272364,,,,,,
452198,0.041131,-0.010908,-0.081066,-0.011706,-0.001063,-4.4e-05,0.005803,-0.0,-0.0,2.0,0.282024,0.289937,0.282024,0.273778,,,,,,
452218,0.035993,-0.010749,-0.081227,-0.011706,-0.001064,-3.8e-05,0.002963,-0.0,-0.0,2.0,0.282024,0.288523,0.282024,0.275302,,,,,,
452238,0.030854,-0.01059,-0.081384,-0.011706,-0.001064,-3.3e-05,-0.000769,-0.0,-0.0,2.0,0.282024,0.287654,0.282024,0.276228,,,,,,
452258,0.025591,-0.010316,-0.081555,-0.011706,-0.001064,-2.7e-05,-0.004439,-0.0,-0.0,2.0,0.282024,0.286664,0.282024,0.277272,,,,,,
452278,0.020203,-0.010047,-0.081585,-0.011696,-0.001043,-0.001086,-0.008109,-0.0,-0.0,2.0,0.282024,0.285609,0.282024,0.278372,,,,,,
452298,0.014934,-0.009652,-0.081625,-0.01276,-0.001048,-0.00108,-0.010481,-0.0,-0.0,2.0,0.282024,0.283769,0.282024,0.280263,,,,,,
452318,0.00954,-0.009263,-0.081402,-0.011696,-0.002118,-0.001085,-0.015263,-0.0,-0.0,2.0,0.282024,0.284251,0.282024,0.279772,,,,,,
452338,0.004143,-0.00875,-0.081189,-0.011697,-0.00106,-0.001069,-0.017489,-0.0,-0.0,2.0,0.282024,0.281381,0.282024,0.282666,,,,,,
452358,-0.001006,-0.008349,-0.080969,-0.011698,-0.001065,-0.001063,-0.019325,-0.0,-0.0,2.0,0.282024,0.27925,0.282024,0.284759,,,,,,
452378,-0.006393,-0.008077,-0.080744,-0.011698,-0.001071,-0.001057,-0.025316,-0.0,-0.0,2.0,0.282024,0.279639,0.282024,0.28438,,,,,,
452398,-0.011664,-0.007677,-0.080393,-0.011698,-0.001077,-0.001052,-0.027397,-0.0,-0.0,2.0,0.282024,0.277583,0.282024,0.286366,,,,,,
452418,-0.016813,-0.00727,-0.080035,-0.011699,-0.001082,-0.001046,-0.031249,-0.0,-0.0,2.0,0.282024,0.276721,0.282024,0.287188,,,,,,
452438,-0.021952,-0.007106,-0.079811,-0.011692,-0.001111,-0.002105,-0.034648,-0.0,-0.0,2.0,0.282024,0.275577,0.282024,0.288266,,,,,,
452458,-0.026969,-0.006934,-0.079447,-0.011699,-0.001093,-0.001035,-0.038072,-0.0,-0.0,2.0,0.282024,0.274538,0.282024,0.289235,,,,,,
452478,-0.031986,-0.006761,-0.079079,-0.011692,-6.8e-05,-0.002127,-0.040222,-0.0,-0.0,2.0,0.282024,0.272613,0.282024,0.291003,,,,,,
452498,-0.036877,-0.006703,-0.078725,-0.010635,-0.001103,-0.001024,-0.042874,-0.0,-0.0,2.0,0.282024,0.273045,0.282024,0.29061,,,,,,
452518,-0.041647,-0.006641,-0.078488,-0.010635,-0.001108,-0.001019,-0.046014,-0.0,-0.0,2.0,0.282024,0.27194,0.282024,0.291614,,,,,,
452538,-0.046541,-0.006455,-0.077989,-0.010629,-9.9e-05,-0.002126,-0.050097,-0.0,-0.0,2.0,0.282024,0.271394,0.282024,0.292107,,,,,,
452558,-0.050944,-0.006375,-0.077747,-0.010636,-0.001117,-0.001009,-0.052149,-0.0,-0.0,2.0,0.282024,0.269815,0.282024,0.293516,,,,,,
452578,-0.055475,-0.006175,-0.077378,-0.010636,-0.001122,-0.001004,-0.055451,-0.0,-0.0,2.0,0.282024,0.270911,0.282024,0.292541,,,,,,
452598,-0.059879,-0.006086,-0.076887,-0.009565,-0.00119,-0.002061,-0.058315,-0.0,-0.0,2.0,0.282024,0.26988,0.282024,0.293459,,,,,,
452618,-0.064161,-0.005998,-0.076638,-0.009572,-6.8e-05,-0.001062,-0.061044,-0.0,-0.0,2.0,0.282024,0.268809,0.282024,0.294403,,,,,,
452638,-0.068317,-0.006018,-0.076148,-0.009572,-7.3e-05,-0.001062,-0.063621,-0.0,-0.0,2.0,0.282024,0.267726,0.282024,0.295348,,,,,,
452658,-0.072472,-0.00604,-0.075777,-0.008508,-0.001138,-0.000984,-0.064987,-0.0,-0.0,2.0,0.282024,0.265811,0.282024,0.296996,,,,,,
452678,-0.076511,-0.00593,-0.07528,-0.008501,-0.000163,-0.002122,-0.068252,-0.0,-0.0,2.0,0.282024,0.265273,0.282024,0.297453,,,,,,
452698,-0.080301,-0.005935,-0.074907,-0.008508,-8.5e-05,-0.001061,-0.06937,-0.0,-0.0,2.0,0.282024,0.265396,0.282024,0.297349,,,,,,
452718,-0.084086,-0.006061,-0.074539,-0.008507,-8.9e-05,-0.00106,-0.071248,-0.0,-0.0,2.0,0.282024,0.264063,0.282024,0.298473,,,,,,
452738,-0.087627,-0.006171,-0.074049,-0.007444,-0.001153,-0.000967,-0.073814,-0.0,-0.0,2.0,0.282024,0.26339,0.282024,0.299035,,,,,,
452758,-0.091057,-0.006154,-0.073566,-0.007437,-0.000194,-0.00212,-0.075724,-0.0,-0.0,2.0,0.282024,0.262303,0.282024,0.299936,,,,,,
452778,-0.094355,-0.006257,-0.073197,-0.007443,-0.0001,-0.00106,-0.077497,-0.0,-0.0,2.0,0.282024,0.263251,0.282024,0.299151,,,,,,
452798,-0.097531,-0.006349,-0.072707,-0.007443,-0.000104,-0.001059,-0.079134,-0.0,-0.0,2.0,0.282024,0.262162,0.282024,0.300052,,,,,,
452818,-0.100582,-0.006551,-0.072101,-0.006372,-0.001273,-0.002011,-0.079891,-0.0,-0.0,2.0,0.282024,0.260542,0.282024,0.301375,,,,,,
452839,-0.103637,-0.006635,-0.07161,-0.006371,-0.00022,-0.002117,-0.082094,-0.0,-0.0,2.0,0.282024,0.259931,0.282024,0.301868,,,,,,
452858,-0.106448,-0.006709,-0.07112,-0.007442,-0.000113,-0.001058,-0.082722,-0.0,-0.0,2.0,0.282024,0.260408,0.282024,0.301484,,,,,,
452879,-0.109251,-0.007019,-0.070521,-0.006378,-0.000116,-0.001058,-0.084213,-0.0,-0.0,2.0,0.282024,0.25948,0.282024,0.302232,,,,,,
452898,-0.111936,-0.007201,-0.069916,-0.005306,-0.000238,-0.002115,-0.084812,-0.0,-0.0,2.0,0.282024,0.257972,0.282024,0.303433,,,,,,
452918,-0.114739,-0.007507,-0.069318,-0.006369,-0.000244,-0.002115,-0.08565,-0.0,-0.0,2.0,0.282024,0.256539,0.282024,0.304559,,,,,,
452938,-0.117059,-0.007681,-0.068837,-0.006368,0.000808,-0.002238,-0.086287,-0.0,-0.0,2.0,0.282024,0.255289,0.282024,0.305528,,,,,,
452958,-0.119371,-0.008089,-0.06825,-0.005312,0.00093,-0.001183,-0.086759,-0.0,-0.0,2.0,0.282024,0.256045,0.282024,0.304944,,,,,,
452978,-0.121684,-0.008489,-0.067541,-0.004239,-0.000258,-0.002113,-0.086938,-0.0,-0.0,2.0,0.282024,0.256598,0.282024,0.304513,,,,,,
452998,-0.123635,-0.00876,-0.066949,-0.004238,-0.000262,-0.002112,-0.08721,-0.0,-0.0,2.0,0.282024,0.253238,0.282024,0.307095,,,,,,
453018,-0.125456,-0.009278,-0.066495,-0.004236,0.00079,-0.002245,-0.08721,-0.0,-0.0,2.0,0.282024,0.254001,0.282024,0.306516,,,,,,
453038,-0.127035,-0.009779,-0.065921,-0.004245,0.000921,-0.001191,-0.087152,-0.0,-0.0,2.0,0.282024,0.252781,0.282024,0.30744,,,,,,
453058,-0.128367,-0.01014,-0.065208,-0.003181,0.000919,-0.001192,-0.087021,-0.0,-0.0,2.0,0.282024,0.253847,0.282024,0.306633,,,,,,
453078,-0.129586,-0.010498,-0.064508,-0.002106,-0.000275,-0.002111,-0.086525,-0.0,-0.0,2.0,0.282024,0.254704,0.282024,0.305979,,,,,,
453098,-0.130551,-0.010862,-0.064041,-0.002107,-0.001332,-0.001972,-0.086272,-0.0,-0.0,2.0,0.282024,0.253777,0.282024,0.306686,,,,,,
453118,-0.131165,-0.010841,-0.06343,-0.002106,-0.000278,-0.00211,-0.085634,-0.0,-0.0,2.0,0.282024,0.252843,0.282024,0.307394,,,,,,
453138,-0.131414,-0.010801,-0.0627,-0.001053,-0.000139,-0.001055,-0.08485,-0.0,-0.0,2.0,0.282024,0.254232,0.282024,0.30634,,,,,,
453158,-0.13167,-0.010517,-0.061953,2.2e-05,-0.000279,-0.00211,-0.084356,-0.0,-0.0,2.0,0.282024,0.255815,0.282024,0.305121,,,,,,
453178,-0.131678,-0.010363,-0.061459,2e-05,-0.001334,-0.00197,-0.084356,-0.0,-0.0,2.0,0.282024,0.255787,0.282024,0.305143,,,,,,
453198,-0.131434,-0.010445,-0.060982,1e-05,-0.001195,-0.000916,-0.081616,-0.0,-0.0,2.0,0.282024,0.253919,0.282024,0.306579,,,,,,
453218,-0.131061,-0.010516,-0.060373,1e-05,-0.001194,-0.000916,-0.080609,-0.0,-0.0,2.0,0.282024,0.253446,0.282024,0.306937,,,,,,
453238,-0.130822,-0.010469,-0.059767,-0.001042,-0.000278,-0.00211,-0.078702,-0.0,-0.0,2.0,0.282024,0.252219,0.282024,0.307863,,,,,,
453258,-0.130826,-0.010437,-0.059281,-0.001042,-0.000278,-0.00211,-0.077642,-0.0,-0.0,2.0,0.282024,0.251415,0.282024,0.308462,,,,,,
453278,-0.130825,-0.010535,-0.058924,-0.001042,-0.000278,-0.00211,-0.075902,-0.0,-0.0,2.0,0.282024,0.247878,0.282024,0.31105,,,,,,
453298,-0.13095,-0.010506,-0.058437,-0.001053,-0.000139,-0.001055,-0.073833,-0.0,-0.0,2.0,0.282024,0.246175,0.282024,0.312265,,,,,,
453318,-0.130954,-0.010474,-0.057951,-0.001055,-0.001194,-0.000916,-0.072838,-0.0,-0.0,2.0,0.282024,0.24542,0.282024,0.312798,,,,,,
453338,-0.131079,-0.010446,-0.057464,-0.001044,-0.001333,-0.001971,-0.070919,-0.0,-0.0,2.0,0.282024,0.246039,0.282024,0.312362,,,,,,
453358,-0.130958,-0.010182,-0.057195,1.1e-05,-0.000139,-0.001055,-0.069299,-0.0,-0.0,2.0,0.282024,0.244865,0.282024,0.313187,,,,,,
453378,-0.130717,-0.010152,-0.056831,9e-06,-0.001194,-0.000916,-0.065168,-0.0,-0.0,2.0,0.282024,0.241773,0.282024,0.315319,,,,,,
453398,-0.130475,-0.010129,-0.056589,9e-06,-0.001194,-0.000917,-0.062694,-0.0,-0.0,2.0,0.282024,0.24228,0.282024,0.314973,,,,,,
453418,-0.130109,-0.010217,-0.056234,9e-06,-0.001193,-0.000917,-0.062694,-0.0,-0.0,2.0,0.282024,0.240269,0.282024,0.316333,,,,,,
453438,-0.129745,-0.010191,-0.055992,1.1e-05,-0.000138,-0.001055,-0.058656,-0.0,-0.0,2.0,0.282024,0.237268,0.282024,0.318316,,,,,,
453458,-0.129374,-0.010165,-0.05574,1.1e-05,-0.000137,-0.001055,-0.056402,-0.0,-0.0,2.0,0.282024,0.235705,0.282024,0.319326,,,,,,
453478,-0.129014,-0.010017,-0.055491,1.2e-05,0.000918,-0.001192,-0.053336,-0.0,-0.0,2.0,0.282024,0.233426,0.282024,0.320773,,,,,,
453498,-0.128653,-0.00987,-0.055241,0.001075,-0.000137,-0.001055,-0.050386,-0.0,-0.0,2.0,0.282024,0.233659,0.282024,0.320626,,,,,,
453518,-0.128038,-0.009845,-0.055112,0.001075,-0.000136,-0.001056,-0.047325,-0.0,-0.0,2.0,0.282024,0.231575,0.282024,0.321925,,,,,,
453538,-0.127309,-0.00981,-0.054871,0.002137,-0.001191,-0.000921,-0.045263,-0.0,-0.0,2.0,0.282024,0.230402,0.282024,0.322645,,,,,,
453558,-0.126327,-0.009775,-0.054743,0.002127,-0.001056,0.000134,-0.042504,-0.0,-0.0,2.0,0.282024,0.228883,0.282024,0.323566,,,,,,
453578,-0.124993,-0.009603,-0.054497,0.002137,-0.001189,-0.000923,-0.039676,-0.0,-0.0,2.0,0.282024,0.230078,0.282024,0.322843,,,,,,
453598,-0.123407,-0.009423,-0.054243,0.003203,-0.000131,-0.001056,-0.035206,-0.0,-0.0,2.0,0.282024,0.230061,0.282024,0.322853,,,,,,
453618,-0.121577,-0.009245,-0.05411,0.003202,-0.000129,-0.001056,-0.031037,-0.0,-0.0,2.0,0.282024,0.230516,0.282024,0.322576,,,,,,
453638,-0.119499,-0.009182,-0.053986,0.005331,-0.000127,-0.001057,-0.028822,-0.0,-0.0,2.0,0.282024,0.230395,0.282024,0.32265,,,,,,
453658,-0.116935,-0.009107,-0.053863,0.00533,-0.001181,-0.000933,-0.025277,-0.0,-0.0,2.0,0.282024,0.232016,0.282024,0.321653,,,,,,
453678,-0.114119,-0.009031,-0.053853,0.006384,-0.001057,0.000121,-0.021747,-0.0,-0.0,2.0,0.282024,0.233822,0.282024,0.320523,,,,,,
453698,-0.110942,-0.009055,-0.053616,0.007447,-0.002115,0.000236,-0.019283,-0.0,-0.0,2.0,0.282024,0.234424,0.282024,0.320143,,,,,,
453718,-0.107146,-0.009192,-0.053498,0.007449,-0.001058,0.000114,-0.01639,-0.0,-0.0,2.0,0.282024,0.237586,0.282024,0.318108,,,,,,
453738,-0.103115,-0.008964,-0.053482,0.008514,0.0,0.0,-0.011616,-0.0,-0.0,2.0,0.282024,0.239326,0.282024,0.316962,,,,,,
453758,-0.098835,-0.008966,-0.053357,0.009588,-0.000105,-0.001059,-0.008897,-0.0,-0.0,2.0,0.282024,0.24289,0.282024,0.314556,,,,,,
453778,-0.093948,-0.009076,-0.053246,0.009589,0.00096,-0.001159,-0.004355,-0.0,-0.0,2.0,0.282024,0.245426,0.282024,0.312794,,,,,,
453798,-0.088813,-0.009068,-0.053362,0.011716,-9.4e-05,-0.00106,-0.002069,-0.0,-0.0,2.0,0.282024,0.249822,0.282024,0.309639,,,,,,
453818,-0.083428,-0.009287,-0.053243,0.012781,-8.9e-05,-0.001061,0.00213,-0.0,-0.0,2.0,0.282024,0.250723,0.282024,0.308976,,,,,,
453838,-0.077559,-0.009376,-0.053237,0.01277,-0.001061,8.2e-05,0.00581,-0.0,-0.0,2.0,0.282024,0.252395,0.282024,0.307731,,,,,,
453858,-0.071439,-0.009708,-0.053359,0.013834,-0.001062,7.6e-05,0.007648,-0.0,-0.0,2.0,0.282024,0.257659,0.282024,0.30368,,,,,,
453878,-0.065201,-0.009909,-0.05335,0.013835,0.0,0.0,0.01065,-0.0,-0.0,2.0,0.282024,0.26,0.282024,0.301814,,,,,,
453898,-0.058353,-0.010098,-0.053458,0.013836,0.001062,-6.2e-05,0.015754,-0.0,-0.0,2.0,0.282024,0.263299,0.282024,0.299111,,,,,,
453918,-0.051752,-0.010292,-0.053571,0.0149,0.001063,-5.5e-05,0.018024,-0.0,-0.0,2.0,0.282024,0.268279,0.282024,0.294867,,,,,,
453938,-0.0449,-0.010726,-0.053806,0.014899,0.0,0.0,0.022939,-0.0,-0.0,2.0,0.282024,0.269601,0.282024,0.293706,,,,,,
453958,-0.03781,-0.010906,-0.053907,0.014899,0.0,0.0,0.025863,-0.0,-0.0,2.0,0.282024,0.272414,0.282024,0.291185,,,,,,
453978,-0.030714,-0.01133,-0.054128,0.014899,0.0,0.0,0.029756,-0.0,-0.0,2.0,0.282024,0.274549,0.282024,0.289224,,,,,,
453998,-0.023739,-0.011756,-0.054343,0.013835,0.001064,-2.5e-05,0.033275,-0.0,-0.0,2.0,0.282024,0.276826,0.282024,0.287088,,,,,,
454018,-0.016642,-0.012176,-0.054551,0.014899,0.001064,-1.8e-05,0.036632,-0.0,-0.0,2.0,0.282024,0.279259,0.282024,0.284751,,,,,,
454038,-0.009665,-0.012721,-0.054884,0.014899,0.0,0.0,0.038651,-0.0,-0.0,2.0,0.282024,0.281346,0.282024,0.2827,,,,,,
454058,-0.002932,-0.01327,-0.05509,0.013835,0.001064,-3e-06,0.04167,-0.0,-0.0,2.0,0.282024,0.282977,0.282024,0.281066,,,,,,
454078,0.003927,-0.013935,-0.055287,0.013835,0.001064,4e-06,0.045339,-0.0,-0.0,2.0,0.282024,0.28499,0.282024,0.279013,,,,,,
454098,0.010543,-0.014606,-0.05561,0.012771,0.001064,1.1e-05,0.04708,-0.0,-0.0,2.0,0.282024,0.288028,0.282024,0.275831,,,,,,
454118,0.016788,-0.015162,-0.055797,0.012771,0.0,0.0,0.049741,-0.0,-0.0,2.0,0.282024,0.288472,0.282024,0.275357,,,,,,
454138,0.022784,-0.01548,-0.055992,0.011706,0.0,0.0,0.054783,-0.0,-0.0,2.0,0.282024,0.287289,0.282024,0.276614,,,,,,
454158,0.028528,-0.015556,-0.0563,0.010643,-0.001064,-3e-05,0.05627,-0.0,-0.0,2.0,0.282024,0.289888,0.282024,0.273832,,,,,,
454178,0.0339,-0.0154,-0.056501,0.010643,-0.001064,-3.6e-05,0.059171,-0.0,-0.0,2.0,0.282024,0.289646,0.282024,0.274094,,,,,,
454198,0.038903,-0.01513,-0.056706,0.010643,-0.001063,-4.1e-05,0.060572,-0.0,-0.0,2.0,0.282024,0.291897,0.282024,0.271627,,,,,,
454218,0.043787,-0.014985,-0.056909,0.009579,-0.001063,-4.7e-05,0.06273,-0.0,-0.0,2.0,0.282024,0.291787,0.282024,0.271749,,,,,,
454238,0.048187,-0.014972,-0.057235,0.008514,0.0,0.0,0.065547,-0.0,-0.0,2.0,0.282024,0.290981,0.282024,0.272638,,,,,,
454258,0.052218,-0.01497,-0.057431,0.007434,-5.6e-05,0.001063,0.068937,-0.0,-0.0,2.0,0.282024,0.291396,0.282024,0.272181,,,,,,
454278,0.056007,-0.014975,-0.057639,0.006385,0.0,0.0,0.071011,-0.0,-0.0,2.0,0.282024,0.290695,0.282024,0.272951,,,,,,
454298,0.059321,-0.015355,-0.057962,0.006385,0.0,0.0,0.072414,-0.0,-0.0,2.0,0.282024,0.290112,0.282024,0.273588,,,,,,
454318,0.062261,-0.015501,-0.058295,0.005305,-6.6e-05,0.001062,0.074767,-0.0,-0.0,2.0,0.282024,0.288712,0.282024,0.2751,,,,,,
454338,0.064836,-0.015658,-0.058632,0.004257,0.0,0.0,0.076597,-0.0,-0.0,2.0,0.282024,0.287401,0.282024,0.276496,,,,,,
454358,0.067045,-0.015824,-0.058972,0.003194,-0.001062,-7.1e-05,0.07829,-0.0,-0.0,2.0,0.282024,0.287723,0.282024,0.276155,,,,,,
454378,0.068877,-0.015751,-0.059436,0.003177,-0.001135,0.000989,0.079159,-0.0,-0.0,2.0,0.282024,0.286542,0.282024,0.2774,,,,,,
454398,0.070348,-0.01569,-0.059915,0.00213,-0.001062,-7.5e-05,0.080585,-0.0,-0.0,2.0,0.282024,0.284749,0.282024,0.279261,,,,,,
454418,0.071567,-0.015513,-0.06039,0.002113,-0.001138,0.000986,0.082304,-0.0,-0.0,2.0,0.282024,0.284462,0.282024,0.279555,,,,,,
454438,0.072794,-0.015458,-0.060872,0.002112,-7.7e-05,0.001062,0.083432,-0.0,-0.0,2.0,0.282024,0.284523,0.282024,0.279493,,,,,,
454458,0.073777,-0.015531,-0.061341,0.001064,0.0,0.0,0.08438,-0.0,-0.0,2.0,0.282024,0.284516,0.282024,0.2795,,,,,,
454478,0.074767,-0.015727,-0.061817,0.001048,-7.9e-05,0.001061,0.084929,-0.0,-0.0,2.0,0.282024,0.282985,0.282024,0.281059,,,,,,
454498,0.07575,-0.015799,-0.062286,0.001047,-8.1e-05,0.001061,0.085772,-0.0,-0.0,2.0,0.282024,0.283073,0.282024,0.280969,,,,,,
454518,0.076611,-0.01587,-0.062878,0.001047,-8.1e-05,0.001061,0.08638,-0.0,-0.0,2.0,0.282024,0.283234,0.282024,0.280807,,,,,,
454538,0.077477,-0.015941,-0.063482,0.002113,-0.001143,0.000979,0.086824,-0.0,-0.0,2.0,0.282024,0.283503,0.282024,0.280534,,,,,,
454558,0.078334,-0.015894,-0.063957,0.002113,-0.001144,0.000978,0.087117,-0.0,-0.0,2.0,0.282024,0.283857,0.282024,0.280174,,,,,,
454578,0.079314,-0.015716,-0.064568,0.001048,-8.4e-05,0.001061,0.087224,-0.0,-0.0,2.0,0.282024,0.286205,0.282024,0.277753,,,,,,
454598,0.080415,-0.015655,-0.06516,0.002112,-8.5e-05,0.001061,0.087264,-0.0,-0.0,2.0,0.282024,0.286868,0.282024,0.277058,,,,,,
454618,0.081647,-0.015712,-0.065758,0.002113,-0.001147,0.000974,0.087177,-0.0,-0.0,2.0,0.282024,0.287684,0.282024,0.276196,,,,,,
454638,0.082874,-0.015767,-0.066344,0.002128,0.0,0.0,0.086789,-0.0,-0.0,2.0,0.282024,0.288683,0.282024,0.275131,,,,,,
454658,0.084107,-0.015817,-0.067063,0.002112,-8.9e-05,0.001061,0.086498,-0.0,-0.0,2.0,0.282024,0.28962,0.282024,0.274122,,,,,,
454678,0.085461,-0.015872,-0.067536,0.002113,-0.001151,0.00097,0.08589,-0.0,-0.0,2.0,0.282024,0.290821,0.282024,0.272813,,,,,,
454698,0.086805,-0.015798,-0.068124,0.002113,-0.001152,0.000968,0.085105,-0.0,-0.0,2.0,0.282024,0.292141,0.282024,0.271356,,,,,,
454718,0.088033,-0.015735,-0.068604,0.002113,-0.001154,0.000967,0.084212,-0.0,-0.0,2.0,0.282024,0.293398,0.282024,0.269949,,,,,,
454738,0.089251,-0.015542,-0.069199,0.002113,-0.001155,0.000965,0.083713,-0.0,-0.0,2.0,0.282024,0.294457,0.282024,0.268748,,,,,,
454758,0.090352,-0.015359,-0.069686,0.002114,-0.001156,0.000964,0.082754,-0.0,-0.0,2.0,0.282024,0.295686,0.282024,0.267336,,,,,,
454778,0.091086,-0.015311,-0.070161,0.001064,0.0,0.0,0.080837,-0.0,-0.0,2.0,0.282024,0.295535,0.282024,0.267511,,,,,,
454798,0.091948,-0.015258,-0.070647,0.001048,-9.8e-05,0.00106,0.080103,-0.0,-0.0,2.0,0.282024,0.296508,0.282024,0.266382,,,,,,
454818,0.092564,-0.015341,-0.070997,0.0,0.0,0.0,0.0787,-0.0,-0.0,2.0,0.282024,0.297677,0.282024,0.265008,,,,,,
454838,0.092814,-0.015436,-0.071352,0.0,0.0,0.0,0.076507,-0.0,-0.0,2.0,0.282024,0.297453,0.282024,0.265272,,,,,,
454858,0.093066,-0.015411,-0.071726,-0.001063,-0.00106,-9.9e-05,0.074467,-0.0,-0.0,2.0,0.282024,0.297114,0.282024,0.265672,,,,,,
454878,0.093072,-0.015521,-0.071964,-0.001064,0.0,0.0,0.073475,-0.0,-0.0,2.0,0.282024,0.297704,0.282024,0.264977,,,,,,
454898,0.092707,-0.015529,-0.072091,-0.001063,-0.00106,-9.9e-05,0.071405,-0.0,-0.0,2.0,0.282024,0.298708,0.282024,0.263783,,,,,,
454918,0.092453,-0.015416,-0.072087,-0.001046,-0.000961,-0.001158,0.069895,-0.0,-0.0,2.0,0.282024,0.297789,0.282024,0.264876,,,,,,
454938,0.092083,-0.015308,-0.072099,-0.001047,-0.000962,-0.001158,0.06757,-0.0,-0.0,2.0,0.282024,0.300614,0.282024,0.261477,,,,,,
454958,0.091713,-0.015199,-0.07211,-0.001063,-0.00106,-9.7e-05,0.06467,-0.0,-0.0,2.0,0.282024,0.302057,0.282024,0.259698,,,,,,
454978,0.091469,-0.015214,-0.071992,-0.001047,-0.000963,-0.001157,0.062713,-0.0,-0.0,2.0,0.282024,0.30307,0.282024,0.25843,,,,,,
454998,0.091221,-0.015101,-0.072002,-0.001048,9.7e-05,-0.00106,0.059371,-0.0,-0.0,2.0,0.282024,0.304843,0.282024,0.256174,,,,,,
455018,0.090977,-0.01511,-0.072006,-0.001048,9.7e-05,-0.00106,0.056373,-0.0,-0.0,2.0,0.282024,0.306408,0.282024,0.254143,,,,,,
455038,0.090611,-0.015124,-0.072011,-0.001048,9.6e-05,-0.00106,0.054896,-0.0,-0.0,2.0,0.282024,0.307012,0.282024,0.253347,,,,,,
455058,0.090251,-0.015254,-0.072133,-0.002127,-0.00106,-9.6e-05,0.051978,-0.0,-0.0,2.0,0.282024,0.306839,0.282024,0.253576,,,,,,
455078,0.089758,-0.015271,-0.072128,-0.002127,-0.00106,-9.5e-05,0.048983,-0.0,-0.0,2.0,0.282024,0.308274,0.282024,0.251668,,,,,,
455098,0.0889,-0.015181,-0.072147,-0.002111,-0.000966,-0.001155,0.045451,-0.0,-0.0,2.0,0.282024,0.309774,0.282024,0.249636,,,,,,
455118,0.087922,-0.01509,-0.072289,-0.003175,-0.000967,-0.001154,0.04316,-0.0,-0.0,2.0,0.282024,0.308882,0.282024,0.25085,,,,,,
455138,0.086572,-0.015012,-0.072423,-0.003193,0.0,0.0,0.039459,-0.0,-0.0,2.0,0.282024,0.310196,0.282024,0.249058,,,,,,
455158,0.084988,-0.015071,-0.072447,-0.004257,0.0,0.0,0.036475,-0.0,-0.0,2.0,0.282024,0.309401,0.282024,0.250145,,,,,,
455178,0.083146,-0.01489,-0.072593,-0.00532,-0.001061,-8.8e-05,0.034334,-0.0,-0.0,2.0,0.282024,0.307961,0.282024,0.252087,,,,,,
455198,0.080581,-0.014985,-0.072618,-0.006368,-0.000975,-0.001147,0.02987,-0.0,-0.0,2.0,0.282024,0.309002,0.282024,0.250687,,,,,,
455218,0.077765,-0.01484,-0.072777,-0.007448,-0.001061,-8.3e-05,0.026359,-0.0,-0.0,2.0,0.282024,0.306163,0.282024,0.254464,,,,,,
455238,0.074715,-0.014823,-0.073069,-0.008513,-0.001061,-7.9e-05,0.02266,-0.0,-0.0,2.0,0.282024,0.304903,0.282024,0.256097,,,,,,
455258,0.07104,-0.01471,-0.073224,-0.009577,-0.001062,-7.6e-05,0.020157,-0.0,-0.0,2.0,0.282024,0.304233,0.282024,0.256956,,,,,,
455278,0.066878,-0.014495,-0.073401,-0.009577,-0.001062,-7.1e-05,0.016728,-0.0,-0.0,2.0,0.282024,0.302163,0.282024,0.259565,,,,,,
455298,0.062478,-0.014408,-0.073696,-0.010641,-0.001062,-6.6e-05,0.013178,-0.0,-0.0,2.0,0.282024,0.300004,0.282024,0.26222,,,,,,
455318,0.057707,-0.014213,-0.073997,-0.011706,-0.001062,-6.1e-05,0.009919,-0.0,-0.0,2.0,0.282024,0.297433,0.282024,0.265297,,,,,,
455338,0.052692,-0.014028,-0.074297,-0.011706,-0.001063,-5.6e-05,0.005574,-0.0,-0.0,2.0,0.282024,0.297036,0.282024,0.265763,,,,,,
455358,0.047311,-0.013858,-0.074598,-0.012771,0.0,0.0,0.003041,-0.0,-0.0,2.0,0.282024,0.293626,0.282024,0.269691,,,,,,
455378,0.04193,-0.013687,-0.075016,-0.01277,-0.001063,-4.5e-05,-0.001094,-0.0,-0.0,2.0,0.282024,0.292875,0.282024,0.270536,,,,,,
455398,0.036188,-0.013655,-0.07531,-0.01277,-0.001064,-3.9e-05,-0.004797,-0.0,-0.0,2.0,0.282024,0.29164,0.282024,0.271912,,,,,,
455418,0.030317,-0.013386,-0.075619,-0.01277,-0.001064,-3.2e-05,-0.00663,-0.0,-0.0,2.0,0.282024,0.287401,0.282024,0.276495,,,,,,
455438,0.024444,-0.013116,-0.07603,-0.013835,-0.001064,-2.6e-05,-0.009374,-0.0,-0.0,2.0,0.282024,0.285451,0.282024,0.278536,,,,,,
455458,0.01845,-0.012855,-0.07633,-0.013835,-0.001064,-2e-05,-0.015415,-0.0,-0.0,2.0,0.282024,0.28548,0.282024,0.278506,,,,,,
455478,0.012455,-0.012593,-0.076609,-0.013835,-0.001064,-1.3e-05,-0.017931,-0.0,-0.0,2.0,0.282024,0.283289,0.282024,0.280751,,,,,,
455498,0.006455,-0.012213,-0.076776,-0.013835,-0.001064,-7e-06,-0.020797,-0.0,-0.0,2.0,0.282024,0.281294,0.282024,0.282751,,,,,,
455518,0.000455,-0.011833,-0.076936,-0.012758,-0.001064,-0.001065,-0.025672,-0.0,-0.0,2.0,0.282024,0.280573,0.282024,0.283464,,,,,,
455538,-0.005423,-0.011448,-0.077089,-0.012771,-0.001064,6e-06,-0.02747,-0.0,-0.0,2.0,0.282024,0.277935,0.282024,0.286029,,,,,,
455558,-0.011174,-0.011181,-0.077114,-0.012759,-0.001076,-0.001052,-0.031406,-0.0,-0.0,2.0,0.282024,0.278617,0.282024,0.285373,,,,,,
455578,-0.016804,-0.010909,-0.077134,-0.012759,-0.001082,-0.001046,-0.034805,-0.0,-0.0,2.0,0.282024,0.277185,0.282024,0.286746,,,,,,
455598,-0.022314,-0.010631,-0.077041,-0.011695,-0.001088,-0.00104,-0.036478,-0.0,-0.0,2.0,0.282024,0.274661,0.282024,0.289121,,,,,,
455618,-0.027691,-0.010592,-0.076931,-0.011696,-0.001093,-0.001034,-0.041735,-0.0,-0.0,2.0,0.282024,0.276469,0.282024,0.287426,,,,,,
455638,-0.032703,-0.010538,-0.076832,-0.011707,-0.001064,3.5e-05,-0.041735,-0.0,-0.0,2.0,0.282024,0.273152,0.282024,0.290512,,,,,,
455658,-0.037717,-0.010481,-0.076607,-0.010631,-4e-05,-0.001064,-0.045583,-0.0,-0.0,2.0,0.282024,0.274285,0.282024,0.28947,,,,,,
455678,-0.042485,-0.01041,-0.076244,-0.01062,-9e-05,-0.002127,-0.049868,-0.0,-0.0,2.0,0.282024,0.273984,0.282024,0.289748,,,,,,
455698,-0.047006,-0.010454,-0.076016,-0.009567,-5e-05,-0.001063,-0.053401,-0.0,-0.0,2.0,0.282024,0.275208,0.282024,0.288611,,,,,,
455718,-0.051406,-0.010486,-0.075543,-0.009567,-5.5e-05,-0.001063,-0.054836,-0.0,-0.0,2.0,0.282024,0.273239,0.282024,0.290433,,,,,,
455738,-0.055563,-0.010506,-0.075068,-0.009567,-0.001122,-0.001004,-0.057672,-0.0,-0.0,2.0,0.282024,0.272375,0.282024,0.29122,,,,,,
455758,-0.059596,-0.010516,-0.074455,-0.00848,-0.00019,-0.003187,-0.060385,-0.0,-0.0,2.0,0.282024,0.271489,0.282024,0.292022,,,,,,
455778,-0.063382,-0.010644,-0.074102,-0.008502,-6.7e-05,-0.001062,-0.063345,-0.0,-0.0,2.0,0.282024,0.272838,0.282024,0.290799,,,,,,
455798,-0.067296,-0.010646,-0.073501,-0.008502,-7.2e-05,-0.001062,-0.065254,-0.0,-0.0,2.0,0.282024,0.27149,0.282024,0.29202,,,,,,
455818,-0.070966,-0.010636,-0.072898,-0.008491,-0.000151,-0.002123,-0.067773,-0.0,-0.0,2.0,0.282024,0.270756,0.282024,0.292679,,,,,,
455838,-0.074391,-0.010619,-0.072416,-0.008491,-0.000158,-0.002123,-0.0696,-0.0,-0.0,2.0,0.282024,0.271569,0.282024,0.291949,,,,,,
455858,-0.077817,-0.010601,-0.071933,-0.007427,-0.000165,-0.002122,-0.072144,-0.0,-0.0,2.0,0.282024,0.270973,0.282024,0.292485,,,,,,
455878,-0.080873,-0.010563,-0.071315,-0.007439,-0.001147,-0.000975,-0.073346,-0.0,-0.0,2.0,0.282024,0.269737,0.282024,0.293585,,,,,,
455898,-0.083934,-0.010524,-0.070708,-0.007427,-0.000178,-0.002121,-0.075489,-0.0,-0.0,2.0,0.282024,0.269114,0.282024,0.294135,,,,,,
455918,-0.086871,-0.010489,-0.070345,-0.006374,-9.2e-05,-0.00106,-0.077362,-0.0,-0.0,2.0,0.282024,0.270318,0.282024,0.29307,,,,,,
455938,-0.089805,-0.010569,-0.069864,-0.006363,-0.000191,-0.00212,-0.079003,-0.0,-0.0,2.0,0.282024,0.269438,0.282024,0.29385,,,,,,
455958,-0.092377,-0.010513,-0.069378,-0.006375,-0.001158,-0.000962,-0.080619,-0.0,-0.0,2.0,0.282024,0.268808,0.282024,0.294405,,,,,,
455978,-0.094945,-0.010578,-0.068897,-0.006363,-0.000202,-0.002119,-0.081592,-0.0,-0.0,2.0,0.282024,0.267694,0.282024,0.295377,,,,,,
455998,-0.097391,-0.010644,-0.068537,-0.006374,-0.000103,-0.001059,-0.083047,-0.0,-0.0,2.0,0.282024,0.268978,0.282024,0.294255,,,,,,
456018,-0.099592,-0.010572,-0.068038,-0.00531,-0.000106,-0.001059,-0.08398,-0.0,-0.0,2.0,0.282024,0.268109,0.282024,0.295016,,,,,,
456038,-0.101921,-0.010503,-0.067551,-0.005311,-0.001167,-0.00095,-0.084752,-0.0,-0.0,2.0,0.282024,0.26706,0.282024,0.295924,,,,,,
456058,-0.104001,-0.010554,-0.067191,-0.005299,-0.000221,-0.002117,-0.085671,-0.0,-0.0,2.0,0.282024,0.266236,0.282024,0.296633,,,,,,
456078,-0.105963,-0.010478,-0.066825,-0.00531,-0.000113,-0.001058,-0.086001,-0.0,-0.0,2.0,0.282024,0.267086,0.282024,0.295902,,,,,,
456098,-0.108048,-0.010398,-0.066337,-0.004247,-0.001173,-0.000943,-0.086553,-0.0,-0.0,2.0,0.282024,0.266025,0.282024,0.296813,,,,,,
456118,-0.109879,-0.010431,-0.065844,-0.004247,-0.001175,-0.000941,-0.086947,-0.0,-0.0,2.0,0.282024,0.265048,0.282024,0.297643,,,,,,
456138,-0.111598,-0.010345,-0.065478,-0.004235,-0.000237,-0.002115,-0.087086,-0.0,-0.0,2.0,0.282024,0.263922,0.282024,0.298591,,,,,,
456158,-0.11319,-0.010383,-0.06524,-0.004246,-0.00012,-0.001057,-0.087263,-0.0,-0.0,2.0,0.282024,0.264938,0.282024,0.297737,,,,,,
456178,-0.114652,-0.010516,-0.064633,-0.003182,-0.000122,-0.001057,-0.087228,-0.0,-0.0,2.0,0.282024,0.263887,0.282024,0.298621,,,,,,
456198,-0.115876,-0.010656,-0.064283,-0.003171,-0.001303,-0.001991,-0.08706,-0.0,-0.0,2.0,0.282024,0.26293,0.282024,0.299417,,,,,,
456218,-0.117096,-0.010673,-0.063913,-0.00317,-0.000249,-0.002114,-0.086617,-0.0,-0.0,2.0,0.282024,0.26173,0.282024,0.300406,,,,,,
456238,-0.11807,-0.010797,-0.06343,-0.002117,-0.000125,-0.001057,-0.086091,-0.0,-0.0,2.0,0.282024,0.262698,0.282024,0.29961,,,,,,
456258,-0.118938,-0.010673,-0.062945,-0.002117,-0.000126,-0.001057,-0.085395,-0.0,-0.0,2.0,0.282024,0.261608,0.282024,0.300506,,,,,,
456278,-0.119668,-0.010789,-0.062463,-0.001043,-0.001311,-0.001986,-0.084987,-0.0,-0.0,2.0,0.282024,0.2608,0.282024,0.301166,,,,,,
456298,-0.120036,-0.010778,-0.062097,-0.001041,-0.000255,-0.002113,-0.083924,-0.0,-0.0,2.0,0.282024,0.259752,0.282024,0.302013,,,,,,
456318,-0.120279,-0.010878,-0.061617,-0.001053,-0.000128,-0.001057,-0.083068,-0.0,-0.0,2.0,0.282024,0.261017,0.282024,0.300989,,,,,,
456338,-0.120527,-0.010848,-0.061008,-0.001053,-0.000128,-0.001057,-0.081913,-0.0,-0.0,2.0,0.282024,0.262077,0.282024,0.300122,,,,,,
456358,-0.120523,-0.011063,-0.060536,2.2e-05,-0.001312,-0.001985,-0.080729,-0.0,-0.0,2.0,0.282024,0.261241,0.282024,0.300807,,,,,,
456378,-0.120527,-0.011033,-0.06005,2.2e-05,-0.001312,-0.001985,-0.078902,-0.0,-0.0,2.0,0.282024,0.259909,0.282024,0.301887,,,,,,
456398,-0.120286,-0.011004,-0.059686,-0.001053,-0.000128,-0.001057,-0.077832,-0.0,-0.0,2.0,0.282024,0.259312,0.282024,0.302366,,,,,,
456418,-0.12004,-0.01096,-0.059068,1.2e-05,-0.000127,-0.001057,-0.076089,-0.0,-0.0,2.0,0.282024,0.258252,0.282024,0.303211,,,,,,
456438,-0.120047,-0.010809,-0.058575,2.3e-05,-0.000255,-0.002113,-0.074136,-0.0,-0.0,2.0,0.282024,0.256821,0.282024,0.304338,,,,,,
456458,-0.119929,-0.010776,-0.058089,2.1e-05,-0.001311,-0.001986,-0.072125,-0.0,-0.0,2.0,0.282024,0.255435,0.282024,0.305416,,,,,,
456478,-0.119924,-0.010998,-0.057738,-0.001054,-0.001184,-0.000929,-0.072125,-0.0,-0.0,2.0,0.282024,0.253266,0.282024,0.307074,,,,,,
456498,-0.119924,-0.011091,-0.057259,-0.001053,-0.000127,-0.001057,-0.069405,-0.0,-0.0,2.0,0.282024,0.25342,0.282024,0.306957,,,,,,
456518,-0.119936,-0.010811,-0.056636,2.3e-05,-0.000255,-0.002113,-0.065278,-0.0,-0.0,2.0,0.282024,0.250301,0.282024,0.309287,,,,,,
456538,-0.119935,-0.01091,-0.056279,2.2e-05,-0.001311,-0.001986,-0.063875,-0.0,-0.0,2.0,0.282024,0.249207,0.282024,0.310087,,,,,,
456558,-0.119683,-0.011003,-0.055912,1e-05,-0.001184,-0.00093,-0.060446,-0.0,-0.0,2.0,0.282024,0.24676,0.282024,0.31185,,,,,,
456578,-0.119442,-0.010974,-0.055548,1.2e-05,-0.000127,-0.001057,-0.057744,-0.0,-0.0,2.0,0.282024,0.244835,0.282024,0.313208,,,,,,
456598,-0.119081,-0.010928,-0.05494,1e-05,-0.001183,-0.00093,-0.056375,-0.0,-0.0,2.0,0.282024,0.246313,0.282024,0.312168,,,,,,
456618,-0.118847,-0.010657,-0.054562,0.001087,-0.000252,-0.002114,-0.053453,-0.0,-0.0,2.0,0.282024,0.244202,0.282024,0.313649,,,,,,
456638,-0.118477,-0.010624,-0.054188,0.001085,-0.001308,-0.001988,-0.049908,-0.0,-0.0,2.0,0.282024,0.239333,0.282024,0.316957,,,,,,
456658,-0.117867,-0.010709,-0.053832,0.001074,-0.001182,-0.000932,-0.049908,-0.0,-0.0,2.0,0.282024,0.242139,0.282024,0.315069,,,,,,
456678,-0.117136,-0.010783,-0.053354,0.001076,-0.000124,-0.001057,-0.043568,-0.0,-0.0,2.0,0.282024,0.235233,0.282024,0.319628,,,,,,
456698,-0.116401,-0.010735,-0.052859,0.001087,-0.000247,-0.002114,-0.041527,-0.0,-0.0,2.0,0.282024,0.236532,0.282024,0.318793,,,,,,
456718,-0.115303,-0.010814,-0.052626,0.002153,0.000812,-0.002237,-0.038135,-0.0,-0.0,2.0,0.282024,0.236981,0.282024,0.318502,,,,,,
456738,-0.113955,-0.010887,-0.052383,0.003206,0.000936,-0.001178,-0.035813,-0.0,-0.0,2.0,0.282024,0.238538,0.282024,0.317483,,,,,,
456758,-0.11236,-0.011069,-0.052025,0.00427,0.000938,-0.001177,-0.031862,-0.0,-0.0,2.0,0.282024,0.236594,0.282024,0.318753,,,,,,
456778,-0.1104,-0.011243,-0.051667,0.004269,-0.000117,-0.001058,-0.028297,-0.0,-0.0,2.0,0.282024,0.237638,0.282024,0.318074,,,,,,
456798,-0.10783,-0.011408,-0.051431,0.005332,-0.001173,-0.000944,-0.024798,-0.0,-0.0,2.0,0.282024,0.236875,0.282024,0.318571,,,,,,
456818,-0.105136,-0.011687,-0.051079,0.005333,-0.000112,-0.001058,-0.022138,-0.0,-0.0,2.0,0.282024,0.239257,0.282024,0.317008,,,,,,
456838,-0.102076,-0.011713,-0.050704,0.006398,-0.000108,-0.001059,-0.018079,-0.0,-0.0,2.0,0.282024,0.240797,0.282024,0.315979,,,,,,
456858,-0.098413,-0.011726,-0.050337,0.007474,-0.000209,-0.002118,-0.015105,-0.0,-0.0,2.0,0.282024,0.24364,0.282024,0.314039,,,,,,
456878,-0.094622,-0.011737,-0.04996,0.00959,-0.000101,-0.00106,-0.012803,-0.0,-0.0,2.0,0.282024,0.247025,0.282024,0.311661,,,,,,
456898,-0.090337,-0.011986,-0.049714,0.009591,-9.6e-05,-0.00106,-0.009113,-0.0,-0.0,2.0,0.282024,0.249686,0.282024,0.309738,,,,,,
456918,-0.085447,-0.012223,-0.049475,0.010654,-0.001151,-0.00097,-0.004193,-0.0,-0.0,2.0,0.282024,0.249666,0.282024,0.309753,,,,,,
456938,-0.080428,-0.012579,-0.049228,0.011705,-0.001061,8.6e-05,-0.001817,-0.0,-0.0,2.0,0.282024,0.253818,0.282024,0.306655,,,,,,
456958,-0.074927,-0.012676,-0.048846,0.01172,-8e-05,-0.001061,0.001871,-0.0,-0.0,2.0,0.282024,0.255165,0.282024,0.305624,,,,,,
456978,-0.069054,-0.013019,-0.048712,0.01172,-7.3e-05,-0.001062,0.005543,-0.0,-0.0,2.0,0.282024,0.260925,0.282024,0.301064,,,,,,
456998,-0.063188,-0.013237,-0.048457,0.012771,0.0,0.0,0.008069,-0.0,-0.0,2.0,0.282024,0.263295,0.282024,0.299114,,,,,,
457018,-0.057074,-0.013453,-0.04831,0.013848,-0.001123,-0.001002,0.013438,-0.0,-0.0,2.0,0.282024,0.26582,0.282024,0.296988,,,,,,
457038,-0.050597,-0.013662,-0.048166,0.013849,-0.001117,-0.001009,0.015747,-0.0,-0.0,2.0,0.282024,0.268692,0.282024,0.294506,,,,,,
457058,-0.043878,-0.013747,-0.048136,0.013834,-0.001063,4.7e-05,0.018864,-0.0,-0.0,2.0,0.282024,0.271114,0.282024,0.292359,,,,,,
457078,-0.037158,-0.013826,-0.04785,0.013835,0.0,0.0,0.023791,-0.0,-0.0,2.0,0.282024,0.27423,0.282024,0.28952,,,,,,
457098,-0.030197,-0.013903,-0.047689,0.01385,-3.2e-05,-0.001064,0.025928,-0.0,-0.0,2.0,0.282024,0.277432,0.282024,0.286511,,,,,,
457118,-0.023231,-0.014107,-0.047779,0.014899,0.0,0.0,0.029458,-0.0,-0.0,2.0,0.282024,0.279662,0.282024,0.284359,,,,,,
457138,-0.016386,-0.014431,-0.047612,0.014915,-1.7e-05,-0.001064,0.032883,-0.0,-0.0,2.0,0.282024,0.281831,0.282024,0.282217,,,,,,
457158,-0.009173,-0.01475,-0.047691,0.013835,0.0,0.0,0.036262,-0.0,-0.0,2.0,0.282024,0.282448,0.282024,0.2816,,,,,,
457178,-0.00233,-0.014953,-0.047644,0.013835,0.0,0.0,0.03819,-0.0,-0.0,2.0,0.282024,0.287335,0.282024,0.276565,,,,,,
457198,0.004268,-0.015163,-0.047472,0.013835,0.0,0.0,0.041552,-0.0,-0.0,2.0,0.282024,0.287592,0.282024,0.276294,,,,,,
457218,0.010864,-0.015249,-0.04754,0.013851,1.2e-05,-0.001064,0.044594,-0.0,-0.0,2.0,0.282024,0.287992,0.282024,0.275869,,,,,,
457238,0.01722,-0.015462,-0.047605,0.012771,0.0,0.0,0.048919,-0.0,-0.0,2.0,0.282024,0.289244,0.282024,0.274528,,,,,,
457258,0.023083,-0.015568,-0.047437,0.011706,0.0,0.0,0.050607,-0.0,-0.0,2.0,0.282024,0.291795,0.282024,0.27174,,,,,,
457278,0.028698,-0.015557,-0.047262,0.011723,3.1e-05,-0.001064,0.053563,-0.0,-0.0,2.0,0.282024,0.289949,0.282024,0.273765,,,,,,
457298,0.033959,-0.01592,-0.047212,0.010659,3.6e-05,-0.001064,0.056698,-0.0,-0.0,2.0,0.282024,0.29122,0.282024,0.272376,,,,,,
457318,0.038849,-0.016172,-0.047043,0.009595,4.1e-05,-0.001064,0.059443,-0.0,-0.0,2.0,0.282024,0.290781,0.282024,0.272857,,,,,,
457338,0.043368,-0.01631,-0.046868,0.008514,0.0,0.0,0.062079,-0.0,-0.0,2.0,0.282024,0.290209,0.282024,0.273482,,,,,,
457358,0.047523,-0.016462,-0.046583,0.007467,5.1e-05,-0.001063,0.063808,-0.0,-0.0,2.0,0.282024,0.29169,0.282024,0.271857,,,,,,
457378,0.051433,-0.016491,-0.046545,0.007467,5.5e-05,-0.001063,0.065152,-0.0,-0.0,2.0,0.282024,0.291507,0.282024,0.272059,,,,,,
457398,0.054976,-0.016533,-0.046388,0.006404,-0.001004,-0.001121,0.068069,-0.0,-0.0,2.0,0.282024,0.290112,0.282024,0.273588,,,,,,
457418,0.058275,-0.01658,-0.046233,0.00534,-0.001,-0.001125,0.071205,-0.0,-0.0,2.0,0.282024,0.29024,0.282024,0.273448,,,,,,
457438,0.061202,-0.016514,-0.046077,0.00534,-0.000997,-0.001127,0.072682,-0.0,-0.0,2.0,0.282024,0.291127,0.282024,0.272478,,,,,,
457458,0.063765,-0.016462,-0.045811,0.004276,-0.000994,-0.00113,0.074983,-0.0,-0.0,2.0,0.282024,0.289536,0.282024,0.274213,,,,,,
457478,0.066207,-0.016526,-0.045778,0.004274,7e-05,-0.001062,0.076847,-0.0,-0.0,2.0,0.282024,0.288126,0.282024,0.275727,,,,,,
457498,0.068409,-0.016601,-0.045634,0.004275,7.3e-05,-0.001062,0.077697,-0.0,-0.0,2.0,0.282024,0.28893,0.282024,0.274866,,,,,,
457518,0.070488,-0.016679,-0.045491,0.003193,0.0,0.0,0.079349,-0.0,-0.0,2.0,0.282024,0.287453,0.282024,0.276441,,,,,,
457538,0.072317,-0.01664,-0.045346,0.00321,7.7e-05,-0.001062,0.080748,-0.0,-0.0,2.0,0.282024,0.287719,0.282024,0.276159,,,,,,
457558,0.073912,-0.016847,-0.045326,0.003212,-0.000983,-0.00114,0.081753,-0.0,-0.0,2.0,0.282024,0.288055,0.282024,0.275802,,,,,,
457578,0.075376,-0.016812,-0.045307,0.003193,0.0,0.0,0.082505,-0.0,-0.0,2.0,0.282024,0.286749,0.282024,0.277183,,,,,,
457598,0.076965,-0.016781,-0.045173,0.002128,0.0,0.0,0.084219,-0.0,-0.0,2.0,0.282024,0.286673,0.282024,0.277262,,,,,,
457618,0.078308,-0.016876,-0.04503,0.002148,-0.000978,-0.001144,0.084849,-0.0,-0.0,2.0,0.282024,0.287117,0.282024,0.276795,,,,,,
457638,0.079527,-0.016852,-0.044892,0.002148,-0.000976,-0.001146,0.085765,-0.0,-0.0,2.0,0.282024,0.287302,0.282024,0.2766,,,,,,
457658,0.080873,-0.016821,-0.044883,0.002146,8.6e-05,-0.001061,0.086369,-0.0,-0.0,2.0,0.282024,0.287735,0.282024,0.276141,,,,,,
457678,0.081969,-0.0168,-0.044747,0.002148,-0.000974,-0.001148,0.086816,-0.0,-0.0,2.0,0.282024,0.288167,0.282024,0.275683,,,,,,
457698,0.083318,-0.016897,-0.044611,0.002128,0.0,0.0,0.087136,-0.0,-0.0,2.0,0.282024,0.288799,0.282024,0.275007,,,,,,
457718,0.084415,-0.016871,-0.044596,0.002146,9e-05,-0.001061,0.087136,-0.0,-0.0,2.0,0.282024,0.289444,0.282024,0.274312,,,,,,
457738,0.085639,-0.017092,-0.044448,0.00213,-0.00106,-9.1e-05,0.087249,-0.0,-0.0,2.0,0.282024,0.290125,0.282024,0.273573,,,,,,
457758,0.086743,-0.017194,-0.044314,0.002128,0.0,0.0,0.087108,-0.0,-0.0,2.0,0.282024,0.290916,0.282024,0.27271,,,,,,
457778,0.08784,-0.017174,-0.044178,0.002147,9.3e-05,-0.00106,0.08697,-0.0,-0.0,2.0,0.282024,0.291667,0.282024,0.271882,,,,,,
457798,0.088815,-0.017151,-0.044164,0.002148,-0.000966,-0.001155,0.086391,-0.0,-0.0,2.0,0.282024,0.292582,0.282024,0.270864,,,,,,
457818,0.089798,-0.017251,-0.044154,0.001066,-0.00106,-9.5e-05,0.085791,-0.0,-0.0,2.0,0.282024,0.291803,0.282024,0.271731,,,,,,
457838,0.090648,-0.017115,-0.044026,0.001064,0.0,0.0,0.085041,-0.0,-0.0,2.0,0.282024,0.292804,0.282024,0.270616,,,,,,
457858,0.091382,-0.01722,-0.04401,0.001084,-0.000963,-0.001157,0.084608,-0.0,-0.0,2.0,0.282024,0.293508,0.282024,0.269824,,,,,,
457878,0.091997,-0.017206,-0.04401,2e-05,-0.000962,-0.001158,0.084141,-0.0,-0.0,2.0,0.282024,0.29413,0.282024,0.269121,,,,,,
457898,0.092363,-0.017198,-0.044005,0.0,0.0,0.0,0.082134,-0.0,-0.0,2.0,0.282024,0.293831,0.282024,0.269459,,,,,,
457918,0.092728,-0.017195,-0.043878,2e-06,-0.00106,-9.9e-05,0.081327,-0.0,-0.0,2.0,0.282024,0.294567,0.282024,0.268623,,,,,,
457938,0.092974,-0.017317,-0.043747,1.8e-05,9.9e-05,-0.00106,0.080584,-0.0,-0.0,2.0,0.282024,0.295155,0.282024,0.267948,,,,,,
457958,0.092972,-0.017189,-0.043875,-0.001064,0.0,0.0,0.078963,-0.0,-0.0,2.0,0.282024,0.294383,0.282024,0.268832,,,,,,
457978,0.092853,-0.017314,-0.043871,-0.001063,-0.00106,-9.9e-05,0.076597,-0.0,-0.0,2.0,0.282024,0.295726,0.282024,0.267291,,,,,,
457998,0.092609,-0.01732,-0.043874,-0.001044,-0.000961,-0.001158,0.074557,-0.0,-0.0,2.0,0.282024,0.296819,0.282024,0.266018,,,,,,
458018,0.092241,-0.017201,-0.044007,-0.001063,-0.00106,-9.8e-05,0.073581,-0.0,-0.0,2.0,0.282024,0.297153,0.282024,0.265626,,,,,,
458038,0.091997,-0.017206,-0.04401,-0.001063,-0.00106,-9.8e-05,0.071413,-0.0,-0.0,2.0,0.282024,0.298289,0.282024,0.264282,,,,,,
458058,0.091877,-0.017204,-0.044134,-0.001063,-0.00106,-9.8e-05,0.070037,-0.0,-0.0,2.0,0.282024,0.299023,0.282024,0.263404,,,,,,
458078,0.091757,-0.017328,-0.04413,-0.001063,-0.00106,-9.8e-05,0.068325,-0.0,-0.0,2.0,0.282024,0.299958,0.282024,0.262276,,,,,,
458098,0.091387,-0.01733,-0.044248,-0.001046,9.7e-05,-0.00106,0.064079,-0.0,-0.0,2.0,0.282024,0.302236,0.282024,0.259474,,,,,,
458118,0.091264,-0.0172,-0.044499,-0.001064,0.0,0.0,0.064079,-0.0,-0.0,2.0,0.282024,0.302139,0.282024,0.259595,,,,,,
458138,0.091268,-0.017317,-0.044616,-0.001064,0.0,0.0,0.059338,-0.0,-0.0,2.0,0.282024,0.304862,0.282024,0.25615,,,,,,
458158,0.091025,-0.017317,-0.044741,-0.001064,0.0,0.0,0.057662,-0.0,-0.0,2.0,0.282024,0.305679,0.282024,0.255094,,,,,,
458178,0.090905,-0.017308,-0.044986,-0.001063,-0.00106,-9.7e-05,0.054817,-0.0,-0.0,2.0,0.282024,0.307225,0.282024,0.253066,,,,,,
458198,0.090663,-0.017303,-0.045233,-0.001064,0.0,0.0,0.051834,-0.0,-0.0,2.0,0.282024,0.308766,0.282024,0.251006,,,,,,
458218,0.090421,-0.017298,-0.04548,-0.001064,0.0,0.0,0.048751,-0.0,-0.0,2.0,0.282024,0.310356,0.282024,0.248838,,,,,,
458238,0.089932,-0.017177,-0.045736,-0.002128,0.0,0.0,0.046964,-0.0,-0.0,2.0,0.282024,0.309479,0.282024,0.250039,,,,,,
458258,0.089205,-0.017305,-0.045984,-0.003191,-0.00106,-9.5e-05,0.042978,-0.0,-0.0,2.0,0.282024,0.311294,0.282024,0.247538,,,,,,
458278,0.08811,-0.017321,-0.046243,-0.003191,-0.00106,-9.4e-05,0.039066,-0.0,-0.0,2.0,0.282024,0.311267,0.282024,0.247576,,,,,,
458298,0.086763,-0.01722,-0.046502,-0.004255,-0.00106,-9.2e-05,0.039066,-0.0,-0.0,2.0,0.282024,0.308918,0.282024,0.250801,,,,,,
458318,0.085057,-0.017257,-0.046647,-0.005321,0.0,0.0,0.033455,-0.0,-0.0,2.0,0.282024,0.311099,0.282024,0.24781,,,,,,
458338,0.082859,-0.017299,-0.046912,-0.005321,0.0,0.0,0.029648,-0.0,-0.0,2.0,0.282024,0.310428,0.282024,0.248739,,,,,,
458358,0.080169,-0.017238,-0.047066,-0.006367,8.5e-05,-0.001061,0.026145,-0.0,-0.0,2.0,0.282024,0.309255,0.282024,0.250344,,,,,,
458378,0.077237,-0.017177,-0.047345,-0.00745,0.0,0.0,0.024372,-0.0,-0.0,2.0,0.282024,0.306991,0.282024,0.253376,,,,,,
458398,0.073817,-0.01713,-0.047629,-0.008514,0.0,0.0,0.020581,-0.0,-0.0,2.0,0.282024,0.305574,0.282024,0.25523,,,,,,
458418,0.069664,-0.017106,-0.0478,-0.010642,0.0,0.0,0.018547,-0.0,-0.0,2.0,0.282024,0.302719,0.282024,0.258871,,,,,,
458438,0.065143,-0.016965,-0.0481,-0.011705,-0.001062,-6.9e-05,0.014438,-0.0,-0.0,2.0,0.282024,0.300824,0.282024,0.26122,,,,,,
458458,0.060011,-0.016961,-0.048392,-0.011705,-0.001062,-6.4e-05,0.011043,-0.0,-0.0,2.0,0.282024,0.298128,0.282024,0.264474,,,,,,
458478,0.054517,-0.016969,-0.048696,-0.01277,-0.001063,-5.8e-05,0.007537,-0.0,-0.0,2.0,0.282024,0.295252,0.282024,0.267837,,,,,,
458498,0.048658,-0.016983,-0.049124,-0.013834,-0.001063,-5.2e-05,0.002741,-0.0,-0.0,2.0,0.282024,0.292892,0.282024,0.270517,,,,,,
458518,0.042427,-0.016765,-0.049559,-0.014898,-0.001063,-4.5e-05,-0.001188,-0.0,-0.0,2.0,0.282024,0.291498,0.282024,0.272069,,,,,,
458538,0.035952,-0.016555,-0.049992,-0.014899,0.0,0.0,-0.004885,-0.0,-0.0,2.0,0.282024,0.288037,0.282024,0.275821,,,,,,
458558,0.029236,-0.016475,-0.050421,-0.014899,-0.001064,-3.1e-05,-0.006764,-0.0,-0.0,2.0,0.282024,0.283216,0.282024,0.280825,,,,,,
458578,0.022395,-0.016279,-0.050849,-0.015963,-0.001064,-2.4e-05,-0.010621,-0.0,-0.0,2.0,0.282024,0.283141,0.282024,0.280901,,,,,,
458598,0.015312,-0.016091,-0.051406,-0.015963,-0.001064,-1.6e-05,-0.012551,-0.0,-0.0,2.0,0.282024,0.277992,0.282024,0.285975,,,,,,
458618,0.008229,-0.015905,-0.051957,-0.015963,-0.001064,-9e-06,-0.016191,-0.0,-0.0,2.0,0.282024,0.275738,0.282024,0.288115,,,,,,
458638,0.00139,-0.015717,-0.052502,-0.01598,-0.001066,0.001063,-0.019616,-0.0,-0.0,2.0,0.282024,0.275375,0.282024,0.288455,,,,,,
458658,-0.005447,-0.015653,-0.053041,-0.014899,-0.001064,6e-06,-0.024672,-0.0,-0.0,2.0,0.282024,0.274197,0.282024,0.289551,,,,,,
458678,-0.012164,-0.015468,-0.053575,-0.014899,-0.001064,1.3e-05,-0.027692,-0.0,-0.0,2.0,0.282024,0.271726,0.282024,0.291808,,,,,,
458698,-0.018512,-0.015399,-0.054235,-0.013852,-0.001044,0.001084,-0.03138,-0.0,-0.0,2.0,0.282024,0.271834,0.282024,0.29171,,,,,,
458718,-0.024739,-0.015327,-0.054636,-0.013852,-0.001038,0.00109,-0.034788,-0.0,-0.0,2.0,0.282024,0.26993,0.282024,0.293415,,,,,,
458738,-0.030725,-0.015131,-0.055162,-0.012787,-0.001031,0.001097,-0.03828,-0.0,-0.0,2.0,0.282024,0.27021,0.282024,0.293166,,,,,,
458758,-0.036342,-0.015049,-0.055685,-0.012771,-0.001064,3.9e-05,-0.039914,-0.0,-0.0,2.0,0.282024,0.267489,0.282024,0.295554,,,,,,
458778,-0.041593,-0.01496,-0.056202,-0.011723,-0.001019,0.001108,-0.041557,-0.0,-0.0,2.0,0.282024,0.266947,0.282024,0.296022,,,,,,
458798,-0.046727,-0.014745,-0.056592,-0.010659,-0.001013,0.001113,-0.047109,-0.0,-0.0,2.0,0.282024,0.2692,0.282024,0.294059,,,,,,
458818,-0.051248,-0.014637,-0.056979,-0.009579,-0.001063,5.5e-05,-0.049651,-0.0,-0.0,2.0,0.282024,0.267903,0.282024,0.295194,,,,,,
458838,-0.055528,-0.014402,-0.05736,-0.009579,-0.001063,5.9e-05,-0.051253,-0.0,-0.0,2.0,0.282024,0.267975,0.282024,0.295132,,,,,,
458858,-0.05932,-0.014154,-0.057737,-0.008515,-0.001062,6.3e-05,-0.055126,-0.0,-0.0,2.0,0.282024,0.270014,0.282024,0.29334,,,,,,
458878,-0.062865,-0.014022,-0.058114,-0.007465,-0.000995,0.001129,-0.058532,-0.0,-0.0,2.0,0.282024,0.271856,0.282024,0.29169,,,,,,
458898,-0.066164,-0.013999,-0.05825,-0.007436,-0.001132,-0.000992,-0.05992,-0.0,-0.0,2.0,0.282024,0.270567,0.282024,0.292848,,,,,,
458918,-0.069099,-0.013852,-0.058624,-0.006385,0.0,0.0,-0.062766,-0.0,-0.0,2.0,0.282024,0.272438,0.282024,0.291163,,,,,,
458938,-0.071907,-0.013815,-0.058746,-0.006385,0.0,0.0,-0.065342,-0.0,-0.0,2.0,0.282024,0.272281,0.282024,0.291306,,,,,,
458958,-0.074352,-0.013768,-0.058878,-0.005322,-0.001061,7.9e-05,-0.066718,-0.0,-0.0,2.0,0.282024,0.271589,0.282024,0.291931,,,,,,
458978,-0.07692,-0.013726,-0.059009,-0.005308,-0.001143,-0.000979,-0.068765,-0.0,-0.0,2.0,0.282024,0.271213,0.282024,0.292269,,,,,,
458998,-0.079003,-0.013552,-0.059256,-0.005322,-0.001061,8.4e-05,-0.07234,-0.0,-0.0,2.0,0.282024,0.274128,0.282024,0.289615,,,,,,
459018,-0.081204,-0.013377,-0.059369,-0.005322,-0.001061,8.6e-05,-0.073574,-0.0,-0.0,2.0,0.282024,0.273484,0.282024,0.290207,,,,,,
459038,-0.083163,-0.013312,-0.059376,-0.004258,-0.001061,8.8e-05,-0.074911,-0.0,-0.0,2.0,0.282024,0.273095,0.282024,0.290565,,,,,,
459058,-0.085247,-0.013134,-0.059499,-0.005308,-0.001151,-0.00097,-0.077015,-0.0,-0.0,2.0,0.282024,0.273085,0.282024,0.290573,,,,,,
459078,-0.087083,-0.013072,-0.059627,-0.005321,0.0,0.0,-0.078688,-0.0,-0.0,2.0,0.282024,0.274878,0.282024,0.288919,,,,,,
459098,-0.089037,-0.013012,-0.059743,-0.004258,-0.00106,9.5e-05,-0.080208,-0.0,-0.0,2.0,0.282024,0.274591,0.282024,0.289185,,,,,,
459118,-0.090996,-0.012948,-0.059748,-0.004258,-0.00106,9.7e-05,-0.081734,-0.0,-0.0,2.0,0.282024,0.272418,0.282024,0.291181,,,,,,
459138,-0.092955,-0.012884,-0.059753,-0.005309,-0.001158,-0.000961,-0.082684,-0.0,-0.0,2.0,0.282024,0.271718,0.282024,0.291815,,,,,,
459158,-0.09504,-0.012707,-0.059872,-0.005321,0.0,0.0,-0.083759,-0.0,-0.0,2.0,0.282024,0.271035,0.282024,0.292429,,,,,,
459178,-0.097237,-0.012649,-0.059865,-0.005322,-0.001059,0.000103,-0.084857,-0.0,-0.0,2.0,0.282024,0.270316,0.282024,0.293072,,,,,,
459198,-0.099446,-0.012458,-0.059618,-0.005309,-0.001165,-0.000953,-0.085305,-0.0,-0.0,2.0,0.282024,0.267153,0.282024,0.295845,,,,,,
459218,-0.10177,-0.012411,-0.059741,-0.006372,-0.000108,-0.001059,-0.085305,-0.0,-0.0,2.0,0.282024,0.267528,0.282024,0.29552,,,,,,
459238,-0.10434,-0.012358,-0.05962,-0.006372,-0.000111,-0.001059,-0.086385,-0.0,-0.0,2.0,0.282024,0.266473,0.282024,0.29643,,,,,,
459258,-0.106788,-0.012301,-0.059499,-0.006387,-0.001058,0.000113,-0.086959,-0.0,-0.0,2.0,0.282024,0.263185,0.282024,0.299205,,,,,,
459278,-0.10948,-0.012244,-0.059255,-0.006361,-0.00129,-0.002,-0.087191,-0.0,-0.0,2.0,0.282024,0.261445,0.282024,0.30064,,,,,,
459298,-0.112056,-0.012198,-0.059265,-0.006372,-0.000119,-0.001058,-0.087266,-0.0,-0.0,2.0,0.282024,0.259655,0.282024,0.302091,,,,,,
459318,-0.114748,-0.01214,-0.059019,-0.006373,-0.000122,-0.001057,-0.087207,-0.0,-0.0,2.0,0.282024,0.257636,0.282024,0.303698,,,,,,
459338,-0.117197,-0.012075,-0.058773,-0.00531,-0.001181,-0.000933,-0.087011,-0.0,-0.0,2.0,0.282024,0.257821,0.282024,0.303552,,,,,,
459358,-0.11965,-0.011887,-0.05852,-0.005298,-0.001311,-0.001986,-0.086665,-0.0,-0.0,2.0,0.282024,0.255777,0.282024,0.305151,,,,,,
459378,-0.121737,-0.011689,-0.058267,-0.005309,-0.000129,-0.001056,-0.086261,-0.0,-0.0,2.0,0.282024,0.25393,0.282024,0.30657,,,,,,
459398,-0.123824,-0.01149,-0.058013,-0.004245,-0.000131,-0.001056,-0.085893,-0.0,-0.0,2.0,0.282024,0.254235,0.282024,0.306337,,,,,,
459418,-0.125786,-0.011401,-0.057644,-0.003182,-0.001189,-0.000922,-0.084918,-0.0,-0.0,2.0,0.282024,0.252039,0.282024,0.307997,,,,,,
459438,-0.12738,-0.011423,-0.057285,-0.00317,-0.001326,-0.001976,-0.083928,-0.0,-0.0,2.0,0.282024,0.250087,0.282024,0.309444,,,,,,
459458,-0.128599,-0.011441,-0.057037,-0.003181,-0.000136,-0.001056,-0.082841,-0.0,-0.0,2.0,0.282024,0.250512,0.282024,0.309131,,,,,,
459478,-0.129461,-0.01145,-0.056802,-0.002116,-0.000137,-0.001055,-0.081614,-0.0,-0.0,2.0,0.282024,0.2511,0.282024,0.308697,,,,,,
459498,-0.130196,-0.011438,-0.056313,-0.001052,-0.000138,-0.001055,-0.080826,-0.0,-0.0,2.0,0.282024,0.252134,0.282024,0.307926,,,,,,
459518,-0.130317,-0.011539,-0.055956,2.4e-05,-0.000277,-0.002111,-0.07901,-0.0,-0.0,2.0,0.282024,0.250675,0.282024,0.309011,,,,,,
459538,-0.130068,-0.01176,-0.055729,1.1e-05,-0.001193,-0.000917,-0.077262,-0.0,-0.0,2.0,0.282024,0.251683,0.282024,0.308263,,,,,,
459558,-0.129576,-0.011723,-0.055356,1.1e-05,-0.001193,-0.000918,-0.07552,-0.0,-0.0,2.0,0.282024,0.250738,0.282024,0.308964,,,,,,
459578,-0.128973,-0.011561,-0.054985,1.1e-05,-0.001192,-0.000919,-0.074081,-0.0,-0.0,2.0,0.282024,0.252291,0.282024,0.307808,,,,,,
459598,-0.128736,-0.011409,-0.054613,2.3e-05,-0.001329,-0.001974,-0.072065,-0.0,-0.0,2.0,0.282024,0.250949,0.282024,0.308808,,,,,,
459618,-0.128369,-0.011254,-0.054231,2.4e-05,-0.000272,-0.002111,-0.069923,-0.0,-0.0,2.0,0.282024,0.247371,0.282024,0.311414,,,,,,
459638,-0.128127,-0.011232,-0.053989,1.2e-05,-0.000136,-0.001056,-0.067589,-0.0,-0.0,2.0,0.282024,0.245742,0.282024,0.312571,,,,,,
459658,-0.128009,-0.011197,-0.053503,-0.001052,-0.000136,-0.001056,-0.066298,-0.0,-0.0,2.0,0.282024,0.242556,0.282024,0.314785,,,,,,
459678,-0.127768,-0.011168,-0.053139,1.2e-05,-0.000136,-0.001056,-0.065015,-0.0,-0.0,2.0,0.282024,0.244032,0.282024,0.313767,,,,,,
459698,-0.127649,-0.011141,-0.052774,2.4e-05,-0.000271,-0.002111,-0.062537,-0.0,-0.0,2.0,0.282024,0.242127,0.282024,0.315078,,,,,,
459718,-0.127526,-0.011244,-0.052539,1e-05,-0.001191,-0.00092,-0.06008,-0.0,-0.0,2.0,0.282024,0.240249,0.282024,0.316347,,,,,,
459738,-0.127274,-0.011336,-0.052173,1e-05,-0.001191,-0.000921,-0.05616,-0.0,-0.0,2.0,0.282024,0.237246,0.282024,0.31833,,,,,,
459758,-0.127036,-0.011185,-0.051801,9e-06,-0.002246,-0.000786,-0.052171,-0.0,-0.0,2.0,0.282024,0.234115,0.282024,0.320339,,,,,,
459778,-0.126551,-0.011157,-0.051559,1e-05,-0.00119,-0.000921,-0.050705,-0.0,-0.0,2.0,0.282024,0.233289,0.282024,0.320859,,,,,,
459798,-0.125818,-0.010993,-0.051179,0.001074,-0.001189,-0.000922,-0.047653,-0.0,-0.0,2.0,0.282024,0.23375,0.282024,0.320569,,,,,,
459818,-0.124975,-0.010706,-0.050801,0.001076,-0.000133,-0.001056,-0.044526,-0.0,-0.0,2.0,0.282024,0.234238,0.282024,0.320261,,,,,,
459838,-0.123876,-0.010541,-0.050544,0.00214,-0.000131,-0.001056,-0.040761,-0.0,-0.0,2.0,0.282024,0.23197,0.282024,0.321681,,,,,,
459858,-0.122413,-0.010612,-0.050311,0.003203,-0.001186,-0.000926,-0.040761,-0.0,-0.0,2.0,0.282024,0.235629,0.282024,0.319375,,,,,,
459878,-0.120824,-0.010551,-0.049941,0.004267,-0.001185,-0.000928,-0.03471,-0.0,-0.0,2.0,0.282024,0.231856,0.282024,0.321752,,,,,,
459898,-0.118619,-0.010482,-0.049684,0.004254,-0.002113,0.000252,-0.03194,-0.0,-0.0,2.0,0.282024,0.231374,0.282024,0.322049,,,,,,
459918,-0.116056,-0.010398,-0.049315,0.005331,-0.00118,-0.000934,-0.029758,-0.0,-0.0,2.0,0.282024,0.23414,0.282024,0.320323,,,,,,
459938,-0.113374,-0.01019,-0.048939,0.006396,-0.00012,-0.001057,-0.025118,-0.0,-0.0,2.0,0.282024,0.237288,0.282024,0.318303,,,,,,
459958,-0.110072,-0.010097,-0.048684,0.006396,-0.000117,-0.001058,-0.021527,-0.0,-0.0,2.0,0.282024,0.2394,0.282024,0.316913,,,,,,
