time_ms,roll,pitch,yaw,reference_roll,reference_pitch,reference_yaw,reference_throttle,throttle_1,throttle_2,throttle_3,throttle_4,roll_predicted,pitch_predicted,yaw_predicted,roll_rate_predicted,pitch_rate_predicted,yaw_rate_predicted,value1,value2,value3,value4,value5,value6
221557,0.000486,-0.018787,-0.273158,0.0,-0.0,-0.0,2.0,0.282024,0.280302,0.282024,0.283731,,,,,,,0.001338,-0.013607,-0.17387,1e-06,7e-06,-0.000116
221577,0.000486,-0.018787,-0.273158,0.087266,-0.0,-0.0,2.0,0.282024,0.238114,0.282024,0.317763,,,,,,,0.001337,-0.013607,-0.173872,-0.023989,5e-06,-0.000116
221597,0.000365,-0.018803,-0.273159,0.087266,-0.0,-0.0,2.0,0.282024,0.232492,0.282024,0.321357,,,,,,,0.001096,-0.013607,-0.173875,-9.9e-05,3e-06,-0.000115
221617,0.000728,-0.018753,-0.273156,0.087266,-0.0,-0.0,2.0,0.282024,0.232996,0.282024,0.321042,,,,,,,0.001096,-0.013607,-0.173877,0.024089,5e-06,-0.000115
221637,0.001471,-0.018775,-0.273149,0.087266,-0.0,-0.0,2.0,0.282024,0.237683,0.282024,0.318045,,,,,,,0.001579,-0.013607,-0.173879,0.051584,1e-06,-0.000114
221657,0.002955,-0.018817,-0.273136,0.087266,-0.0,-0.0,2.0,0.282024,0.240519,0.282024,0.316165,,,,,,,0.002442,-0.013606,-0.173881,0.099859,4e-06,-0.000113
221677,0.005148,-0.018639,-0.273115,0.087266,-0.0,-0.0,2.0,0.282024,0.245528,0.282024,0.312722,,,,,,,0.004047,-0.013606,-0.173884,0.099958,1e-06,-0.000111
221697,0.007738,-0.018652,-0.273088,0.087266,-0.0,-0.0,2.0,0.282024,0.254981,0.282024,0.305766,,,,,,,0.006514,-0.013606,-0.173886,0.124269,-0.0,-0.000109
221717,0.011449,-0.018758,-0.273044,0.087266,-0.0,-0.0,2.0,0.282024,0.26243,0.282024,0.299831,,,,,,,0.009466,-0.013606,-0.173888,0.196829,9e-06,-0.000116
221737,0.016026,-0.018867,-0.273264,0.087266,-0.0,-0.0,2.0,0.282024,0.268309,0.282024,0.294841,,,,,,,0.013281,-0.013606,-0.17389,0.220997,1.3e-05,-0.000111
221757,0.021085,-0.018909,-0.273303,0.087266,-0.0,-0.0,2.0,0.282024,0.274125,0.282024,0.289617,,,,,,,0.017857,-0.013606,-0.173893,0.245085,4e-06,-0.000121
221777,0.026767,-0.018986,-0.273485,0.087266,-0.0,-0.0,2.0,0.282024,0.281828,0.282024,0.28222,,,,,,,0.023157,-0.013606,-0.173895,0.293756,7e-06,-0.00014
221797,0.033038,-0.018855,-0.27376,0.087266,-0.0,-0.0,2.0,0.282024,0.288926,0.282024,0.27487,,,,,,,0.029081,-0.013606,-0.173898,0.297505,-9e-06,-0.000168
221817,0.039603,-0.019053,-0.273941,0.087266,-0.0,-0.0,2.0,0.282024,0.293348,0.282024,0.270005,,,,,,,0.035384,-0.013606,-0.173902,0.349061,-2.9e-05,-0.000182
221837,0.046425,-0.01933,-0.27428,0.087266,-0.0,-0.0,2.0,0.282024,0.29784,0.282024,0.264816,,,,,,,0.042069,-0.013607,-0.173905,0.348674,-4.7e-05,-0.000205
221857,0.053216,-0.019366,-0.274537,0.087266,-0.0,-0.0,2.0,0.282024,0.298979,0.282024,0.263457,,,,,,,0.048757,-0.013608,-0.17391,0.369293,-5.1e-05,-0.000231
221877,0.05966,-0.019573,-0.274666,0.087266,-0.0,-0.0,2.0,0.282024,0.30028,0.282024,0.261885,,,,,,,0.05544,-0.013609,-0.173915,0.321564,-7.1e-05,-0.000244
221897,0.06562,-0.01985,-0.274676,0.087266,-0.0,-0.0,2.0,0.282024,0.303101,0.282024,0.25839,,,,,,,0.061989,-0.01361,-0.17392,0.300949,-9.1e-05,-0.000268
221917,0.071427,-0.019896,-0.274799,0.087266,-0.0,-0.0,2.0,0.282024,0.302431,0.282024,0.259231,,,,,,,0.067932,-0.013612,-0.173925,0.29791,-9.4e-05,-0.00028
221937,0.07647,-0.0198,-0.274893,0.087266,-0.0,-0.0,2.0,0.282024,0.298887,0.282024,0.263568,,,,,,,0.073377,-0.013614,-0.17393,0.24834,-0.000108,-0.000265
221957,0.08093,-0.019923,-0.274695,0.087266,-0.0,-0.0,2.0,0.282024,0.299284,0.282024,0.263091,,,,,,,0.078442,-0.013616,-0.173936,0.220839,-0.0001,-0.000267
221977,0.084764,-0.020004,-0.274582,0.087266,-0.0,-0.0,2.0,0.282024,0.296669,0.282024,0.266193,,,,,,,0.08276,-0.013618,-0.173941,0.196844,-0.000103,-0.000265
221997,0.088219,-0.020009,-0.274599,0.087266,-0.0,-0.0,2.0,0.282024,0.293456,0.282024,0.269883,,,,,,,0.086473,-0.01362,-0.173946,0.173639,-0.000114,-0.000248
222017,0.09107,-0.020104,-0.274519,0.087266,-0.0,-0.0,2.0,0.282024,0.290386,0.282024,0.273289,,,,,,,0.089687,-0.013623,-0.173951,0.149405,-0.00012,-0.000238
222037,0.093541,-0.020128,-0.274456,0.087266,-0.0,-0.0,2.0,0.282024,0.289885,0.282024,0.273835,,,,,,,0.092544,-0.013625,-0.173956,0.120822,-0.000119,-0.000231
222057,0.095771,-0.020186,-0.2744,0.087266,-0.0,-0.0,2.0,0.282024,0.28731,0.282024,0.276592,,,,,,,0.094879,-0.013628,-0.173961,0.103379,-0.000136,-0.000236
222077,0.097502,-0.020185,-0.274484,0.087266,-0.0,-0.0,2.0,0.282024,0.286674,0.282024,0.277261,,,,,,,0.097,-0.01363,-0.173966,0.073776,-0.000132,-0.000243
222097,0.09925,-0.020299,-0.274678,0.087266,-0.0,-0.0,2.0,0.282024,0.285476,0.282024,0.278511,,,,,,,0.09873,-0.013633,-0.17397,0.101256,-0.000142,-0.00025
222117,0.100981,-0.020291,-0.274876,0.087266,-0.0,-0.0,2.0,0.282024,0.285747,0.282024,0.278229,,,,,,,0.100461,-0.013636,-0.173975,0.075883,-0.000144,-0.000253
222137,0.102711,-0.020295,-0.274841,0.087266,-0.0,-0.0,2.0,0.282024,0.287025,0.282024,0.276892,,,,,,,0.102209,-0.013639,-0.173981,0.072568,-0.000143,-0.000272
222157,0.104442,-0.020287,-0.275036,0.087266,-0.0,-0.0,2.0,0.282024,0.288437,0.282024,0.275395,,,,,,,0.10394,-0.013641,-0.173986,0.075966,-0.000153,-0.000291
222177,0.106327,-0.020509,-0.275097,0.087266,-0.0,-0.0,2.0,0.282024,0.289311,0.282024,0.274456,,,,,,,0.10567,-0.013644,-0.173992,0.079218,-0.000166,-0.000286
222197,0.108316,-0.020593,-0.275156,0.087266,-0.0,-0.0,2.0,0.282024,0.290698,0.282024,0.272949,,,,,,,0.107539,-0.013648,-0.173998,0.099924,-0.000162,-0.000292
222217,0.110409,-0.020552,-0.274982,0.087266,-0.0,-0.0,2.0,0.282024,0.292289,0.282024,0.271191,,,,,,,0.109544,-0.013651,-0.174004,0.096599,-0.00017,-0.000297
222237,0.112502,-0.020505,-0.274922,0.087266,-0.0,-0.0,2.0,0.282024,0.29544,0.282024,0.26762,,,,,,,0.111757,-0.013654,-0.17401,0.096694,-0.000163,-0.00029
222257,0.114957,-0.0204,-0.27496,0.087266,-0.0,-0.0,2.0,0.282024,0.297332,0.282024,0.265416,,,,,,,0.113953,-0.013658,-0.174015,0.100163,-0.000156,-0.000283
222277,0.117291,-0.020318,-0.274885,0.087266,-0.0,-0.0,2.0,0.282024,0.297237,0.282024,0.265527,,,,,,,0.116185,-0.013661,-0.174021,0.120572,-0.000148,-0.000263
222297,0.119521,-0.020382,-0.274691,0.087266,-0.0,-0.0,2.0,0.282024,0.300637,0.282024,0.261448,,,,,,,0.118639,-0.013664,-0.174026,0.096673,-0.000139,-0.000267
222317,0.121855,-0.020292,-0.274728,0.087266,-0.0,-0.0,2.0,0.282024,0.300933,0.282024,0.261086,,,,,,,0.120852,-0.013667,-0.174032,0.125551,-0.000143,-0.000263
222337,0.123964,-0.020365,-0.274652,0.087266,-0.0,-0.0,2.0,0.282024,0.300802,0.282024,0.261247,,,,,,,0.123083,-0.013669,-0.174037,0.101402,-0.000151,-0.000243
222357,0.126074,-0.020438,-0.274574,0.087266,-0.0,-0.0,2.0,0.282024,0.301494,0.282024,0.260395,,,,,,,0.1252,-0.013672,-0.174042,0.120603,-0.000143,-0.000247
222377,0.12795,-0.020537,-0.274673,0.087266,-0.0,-0.0,2.0,0.282024,0.302315,0.282024,0.259376,,,,,,,0.127293,-0.013675,-0.174046,0.099872,-0.000151,-0.000251
222397,0.129535,-0.020428,-0.274699,0.087266,-0.0,-0.0,2.0,0.282024,0.30238,0.282024,0.259295,,,,,,,0.129161,-0.013679,-0.174051,0.07253,-0.00015,-0.000256
222417,0.130887,-0.020354,-0.274786,0.087266,-0.0,-0.0,2.0,0.282024,0.301283,0.282024,0.260656,,,,,,,0.130651,-0.013682,-0.174057,0.072446,-0.000153,-0.000263
222437,0.131998,-0.020313,-0.274886,0.087266,-0.0,-0.0,2.0,0.282024,0.301019,0.282024,0.260981,,,,,,,0.131986,-0.013685,-0.174062,0.051701,-0.000148,-0.00026
222457,0.132747,-0.020323,-0.275005,0.087266,-0.0,-0.0,2.0,0.282024,0.298053,0.282024,0.264562,,,,,,,0.132866,-0.013687,-0.174067,0.044838,-0.000134,-0.000279
222477,0.133126,-0.020392,-0.274978,0.087266,-0.0,-0.0,2.0,0.282024,0.297566,0.282024,0.265139,,,,,,,0.133598,-0.01369,-0.174073,0.024128,-0.000137,-0.000279
222497,0.133126,-0.020392,-0.274978,0.087266,-0.0,-0.0,2.0,0.282024,0.295213,0.282024,0.267882,,,,,,,0.13384,-0.013693,-0.174078,0.027354,-0.000145,-0.000276
222517,0.133126,-0.020384,-0.275094,0.087266,-0.0,-0.0,2.0,0.282024,0.293952,0.282024,0.269323,,,,,,,0.133856,-0.013696,-0.174084,1e-06,-0.000147,-0.000276
222537,0.132884,-0.020435,-0.274875,0.087266,-0.0,-0.0,2.0,0.282024,0.293235,0.282024,0.270132,,,,,,,0.133736,-0.013699,-0.174089,-9.9e-05,-0.000148,-0.000276
222557,0.132498,-0.020365,-0.274853,0.087266,-0.0,-0.0,2.0,0.282024,0.293193,0.282024,0.270179,,,,,,,0.133495,-0.013702,-0.174095,-0.006768,-0.000127,-0.000279
222577,0.13236,-0.020262,-0.274867,0.087266,-0.0,-0.0,2.0,0.282024,0.294282,0.282024,0.268947,,,,,,,0.133228,-0.013705,-0.1741,1e-06,-0.000143,-0.000262
222597,0.132223,-0.020166,-0.274764,0.087266,-0.0,-0.0,2.0,0.282024,0.295321,0.282024,0.267758,,,,,,,0.133074,-0.013707,-0.174105,-0.020713,-0.000135,-0.000252
222617,0.132377,-0.02039,-0.274743,0.087266,-0.0,-0.0,2.0,0.282024,0.296072,0.282024,0.266889,,,,,,,0.13297,-0.01371,-0.17411,-0.003316,-0.000123,-0.000252
222637,0.132497,-0.020373,-0.274736,0.087266,-0.0,-0.0,2.0,0.282024,0.296276,0.282024,0.266652,,,,,,,0.13297,-0.013713,-0.174115,0.023919,-0.000133,-0.00025
222657,0.132739,-0.020339,-0.274723,0.087266,-0.0,-0.0,2.0,0.282024,0.298836,0.282024,0.263629,,,,,,,0.133228,-0.013715,-0.17412,0.024026,-0.000141,-0.000248
222677,0.133126,-0.020409,-0.274745,0.087266,-0.0,-0.0,2.0,0.282024,0.301111,0.282024,0.260868,,,,,,,0.133589,-0.013718,-0.174125,0.029094,-0.000148,-0.00025
222697,0.133384,-0.020487,-0.274841,0.087266,-0.0,-0.0,2.0,0.282024,0.300237,0.282024,0.261937,,,,,,,0.133856,-0.013721,-0.17413,0.027362,-0.000156,-0.000247
222717,0.133504,-0.020478,-0.274718,0.087266,-0.0,-0.0,2.0,0.282024,0.300317,0.282024,0.261839,,,,,,,0.134114,-0.013724,-0.174135,0.024032,-0.000152,-0.000257
222737,0.133625,-0.020453,-0.274828,0.087266,-0.0,-0.0,2.0,0.282024,0.302006,0.282024,0.25976,,,,,,,0.134355,-0.013727,-0.17414,0.000123,-0.000149,-0.000267
222757,0.133488,-0.020341,-0.274958,0.087266,-0.0,-0.0,2.0,0.282024,0.30049,0.282024,0.261628,,,,,,,0.134339,-0.01373,-0.174146,-0.020713,-0.000151,-0.000256
222777,0.133247,-0.020375,-0.274971,0.087266,-0.0,-0.0,2.0,0.282024,0.300966,0.282024,0.261045,,,,,,,0.134235,-0.013733,-0.174151,-0.027346,-0.00014,-0.000257
222797,0.133005,-0.020418,-0.274868,0.087266,-0.0,-0.0,2.0,0.282024,0.300387,0.282024,0.261754,,,,,,,0.133977,-0.013736,-0.174156,-0.024056,-0.000144,-0.000257
222817,0.132635,-0.020469,-0.274838,0.087266,-0.0,-0.0,2.0,0.282024,0.299305,0.282024,0.263066,,,,,,,0.133632,-0.013739,-0.174161,-0.027444,-0.000148,-0.000259
222837,0.132377,-0.02039,-0.274743,0.087266,-0.0,-0.0,2.0,0.282024,0.300912,0.282024,0.261112,,,,,,,0.133365,-0.013742,-0.174166,-0.024002,-0.000152,-0.000255
222857,0.132119,-0.020304,-0.274763,0.087266,-0.0,-0.0,2.0,0.282024,0.301579,0.282024,0.26029,,,,,,,0.133091,-0.013745,-0.174171,-0.020716,-0.000143,-0.000245
222877,0.132136,-0.020425,-0.274756,0.087266,-0.0,-0.0,2.0,0.282024,0.301764,0.282024,0.260061,,,,,,,0.132849,-0.013747,-0.174176,-0.024055,-0.000135,-0.000235
222897,0.131998,-0.020329,-0.274654,0.087266,-0.0,-0.0,2.0,0.282024,0.301869,0.282024,0.259931,,,,,,,0.132729,-0.01375,-0.174181,-0.000113,-0.000135,-0.000234
222917,0.131894,-0.020475,-0.274536,0.087266,-0.0,-0.0,2.0,0.282024,0.303992,0.282024,0.257263,,,,,,,0.132745,-0.013753,-0.174186,-0.003313,-0.000135,-0.000234
222937,0.132015,-0.02045,-0.274646,0.087266,-0.0,-0.0,2.0,0.282024,0.304948,0.282024,0.256039,,,,,,,0.132728,-0.013756,-0.17419,0.00344,-0.000147,-0.000233
222957,0.131877,-0.020346,-0.27466,0.087266,-0.0,-0.0,2.0,0.282024,0.304666,0.282024,0.256402,,,,,,,0.132728,-0.013758,-0.174195,0.003287,-0.000147,-0.00022
222977,0.131773,-0.020484,-0.274659,0.087266,-0.0,-0.0,2.0,0.282024,0.304867,0.282024,0.256143,,,,,,,0.132624,-0.013761,-0.174199,-0.024018,-0.000149,-0.000233
222997,0.131516,-0.020389,-0.274796,0.087266,-0.0,-0.0,2.0,0.282024,0.303867,0.282024,0.257421,,,,,,,0.132384,-0.013764,-0.174204,-9.9e-05,-0.00015,-0.000245
223017,0.131274,-0.020423,-0.274809,0.087266,-0.0,-0.0,2.0,0.282024,0.305628,0.282024,0.25516,,,,,,,0.132263,-0.013767,-0.174209,-0.030679,-0.000129,-0.000247
223037,0.130904,-0.020474,-0.274779,0.087266,-0.0,-0.0,2.0,0.282024,0.303579,0.282024,0.257787,,,,,,,0.131876,-0.01377,-0.174214,-0.000105,-0.000144,-0.000242
223057,0.130542,-0.020525,-0.274798,0.087266,-0.0,-0.0,2.0,0.282024,0.303542,0.282024,0.257834,,,,,,,0.131498,-0.013773,-0.174219,0.003218,-0.000149,-0.000244
223077,0.130164,-0.020456,-0.274825,0.087266,-0.0,-0.0,2.0,0.282024,0.305611,0.282024,0.255182,,,,,,,0.131273,-0.013776,-0.174224,-0.024035,-0.000154,-0.000245
223097,0.129801,-0.020515,-0.274728,0.087266,-0.0,-0.0,2.0,0.282024,0.30433,0.282024,0.256831,,,,,,,0.13079,-0.013779,-0.174229,-8.5e-05,-0.000159,-0.000246
223117,0.129311,-0.020575,-0.274821,0.087266,-0.0,-0.0,2.0,0.282024,0.304743,0.282024,0.256303,,,,,,,0.130428,-0.013782,-0.174234,-0.024088,-0.000165,-0.000249
223137,0.128707,-0.020668,-0.274736,0.087266,-0.0,-0.0,2.0,0.282024,0.304516,0.282024,0.256593,,,,,,,0.129921,-0.013785,-0.174238,-0.027464,-0.000148,-0.000236
223157,0.128087,-0.020633,-0.274776,0.087266,-0.0,-0.0,2.0,0.282024,0.304418,0.282024,0.256719,,,,,,,0.129318,-0.013789,-0.174243,-0.030797,-0.000144,-0.000239
223177,0.127459,-0.020605,-0.274649,0.087266,-0.0,-0.0,2.0,0.282024,0.304352,0.282024,0.256803,,,,,,,0.128681,-0.013792,-0.174248,-0.02082,-0.000165,-0.000241
223197,0.126598,-0.020604,-0.2747,0.087266,-0.0,-0.0,2.0,0.282024,0.302769,0.282024,0.258808,,,,,,,0.127933,-0.013795,-0.174253,-0.044955,-0.000165,-0.000229
223217,0.125729,-0.020602,-0.274702,0.087266,-0.0,-0.0,2.0,0.282024,0.303971,0.282024,0.257289,,,,,,,0.127208,-0.013798,-0.174257,-0.048169,-0.000163,-0.000233
223237,0.125005,-0.020704,-0.27474,0.087266,-0.0,-0.0,2.0,0.282024,0.30385,0.282024,0.257443,,,,,,,0.126356,-0.013801,-0.174262,-0.048161,-0.000174,-0.000232
223257,0.124039,-0.02084,-0.274789,0.087266,-0.0,-0.0,2.0,0.282024,0.302992,0.282024,0.258527,,,,,,,0.125495,-0.013805,-0.174267,-0.048274,-0.000174,-0.000237
223277,0.123033,-0.020735,-0.274804,0.087266,-0.0,-0.0,2.0,0.282024,0.301909,0.282024,0.259881,,,,,,,0.124505,-0.013808,-0.174271,-0.051665,-0.000163,-0.000238
223297,0.122067,-0.020864,-0.274969,0.087266,-0.0,-0.0,2.0,0.282024,0.302019,0.282024,0.259745,,,,,,,0.123523,-0.013812,-0.174276,-0.048229,-0.000176,-0.000254
223317,0.12094,-0.020776,-0.274988,0.087266,-0.0,-0.0,2.0,0.282024,0.300332,0.282024,0.261821,,,,,,,0.122396,-0.013815,-0.174281,-0.020993,-0.000177,-0.000254
223337,0.119813,-0.020695,-0.274891,0.087266,-0.0,-0.0,2.0,0.282024,0.301385,0.282024,0.26053,,,,,,,0.121413,-0.013819,-0.174286,-0.048339,-0.000168,-0.000249
223357,0.11871,-0.020727,-0.274952,0.087266,-0.0,-0.0,2.0,0.282024,0.301477,0.282024,0.260416,,,,,,,0.120319,-0.013822,-0.174291,-0.075636,-0.000173,-0.00025
223377,0.117616,-0.02088,-0.274956,0.087266,-0.0,-0.0,2.0,0.282024,0.299837,0.282024,0.262423,,,,,,,0.11908,-0.013825,-0.174296,-0.04505,-0.000188,-0.000255
223397,0.116392,-0.020937,-0.274906,0.087266,-0.0,-0.0,2.0,0.282024,0.300255,0.282024,0.261915,,,,,,,0.117986,-0.013829,-0.174301,-0.051768,-0.000179,-0.000244
223417,0.115282,-0.020969,-0.274916,0.087266,-0.0,-0.0,2.0,0.282024,0.300884,0.282024,0.261146,,,,,,,0.116875,-0.013833,-0.174306,-0.051616,-0.000182,-0.000245
223437,0.114299,-0.020984,-0.274969,0.087266,-0.0,-0.0,2.0,0.282024,0.300665,0.282024,0.261415,,,,,,,0.115755,-0.013836,-0.174311,-0.048298,-0.000185,-0.00025
223457,0.113293,-0.020879,-0.274979,0.087266,-0.0,-0.0,2.0,0.282024,0.300893,0.282024,0.261135,,,,,,,0.114766,-0.01384,-0.174316,-0.048369,-0.000187,-0.000239
223477,0.112431,-0.020877,-0.275025,0.087266,-0.0,-0.0,2.0,0.282024,0.301228,0.282024,0.260723,,,,,,,0.1138,-0.013844,-0.174321,-0.051605,-0.000187,-0.000255
223497,0.111562,-0.020882,-0.274906,0.087266,-0.0,-0.0,2.0,0.282024,0.301472,0.282024,0.260422,,,,,,,0.112898,-0.013848,-0.174326,-0.048309,-0.000175,-0.000255
223517,0.1107,-0.02088,-0.274952,0.087266,-0.0,-0.0,2.0,0.282024,0.301804,0.282024,0.260011,,,,,,,0.112052,-0.013851,-0.174331,-0.051622,-0.000175,-0.000247
223537,0.109849,-0.020992,-0.275058,0.087266,-0.0,-0.0,2.0,0.282024,0.301358,0.282024,0.260563,,,,,,,0.11119,-0.013855,-0.174336,-0.024246,-0.000185,-0.00025
223557,0.109091,-0.02086,-0.274988,0.087266,-0.0,-0.0,2.0,0.282024,0.302419,0.282024,0.259246,,,,,,,0.110442,-0.013858,-0.174341,-0.044876,-0.000196,-0.000249
223577,0.108487,-0.020944,-0.275016,0.087266,-0.0,-0.0,2.0,0.282024,0.302909,0.282024,0.258632,,,,,,,0.109718,-0.013862,-0.174346,-0.048254,-0.000194,-0.000252
223597,0.107635,-0.021063,-0.275006,0.087266,-0.0,-0.0,2.0,0.282024,0.302207,0.282024,0.259511,,,,,,,0.108993,-0.013866,-0.174351,-0.027563,-0.00019,-0.000255
223617,0.106877,-0.020924,-0.275051,0.087266,-0.0,-0.0,2.0,0.282024,0.302279,0.282024,0.25942,,,,,,,0.108229,-0.01387,-0.174357,-0.048209,-0.000189,-0.000254
223637,0.106136,-0.020905,-0.27509,0.087266,-0.0,-0.0,2.0,0.282024,0.302578,0.282024,0.259047,,,,,,,0.107487,-0.013874,-0.174362,-0.05486,-0.000163,-0.000259
223657,0.105372,-0.020765,-0.275085,0.087266,-0.0,-0.0,2.0,0.282024,0.30234,0.282024,0.259344,,,,,,,0.106729,-0.013877,-0.174367,-0.05285,-0.000161,-0.000257
223677,0.104509,-0.02077,-0.275013,0.087266,-0.0,-0.0,2.0,0.282024,0.300945,0.282024,0.261071,,,,,,,0.105845,-0.01388,-0.174372,-0.044983,-0.000172,-0.00026
223697,0.10352,-0.020784,-0.275012,0.087266,-0.0,-0.0,2.0,0.282024,0.300881,0.282024,0.26115,,,,,,,0.104999,-0.013884,-0.174377,-0.048222,-0.000172,-0.000264
223717,0.102796,-0.02088,-0.275161,0.087266,-0.0,-0.0,2.0,0.282024,0.301441,0.282024,0.260461,,,,,,,0.10413,-0.013887,-0.174382,-0.048201,-0.000172,-0.000252
223737,0.101917,-0.020764,-0.275093,0.087266,-0.0,-0.0,2.0,0.282024,0.298866,0.282024,0.263593,,,,,,,0.103148,-0.01389,-0.174387,-0.027695,-0.000159,-0.000256
223757,0.100911,-0.020658,-0.275097,0.087266,-0.0,-0.0,2.0,0.282024,0.300087,0.282024,0.26212,,,,,,,0.102407,-0.013894,-0.174392,-0.051634,-0.000159,-0.00026
223777,0.100049,-0.020656,-0.275139,0.087266,-0.0,-0.0,2.0,0.282024,0.300845,0.282024,0.261194,,,,,,,0.101521,-0.013897,-0.174398,-0.048121,-0.000158,-0.00027
223797,0.09917,-0.020533,-0.275187,0.087266,-0.0,-0.0,2.0,0.282024,0.300796,0.282024,0.261254,,,,,,,0.100659,-0.0139,-0.174403,-0.051537,-0.000146,-0.000263
223817,0.098439,-0.020634,-0.275169,0.087266,-0.0,-0.0,2.0,0.282024,0.300732,0.282024,0.261332,,,,,,,0.099797,-0.013903,-0.174408,-0.049416,-0.000157,-0.000261
223837,0.097456,-0.020649,-0.275215,0.087266,-0.0,-0.0,2.0,0.282024,0.297698,0.282024,0.264984,,,,,,,0.098792,-0.013906,-0.174413,-0.024366,-0.000145,-0.000265
223857,0.096588,-0.020653,-0.27509,0.087266,-0.0,-0.0,2.0,0.282024,0.300273,0.282024,0.261893,,,,,,,0.098067,-0.013909,-0.174419,-0.051539,-0.000144,-0.000269
223877,0.095847,-0.020634,-0.275126,0.087266,-0.0,-0.0,2.0,0.282024,0.299651,0.282024,0.262648,,,,,,,0.097182,-0.013912,-0.174424,-0.048221,-0.000144,-0.000267
223897,0.094847,-0.020528,-0.275177,0.087266,-0.0,-0.0,2.0,0.282024,0.298627,0.282024,0.263879,,,,,,,0.09632,-0.013915,-0.174429,-0.048325,-0.000144,-0.000259
223917,0.0941,-0.020509,-0.275163,0.087266,-0.0,-0.0,2.0,0.282024,0.29923,0.282024,0.263155,,,,,,,0.095457,-0.013917,-0.174434,-0.049478,-0.000144,-0.000246
223937,0.093358,-0.020496,-0.275081,0.087266,-0.0,-0.0,2.0,0.282024,0.299463,0.282024,0.262876,,,,,,,0.09471,-0.01392,-0.174439,-0.048305,-0.000142,-0.000249
223957,0.092496,-0.020493,-0.275121,0.087266,-0.0,-0.0,2.0,0.282024,0.298151,0.282024,0.264446,,,,,,,0.093848,-0.013923,-0.174444,-0.027586,-0.000127,-0.000253
223977,0.091869,-0.020463,-0.274985,0.087266,-0.0,-0.0,2.0,0.282024,0.299819,0.282024,0.262445,,,,,,,0.093209,-0.013926,-0.17445,-0.04813,-0.000125,-0.000256
223997,0.091128,-0.020438,-0.275135,0.087266,-0.0,-0.0,2.0,0.282024,0.298738,0.282024,0.263747,,,,,,,0.092462,-0.013928,-0.174454,-0.020844,-0.000134,-0.000241
224017,0.090507,-0.020402,-0.275165,0.087266,-0.0,-0.0,2.0,0.282024,0.298382,0.282024,0.264171,,,,,,,0.091738,-0.013931,-0.174459,-0.024254,-0.000132,-0.000244
224037,0.089782,-0.020509,-0.275077,0.087266,-0.0,-0.0,2.0,0.282024,0.298905,0.282024,0.263546,,,,,,,0.091117,-0.013933,-0.174464,-0.048313,-0.00013,-0.000247
224057,0.089018,-0.020369,-0.275066,0.087266,-0.0,-0.0,2.0,0.282024,0.298559,0.282024,0.263961,,,,,,,0.090386,-0.013936,-0.174469,-0.054787,-0.000115,-0.000257
224077,0.088414,-0.020453,-0.27509,0.087266,-0.0,-0.0,2.0,0.282024,0.297821,0.282024,0.264838,,,,,,,0.089628,-0.013938,-0.174474,-0.024061,-0.000123,-0.000259
224097,0.087793,-0.020417,-0.275118,0.087266,-0.0,-0.0,2.0,0.282024,0.298005,0.282024,0.26462,,,,,,,0.089007,-0.013941,-0.174479,-0.048235,-0.000121,-0.00025
224117,0.08731,-0.020485,-0.275137,0.087266,-0.0,-0.0,2.0,0.282024,0.298222,0.282024,0.264362,,,,,,,0.088403,-0.013943,-0.174484,-0.051551,-0.000118,-0.000252
224137,0.086683,-0.020454,-0.274999,0.087266,-0.0,-0.0,2.0,0.282024,0.297051,0.282024,0.265746,,,,,,,0.087778,-0.013946,-0.174489,-0.020949,-0.000136,-0.000248
224157,0.0862,-0.020522,-0.275018,0.087266,-0.0,-0.0,2.0,0.282024,0.297954,0.282024,0.26468,,,,,,,0.087293,-0.013948,-0.174494,-0.027488,-0.000119,-0.000239
224177,0.085821,-0.020452,-0.275037,0.087266,-0.0,-0.0,2.0,0.282024,0.297699,0.282024,0.264983,,,,,,,0.086794,-0.013951,-0.174499,-0.000112,-0.000124,-0.00024
224197,0.085304,-0.020278,-0.275065,0.087266,-0.0,-0.0,2.0,0.282024,0.298072,0.282024,0.264541,,,,,,,0.086414,-0.013953,-0.174504,-0.020848,-0.00013,-0.000241
224217,0.084959,-0.020449,-0.275074,0.087266,-0.0,-0.0,2.0,0.282024,0.297567,0.282024,0.265138,,,,,,,0.085931,-0.013956,-0.174509,-8.5e-05,-0.000123,-0.000243
224237,0.084557,-0.020263,-0.274931,0.087266,-0.0,-0.0,2.0,0.282024,0.29733,0.282024,0.265418,,,,,,,0.085552,-0.013958,-0.174514,-0.024176,-0.000118,-0.000244
224257,0.084195,-0.020309,-0.275061,0.087266,-0.0,-0.0,2.0,0.282024,0.298077,0.282024,0.264535,,,,,,,0.085184,-0.013961,-0.174518,2e-05,-0.000121,-0.00024
224277,0.083953,-0.020342,-0.27507,0.087266,-0.0,-0.0,2.0,0.282024,0.297227,0.282024,0.26554,,,,,,,0.084805,-0.013963,-0.174523,0.027397,-0.000124,-0.00024
224297,0.083712,-0.020376,-0.275079,0.087266,-0.0,-0.0,2.0,0.282024,0.29759,0.282024,0.265111,,,,,,,0.084564,-0.013965,-0.174528,-0.027595,-0.000107,-0.000231
224317,0.083332,-0.020312,-0.274981,0.087266,-0.0,-0.0,2.0,0.282024,0.296326,0.282024,0.266594,,,,,,,0.084202,-0.013967,-0.174533,-0.000199,-0.000121,-0.000243
224337,0.08297,-0.020362,-0.274995,0.087266,-0.0,-0.0,2.0,0.282024,0.29741,0.282024,0.265323,,,,,,,0.083943,-0.01397,-0.174537,-0.024162,-0.000114,-0.000244
224357,0.082729,-0.020391,-0.27512,0.087266,-0.0,-0.0,2.0,0.282024,0.298412,0.282024,0.264135,,,,,,,0.0837,-0.013972,-0.174542,-0.023955,-0.000117,-0.000244
224377,0.08235,-0.020321,-0.275138,0.087266,-0.0,-0.0,2.0,0.282024,0.296896,0.282024,0.265928,,,,,,,0.083322,-0.013974,-0.174547,-0.020956,-0.000123,-0.000234
224397,0.082108,-0.020355,-0.275147,0.087266,-0.0,-0.0,2.0,0.282024,0.297967,0.282024,0.264665,,,,,,,0.08308,-0.013977,-0.174552,-0.024064,-0.000113,-0.000246
224417,0.081965,-0.02025,-0.275106,0.087266,-0.0,-0.0,2.0,0.282024,0.298387,0.282024,0.264165,,,,,,,0.082838,-0.013979,-0.174557,-0.024068,-0.000116,-0.000246
224437,0.08174,-0.020405,-0.275111,0.087266,-0.0,-0.0,2.0,0.282024,0.297215,0.282024,0.265554,,,,,,,0.082592,-0.013981,-0.174562,-0.003416,-0.000106,-0.000242
224457,0.081499,-0.020439,-0.27512,0.087266,-0.0,-0.0,2.0,0.282024,0.297725,0.282024,0.264951,,,,,,,0.082453,-0.013983,-0.174566,0.003425,-0.000119,-0.000241
224477,0.081361,-0.020335,-0.275129,0.087266,-0.0,-0.0,2.0,0.282024,0.297141,0.282024,0.26564,,,,,,,0.082212,-0.013986,-0.174571,-0.024185,-0.000113,-0.000231
224497,0.081256,-0.020478,-0.275012,0.087266,-0.0,-0.0,2.0,0.282024,0.296539,0.282024,0.266345,,,,,,,0.081971,-0.013988,-0.174576,-9.9e-05,-0.000113,-0.000243
224517,0.080998,-0.020391,-0.275026,0.087266,-0.0,-0.0,2.0,0.282024,0.298181,0.282024,0.264411,,,,,,,0.08197,-0.01399,-0.174581,-0.023969,-0.000115,-0.000243
224537,0.080998,-0.020391,-0.275026,0.087266,-0.0,-0.0,2.0,0.282024,0.297196,0.282024,0.265576,,,,,,,0.081728,-0.013993,-0.174585,1e-06,-0.000117,-0.000231
224557,0.080861,-0.020287,-0.275034,0.087266,-0.0,-0.0,2.0,0.282024,0.297891,0.282024,0.264755,,,,,,,0.081712,-0.013995,-0.17459,-0.02075,-0.000118,-0.000231
224577,0.080757,-0.020425,-0.275034,0.087266,-0.0,-0.0,2.0,0.282024,0.297991,0.282024,0.264637,,,,,,,0.081608,-0.013997,-0.174595,-0.024162,-0.00012,-0.000231
224597,0.080619,-0.020321,-0.275043,0.087266,-0.0,-0.0,2.0,0.282024,0.297615,0.282024,0.265082,,,,,,,0.08147,-0.014,-0.174599,0.003425,-0.000119,-0.000242
224617,0.08062,-0.020316,-0.27516,0.087266,-0.0,-0.0,2.0,0.282024,0.29885,0.282024,0.263612,,,,,,,0.081486,-0.014002,-0.174604,-0.02728,-0.000109,-0.000231
224637,0.080499,-0.020333,-0.275164,0.087266,-0.0,-0.0,2.0,0.282024,0.29593,0.282024,0.267054,,,,,,,0.08123,-0.014004,-0.174609,-9.9e-05,-0.00011,-0.000242
224657,0.080378,-0.020349,-0.275168,0.087266,-0.0,-0.0,2.0,0.282024,0.297503,0.282024,0.265214,,,,,,,0.081229,-0.014006,-0.174614,-0.027394,-9.9e-05,-0.000243
224677,0.080257,-0.020371,-0.275056,0.087266,-0.0,-0.0,2.0,0.282024,0.297314,0.282024,0.265437,,,,,,,0.081108,-0.014008,-0.174618,-0.024065,-0.000113,-0.000242
224697,0.080136,-0.020388,-0.275061,0.087266,-0.0,-0.0,2.0,0.282024,0.295503,0.282024,0.267548,,,,,,,0.080867,-0.014011,-0.174623,1.5e-05,-0.000114,-0.000242
224717,0.080015,-0.020405,-0.275065,0.087266,-0.0,-0.0,2.0,0.282024,0.295527,0.282024,0.26752,,,,,,,0.080746,-0.014013,-0.174628,0.023966,-0.000115,-0.00023
224737,0.080015,-0.020405,-0.275065,0.087266,-0.0,-0.0,2.0,0.282024,0.296571,0.282024,0.266308,,,,,,,0.080729,-0.014015,-0.174632,-0.02075,-0.000118,-0.000231
224757,0.079894,-0.020422,-0.27507,0.087266,-0.0,-0.0,2.0,0.282024,0.295525,0.282024,0.267522,,,,,,,0.080625,-0.014018,-0.174637,-0.003429,-0.000105,-0.000231
224777,0.079757,-0.020318,-0.275078,0.087266,-0.0,-0.0,2.0,0.282024,0.296948,0.282024,0.265867,,,,,,,0.080624,-0.01402,-0.174642,-0.0,-0.000117,-0.00023
224797,0.079653,-0.020451,-0.275195,0.087266,-0.0,-0.0,2.0,0.282024,0.296522,0.282024,0.266365,,,,,,,0.080504,-0.014022,-0.174646,1.4e-05,-0.000119,-0.00023
224817,0.079532,-0.020468,-0.275199,0.087266,-0.0,-0.0,2.0,0.282024,0.296252,0.282024,0.26668,,,,,,,0.080383,-0.014025,-0.174651,-0.0,-0.00012,-0.00023
224837,0.079532,-0.020473,-0.275083,0.087266,-0.0,-0.0,2.0,0.282024,0.297352,0.282024,0.265393,,,,,,,0.080383,-0.014027,-0.174656,-0.023967,-0.000121,-0.000241
224857,0.079411,-0.020485,-0.275203,0.087266,-0.0,-0.0,2.0,0.282024,0.296273,0.282024,0.266655,,,,,,,0.080263,-0.014029,-0.17466,-0.024065,-0.000123,-0.000241
224877,0.079274,-0.020381,-0.275212,0.087266,-0.0,-0.0,2.0,0.282024,0.296172,0.282024,0.266773,,,,,,,0.080142,-0.014032,-0.174665,-0.00333,-0.00011,-0.000241
224897,0.079274,-0.020381,-0.275212,0.087266,-0.0,-0.0,2.0,0.282024,0.295272,0.282024,0.267814,,,,,,,0.080004,-0.014034,-0.17467,0.003331,-0.000124,-0.000241
224917,0.07917,-0.020519,-0.275212,0.087266,-0.0,-0.0,2.0,0.282024,0.294312,0.282024,0.268913,,,,,,,0.079884,-0.014036,-0.174675,-9.9e-05,-0.000113,-0.000241
224937,0.079049,-0.020536,-0.275216,0.087266,-0.0,-0.0,2.0,0.282024,0.295981,0.282024,0.266995,,,,,,,0.0799,-0.014039,-0.17468,-0.0,-0.000125,-0.00024
224957,0.079032,-0.020415,-0.275221,0.087266,-0.0,-0.0,2.0,0.282024,0.295479,0.282024,0.267576,,,,,,,0.079779,-0.014041,-0.174684,-0.0,-0.000127,-0.00024
224977,0.078928,-0.020552,-0.275221,0.087266,-0.0,-0.0,2.0,0.282024,0.295589,0.282024,0.267448,,,,,,,0.079757,-0.014044,-0.174689,0.004425,-0.000126,-0.00024
224997,0.079049,-0.020536,-0.275216,0.087266,-0.0,-0.0,2.0,0.282024,0.296865,0.282024,0.265964,,,,,,,0.079779,-0.014046,-0.174694,-0.024951,-0.000128,-0.000235
225017,0.078928,-0.020552,-0.275221,0.087266,-0.0,-0.0,2.0,0.282024,0.294569,0.282024,0.26862,,,,,,,0.079659,-0.014049,-0.174699,-0.0001,-0.000127,-0.000239
225037,0.078928,-0.020552,-0.275221,0.087266,-0.0,-0.0,2.0,0.282024,0.295419,0.282024,0.267645,,,,,,,0.079658,-0.014051,-0.174703,-0.0,-0.000127,-0.000239
225057,0.078945,-0.020673,-0.275216,0.087266,-0.0,-0.0,2.0,0.282024,0.295336,0.282024,0.267741,,,,,,,0.079658,-0.014054,-0.174708,0.00333,-0.000139,-0.000238
225077,0.078945,-0.020673,-0.275216,0.087266,-0.0,-0.0,2.0,0.282024,0.295281,0.282024,0.267804,,,,,,,0.079675,-0.014056,-0.174713,-0.024067,-0.00014,-0.000238
225097,0.078945,-0.020673,-0.275216,0.087266,-0.0,-0.0,2.0,0.282024,0.293652,0.282024,0.269662,,,,,,,0.079555,-0.014059,-0.174718,-9.9e-05,-0.00014,-0.000237
225117,0.078939,-0.020678,-0.27505,0.087266,-0.0,-0.0,2.0,0.282024,0.29411,0.282024,0.269143,,,,,,,0.079555,-0.014062,-0.174722,-0.0001,-0.00014,-0.000237
225137,0.078807,-0.020569,-0.275225,0.087266,-0.0,-0.0,2.0,0.282024,0.293625,0.282024,0.269693,,,,,,,0.079549,-0.014065,-0.174727,0.025068,-0.000138,-0.000236
225157,0.078928,-0.020552,-0.275221,0.087266,-0.0,-0.0,2.0,0.282024,0.294411,0.282024,0.268801,,,,,,,0.079533,-0.014067,-0.174732,0.003328,-0.000139,-0.000231
225177,0.078824,-0.02069,-0.275221,0.087266,-0.0,-0.0,2.0,0.282024,0.293801,0.282024,0.269493,,,,,,,0.079538,-0.01407,-0.174736,-0.0001,-0.000127,-0.000236
225197,0.078824,-0.02069,-0.275221,0.087266,-0.0,-0.0,2.0,0.282024,0.294712,0.282024,0.268457,,,,,,,0.079554,-0.014073,-0.174741,-0.0,-0.000139,-0.000235
225217,0.078836,-0.02081,-0.275167,0.087266,-0.0,-0.0,2.0,0.282024,0.294572,0.282024,0.268616,,,,,,,0.079554,-0.014076,-0.174746,0.00333,-0.000151,-0.000234
225237,0.078841,-0.020811,-0.275216,0.087266,-0.0,-0.0,2.0,0.282024,0.294872,0.282024,0.268273,,,,,,,0.079566,-0.014079,-0.17475,0.000982,-0.00015,-0.000234
225257,0.078961,-0.020794,-0.275212,0.087266,-0.0,-0.0,2.0,0.282024,0.294396,0.282024,0.268817,,,,,,,0.079571,-0.014082,-0.174755,-0.000982,-0.00015,-0.000228
225277,0.078961,-0.020794,-0.275212,0.087266,-0.0,-0.0,2.0,0.282024,0.29512,0.282024,0.267989,,,,,,,0.079692,-0.014085,-0.17476,-0.024067,-0.00015,-0.000233
225297,0.078961,-0.020794,-0.275212,0.087266,-0.0,-0.0,2.0,0.282024,0.294492,0.282024,0.268708,,,,,,,0.079692,-0.014088,-0.174764,-0.0,-0.000148,-0.000232
225317,0.078841,-0.020811,-0.275216,0.087266,-0.0,-0.0,2.0,0.282024,0.292429,0.282024,0.271036,,,,,,,0.079572,-0.01409,-0.174769,-9.9e-05,-0.000149,-0.000232
225337,0.078841,-0.020811,-0.275216,0.087266,-0.0,-0.0,2.0,0.282024,0.293887,0.282024,0.269396,,,,,,,0.079571,-0.014093,-0.174774,-0.000982,-0.000149,-0.000226
225357,0.078715,-0.020827,-0.275171,0.087266,-0.0,-0.0,2.0,0.282024,0.293912,0.282024,0.269368,,,,,,,0.079571,-0.014096,-0.174778,-0.00333,-0.000136,-0.000231
225377,0.078715,-0.020827,-0.275171,0.087266,-0.0,-0.0,2.0,0.282024,0.293115,0.282024,0.270268,,,,,,,0.079429,-0.014099,-0.174783,0.004296,-0.00015,-0.000231
225397,0.078841,-0.020811,-0.275216,0.087266,-0.0,-0.0,2.0,0.282024,0.293691,0.282024,0.269618,,,,,,,0.07945,-0.014102,-0.174787,4e-06,-0.00015,-0.00023
225417,0.078961,-0.020794,-0.275212,0.087266,-0.0,-0.0,2.0,0.282024,0.294458,0.282024,0.268746,,,,,,,0.079571,-0.014105,-0.174792,-1e-06,-0.000148,-0.000229
225437,0.078961,-0.020794,-0.275212,0.087266,-0.0,-0.0,2.0,0.282024,0.294047,0.282024,0.269215,,,,,,,0.079692,-0.014108,-0.174796,-0.0,-0.000146,-0.000228
225457,0.079066,-0.020656,-0.275212,0.087266,-0.0,-0.0,2.0,0.282024,0.295226,0.282024,0.267867,,,,,,,0.079812,-0.014111,-0.174801,9.9e-05,-0.000144,-0.000228
225477,0.078945,-0.020673,-0.275216,0.087266,-0.0,-0.0,2.0,0.282024,0.292184,0.282024,0.271309,,,,,,,0.079676,-0.014114,-0.174806,0.00323,-0.000145,-0.000228
225497,0.078841,-0.020811,-0.275216,0.087266,-0.0,-0.0,2.0,0.282024,0.291393,0.282024,0.272185,,,,,,,0.079555,-0.014117,-0.17481,-9.9e-05,-0.000134,-0.000228
225517,0.078703,-0.020707,-0.275225,0.087266,-0.0,-0.0,2.0,0.282024,0.293146,0.282024,0.270232,,,,,,,0.079571,-0.014119,-0.174815,-0.00333,-0.000134,-0.000228
225537,0.078819,-0.02069,-0.275171,0.087266,-0.0,-0.0,2.0,0.282024,0.292572,0.282024,0.270876,,,,,,,0.079433,-0.014122,-0.174819,0.00333,-0.000148,-0.000227
225557,0.078841,-0.020811,-0.275216,0.087266,-0.0,-0.0,2.0,0.282024,0.293956,0.282024,0.269317,,,,,,,0.079571,-0.014125,-0.174824,1.7e-05,-0.000146,-0.000226
225577,0.078945,-0.020673,-0.275216,0.087266,-0.0,-0.0,2.0,0.282024,0.294421,0.282024,0.268789,,,,,,,0.079675,-0.014128,-0.174828,0.003416,-0.000144,-0.000225
225597,0.079066,-0.020656,-0.275212,0.087266,-0.0,-0.0,2.0,0.282024,0.292827,0.282024,0.270591,,,,,,,0.079675,-0.014131,-0.174833,0.0,-0.000131,-0.000225
225617,0.079066,-0.020656,-0.275212,0.087266,-0.0,-0.0,2.0,0.282024,0.293433,0.282024,0.269909,,,,,,,0.079813,-0.014133,-0.174837,-0.003316,-0.000129,-0.000224
225637,0.078945,-0.020673,-0.275216,0.087266,-0.0,-0.0,2.0,0.282024,0.292699,0.282024,0.270734,,,,,,,0.079796,-0.014136,-0.174842,0.0,-0.000129,-0.000224
225657,0.078945,-0.020673,-0.275216,0.087266,-0.0,-0.0,2.0,0.282024,0.291696,0.282024,0.271849,,,,,,,0.079675,-0.014138,-0.174846,1e-06,-0.000131,-0.000224
225677,0.078824,-0.02069,-0.275221,0.087266,-0.0,-0.0,2.0,0.282024,0.29071,0.282024,0.272935,,,,,,,0.079555,-0.014141,-0.174851,0.023967,-0.00013,-0.000224
225697,0.078945,-0.020673,-0.275216,0.087266,-0.0,-0.0,2.0,0.282024,0.293663,0.282024,0.26965,,,,,,,0.079675,-0.014144,-0.174855,-0.023967,-0.000132,-0.000224
225717,0.079066,-0.020656,-0.275212,0.087266,-0.0,-0.0,2.0,0.282024,0.292984,0.282024,0.270414,,,,,,,0.079675,-0.014146,-0.17486,-1e-06,-0.00013,-0.000223
225737,0.079066,-0.020651,-0.275328,0.087266,-0.0,-0.0,2.0,0.282024,0.292691,0.282024,0.270743,,,,,,,0.079796,-0.014149,-0.174864,-0.0,-0.000128,-0.000222
225757,0.079186,-0.020639,-0.275208,0.087266,-0.0,-0.0,2.0,0.282024,0.293882,0.282024,0.269401,,,,,,,0.079916,-0.014151,-0.174869,9.9e-05,-0.000126,-0.000221
225777,0.079066,-0.020656,-0.275212,0.087266,-0.0,-0.0,2.0,0.282024,0.292207,0.282024,0.271283,,,,,,,0.079917,-0.014154,-0.174873,0.0,-0.000125,-0.000232
225797,0.079049,-0.020531,-0.275333,0.087266,-0.0,-0.0,2.0,0.282024,0.291103,0.282024,0.272504,,,,,,,0.079796,-0.014156,-0.174877,1e-06,-0.000127,-0.00022
225817,0.078945,-0.020673,-0.275216,0.087266,-0.0,-0.0,2.0,0.282024,0.29163,0.282024,0.271923,,,,,,,0.079779,-0.014159,-0.174882,-0.020737,-0.000129,-0.00022
225837,0.078929,-0.020547,-0.275337,0.087266,-0.0,-0.0,2.0,0.282024,0.29152,0.282024,0.272044,,,,,,,0.079676,-0.014161,-0.174886,-0.003331,-0.000116,-0.000232
225857,0.078929,-0.020547,-0.275337,0.087266,-0.0,-0.0,2.0,0.282024,0.291799,0.282024,0.271736,,,,,,,0.079675,-0.014164,-0.174891,-0.0032,-0.000115,-0.000232
225877,0.079049,-0.020531,-0.275333,0.087266,-0.0,-0.0,2.0,0.282024,0.291553,0.282024,0.272007,,,,,,,0.079659,-0.014166,-0.174896,0.024065,-0.000114,-0.000231
225897,0.07917,-0.020514,-0.275328,0.087266,-0.0,-0.0,2.0,0.282024,0.29169,0.282024,0.271857,,,,,,,0.07978,-0.014168,-0.1749,-0.0,-0.000113,-0.00023
225917,0.07917,-0.020514,-0.275328,0.087266,-0.0,-0.0,2.0,0.282024,0.291876,0.282024,0.27165,,,,,,,0.079901,-0.014171,-0.174905,-0.0,-0.000111,-0.000229
225937,0.079049,-0.020531,-0.275333,0.087266,-0.0,-0.0,2.0,0.282024,0.291374,0.282024,0.272206,,,,,,,0.079901,-0.014173,-0.174909,-0.0,-0.000111,-0.000229
225957,0.078912,-0.020427,-0.275342,0.087266,-0.0,-0.0,2.0,0.282024,0.290544,0.282024,0.273117,,,,,,,0.079763,-0.014175,-0.174914,0.003318,-0.000113,-0.000229
225977,0.078808,-0.020564,-0.275341,0.087266,-0.0,-0.0,2.0,0.282024,0.290737,0.282024,0.272906,,,,,,,0.079659,-0.014177,-0.174919,1.4e-05,-0.000114,-0.000229
225997,0.078808,-0.020564,-0.275341,0.087266,-0.0,-0.0,2.0,0.282024,0.291835,0.282024,0.271696,,,,,,,0.079658,-0.014179,-0.174923,-0.003232,-0.000102,-0.000229
226017,0.079033,-0.02041,-0.275337,0.087266,-0.0,-0.0,2.0,0.282024,0.292218,0.282024,0.27127,,,,,,,0.079658,-0.014182,-0.174928,9.9e-05,-0.000114,-0.000228
226037,0.07917,-0.020514,-0.275328,0.087266,-0.0,-0.0,2.0,0.282024,0.29194,0.282024,0.27158,,,,,,,0.07978,-0.014184,-0.174932,1.3e-05,-0.000112,-0.000227
226057,0.079308,-0.020618,-0.27532,0.087266,-0.0,-0.0,2.0,0.282024,0.291335,0.282024,0.272249,,,,,,,0.079901,-0.014186,-0.174937,0.024065,-0.000108,-0.000226
226077,0.079412,-0.020475,-0.275436,0.087266,-0.0,-0.0,2.0,0.282024,0.291053,0.282024,0.27256,,,,,,,0.080038,-0.014188,-0.174941,-0.003332,-0.000108,-0.000225
226097,0.079291,-0.020497,-0.275324,0.087266,-0.0,-0.0,2.0,0.282024,0.289373,0.282024,0.274389,,,,,,,0.080022,-0.014191,-0.174946,-0.0001,-0.000108,-0.000225
226117,0.079033,-0.020405,-0.275454,0.087266,-0.0,-0.0,2.0,0.282024,0.288734,0.282024,0.275077,,,,,,,0.079901,-0.014193,-0.17495,1.6e-05,-0.000109,-0.000236
226137,0.078912,-0.020422,-0.275458,0.087266,-0.0,-0.0,2.0,0.282024,0.289701,0.282024,0.274034,,,,,,,0.079763,-0.014195,-0.174955,-0.0,-9.9e-05,-0.000225
226157,0.078895,-0.020306,-0.275346,0.087266,-0.0,-0.0,2.0,0.282024,0.289327,0.282024,0.274438,,,,,,,0.079643,-0.014197,-0.17496,1e-06,-0.0001,-0.000237
226177,0.079137,-0.020267,-0.275454,0.087266,-0.0,-0.0,2.0,0.282024,0.291756,0.282024,0.271784,,,,,,,0.079746,-0.014199,-0.174964,0.003432,-9.8e-05,-0.000224
226197,0.079396,-0.020354,-0.275441,0.087266,-0.0,-0.0,2.0,0.282024,0.291233,0.282024,0.272361,,,,,,,0.079884,-0.0142,-0.174969,0.000126,-9.6e-05,-0.000235
226217,0.079533,-0.020458,-0.275432,0.087266,-0.0,-0.0,2.0,0.282024,0.291502,0.282024,0.272065,,,,,,,0.080126,-0.014202,-0.174973,-1e-06,-9.2e-05,-0.000234
226237,0.079533,-0.020458,-0.275432,0.087266,-0.0,-0.0,2.0,0.282024,0.291179,0.282024,0.27242,,,,,,,0.080264,-0.014204,-0.174978,-1e-06,-0.000102,-0.000232
226257,0.079412,-0.020475,-0.275436,0.087266,-0.0,-0.0,2.0,0.282024,0.290101,0.282024,0.273601,,,,,,,0.080264,-0.014206,-0.174983,0.0,-0.000102,-0.000232
226277,0.079171,-0.020509,-0.275445,0.087266,-0.0,-0.0,2.0,0.282024,0.287705,0.282024,0.276174,,,,,,,0.080023,-0.014208,-0.174987,-9.9e-05,-0.000105,-0.000232
226297,0.079033,-0.020405,-0.275454,0.087266,-0.0,-0.0,2.0,0.282024,0.288841,0.282024,0.274962,,,,,,,0.079885,-0.01421,-0.174992,-0.024079,-9.7e-05,-0.000233
226317,0.079033,-0.020405,-0.275454,0.087266,-0.0,-0.0,2.0,0.282024,0.287562,0.282024,0.276325,,,,,,,0.079643,-0.014212,-0.174997,0.020633,-8.4e-05,-0.000233
226337,0.079154,-0.020388,-0.275449,0.087266,-0.0,-0.0,2.0,0.282024,0.289576,0.282024,0.27417,,,,,,,0.079764,-0.014214,-0.175001,-0.0,-9.6e-05,-0.000232
226357,0.079412,-0.020475,-0.275436,0.087266,-0.0,-0.0,2.0,0.282024,0.291604,0.282024,0.271952,,,,,,,0.080005,-0.014216,-0.175006,0.003431,-0.000105,-0.00023
226377,0.079671,-0.020562,-0.275423,0.087266,-0.0,-0.0,2.0,0.282024,0.290079,0.282024,0.273623,,,,,,,0.080143,-0.014218,-0.175011,0.024063,-0.000101,-0.000229
226397,0.079671,-0.020562,-0.275423,0.087266,-0.0,-0.0,2.0,0.282024,0.290626,0.282024,0.273028,,,,,,,0.080401,-0.01422,-0.175015,-1e-06,-0.000111,-0.000228
226417,0.07955,-0.020579,-0.275427,0.087266,-0.0,-0.0,2.0,0.282024,0.287732,0.282024,0.276145,,,,,,,0.080281,-0.014223,-0.17502,0.023966,-0.000111,-0.000227
226437,0.079292,-0.020492,-0.27544,0.087266,-0.0,-0.0,2.0,0.282024,0.286906,0.282024,0.277018,,,,,,,0.080143,-0.014225,-0.175024,0.00322,-0.000114,-0.000228
226457,0.07905,-0.020526,-0.275449,0.087266,-0.0,-0.0,2.0,0.282024,0.286594,0.282024,0.277345,,,,,,,0.079902,-0.014227,-0.175029,-9.9e-05,-0.000105,-0.000229
226477,0.079171,-0.020509,-0.275445,0.087266,-0.0,-0.0,2.0,0.282024,0.287874,0.282024,0.275995,,,,,,,0.07978,-0.014229,-0.175033,0.024067,-0.000105,-0.000228
226497,0.079412,-0.020475,-0.275436,0.087266,-0.0,-0.0,2.0,0.282024,0.288955,0.282024,0.274839,,,,,,,0.079901,-0.014231,-0.175038,0.003332,-0.000117,-0.000227
