time_ms,roll,pitch,yaw,roll_rate,pitch_rate,yaw_rate,reference_roll,reference_pitch,reference_yaw,reference_throttle,throttle_1,throttle_2,throttle_3,throttle_4,roll_predicted,pitch_predicted,yaw_predicted,roll_rate_predicted,pitch_rate_predicted,yaw_rate_predicted
18839,-0.004786,-0.021957,-0.042307,-0.001041,-5e-06,-0.001064,-0.0,-0.0,-0.0,2.0,0.282024,0.282756,0.282024,0.28129,-0.0,-96.210154,-0.0,0.0,-7.22184,-0.0
18859,-0.004908,-0.02196,-0.042308,-0.001064,-0.001064,5e-06,-0.0,-0.0,-0.0,2.0,0.282024,0.282649,0.282024,0.281397,-0.0,-96.505063,-0.0,0.0,-7.611212,-0.0
18879,-0.005155,-0.021843,-0.04231,-0.001041,-0.00107,-0.001059,0.00198,-0.0,-0.0,2.0,0.282024,0.281708,0.282024,0.28234,6e-06,-96.814449,-0.0,0.00121,-7.919901,1e-06
18899,-0.005402,-0.021726,-0.042312,-0.001041,-0.00107,-0.001059,0.003983,-0.0,-0.0,2.0,0.282024,0.280777,0.282024,0.283263,8.3e-05,-97.134571,1e-05,0.003939,-8.115076,1e-05
18919,-0.005281,-0.021602,-0.042433,-0.0,-0.001064,6e-06,0.00747,-0.0,-0.0,2.0,0.282024,0.279162,0.282024,0.284845,0.000285,-97.460504,5.7e-05,0.008186,-8.173815,3.5e-05
18939,-0.005282,-0.021602,-0.042311,2.3e-05,-6e-06,-0.001064,0.010911,-0.0,-0.0,2.0,0.282024,0.280099,0.282024,0.28393,0.000714,-97.786621,0.000197,0.013675,-8.088463,8.3e-05
18959,-0.004917,-0.021472,-0.042429,0.0,0.0,0.0,0.015644,-0.0,-0.0,2.0,0.282024,0.278038,0.282024,0.285931,0.001528,-98.107252,0.00056,0.020235,-7.868767,0.000157
18979,-0.004546,-0.021708,-0.042425,-0.0,-0.001064,5e-06,0.020108,-0.0,-0.0,2.0,0.282024,0.276066,0.282024,0.287806,0.00316,-98.417358,0.001522,0.027288,-7.539794,0.00026
18999,-0.004421,-0.021828,-0.042424,2.3e-05,-5e-06,-0.001064,0.022229,-0.0,-0.0,2.0,0.282024,0.275095,0.282024,0.288716,0.007352,-98.71307,0.004813,0.031776,-7.136463,0.000387
19019,-0.004298,-0.021826,-0.042545,0.0,0.0,0.0,0.02578,-0.0,-0.0,2.0,0.282024,0.273293,0.282024,0.290383,0.066973,-98.991959,0.063382,0.027157,-6.696848,0.000516
19039,-0.004172,-0.021945,-0.042666,-0.0,-0.001064,4e-06,0.029267,-0.0,-0.0,2.0,0.282024,0.269018,0.282024,0.29422,-0.009991,-99.252825,-0.014457,0.060117,-6.256447,0.000638
19059,-0.004294,-0.021948,-0.042667,-0.001064,-0.001064,5e-06,0.033498,-0.0,-0.0,2.0,0.282024,0.266774,0.282024,0.296171,-0.002814,-99.496772,-0.009596,0.072344,-5.844694,0.000873
19079,-0.004297,-0.021826,-0.042667,-0.0,-0.001064,5e-06,0.036345,-0.0,-0.0,2.0,0.282024,0.265004,0.282024,0.297681,0.000716,-99.724959,-0.008934,0.07786,-5.483795,0.001122
19099,-0.004175,-0.021823,-0.042666,2.3e-05,-0.001069,-0.00106,0.03859,-0.0,-0.0,2.0,0.282024,0.266176,0.282024,0.296684,0.003605,-99.939666,-0.009377,0.081967,-5.189118,0.001373
19119,-0.003932,-0.021696,-0.042785,-0.0,-0.001064,4e-06,0.042819,-0.0,-0.0,2.0,0.282024,0.263777,0.282024,0.298712,0.006447,-100.1437,-0.010397,0.086976,-4.970454,0.001623
19139,-0.003441,-0.021808,-0.04278,0.001087,-4e-06,-0.001064,0.04503,-0.0,-0.0,2.0,0.282024,0.262355,0.282024,0.299893,0.009551,-100.340197,-0.01189,0.092236,-4.833457,0.00188
19159,-0.002827,-0.021917,-0.042895,0.001064,0.0,0.0,0.04826,-0.0,-0.0,2.0,0.282024,0.263112,0.282024,0.299266,0.013074,-100.53247,-0.013909,0.09703,-4.780879,0.002145
19179,-0.001971,-0.021899,-0.043008,0.002128,0.0,0.0,0.051424,-0.0,-0.0,2.0,0.282024,0.261471,0.282024,0.300618,0.017228,-100.723909,-0.016621,0.101624,-4.813405,0.002423
19199,-0.000628,-0.02187,-0.043116,0.002128,-0.001064,1e-06,0.05439,-0.0,-0.0,2.0,0.282024,0.262442,0.282024,0.299821,0.022341,-100.917901,-0.02036,0.105168,-4.930028,0.002716
19219,0.000841,-0.02196,-0.043222,0.003216,-0.001063,-0.001065,0.055818,-0.0,-0.0,2.0,0.282024,0.264326,0.282024,0.298252,0.029002,-101.117765,-0.025773,0.105832,-5.127958,0.003027
19239,0.002915,-0.021793,-0.043443,0.004257,-0.001064,-3e-06,0.059808,-0.0,-0.0,2.0,0.282024,0.262596,0.282024,0.299694,0.038469,-101.326663,-0.034249,0.103578,-5.402074,0.003349
19259,0.005115,-0.021744,-0.043662,0.004257,0.0,0.0,0.062216,-0.0,-0.0,2.0,0.282024,0.26429,0.282024,0.298283,0.054237,-101.547473,-0.049377,0.095535,-5.74398,0.003678
19279,0.007679,-0.021689,-0.043764,0.006386,-0.001064,-8e-06,0.064154,-0.0,-0.0,2.0,0.282024,0.263748,0.282024,0.298736,0.08912,-101.782544,-0.084244,0.07205,-6.140761,0.003984
19299,0.010608,-0.021501,-0.043975,0.00745,-0.001064,-1.1e-05,0.065499,-0.0,-0.0,2.0,0.282024,0.268745,0.282024,0.294459,0.257837,-102.032487,-0.254207,-0.006751,-6.573726,0.004172
19319,0.014154,-0.021542,-0.0443,0.00745,0.0,0.0,0.06852,-0.0,-0.0,2.0,0.282024,0.270654,0.282024,0.29277,6.292498,-102.290615,-6.300039,-1.45095,-7.017432,-0.078042
19339,0.018187,-0.02157,-0.044618,0.008491,-1.9e-05,0.001064,0.070929,-0.0,-0.0,2.0,0.282024,0.270478,0.282024,0.292927,6.197542,-102.577606,-6.299763,-3.801176,-7.419433,-0.246375
19359,0.022587,-0.021592,-0.044816,0.009555,-2.4e-05,0.001064,0.073002,-0.0,-0.0,2.0,0.282024,0.273092,0.282024,0.290567,6.054385,-102.877844,-6.349422,-5.858959,-7.696498,-0.425118
19379,0.027231,-0.021603,-0.045124,0.010642,0.0,0.0,0.075039,-0.0,-0.0,2.0,0.282024,0.275958,0.282024,0.287908,5.850008,-103.179186,-6.44244,-7.61232,-7.770132,-0.611669
19399,0.032611,-0.021718,-0.045428,0.011707,-0.001064,-3.5e-05,0.076233,-0.0,-0.0,2.0,0.282024,0.279303,0.282024,0.284708,5.57851,-103.458892,-6.585209,-8.781865,-7.590395,-0.783632
19419,0.038234,-0.021701,-0.045849,0.011683,-4.1e-05,0.001064,0.078213,-0.0,-0.0,2.0,0.282024,0.28257,0.282024,0.281477,5.239365,-103.684947,-6.782347,-9.42895,-7.163769,-0.93717
19439,0.044098,-0.021681,-0.046022,0.012748,-4.7e-05,0.001063,0.079025,-0.0,-0.0,2.0,0.282024,0.284006,0.282024,0.280022,4.839181,-103.824837,-7.024683,-9.703003,-6.535621,-1.073762
19459,0.050326,-0.021528,-0.04619,0.013836,-0.001063,-5.4e-05,0.08047,-0.0,-0.0,2.0,0.282024,0.287638,0.282024,0.276244,4.406082,-103.861685,-7.278594,-9.734421,-5.772062,-1.193978
19479,0.05681,-0.021602,-0.04672,0.013836,-0.001063,-6e-05,0.082229,-0.0,-0.0,2.0,0.282024,0.291233,0.282024,0.272361,3.979466,-103.808486,-7.498361,-9.638009,-4.940058,-1.298709
19499,0.063526,-0.021428,-0.046999,0.013812,-6.8e-05,0.001062,0.083511,-0.0,-0.0,2.0,0.282024,0.29301,0.282024,0.270385,3.579845,-103.700486,-7.657502,-9.501919,-4.091052,-1.389341
19519,0.070369,-0.021376,-0.047156,0.014878,-0.001136,0.000987,0.084026,-0.0,-0.0,2.0,0.282024,0.295023,0.282024,0.268101,3.203137,-103.573468,-7.756318,-9.371358,-3.254688,-1.466929
19539,0.077089,-0.021198,-0.047438,0.013859,-0.000979,-0.001143,0.084943,-0.0,-0.0,2.0,0.282024,0.299152,0.282024,0.263249,2.837258,-103.451839,-7.808052,-9.248225,-2.442899,-1.531753
19559,0.083937,-0.02101,-0.047846,0.013835,0.0,0.0,0.085709,-0.0,-0.0,2.0,0.282024,0.299134,0.282024,0.263271,2.474556,-103.347797,-7.828953,-9.106567,-1.658691,-1.583698
19579,0.090786,-0.021193,-0.047983,0.013815,-0.001156,0.000964,0.086067,-0.0,-0.0,2.0,0.282024,0.301428,0.282024,0.260477,2.115007,-103.263405,-7.834817,-8.911007,-0.904134,-1.622906
19599,0.097513,-0.021135,-0.048138,0.013813,-0.000104,0.001059,0.08666,-0.0,-0.0,2.0,0.282024,0.303647,0.282024,0.257701,1.764015,-103.192996,-7.838445,-8.630644,-0.18528,-1.650233
19619,0.103875,-0.021078,-0.048418,0.012771,0.0,0.0,0.087096,-0.0,-0.0,2.0,0.282024,0.305914,0.282024,0.254787,1.428199,-103.12661,-7.846673,-8.248057,0.486326,-1.667393
19639,0.110111,-0.021149,-0.04856,0.012771,0.0,0.0,0.087232,-0.0,-0.0,2.0,0.282024,0.306166,0.282024,0.254459,1.111854,-103.05426,-7.858858,-7.762824,1.095095,-1.676793
19659,0.115991,-0.02135,-0.048707,0.011706,0.0,0.0,0.087264,-0.0,-0.0,2.0,0.282024,0.308511,0.282024,0.251349,0.815027,-102.969518,-7.867752,-7.189627,1.624661,-1.681104
19679,0.121502,-0.021445,-0.048742,0.010642,0.0,0.0,0.087189,-0.0,-0.0,2.0,0.282024,0.308664,0.282024,0.251144,0.532376,-102.87124,-7.86131,-6.552705,2.061512,-1.682766
19699,0.126647,-0.021548,-0.048781,0.009578,0.0,0.0,0.086793,-0.0,-0.0,2.0,0.282024,0.308983,0.282024,0.250713,0.251789,-102.763607,-7.823346,-5.878072,2.397663,-1.683513
19719,0.131422,-0.021781,-0.048808,0.009601,0.000139,-0.001055,0.086581,-0.0,-0.0,2.0,0.282024,0.309133,0.282024,0.250509,-0.047471,-102.655681,-7.732114,-5.184742,2.631461,-1.683945
19739,0.135837,-0.021902,-0.048856,0.008514,0.0,0.0,0.086045,-0.0,-0.0,2.0,0.282024,0.309235,0.282024,0.250372,-0.394622,-102.561722,-7.559558,-4.477491,2.766276,-1.683227
19759,0.139759,-0.022165,-0.048772,0.00745,0.0,0.0,0.085238,-0.0,-0.0,2.0,0.282024,0.309442,0.282024,0.25009,-0.811616,-102.501706,-7.285561,-3.744867,2.807773,-1.679099
19779,0.143309,-0.022194,-0.048711,0.006409,0.000152,-0.001054,0.085238,-0.0,-0.0,2.0,0.282024,0.311258,0.282024,0.247588,-1.261227,-102.495297,-6.947999,-2.914824,2.760092,-1.673431
19799,0.146378,-0.022479,-0.048641,0.005348,-0.000898,-0.001208,0.084066,-0.0,-0.0,2.0,0.282024,0.311347,0.282024,0.247464,-1.636059,-102.543635,-6.652085,-2.01866,2.622729,-1.669308
19819,0.148946,-0.022532,-0.048589,0.005325,-0.001052,-0.000158,0.082474,-0.0,-0.0,2.0,0.282024,0.311491,0.282024,0.247263,-1.880571,-102.625966,-6.454383,-1.207157,2.404865,-1.666749
19839,0.15116,-0.022719,-0.048543,0.003196,-0.001052,-0.00016,0.081643,-0.0,-0.0,2.0,0.282024,0.311213,0.282024,0.24765,-2.018549,-102.721131,-6.336774,-0.564919,2.127433,-1.66545
19859,0.152872,-0.022683,-0.048395,0.002156,-0.00089,-0.001214,0.079798,-0.0,-0.0,2.0,0.282024,0.311222,0.282024,0.247638,-2.087184,-102.817195,-6.269341,-0.092836,1.813896,-1.664999
19879,0.154223,-0.022769,-0.048366,0.002156,-0.000888,-0.001215,0.078232,-0.0,-0.0,2.0,0.282024,0.310925,0.282024,0.248051,-2.112381,-102.908781,-6.232715,0.244356,1.483708,-1.665036
19899,0.154956,-0.022871,-0.048342,0.001068,-0.001051,-0.000164,0.076527,-0.0,-0.0,2.0,0.282024,0.310625,0.282024,0.248466,-2.109811,-102.993878,-6.216263,0.485053,1.150567,-1.665305
19919,0.155444,-0.022989,-0.048201,2.4e-05,0.000165,-0.001052,0.07461,-0.0,-0.0,2.0,0.282024,0.310344,0.282024,0.248855,-2.088918,-103.072145,-6.214223,0.658852,0.823321,-1.665637
19939,0.155563,-0.022864,-0.048207,-0.001064,0.0,0.0,0.073638,-0.0,-0.0,2.0,0.282024,0.30951,0.282024,0.249998,-2.055613,-103.144093,-6.22337,0.786985,0.507426,-1.665929
19959,0.155201,-0.022996,-0.048206,-0.002104,0.000165,-0.001052,0.072437,-0.0,-0.0,2.0,0.282024,0.310684,0.282024,0.248386,-2.013764,-103.210666,-6.241786,0.883233,0.206107,-1.666118
19979,0.154712,-0.022878,-0.048347,-0.002125,-0.001052,-0.000164,0.070327,-0.0,-0.0,2.0,0.282024,0.310094,0.282024,0.249199,-1.966094,-103.273021,-6.268225,0.955621,-0.078587,-1.66617
19999,0.153973,-0.022897,-0.048353,-0.002125,-0.001052,-0.000163,0.068006,-0.0,-0.0,2.0,0.282024,0.311474,0.282024,0.247287,-1.914679,-103.332393,-6.301771,1.009868,-0.345132,-1.666066
20019,0.153122,-0.02291,-0.048493,-0.002125,-0.001052,-0.000162,0.064943,-0.0,-0.0,2.0,0.282024,0.313155,0.282024,0.24491,-1.861173,-103.390006,-6.341653,1.050162,-0.59225,-1.6658
20039,0.152381,-0.022798,-0.04863,-0.002125,-0.001052,-0.000162,0.061685,-0.0,-0.0,2.0,0.282024,0.314917,0.282024,0.242362,-1.806963,-103.447004,-6.387145,1.079812,-0.81868,-1.665376
20059,0.151655,-0.02293,-0.048758,-0.002125,-0.001052,-0.000161,0.060163,-0.0,-0.0,2.0,0.282024,0.316058,0.282024,0.240679,-1.753217,-103.504403,-6.437517,1.102977,-1.023152,-1.664801
20079,0.150923,-0.022819,-0.048904,-0.002125,-0.001052,-0.00016,0.057279,-0.0,-0.0,2.0,0.282024,0.317745,0.282024,0.23814,-1.700868,-103.56305,-6.492028,1.121689,-1.204497,-1.664087
20099,0.150307,-0.022826,-0.049029,-0.002125,-0.001052,-0.000159,0.05436,-0.0,-0.0,2.0,0.282024,0.319411,0.282024,0.235573,-1.65074,-103.6236,-6.549928,1.137114,-1.36137,-1.663247
20119,0.149456,-0.02284,-0.049168,-0.002125,-0.001052,-0.000159,0.051317,-0.0,-0.0,2.0,0.282024,0.32113,0.282024,0.232856,-1.603498,-103.686503,-6.610467,1.151295,-1.492433,-1.662297
20139,0.14835,-0.022738,-0.049313,-0.003165,-0.000895,-0.00121,0.051317,-0.0,-0.0,2.0,0.282024,0.32181,0.282024,0.231761,-1.559611,-103.752001,-6.672917,1.167817,-1.596504,-1.661254
20159,0.147492,-0.022518,-0.049348,-0.003189,-0.001053,-0.000156,0.045484,-0.0,-0.0,2.0,0.282024,0.32436,0.282024,0.227554,-1.51928,-103.820148,-6.736578,1.18502,-1.67282,-1.660129
20179,0.146142,-0.022432,-0.049376,-0.00423,-0.000898,-0.001208,0.042858,-0.0,-0.0,2.0,0.282024,0.323922,0.282024,0.228289,-1.482715,-103.890828,-6.800779,1.203673,-1.720354,-1.658942
20199,0.144544,-0.022239,-0.049295,-0.00423,-0.0009,-0.001207,0.04117,-0.0,-0.0,2.0,0.282024,0.323062,0.282024,0.229716,-1.449793,-103.963786,-6.864872,1.227524,-1.738776,-1.657709
20219,0.142463,-0.022173,-0.049336,-0.005318,-0.001053,-0.000151,0.037218,-0.0,-0.0,2.0,0.282024,0.324812,0.282024,0.226791,-1.420137,-104.038662,-6.928207,1.255122,-1.728267,-1.656444
20239,0.140128,-0.022121,-0.049251,-0.006382,-0.001054,-0.000149,0.033798,-0.0,-0.0,2.0,0.282024,0.32431,0.282024,0.227639,-1.39326,-104.115037,-6.990104,1.285652,-1.689156,-1.655165
20259,0.137306,-0.021951,-0.049306,-0.007423,-0.000909,-0.0012,0.030355,-0.0,-0.0,2.0,0.282024,0.323706,0.282024,0.228649,-1.368422,-104.192453,-7.049804,1.319316,-1.62222,-1.653893
20279,0.134006,-0.021926,-0.049247,-0.008488,-0.000912,-0.001197,0.026721,-0.0,-0.0,2.0,0.282024,0.323014,0.282024,0.229796,-1.344624,-104.270444,-7.106404,1.35503,-1.528608,-1.652647
20299,0.130082,-0.021906,-0.049303,-0.009552,-0.000917,-0.001194,0.024709,-0.0,-0.0,2.0,0.282024,0.319582,0.282024,0.235305,-1.320565,-104.348549,-7.158771,1.3922,-1.40974,-1.651451
20319,0.126662,-0.021875,-0.049367,-0.010642,0.0,0.0,0.020066,-0.0,-0.0,2.0,0.282024,0.318878,0.282024,0.236401,-1.294522,-104.426315,-7.205421,1.427306,-1.267321,-1.650328
20339,0.121885,-0.021885,-0.049314,-0.011681,-0.000927,-0.001186,0.017779,-0.0,-0.0,2.0,0.282024,0.317177,0.282024,0.239002,-1.264354,-104.503271,-7.24434,1.457632,-1.102862,-1.649306
20359,0.115156,-0.021825,-0.049303,-0.012745,-0.000935,-0.00118,0.013297,-0.0,-0.0,2.0,0.282024,0.315936,0.282024,0.24086,-1.227112,-104.578877,-7.272713,1.478917,-0.917981,-1.648413
20379,0.109037,-0.02174,-0.049398,-0.013809,-0.000942,-0.001174,0.010609,-0.0,-0.0,2.0,0.282024,0.313985,0.282024,0.243717,-1.178837,-104.652425,-7.28652,1.485645,-0.713863,-1.647678
20399,0.102551,-0.021677,-0.049253,-0.015938,-0.00095,-0.001168,0.006178,-0.0,-0.0,2.0,0.282024,0.314359,0.282024,0.243175,-1.113918,-104.722871,-7.279943,1.469937,-0.491375,-1.647127
20419,0.095698,-0.021494,-0.049238,-0.015938,-0.000958,-0.001161,0.002503,-0.0,-0.0,2.0,0.282024,0.312306,0.282024,0.246118,-1.024562,-104.788532,-7.244608,1.420659,-0.250498,-1.646782
20439,0.090071,-0.021406,-0.049081,-0.017003,-0.000964,-0.001156,-0.001282,-0.0,-0.0,2.0,0.282024,0.308006,0.282024,0.252027,-0.900397,-104.846603,-7.169136,1.323397,0.00982,-1.646654
20459,0.080284,-0.021057,-0.048991,-0.018068,-0.000975,-0.001146,-0.003986,-0.0,-0.0,2.0,0.282024,0.307267,0.282024,0.25301,-0.730388,-104.892483,-7.040846,1.159364,0.292167,-1.646737
20479,0.071844,-0.020918,-0.04874,-0.019132,-0.000985,-0.001138,-0.00691,-0.0,-0.0,2.0,0.282024,0.304193,0.282024,0.257007,-0.511411,-104.919367,-6.854208,0.909343,0.600901,-1.64699
20499,0.06304,-0.020659,-0.048622,-0.020197,-0.000995,-0.001129,-0.01037,-0.0,-0.0,2.0,0.282024,0.298975,0.282024,0.263462,-0.264528,-104.919582,-6.627598,0.605226,0.940745,-1.64995
20519,0.053987,-0.020406,-0.048368,-0.020197,-0.001005,-0.00112,-0.015107,-0.0,-0.0,2.0,0.282024,0.298337,0.282024,0.264225,-0.036138,-104.888702,-6.406501,0.283505,1.311172,-1.657534
20539,0.044698,-0.020278,-0.048116,-0.02124,-0.000968,-0.002174,-0.017081,-0.0,-0.0,2.0,0.282024,0.296454,0.282024,0.266445,0.134103,-104.828288,-6.230666,-0.029106,1.708379,-1.66826
20559,0.035044,-0.020155,-0.047869,-0.021241,-0.000989,-0.002165,-0.019796,-0.0,-0.0,2.0,0.282024,0.292486,0.282024,0.270972,0.239383,-104.743136,-6.108168,-0.298723,2.124438,-1.679894
20579,0.02539,-0.020025,-0.047727,-0.021263,2.7e-05,-0.001064,-0.023846,-0.0,-0.0,2.0,0.282024,0.29109,0.282024,0.272519,0.293686,-104.637475,-6.027281,-0.50534,2.547142,-1.690868
20599,0.015495,-0.020022,-0.047465,-0.022327,1.6e-05,-0.001064,-0.027472,-0.0,-0.0,2.0,0.282024,0.289271,0.282024,0.274499,0.313988,-104.514025,-5.973596,-0.644535,2.961336,-1.700516
20619,0.008042,-0.019958,-0.04718,-0.022306,1.7e-05,-0.002129,-0.030955,-0.0,-0.0,2.0,0.282024,0.28506,0.282024,0.278941,0.313563,-104.374637,-5.936131,-0.722307,3.350373,-1.708835
20639,-0.004659,-0.020135,-0.046699,-0.022306,-1e-05,-0.002129,-0.032662,-0.0,-0.0,2.0,0.282024,0.282324,0.282024,0.281724,0.301352,-104.221022,-5.90757,-0.749382,3.697428,-1.716162
20659,-0.012109,-0.020184,-0.046404,-0.022306,-2.6e-05,-0.002129,-0.032662,-0.0,-0.0,2.0,0.282024,0.278663,0.282024,0.285328,0.282882,-104.055183,-5.883182,-0.737537,3.986623,-1.722936
20679,-0.022128,-0.020165,-0.046013,-0.022306,-0.001111,-0.002105,-0.041006,-0.0,-0.0,2.0,0.282024,0.277363,0.282024,0.286577,0.255391,-103.834511,-5.853807,-0.689585,4.246251,-1.731568
20699,-0.032146,-0.020259,-0.045374,-0.022306,-6.8e-05,-0.002128,-0.042853,-0.0,-0.0,2.0,0.282024,0.274254,0.282024,0.289498,0.230921,-103.650942,-5.828294,-0.635449,4.360959,-1.738965
20719,-0.042164,-0.020345,-0.044728,-0.02122,-0.000135,-0.00319,-0.046894,-0.0,-0.0,2.0,0.282024,0.272954,0.282024,0.290693,0.210796,-103.51139,-5.8065,-0.590254,4.389273,-1.744898
20739,-0.054382,-0.020467,-0.04398,-0.021219,-0.000174,-0.003189,-0.048721,-0.0,-0.0,2.0,0.282024,0.272154,0.282024,0.291421,0.180073,-103.325758,-5.771746,-0.527129,4.349851,-1.753272
20759,-0.061595,-0.020481,-0.043434,-0.021242,-0.001193,-0.002059,-0.052074,-0.0,-0.0,2.0,0.282024,0.269549,0.282024,0.293752,0.141812,-103.144121,-5.727123,-0.462988,4.225994,-1.762002
20779,-0.071131,-0.020525,-0.042534,-0.020155,-0.000227,-0.003185,-0.05496,-0.0,-0.0,2.0,0.282024,0.266567,0.282024,0.296349,0.090504,-102.970434,-5.667138,-0.397507,4.02564,-1.770701
20799,-0.080304,-0.02044,-0.041874,-0.020179,-0.001232,-0.002037,-0.056372,-0.0,-0.0,2.0,0.282024,0.265547,0.282024,0.29722,0.017186,-102.808962,-5.582925,-0.325608,3.759366,-1.778631
20819,-0.089476,-0.020465,-0.041092,-0.020157,-0.001345,-0.003085,-0.058903,-0.0,-0.0,2.0,0.282024,0.262426,0.282024,0.299835,-0.092622,-102.66479,-5.459955,-0.237916,3.438525,-1.784705
20839,-0.098289,-0.020224,-0.04017,-0.019115,-0.001268,-0.002014,-0.061591,-0.0,-0.0,2.0,0.282024,0.259165,0.282024,0.302484,-0.26091,-102.544867,-5.275823,-0.118314,3.07339,-1.787275
20859,-0.106981,-0.020108,-0.039499,-0.019092,-0.000341,-0.003175,-0.063806,-0.0,-0.0,2.0,0.282024,0.258569,0.282024,0.302959,-0.511172,-102.459328,-5.005501,0.105003,2.670083,-1.787188
20879,-0.117378,-0.020238,-0.03848,-0.018049,-0.000249,-0.002114,-0.067127,-0.0,-0.0,2.0,0.282024,0.258269,0.282024,0.303197,-0.831011,-102.420122,-4.656156,0.504045,2.222821,-1.787537
20899,-0.123622,-0.020298,-0.037677,-0.018049,-0.000262,-0.002113,-0.069875,-0.0,-0.0,2.0,0.282024,0.255229,0.282024,0.305575,-1.128484,-102.430321,-4.313665,1.016531,1.72163,-1.78917
20919,-0.131335,-0.020492,-0.036771,-0.016963,-0.000418,-0.003166,-0.071137,-0.0,-0.0,2.0,0.282024,0.254113,0.282024,0.30643,-1.310764,-102.475295,-4.069247,1.486538,1.166991,-1.794217
20939,-0.138926,-0.020677,-0.035864,-0.015898,-0.000442,-0.003163,-0.073277,-0.0,-0.0,2.0,0.282024,0.253646,0.282024,0.306786,-1.373624,-102.536558,-3.930485,1.851506,0.571304,-1.799042
20959,-0.146031,-0.020845,-0.034955,-0.014855,-0.00031,-0.002106,-0.075212,-0.0,-0.0,2.0,0.282024,0.250226,0.282024,0.309342,-1.352138,-102.604446,-3.867557,2.087146,-0.048856,-1.800805
20979,-0.15278,-0.020617,-0.033773,-0.014834,-0.000486,-0.003156,-0.077107,-0.0,-0.0,2.0,0.282024,0.249755,0.282024,0.309687,-1.278226,-102.677208,-3.854576,2.169297,-0.674839,-1.800447
20999,-0.159281,-0.02062,-0.032606,-0.013773,-0.001557,-0.002984,-0.078966,-0.0,-0.0,2.0,0.282024,0.246429,0.282024,0.312085,-1.176342,-102.757211,-3.873589,2.117266,-1.285868,-1.799298
21019,-0.165297,-0.020487,-0.031427,-0.01271,-0.001575,-0.002975,-0.079871,-0.0,-0.0,2.0,0.282024,0.245628,0.282024,0.312652,-1.064362,-102.848012,-3.911418,1.980307,-1.864307,-1.797467
21039,-0.171068,-0.020465,-0.030256,-0.012706,-0.000544,-0.003147,-0.081647,-0.0,-0.0,2.0,0.282024,0.245353,0.282024,0.312845,-0.954746,-102.952559,-3.958174,1.796647,-2.39606,-1.795143
21059,-0.176478,-0.020298,-0.028951,-0.011639,0.000487,-0.003331,-0.082492,-0.0,-0.0,2.0,0.282024,0.244729,0.282024,0.313282,-0.855336,-103.07235,-4.006993,1.595637,-2.869253,-1.792536
21079,-0.181509,-0.020362,-0.02766,-0.010574,0.00047,-0.003333,-0.083813,-0.0,-0.0,2.0,0.282024,0.243465,0.282024,0.31416,-0.751026,-103.243258,-4.064915,1.398288,-3.273795,-1.789832
21099,-0.186306,-0.020539,-0.026385,-0.009492,-0.000789,-0.004184,-0.084765,-0.0,-0.0,2.0,0.282024,0.241035,0.282024,0.315818,-0.699703,-103.355984,-4.096651,1.218001,-3.601132,-1.787175
21119,-0.190481,-0.020835,-0.025238,-0.009517,-0.001649,-0.002934,-0.085587,-0.0,-0.0,2.0,0.282024,0.23984,0.282024,0.31662,-0.631574,-103.557528,-4.143931,1.027973,-3.891828,-1.784057
21139,-0.194419,-0.020857,-0.023823,-0.008448,-0.000617,-0.003133,-0.086082,-0.0,-0.0,2.0,0.282024,0.239521,0.282024,0.316833,-0.590592,-103.727677,-4.176931,0.907504,-4.024954,-1.78178
21159,-0.197858,-0.020989,-0.022415,-0.007362,-0.000837,-0.004175,-0.086485,-0.0,-0.0,2.0,0.282024,0.239405,0.282024,0.318339,-0.56628,-103.858354,-4.199087,0.835303,-4.066353,-1.780206
21179,-0.200827,-0.020871,-0.020985,-0.006298,-0.000849,-0.004172,-0.086987,-0.0,-0.0,2.0,0.282024,0.240162,0.282024,0.316405,-0.54053,-104.034032,-4.225317,0.759441,-4.04587,-1.778402
21199,-0.203659,-0.02088,-0.019684,-0.005256,-0.000646,-0.003127,-0.087164,-0.0,-0.0,2.0,0.282024,0.239355,0.282024,0.316943,-0.515838,-104.251508,-4.252439,0.68111,-3.906448,-1.777665
21219,-0.206129,-0.020748,-0.018248,-0.004192,-0.000653,-0.003126,-0.087266,-0.0,-0.0,2.0,0.282024,0.236371,0.282024,0.318897,-0.498858,-104.420257,-4.268412,0.632834,-3.713911,-1.778363
21239,-0.208101,-0.020609,-0.016806,-0.004197,-0.001701,-0.002905,-0.087242,-0.0,-0.0,2.0,0.282024,0.236638,0.282024,0.318725,-0.480002,-104.581606,-4.276673,0.597102,-3.461295,-1.779981
21259,-0.209722,-0.020454,-0.015244,-0.003107,-0.000886,-0.004164,-0.08705,-0.0,-0.0,2.0,0.282024,0.236916,0.282024,0.318545,-0.452314,-104.73339,-4.271682,0.570329,-3.160826,-1.782108
21279,-0.210966,-0.020416,-0.013689,-0.003103,0.000149,-0.004386,-0.086703,-0.0,-0.0,2.0,0.282024,0.234131,0.282024,0.320329,-0.401885,-104.873592,-4.240678,0.544489,-2.824328,-1.784022
21299,-0.211708,-0.020506,-0.012263,-0.00206,0.00037,-0.003346,-0.086471,-0.0,-0.0,2.0,0.282024,0.234788,0.282024,0.319912,-0.294505,-104.999597,-4.150136,0.502234,-2.461666,-1.784325
21319,-0.212222,-0.020475,-0.010825,-0.000974,0.000144,-0.004386,-0.086063,-0.0,-0.0,2.0,0.282024,0.235515,0.282024,0.319447,-0.02183,-105.105112,-3.89091,0.344642,-2.077129,-1.783697
21339,-0.212358,-0.020563,-0.009395,9e-05,0.000143,-0.004387,-0.085369,-0.0,-0.0,2.0,0.282024,0.236212,0.282024,0.319,0.782565,-105.164029,-3.089759,-0.147345,-1.656307,-1.786436
21359,-0.211996,-0.020649,-0.00796,8.6e-05,-0.000896,-0.004162,-0.083936,-0.0,-0.0,2.0,0.282024,0.233603,0.282024,0.320662,1.670646,-105.122093,-2.179985,-1.045677,-1.160565,-1.819205
21379,-0.211402,-0.02075,-0.006645,0.001124,-0.00171,-0.002899,-0.083343,-0.0,-0.0,2.0,0.282024,0.234725,0.282024,0.319952,1.78983,-105.043615,-2.003197,-1.925421,-0.558583,-1.862617
21399,-0.210799,-0.020473,-0.005168,0.001124,-0.001709,-0.0029,-0.081847,-0.0,-0.0,2.0,0.282024,0.229124,0.282024,0.323421,1.695418,-104.967473,-2.011384,-2.495673,0.130935,-1.895577
21419,-0.210209,-0.020307,-0.003584,0.001149,-0.000888,-0.004164,-0.080347,-0.0,-0.0,2.0,0.282024,0.229754,0.282024,0.32304,1.524151,-104.892201,-2.081081,-2.776433,0.87026,-1.916355
21439,-0.209481,-0.020288,-0.002253,0.001149,-0.000885,-0.004165,-0.079579,-0.0,-0.0,2.0,0.282024,0.227564,0.282024,0.324354,1.321246,-104.809998,-2.178561,-2.830664,1.623836,-1.926719
21459,-0.208888,-0.02027,-0.000924,0.001132,0.000379,-0.003345,-0.077986,-0.0,-0.0,2.0,0.282024,0.224863,0.282024,0.325938,1.116259,-104.712213,-2.282815,-2.720223,2.361126,-1.929168
21479,-0.208162,-0.02024,0.000528,0.001132,0.000381,-0.003344,-0.07681,-0.0,-0.0,2.0,0.282024,0.222885,0.282024,0.327073,0.974153,-104.624722,-2.355898,-2.563533,2.887626,-1.927498
21499,-0.207313,-0.020467,0.001835,0.002214,-0.000876,-0.004167,-0.074488,-0.0,-0.0,2.0,0.282024,0.222698,0.282024,0.327179,0.773957,-104.448479,-2.457306,-2.216355,3.686499,-1.921865
21519,-0.206222,-0.020575,0.003157,0.002188,-0.001695,-0.002908,-0.073139,-0.0,-0.0,2.0,0.282024,0.220297,0.282024,0.328524,0.649884,-104.280787,-2.518111,-1.913417,4.23238,-1.91711
21539,-0.205009,-0.020564,0.004494,0.002188,-0.001692,-0.00291,-0.070471,-0.0,-0.0,2.0,0.282024,0.217114,0.282024,0.33026,0.554568,-104.092441,-2.563112,-1.61826,4.678113,-1.913718
21559,-0.203554,-0.020421,0.005968,0.003252,-0.001688,-0.002912,-0.068798,-0.0,-0.0,2.0,0.282024,0.21465,0.282024,0.331567,0.482956,-103.887561,-2.595516,-1.343966,5.010512,-1.912987
21579,-0.201855,-0.020295,0.007324,0.003277,-0.000853,-0.004171,-0.066432,-0.0,-0.0,2.0,0.282024,0.215332,0.282024,0.331209,0.429784,-103.670864,-2.618088,-1.100894,5.220797,-1.91545
21599,-0.1999,-0.020172,0.008681,0.004324,0.000409,-0.003341,-0.063922,-0.0,-0.0,2.0,0.282024,0.216105,0.282024,0.330799,0.390069,-103.447304,-2.632614,-0.894145,5.306203,-1.921208
21619,-0.197581,-0.020055,0.010044,0.005388,0.000417,-0.00334,-0.061374,-0.0,-0.0,2.0,0.282024,0.21375,0.282024,0.332037,0.366208,-103.278096,-2.638614,-0.76373,5.290601,-1.927568
21639,-0.195032,-0.020065,0.011399,0.005388,0.000425,-0.003339,-0.058396,-0.0,-0.0,2.0,0.282024,0.214376,0.282024,0.331711,0.331083,-102.998962,-2.637978,-0.59098,5.126335,-1.9415
21659,-0.191972,-0.020214,0.012625,0.006453,0.000436,-0.003338,-0.058396,-0.0,-0.0,2.0,0.282024,0.217314,0.282024,0.330153,0.298816,-102.782979,-2.623293,-0.488155,4.889032,-1.954966
21679,-0.188682,-0.020237,0.01399,0.007513,-0.000599,-0.003137,-0.052815,-0.0,-0.0,2.0,0.282024,0.217081,0.282024,0.330278,0.247485,-102.577632,-2.583435,-0.404044,4.579128,-1.969308
21699,-0.184772,-0.020525,0.015217,0.008574,-0.001633,-0.002943,-0.051031,-0.0,-0.0,2.0,0.282024,0.21936,0.282024,0.329041,0.136222,-102.387165,-2.479252,-0.320304,4.2165,-1.982914
21719,-0.180495,-0.020467,0.016363,0.009617,-0.001429,-0.001903,-0.047041,-0.0,-0.0,2.0,0.282024,0.2207,0.282024,0.3283,-0.229119,-102.221987,-2.11728,-0.179525,3.817004,-1.991299
21739,-0.175723,-0.020529,0.017624,0.010678,-0.002468,-0.001724,-0.045454,-0.0,-0.0,2.0,0.282024,0.223638,0.282024,0.326643,-2.154338,-102.173545,-0.186998,0.526328,3.374476,-2.00066
21759,-0.170596,-0.020603,0.018894,0.011768,-0.001591,-0.002966,-0.041814,-0.0,-0.0,2.0,0.282024,0.222277,0.282024,0.327417,-2.462658,-102.319035,0.166142,1.945059,2.79475,-2.059952
21779,-0.164847,-0.020466,0.019946,0.012814,-0.000349,-0.0021,-0.038494,-0.0,-0.0,2.0,0.282024,0.224814,0.282024,0.325967,-2.377915,-102.450031,0.175344,2.909259,2.058539,-2.105721
21799,-0.158859,-0.020693,0.021094,0.013904,0.000546,-0.003322,-0.035133,-0.0,-0.0,2.0,0.282024,0.22739,0.282024,0.324458,-2.234563,-102.559934,0.15628,3.465899,1.227302,-2.135703
21819,-0.152138,-0.020824,0.022142,0.013882,0.000729,-0.002266,-0.031733,-0.0,-0.0,2.0,0.282024,0.230465,0.282024,0.322607,-2.056578,-102.651334,0.116805,3.725056,0.35158,-2.153129
21839,-0.144929,-0.020985,0.022953,0.016011,0.000746,-0.00226,-0.029278,-0.0,-0.0,2.0,0.282024,0.237234,0.282024,0.318338,-1.85482,-102.731097,0.055071,3.767335,-0.530989,-2.160673
21859,-0.13759,-0.021273,0.023754,0.017076,0.000762,-0.002255,-0.025291,-0.0,-0.0,2.0,0.282024,0.240169,0.282024,0.3164,-1.639606,-102.809243,-0.028281,3.651105,-1.391534,-2.160611
21879,-0.129408,-0.02158,0.024572,0.017076,0.000781,-0.002249,-0.023012,-0.0,-0.0,2.0,0.282024,0.240821,0.282024,0.315962,-1.476999,-102.873503,-0.101661,3.467577,-2.00767,-2.158077
21899,-0.120736,-0.021914,0.025155,0.018112,-0.001185,-0.000929,-0.018389,-0.0,-0.0,2.0,0.282024,0.244735,0.282024,0.313278,-1.222704,-103.003353,-0.232485,3.041118,-2.947736,-2.152285
21919,-0.111942,-0.022254,0.02574,0.019177,-0.001176,-0.000939,-0.015524,-0.0,-0.0,2.0,0.282024,0.248979,0.282024,0.310254,-1.047738,-103.133936,-0.333601,2.664717,-3.599958,-2.146837
21939,-0.10278,-0.022487,0.026215,0.020242,-0.001168,-0.00095,-0.011763,-0.0,-0.0,2.0,0.282024,0.250173,0.282024,0.309381,-0.904377,-103.289334,-0.424606,2.303628,-4.14767,-2.141178
21959,-0.093129,-0.022735,0.026574,0.020242,-0.001159,-0.000961,-0.007932,-0.0,-0.0,2.0,0.282024,0.257035,0.282024,0.30417,-0.792339,-103.46693,-0.503685,1.979189,-4.580487,-2.135922
21979,-0.083235,-0.022989,0.026936,0.021285,0.0,0.0,-0.004273,-0.0,-0.0,2.0,0.282024,0.261398,0.282024,0.300678,-0.708543,-103.662297,-0.571908,1.678922,-4.890397,-2.133341
21999,-0.072854,-0.023013,0.027195,0.022349,0.0,0.0,-0.002434,-0.0,-0.0,2.0,0.282024,0.264111,0.282024,0.298432,-0.649396,-103.870219,-0.631663,1.411446,-5.072372,-2.134435
22019,-0.06223,-0.023288,0.027324,0.022373,-6.6e-05,-0.001062,0.002665,-0.0,-0.0,2.0,0.282024,0.268063,0.282024,0.295056,-0.6112,-104.085297,-0.685789,1.18788,-5.12848,-2.139651
22039,-0.051487,-0.023568,0.027335,0.023413,0.0,0.0,0.006143,-0.0,-0.0,2.0,0.282024,0.270313,0.282024,0.293074,-0.590841,-104.302433,-0.737292,1.012249,-5.068515,-2.148967
22059,-0.040379,-0.023973,0.027347,0.023413,0.0,0.0,0.006143,-0.0,-0.0,2.0,0.282024,0.27424,0.282024,0.289511,-0.586593,-104.517145,-0.7897,0.883673,-4.908727,-2.162056
22079,-0.029146,-0.024381,0.027116,0.023414,0.001064,-3.1e-05,0.011407,-0.0,-0.0,2.0,0.282024,0.276043,0.282024,0.287828,-0.59956,-104.725754,-0.848541,0.803633,-4.670092,-2.178817
22099,-0.017791,-0.024664,0.026891,0.024451,0.001083,0.001045,0.014579,-0.0,-0.0,2.0,0.282024,0.281293,0.282024,0.282753,-0.63936,-104.925423,-0.927311,0.771547,-4.376579,-2.199146
22119,-0.006437,-0.024941,0.026665,0.025515,7e-06,0.001065,0.019273,-0.0,-0.0,2.0,0.282024,0.28347,0.282024,0.280568,-0.766076,-105.113593,-1.089568,0.798078,-4.053104,-2.223867
22139,0.004918,-0.025214,0.026319,0.02445,-0.001069,0.001059,0.023009,-0.0,-0.0,2.0,0.282024,0.286135,0.282024,0.277825,-14.969338,-105.265073,-15.328594,1.043221,-3.728283,-2.264416
22159,0.016522,-0.025482,0.025735,0.02445,-1.8e-05,0.001064,0.02663,-0.0,-0.0,2.0,0.282024,0.288991,0.282024,0.2748,-13.147018,-105.379381,-13.575625,2.873802,-3.541697,-2.419027
22179,0.027759,-0.025616,0.025265,0.023386,-3e-05,0.001064,0.028382,-0.0,-0.0,2.0,0.282024,0.292472,0.282024,0.270987,-13.056438,-105.552393,-13.624798,4.381417,-3.647097,-2.570115
22199,0.038995,-0.025863,0.024794,0.023358,-8.3e-05,0.002128,0.030269,-0.0,-0.0,2.0,0.282024,0.295949,0.282024,0.267032,-12.936174,-105.73377,-13.704445,5.578196,-4.03699,-2.717671
22219,0.050113,-0.026098,0.024203,0.023385,-5.3e-05,0.001063,0.035453,-0.0,-0.0,2.0,0.282024,0.296028,0.282024,0.26694,-12.781981,-105.930121,-13.80336,6.481614,-4.698349,-2.86109
22239,0.06099,-0.026441,0.023494,0.022321,-6.5e-05,0.001063,0.037492,-0.0,-0.0,2.0,0.282024,0.297201,0.282024,0.26557,-12.600842,-106.145884,-13.926681,7.109908,-5.614836,-2.999499
22259,0.071743,-0.026648,0.022774,0.022292,-0.000153,0.002124,0.041792,-0.0,-0.0,2.0,0.282024,0.299798,0.282024,0.26247,-12.396036,-106.381443,-14.084627,7.479259,-6.767129,-3.132045
22279,0.082138,-0.027084,0.021947,0.022291,-0.000175,0.002122,0.045768,-0.0,-0.0,2.0,0.282024,0.302479,0.282024,0.259171,-12.162693,-106.629614,-14.293569,7.598877,-8.129856,-3.258151
22299,0.092286,-0.027265,0.021224,0.021227,-0.000196,0.00212,0.047289,-0.0,-0.0,2.0,0.282024,0.303829,0.282024,0.25747,-11.88454,-106.869038,-14.579092,7.466244,-9.663612,-3.377794
22319,0.10232,-0.027425,0.020261,0.020162,-0.000217,0.002118,0.050342,-0.0,-0.0,2.0,0.282024,0.304613,0.282024,0.25647,-11.537723,-107.052773,-14.973868,7.066436,-11.302525,-3.49182
22339,0.111741,-0.027818,0.019425,0.020161,-0.000237,0.002116,0.053293,-0.0,-0.0,2.0,0.282024,0.307431,0.282024,0.252793,-11.127126,-107.101482,-15.485006,6.379683,-12.94183,-3.6023
22359,0.120931,-0.027828,0.018449,0.019097,-0.000257,0.002114,0.056338,-0.0,-0.0,2.0,0.282024,0.308106,0.282024,0.251893,-10.751577,-106.945116,-16.036657,5.39754,-14.434274,-3.712723
22379,0.129746,-0.028066,0.01748,0.018033,-0.000275,0.002111,0.056338,-0.0,-0.0,2.0,0.282024,0.309785,0.282024,0.249622,-10.545364,-106.605503,-16.549994,4.143,-15.610015,-3.827764
22399,0.138327,-0.028285,0.016391,0.016968,-0.000293,0.002109,0.06152,-0.0,-0.0,2.0,0.282024,0.311694,0.282024,0.246978,-10.597718,-106.186391,-17.094581,2.684618,-16.331665,-3.952371
22419,0.146545,-0.02837,0.015291,0.016968,-0.000311,0.002106,0.063482,-0.0,-0.0,2.0,0.282024,0.312528,0.282024,0.245803,-11.102384,-105.867123,-17.933498,1.123921,-16.553412,-4.09038
22439,0.154266,-0.028561,0.014192,0.015903,-0.000327,0.002104,0.066494,-0.0,-0.0,2.0,0.282024,0.313003,0.282024,0.245127,-11.974904,-106.00064,-19.036132,-0.43892,-16.331421,-4.243522
22459,0.161752,-0.028743,0.013095,0.014839,-0.000343,0.002102,0.068936,-0.0,-0.0,2.0,0.282024,0.313585,0.282024,0.244294,-12.343815,-106.517059,-19.572827,-1.923704,-15.79711,-4.411378
22479,0.168756,-0.028782,0.011861,0.013775,-0.000357,0.002099,0.071145,-0.0,-0.0,2.0,0.282024,0.316141,0.282024,0.240555,-12.467823,-107.099818,-19.857735,-3.259392,-15.073306,-4.591965
22499,0.175383,-0.028929,0.010633,0.01271,-0.000371,0.002097,0.072192,-0.0,-0.0,2.0,0.282024,0.316943,0.282024,0.239355,-12.483138,-107.672636,-20.131045,-4.391466,-14.196755,-4.7824
22519,0.181778,-0.029069,0.009406,0.012679,-0.000577,0.003141,0.074208,-0.0,-0.0,2.0,0.282024,0.317447,0.282024,0.238594,-12.106021,-108.18817,-20.767149,-5.255437,-13.130735,-4.979212
22539,0.18781,-0.029188,0.008054,0.011615,-0.000596,0.003138,0.07543,-0.0,-0.0,2.0,0.282024,0.31814,0.282024,0.237536,-9.723767,-108.093927,-23.382176,-5.813,-11.824559,-5.178379
22559,0.193224,-0.029297,0.006695,0.01055,-0.000613,0.003135,0.076841,-0.0,-0.0,2.0,0.282024,0.318609,0.282024,0.236817,-10.000069,-107.598063,-23.342552,-5.927805,-10.264021,-5.37577
22579,0.198397,-0.029263,0.005201,0.009486,-0.000629,0.003131,0.079576,-0.0,-0.0,2.0,0.282024,0.32056,0.282024,0.233765,-10.192721,-107.159608,-23.412994,-5.491407,-8.526402,-5.567009
22599,0.203084,-0.029344,0.003713,0.008422,-0.000644,0.003128,0.08041,-0.0,-0.0,2.0,0.282024,0.32104,0.282024,0.233,-10.382991,-106.781432,-23.498037,-4.52917,-6.780055,-5.749336
22619,0.207394,-0.029538,0.002235,0.007357,-0.000657,0.003126,0.082141,-0.0,-0.0,2.0,0.282024,0.321132,0.282024,0.232853,-10.559159,-106.454083,-23.589864,-3.152232,-5.231744,-5.922451
22639,0.211232,-0.029486,0.000726,0.007358,-0.000669,0.003123,0.083352,-0.0,-0.0,2.0,0.282024,0.321268,0.282024,0.232635,-10.706772,-106.160974,-23.689366,-1.538172,-4.067166,-6.088045
22659,0.214818,-0.029522,-0.001016,0.006293,-0.000681,0.003121,0.084384,-0.0,-0.0,2.0,0.282024,0.321405,0.282024,0.232415,-10.827381,-105.885833,-23.811064,0.100871,-3.408344,-6.248482
22679,0.217662,-0.029433,-0.002781,0.005199,-0.000919,0.004158,0.08484,-0.0,-0.0,2.0,0.282024,0.321516,0.282024,0.232236,-10.975672,-105.619538,-24.014041,1.549489,-3.293958,-6.405535
22699,0.220154,-0.029477,-0.004416,0.004165,-0.000697,0.003117,0.085703,-0.0,-0.0,2.0,0.282024,0.321398,0.282024,0.232426,-11.532031,-105.37996,-24.671913,2.618428,-3.67659,-6.559887
22719,0.222136,-0.029262,-0.006205,0.003102,-0.000703,0.003116,0.086307,-0.0,-0.0,2.0,0.282024,0.321214,0.282024,0.232721,-13.424177,-105.463919,-26.691358,3.170704,-4.431115,-6.711564
22739,0.223649,-0.029143,-0.008232,0.002007,-0.000944,0.004153,0.086756,-0.0,-0.0,2.0,0.282024,0.320884,0.282024,0.233249,-13.396972,-105.79385,-26.797519,3.14492,-5.379514,-6.860896
22759,0.22478,-0.02905,-0.010021,0.000944,-0.000949,0.004152,0.08701,-0.0,-0.0,2.0,0.282024,0.320615,0.282024,0.233677,-13.313392,-106.152402,-26.843198,2.592953,-6.331423,-7.00921
22779,0.22543,-0.028933,-0.012062,-9e-05,-0.000714,0.003113,0.087178,-0.0,-0.0,2.0,0.282024,0.320111,0.282024,0.234474,-13.244411,-106.538555,-26.886737,1.635636,-7.11652,-7.158758
22799,0.225582,-0.02894,-0.014095,-0.001184,-0.000952,0.004151,0.087251,-0.0,-0.0,2.0,0.282024,0.31952,0.282024,0.235402,-13.202161,-106.947051,-26.935791,0.447306,-7.606545,-7.311957
22819,0.22537,-0.028952,-0.016135,-0.002249,-0.000951,0.004151,0.087102,-0.0,-0.0,2.0,0.282024,0.320863,0.282024,0.233283,-13.184776,-107.368896,-26.997106,-0.770832,-7.725181,-7.47038
22839,0.224916,-0.029089,-0.018166,-0.002256,8.8e-05,0.004389,0.086965,-0.0,-0.0,2.0,0.282024,0.320155,0.282024,0.234406,-13.169287,-107.792684,-27.091571,-1.814034,-7.452593,-7.63404
22859,0.224463,-0.029092,-0.020333,-0.002256,9e-05,0.004389,0.08658,-0.0,-0.0,2.0,0.282024,0.321488,0.282024,0.232281,-13.00315,-108.20254,-27.363621,-2.499612,-6.832478,-7.801334
22879,0.223633,-0.029222,-0.02249,-0.002257,9.4e-05,0.004389,0.086293,-0.0,-0.0,2.0,0.282024,0.322657,0.282024,0.230383,10.341663,-108.310002,-50.820237,-2.7277,-5.978011,-7.969719
22899,0.223059,-0.029094,-0.024795,-0.002249,-0.000942,0.004153,0.085805,-0.0,-0.0,2.0,0.282024,0.323978,0.282024,0.228195,8.314341,-108.074041,-48.90063,-2.510906,-5.058732,-8.136979
22919,0.222352,-0.02909,-0.027085,-0.002249,-0.000939,0.004154,0.084371,-0.0,-0.0,2.0,0.282024,0.325546,0.282024,0.225539,8.284365,-107.695916,-48.967524,-1.807384,-4.280183,-8.301714
22939,0.221537,-0.029092,-0.029383,-0.002249,-0.000935,0.004155,0.083844,-0.0,-0.0,2.0,0.282024,0.32678,0.282024,0.2234,8.241283,-107.324037,-48.988875,-0.795587,-3.82047,-8.463542
22959,0.220842,-0.028958,-0.031813,-0.002249,-0.000932,0.004155,0.082473,-0.0,-0.0,2.0,0.282024,0.328318,0.282024,0.220668,8.230944,-106.951482,-49.003329,0.265988,-3.772129,-8.622757
22979,0.220136,-0.028945,-0.034224,-0.002249,-0.00093,0.004156,0.081121,-0.0,-0.0,2.0,0.282024,0.329831,0.282024,0.21791,8.255181,-106.571487,-49.016978,1.106329,-4.103311,-8.779705
22999,0.219081,-0.028931,-0.036772,-0.00335,-0.000118,0.005428,0.079696,-0.0,-0.0,2.0,0.282024,0.329328,0.282024,0.218836,8.301402,-106.178517,-49.032133,1.519412,-4.659389,-8.934747
23019,0.217888,-0.028948,-0.039075,-0.003313,-0.00092,0.004158,0.078128,-0.0,-0.0,2.0,0.282024,0.328949,0.282024,0.219528,8.349669,-105.769513,-49.050022,1.427081,-5.208633,-9.088723
23039,0.216449,-0.028718,-0.041531,-0.004376,-0.000914,0.004159,0.07724,-0.0,-0.0,2.0,0.282024,0.330102,0.282024,0.217409,8.375464,-105.345714,-49.076271,0.904738,-5.520508,-9.243114
23059,0.214517,-0.028289,-0.043784,-0.005432,-0.001946,0.003934,0.075761,-0.0,-0.0,2.0,0.282024,0.329405,0.282024,0.218694,8.415387,-104.926622,-49.065318,0.161551,-5.448856,-9.399401
23079,0.212199,-0.027642,-0.045943,-0.006494,-0.001937,0.003939,0.073992,-0.0,-0.0,2.0,0.282024,0.328664,0.282024,0.220045,8.37831,-104.493133,-49.101589,-0.549837,-4.98592,-9.558099
23099,0.209766,-0.026763,-0.048138,-0.007549,-0.002968,0.003722,0.072342,-0.0,-0.0,2.0,0.282024,0.32785,0.282024,0.221507,8.331602,-104.064945,-49.129381,-1.000196,-4.262694,-9.718501
23119,0.206695,-0.025795,-0.050221,-0.007546,-0.002957,0.003731,0.070529,-0.0,-0.0,2.0,0.282024,0.328815,0.282024,0.219771,8.282277,-103.643786,-49.161109,-1.063086,-3.509932,-9.879308
23139,0.203261,-0.024627,-0.052101,-0.00858,-0.002729,0.002698,0.06737,-0.0,-0.0,2.0,0.282024,0.32814,0.282024,0.220988,8.251235,-103.226895,-49.201913,-0.756273,-2.98278,-10.039539
23159,0.199566,-0.023361,-0.053865,-0.009612,-0.003551,0.001454,0.064955,-0.0,-0.0,2.0,0.282024,0.327143,0.282024,0.22276,8.263465,-102.809437,-49.262671,-0.23577,-2.8717,-10.198859
23179,0.195262,-0.022265,-0.055386,-0.010675,-0.003545,0.001469,0.062377,-0.0,-0.0,2.0,0.282024,0.327888,0.282024,0.22144,8.381109,-102.387592,-49.400248,0.260749,-3.224704,-10.357263
23199,0.190575,-0.021087,-0.056668,-0.010678,-0.002493,0.001687,0.05964,-0.0,-0.0,2.0,0.282024,0.326669,0.282024,0.223592,4.962002,-102.029187,-45.973101,0.409429,-3.912332,-10.508822
23219,0.185768,-0.020062,-0.057693,-0.01172,-0.002288,0.000653,0.05762,-0.0,-0.0,2.0,0.282024,0.325155,0.282024,0.226208,5.180618,-102.462965,-46.171369,0.219287,-4.594613,-10.666277
23239,0.180238,-0.019461,-0.058331,-0.012767,-0.001047,-0.000191,0.055254,-0.0,-0.0,2.0,0.282024,0.325364,0.282024,0.225851,5.151569,-102.932436,-46.135931,-0.204237,-5.02231,-10.824429
23259,0.174348,-0.019149,-0.058586,-0.013815,0.000185,-0.001048,0.051775,-0.0,-0.0,2.0,0.282024,0.321965,0.282024,0.231512,5.136112,-103.412408,-46.135784,-0.650279,-4.996448,-10.983902
23279,0.1681,-0.019244,-0.05845,-0.014879,0.000178,-0.001049,0.050199,-0.0,-0.0,2.0,0.282024,0.319699,0.282024,0.235123,5.105893,-103.894804,-46.135799,-0.875003,-4.502359,-11.144407
23299,0.161364,-0.019747,-0.057916,-0.015922,0.000342,-0.002101,0.046406,-0.0,-0.0,2.0,0.282024,0.319936,0.282024,0.23475,5.077011,-104.373721,-46.124492,-0.718936,-3.7309,-11.304862
23319,0.154387,-0.020384,-0.057256,-0.015899,0.000491,-0.003155,0.043271,-0.0,-0.0,2.0,0.282024,0.315876,0.282024,0.240949,5.101296,-104.847451,-46.066765,-0.202745,-2.999234,-11.464332
23339,0.147049,-0.020924,-0.056379,-0.016962,0.000468,-0.003159,0.039929,-0.0,-0.0,2.0,0.282024,0.315656,0.282024,0.241276,6.53035,-105.302266,-44.629659,0.463264,-2.602768,-11.622612
23359,0.139335,-0.021467,-0.055497,-0.018024,0.000443,-0.003162,0.036628,-0.0,-0.0,2.0,0.282024,0.315254,0.282024,0.241868,5.02308,-105.635175,-46.173708,1.026207,-2.67688,-11.779893
23379,0.131256,-0.02202,-0.0545,-0.018022,0.000418,-0.003166,0.034606,-0.0,-0.0,2.0,0.282024,0.312215,0.282024,0.246246,5.012495,-106.121017,-46.237379,1.132598,-3.133778,-11.936387
23399,0.122816,-0.022446,-0.053646,-0.019085,0.000391,-0.003169,0.030307,-0.0,-0.0,2.0,0.282024,0.309749,0.282024,0.249671,5.041364,-106.618773,-46.260085,0.687241,-3.678432,-12.092764
23419,0.114129,-0.022984,-0.052898,-0.019083,0.000364,-0.003173,0.02804,-0.0,-0.0,2.0,0.282024,0.308434,0.282024,0.251454,5.057204,-107.128055,-46.276592,-0.118407,-3.981526,-12.250222
23439,0.105199,-0.023278,-0.052176,-0.020171,0.000223,-0.002117,0.025603,-0.0,-0.0,2.0,0.282024,0.30502,0.282024,0.255946,5.049433,-107.645178,-46.295572,-0.895884,-3.862334,-12.409566
23459,0.095903,-0.023574,-0.051455,-0.021235,0.000204,-0.002119,0.022804,-0.0,-0.0,2.0,0.282024,0.301435,0.282024,0.260468,5.049759,-108.165037,-46.344915,-1.249638,-3.395913,-12.570241
23479,0.086491,-0.023865,-0.050741,-0.021206,-0.000784,-0.003274,0.017641,-0.0,-0.0,2.0,0.282024,0.30066,0.282024,0.261421,4.763989,-108.654611,-46.114564,-0.995627,-2.881619,-12.730845
23499,0.076943,-0.023779,-0.05015,-0.021232,-0.000897,-0.002205,0.013964,-0.0,-0.0,2.0,0.282024,0.299284,0.282024,0.263091,4.86749,-109.175138,-46.258421,-0.282737,-2.671049,-12.890421
23519,0.067032,-0.023573,-0.04957,-0.022297,-0.000919,-0.002196,0.0103,-0.0,-0.0,2.0,0.282024,0.295562,0.282024,0.26748,4.885343,-109.703959,-46.288926,0.485528,-2.930666,-13.048725
23539,0.057123,-0.023356,-0.049103,-0.022298,-0.000941,-0.002186,0.006034,-0.0,-0.0,2.0,0.282024,0.294051,0.282024,0.269209,4.913329,-110.242374,-46.317054,0.859945,-3.506445,-13.205822
23559,0.047096,-0.02326,-0.048511,-0.022298,-0.000963,-0.002177,0.003107,-0.0,-0.0,2.0,0.282024,0.291964,0.282024,0.271552,4.926045,-110.792218,-46.358178,0.618029,-3.983101,-13.361131
23579,0.036826,-0.023035,-0.048161,-0.022299,-0.000985,-0.002167,-0.000289,-0.0,-0.0,2.0,0.282024,0.289862,0.282024,0.27386,4.834098,-111.349932,-46.478716,-0.044897,-3.921961,-13.515642
23599,0.026559,-0.022929,-0.047685,-0.022299,-0.001007,-0.002157,-0.003244,-0.0,-0.0,2.0,0.282024,0.287493,0.282024,0.276398,4.953676,-111.80251,-46.345403,-0.578683,-3.249372,-13.673271
23619,0.016417,-0.022934,-0.047198,-0.0223,-0.001029,-0.002146,-0.007603,-0.0,-0.0,2.0,0.282024,0.285612,0.282024,0.278369,4.91055,-112.363904,-46.366169,-0.599193,-2.316055,-13.83106
23639,0.006151,-0.022812,-0.046827,-0.023364,1.3e-05,-0.002129,-0.009819,-0.0,-0.0,2.0,0.282024,0.282742,0.282024,0.281304,4.879399,-112.925016,-46.39152,-0.200208,-1.686767,-13.981193
23659,-0.00423,-0.022933,-0.046458,-0.023364,-0.001073,-0.002124,-0.013439,-0.0,-0.0,2.0,0.282024,0.280257,0.282024,0.283776,4.879319,-113.489472,-46.419302,0.201231,-1.676211,-14.116664
23679,-0.01449,-0.023043,-0.04596,-0.0223,-0.001095,-0.002113,-0.017059,-0.0,-0.0,2.0,0.282024,0.277708,0.282024,0.286248,4.908588,-114.06008,-46.452984,0.228414,-2.147857,-14.237252
23699,-0.024634,-0.022902,-0.045582,-0.022301,-0.001116,-0.002102,-0.020658,-0.0,-0.0,2.0,0.282024,0.275082,0.282024,0.288729,5.020724,-114.638055,-46.566787,-0.157676,-2.651333,-14.348396
23719,-0.034777,-0.022755,-0.045195,-0.022301,-0.001138,-0.002091,-0.022749,-0.0,-0.0,2.0,0.282024,0.271701,0.282024,0.291831,4.865361,-115.184332,-46.425425,-0.686217,-2.723656,-14.45338
23739,-0.044681,-0.022595,-0.044684,-0.022302,-0.001158,-0.002079,-0.026096,-0.0,-0.0,2.0,0.282024,0.268797,0.282024,0.294414,4.855189,-115.773335,-46.450501,-0.733016,-2.376729,-14.566367
23759,-0.054463,-0.022308,-0.044283,-0.021262,-0.001121,-0.001005,-0.029538,-0.0,-0.0,2.0,0.282024,0.268396,0.282024,0.294765,4.832526,-116.364129,-46.460082,-0.402614,-1.901669,-14.671498
23779,-0.064371,-0.022009,-0.04363,-0.021239,-0.001199,-0.002056,-0.034338,-0.0,-0.0,2.0,0.282024,0.265908,0.282024,0.296913,4.823114,-116.956577,-46.462226,0.056954,-1.54232,-14.762773
23799,-0.073787,-0.021701,-0.043209,-0.020176,-0.001218,-0.002045,-0.037174,-0.0,-0.0,2.0,0.282024,0.262661,0.282024,0.29964,4.848048,-117.551051,-46.44176,0.326521,-1.357532,-14.838224
23819,-0.083083,-0.021508,-0.042792,-0.020177,-0.001237,-0.002033,-0.03945,-0.0,-0.0,2.0,0.282024,0.261654,0.282024,0.300469,4.679258,-118.126129,-46.615681,0.334053,-1.218411,-14.904951
23839,-0.092256,-0.021418,-0.04213,-0.020175,-0.000196,-0.00212,-0.043002,-0.0,-0.0,2.0,0.282024,0.258634,0.282024,0.302907,4.770598,-118.723757,-46.527475,0.114212,-1.098974,-14.964844
23859,-0.101069,-0.021322,-0.041589,-0.019113,-0.001274,-0.002011,-0.046249,-0.0,-0.0,2.0,0.282024,0.258208,0.282024,0.303246,4.773184,-119.32457,-46.52187,-0.197035,-0.908229,-15.018938
23879,-0.109753,-0.021215,-0.041035,-0.019089,-0.00035,-0.003174,-0.049322,-0.0,-0.0,2.0,0.282024,0.254871,0.282024,0.30585,4.76253,-119.927029,-46.523142,-0.35989,-0.722676,-15.070068
23899,-0.117951,-0.021339,-0.040496,-0.018047,-0.00025,-0.002114,-0.051964,-0.0,-0.0,2.0,0.282024,0.254225,0.282024,0.306345,4.746735,-120.531175,-46.52171,-0.334616,-0.685371,-15.115924
23919,-0.126159,-0.021084,-0.03981,-0.016983,-0.000268,-0.002112,-0.054376,-0.0,-0.0,2.0,0.282024,0.253379,0.282024,0.306988,5.060131,-121.136414,-46.846138,-0.225827,-0.833316,-15.154545
23939,-0.133875,-0.021049,-0.039011,-0.016986,-0.001339,-0.001968,-0.056981,-0.0,-0.0,2.0,0.282024,0.25006,0.282024,0.309464,4.783137,-121.737284,-46.57232,-0.258936,-0.995619,-15.177916
23959,-0.141471,-0.020892,-0.038322,-0.0159,-0.001504,-0.003011,-0.060506,-0.0,-0.0,2.0,0.282024,0.24698,0.282024,0.311693,4.772351,-122.346043,-46.572035,-0.250458,-0.981911,-15.196916
23979,-0.148456,-0.020841,-0.037636,-0.01592,-0.000315,-0.002105,-0.062049,-0.0,-0.0,2.0,0.282024,0.246055,0.282024,0.31235,4.762948,-122.955193,-46.57399,-0.197491,-0.732821,-15.208012
23999,-0.155322,-0.02065,-0.036817,-0.014856,-0.000329,-0.002103,-0.065094,-0.0,-0.0,2.0,0.282024,0.245843,0.282024,0.3125,4.763069,-123.563996,-46.564958,-0.077295,-0.314564,-15.2106
24019,-0.162078,-0.020443,-0.035879,-0.013771,-0.000515,-0.003151,-0.067486,-0.0,-0.0,2.0,0.282024,0.245359,0.282024,0.312841,5.084099,-124.170759,-46.237389,-0.060384,0.156275,-15.210606
24039,-0.16821,-0.020473,-0.035072,-0.012706,-0.000535,-0.003148,-0.069818,-0.0,-0.0,2.0,0.282024,0.242116,0.282024,0.315085,4.638272,-124.758861,-46.673527,0.094989,0.607972,-15.213025
24059,-0.173977,-0.020491,-0.034264,-0.012728,-0.000368,-0.002097,-0.071473,-0.0,-0.0,2.0,0.282024,0.24152,0.282024,0.31549,4.654217,-125.367889,-46.656084,0.074922,0.789645,-15.216397
24079,-0.179615,-0.020479,-0.033205,-0.012724,0.000667,-0.002285,-0.071473,-0.0,-0.0,2.0,0.282024,0.237118,0.282024,0.318413,4.65594,-125.977523,-46.653299,-0.046924,0.784849,-15.22729
24099,-0.184897,-0.020468,-0.032272,-0.011642,-0.000587,-0.003139,-0.075349,-0.0,-0.0,2.0,0.282024,0.237871,0.282024,0.317922,4.647303,-126.587545,-46.646078,-0.221115,0.664887,-15.243848
24119,-0.189814,-0.020447,-0.031338,-0.010582,-0.001647,-0.002935,-0.07631,-0.0,-0.0,2.0,0.282024,0.237217,0.282024,0.318349,4.550267,-127.197487,-46.55578,-0.354006,0.531544,-15.264463
24139,-0.194478,-0.020416,-0.030397,-0.009518,-0.001661,-0.002927,-0.078845,-0.0,-0.0,2.0,0.282024,0.237377,0.282024,0.318245,4.710813,-127.773773,-46.730502,-0.368355,0.419273,-15.287252
24159,-0.198545,-0.020485,-0.02935,-0.008475,-0.001463,-0.001877,-0.079811,-0.0,-0.0,2.0,0.282024,0.233988,0.282024,0.320419,4.683876,-128.385957,-46.716405,-0.405072,0.484851,-15.323979
24179,-0.202359,-0.020423,-0.028286,-0.008476,-0.00147,-0.001872,-0.081399,-0.0,-0.0,2.0,0.282024,0.234162,0.282024,0.320309,4.668874,-128.999977,-46.714597,-0.270384,0.756738,-15.367527
24199,-0.205798,-0.020338,-0.027093,-0.007386,-0.000652,-0.003126,-0.082663,-0.0,-0.0,2.0,0.282024,0.234249,0.282024,0.320254,4.665433,-129.61644,-46.706438,-0.033817,1.116494,-15.421007
24219,-0.208882,-0.020382,-0.026038,-0.006317,0.000379,-0.003345,-0.083244,-0.0,-0.0,2.0,0.282024,0.234128,0.282024,0.320331,4.73014,-130.235546,-46.637049,0.153938,1.449839,-15.486771
24239,-0.211591,-0.020296,-0.024965,-0.005258,-0.000671,-0.003122,-0.084112,-0.0,-0.0,2.0,0.282024,0.231183,0.282024,0.322167,5.832221,-130.402869,-45.532496,0.95728,1.613933,-15.528687
24259,-0.213814,-0.02031,-0.023782,-0.004194,-0.000677,-0.003121,-0.084881,-0.0,-0.0,2.0,0.282024,0.234667,0.282024,0.319989,-5.587672,-130.395076,-57.019301,3.178011,0.735898,-15.654349
24279,-0.215658,-0.020439,-0.022607,-0.003129,-0.000683,-0.003119,-0.08594,-0.0,-0.0,2.0,0.282024,0.232242,0.282024,0.321512,-10.776101,-129.861362,-62.376629,4.6909,-2.83934,-15.811332
24299,-0.217019,-0.020441,-0.021417,-0.003134,-0.001727,-0.002889,-0.086645,-0.0,-0.0,2.0,0.282024,0.232997,0.282024,0.321042,-10.628853,-129.201857,-62.389604,1.996465,-6.503165,-15.959836
24319,-0.218014,-0.02056,-0.020239,-0.00209,-0.001499,-0.001848,-0.086937,-0.0,-0.0,2.0,0.282024,0.233723,0.282024,0.320586,-10.619584,-128.504173,-62.374609,-2.863788,-6.620526,-16.117611
24339,-0.218649,-0.020419,-0.018911,-0.001001,-0.000693,-0.003117,-0.087186,-0.0,-0.0,2.0,0.282024,0.231468,0.282024,0.321991,-10.781659,-127.821402,-62.379921,-5.448315,-2.593496,-16.288559
24359,-0.219029,-0.020274,-0.017578,-0.001001,-0.000694,-0.003117,-0.087266,-0.0,-0.0,2.0,0.282024,0.23237,0.282024,0.321433,-10.388767,-127.173252,-62.980209,-2.909589,2.036101,-16.44935
24379,-0.218797,-0.020274,-0.016498,6.3e-05,-0.000693,-0.003117,-0.087247,-0.0,-0.0,2.0,0.282024,0.233547,0.282024,0.320697,-11.229584,-126.640136,-62.193241,2.759055,2.467128,-16.606698
24399,-0.218555,-0.020139,-0.01528,0.001127,-0.000692,-0.003117,-0.087034,-0.0,-0.0,2.0,0.282024,0.234618,0.282024,0.32002,-10.994403,-125.973734,-62.28293,6.06351,-2.447415,-16.766663
24419,-0.218083,-0.020112,-0.013955,0.001127,-0.000691,-0.003118,-0.086678,-0.0,-0.0,2.0,0.282024,0.232608,0.282024,0.321285,-10.772802,-125.282144,-62.410948,3.132501,-8.258363,-16.910112
24439,-0.217596,-0.020111,-0.012871,6.3e-05,-0.000689,-0.003118,-0.086196,-0.0,-0.0,2.0,0.282024,0.230526,0.282024,0.32257,-10.932075,-124.543252,-62.69504,-3.710465,-8.649861,-17.065593
24459,-0.217002,-0.019977,-0.011653,0.001122,-0.001727,-0.002889,-0.085657,-0.0,-0.0,2.0,0.282024,0.225184,0.282024,0.325752,34.80633,-124.168408,-16.770944,-7.326102,-2.171625,-17.244509
24479,-0.216517,-0.020072,-0.010339,5.8e-05,-0.001725,-0.00289,-0.084746,-0.0,-0.0,2.0,0.282024,0.222756,0.282024,0.327146,35.75745,-124.638139,-15.483995,-7.439591,7.172661,-17.396456
24499,-0.216044,-0.020061,-0.009134,6.3e-05,-0.000684,-0.003119,-0.084222,-0.0,-0.0,2.0,0.282024,0.223863,0.282024,0.326515,35.547476,-125.442443,-15.52385,1.358309,12.522693,-17.530412
24519,-0.215315,-0.019927,-0.007913,0.001131,0.000358,-0.003347,-0.083157,-0.0,-0.0,2.0,0.282024,0.221437,0.282024,0.327889,35.754614,-126.278443,-15.551165,10.150166,6.760803,-17.720869
24539,-0.214721,-0.019917,-0.006707,0.001131,0.00036,-0.003347,-0.081945,-0.0,-0.0,2.0,0.282024,0.218785,0.282024,0.329355,36.026479,-127.001487,-15.383517,8.130668,-5.296919,-17.893163
24559,-0.213871,-0.019907,-0.005498,0.002195,0.000362,-0.003346,-0.080607,-0.0,-0.0,2.0,0.282024,0.219635,0.282024,0.32889,32.939757,-126.987734,-12.125004,-4.501681,-10.058944,-18.036756
24579,-0.212777,-0.020019,-0.004299,0.002191,-0.000674,-0.003121,-0.079686,-0.0,-0.0,2.0,0.282024,0.217343,0.282024,0.330137,33.073623,-126.233145,-12.638792,-14.058073,-0.164258,-18.22985
24599,-0.211441,-0.020012,-0.003085,0.003255,-0.00067,-0.003122,-0.078821,-0.0,-0.0,2.0,0.282024,0.215333,0.282024,0.331209,32.525685,-125.459221,-12.509762,-7.536909,14.675467,-18.347272
24619,-0.209728,-0.020006,-0.001866,0.003251,-0.001706,-0.002902,-0.07597,-0.0,-0.0,2.0,0.282024,0.215821,0.282024,0.33095,32.662197,-124.490945,-12.201586,10.04812,16.162902,-18.498024
24639,-0.207907,-0.020125,-0.000659,0.004315,-0.0017,-0.002905,-0.074329,-0.0,-0.0,2.0,0.282024,0.217091,0.282024,0.330272,21.093399,-123.854217,-24.325124,18.098649,-0.551539,-18.742684
24659,-0.20583,-0.020003,0.000577,0.004319,-0.000653,-0.003126,-0.073004,-0.0,-0.0,2.0,0.282024,0.215178,0.282024,0.33129,21.159882,-123.05537,-24.846532,3.618622,-17.074851,-18.845285
24679,-0.20339,-0.019872,0.001939,0.005383,-0.000645,-0.003127,-0.070604,-0.0,-0.0,2.0,0.282024,0.216371,0.282024,0.330658,20.94425,-122.04213,-24.853337,-18.856047,-10.607115,-19.053463
24699,-0.200584,-0.020002,0.003158,0.006452,0.000407,-0.003341,-0.068304,-0.0,-0.0,2.0,0.282024,0.217829,0.282024,0.329875,20.278489,-121.24238,-25.10358,-20.055125,15.41776,-19.223089
24719,-0.197402,-0.019893,0.004407,0.006452,0.000417,-0.00334,-0.065941,-0.0,-0.0,2.0,0.282024,0.215969,0.282024,0.330872,23.6741,-120.864983,-28.967994,6.947582,28.662524,-19.249849
24739,-0.193733,-0.020045,0.005516,0.007516,0.00043,-0.003339,-0.063316,-0.0,-0.0,2.0,0.282024,0.217761,0.282024,0.329912,32.253296,-120.678952,-36.89348,29.965789,6.667599,-19.624669
24759,-0.189944,-0.020069,0.006761,0.008581,0.000442,-0.003337,-0.063316,-0.0,-0.0,2.0,0.282024,0.22115,0.282024,0.32805,33.882374,-119.792575,-37.493311,14.105697,-27.781573,-19.683112
24779,-0.185424,-0.020235,0.007882,0.009642,-0.000589,-0.003139,-0.0586,-0.0,-0.0,2.0,0.282024,0.222181,0.282024,0.327471,33.842907,-118.316146,-37.478995,-27.392726,-25.891972,-19.877642
24799,-0.180651,-0.020406,0.009007,0.010702,-0.001621,-0.00295,-0.057237,-0.0,-0.0,2.0,0.282024,0.225316,0.282024,0.325675,32.488701,-117.372465,-37.42386,-37.942703,19.943208,-20.223912
24819,-0.1754,-0.020477,0.010029,0.011746,-0.001419,-0.00191,-0.053062,-0.0,-0.0,2.0,0.282024,0.227139,0.282024,0.324607,31.441673,-115.767607,-37.320727,8.581217,50.313464,-19.957488
24839,-0.169652,-0.020434,0.011068,0.012806,-0.002457,-0.001739,-0.051117,-0.0,-0.0,2.0,0.282024,0.227233,0.282024,0.324551,31.2887,-114.594509,-35.84604,54.734819,12.351396,-20.762049
24859,-0.16354,-0.020511,0.012223,0.013874,-0.001397,-0.001927,-0.047978,-0.0,-0.0,2.0,0.282024,0.233299,0.282024,0.320853,34.497675,-113.735011,-37.009305,24.726207,-54.563837,-20.544581
24879,-0.157051,-0.020494,0.013147,0.014939,-0.001384,-0.001936,-0.044841,-0.0,-0.0,2.0,0.282024,0.233312,0.282024,0.320844,34.850891,-111.372301,-35.617187,-55.675415,-47.007745,-20.930208
24899,-0.149963,-0.020359,0.014212,0.014942,-0.000318,-0.002105,-0.041609,-0.0,-0.0,2.0,0.282024,0.236595,0.282024,0.318752,31.14048,-110.7183,-36.359002,-67.177157,48.165452,-21.578142
24919,-0.142632,-0.020362,0.015149,0.016009,0.000751,-0.002259,-0.039403,-0.0,-0.0,2.0,0.282024,0.240571,0.282024,0.31613,29.768604,-109.319702,-33.369081,35.943408,92.960038,-20.533976
24939,-0.134923,-0.020268,0.015852,0.017073,0.000768,-0.002253,-0.035844,-0.0,-0.0,2.0,0.282024,0.24403,0.282024,0.313769,32.010421,-110.201602,-30.537074,111.578151,-8.417693,-23.190446
24959,-0.126738,-0.020421,0.016669,0.018138,0.000787,-0.002246,-0.032803,-0.0,-0.0,2.0,0.282024,0.245029,0.282024,0.313072,36.879461,-108.052242,-31.375719,3.96255,-130.599304,-20.663263
24979,-0.118308,-0.020718,0.017238,0.018136,-0.000251,-0.002114,-0.030223,-0.0,-0.0,2.0,0.282024,0.249349,0.282024,0.309984,32.150622,-105.900898,-29.824232,-150.117285,-47.667819,-24.589621
24999,-0.109511,-0.020778,0.017827,0.019176,-0.001174,-0.000942,-0.026065,-0.0,-0.0,2.0,0.282024,0.250289,0.282024,0.309295,25.327981,-107.068164,-29.063403,-56.969413,180.838799,-21.501097
25019,-0.100473,-0.02121,0.018399,0.019176,-0.001166,-0.000952,-0.021928,-0.0,-0.0,2.0,0.282024,0.254178,0.282024,0.306381,-80.485277,-104.493986,-133.214413,190.268782,129.503337,-25.784331
25039,-0.091065,-0.02129,0.018873,0.019179,-9.7e-05,-0.00106,-0.018154,-0.0,-0.0,2.0,0.282024,0.258369,0.282024,0.303118,-72.844835,-105.189168,-135.066287,118.898669,-278.603449,-23.602971
25059,-0.081542,-0.021497,0.019345,0.020243,-8.7e-05,-0.001061,-0.016247,-0.0,-0.0,2.0,0.282024,0.260801,0.282024,0.301165,-40.399298,-104.082179,-113.851962,-281.50773,-234.952532,-30.697287
25079,-0.072017,-0.021588,0.019699,0.020245,0.000985,-0.001138,-0.011734,-0.0,-0.0,2.0,0.282024,0.264744,0.282024,0.2979,-17.233629,-98.171308,-152.134003,-24.527175,639.344683,-15.969572
25099,-0.062005,-0.021935,0.019928,0.021286,0.001062,-6.6e-05,-0.009395,-0.0,-0.0,2.0,0.282024,0.267275,0.282024,0.295739,-29.696296,-95.826793,-194.31978,923.593411,62.28011,-90.988508
25119,-0.052118,-0.022281,0.020159,0.021308,-5.5e-05,-0.001063,-0.004622,-0.0,-0.0,2.0,0.282024,0.268722,0.282024,0.294479,70.791916,-43.564777,-293.973821,-21104.181935,-18843.116232,1250.676017
25139,-0.041987,-0.022633,0.020272,0.021285,0.0,0.0,-0.001639,-0.0,-0.0,2.0,0.282024,0.270202,0.282024,0.293173,-3045075.515645,-3146646.36603,1146367.734229,116420334648889.78,-141744890885603.72,-18744068856462.934
25159,-0.031734,-0.022988,0.020268,0.021285,0.0,0.0,0.000518,-0.0,-0.0,2.0,0.282024,0.27545,0.282024,0.288385,-8.20400569601905e+91,2.3631233643504042e+91,4.6653007773682885e+91,2.2790862240937214e+184,-2.774848819367684e+184,-3.669406143117746e+183
25179,-0.021724,-0.023214,0.020382,0.021285,0.0,0.0,0.006895,-0.0,-0.0,2.0,0.282024,0.277529,0.282024,0.286418,,,,,,
25199,-0.01147,-0.023445,0.020261,0.021285,0.0,0.0,0.00873,-0.0,-0.0,2.0,0.282024,0.27819,0.282024,0.285785,,,,,,
25219,-0.001336,-0.023548,0.020133,0.021285,0.0,0.0,0.012399,-0.0,-0.0,2.0,0.282024,0.280539,0.282024,0.283498,,,,,,
25239,0.008797,-0.023772,0.020012,0.021285,0.0,0.0,0.016205,-0.0,-0.0,2.0,0.282024,0.282824,0.282024,0.281221,,,,,,
25259,0.018931,-0.02399,0.019764,0.021259,-2e-05,0.001064,0.018127,-0.0,-0.0,2.0,0.282024,0.286003,0.282024,0.277963,,,,,,
25279,0.028822,-0.024202,0.019516,0.021259,-3.1e-05,0.001064,0.020744,-0.0,-0.0,2.0,0.282024,0.288753,0.282024,0.275056,,,,,,
25299,0.038591,-0.024531,0.019272,0.02022,0.0,0.0,0.025396,-0.0,-0.0,2.0,0.282024,0.290832,0.282024,0.272802,,,,,,
25319,0.048362,-0.024608,0.018898,0.020194,-5.1e-05,0.001063,0.029996,-0.0,-0.0,2.0,0.282024,0.288365,0.282024,0.275471,,,,,,
25339,0.057768,-0.024921,0.018528,0.020194,-6.1e-05,0.001063,0.031872,-0.0,-0.0,2.0,0.282024,0.293665,0.282024,0.269647,,,,,,
25359,0.067055,-0.025228,0.018161,0.019102,-0.000143,0.002124,0.03586,-0.0,-0.0,2.0,0.282024,0.293764,0.282024,0.269535,,,,,,
25379,0.076096,-0.025405,0.017784,0.018092,0.0,0.0,0.03919,-0.0,-0.0,2.0,0.282024,0.293967,0.282024,0.269305,,,,,,
25399,0.085022,-0.025567,0.017165,0.018065,-9e-05,0.001061,0.042474,-0.0,-0.0,2.0,0.282024,0.296462,0.282024,0.266436,,,,,,
25419,0.093579,-0.025846,0.016669,0.018037,-0.000199,0.00212,0.045673,-0.0,-0.0,2.0,0.282024,0.298884,0.282024,0.263571,,,,,,
25439,0.101902,-0.025991,0.016047,0.017,-0.000108,0.001059,0.045673,-0.0,-0.0,2.0,0.282024,0.300276,0.282024,0.261889,,,,,,
