time_ms,roll,pitch,yaw,roll_rate,pitch_rate,yaw_rate,reference_roll,reference_pitch,reference_yaw,reference_throttle,throttle_1,throttle_2,throttle_3,throttle_4,roll_predicted,pitch_predicted,yaw_predicted,roll_rate_predicted,pitch_rate_predicted,yaw_rate_predicted
114915,0.000968,0.000864,-0.019411,0.0,-0.001064,0.0,-0.0,-0.0,-0.0,2.0,0.282024,0.353976,0.282024,0.157061,-0.0,-11.949729,-0.0,-0.0,-2.798726,-0.0
114935,0.000968,0.000864,-0.019411,-0.001064,-0.001064,-0.001064,0.0,-0.0,-0.0,2.0,0.282024,0.353983,0.282024,0.157035,-0.0,-12.057917,-0.0,0.0,-2.556502,-0.0
114955,0.000969,0.000742,-0.019411,0.0,0.0,-0.001064,0.0,-0.0,-0.0,2.0,0.282024,0.352919,0.282024,0.160929,-0.0,-12.157025,-0.0,0.0,-2.354609,-0.0
114975,0.000968,0.000864,-0.019411,0.0,-0.001064,0.0,0.0,-0.0,-0.0,2.0,0.282024,0.353997,0.282024,0.156981,-0.0,-12.248647,-0.0,0.0,-2.191747,-0.0
114995,0.000968,0.000864,-0.019411,0.0,-0.001064,0.0,0.0,-0.0,-0.0,2.0,0.282024,0.354004,0.282024,0.156956,-0.0,-12.334322,-0.0,0.0,-2.066474,-0.0
115015,0.000969,0.000742,-0.019411,0.0,-0.001064,0.0,0.0,-0.0,-0.0,2.0,0.282024,0.354011,0.282024,0.156928,-0.0,-12.415534,-0.0,0.0,-1.977441,-0.0
115035,0.000969,0.000742,-0.019411,0.0,0.0,0.0,0.0,-0.0,-0.0,2.0,0.282024,0.354018,0.282024,0.156902,-0.0,-12.493715,-0.0,0.0,-1.923542,-0.0
115055,0.000969,0.000742,-0.019411,0.0,0.0,0.0,0.0,-0.0,-0.0,2.0,0.282024,0.352954,0.282024,0.160805,-0.0,-12.570257,-0.0,0.0,-1.90401,-0.0
115075,0.000969,0.000742,-0.019411,0.0,-0.001064,0.0,0.0,-0.0,-0.0,2.0,0.282024,0.354032,0.282024,0.15685,-0.0,-12.646528,-0.0,0.0,-1.91846,-0.0
115095,0.000969,0.000742,-0.019411,0.0,-0.001064,0.0,0.0,-0.0,-0.0,2.0,0.282024,0.354039,0.282024,0.156823,-0.0,-12.723887,-0.0,0.0,-1.966915,-0.0
115115,0.000969,0.000742,-0.019289,0.0,-0.001064,-0.001064,0.0,-0.0,-0.0,2.0,0.282024,0.354046,0.282024,0.156797,-0.0,-12.803698,-0.0,0.0,-2.049787,-0.0
115135,0.000969,0.000742,-0.019289,-0.001064,0.0,0.0,0.0,-0.0,-0.0,2.0,0.282024,0.354053,0.282024,0.156771,-0.0,-12.887349,-0.0,0.0,-2.167846,-0.0
115155,0.000969,0.000742,-0.019289,0.0,-0.001064,-0.001064,0.0,-0.0,-0.0,2.0,0.282024,0.35406,0.282024,0.156744,-0.0,-12.976262,-0.0,0.0,-2.322138,-0.0
115175,0.000969,0.000742,-0.019411,-0.001064,-0.001064,0.0,0.0,-0.0,-0.0,2.0,0.282024,0.354067,0.282024,0.156718,-0.0,-13.071905,-0.0,0.0,-2.513868,-0.0
115195,0.000969,0.000742,-0.019411,0.0,-0.001064,0.0,0.0,-0.0,-0.0,2.0,0.282024,0.354073,0.282024,0.156692,0.0,-13.175792,-0.0,0.0,-2.744216,-0.0
115215,0.000969,0.000742,-0.019411,0.0,0.0,0.0,0.0,-0.0,-0.0,2.0,0.282024,0.35408,0.282024,0.156665,0.0,-13.289484,-0.0,0.0,-3.01407,-0.0
115235,0.000969,0.000742,-0.019411,0.0,0.0,0.0,0.0,-0.0,-0.0,2.0,0.282024,0.354087,0.282024,0.156639,0.0,-13.414567,-0.0,0.0,-3.323648,-0.0
115255,0.000969,0.000742,-0.019411,0.0,-0.001064,0.0,0.0,-0.0,-0.0,2.0,0.282024,0.354094,0.282024,0.156613,0.0,-13.55262,-0.0,0.0,-3.671985,-0.0
115275,0.000969,0.000742,-0.019411,-0.001064,0.0,0.0,0.0,-0.0,-0.0,2.0,0.282024,0.354101,0.282024,0.156586,0.0,-13.705158,-0.0,-0.0,-4.056271,-0.0
115295,0.000969,0.000742,-0.019411,0.0,-0.001064,0.0,0.0,-0.0,-0.0,2.0,0.282024,0.354108,0.282024,0.15656,0.0,-13.873547,-0.0,-0.0,-4.47106,-0.0
115315,0.000969,0.000742,-0.019411,0.0,0.0,0.0,0.0,-0.0,-0.0,2.0,0.282024,0.354115,0.282024,0.156534,0.0,-14.058886,-0.0,-0.0,-4.907408,-0.0
115335,0.000969,0.000742,-0.019411,0.0,0.0,0.0,0.0,-0.0,-0.0,2.0,0.282024,0.354122,0.282024,0.156507,-0.0,-14.261852,-0.0,-0.0,-5.352108,-0.0
115355,0.000969,0.000742,-0.019411,0.0,-0.001064,0.0,0.0,-0.0,-0.0,2.0,0.282024,0.354129,0.282024,0.156481,-0.0,-14.482526,-0.0,0.0,-5.787275,-0.0
115375,0.000969,0.000742,-0.019411,0.0,0.0,0.0,0.0,-0.0,-0.0,2.0,0.282024,0.354136,0.282024,0.156454,-0.0,-14.720205,-0.0,0.0,-6.190657,-0.0
115395,0.001091,0.000743,-0.019411,0.0,0.0,0.0,0.0,-0.0,-0.0,2.0,0.282024,0.354178,0.282024,0.156295,-0.0,-14.973246,-0.0,0.0,-6.537024,-0.0
115415,0.001091,0.000743,-0.019411,0.0,0.0,0.0,0.0,-0.0,-0.0,2.0,0.282024,0.35415,0.282024,0.1564,-0.0,-15.23898,-0.0,0.0,-6.800839,-0.0
115435,0.001091,0.000743,-0.019411,0.0,-0.001064,0.0,0.0,-0.0,-0.0,2.0,0.282024,0.354193,0.282024,0.156238,-0.0,-15.513756,-0.0,0.0,-6.959976,-0.0
115455,0.001091,0.000743,-0.019411,-0.001064,-0.001064,0.0,0.0,-0.0,-0.0,2.0,0.282024,0.354201,0.282024,0.156208,-0.0,-15.793137,-0.0,0.0,-6.999715,-0.0
115475,0.001091,0.000743,-0.019533,0.0,0.0,0.0,0.0,-0.0,-0.0,2.0,0.282024,0.353103,0.282024,0.160271,-0.0,-16.072249,-0.0,0.0,-6.915829,-0.0
115495,0.001091,0.000743,-0.019533,0.0,-0.001064,0.0,0.0,-0.0,-0.0,2.0,0.282024,0.354216,0.282024,0.15615,-0.0,-16.34622,-0.0,0.0,-6.715654,-0.0
115515,0.001091,0.000743,-0.019533,0.0,0.0,0.0,0.0,-0.0,-0.0,2.0,0.282024,0.354189,0.282024,0.156253,-0.0,-16.610636,-0.0,0.0,-6.416706,-0.0
115535,0.000969,0.000742,-0.019533,0.0,-0.001064,0.0,0.0,-0.0,-0.0,2.0,0.282024,0.353126,0.282024,0.160188,-0.0,-16.861894,-0.0,0.0,-6.043321,-0.0
115555,0.000969,0.000742,-0.019533,0.0,-0.001064,0.0,0.0,-0.0,-0.0,2.0,0.282024,0.354203,0.282024,0.156199,-0.0,-17.097421,-0.0,0.0,-5.622484,-0.0
115575,0.001091,0.000743,-0.019533,0.0,0.0,0.0,0.0,-0.0,-0.0,2.0,0.282024,0.354246,0.282024,0.156037,0.0,-17.315714,-0.0,0.0,-5.180063,-0.0
115595,0.001091,0.000743,-0.019533,0.0,0.0,0.0,0.0,-0.0,-0.0,2.0,0.282024,0.354253,0.282024,0.156007,-0.0,-17.516257,-0.0,0.0,-4.738238,-0.0
115615,0.001091,0.000743,-0.019533,0.0,-0.001064,0.0,0.0,-0.0,-0.0,2.0,0.282024,0.354261,0.282024,0.155977,-0.0,-17.69935,-0.0,0.0,-4.314295,-0.0
115635,0.001091,0.000743,-0.019533,0.0,0.0,0.0,0.0,-0.0,-0.0,2.0,0.282024,0.353199,0.282024,0.159925,-0.0,-17.865906,-0.0,0.0,-3.920549,-0.0
115655,0.001091,0.000743,-0.019533,0.0,-0.001064,0.0,0.0,-0.0,-0.0,2.0,0.282024,0.354277,0.282024,0.155917,-0.0,-18.017266,-0.0,0.0,-3.564962,-0.0
115675,0.001091,0.000743,-0.019533,0.0,0.0,0.0,0.0,-0.0,-0.0,2.0,0.282024,0.353215,0.282024,0.159868,-0.0,-18.155034,-0.0,0.0,-3.252074,-0.0
115695,0.001091,0.000743,-0.019533,0.0,-0.001064,0.0,0.0,-0.0,-0.0,2.0,0.282024,0.353223,0.282024,0.15984,-0.0,-18.280954,-0.0,0.0,-2.983953,-0.0
115715,0.001091,0.000743,-0.019533,0.0,-0.001064,0.0,0.0,-0.0,-0.0,2.0,0.282024,0.353231,0.282024,0.159811,-0.0,-18.396827,-0.0,0.0,-2.761048,-0.0
115735,0.001091,0.000743,-0.019533,0.0,-0.001064,0.0,0.0,-0.0,-0.0,2.0,0.282024,0.354308,0.282024,0.155797,-0.0,-18.504458,-0.0,0.0,-2.582856,-0.0
115755,0.001091,0.000743,-0.019533,-0.001064,-0.001064,0.0,0.0,-0.0,-0.0,2.0,0.282024,0.353246,0.282024,0.159754,-0.0,-18.605621,-0.0,0.0,-2.448426,-0.0
115775,0.001091,0.000743,-0.019533,0.0,0.0,0.0,0.0,-0.0,-0.0,2.0,0.282024,0.354324,0.282024,0.155737,-0.0,-18.70205,-0.0,0.0,-2.356713,-0.0
115795,0.001091,0.000743,-0.019533,0.0,0.0,0.0,0.0,-0.0,-0.0,2.0,0.282024,0.354332,0.282024,0.155707,-0.0,-18.79544,-0.0,0.0,-2.306811,-0.0
115815,0.001091,0.000743,-0.019533,0.0,-0.001064,0.0,0.0,-0.0,-0.0,2.0,0.282024,0.354339,0.282024,0.155677,-0.0,-18.887454,-0.0,0.0,-2.298099,-0.0
115835,0.001091,0.000743,-0.019533,-0.001064,-0.001064,-0.001064,0.0,-0.0,-0.0,2.0,0.282024,0.354347,0.282024,0.155647,-0.0,-18.979733,-0.0,0.0,-2.330315,-0.0
115855,0.001091,0.000743,-0.019533,0.0,0.0,0.0,0.0,-0.0,-0.0,2.0,0.282024,0.354355,0.282024,0.155616,0.0,-19.073916,-0.0,0.0,-2.403573,-0.0
115875,0.001091,0.000743,-0.019533,0.0,0.0,0.0,0.0,-0.0,-0.0,2.0,0.282024,0.354363,0.282024,0.155586,0.0,-19.17165,-0.0,0.0,-2.518323,-0.0
115895,0.001091,0.000743,-0.019533,-0.001064,-0.001064,-0.001064,0.0,-0.0,-0.0,2.0,0.282024,0.354371,0.282024,0.155556,0.0,-19.274604,-0.0,0.0,-2.675258,-0.0
115915,0.001091,0.000743,-0.019533,0.0,-0.001064,0.0,0.0,-0.0,-0.0,2.0,0.282024,0.353309,0.282024,0.159527,0.0,-19.384477,-0.0,0.0,-2.87515,-0.0
115935,0.001091,0.000743,-0.019533,0.0,0.0,-0.001064,0.079351,-0.0,-0.0,2.0,0.282024,0.330285,0.282024,0.217068,0.000246,-19.502998,-0.0,0.048502,-3.118597,1.1e-05
115955,0.001091,0.000743,-0.019533,0.0,0.0,0.0,0.079351,-0.0,-0.0,2.0,0.282024,0.329668,0.282024,0.21821,0.00339,-19.631912,-0.000205,0.109509,-3.405659,0.000154
115975,0.001091,0.000743,-0.019533,0.0,0.0,0.0,0.079351,-0.0,-0.0,2.0,0.282024,0.32905,0.282024,0.219343,0.009083,-19.772951,-0.001339,0.135422,-3.735353,0.000406
115995,0.001091,0.000743,-0.019533,-0.001064,0.0,0.0,0.079351,-0.0,-0.0,2.0,0.282024,0.32843,0.282024,0.220466,0.017481,-19.927781,-0.004708,0.14358,-4.104995,0.000724
116015,0.001091,0.000743,-0.019533,0.0,-0.001064,0.0,0.079351,-0.0,-0.0,2.0,0.282024,0.327809,0.282024,0.22158,0.031655,-20.097907,-0.013958,0.139742,-4.509393,0.001082
116035,0.001091,0.000743,-0.019533,0.0,0.0,-0.001064,0.079351,-0.0,-0.0,2.0,0.282024,0.327186,0.282024,0.222685,0.070311,-20.284504,-0.048215,0.118422,-4.939945,0.001449
116055,0.001091,0.000743,-0.019533,0.0,0.0,0.0,0.079351,-0.0,-0.0,2.0,0.282024,0.326562,0.282024,0.223781,-0.9302,-20.484176,0.955508,-0.032714,-5.383812,0.000779
116075,0.001091,0.000743,-0.019533,-0.001064,-0.001064,0.0,0.079351,-0.0,-0.0,2.0,0.282024,0.325935,0.282024,0.224868,-0.046264,-20.682301,0.075404,0.300516,-5.825,-0.008162
116095,0.001091,0.000743,-0.019533,-0.001064,-0.001064,-0.001064,0.079351,-0.0,-0.0,2.0,0.282024,0.325308,0.282024,0.225947,-0.013111,-20.921563,0.052967,0.281306,-6.242577,-0.007118
116115,0.001091,0.000743,-0.019533,0.0,0.0,-0.001064,0.079351,-0.0,-0.0,2.0,0.282024,0.324638,0.282024,0.227085,0.000303,-21.176975,0.049855,0.249712,-6.610423,-0.006108
116135,0.000969,0.000742,-0.019533,0.0,-0.001064,0.0,0.079351,-0.0,-0.0,2.0,0.282024,0.3228,0.282024,0.230149,0.008902,-21.446035,0.051451,0.225113,-6.901447,-0.005159
116155,0.000969,0.000742,-0.019533,-0.001064,0.0,0.0,0.079351,-0.0,-0.0,2.0,0.282024,0.322163,0.282024,0.23119,0.01603,-21.725265,0.05525,0.20637,-7.091071,-0.004265
116175,0.000969,0.000742,-0.019533,-0.001064,-0.001064,0.0,0.079351,-0.0,-0.0,2.0,0.282024,0.321524,0.282024,0.232224,0.023204,-22.010302,0.060814,0.190622,-7.161534,-0.003425
116195,0.000969,0.000742,-0.019533,0.0,0.0,0.0,0.079351,-0.0,-0.0,2.0,0.282024,0.322099,0.282024,0.231293,0.03163,-22.296216,0.068528,0.175435,-7.105556,-0.002647
116215,0.000969,0.000742,-0.019533,0.0,0.0,0.0,0.079351,-0.0,-0.0,2.0,0.282024,0.32146,0.282024,0.232326,0.042918,-22.577954,0.079635,0.15854,-6.928089,-0.001945
116235,0.000969,0.000742,-0.019533,0.0,0.0,0.0,0.079351,-0.0,-0.0,2.0,0.282024,0.319597,0.282024,0.235282,0.060235,-22.850802,0.097173,0.136807,-6.645426,-0.001338
116255,0.000969,0.000742,-0.019533,0.0,0.0,-0.001064,0.079351,-0.0,-0.0,2.0,0.282024,0.320177,0.282024,0.23437,0.092218,-23.110721,0.129865,0.103687,-6.281981,-0.000856
116275,0.000969,0.000742,-0.019533,0.0,-0.001064,-0.001064,0.079351,-0.0,-0.0,2.0,0.282024,0.318303,0.282024,0.237287,0.17671,-23.354192,0.216003,0.03877,-5.865881,-0.000553
116295,0.000969,0.000742,-0.019533,0.0,-0.001064,0.0,0.079351,-0.0,-0.0,2.0,0.282024,0.318887,0.282024,0.236387,1.148873,-23.570498,1.192287,-0.181152,-5.424702,-0.002034
116315,0.001091,0.000743,-0.019533,0.0,-0.001064,-0.001064,0.079351,-0.0,-0.0,2.0,0.282024,0.317043,0.282024,0.239204,-6.262768,-23.691373,-6.22789,1.584892,-4.981285,-0.128215
116335,0.001091,0.000743,-0.019533,0.0,0.0,0.0,0.079351,-0.0,-0.0,2.0,0.282024,0.316391,0.282024,0.240183,-6.225982,-23.884057,-6.290381,3.806078,-4.575973,-0.279656
116355,0.001091,0.000743,-0.019533,-0.001064,0.0,0.0,0.079351,-0.0,-0.0,2.0,0.282024,0.31698,0.282024,0.239299,-6.11653,-24.059883,-6.368299,5.680358,-4.261419,-0.426165
116375,0.001091,0.000743,-0.019533,-0.001064,0.0,-0.001064,0.079351,-0.0,-0.0,2.0,0.282024,0.316328,0.282024,0.240277,-5.952936,-24.218461,-6.472914,7.285604,-4.075785,-0.569031
116395,0.000971,0.00062,-0.019533,0.0,0.0,0.0,0.079351,-0.0,-0.0,2.0,0.282024,0.315674,0.282024,0.241249,-5.740416,-24.357204,-6.605571,8.630063,-4.045369,-0.704947
116415,0.000969,0.000742,-0.019533,0.0,-0.001064,0.0,0.079351,-0.0,-0.0,2.0,0.282024,0.314976,0.282024,0.242276,-5.487988,-24.470493,-6.767481,9.554509,-4.173844,-0.818816
116435,0.001091,0.000743,-0.019533,0.0,0.0,0.0,0.079351,-0.0,-0.0,2.0,0.282024,0.314317,0.282024,0.243237,-5.208059,-24.549483,-6.958371,10.162161,-4.440341,-0.913533
116455,0.001091,0.000743,-0.019533,0.0,-0.001064,0.0,0.079351,-0.0,-0.0,2.0,0.282024,0.313698,0.282024,0.244132,-4.911869,-24.582806,-7.17544,10.52788,-4.814964,-0.992555
116475,0.001091,0.000743,-0.019533,0.0,0.0,0.0,0.079351,-0.0,-0.0,2.0,0.282024,0.313036,0.282024,0.24508,-4.612216,-24.559162,-7.412002,10.68754,-5.26073,-1.058713
116495,0.001091,0.000743,-0.019533,0.0,0.0,-0.001064,0.079351,-0.0,-0.0,2.0,0.282024,0.312373,0.282024,0.246023,-4.323821,-24.471466,-7.658214,10.663645,-5.736437,-1.115092
116515,0.001091,0.000743,-0.019533,-0.001064,-0.001064,0.0,0.079351,-0.0,-0.0,2.0,0.282024,0.311707,0.282024,0.24696,-4.061006,-24.320278,-7.905227,10.484396,-6.202999,-1.165345
116535,0.001091,0.000743,-0.019533,0.0,0.0,0.0,0.079351,-0.0,-0.0,2.0,0.282024,0.31104,0.282024,0.247892,-3.836616,-24.113941,-8.15201,10.193259,-6.632315,-1.213464
116555,0.001091,0.000743,-0.019533,0.0,-0.001064,0.0,0.079351,-0.0,-0.0,2.0,0.282024,0.31037,0.282024,0.248818,-3.675499,-23.865681,-8.421881,9.850254,-7.015392,-1.263389
116575,0.001091,0.000743,-0.019533,0.0,0.0,0.0,0.079351,-0.0,-0.0,2.0,0.282024,0.309699,0.282024,0.24974,-3.883231,-23.593211,-9.028799,9.551056,-7.366855,-1.320482
116595,0.001091,0.000743,-0.019533,0.0,-0.001064,-0.001064,0.079351,-0.0,-0.0,2.0,0.282024,0.307737,0.282024,0.252386,-4.077858,-23.502363,-9.602098,9.563811,-7.733512,-1.402938
116615,0.001091,0.000743,-0.019533,-0.001064,0.0,-0.001064,0.079351,-0.0,-0.0,2.0,0.282024,0.30835,0.282024,0.251567,-3.086772,-23.208381,-8.99299,9.196895,-8.147367,-1.462116
116635,0.001091,0.000743,-0.019533,-0.001064,-0.001064,0.0,0.079351,-0.0,-0.0,2.0,0.282024,0.307672,0.282024,0.252473,-2.915832,-22.885545,-9.20844,8.821829,-8.5977,-1.518552
116655,0.001091,0.000743,-0.019533,0.0,-0.001064,0.0,0.079351,-0.0,-0.0,2.0,0.282024,0.305693,0.282024,0.255076,-2.724432,-22.567733,-9.434629,8.546354,-9.132843,-1.577798
116675,0.001091,0.000743,-0.019533,0.0,-0.001064,-0.001064,0.079351,-0.0,-0.0,2.0,0.282024,0.306311,0.282024,0.25427,-2.501811,-22.269757,-9.697572,8.329291,-9.787513,-1.636251
116695,0.001091,0.000743,-0.019533,-0.001064,-0.001064,0.0,0.079351,-0.0,-0.0,2.0,0.282024,0.304319,0.282024,0.256846,-2.228012,-22.017363,-10.022889,8.113797,-10.569523,-1.690461
116715,0.001091,0.000743,-0.019533,0.0,-0.001064,-0.001064,0.079351,-0.0,-0.0,2.0,0.282024,0.304941,0.282024,0.256048,-1.888242,-21.855522,-10.432242,7.831445,-11.45166,-1.737475
116735,0.001091,0.000743,-0.019533,-0.001064,-0.001064,0.0,0.079351,-0.0,-0.0,2.0,0.282024,0.302936,0.282024,0.258598,-1.506952,-21.843545,-10.912248,7.422156,-12.368652,-1.775958
116755,0.001091,0.000743,-0.019533,0.0,0.0,0.0,0.079351,-0.0,-0.0,2.0,0.282024,0.303562,0.282024,0.257808,-1.170347,-22.013499,-11.396515,6.872804,-13.225884,-1.808287
116775,0.001091,0.000743,-0.019533,0.0,0.0,-0.001064,0.079351,-0.0,-0.0,2.0,0.282024,0.30287,0.282024,0.258682,-0.963022,-22.331948,-11.843017,6.23927,-13.928124,-1.841244
116795,0.001091,0.000743,-0.019533,-0.001064,0.0,0.0,0.079351,-0.0,-0.0,2.0,0.282024,0.302175,0.282024,0.259551,-0.943646,-22.726271,-12.312872,5.62067,-14.422802,-1.883414
116815,0.001091,0.000743,-0.019533,-0.001064,-0.001064,0.0,0.079351,-0.0,-0.0,2.0,0.282024,0.301478,0.282024,0.260415,-1.307322,-23.088636,-13.057461,5.151986,-14.731979,-1.944609
116835,0.001091,0.000743,-0.019533,0.0,-0.001064,0.0,0.079351,-0.0,-0.0,2.0,0.282024,0.300778,0.282024,0.261276,-2.38848,-23.097012,-14.463849,5.086409,-14.959339,-2.0427
116855,0.001091,0.000743,-0.019533,0.0,-0.001064,0.0,0.079351,-0.0,-0.0,2.0,0.282024,0.300077,0.282024,0.262132,-2.760474,-22.630065,-15.159834,5.078598,-15.270395,-2.155887
116875,0.001091,0.000743,-0.019533,0.0,0.0,0.0,0.079351,-0.0,-0.0,2.0,0.282024,0.299373,0.282024,0.262984,-2.708506,-22.090761,-15.511399,4.940253,-15.780988,-2.268492
116895,0.001091,0.000743,-0.019533,0.0,-0.001064,0.0,0.079351,-0.0,-0.0,2.0,0.282024,0.298667,0.282024,0.263831,-2.469476,-21.575396,-15.909785,4.693795,-16.530971,-2.381007
116915,0.001091,0.000743,-0.019533,0.0,-0.001064,0.0,0.079351,-0.0,-0.0,2.0,0.282024,0.297958,0.282024,0.264675,-1.903995,-21.206817,-16.597008,4.312979,-17.467924,-2.494077
116935,0.001091,0.000743,-0.019533,-0.001064,0.0,0.0,-0.066043,-0.0,-0.0,2.0,0.282024,0.345354,0.282024,0.183942,-1.032667,-21.309003,-17.58519,3.75087,-18.443816,-2.609201
116955,0.001091,0.000743,-0.019533,0.0,0.0,0.0,-0.066043,-0.0,-0.0,2.0,0.282024,0.345851,0.282024,0.182617,-0.619352,-21.885927,-18.146124,2.864013,-19.223107,-2.721245
116975,0.001091,0.000743,-0.019533,0.0,-0.001064,0.0,-0.066043,-0.0,-0.0,2.0,0.282024,0.346348,0.282024,0.181272,-0.571278,-22.595523,-18.489003,1.893486,-19.589418,-2.847414
116995,0.001091,0.000743,-0.019533,0.0,0.0,0.0,-0.066043,-0.0,-0.0,2.0,0.282024,0.345742,0.282024,0.182909,-1.059956,-23.279952,-19.176711,0.860068,-19.531009,-2.98831
117015,0.001091,0.000743,-0.019533,0.0,-0.001064,0.0,-0.066043,-0.0,-0.0,2.0,0.282024,0.347337,0.282024,0.178525,-3.376127,-23.065271,-21.548905,-0.289644,-19.181441,-3.141592
117035,0.001091,0.000743,-0.019533,0.0,0.0,0.0,-0.066043,-0.0,-0.0,2.0,0.282024,0.34783,0.282024,0.17712,-3.359019,-22.295112,-21.487734,-1.477243,-18.724399,-3.30816
117055,0.001093,0.000621,-0.019533,0.0,0.0,0.0,-0.066043,-0.0,-0.0,2.0,0.282024,0.348323,0.282024,0.175693,-3.436986,-21.541871,-21.441186,-2.634065,-18.307968,-3.487375
117075,0.001091,0.000743,-0.019655,0.0,-0.001064,0.0,-0.066043,-0.0,-0.0,2.0,0.282024,0.348815,0.282024,0.174243,-3.694524,-20.813212,-21.253696,-3.74973,-17.911139,-3.678361
117095,0.001093,0.000621,-0.019655,-0.001064,-0.001064,0.0,-0.066043,-0.0,-0.0,2.0,0.282024,0.349305,0.282024,0.172769,-7.76484,-20.560802,-17.320641,-4.751174,-17.365621,-3.879838
117115,0.001093,0.000621,-0.019655,0.0,-0.001064,0.0,-0.066043,-0.0,-0.0,2.0,0.282024,0.349795,0.282024,0.17127,-6.627897,-21.136394,-18.679557,-5.572966,-16.51973,-4.089069
117135,0.001093,0.000621,-0.019655,0.0,-0.001064,0.0,-0.066043,-0.0,-0.0,2.0,0.282024,0.350284,0.282024,0.169744,-6.795525,-21.793143,-18.798943,-6.148366,-15.241061,-4.302365
117155,0.001093,0.000621,-0.019655,0.0,0.0,0.0,-0.066043,-0.0,-0.0,2.0,0.282024,0.349688,0.282024,0.171601,-7.05556,-22.374308,-18.985966,-6.357256,-13.501407,-4.514513
117175,0.001093,0.000621,-0.019655,0.0,-0.001064,0.0,-0.066043,-0.0,-0.0,2.0,0.282024,0.351259,0.282024,0.166605,-7.503865,-22.828679,-19.339483,-6.156368,-11.438395,-4.720207
117195,0.001093,0.000621,-0.019655,0.0,0.0,0.0,-0.066043,-0.0,-0.0,2.0,0.282024,0.351745,0.282024,0.164989,-8.309975,-23.053559,-20.035371,-5.56643,-9.277855,-4.915883
117215,0.001091,0.000743,-0.019655,0.0,-0.001064,-0.001064,-0.066043,-0.0,-0.0,2.0,0.282024,0.351152,0.282024,0.166956,-9.166562,-22.953138,-20.781373,-4.649264,-7.246043,-5.100529
117235,0.001093,0.000621,-0.019655,0.0,0.0,0.0,-0.066043,-0.0,-0.0,2.0,0.282024,0.351638,0.282024,0.165347,-9.611394,-22.706711,-21.137497,-3.489638,-5.53013,-5.275317
117255,0.001091,0.000743,-0.019655,-0.001064,0.0,0.0,-0.066043,-0.0,-0.0,2.0,0.282024,0.352124,0.282024,0.163704,-9.84048,-22.454558,-21.32287,-2.183786,-4.261904,-5.442613
117275,0.001091,0.000743,-0.019655,0.0,0.0,0.0,-0.066043,-0.0,-0.0,2.0,0.282024,0.352608,0.282024,0.162027,-9.957365,-22.214679,-21.458479,-0.846712,-3.518808,-5.604901
117295,0.001093,0.000621,-0.019655,0.0,0.0,-0.001064,-0.066043,-0.0,-0.0,2.0,0.282024,0.354162,0.282024,0.156356,-9.988782,-21.98006,-21.58175,0.394449,-3.328193,-5.763999
117315,0.001093,0.000621,-0.019655,0.0,-0.001064,0.0,-0.066043,-0.0,-0.0,2.0,0.282024,0.354643,0.282024,0.154497,-9.943949,-21.74147,-21.709168,1.413609,-3.666236,-5.920725
117335,0.001093,0.000621,-0.019655,0.0,0.0,-0.001064,-0.066043,-0.0,-0.0,2.0,0.282024,0.355123,0.282024,0.152589,-9.825495,-21.4915,-21.857881,2.101602,-4.456522,-6.075111
117355,0.001093,0.000621,-0.019655,-0.001064,0.0,0.0,-0.066043,-0.0,-0.0,2.0,0.282024,0.355602,0.282024,0.150623,-9.618598,-21.228262,-22.064226,2.381477,-5.572037,-6.227039
117375,0.001093,0.000621,-0.019655,0.0,0.0,0.0,-0.066043,-0.0,-0.0,2.0,0.282024,0.355018,0.282024,0.153012,-9.24432,-20.970054,-22.429695,2.220369,-6.841401,-6.377016
117395,0.001093,0.000621,-0.019655,-0.001064,0.0,0.0,-0.066043,-0.0,-0.0,2.0,0.282024,0.355497,0.282024,0.151059,-8.463291,-20.816175,-23.21354,1.637838,-8.060061,-6.526649
117415,0.001093,0.000621,-0.019655,0.0,-0.001064,0.0,-0.066043,-0.0,-0.0,2.0,0.282024,0.355976,0.282024,0.15,-7.582426,-20.990639,-24.123681,0.719355,-9.008481,-6.678504
117435,0.001093,0.000621,-0.019655,-0.001064,0.0,0.0,-0.066043,-0.0,-0.0,2.0,0.282024,0.35751,0.282024,0.15,-7.288455,-21.384247,-24.488208,-0.373993,-9.476999,-6.835165
117455,0.001093,0.000621,-0.019655,0.0,-0.001064,0.0,-0.066043,-0.0,-0.0,2.0,0.282024,0.357985,0.282024,0.15,-7.2413,-21.824876,-24.667029,-1.426394,-9.326389,-6.997856
117475,0.001093,0.000621,-0.019655,0.0,-0.001064,-0.001064,-0.066043,-0.0,-0.0,2.0,0.282024,0.358459,0.282024,0.15,-7.311133,-22.262273,-24.81095,-2.214047,-8.547641,-7.165523
117495,0.001093,0.000621,-0.019655,0.0,0.0,0.0,-0.066043,-0.0,-0.0,2.0,0.282024,0.358933,0.282024,0.15,-7.476496,-22.669898,-24.977659,-2.560938,-7.278826,-7.335202
117515,0.001093,0.000621,-0.019655,0.0,-0.001064,0.0,-0.066043,-0.0,-0.0,2.0,0.282024,0.359405,0.282024,0.15,-7.772134,-23.028945,-25.240853,-2.386991,-5.773525,-7.503583
117535,0.001093,0.000621,-0.019655,0.0,0.0,0.0,-0.066043,-0.0,-0.0,2.0,0.282024,0.358829,0.282024,0.15,-8.432427,-23.304815,-25.864122,-1.729737,-4.332696,-7.668639
117555,0.001093,0.000621,-0.019655,0.0,-0.001064,-0.001064,-0.066043,-0.0,-0.0,2.0,0.282024,0.359302,0.282024,0.15,-9.919756,-23.301291,-27.332008,-0.735551,-3.229671,-7.830177
117575,0.001093,0.000621,-0.019655,0.0,-0.001064,0.0,-0.066043,-0.0,-0.0,2.0,0.282024,0.360818,0.282024,0.15,-10.382645,-23.004538,-27.808935,0.360864,-2.655689,-7.989117
117595,0.001093,0.000621,-0.019655,-0.001064,0.0,0.0,-0.066043,-0.0,-0.0,2.0,0.282024,0.360245,0.282024,0.15,-10.463483,-22.677131,-27.949289,1.310582,-2.685488,-8.146326
117615,0.001093,0.000621,-0.019655,0.0,0.0,0.0,-0.066043,-0.0,-0.0,2.0,0.282024,0.361755,0.282024,0.15,-10.444782,-22.336321,-28.030945,1.886119,-3.258353,-8.302023
117635,0.001093,0.000621,-0.019655,0.0,-0.001064,-0.001064,-0.066043,-0.0,-0.0,2.0,0.282024,0.362223,0.282024,0.15,-10.380113,-21.977394,-28.093378,1.942935,-4.192224,-8.456243
117655,0.001093,0.000621,-0.019655,-0.001064,-0.001064,0.0,-0.066043,-0.0,-0.0,2.0,0.282024,0.36269,0.282024,0.15,-10.298722,-21.594977,-28.153046,1.462079,-5.226646,-8.609749
117675,0.001093,0.000621,-0.019655,0.0,0.0,0.0,-0.066043,-0.0,-0.0,2.0,0.282024,0.362121,0.282024,0.15,-10.212108,-21.187864,-28.229962,0.559982,-6.083505,-8.764362
117695,0.001093,0.000621,-0.019655,0.0,0.0,0.0,-0.066043,-0.0,-0.0,2.0,0.282024,0.363621,0.282024,0.15,-10.067668,-20.763835,-28.395615,-0.533531,-6.530905,-8.922163
117715,0.001094,0.000499,-0.019655,0.0,0.0,-0.001064,-0.066043,-0.0,-0.0,2.0,0.282024,0.364086,0.282024,0.15,-7.090986,-20.396484,-31.425558,-1.531559,-6.440994,-9.084068
117735,0.001094,0.000499,-0.019655,0.0,-0.001064,-0.001064,-0.066043,-0.0,-0.0,2.0,0.282024,0.36455,0.282024,0.15,-7.322508,-20.802085,-31.265472,-2.200532,-5.828901,-9.249099
117755,0.001094,0.000499,-0.019655,0.0,0.0,0.0,-0.066043,-0.0,-0.0,2.0,0.282024,0.365013,0.282024,0.15,-7.393728,-21.234371,-31.28797,-2.247701,-4.875076,-9.414767
117775,0.001094,0.000499,-0.019655,0.0,-0.001064,0.0,-0.066043,-0.0,-0.0,2.0,0.282024,0.365475,0.282024,0.15,-7.472393,-21.654008,-31.294839,-1.646617,-3.890052,-9.578605
117795,0.001094,0.000499,-0.019655,-0.001064,-0.001064,-0.001064,-0.066043,-0.0,-0.0,2.0,0.282024,0.364911,0.282024,0.15,-7.523228,-22.06563,-31.293925,-0.585406,-3.198561,-9.739677
117815,0.001094,0.000499,-0.019655,0.0,-0.001064,0.0,-0.066043,-0.0,-0.0,2.0,0.282024,0.366397,0.282024,0.15,-7.526583,-22.476502,-31.285245,0.584033,-3.013271,-9.898288
117835,0.001094,0.000499,-0.019655,0.0,0.0,0.0,-0.066043,-0.0,-0.0,2.0,0.282024,0.366857,0.282024,0.15,-7.475229,-22.893337,-31.263681,1.465111,-3.345876,-10.054885
117855,0.001094,0.000499,-0.019655,0.0,-0.001064,0.0,-0.066043,-0.0,-0.0,2.0,0.282024,0.367316,0.282024,0.15,-7.341564,-23.321081,-31.18688,1.761422,-3.997452,-10.209791
117875,0.001094,0.000499,-0.019655,0.0,-0.001064,0.0,-0.066043,-0.0,-0.0,2.0,0.282024,0.367775,0.282024,0.15,-6.525135,-23.583773,-30.437378,1.41387,-4.638094,-10.36396
117895,0.001094,0.000499,-0.019655,0.0,0.0,0.0,-0.066043,-0.0,-0.0,2.0,0.282024,0.368232,0.282024,0.15,-10.47722,-23.317477,-34.440119,0.694033,-4.957976,-10.519035
117915,0.001094,0.000499,-0.019655,0.0,0.0,0.0,-0.066043,-0.0,-0.0,2.0,0.282024,0.368689,0.282024,0.15,-10.53118,-22.85126,-34.513223,-0.206576,-4.792163,-10.676336
117935,0.001094,0.000499,-0.019655,0.0,0.0,0.0,-0.024384,-0.0,-0.0,2.0,0.282024,0.356391,0.282024,0.15,-10.569768,-22.384743,-34.542253,-0.938189,-4.168814,-10.83603
117955,0.001094,0.000499,-0.019655,-0.001064,0.0,0.0,-0.024384,-0.0,-0.0,2.0,0.282024,0.357629,0.282024,0.15,-10.619741,-21.923334,-34.574157,-1.210596,-3.328849,-10.996818
117975,0.001094,0.000499,-0.019655,0.0,0.0,0.0,-0.024384,-0.0,-0.0,2.0,0.282024,0.357809,0.282024,0.15,-10.65482,-21.466479,-34.617912,-0.942677,-2.633397,-11.157226
117995,0.001095,0.000377,-0.019655,0.0,0.0,0.0,-0.024384,-0.0,-0.0,2.0,0.282024,0.357989,0.282024,0.15,-10.634378,-21.010196,-34.693104,-0.301565,-2.408673,-11.316639
118015,0.001095,0.000377,-0.019655,0.0,0.0,-0.001064,-0.024384,-0.0,-0.0,2.0,0.282024,0.358169,0.282024,0.15,-10.389768,-20.553575,-34.95736,0.367272,-2.785961,-11.475028
118035,0.001095,0.000377,-0.019655,-0.001064,0.0,0.0,-0.024384,-0.0,-0.0,2.0,0.282024,0.358349,0.282024,0.15,-11.954877,-20.40003,-33.376757,0.656121,-3.611299,-11.632411
118055,0.001095,0.000377,-0.019655,0.0,-0.001064,0.0,-0.024384,-0.0,-0.0,2.0,0.282024,0.358529,0.282024,0.15,-4.552713,-20.188989,-40.767228,0.291107,-4.471484,-11.789453
118075,0.001095,0.000377,-0.019655,0.0,0.0,-0.001064,-0.024384,-0.0,-0.0,2.0,0.282024,0.358709,0.282024,0.15,-4.378588,-19.683257,-40.950162,-0.422706,-4.898681,-11.947722
118095,0.001095,0.000377,-0.019655,0.0,-0.001064,0.0,-0.024384,-0.0,-0.0,2.0,0.282024,0.357837,0.282024,0.15,-4.385673,-19.165745,-40.982921,-1.041978,-4.647408,-12.108004
118115,0.001095,0.000377,-0.019655,0.0,-0.001064,0.0,-0.024384,-0.0,-0.0,2.0,0.282024,0.359068,0.282024,0.15,-4.428742,-18.648767,-41.000249,-1.174582,-3.826768,-12.269273
118135,0.001095,0.000377,-0.019655,0.0,0.0,-0.001064,-0.024384,-0.0,-0.0,2.0,0.282024,0.359247,0.282024,0.15,-4.47075,-18.136511,-41.003849,-0.67097,-2.856521,-12.429734
118155,0.001095,0.000377,-0.019655,0.0,0.0,0.0,-0.024384,-0.0,-0.0,2.0,0.282024,0.359426,0.282024,0.15,-4.457281,-17.626679,-40.971173,0.252652,-2.242814,-12.588624
118175,0.001095,0.000377,-0.019655,0.0,0.0,0.0,-0.024384,-0.0,-0.0,2.0,0.282024,0.358557,0.282024,0.15,-5.752301,-17.12903,-42.28658,1.10289,-2.284969,-12.746194
118195,0.001095,0.000377,-0.019655,0.0,-0.001064,0.0,-0.024384,-0.0,-0.0,2.0,0.282024,0.359784,0.282024,0.15,-4.55217,-16.704481,-41.117987,1.413937,-2.891224,-12.90266
118215,0.001096,0.000255,-0.019655,0.0,0.0,0.0,-0.024384,-0.0,-0.0,2.0,0.282024,0.359964,0.282024,0.15,-4.47293,-16.171184,-41.080818,0.922973,-3.628599,-13.058606
118235,0.001096,0.000255,-0.019655,0.0,0.0,0.0,-0.024384,-0.0,-0.0,2.0,0.282024,0.360142,0.282024,0.15,-4.446363,-15.625079,-41.064264,-0.123752,-3.972082,-13.215732
118255,0.001095,0.000377,-0.019655,-0.001064,-0.001064,0.0,-0.024384,-0.0,-0.0,2.0,0.282024,0.360321,0.282024,0.15,-4.471831,-15.071748,-41.049268,-1.120661,-3.655373,-13.375278
118275,0.001096,0.000255,-0.019655,-0.001064,0.0,0.0,-0.024384,-0.0,-0.0,2.0,0.282024,0.360499,0.282024,0.15,-4.544429,-14.517759,-41.02318,-1.457611,-2.871016,-13.536221
118295,0.001095,0.000377,-0.019655,0.0,-0.001064,0.0,-0.024384,-0.0,-0.0,2.0,0.282024,0.360677,0.282024,0.15,-3.946714,-13.967662,-41.671414,-0.915232,-2.176935,-13.696579
118315,0.001095,0.000377,-0.019655,-0.001064,-0.001064,0.0,-0.024384,-0.0,-0.0,2.0,0.282024,0.359812,0.282024,0.15,-4.531065,-13.437827,-41.095098,0.134413,-2.124891,-13.855592
118335,0.000973,0.000376,-0.019655,0.0,0.0,0.0,-0.024384,-0.0,-0.0,2.0,0.282024,0.361034,0.282024,0.15,-4.51916,-12.873457,-41.08368,0.985321,-2.832578,-14.013222
118355,0.001095,0.000377,-0.019655,-0.001064,0.0,0.0,-0.024384,-0.0,-0.0,2.0,0.282024,0.361212,0.282024,0.15,-4.475898,-12.296072,-41.092529,1.029333,-3.826865,-14.169525
118375,0.001095,0.000377,-0.019655,-0.001064,-0.001064,0.0,-0.024384,-0.0,-0.0,2.0,0.282024,0.360348,0.282024,0.15,-4.455236,-11.704277,-41.114199,0.244986,-4.320594,-14.32601
118395,0.001095,0.000377,-0.019655,0.0,-0.001064,0.0,-0.024384,-0.0,-0.0,2.0,0.282024,0.360526,0.282024,0.15,-4.514243,-11.105183,-41.173133,-0.738769,-3.801764,-14.48469
118415,0.000973,0.000376,-0.019655,0.0,-0.001064,0.0,-0.024384,-0.0,-0.0,2.0,0.282024,0.36067,0.282024,0.15,-4.475737,-10.519697,-41.104226,-1.090397,-2.498256,-14.644868
118435,0.000973,0.000376,-0.019655,-0.001064,0.0,0.0,-0.024384,-0.0,-0.0,2.0,0.282024,0.361888,0.282024,0.15,-4.560902,-9.927078,-41.165993,-0.458528,-1.30692,-14.80433
118455,0.001095,0.000377,-0.019655,0.0,0.0,-0.001064,-0.024384,-0.0,-0.0,2.0,0.282024,0.362098,0.282024,0.15,-4.57358,-9.331979,-41.206471,0.6798,-1.15407,-14.962714
118475,0.001095,0.000377,-0.019777,0.0,0.0,0.0,-0.024384,-0.0,-0.0,2.0,0.282024,0.362275,0.282024,0.15,-4.522723,-8.729035,-41.24228,1.32864,-2.237703,-15.120153
118495,0.001094,0.000499,-0.019777,0.0,0.0,0.0,-0.024384,-0.0,-0.0,2.0,0.282024,0.362452,0.282024,0.15,-4.444288,-8.111622,-41.279299,0.787593,-3.758329,-15.276492
118515,0.001095,0.000377,-0.019777,-0.001064,-0.001064,0.0,-0.024384,-0.0,-0.0,2.0,0.282024,0.36263,0.282024,0.15,-4.474258,-7.4785,-41.241087,-0.654348,-4.464782,-15.434216
118535,0.001095,0.000377,-0.019777,-0.001064,-0.001064,0.0,-0.024384,-0.0,-0.0,2.0,0.282024,0.36177,0.282024,0.15,-4.489269,-6.835688,-41.277504,-1.804033,-3.686432,-15.595457
118555,0.001094,0.000499,-0.019777,-0.001064,-0.001064,0.0,-0.024384,-0.0,-0.0,2.0,0.282024,0.362983,0.282024,0.15,-4.561817,-6.197212,-41.2764,-1.516203,-2.016607,-15.757119
118575,0.001094,0.000499,-0.019777,-0.001064,0.0,0.0,-0.024384,-0.0,-0.0,2.0,0.282024,0.362125,0.282024,0.15,-4.589895,-5.562003,-41.24998,0.192212,-0.93426,-15.916396
118595,0.000972,0.000498,-0.019777,0.0,0.0,0.0,-0.024384,-0.0,-0.0,2.0,0.282024,0.363303,0.282024,0.15,-4.455889,-4.924276,-41.136012,1.932745,-1.497637,-16.074167
118615,0.000973,0.000376,-0.019777,0.0,0.0,0.0,-0.024384,-0.0,-0.0,2.0,0.282024,0.363479,0.282024,0.15,-4.540546,-4.383236,-41.306109,2.077107,-3.240819,-16.229803
118635,0.000973,0.000376,-0.019777,0.0,0.0,0.0,-0.024384,-0.0,-0.0,2.0,0.282024,0.363655,0.282024,0.15,-4.457235,-3.714118,-41.280668,0.292917,-4.437037,-16.384838
118655,0.001095,0.000377,-0.019777,-0.001064,-0.001064,0.0,-0.024384,-0.0,-0.0,2.0,0.282024,0.363864,0.282024,0.15,-4.479583,-3.033993,-41.278603,-1.916781,-3.683906,-16.544639
118675,0.001095,0.000377,-0.019777,0.0,0.0,0.0,-0.024384,-0.0,-0.0,2.0,0.282024,0.36404,0.282024,0.15,-4.561182,-2.359716,-41.301661,-2.385009,-1.443017,-16.706795
118695,0.001095,0.000377,-0.019777,0.0,-0.001064,0.0,-0.024384,-0.0,-0.0,2.0,0.282024,0.364217,0.282024,0.15,-4.477886,-1.692094,-41.474386,-0.445676,0.088586,-16.866041
118715,0.001095,0.000377,-0.019777,0.0,-0.001064,0.0,-0.024384,-0.0,-0.0,2.0,0.282024,0.364393,0.282024,0.15,-4.781985,-1.252377,-41.173797,2.03864,-0.95808,-17.024273
118735,0.001095,0.000377,-0.019777,0.0,0.0,0.0,-0.024384,-0.0,-0.0,2.0,0.282024,0.364568,0.282024,0.15,-4.567977,-0.56637,-41.308507,2.366582,-3.908112,-17.179679
118755,0.001095,0.000377,-0.019777,0.0,0.0,0.0,-0.024384,-0.0,-0.0,2.0,0.282024,0.364744,0.282024,0.15,-4.484877,0.147294,-41.374437,-0.110491,-5.772969,-17.333714
118775,0.001095,0.000377,-0.019777,-0.001064,0.0,0.0,-0.024384,-0.0,-0.0,2.0,0.282024,0.36492,0.282024,0.15,-4.568257,0.873474,-41.451378,-2.919456,-4.183467,-17.496033
118795,0.001095,0.000377,-0.019777,0.0,0.0,0.0,-0.024384,-0.0,-0.0,2.0,0.282024,0.365095,0.282024,0.15,-4.915567,1.58225,-41.687462,-2.686143,-0.302493,-17.659453
118815,0.001095,0.000377,-0.019777,-0.001064,0.0,0.0,-0.024384,-0.0,-0.0,2.0,0.282024,0.365271,0.282024,0.15,-0.547445,1.481063,-37.274121,1.105484,1.757144,-17.81755
118835,0.001095,0.000377,-0.019777,0.0,0.0,0.0,-0.024384,-0.0,-0.0,2.0,0.282024,0.365446,0.282024,0.15,-1.557447,0.904341,-38.386439,4.552622,-0.800713,-17.977326
118855,0.001094,0.000499,-0.019777,0.0,-0.001064,0.0,-0.024384,-0.0,-0.0,2.0,0.282024,0.365621,0.282024,0.15,-1.353128,0.174237,-38.339705,3.100592,-5.610871,-18.128892
118875,0.001094,0.000499,-0.019777,0.0,-0.001064,0.0,-0.024384,-0.0,-0.0,2.0,0.282024,0.365796,0.282024,0.15,-1.318127,-0.596164,-38.264618,-2.494878,-6.949008,-18.283393
118895,0.001094,0.000499,-0.019777,-0.001064,-0.001064,0.0,-0.024384,-0.0,-0.0,2.0,0.282024,0.365971,0.282024,0.15,-1.626719,-1.358795,-38.092722,-6.025192,-2.362616,-18.454987
118915,0.001094,0.000499,-0.019777,0.0,0.0,0.0,-0.024384,-0.0,-0.0,2.0,0.282024,0.365122,0.282024,0.15,2.66152,-1.662775,-42.601107,-2.567213,3.348774,-18.614024
118935,0.001094,0.000499,-0.019899,0.0,0.0,0.0,0.086338,-0.0,-0.0,2.0,0.282024,0.333667,0.282024,0.210562,4.49939,-2.162972,-44.452373,4.644578,2.721556,-18.772877
118955,0.001094,0.000499,-0.019777,0.0,-0.001064,0.0,0.086338,-0.0,-0.0,2.0,0.282024,0.333004,0.282024,0.21187,4.80609,-2.917013,-44.548451,6.878119,-4.901714,-18.930704
118975,0.001094,0.000499,-0.019777,0.0,-0.001064,0.0,0.086338,-0.0,-0.0,2.0,0.282024,0.331174,0.282024,0.215397,4.983283,-3.723688,-44.709656,-0.072768,-10.671626,-19.069065
118995,0.001216,0.0005,-0.019777,0.0,0.0,0.0,0.086338,-0.0,-0.0,2.0,0.282024,0.331712,0.282024,0.214373,4.420062,-4.542153,-45.213286,-8.535645,-5.926259,-19.247012
119015,0.001216,0.0005,-0.019777,0.0,0.0,0.0,0.086338,-0.0,-0.0,2.0,0.282024,0.331046,0.282024,0.215641,-58.333413,-4.890404,-107.613808,-6.564376,5.333697,-19.41433
119035,0.001216,0.0005,-0.019777,0.0,0.0,0.0,0.086338,-0.0,-0.0,2.0,0.282024,0.330377,0.282024,0.216897,-58.512862,-5.728828,-107.709121,5.800239,8.480741,-19.565244
119055,0.001216,0.0005,-0.019899,0.0,-0.001064,0.0,0.086338,-0.0,-0.0,2.0,0.282024,0.329706,0.282024,0.218141,-58.132018,-6.546142,-107.682164,12.797877,-3.255227,-19.747408
119075,0.001216,0.0005,-0.019777,0.0,0.0,0.0,0.086338,-0.0,-0.0,2.0,0.282024,0.329034,0.282024,0.219373,-57.922449,-7.389682,-107.361339,2.24735,-16.142091,-19.858254
119095,0.001216,0.0005,-0.019899,0.0,-0.001064,0.0,0.086338,-0.0,-0.0,2.0,0.282024,0.32836,0.282024,0.220594,-89.757375,-7.933478,-75.654652,-14.709195,-10.795942,-20.057484
119115,0.001216,0.0005,-0.019899,-0.001064,0.0,0.0,0.086338,-0.0,-0.0,2.0,0.282024,0.327684,0.282024,0.221804,-89.720206,-8.552585,-76.29788,-13.752834,9.65805,-20.246455
119135,0.001216,0.0005,-0.019899,-0.001064,0.0,0.0,0.086338,-0.0,-0.0,2.0,0.282024,0.327006,0.282024,0.223003,-90.09653,-9.538803,-76.054677,9.14024,17.16345,-20.363777
119155,0.001094,0.000499,-0.019899,0.0,-0.001064,-0.001064,0.086338,-0.0,-0.0,2.0,0.282024,0.326286,0.282024,0.224261,-89.368765,-10.480104,-75.921699,23.860937,-4.321432,-20.614831
119175,0.001094,0.000499,-0.019899,0.0,-0.001064,0.0,0.086338,-0.0,-0.0,2.0,0.282024,0.324405,0.282024,0.227479,-88.266368,-11.334474,-75.558676,3.790655,-28.591585,-20.62485
119195,0.001094,0.000499,-0.019899,0.0,0.0,0.0,0.086338,-0.0,-0.0,2.0,0.282024,0.324918,0.282024,0.22661,-88.96718,-12.690503,-75.890035,-28.497907,-16.018304,-20.923702
119215,0.001094,0.000499,-0.019899,0.0,-0.001064,0.0,0.086338,-0.0,-0.0,2.0,0.282024,0.324231,0.282024,0.227771,-90.107056,-13.634938,-75.995782,-22.728794,24.447057,-21.097777
119235,0.001216,0.0005,-0.019899,0.0,-0.001064,0.0,0.086338,-0.0,-0.0,2.0,0.282024,0.323583,0.282024,0.228855,-90.686212,-14.734646,-75.752119,24.150031,32.365325,-21.170245
119255,0.001216,0.0005,-0.019899,0.0,-0.001064,0.0,0.086338,-0.0,-0.0,2.0,0.282024,0.322893,0.282024,0.229996,-89.13182,-15.901819,-75.868569,44.197257,-17.54738,-21.632395
119275,0.001216,0.0005,-0.019899,0.0,-0.001064,0.0,0.086338,-0.0,-0.0,2.0,0.282024,0.322201,0.282024,0.231127,-87.344976,-17.612588,-75.319134,-8.389341,-56.682267,-21.255561
119295,0.001215,0.000622,-0.019899,0.0,-0.001064,-0.001064,0.086338,-0.0,-0.0,2.0,0.282024,0.320288,0.282024,0.234196,-89.70936,-19.233129,-75.999859,-64.238553,-10.42711,-22.228015
119315,0.001216,0.0005,-0.019899,-0.001064,0.0,0.0,0.086338,-0.0,-0.0,2.0,0.282024,0.319588,0.282024,0.235296,-93.651975,-20.221103,-73.995737,-20.546825,69.443618,-21.735236
119335,0.001093,0.000621,-0.019899,0.0,-0.001064,0.0,0.086338,-0.0,-0.0,2.0,0.282024,0.320073,0.282024,0.234534,-93.41581,-17.649541,-74.075925,77.892504,44.019047,-22.622388
119355,0.001215,0.000622,-0.019899,0.0,0.0,0.0,0.086338,-0.0,-0.0,2.0,0.282024,0.319372,0.282024,0.235634,-89.483309,-16.623554,-73.575416,63.488075,-82.776608,-22.621951
119375,0.001215,0.000622,-0.019899,-0.001064,0.0,-0.001064,0.086338,-0.0,-0.0,2.0,0.282024,0.31871,0.282024,0.236661,-91.392488,-14.969233,-76.576465,-81.352093,-99.118506,-22.354081
119395,0.001215,0.000622,-0.019899,0.0,0.0,0.0,0.086338,-0.0,-0.0,2.0,0.282024,0.318005,0.282024,0.237743,-93.962034,-13.285332,-78.457141,-124.240382,79.571302,-24.951064
119415,0.001215,0.000622,-0.019899,0.0,-0.001064,0.0,0.086338,-0.0,-0.0,2.0,0.282024,0.317299,0.282024,0.238817,-97.532052,-14.279602,-80.768746,81.43458,164.910488,-21.782242
119435,0.001215,0.000622,-0.019899,0.0,-0.001064,0.0,0.086338,-0.0,-0.0,2.0,0.282024,0.315345,0.282024,0.241734,-87.175902,-14.888994,-85.967179,210.074854,-88.527192,-29.254658
119455,0.001215,0.000622,-0.019899,0.0,-0.001064,0.0,0.086338,-0.0,-0.0,2.0,0.282024,0.31588,0.282024,0.240944,-88.89418,-10.773627,-84.891478,-100.391897,-275.13546,-20.046622
119475,0.001215,0.000622,-0.019899,-0.001064,-0.001064,0.0,0.086338,-0.0,-0.0,2.0,0.282024,0.315167,0.282024,0.241996,-106.186554,-14.036402,-97.421337,-355.665733,161.308865,-39.888991
119495,0.001215,0.000622,-0.019899,0.0,0.0,0.0,0.086338,-0.0,-0.0,2.0,0.282024,0.314411,0.282024,0.243101,-114.277982,-14.876378,-104.606562,234.72998,485.592611,-23.943974
119515,0.001215,0.000622,-0.019899,0.0,-0.001064,0.0,0.086338,-0.0,-0.0,2.0,0.282024,0.313693,0.282024,0.24414,-191.845165,-17.628778,-184.448556,72.332918,-1474.951559,-17.144956
119535,0.001215,0.000622,-0.019899,-0.001064,-0.001064,0.0,0.086338,-0.0,-0.0,2.0,0.282024,0.313014,0.282024,0.245112,-346.989414,-10.858003,-325.501461,-4638.667237,4027.870107,-485.341856
119555,0.001215,0.000622,-0.019899,0.0,0.0,0.0,0.086338,-0.0,-0.0,2.0,0.282024,0.312292,0.282024,0.246137,25143614.105934,33832174.982805,913600.549442,-1.1017170025276218e+16,7802809935009261.0,-1204585719463239.0
119575,0.001215,0.000622,-0.019899,0.0,0.0,0.0,0.086338,-0.0,-0.0,2.0,0.282024,0.310294,0.282024,0.248923,5.508730063056285e+106,2.911081224501578e+106,3.448317934097782e+106,-9.069749140258386e+213,6.42356689941961e+213,-9.916603146183798e+212
119595,0.001215,0.000622,-0.019899,0.0,0.0,0.0,0.086338,-0.0,-0.0,2.0,0.282024,0.310659,0.282024,0.24842,,,,,,
119615,0.001215,0.000622,-0.019899,-0.001064,-0.001064,0.0,0.086338,-0.0,-0.0,2.0,0.282024,0.309929,0.282024,0.249424,,,,,,
119635,0.001216,0.0005,-0.019899,-0.001064,-0.001064,0.0,0.086338,-0.0,-0.0,2.0,0.282024,0.309198,0.282024,0.250421,,,,,,
119655,0.001216,0.0005,-0.019899,0.0,0.0,0.0,0.086338,-0.0,-0.0,2.0,0.282024,0.308464,0.282024,0.251413,,,,,,
119675,0.001216,0.0005,-0.019899,0.0,-0.001064,0.0,0.086338,-0.0,-0.0,2.0,0.282024,0.307727,0.282024,0.2524,,,,,,
119695,0.001216,0.0005,-0.020021,0.0,0.0,0.0,0.086338,-0.0,-0.0,2.0,0.282024,0.306988,0.282024,0.25338,,,,,,
119715,0.001216,0.0005,-0.020021,0.0,-0.001064,0.0,0.086338,-0.0,-0.0,2.0,0.282024,0.304942,0.282024,0.256047,,,,,,
119735,0.001215,0.000623,-0.020021,0.0,0.0,0.0,0.086338,-0.0,-0.0,2.0,0.282024,0.304193,0.282024,0.257007,,,,,,
119755,0.001216,0.0005,-0.020021,-0.001064,0.0,0.0,0.086338,-0.0,-0.0,2.0,0.282024,0.303442,0.282024,0.257961,,,,,,
119775,0.001216,0.0005,-0.020021,0.0,0.0,-0.001064,0.086338,-0.0,-0.0,2.0,0.282024,0.304006,0.282024,0.257245,,,,,,
119795,0.001216,0.0005,-0.020021,-0.001064,-0.001064,0.0,0.086338,-0.0,-0.0,2.0,0.282024,0.301932,0.282024,0.259853,,,,,,
119815,0.001216,0.0005,-0.020021,0.0,-0.001064,0.0,0.086338,-0.0,-0.0,2.0,0.282024,0.302499,0.282024,0.259145,,,,,,
119835,0.001216,0.0005,-0.020021,0.0,0.0,0.0,0.086338,-0.0,-0.0,2.0,0.282024,0.301742,0.282024,0.260088,,,,,,
119855,0.001216,0.0005,-0.020021,0.0,0.0,-0.001064,0.086338,-0.0,-0.0,2.0,0.282024,0.300983,0.282024,0.261025,,,,,,
119875,0.001216,0.0005,-0.020021,0.0,-0.001064,0.0,0.086338,-0.0,-0.0,2.0,0.282024,0.30022,0.282024,0.261957,,,,,,
119895,0.001216,0.0005,-0.020021,0.0,0.0,0.0,0.086338,-0.0,-0.0,2.0,0.282024,0.299455,0.282024,0.262885,,,,,,
119915,0.001216,0.0005,-0.020021,0.0,0.0,0.0,0.086338,-0.0,-0.0,2.0,0.282024,0.298687,0.282024,0.263807,,,,,,
119935,0.001216,0.0005,-0.020021,0.0,0.0,-0.001064,-0.047475,-0.0,-0.0,2.0,0.282024,0.341539,0.282024,0.1935,,,,,,
119955,0.001216,0.0005,-0.020021,0.0,0.0,0.0,-0.047475,-0.0,-0.0,2.0,0.282024,0.341905,0.282024,0.192626,,,,,,
119975,0.001216,0.0005,-0.020021,-0.001064,0.0,0.0,-0.047475,-0.0,-0.0,2.0,0.282024,0.343385,0.282024,0.189002,,,,,,
119995,0.001216,0.0005,-0.020021,0.0,0.0,0.0,-0.047475,-0.0,-0.0,2.0,0.282024,0.342635,0.282024,0.190857,,,,,,
120015,0.001216,0.0005,-0.020021,0.0,-0.001064,0.0,-0.047475,-0.0,-0.0,2.0,0.282024,0.344112,0.282024,0.18717,,,,,,
120035,0.001216,0.0005,-0.020021,-0.001064,0.0,-0.001064,-0.047475,-0.0,-0.0,2.0,0.282024,0.344474,0.282024,0.186241,,,,,,
120055,0.001216,0.0005,-0.020021,0.0,-0.001064,0.0,-0.047475,-0.0,-0.0,2.0,0.282024,0.343727,0.282024,0.188145,,,,,,
120075,0.001217,0.000378,-0.020021,0.0,0.0,0.0,-0.047475,-0.0,-0.0,2.0,0.282024,0.345198,0.282024,0.184356,,,,,,
120095,0.001217,0.000378,-0.020021,0.0,-0.001064,0.0,-0.047475,-0.0,-0.0,2.0,0.282024,0.344453,0.282024,0.186296,,,,,,
120115,0.001217,0.000378,-0.020021,0.0,-0.001064,0.0,-0.047475,-0.0,-0.0,2.0,0.282024,0.345919,0.282024,0.182435,,,,,,
120135,0.001217,0.000378,-0.020021,0.0,0.0,-0.001064,-0.047475,-0.0,-0.0,2.0,0.282024,0.346279,0.282024,0.18146,,,,,,
120155,0.001217,0.000378,-0.020021,0.0,-0.001064,0.0,-0.047475,-0.0,-0.0,2.0,0.282024,0.346638,0.282024,0.180475,,,,,,
120175,0.001217,0.000378,-0.020021,0.0,0.0,0.0,-0.047475,-0.0,-0.0,2.0,0.282024,0.345897,0.282024,0.182493,,,,,,
120195,0.001217,0.000378,-0.020021,0.0,-0.001064,0.0,-0.047475,-0.0,-0.0,2.0,0.282024,0.347356,0.282024,0.178473,,,,,,
120215,0.001217,0.000378,-0.020021,-0.001064,0.0,0.0,-0.047475,-0.0,-0.0,2.0,0.282024,0.347713,0.282024,0.177456,,,,,,
120235,0.001216,0.0005,-0.020021,0.0,0.0,0.0,-0.047475,-0.0,-0.0,2.0,0.282024,0.34807,0.282024,0.176428,,,,,,
120255,0.001216,0.0005,-0.020021,0.0,0.0,0.0,-0.047475,-0.0,-0.0,2.0,0.282024,0.348427,0.282024,0.175388,,,,,,
120275,0.001216,0.0005,-0.020021,0.0,-0.001064,0.0,-0.047475,-0.0,-0.0,2.0,0.282024,0.348784,0.282024,0.174335,,,,,,
120295,0.001216,0.0005,-0.020021,0.0,-0.001064,0.0,-0.047475,-0.0,-0.0,2.0,0.282024,0.348049,0.282024,0.17649,,,,,,
120315,0.001216,0.000501,-0.020143,0.0,0.0,0.0,-0.047475,-0.0,-0.0,2.0,0.282024,0.349495,0.282024,0.172191,,,,,,
120335,0.001216,0.000501,-0.020143,0.0,-0.001064,-0.001064,-0.047475,-0.0,-0.0,2.0,0.282024,0.34985,0.282024,0.171099,,,,,,
120355,0.001216,0.000501,-0.020143,-0.001064,0.0,0.0,-0.047475,-0.0,-0.0,2.0,0.282024,0.349118,0.282024,0.173334,,,,,,
120375,0.001216,0.000501,-0.020143,-0.001064,0.0,0.0,-0.047475,-0.0,-0.0,2.0,0.282024,0.350559,0.282024,0.168872,,,,,,
120395,0.001216,0.000501,-0.020143,0.0,-0.001064,-0.001064,-0.047475,-0.0,-0.0,2.0,0.282024,0.350912,0.282024,0.167736,,,,,,
120415,0.001216,0.000501,-0.020143,0.0,-0.001064,0.0,-0.047475,-0.0,-0.0,2.0,0.282024,0.351265,0.282024,0.166583,,,,,,
120435,0.001216,0.000501,-0.020143,-0.001064,0.0,0.0,-0.047475,-0.0,-0.0,2.0,0.282024,0.350538,0.282024,0.16894,,,,,,
120455,0.001216,0.000501,-0.020143,0.0,-0.001064,0.0,-0.047475,-0.0,-0.0,2.0,0.282024,0.35197,0.282024,0.164227,,,,,,
120475,0.001216,0.000501,-0.020143,-0.001064,0.0,-0.001064,-0.047475,-0.0,-0.0,2.0,0.282024,0.352322,0.282024,0.163023,,,,,,
120495,0.001216,0.000501,-0.020143,0.0,0.0,0.0,-0.047475,-0.0,-0.0,2.0,0.282024,0.352673,0.282024,0.161799,,,,,,
120515,0.001094,0.000499,-0.020143,0.0,-0.001064,0.0,-0.047475,-0.0,-0.0,2.0,0.282024,0.352988,0.282024,0.160682,,,,,,
120535,0.001094,0.000499,-0.020143,0.0,-0.001064,-0.001064,-0.047475,-0.0,-0.0,2.0,0.282024,0.353338,0.282024,0.159422,,,,,,
120555,0.001094,0.000499,-0.020143,0.0,0.0,0.0,-0.047475,-0.0,-0.0,2.0,0.282024,0.352615,0.282024,0.162004,,,,,,
120575,0.001216,0.000501,-0.020143,0.0,-0.001064,0.0,-0.047475,-0.0,-0.0,2.0,0.282024,0.354071,0.282024,0.156702,,,,,,
120595,0.001216,0.000501,-0.020143,-0.001064,0.0,0.0,-0.047475,-0.0,-0.0,2.0,0.282024,0.35335,0.282024,0.159376,,,,,,
120615,0.001216,0.000501,-0.020143,0.0,-0.001064,0.0,-0.047475,-0.0,-0.0,2.0,0.282024,0.354768,0.282024,0.154006,,,,,,
120635,0.001216,0.000501,-0.020143,0.0,0.0,-0.001064,-0.047475,-0.0,-0.0,2.0,0.282024,0.355116,0.282024,0.152616,,,,,,
120655,0.001216,0.000501,-0.020143,0.0,-0.001064,-0.001064,-0.047475,-0.0,-0.0,2.0,0.282024,0.354399,0.282024,0.155448,,,,,,
120675,0.001216,0.000501,-0.020143,0.0,-0.001064,0.0,-0.047475,-0.0,-0.0,2.0,0.282024,0.355811,0.282024,0.15,,,,,,
120695,0.001216,0.000501,-0.020143,0.0,0.0,0.0,-0.047475,-0.0,-0.0,2.0,0.282024,0.356158,0.282024,0.15,,,,,,
120715,0.001216,0.000501,-0.020143,0.0,-0.001064,-0.001064,-0.047475,-0.0,-0.0,2.0,0.282024,0.356504,0.282024,0.15,,,,,,
120735,0.001338,0.000502,-0.020143,0.0,-0.001064,-0.001064,-0.047475,-0.0,-0.0,2.0,0.282024,0.356884,0.282024,0.15,,,,,,
120755,0.001216,0.000501,-0.020143,0.0,0.0,0.0,-0.047475,-0.0,-0.0,2.0,0.282024,0.357196,0.282024,0.15,,,,,,
120775,0.001338,0.000502,-0.020143,0.0,0.0,0.0,-0.047475,-0.0,-0.0,2.0,0.282024,0.357575,0.282024,0.15,,,,,,
120795,0.001215,0.000623,-0.020143,0.0,-0.001064,0.0,-0.047475,-0.0,-0.0,2.0,0.282024,0.35683,0.282024,0.15,,,,,,
120815,0.001215,0.000623,-0.020143,0.0,-0.001064,0.0,-0.047475,-0.0,-0.0,2.0,0.282024,0.35823,0.282024,0.15,,,,,,
120835,0.001215,0.000623,-0.020143,-0.001064,0.0,0.0,-0.047475,-0.0,-0.0,2.0,0.282024,0.358573,0.282024,0.15,,,,,,
120855,0.001338,0.000502,-0.020143,0.0,0.0,0.0,-0.047475,-0.0,-0.0,2.0,0.282024,0.358951,0.282024,0.15,,,,,,
120875,0.001338,0.000502,-0.020143,0.0,0.0,0.0,-0.047475,-0.0,-0.0,2.0,0.282024,0.359295,0.282024,0.15,,,,,,
120895,0.001338,0.000502,-0.020143,-0.001064,0.0,0.0,-0.047475,-0.0,-0.0,2.0,0.282024,0.359638,0.282024,0.15,,,,,,
120915,0.001338,0.000502,-0.020143,-0.001064,-0.001064,-0.001064,-0.047475,-0.0,-0.0,2.0,0.282024,0.359981,0.282024,0.15,,,,,,
120935,0.001216,0.000501,-0.020143,-0.001064,0.0,0.0,-0.046825,-0.0,-0.0,2.0,0.282024,0.360103,0.282024,0.15,,,,,,
120955,0.001338,0.000502,-0.020143,0.0,0.0,0.0,-0.046825,-0.0,-0.0,2.0,0.282024,0.360474,0.282024,0.15,,,,,,
120975,0.001216,0.000501,-0.020143,0.0,-0.001064,-0.001064,-0.046825,-0.0,-0.0,2.0,0.282024,0.360777,0.282024,0.15,,,,,,
120995,0.001216,0.000501,-0.020143,0.0,0.0,0.0,-0.046825,-0.0,-0.0,2.0,0.282024,0.361113,0.282024,0.15,,,,,,
121015,0.001216,0.000501,-0.020143,0.0,0.0,0.0,-0.046825,-0.0,-0.0,2.0,0.282024,0.361448,0.282024,0.15,,,,,,
121035,0.001216,0.000501,-0.020143,0.0,-0.001064,0.0,-0.046825,-0.0,-0.0,2.0,0.282024,0.361783,0.282024,0.15,,,,,,
121055,0.001216,0.000501,-0.020143,0.0,-0.001064,0.0,-0.046825,-0.0,-0.0,2.0,0.282024,0.362118,0.282024,0.15,,,,,,
121075,0.001216,0.000501,-0.020143,0.0,-0.001064,0.0,-0.046825,-0.0,-0.0,2.0,0.282024,0.362452,0.282024,0.15,,,,,,
121095,0.001216,0.000501,-0.020143,0.0,0.0,-0.001064,-0.046825,-0.0,-0.0,2.0,0.282024,0.362786,0.282024,0.15,,,,,,
121115,0.001216,0.000501,-0.020143,0.0,-0.001064,0.0,-0.046825,-0.0,-0.0,2.0,0.282024,0.36312,0.282024,0.15,,,,,,
121135,0.001216,0.000501,-0.020143,0.0,0.0,0.0,-0.046825,-0.0,-0.0,2.0,0.282024,0.363453,0.282024,0.15,,,,,,
121155,0.001216,0.000501,-0.020143,0.0,-0.001064,0.0,-0.046825,-0.0,-0.0,2.0,0.282024,0.363785,0.282024,0.15,,,,,,
121175,0.001216,0.000501,-0.020143,-0.001064,0.0,0.0,-0.046825,-0.0,-0.0,2.0,0.282024,0.364118,0.282024,0.15,,,,,,
121195,0.001216,0.000501,-0.020143,0.0,-0.001064,0.0,-0.046825,-0.0,-0.0,2.0,0.282024,0.36445,0.282024,0.15,,,,,,
121215,0.001216,0.000501,-0.020143,0.0,0.0,-0.001064,-0.046825,-0.0,-0.0,2.0,0.282024,0.364781,0.282024,0.15,,,,,,
121235,0.001215,0.000623,-0.020143,0.0,-0.001064,0.0,-0.046825,-0.0,-0.0,2.0,0.282024,0.365112,0.282024,0.15,,,,,,
121255,0.001215,0.000623,-0.020143,-0.001064,-0.001064,0.0,-0.046825,-0.0,-0.0,2.0,0.282024,0.365443,0.282024,0.15,,,,,,
121275,0.001215,0.000623,-0.020143,-0.001064,-0.001064,0.0,-0.046825,-0.0,-0.0,2.0,0.282024,0.364747,0.282024,0.15,,,,,,
121295,0.001215,0.000623,-0.020143,0.0,0.0,0.0,-0.046825,-0.0,-0.0,2.0,0.282024,0.366103,0.282024,0.15,,,,,,
121315,0.001215,0.000623,-0.020143,0.0,-0.001064,-0.001064,-0.046825,-0.0,-0.0,2.0,0.282024,0.366432,0.282024,0.15,,,,,,
121335,0.001092,0.000621,-0.020143,-0.001064,0.0,0.0,-0.046825,-0.0,-0.0,2.0,0.282024,0.365705,0.282024,0.15,,,,,,
121355,0.001092,0.000621,-0.020143,0.0,0.0,0.0,-0.046825,-0.0,-0.0,2.0,0.282024,0.367055,0.282024,0.15,,,,,,
121375,0.001215,0.000623,-0.020143,0.0,-0.001064,0.0,-0.046825,-0.0,-0.0,2.0,0.282024,0.367416,0.282024,0.15,,,,,,
121395,0.001215,0.000623,-0.020143,0.0,0.0,-0.001064,-0.046825,-0.0,-0.0,2.0,0.282024,0.366726,0.282024,0.15,,,,,,
121415,0.001215,0.000623,-0.020143,0.0,-0.001064,0.0,-0.046825,-0.0,-0.0,2.0,0.282024,0.368072,0.282024,0.15,,,,,,
121435,0.001215,0.000623,-0.020143,0.0,0.0,0.0,-0.046825,-0.0,-0.0,2.0,0.282024,0.368399,0.282024,0.15,,,,,,
121455,0.001215,0.000623,-0.020143,0.0,0.0,0.0,-0.046825,-0.0,-0.0,2.0,0.282024,0.368726,0.282024,0.15,,,,,,
121475,0.001092,0.000621,-0.020143,0.0,0.0,0.0,-0.046825,-0.0,-0.0,2.0,0.282024,0.369019,0.282024,0.15,,,,,,
121495,0.001215,0.000623,-0.020143,0.0,0.0,0.0,-0.046825,-0.0,-0.0,2.0,0.282024,0.369378,0.282024,0.15,,,,,,
121515,0.001215,0.000623,-0.020143,0.0,0.0,-0.001064,-0.046825,-0.0,-0.0,2.0,0.282024,0.369703,0.282024,0.15,,,,,,
121535,0.001092,0.000621,-0.020143,0.0,0.0,-0.001064,-0.046825,-0.0,-0.0,2.0,0.282024,0.369995,0.282024,0.15,,,,,,
121555,0.001092,0.000621,-0.020143,0.0,-0.001064,0.0,-0.046825,-0.0,-0.0,2.0,0.282024,0.370319,0.282024,0.15,,,,,,
121575,0.001092,0.000621,-0.020143,-0.001064,-0.001064,0.0,-0.046825,-0.0,-0.0,2.0,0.282024,0.369635,0.282024,0.15,,,,,,
121595,0.001092,0.000621,-0.020143,0.0,-0.001064,0.0,-0.046825,-0.0,-0.0,2.0,0.282024,0.370966,0.282024,0.15,,,,,,
121615,0.001092,0.000621,-0.020143,0.0,-0.001064,0.0,-0.046825,-0.0,-0.0,2.0,0.282024,0.371289,0.282024,0.15,,,,,,
121635,0.001092,0.000621,-0.020143,0.0,0.0,0.0,-0.046825,-0.0,-0.0,2.0,0.282024,0.371612,0.282024,0.15,,,,,,
121655,0.001092,0.000621,-0.020143,0.0,-0.001064,0.0,-0.046825,-0.0,-0.0,2.0,0.282024,0.371935,0.282024,0.15,,,,,,
121675,0.001094,0.000499,-0.020143,0.0,0.0,0.0,-0.046825,-0.0,-0.0,2.0,0.282024,0.372257,0.282024,0.15,,,,,,
121695,0.001094,0.000499,-0.020143,-0.001064,0.0,0.0,-0.046825,-0.0,-0.0,2.0,0.282024,0.372579,0.282024,0.15,,,,,,
121715,0.001094,0.000499,-0.020265,0.0,-0.001064,0.0,-0.046825,-0.0,-0.0,2.0,0.282024,0.3729,0.282024,0.15,,,,,,
121735,0.001094,0.000499,-0.020265,-0.001064,0.0,0.0,-0.046825,-0.0,-0.0,2.0,0.282024,0.372222,0.282024,0.15,,,,,,
121755,0.001094,0.000499,-0.020143,0.0,-0.001064,0.0,-0.046825,-0.0,-0.0,2.0,0.282024,0.373541,0.282024,0.15,,,,,,
121775,0.001094,0.000499,-0.020265,0.0,-0.001064,0.0,-0.046825,-0.0,-0.0,2.0,0.282024,0.373861,0.282024,0.15,,,,,,
121795,0.001094,0.000499,-0.020265,0.0,0.0,0.0,-0.046825,-0.0,-0.0,2.0,0.282024,0.373186,0.282024,0.15,,,,,,
121815,0.001094,0.000499,-0.020265,0.0,-0.001064,-0.001064,-0.046825,-0.0,-0.0,2.0,0.282024,0.373506,0.282024,0.15,,,,,,
121835,0.001094,0.000499,-0.020265,-0.001064,-0.001064,0.0,-0.046825,-0.0,-0.0,2.0,0.282024,0.37482,0.282024,0.15,,,,,,
121855,0.001094,0.000499,-0.020265,-0.001064,0.0,0.0,-0.046825,-0.0,-0.0,2.0,0.282024,0.374146,0.282024,0.15,,,,,,
121875,0.001094,0.000499,-0.020265,0.0,-0.001064,0.0,-0.046825,-0.0,-0.0,2.0,0.282024,0.375457,0.282024,0.15,,,,,,
121895,0.001094,0.000499,-0.020265,0.0,0.0,0.0,-0.046825,-0.0,-0.0,2.0,0.282024,0.375775,0.282024,0.15,,,,,,
121915,0.001094,0.000499,-0.020265,0.0,0.0,0.0,-0.046825,-0.0,-0.0,2.0,0.282024,0.375104,0.282024,0.15,,,,,,
121935,0.001092,0.000621,-0.020265,-0.001064,-0.001064,0.0,0.086447,-0.0,-0.0,2.0,0.282024,0.337907,0.282024,0.20175,,,,,,
121955,0.001092,0.000621,-0.020265,0.0,0.0,-0.001064,0.086447,-0.0,-0.0,2.0,0.282024,0.337255,0.282024,0.203159,,,,,,
121975,0.001092,0.000621,-0.020265,-0.001064,-0.001064,0.0,0.086447,-0.0,-0.0,2.0,0.282024,0.335456,0.282024,0.206941,,,,,,
121995,0.001094,0.000499,-0.020265,0.0,-0.001064,-0.001064,0.086447,-0.0,-0.0,2.0,0.282024,0.334797,0.282024,0.208289,,,,,,
122015,0.001094,0.000499,-0.020265,-0.001064,0.0,0.0,0.086447,-0.0,-0.0,2.0,0.282024,0.335289,0.282024,0.207285,,,,,,
122035,0.001094,0.000499,-0.020265,0.0,-0.001064,0.0,0.086447,-0.0,-0.0,2.0,0.282024,0.33463,0.282024,0.20863,,,,,,
122055,0.001094,0.000499,-0.020265,0.0,-0.001064,0.0,0.086447,-0.0,-0.0,2.0,0.282024,0.332811,0.282024,0.212249,,,,,,
122075,0.00097,0.00062,-0.020265,0.0,0.0,-0.001064,0.086447,-0.0,-0.0,2.0,0.282024,0.332107,0.282024,0.213616,,,,,,
122095,0.00097,0.00062,-0.020265,-0.001064,0.0,0.0,0.086447,-0.0,-0.0,2.0,0.282024,0.332603,0.282024,0.212655,,,,,,
122115,0.00097,0.00062,-0.020265,0.0,-0.001064,0.0,0.086447,-0.0,-0.0,2.0,0.282024,0.331936,0.282024,0.213945,,,,,,
122135,0.001092,0.000621,-0.020265,0.0,-0.001064,0.0,0.086447,-0.0,-0.0,2.0,0.282024,0.330135,0.282024,0.217347,,,,,,
122155,0.001092,0.000621,-0.020265,0.0,-0.001064,0.0,0.086447,-0.0,-0.0,2.0,0.282024,0.330636,0.282024,0.216412,,,,,,
122175,0.001092,0.000621,-0.020265,0.0,0.0,-0.001064,0.086447,-0.0,-0.0,2.0,0.282024,0.329964,0.282024,0.217664,,,,,,
122195,0.001092,0.000621,-0.020265,-0.001064,0.0,0.0,0.086447,-0.0,-0.0,2.0,0.282024,0.329291,0.282024,0.218904,,,,,,
122215,0.001092,0.000621,-0.020265,0.0,-0.001064,0.0,0.086447,-0.0,-0.0,2.0,0.282024,0.328615,0.282024,0.220133,,,,,,
122235,0.001092,0.000621,-0.020265,0.0,-0.001064,0.0,0.086447,-0.0,-0.0,2.0,0.282024,0.327938,0.282024,0.22135,,,,,,
122255,0.001092,0.000621,-0.020265,-0.001064,0.0,0.0,0.086447,-0.0,-0.0,2.0,0.282024,0.326069,0.282024,0.224637,,,,,,
122275,0.001094,0.000499,-0.020265,0.0,0.0,0.0,0.086447,-0.0,-0.0,2.0,0.282024,0.326578,0.282024,0.223752,,,,,,
122295,0.001092,0.000621,-0.020265,0.0,-0.001064,0.0,0.086447,-0.0,-0.0,2.0,0.282024,0.325895,0.282024,0.224938,,,,,,
122315,0.001094,0.000499,-0.020265,-0.001064,-0.001064,-0.001064,0.086447,-0.0,-0.0,2.0,0.282024,0.32521,0.282024,0.226113,,,,,,
122335,0.001094,0.000499,-0.020265,0.0,0.0,0.0,0.086447,-0.0,-0.0,2.0,0.282024,0.324523,0.282024,0.227279,,,,,,
122355,0.001094,0.000499,-0.020265,-0.001064,-0.001064,0.0,0.086447,-0.0,-0.0,2.0,0.282024,0.323835,0.282024,0.228435,,,,,,
122375,0.001216,0.000501,-0.020265,0.0,0.0,0.0,0.086447,-0.0,-0.0,2.0,0.282024,0.323184,0.282024,0.229516,,,,,,
122395,0.001216,0.000501,-0.020265,0.0,0.0,0.0,0.086447,-0.0,-0.0,2.0,0.282024,0.322492,0.282024,0.230653,,,,,,
122415,0.001094,0.000499,-0.020265,0.0,-0.001064,-0.001064,0.086447,-0.0,-0.0,2.0,0.282024,0.321758,0.282024,0.231845,,,,,,
122435,0.001094,0.000499,-0.020265,0.0,-0.001064,0.0,0.086447,-0.0,-0.0,2.0,0.282024,0.321061,0.282024,0.232966,,,,,,
122455,0.001094,0.000499,-0.020265,-0.001064,-0.001064,0.0,0.086447,-0.0,-0.0,2.0,0.282024,0.320362,0.282024,0.234078,,,,,,
122475,0.001092,0.000621,-0.020265,0.0,-0.001064,0.0,0.086447,-0.0,-0.0,2.0,0.282024,0.319661,0.282024,0.235182,,,,,,
122495,0.001092,0.000621,-0.020265,0.0,-0.001064,0.0,0.086447,-0.0,-0.0,2.0,0.282024,0.318957,0.282024,0.236278,,,,,,
122515,0.001092,0.000621,-0.020265,-0.001064,0.0,0.0,0.086447,-0.0,-0.0,2.0,0.282024,0.318252,0.282024,0.237365,,,,,,
122535,0.001092,0.000621,-0.020265,-0.001064,0.0,0.0,0.086447,-0.0,-0.0,2.0,0.282024,0.317544,0.282024,0.238445,,,,,,
122555,0.001092,0.000621,-0.020265,-0.001064,0.0,0.0,0.086447,-0.0,-0.0,2.0,0.282024,0.316835,0.282024,0.239518,,,,,,
122575,0.001092,0.000622,-0.020387,-0.001064,0.0,0.0,0.086447,-0.0,-0.0,2.0,0.282024,0.316123,0.282024,0.240582,,,,,,
122595,0.001092,0.000622,-0.020387,0.0,-0.001064,0.0,0.086447,-0.0,-0.0,2.0,0.282024,0.315409,0.282024,0.24164,,,,,,
122615,0.001092,0.000622,-0.020387,0.0,0.0,0.0,0.086447,-0.0,-0.0,2.0,0.282024,0.314692,0.282024,0.242691,,,,,,
122635,0.001092,0.000622,-0.020387,0.0,0.0,-0.001064,0.086447,-0.0,-0.0,2.0,0.282024,0.313974,0.282024,0.243734,,,,,,
122655,0.001091,0.000744,-0.020387,0.0,-0.001064,0.0,0.086447,-0.0,-0.0,2.0,0.282024,0.313253,0.282024,0.24477,,,,,,
122675,0.001091,0.000744,-0.020265,0.0,-0.001064,-0.001064,0.086447,-0.0,-0.0,2.0,0.282024,0.31253,0.282024,0.2458,,,,,,
122695,0.001213,0.000745,-0.020265,0.0,0.0,0.0,0.086447,-0.0,-0.0,2.0,0.282024,0.311847,0.282024,0.246764,,,,,,
122715,0.001213,0.000745,-0.020265,0.0,0.0,0.0,0.086447,-0.0,-0.0,2.0,0.282024,0.309844,0.282024,0.249541,,,,,,
122735,0.001214,0.000623,-0.020387,0.0,0.0,0.0,0.086447,-0.0,-0.0,2.0,0.282024,0.310391,0.282024,0.248789,,,,,,
122755,0.001214,0.000623,-0.020387,0.0,0.0,0.0,0.086447,-0.0,-0.0,2.0,0.282024,0.30966,0.282024,0.249793,,,,,,
122775,0.001214,0.000623,-0.020265,0.0,-0.001064,-0.001064,0.086447,-0.0,-0.0,2.0,0.282024,0.308926,0.282024,0.25079,,,,,,
122795,0.001214,0.000623,-0.020265,0.0,0.0,0.0,0.086447,-0.0,-0.0,2.0,0.282024,0.30819,0.282024,0.251781,,,,,,
122815,0.001214,0.000623,-0.020265,0.0,0.0,0.0,0.086447,-0.0,-0.0,2.0,0.282024,0.307451,0.282024,0.252766,,,,,,
122835,0.001214,0.000623,-0.020265,0.0,0.0,0.0,0.086447,-0.0,-0.0,2.0,0.282024,0.30671,0.282024,0.253745,,,,,,
122855,0.001214,0.000623,-0.020265,0.0,-0.001064,-0.001064,0.086447,-0.0,-0.0,2.0,0.282024,0.305967,0.282024,0.254719,,,,,,
122875,0.001213,0.000745,-0.020265,0.0,-0.001064,0.0,0.086447,-0.0,-0.0,2.0,0.282024,0.30522,0.282024,0.255688,,,,,,
122895,0.001214,0.000623,-0.020265,0.0,-0.001064,0.0,0.086447,-0.0,-0.0,2.0,0.282024,0.304472,0.282024,0.25665,,,,,,
122915,0.001213,0.000745,-0.020265,0.0,-0.001064,0.0,0.086447,-0.0,-0.0,2.0,0.282024,0.30372,0.282024,0.257608,,,,,,
122935,0.001092,0.000621,-0.020265,-0.001064,-0.001064,0.0,-0.025124,-0.0,-0.0,2.0,0.282024,0.340038,0.282024,0.196999,,,,,,
122955,0.001091,0.000744,-0.020387,0.0,-0.001064,0.0,-0.025124,-0.0,-0.0,2.0,0.282024,0.340236,0.282024,0.196545,,,,,,
122975,0.001213,0.000745,-0.020265,-0.001064,0.0,0.0,-0.025124,-0.0,-0.0,2.0,0.282024,0.339343,0.282024,0.198575,,,,,,
122995,0.001214,0.000623,-0.020387,-0.001064,0.0,0.0,-0.025124,-0.0,-0.0,2.0,0.282024,0.339543,0.282024,0.198124,,,,,,
123015,0.001213,0.000745,-0.020387,0.0,-0.001064,0.0,-0.025124,-0.0,-0.0,2.0,0.282024,0.339742,0.282024,0.197673,,,,,,
123035,0.001213,0.000745,-0.020387,0.0,-0.001064,0.0,-0.025124,-0.0,-0.0,2.0,0.282024,0.341067,0.282024,0.194614,,,,,,
123055,0.001213,0.000745,-0.020387,0.0,-0.001064,0.0,-0.025124,-0.0,-0.0,2.0,0.282024,0.341265,0.282024,0.194147,,,,,,
123075,0.001091,0.000744,-0.020387,-0.001064,0.0,0.0,-0.025124,-0.0,-0.0,2.0,0.282024,0.341426,0.282024,0.193766,,,,,,
123095,0.001091,0.000744,-0.020387,-0.001064,0.0,0.0,-0.025124,-0.0,-0.0,2.0,0.282024,0.340501,0.282024,0.195933,,,,,,
123115,0.001091,0.000744,-0.020387,-0.001064,0.0,0.0,-0.025124,-0.0,-0.0,2.0,0.282024,0.341821,0.282024,0.192827,,,,,,
123135,0.001091,0.000744,-0.020387,0.0,-0.001064,0.0,-0.025124,-0.0,-0.0,2.0,0.282024,0.342018,0.282024,0.192355,,,,,,
123155,0.001091,0.000744,-0.020387,0.0,-0.001064,-0.001064,-0.025124,-0.0,-0.0,2.0,0.282024,0.342214,0.282024,0.19188,,,,,,
