time_ms,roll,pitch,yaw,roll_rate,pitch_rate,yaw_rate,reference_roll,reference_pitch,reference_yaw,reference_throttle,throttle_1,throttle_2,throttle_3,throttle_4,roll_predicted,pitch_predicted,yaw_predicted,roll_rate_predicted,pitch_rate_predicted,yaw_rate_predicted
89682,-0.000107,-0.027104,0.034935,-0.001035,-0.0,-0.001065,-0.0,-0.0,-0.0,3.0,0.3261,0.327144,0.3261,0.325052,,,,,,
89702,1.7e-05,-0.026983,0.03493,-0.002128,0.0,0.0,0.0,-0.0,-0.0,3.0,0.3261,0.327151,0.3261,0.325044,,,,,,
89722,0.000137,-0.027107,0.034932,-0.002128,-0.001064,-0.0,0.0,-0.0,-0.0,3.0,0.3261,0.33122,0.3261,0.320869,,,,,,
89742,1.5e-05,-0.027106,0.034937,-0.001064,-0.001064,-0.0,0.0,-0.0,-0.0,3.0,0.3261,0.326801,0.3261,0.325397,,,,,,
89762,-0.000109,-0.027104,0.035057,2.9e-05,-0.0,-0.001065,0.0,-0.0,-0.0,3.0,0.3261,0.326919,0.3261,0.325279,,,,,,
89782,-0.000227,-0.026979,0.034927,2.9e-05,-0.0,-0.001065,0.0,-0.0,-0.0,3.0,0.3261,0.32242,0.3261,0.329725,,,,,,
89802,-0.000351,-0.027098,0.034925,-0.0,-0.001064,0.0,0.0,-0.0,-0.0,3.0,0.3261,0.317946,0.3261,0.333987,,,,,,
89822,-0.000228,-0.026978,0.035049,-0.0,-0.001064,0.0,0.0,-0.0,-0.0,3.0,0.3261,0.322403,0.3261,0.329741,,,,,,
89842,-0.000231,-0.027102,0.035055,-0.001035,-0.001064,-0.001064,0.0,-0.0,-0.0,3.0,0.3261,0.322636,0.3261,0.329515,,,,,,
89862,1.3e-05,-0.027106,0.035059,-0.001064,-0.001064,-0.0,0.0,-0.0,-0.0,3.0,0.3261,0.32724,0.3261,0.324955,,,,,,
89882,0.000133,-0.027231,0.03506,-0.001064,0.0,0.0,0.0,-0.0,-0.0,3.0,0.3261,0.331543,0.3261,0.320531,,,,,,
89902,0.000377,-0.027235,0.035064,2.9e-05,0.0,-0.001065,0.0,-0.0,-0.0,3.0,0.3261,0.331203,0.3261,0.320887,,,,,,
89922,0.000258,-0.027111,0.035062,0.0,0.0,0.0,0.0,-0.0,-0.0,3.0,0.3261,0.32701,0.3261,0.325187,,,,,,
89942,-0.000109,-0.027104,0.035057,0.0,0.0,0.0,0.0,-0.0,-0.0,3.0,0.3261,0.322627,0.3261,0.329524,,,,,,
89962,-0.000231,-0.027224,0.034933,0.0,0.0,0.0,0.0,-0.0,-0.0,3.0,0.3261,0.317932,0.3261,0.334,,,,,,
89982,-0.000231,-0.027224,0.034933,-0.0,-0.001064,0.0,0.0,-0.0,-0.0,3.0,0.3261,0.322297,0.3261,0.329845,,,,,,
90002,-0.000354,-0.027344,0.03481,-0.0,-0.001064,0.0,0.0,-0.0,-0.0,3.0,0.3261,0.322403,0.3261,0.329741,,,,,,
90022,-0.000232,-0.027346,0.034811,-0.0,-0.001064,0.0,0.0,-0.0,-0.0,3.0,0.3261,0.327002,0.3261,0.325195,,,,,,
90042,0.000132,-0.027475,0.034816,2.9e-05,0.0,-0.001065,0.0,-0.0,-0.0,3.0,0.3261,0.32711,0.3261,0.325086,,,,,,
90062,0.000504,-0.027357,0.034571,-0.001035,1e-06,-0.001065,0.0,-0.0,-0.0,3.0,0.3261,0.331643,0.3261,0.320426,,,,,,
90082,0.000384,-0.027355,0.034447,-0.001064,0.0,0.0,0.0,-0.0,-0.0,3.0,0.3261,0.327236,0.3261,0.324959,,,,,,
90102,0.000385,-0.027355,0.034325,-0.001064,0.0,0.0,0.0,-0.0,-0.0,3.0,0.3261,0.322863,0.3261,0.329294,,,,,,
90122,1.9e-05,-0.027471,0.034198,-0.001064,0.0,0.0,0.0,-0.0,-0.0,3.0,0.3261,0.322766,0.3261,0.329389,,,,,,
90142,1.8e-05,-0.027593,0.034076,0.0,-0.001064,-0.0,0.0,-0.0,-0.0,3.0,0.3261,0.32254,0.3261,0.329609,,,,,,
90162,1.8e-05,-0.027715,0.033954,0.0,-0.002128,-0.0,0.0,-0.0,-0.0,3.0,0.3261,0.32254,0.3261,0.329609,,,,,,
90182,0.00014,-0.027717,0.033956,0.0,-0.002128,-0.0,0.0,-0.0,-0.0,3.0,0.3261,0.322531,0.3261,0.329618,,,,,,
90202,0.000146,-0.027473,0.033834,2.9e-05,-0.001064,-0.001065,0.0,-0.0,-0.0,3.0,0.3261,0.322884,0.3261,0.329274,,,,,,
90222,0.000271,-0.027475,0.033591,-0.001035,0.0,-0.001065,0.0,-0.0,-0.0,3.0,0.3261,0.32278,0.3261,0.329376,,,,,,
90242,0.000643,-0.027237,0.033474,-0.001064,0.001064,1e-06,0.0,-0.0,-0.0,3.0,0.3261,0.323135,0.3261,0.329029,,,,,,
90262,0.000397,-0.027477,0.033349,-0.001064,0.001064,0.0,0.0,-0.0,-0.0,3.0,0.3261,0.327291,0.3261,0.324903,,,,,,
90282,0.000278,-0.027353,0.033225,-0.002128,0.0,0.0,0.0,-0.0,-0.0,3.0,0.3261,0.3273,0.3261,0.324895,,,,,,
90302,-9e-05,-0.027591,0.033098,-0.001064,-0.001064,0.0,0.0,-0.0,-0.0,3.0,0.3261,0.331381,0.3261,0.320701,,,,,,
90322,3.7e-05,-0.027471,0.032856,0.0,-0.001064,-0.0,0.0,-0.0,-0.0,3.0,0.3261,0.322582,0.3261,0.329567,,,,,,
90342,3.7e-05,-0.027593,0.032734,0.001064,-0.001064,-0.0,0.0,-0.0,-0.0,3.0,0.3261,0.322358,0.3261,0.329785,,,,,,
90362,0.000163,-0.027473,0.032613,0.001064,-0.001064,-0.0,0.0,-0.0,-0.0,3.0,0.3261,0.322706,0.3261,0.329447,,,,,,
90382,0.000164,-0.027473,0.032491,0.0,-0.001064,-0.0,0.0,-0.0,-0.0,3.0,0.3261,0.322715,0.3261,0.329438,,,,,,
90402,0.000412,-0.027477,0.032251,-0.001035,0.0,-0.001065,0.0,-0.0,-0.0,3.0,0.3261,0.322955,0.3261,0.329205,,,,,,
90422,0.000659,-0.027359,0.032132,-0.002128,0.0,0.0,0.0,-0.0,-0.0,3.0,0.3261,0.327566,0.3261,0.324626,,,,,,
90442,0.000541,-0.027357,0.031886,-0.002128,0.0,0.0,0.0,-0.0,-0.0,3.0,0.3261,0.331761,0.3261,0.320303,,,,,,
90462,0.00042,-0.027355,0.031763,-0.001064,0.0,0.0,0.0,-0.0,-0.0,3.0,0.3261,0.331769,0.3261,0.320295,,,,,,
90482,0.000302,-0.027353,0.031517,0.0,0.0,0.0,0.0,-0.0,-0.0,3.0,0.3261,0.331779,0.3261,0.320284,,,,,,
90502,0.000303,-0.027353,0.031395,0.001064,0.0,0.0,0.0,-0.0,-0.0,3.0,0.3261,0.322769,0.3261,0.329386,,,,,,
90522,0.000308,-0.027354,0.031029,0.001064,-0.001064,-0.0,0.0,-0.0,-0.0,3.0,0.3261,0.322781,0.3261,0.329374,,,,,,
90542,0.00031,-0.027476,0.030785,0.0,-0.001064,-0.0,0.0,-0.0,-0.0,3.0,0.3261,0.322911,0.3261,0.329248,,,,,,
90562,0.000313,-0.027476,0.030541,0.0,-0.001064,-0.0,0.0,-0.0,-0.0,3.0,0.3261,0.323376,0.3261,0.328794,,,,,,
90582,0.000559,-0.027601,0.0303,-0.001064,-0.001064,-1e-06,0.0,-0.0,-0.0,3.0,0.3261,0.323163,0.3261,0.329002,,,,,,
90602,0.000808,-0.027605,0.029937,-0.002158,-0.001065,0.001064,0.0,-0.0,-0.0,3.0,0.3261,0.323405,0.3261,0.328765,,,,,,
90622,0.000811,-0.027605,0.029693,-0.001064,0.0,0.0,0.0,-0.0,-0.0,3.0,0.3261,0.328021,0.3261,0.324164,,,,,,
90642,0.000816,-0.027483,0.029449,0.0,0.0,0.0,0.0,-0.0,-0.0,3.0,0.3261,0.327915,0.3261,0.324272,,,,,,
90662,0.000335,-0.027354,0.029076,2.9e-05,0.0,-0.001065,0.0,-0.0,-0.0,3.0,0.3261,0.331776,0.3261,0.320287,,,,,,
90682,0.000466,-0.027111,0.028711,0.0,0.0,0.0,0.0,-0.0,-0.0,3.0,0.3261,0.32762,0.3261,0.324571,,,,,,
90702,0.000469,-0.027233,0.028345,0.001035,-0.001065,0.001064,0.0,-0.0,-0.0,3.0,0.3261,0.323149,0.3261,0.329016,,,,,,
90722,0.000716,-0.027237,0.028104,0.0,-0.001064,-1e-06,0.0,-0.0,-0.0,3.0,0.3261,0.32339,0.3261,0.32878,,,,,,
90742,0.000594,-0.027479,0.027859,-0.001064,-0.001064,-1e-06,0.0,-0.0,-0.0,3.0,0.3261,0.32329,0.3261,0.328878,,,,,,
90762,0.000718,-0.027603,0.027616,-0.001064,-0.001064,-1e-06,0.0,-0.0,-0.0,3.0,0.3261,0.327899,0.3261,0.324288,,,,,,
90782,0.000965,-0.027606,0.027375,-0.001064,0.0,0.0,0.0,-0.0,-0.0,3.0,0.3261,0.328138,0.3261,0.324045,,,,,,
90802,0.000972,-0.027362,0.027131,-0.001064,0.0,0.0,0.0,-0.0,-0.0,3.0,0.3261,0.328158,0.3261,0.324025,,,,,,
90822,0.000611,-0.027233,0.026877,-0.001064,0.0,0.0,0.0,-0.0,-0.0,3.0,0.3261,0.327843,0.3261,0.324345,,,,,,
90842,0.000494,-0.027232,0.026509,0.0,0.0,0.0,0.0,-0.0,-0.0,3.0,0.3261,0.327629,0.3261,0.324562,,,,,,
90862,0.000496,-0.027354,0.026265,0.0,0.0,0.0,0.0,-0.0,-0.0,3.0,0.3261,0.327641,0.3261,0.324549,,,,,,
90882,0.000621,-0.027355,0.026023,-2.9e-05,-0.001065,0.001064,0.0,-0.0,-0.0,3.0,0.3261,0.323408,0.3261,0.328763,,,,,,
90902,0.000501,-0.027476,0.025777,-2.9e-05,-0.002129,0.001064,0.0,-0.0,-0.0,3.0,0.3261,0.323432,0.3261,0.328739,,,,,,
90922,0.000747,-0.027601,0.025536,0.0,-0.001064,-1e-06,0.0,-0.0,-0.0,3.0,0.3261,0.323549,0.3261,0.328624,,,,,,
90942,0.00075,-0.027601,0.025292,-0.001035,1e-06,-0.001065,0.0,-0.0,-0.0,3.0,0.3261,0.323566,0.3261,0.328608,,,,,,
90962,0.001002,-0.02736,0.024929,-0.001064,0.0,0.0,0.0,-0.0,-0.0,3.0,0.3261,0.323815,0.3261,0.328364,,,,,,
90982,0.000766,-0.027234,0.024438,-0.001064,0.0,0.0,0.0,-0.0,-0.0,3.0,0.3261,0.323611,0.3261,0.328563,,,,,,
91002,0.000773,-0.027112,0.024071,-0.001064,0.0,0.0,0.0,-0.0,-0.0,3.0,0.3261,0.328109,0.3261,0.324074,,,,,,
91022,0.000653,-0.027355,0.023704,0.0,0.0,0.0,0.0,-0.0,-0.0,3.0,0.3261,0.32789,0.3261,0.324297,,,,,,
91042,0.000656,-0.027477,0.023337,0.0,-0.001064,-1e-06,0.0,-0.0,-0.0,3.0,0.3261,0.327905,0.3261,0.324282,,,,,,
91062,0.00066,-0.027599,0.022971,-2.9e-05,-0.002129,0.001063,0.0,-0.0,-0.0,3.0,0.3261,0.328043,0.3261,0.324141,,,,,,
91082,0.000665,-0.027599,0.022605,-2.9e-05,-0.002129,0.001063,0.0,-0.0,-0.0,3.0,0.3261,0.323583,0.3261,0.328591,,,,,,
91102,0.000549,-0.027475,0.022237,0.0,-0.001064,-1e-06,0.0,-0.0,-0.0,3.0,0.3261,0.323489,0.3261,0.328683,,,,,,
91122,0.000554,-0.027475,0.021871,-0.001064,0.0,0.0,0.0,-0.0,-0.0,3.0,0.3261,0.31894,0.3261,0.333053,,,,,,
91142,0.000559,-0.027475,0.021505,-0.001064,0.001064,1e-06,0.0,-0.0,-0.0,3.0,0.3261,0.323522,0.3261,0.328651,,,,,,
91162,0.000686,-0.027476,0.02114,-0.001064,0.001064,1e-06,0.0,-0.0,-0.0,3.0,0.3261,0.32365,0.3261,0.328526,,,,,,
91182,0.00069,-0.027598,0.020774,-0.001094,-1e-06,0.001065,0.0,-0.0,-0.0,3.0,0.3261,0.328141,0.3261,0.324042,,,,,,
91202,0.000572,-0.027719,0.020406,-0.001094,-0.001065,0.001064,0.0,-0.0,-0.0,3.0,0.3261,0.332441,0.3261,0.319588,,,,,,
91222,0.0007,-0.027598,0.020041,0.0,-0.001064,-1e-06,0.0,-0.0,-0.0,3.0,0.3261,0.332569,0.3261,0.319453,,,,,,
91242,0.000707,-0.027476,0.019675,0.001064,-0.001064,-1e-06,0.0,-0.0,-0.0,3.0,0.3261,0.328069,0.3261,0.324115,,,,,,
91262,0.000345,-0.027472,0.019304,-2.9e-05,-0.002129,0.001064,0.0,-0.0,-0.0,3.0,0.3261,0.323392,0.3261,0.328779,,,,,,
91282,0.000107,-0.027348,0.018934,-0.001064,-0.001064,-0.0,0.0,-0.0,-0.0,3.0,0.3261,0.318607,0.3261,0.333367,,,,,,
91302,0.000232,-0.027593,0.018569,-0.001064,0.0,0.0,0.0,-0.0,-0.0,3.0,0.3261,0.318732,0.3261,0.333249,,,,,,
91322,0.000604,-0.027597,0.018208,-0.001064,0.001064,1e-06,0.0,-0.0,-0.0,3.0,0.3261,0.318962,0.3261,0.333032,,,,,,
91342,0.000607,-0.027719,0.017842,-0.002158,-1e-06,0.001065,0.0,-0.0,-0.0,3.0,0.3261,0.328138,0.3261,0.324045,,,,,,
91362,0.000612,-0.027597,0.017598,-0.001064,0.0,0.0,0.0,-0.0,-0.0,3.0,0.3261,0.332665,0.3261,0.319351,,,,,,
91382,0.000371,-0.027594,0.01735,0.0,0.0,0.0,0.0,-0.0,-0.0,3.0,0.3261,0.332338,0.3261,0.319696,,,,,,
91402,0.000377,-0.02735,0.017106,0.001093,0.0,-0.001065,0.0,-0.0,-0.0,3.0,0.3261,0.327829,0.3261,0.324359,,,,,,
91422,0.000258,-0.027349,0.01686,0.001064,-0.001064,-0.0,0.0,-0.0,-0.0,3.0,0.3261,0.327852,0.3261,0.324335,,,,,,
91442,1.6e-05,-0.027469,0.016613,0.0,-0.001064,-0.0,0.0,-0.0,-0.0,3.0,0.3261,0.323151,0.3261,0.329014,,,,,,
91462,1.7e-05,-0.027591,0.01649,0.0,-0.001064,-0.0,0.0,-0.0,-0.0,3.0,0.3261,0.318583,0.3261,0.333389,,,,,,
91482,1.6e-05,-0.027835,0.016368,-0.001064,-0.001064,-0.0,0.0,-0.0,-0.0,3.0,0.3261,0.323157,0.3261,0.329007,,,,,,
91502,0.000384,-0.027716,0.016373,-0.001064,-0.001064,-0.0,0.0,-0.0,-0.0,3.0,0.3261,0.323626,0.3261,0.328549,,,,,,
91522,0.000263,-0.027715,0.01625,-0.001035,0.0,-0.001065,0.0,-0.0,-0.0,3.0,0.3261,0.327996,0.3261,0.32419,,,,,,
91542,0.000266,-0.027349,0.01625,-0.001035,0.0,-0.001065,0.0,-0.0,-0.0,3.0,0.3261,0.328,0.3261,0.324185,,,,,,
91562,2.4e-05,-0.027347,0.016124,-0.001035,0.0,-0.001065,0.0,-0.0,-0.0,3.0,0.3261,0.327661,0.3261,0.324529,,,,,,
91582,2.5e-05,-0.027225,0.016124,2.9e-05,0.0,-0.001065,0.0,-0.0,-0.0,3.0,0.3261,0.327665,0.3261,0.324525,,,,,,
91602,-9.9e-05,-0.027468,0.016122,2.9e-05,-0.001064,-0.001065,0.0,-0.0,-0.0,3.0,0.3261,0.323065,0.3261,0.329098,,,,,,
91622,2e-05,-0.027591,0.016246,0.0,-0.001064,-0.0,0.0,-0.0,-0.0,3.0,0.3261,0.3233,0.3261,0.328868,,,,,,
91642,-0.000105,-0.027712,0.016367,-0.0,-0.002128,0.0,0.0,-0.0,-0.0,3.0,0.3261,0.323183,0.3261,0.328982,,,,,,
91662,1.4e-05,-0.027713,0.016613,-0.001035,-0.001064,-0.001065,0.0,-0.0,-0.0,3.0,0.3261,0.323293,0.3261,0.328875,,,,,,
91682,0.000259,-0.027471,0.016738,-0.001035,0.0,-0.001065,0.0,-0.0,-0.0,3.0,0.3261,0.323519,0.3261,0.328654,,,,,,
91702,0.000258,-0.027349,0.01686,-0.001035,0.0,-0.001065,0.0,-0.0,-0.0,3.0,0.3261,0.323521,0.3261,0.328652,,,,,,
91722,1.2e-05,-0.027347,0.016979,-0.001035,0.001064,-0.001065,0.0,-0.0,-0.0,3.0,0.3261,0.327779,0.3261,0.32441,,,,,,
91742,1e-05,-0.027347,0.017101,-0.001035,0.0,-0.001065,0.0,-0.0,-0.0,3.0,0.3261,0.327657,0.3261,0.324533,,,,,,
91762,7e-06,-0.027591,0.017223,2.9e-05,0.0,-0.001065,0.0,-0.0,-0.0,3.0,0.3261,0.327653,0.3261,0.324537,,,,,,
91782,0.000126,-0.027714,0.017347,0.0,-0.001064,-0.0,0.0,-0.0,-0.0,3.0,0.3261,0.327763,0.3261,0.324426,,,,,,
91802,0.000123,-0.027836,0.017469,0.0,-0.002128,-0.0,0.0,-0.0,-0.0,3.0,0.3261,0.327886,0.3261,0.324301,,,,,,
91822,0.000242,-0.027837,0.017715,0.0,-0.002128,-1e-06,0.0,-0.0,-0.0,3.0,0.3261,0.323517,0.3261,0.328656,,,,,,
91842,0.000241,-0.027715,0.017837,-0.001035,-0.001064,-0.001065,0.0,-0.0,-0.0,3.0,0.3261,0.323522,0.3261,0.328651,,,,,,
91862,0.000242,-0.027471,0.017959,-0.001035,0.0,-0.001065,0.0,-0.0,-0.0,3.0,0.3261,0.323527,0.3261,0.328646,,,,,,
91882,0.000243,-0.027349,0.017959,-0.001035,0.001064,-0.001064,0.0,-0.0,-0.0,3.0,0.3261,0.323533,0.3261,0.32864,,,,,,
91902,0.00024,-0.027471,0.018081,-0.001035,0.001064,-0.001064,0.0,-0.0,-0.0,3.0,0.3261,0.328014,0.3261,0.324171,,,,,,
91922,0.000241,-0.027349,0.018081,-0.001035,0.001064,-0.001064,0.0,-0.0,-0.0,3.0,0.3261,0.327897,0.3261,0.32429,,,,,,
91942,0.000118,-0.02747,0.018079,2.9e-05,-0.001064,-0.001065,0.0,-0.0,-0.0,3.0,0.3261,0.327787,0.3261,0.324401,,,,,,
91962,0.000238,-0.027471,0.018203,0.0,-0.002128,-1e-06,0.0,-0.0,-0.0,3.0,0.3261,0.327901,0.3261,0.324286,,,,,,
91982,0.000358,-0.027717,0.018205,0.001064,-0.002128,-1e-06,0.0,-0.0,-0.0,3.0,0.3261,0.328139,0.3261,0.324044,,,,,,
92002,0.000359,-0.027594,0.018205,0.0,-0.002128,-1e-06,0.0,-0.0,-0.0,3.0,0.3261,0.323669,0.3261,0.328507,,,,,,
92022,0.000237,-0.027593,0.018203,-0.001064,-0.001064,-0.0,0.0,-0.0,-0.0,3.0,0.3261,0.323565,0.3261,0.328609,,,,,,
92042,0.000361,-0.027594,0.018083,-0.001064,0.0,0.0,0.0,-0.0,-0.0,3.0,0.3261,0.323687,0.3261,0.32849,,,,,,
92062,0.000605,-0.027597,0.018086,-0.001064,0.001064,1e-06,0.0,-0.0,-0.0,3.0,0.3261,0.323797,0.3261,0.328382,,,,,,
92082,0.000486,-0.027473,0.017962,-0.001064,0.001064,1e-06,0.0,-0.0,-0.0,3.0,0.3261,0.328169,0.3261,0.324014,,,,,,
92102,0.000366,-0.027472,0.017839,-0.001064,0.0,0.0,0.0,-0.0,-0.0,3.0,0.3261,0.332462,0.3261,0.319565,,,,,,
92122,0.000243,-0.027471,0.017837,0.0,0.0,0.0,0.0,-0.0,-0.0,3.0,0.3261,0.332359,0.3261,0.319674,,,,,,
92142,0.000491,-0.027473,0.017596,0.001064,-0.001064,-1e-06,0.0,-0.0,-0.0,3.0,0.3261,0.328193,0.3261,0.323989,,,,,,
92162,0.000371,-0.027472,0.017472,0.001064,-0.002128,-1e-06,0.0,-0.0,-0.0,3.0,0.3261,0.323616,0.3261,0.328559,,,,,,
92182,0.00025,-0.027471,0.017348,0.0,-0.001064,-0.0,0.0,-0.0,-0.0,3.0,0.3261,0.323514,0.3261,0.328659,,,,,,
92202,0.000373,-0.027594,0.017228,-0.001064,-0.001064,-0.0,0.0,-0.0,-0.0,3.0,0.3261,0.323637,0.3261,0.328538,,,,,,
92222,0.000619,-0.027596,0.017109,-0.001064,0.0,0.0,0.0,-0.0,-0.0,3.0,0.3261,0.323874,0.3261,0.328306,,,,,,
92242,0.000621,-0.027474,0.016987,-0.001064,0.0,0.0,0.0,-0.0,-0.0,3.0,0.3261,0.324009,0.3261,0.328173,,,,,,
92262,0.000502,-0.027351,0.016863,-0.001064,0.0,0.0,0.0,-0.0,-0.0,3.0,0.3261,0.328378,0.3261,0.323801,,,,,,
92282,0.00038,-0.02735,0.016862,-0.001035,0.0,-0.001065,0.0,-0.0,-0.0,3.0,0.3261,0.332547,0.3261,0.319475,,,,,,
92302,0.000262,-0.027227,0.016616,2.9e-05,0.0,-0.001065,0.0,-0.0,-0.0,3.0,0.3261,0.332449,0.3261,0.319579,,,,,,
92322,0.000387,-0.027106,0.016495,0.001064,-0.001064,-0.0,0.0,-0.0,-0.0,3.0,0.3261,0.328174,0.3261,0.324008,,,,,,
92342,0.000387,-0.02735,0.016373,0.001064,-0.002128,-1e-06,0.0,-0.0,-0.0,3.0,0.3261,0.323707,0.3261,0.32847,,,,,,
92362,0.000631,-0.027474,0.016255,0.0,-0.001064,-1e-06,0.0,-0.0,-0.0,3.0,0.3261,0.319388,0.3261,0.33263,,,,,,
92382,0.000508,-0.027595,0.016253,-0.001035,-0.001064,-0.001065,0.0,-0.0,-0.0,3.0,0.3261,0.319284,0.3261,0.332729,,,,,,
92402,0.000511,-0.027473,0.016131,-0.002128,0.0,0.0,0.0,-0.0,-0.0,3.0,0.3261,0.323978,0.3261,0.328204,,,,,,
92422,0.000511,-0.027473,0.016131,-0.001064,0.0,0.0,0.0,-0.0,-0.0,3.0,0.3261,0.328456,0.3261,0.323721,,,,,,
92442,0.000512,-0.027351,0.016131,-0.001035,1e-06,-0.001065,0.0,-0.0,-0.0,3.0,0.3261,0.328462,0.3261,0.323715,,,,,,
92462,0.000271,-0.027227,0.016005,2.9e-05,0.0,-0.001065,0.0,-0.0,-0.0,3.0,0.3261,0.328128,0.3261,0.324055,,,,,,
92482,0.000149,-0.027226,0.016004,2.9e-05,0.0,-0.001065,0.0,-0.0,-0.0,3.0,0.3261,0.328024,0.3261,0.324161,,,,,,
92502,0.000391,-0.027472,0.016007,0.0,-0.001064,-0.0,0.0,-0.0,-0.0,3.0,0.3261,0.323779,0.3261,0.3284,,,,,,
92522,0.000513,-0.027473,0.016009,0.0,-0.001064,-1e-06,0.0,-0.0,-0.0,3.0,0.3261,0.3239,0.3261,0.32828,,,,,,
92542,0.000268,-0.027593,0.016005,-0.001064,-0.002128,-1e-06,0.0,-0.0,-0.0,3.0,0.3261,0.323805,0.3261,0.328374,,,,,,
92562,0.000391,-0.027472,0.016007,-0.001064,-0.001064,-0.0,0.0,-0.0,-0.0,3.0,0.3261,0.323924,0.3261,0.328257,,,,,,
92582,0.000391,-0.027472,0.016007,-0.001035,0.0,-0.001065,0.0,-0.0,-0.0,3.0,0.3261,0.323806,0.3261,0.328372,,,,,,
92602,0.000392,-0.02735,0.016007,-0.001035,0.001065,-0.001064,0.0,-0.0,-0.0,3.0,0.3261,0.323811,0.3261,0.328367,,,,,,
92622,0.000272,-0.027227,0.015883,-0.001064,0.0,0.0,0.0,-0.0,-0.0,3.0,0.3261,0.328303,0.3261,0.323877,,,,,,
92642,0.000274,-0.027227,0.015761,0.0,0.0,0.0,0.0,-0.0,-0.0,3.0,0.3261,0.32819,0.3261,0.323992,,,,,,
92662,0.000273,-0.027349,0.015761,2.9e-05,0.0,-0.001065,0.0,-0.0,-0.0,3.0,0.3261,0.328197,0.3261,0.323985,,,,,,
92682,0.000397,-0.02735,0.015641,0.0,-0.001064,-0.0,0.0,-0.0,-0.0,3.0,0.3261,0.323843,0.3261,0.328337,,,,,,
92702,0.000274,-0.027471,0.015639,0.0,-0.002128,-1e-06,0.0,-0.0,-0.0,3.0,0.3261,0.323859,0.3261,0.328321,,,,,,
92722,0.000153,-0.027348,0.015637,0.0,-0.002128,-0.0,0.0,-0.0,-0.0,3.0,0.3261,0.323752,0.3261,0.328426,,,,,,
92742,0.000152,-0.02747,0.015637,-0.001035,-0.001064,-0.001065,0.0,-0.0,-0.0,3.0,0.3261,0.323756,0.3261,0.328422,,,,,,
92762,0.000276,-0.027349,0.015517,-0.001035,0.0,-0.001065,0.0,-0.0,-0.0,3.0,0.3261,0.323751,0.3261,0.328426,,,,,,
92782,0.000277,-0.027227,0.015517,-0.001064,0.001064,0.0,0.0,-0.0,-0.0,3.0,0.3261,0.323757,0.3261,0.328421,,,,,,
92802,0.000404,-0.027104,0.015271,-0.001064,0.001064,0.0,0.0,-0.0,-0.0,3.0,0.3261,0.328352,0.3261,0.323827,,,,,,
92822,0.000403,-0.027226,0.015271,-0.001064,0.0,0.0,0.0,-0.0,-0.0,3.0,0.3261,0.328358,0.3261,0.323821,,,,,,
92842,0.000162,-0.027225,0.015024,-0.001064,-0.001064,-0.0,0.0,-0.0,-0.0,3.0,0.3261,0.328144,0.3261,0.324039,,,,,,
92862,0.000163,-0.027225,0.014902,0.0,-0.001064,-0.0,0.0,-0.0,-0.0,3.0,0.3261,0.328149,0.3261,0.324034,,,,,,
92882,-8.1e-05,-0.027467,0.014777,-0.0,-0.002128,0.0,0.0,-0.0,-0.0,3.0,0.3261,0.323571,0.3261,0.328603,,,,,,
92902,-7.8e-05,-0.027345,0.014654,-0.0,-0.001064,0.0,0.0,-0.0,-0.0,3.0,0.3261,0.323447,0.3261,0.328724,,,,,,
92922,-0.000322,-0.027465,0.014529,-0.001064,-0.001064,0.0,0.0,-0.0,-0.0,3.0,0.3261,0.32322,0.3261,0.328947,,,,,,
92942,5e-05,-0.027224,0.01429,-0.001064,0.0,0.0,0.0,-0.0,-0.0,3.0,0.3261,0.323563,0.3261,0.32861,,,,,,
92962,0.000295,-0.027347,0.014171,-0.001064,0.001064,0.0,0.0,-0.0,-0.0,3.0,0.3261,0.323792,0.3261,0.328387,,,,,,
92982,0.000177,-0.027225,0.013925,-0.001064,0.001064,0.0,0.0,-0.0,-0.0,3.0,0.3261,0.328159,0.3261,0.324024,,,,,,
93002,-6.4e-05,-0.027223,0.013678,-0.001064,0.0,0.0,0.0,-0.0,-0.0,3.0,0.3261,0.327939,0.3261,0.324248,,,,,,
93022,-0.000306,-0.027221,0.013552,0.0,0.0,0.0,0.0,-0.0,-0.0,3.0,0.3261,0.332118,0.3261,0.319927,,,,,,
93042,-0.000304,-0.027343,0.013308,0.001064,-0.001064,0.0,0.0,-0.0,-0.0,3.0,0.3261,0.327713,0.3261,0.324477,,,,,,
93062,-0.000423,-0.027465,0.013062,0.001064,-0.002128,1e-06,0.0,-0.0,-0.0,3.0,0.3261,0.323111,0.3261,0.329052,,,,,,
93082,-0.000544,-0.027464,0.012938,-0.0,-0.002128,1e-06,0.0,-0.0,-0.0,3.0,0.3261,0.322992,0.3261,0.329169,,,,,,
93102,-0.000541,-0.027464,0.012694,-0.001064,-0.001064,1e-06,0.0,-0.0,-0.0,3.0,0.3261,0.318412,0.3261,0.33355,,,,,,
93122,-0.000294,-0.027344,0.012576,-0.002128,0.0,0.0,0.0,-0.0,-0.0,3.0,0.3261,0.323208,0.3261,0.328958,,,,,,
93142,-0.000292,-0.027222,0.012453,-0.002128,0.0,0.0,0.0,-0.0,-0.0,3.0,0.3261,0.323201,0.3261,0.328965,,,,,,
93162,-0.000532,-0.02722,0.012206,-0.002128,0.0,0.0,0.0,-0.0,-0.0,3.0,0.3261,0.327575,0.3261,0.324616,,,,,,
93182,-0.000654,-0.027097,0.012204,-0.001035,0.001064,-0.001065,0.0,-0.0,-0.0,3.0,0.3261,0.331741,0.3261,0.320324,,,,,,
93202,-0.000896,-0.027096,0.012079,2.9e-05,-1e-06,-0.001065,0.0,-0.0,-0.0,3.0,0.3261,0.33151,0.3261,0.320566,,,,,,
93222,-0.001016,-0.026973,0.011955,0.001064,-0.001064,1e-06,0.0,-0.0,-0.0,3.0,0.3261,0.326971,0.3261,0.325226,,,,,,
93242,-0.001015,-0.027095,0.011833,0.001064,-0.002128,2e-06,0.0,-0.0,-0.0,3.0,0.3261,0.322457,0.3261,0.329689,,,,,,
93262,-0.000771,-0.027097,0.011836,-0.0,-0.002128,2e-06,0.0,-0.0,-0.0,3.0,0.3261,0.318087,0.3261,0.333855,,,,,,
93282,-0.000773,-0.027219,0.011958,-0.001064,-0.001064,1e-06,0.0,-0.0,-0.0,3.0,0.3261,0.322652,0.3261,0.329499,,,,,,
93302,-0.000651,-0.027219,0.01196,-0.001064,-0.001064,1e-06,0.0,-0.0,-0.0,3.0,0.3261,0.322873,0.3261,0.329285,,,,,,
93322,-0.000529,-0.02722,0.011962,-0.001035,-1e-06,-0.001065,0.0,-0.0,-0.0,3.0,0.3261,0.327461,0.3261,0.324732,,,,,,
93342,-0.000652,-0.027097,0.012082,-0.001035,0.001064,-0.001065,0.0,-0.0,-0.0,3.0,0.3261,0.327334,0.3261,0.32486,,,,,,
93362,-0.000895,-0.026974,0.012079,-0.001035,0.001063,-0.001066,0.0,-0.0,-0.0,3.0,0.3261,0.326976,0.3261,0.325221,,,,,,
93382,-0.001139,-0.026972,0.012076,2.9e-05,-1e-06,-0.001065,0.0,-0.0,-0.0,3.0,0.3261,0.326737,0.3261,0.325462,,,,,,
93402,-0.001017,-0.026973,0.012077,2.9e-05,-0.001065,-0.001064,0.0,-0.0,-0.0,3.0,0.3261,0.322328,0.3261,0.329814,,,,,,
93422,-0.000775,-0.027219,0.01208,-0.0,-0.002128,2e-06,0.0,-0.0,-0.0,3.0,0.3261,0.322536,0.3261,0.329612,,,,,,
93442,-0.000898,-0.02734,0.012079,-0.0,-0.003193,3e-06,0.0,-0.0,-0.0,3.0,0.3261,0.322529,0.3261,0.329619,,,,,,
93462,-0.000656,-0.027463,0.012204,-0.001064,-0.002128,1e-06,0.0,-0.0,-0.0,3.0,0.3261,0.322738,0.3261,0.329416,,,,,,
93482,-0.000535,-0.027342,0.012328,-0.001035,-1e-06,-0.001065,0.0,-0.0,-0.0,3.0,0.3261,0.322837,0.3261,0.32932,,,,,,
93502,-0.000657,-0.027341,0.012326,-0.001035,0.001064,-0.001065,0.0,-0.0,-0.0,3.0,0.3261,0.32271,0.3261,0.329443,,,,,,
93522,-0.000777,-0.026974,0.012325,-0.001035,0.001063,-0.001065,0.0,-0.0,-0.0,3.0,0.3261,0.327083,0.3261,0.325114,,,,,,
93542,-0.000899,-0.026974,0.012323,-0.001035,0.001063,-0.001066,0.0,-0.0,-0.0,3.0,0.3261,0.326835,0.3261,0.325363,,,,,,
93562,-0.000776,-0.026852,0.012325,2.9e-05,0.001063,-0.001065,0.0,-0.0,-0.0,3.0,0.3261,0.326932,0.3261,0.325266,,,,,,
93582,-0.000899,-0.027096,0.012323,-0.0,-0.001064,1e-06,0.0,-0.0,-0.0,3.0,0.3261,0.326802,0.3261,0.325397,,,,,,
93602,-0.000778,-0.027219,0.012325,-0.0,-0.002128,2e-06,0.0,-0.0,-0.0,3.0,0.3261,0.326898,0.3261,0.3253,,,,,,
93622,-0.000659,-0.027463,0.012448,-0.0,-0.003193,2e-06,0.0,-0.0,-0.0,3.0,0.3261,0.322618,0.3261,0.329533,,,,,,
93642,-0.000659,-0.027463,0.012448,-0.0,-0.002128,1e-06,0.0,-0.0,-0.0,3.0,0.3261,0.322605,0.3261,0.329545,,,,,,
93662,-0.00066,-0.027341,0.012571,-0.001035,-0.001065,-0.001064,0.0,-0.0,-0.0,3.0,0.3261,0.322591,0.3261,0.329559,,,,,,
93682,-0.000659,-0.027219,0.012571,-0.001035,0.001064,-0.001065,0.0,-0.0,-0.0,3.0,0.3261,0.322579,0.3261,0.329571,,,,,,
93702,-0.000538,-0.027098,0.012694,-0.001035,0.001064,-0.001065,0.0,-0.0,-0.0,3.0,0.3261,0.327175,0.3261,0.325021,,,,,,
93722,-0.000659,-0.026853,0.012693,-0.001036,0.001064,-0.001065,0.0,-0.0,-0.0,3.0,0.3261,0.326931,0.3261,0.325266,,,,,,
93742,-0.000537,-0.026854,0.012694,2.9e-05,0.001064,-0.001065,0.0,-0.0,-0.0,3.0,0.3261,0.32703,0.3261,0.325166,,,,,,
93762,-0.000539,-0.026976,0.012816,2.9e-05,-0.001065,-0.001064,0.0,-0.0,-0.0,3.0,0.3261,0.327018,0.3261,0.325179,,,,,,
93782,-0.000662,-0.027097,0.012815,0.001093,-0.002129,-0.001063,0.0,-0.0,-0.0,3.0,0.3261,0.326896,0.3261,0.325302,,,,,,
93802,-0.000542,-0.02722,0.012938,-0.0,-0.003193,2e-06,0.0,-0.0,-0.0,3.0,0.3261,0.322621,0.3261,0.32953,,,,,,
93822,-0.000545,-0.027342,0.013061,-0.0,-0.002128,1e-06,0.0,-0.0,-0.0,3.0,0.3261,0.322609,0.3261,0.329542,,,,,,
93842,-0.000424,-0.027221,0.013184,-0.001035,-0.001065,-0.001064,0.0,-0.0,-0.0,3.0,0.3261,0.322711,0.3261,0.329442,,,,,,
93862,-0.000547,-0.02722,0.013305,-0.001035,-1e-06,-0.001065,0.0,-0.0,-0.0,3.0,0.3261,0.322586,0.3261,0.329564,,,,,,
93882,-0.000426,-0.027098,0.013429,-0.001035,0.001064,-0.001065,0.0,-0.0,-0.0,3.0,0.3261,0.327185,0.3261,0.325011,,,,,,
93902,-0.000305,-0.026977,0.013552,-0.001035,0.001064,-0.001065,0.0,-0.0,-0.0,3.0,0.3261,0.327288,0.3261,0.324907,,,,,,
93922,-0.000306,-0.026977,0.013674,2.9e-05,0.001064,-0.001065,0.0,-0.0,-0.0,3.0,0.3261,0.331691,0.3261,0.320377,,,,,,
93942,-0.000186,-0.026978,0.013798,2.9e-05,-0.0,-0.001065,0.0,-0.0,-0.0,3.0,0.3261,0.327263,0.3261,0.324932,,,,,,
93962,-0.000434,-0.02722,0.013917,2.9e-05,-0.002129,-0.001064,0.0,-0.0,-0.0,3.0,0.3261,0.327032,0.3261,0.325164,,,,,,
93982,-0.000313,-0.027221,0.014041,-0.0,-0.003193,1e-06,0.0,-0.0,-0.0,3.0,0.3261,0.322767,0.3261,0.329388,,,,,,
94002,-0.000194,-0.027466,0.014164,-0.0,-0.002128,0.0,0.0,-0.0,-0.0,3.0,0.3261,0.318294,0.3261,0.33366,,,,,,
94022,5e-05,-0.027224,0.01429,-0.001064,-0.001064,-0.0,0.0,-0.0,-0.0,3.0,0.3261,0.323094,0.3261,0.329069,,,,,,
94042,-7.5e-05,-0.027345,0.01441,-0.001035,-0.0,-0.001065,0.0,-0.0,-0.0,3.0,0.3261,0.322976,0.3261,0.329185,,,,,,
94062,-7.5e-05,-0.027101,0.014532,-0.001035,0.001064,-0.001065,0.0,-0.0,-0.0,3.0,0.3261,0.327462,0.3261,0.32473,,,,,,
94082,4.7e-05,-0.02698,0.014656,2.9e-05,0.002128,-0.001065,0.0,-0.0,-0.0,3.0,0.3261,0.327573,0.3261,0.324618,,,,,,
94102,4.6e-05,-0.026857,0.014778,5.7e-05,0.001064,-0.002129,0.0,-0.0,-0.0,3.0,0.3261,0.327575,0.3261,0.324616,,,,,,
94122,4.4e-05,-0.027102,0.014778,2.9e-05,0.0,-0.001065,0.0,-0.0,-0.0,3.0,0.3261,0.327455,0.3261,0.324737,,,,,,
94142,4.3e-05,-0.027224,0.014778,2.9e-05,-0.001064,-0.001065,0.0,-0.0,-0.0,3.0,0.3261,0.327458,0.3261,0.324734,,,,,,
94162,0.000163,-0.027469,0.01478,0.0,-0.003193,-1e-06,0.0,-0.0,-0.0,3.0,0.3261,0.323085,0.3261,0.329078,,,,,,
94182,0.000528,-0.027473,0.01491,-0.001093,-0.003193,0.001063,0.0,-0.0,-0.0,3.0,0.3261,0.323553,0.3261,0.328621,,,,,,
94202,0.000651,-0.02735,0.014909,-0.001064,-0.002128,-1e-06,0.0,-0.0,-0.0,3.0,0.3261,0.323673,0.3261,0.328504,,,,,,
94222,0.000406,-0.027226,0.015027,-0.001035,0.0,-0.001065,0.0,-0.0,-0.0,3.0,0.3261,0.327932,0.3261,0.324254,,,,,,
94242,0.000407,-0.027104,0.015027,-0.001035,0.002129,-0.001064,0.0,-0.0,-0.0,3.0,0.3261,0.327943,0.3261,0.324243,,,,,,
94262,0.000409,-0.02686,0.015027,2.9e-05,0.002129,-0.001064,0.0,-0.0,-0.0,3.0,0.3261,0.327955,0.3261,0.324231,,,,,,
94282,0.000531,-0.026983,0.014907,2.9e-05,0.001065,-0.001064,0.0,-0.0,-0.0,3.0,0.3261,0.327958,0.3261,0.324228,,,,,,
94302,0.000654,-0.027106,0.014786,2.9e-05,1e-06,-0.001065,0.0,-0.0,-0.0,3.0,0.3261,0.323479,0.3261,0.328693,,,,,,
94322,0.000532,-0.027349,0.014663,0.0,-0.002128,-1e-06,0.0,-0.0,-0.0,3.0,0.3261,0.327858,0.3261,0.32433,,,,,,
94342,0.000775,-0.027473,0.014666,-0.001093,-0.003193,0.001062,0.0,-0.0,-0.0,3.0,0.3261,0.328214,0.3261,0.323968,,,,,,
94362,0.000775,-0.027473,0.014666,-2.9e-05,-0.003193,0.001062,0.0,-0.0,-0.0,3.0,0.3261,0.328346,0.3261,0.323834,,,,,,
94382,0.000777,-0.027229,0.014666,2.9e-05,-0.001063,-0.001065,0.0,-0.0,-0.0,3.0,0.3261,0.323886,0.3261,0.328295,,,,,,
94402,0.000413,-0.027226,0.014539,2.9e-05,0.001065,-0.001064,0.0,-0.0,-0.0,3.0,0.3261,0.328041,0.3261,0.324144,,,,,,
94422,0.000539,-0.026861,0.014418,-0.001036,0.002129,-0.001063,0.0,-0.0,-0.0,3.0,0.3261,0.32817,0.3261,0.324013,,,,,,
94442,0.000663,-0.026862,0.014298,-0.001036,0.002129,-0.001063,0.0,-0.0,-0.0,3.0,0.3261,0.323701,0.3261,0.328476,,,,,,
94462,0.000786,-0.026863,0.014178,2.9e-05,0.001065,-0.001064,0.0,-0.0,-0.0,3.0,0.3261,0.323829,0.3261,0.32835,,,,,,
94482,0.000906,-0.02723,0.014179,-0.001064,-0.001064,-1e-06,0.0,-0.0,-0.0,3.0,0.3261,0.328305,0.3261,0.323875,,,,,,
94502,0.000907,-0.027352,0.014057,0.0,-0.003193,-3e-06,0.0,-0.0,-0.0,3.0,0.3261,0.328442,0.3261,0.323735,,,,,,
94522,0.000906,-0.027474,0.014057,0.0,-0.003193,-3e-06,0.0,-0.0,-0.0,3.0,0.3261,0.328457,0.3261,0.32372,,,,,,
94542,0.000906,-0.027474,0.014057,0.0,-0.002128,-2e-06,0.0,-0.0,-0.0,3.0,0.3261,0.324126,0.3261,0.328058,,,,,,
94562,0.000663,-0.027228,0.014054,-0.001064,0.0,0.0,0.0,-0.0,-0.0,3.0,0.3261,0.323918,0.3261,0.328263,,,,,,
94582,0.000663,-0.027106,0.014176,-0.001035,0.001065,-0.001064,0.0,-0.0,-0.0,3.0,0.3261,0.323933,0.3261,0.328248,,,,,,
94602,0.000663,-0.026984,0.014176,-0.001036,0.002129,-0.001063,0.0,-0.0,-0.0,3.0,0.3261,0.323949,0.3261,0.328232,,,,,,
94622,0.000786,-0.026863,0.014178,-0.001036,0.001065,-0.001064,0.0,-0.0,-0.0,3.0,0.3261,0.328547,0.3261,0.323629,,,,,,
94642,0.000908,-0.026986,0.014179,2.9e-05,1e-06,-0.001065,0.0,-0.0,-0.0,3.0,0.3261,0.328674,0.3261,0.323499,,,,,,
94662,0.000906,-0.026986,0.014301,2.9e-05,-0.001063,-0.001066,0.0,-0.0,-0.0,3.0,0.3261,0.328567,0.3261,0.323608,,,,,,
94682,0.000905,-0.027108,0.014301,2.9e-05,-0.002127,-0.001067,0.0,-0.0,-0.0,3.0,0.3261,0.328584,0.3261,0.323591,,,,,,
94702,0.00078,-0.027229,0.014422,0.0,-0.003193,-2e-06,0.0,-0.0,-0.0,3.0,0.3261,0.324138,0.3261,0.328046,,,,,,
94722,0.000779,-0.027229,0.014544,0.0,-0.002128,-2e-06,0.087266,-0.0,-0.0,3.0,0.3261,0.218413,0.3261,0.398681,,,,,,
94742,0.000902,-0.027108,0.014546,2.9e-05,1e-06,-0.001065,0.087266,-0.0,-0.0,3.0,0.3261,0.215575,0.3261,0.399869,,,,,,
94762,0.001872,-0.026993,0.015047,0.003221,0.001066,-0.001063,0.087266,-0.0,-0.0,3.0,0.3261,0.244342,0.3261,0.38638,,,,,,
94782,0.004433,-0.026771,0.01545,0.007506,0.001074,-0.002124,0.087266,-0.0,-0.0,3.0,0.3261,0.276164,0.3261,0.367311,,,,,,
94802,0.009677,-0.026812,0.015886,0.012799,0.001074,-0.001054,0.087266,-0.0,-0.0,3.0,0.3261,0.31086,0.3261,0.340429,,,,,,
94822,0.017239,-0.026874,0.016352,0.019184,0.001082,-0.001046,0.087266,-0.0,-0.0,3.0,0.3261,0.334611,0.3261,0.317276,,,,,,
94842,0.027002,-0.027075,0.016605,0.024506,2.9e-05,-0.001064,0.087266,-0.0,-0.0,3.0,0.3261,0.354137,0.3261,0.294325,,,,,,
94862,0.038358,-0.027283,0.016516,0.026607,-0.001063,-4.1e-05,0.087266,-0.0,-0.0,3.0,0.3261,0.369973,0.3261,0.272164,,,,,,
94882,0.050812,-0.027616,0.016443,0.026578,-0.001117,0.001009,0.087266,-0.0,-0.0,3.0,0.3261,0.382456,0.3261,0.251569,,,,,,
94902,0.063756,-0.028071,0.016384,0.024449,-0.00113,0.000995,0.087266,-0.0,-0.0,3.0,0.3261,0.388035,0.3261,0.241163,,,,,,
94922,0.075727,-0.028026,0.016296,0.021285,0.0,0.0,0.087266,-0.0,-0.0,3.0,0.3261,0.392907,0.3261,0.231292,,,,,,
94942,0.085748,-0.028215,0.016315,0.017028,0.0,0.0,0.087266,-0.0,-0.0,3.0,0.3261,0.389586,0.3261,0.238107,,,,,,
94962,0.093448,-0.028263,0.016298,0.012771,0.0,0.0,0.087266,-0.0,-0.0,3.0,0.3261,0.377276,0.3261,0.26052,,,,,,
94982,0.098823,-0.028305,0.016491,0.00748,0.000105,-0.001059,0.087266,-0.0,-0.0,3.0,0.3261,0.358688,0.3261,0.288332,,,,,,
95002,0.101636,-0.027959,0.01651,0.002158,0.000108,-0.001059,0.087266,-0.0,-0.0,3.0,0.3261,0.341046,0.3261,0.310161,,,,,,
95022,0.102126,-0.027833,0.016387,-0.002099,0.000108,-0.001059,0.087266,-0.0,-0.0,3.0,0.3261,0.31967,0.3261,0.332362,,,,,,
95042,0.101153,-0.028059,0.016144,-0.005318,-0.001059,-0.000108,0.087266,-0.0,-0.0,3.0,0.3261,0.304774,0.3261,0.345681,,,,,,
95062,0.099075,-0.028277,0.015885,-0.005318,-0.001059,-0.000105,0.087266,-0.0,-0.0,3.0,0.3261,0.297778,0.3261,0.351418,,,,,,
95082,0.097004,-0.028239,0.015368,-0.005345,-0.002222,0.000853,0.087266,-0.0,-0.0,3.0,0.3261,0.300886,0.3261,0.348908,,,,,,
95102,0.095174,-0.028331,0.014983,-0.00322,-0.001161,0.000959,0.087266,-0.0,-0.0,3.0,0.3261,0.309154,0.3261,0.341928,,,,,,
95122,0.094205,-0.028303,0.014483,-3e-06,0.00106,0.0001,0.087266,-0.0,-0.0,3.0,0.3261,0.32238,0.3261,0.329764,,,,,,
95142,0.094092,-0.028274,0.013871,0.002123,0.002119,0.0002,0.087266,-0.0,-0.0,3.0,0.3261,0.331341,0.3261,0.320743,,,,,,
95162,0.095688,-0.028009,0.01327,0.004251,0.002119,0.000203,0.087266,-0.0,-0.0,3.0,0.3261,0.341481,0.3261,0.309664,,,,,,
95182,0.098383,-0.028237,0.012708,0.005318,0.001059,0.000105,0.087266,-0.0,-0.0,3.0,0.3261,0.343879,0.3261,0.306896,,,,,,
95202,0.101575,-0.028338,0.012027,0.006358,-0.001167,0.000951,0.087266,-0.0,-0.0,3.0,0.3261,0.350797,0.3261,0.298554,,,,,,
95222,0.104638,-0.028198,0.011452,0.005298,-0.002228,0.000836,0.087266,-0.0,-0.0,3.0,0.3261,0.357582,0.3261,0.289814,,,,,,
95242,0.107578,-0.028299,0.010888,0.005301,-0.003288,0.000716,0.087266,-0.0,-0.0,3.0,0.3261,0.360374,0.3261,0.28604,,,,,,
95262,0.110397,-0.028276,0.010317,0.00423,-0.001175,0.000941,0.087266,-0.0,-0.0,3.0,0.3261,0.359172,0.3261,0.287679,,,,,,
95282,0.112485,-0.028128,0.009729,0.003189,0.001057,0.00012,0.087266,-0.0,-0.0,3.0,0.3261,0.357205,0.3261,0.290315,,,,,,
95302,0.11384,-0.02822,0.009145,0.002125,0.001057,0.000121,0.087266,-0.0,-0.0,3.0,0.3261,0.354902,0.3261,0.293337,,,,,,
95322,0.114578,-0.028194,0.008667,-3e-06,0.001057,0.000122,0.087266,-0.0,-0.0,3.0,0.3261,0.347907,0.3261,0.302105,,,,,,
95342,0.114825,-0.02866,0.008332,-0.001064,0.0,0.0,0.087266,-0.0,-0.0,3.0,0.3261,0.340183,0.3261,0.311138,,,,,,
95362,0.114832,-0.028754,0.007852,-0.003189,-0.001057,-0.000122,0.087266,-0.0,-0.0,3.0,0.3261,0.336559,0.3261,0.315164,,,,,,
95382,0.113984,-0.02861,0.007468,-0.003189,-0.001057,-0.000121,0.087266,-0.0,-0.0,3.0,0.3261,0.336189,0.3261,0.315569,,,,,,
95402,0.11313,-0.028465,0.007082,-0.003219,-0.001178,0.000938,0.087266,-0.0,-0.0,3.0,0.3261,0.336043,0.3261,0.315728,,,,,,
95422,0.112283,-0.028443,0.006705,-0.002125,-0.001058,-0.000119,0.087266,-0.0,-0.0,3.0,0.3261,0.340028,0.3261,0.311314,,,,,,
95442,0.11168,-0.028416,0.006209,-0.001061,-0.001058,-0.000119,0.087266,-0.0,-0.0,3.0,0.3261,0.339822,0.3261,0.311546,,,,,,
95462,0.111322,-0.028388,0.005716,-0.001091,-0.001176,0.00094,0.087266,-0.0,-0.0,3.0,0.3261,0.340055,0.3261,0.311283,,,,,,
95482,0.111205,-0.02849,0.005356,-0.001068,0.001058,0.000118,0.087266,-0.0,-0.0,3.0,0.3261,0.340389,0.3261,0.310906,,,,,,
95502,0.111331,-0.028591,0.004998,-7e-06,0.002115,0.000237,0.087266,-0.0,-0.0,3.0,0.3261,0.345008,0.3261,0.305571,,,,,,
95522,0.111583,-0.028442,0.004507,-3e-06,0.001058,0.000119,0.087266,-0.0,-0.0,3.0,0.3261,0.345782,0.3261,0.304654,,,,,,
95542,0.111709,-0.028543,0.00415,0.001064,0.0,0.0,0.087266,-0.0,-0.0,3.0,0.3261,0.346218,0.3261,0.304136,,,,,,
95562,0.111836,-0.028645,0.003793,3e-06,-0.001058,-0.000119,0.087266,-0.0,-0.0,3.0,0.3261,0.342728,0.3261,0.308233,,,,,,
95582,0.111597,-0.028388,0.003532,7e-06,-0.002115,-0.000237,0.087266,-0.0,-0.0,3.0,0.3261,0.338719,0.3261,0.31278,,,,,,
95602,0.111238,-0.028361,0.003039,-0.001061,-0.001058,-0.000118,0.087266,-0.0,-0.0,3.0,0.3261,0.338848,0.3261,0.312637,,,,,,
95622,0.111113,-0.028467,0.0028,-0.002128,0.0,0.0,0.087266,-0.0,-0.0,3.0,0.3261,0.339174,0.3261,0.312272,,,,,,
95642,0.110872,-0.028576,0.002559,-0.002128,0.0,0.0,0.087266,-0.0,-0.0,3.0,0.3261,0.343479,0.3261,0.307361,,,,,,
95662,0.110388,-0.028685,0.002315,-0.002125,-0.001058,-0.000117,0.087266,-0.0,-0.0,3.0,0.3261,0.347734,0.3261,0.302314,,,,,,
95682,0.110026,-0.02855,0.002059,-0.002128,0.0,0.0,0.087266,-0.0,-0.0,3.0,0.3261,0.347935,0.3261,0.302071,,,,,,
95702,0.109542,-0.028537,0.001809,-0.001068,0.001058,0.000116,0.087266,-0.0,-0.0,3.0,0.3261,0.347824,0.3261,0.302206,,,,,,
95722,0.109301,-0.028287,0.00167,-0.001068,0.001058,0.000116,0.087266,-0.0,-0.0,3.0,0.3261,0.348027,0.3261,0.30196,,,,,,
95742,0.108932,-0.028273,0.001421,-0.001064,0.0,0.0,0.087266,-0.0,-0.0,3.0,0.3261,0.343987,0.3261,0.30677,,,,,,
95762,0.108448,-0.02826,0.00117,-0.001061,-0.001058,-0.000115,0.087266,-0.0,-0.0,3.0,0.3261,0.339763,0.3261,0.311612,,,,,,
95782,0.108451,-0.028613,0.000946,-0.002125,-0.001058,-0.000115,0.087266,-0.0,-0.0,3.0,0.3261,0.340138,0.3261,0.311189,,,,,,
95802,0.108087,-0.028607,0.000819,-0.002125,-0.001058,-0.000115,0.087266,-0.0,-0.0,3.0,0.3261,0.340188,0.3261,0.311133,,,,,,
95822,0.107968,-0.028594,0.000573,-0.002155,-0.001173,0.000944,0.087266,-0.0,-0.0,3.0,0.3261,0.344749,0.3261,0.305876,,,,,,
95842,0.107359,-0.028595,0.000564,-0.001064,0.0,0.0,0.087266,-0.0,-0.0,3.0,0.3261,0.344601,0.3261,0.30605,,,,,,
95862,0.106873,-0.028589,0.000435,3e-05,0.000114,-0.001059,0.087266,-0.0,-0.0,3.0,0.3261,0.344422,0.3261,0.30626,,,,,,
95882,0.106381,-0.02846,0.0003,0.0,0.0,0.0,0.087266,-0.0,-0.0,3.0,0.3261,0.344468,0.3261,0.306206,,,,,,
95902,0.106139,-0.028454,0.000174,2.7e-05,0.001171,-0.000946,0.087266,-0.0,-0.0,3.0,0.3261,0.344501,0.3261,0.306168,,,,,,
95922,0.106262,-0.02857,6.1e-05,0.0,0.0,0.0,0.087266,-0.0,-0.0,3.0,0.3261,0.344959,0.3261,0.305629,,,,,,
95942,0.106262,-0.028691,6.7e-05,-0.001061,-0.001058,-0.000113,0.087266,-0.0,-0.0,3.0,0.3261,0.345295,0.3261,0.305232,,,,,,
95962,0.106264,-0.028929,-4.2e-05,-0.002122,-0.002116,-0.000226,0.087266,-0.0,-0.0,3.0,0.3261,0.349722,0.3261,0.299886,,,,,,
95982,0.106264,-0.029051,-3.5e-05,-0.002122,-0.002116,-0.000226,0.087266,-0.0,-0.0,3.0,0.3261,0.350153,0.3261,0.299354,,,,,,
96002,0.105898,-0.02893,-4.7e-05,-0.002098,0.000112,-0.001059,0.087266,-0.0,-0.0,3.0,0.3261,0.350043,0.3261,0.29949,,,,,,
96022,0.105291,-0.028681,-0.000191,-0.001034,0.000112,-0.001059,0.087266,-0.0,-0.0,3.0,0.3261,0.349971,0.3261,0.299579,,,,,,
96042,0.10456,-0.028317,-0.000221,-0.002098,0.000111,-0.001059,0.087266,-0.0,-0.0,3.0,0.3261,0.349686,0.3261,0.299931,,,,,,
96062,0.104189,-0.02831,-0.000348,-0.002098,0.000111,-0.001059,0.087266,-0.0,-0.0,3.0,0.3261,0.345471,0.3261,0.305024,,,,,,
96082,0.104069,-0.028425,-0.000465,-0.002098,0.000111,-0.001059,0.087266,-0.0,-0.0,3.0,0.3261,0.341513,0.3261,0.309628,,,,,,
96102,0.103583,-0.028664,-0.000581,-0.002125,-0.001059,-0.00011,0.087266,-0.0,-0.0,3.0,0.3261,0.341379,0.3261,0.309782,,,,,,
96122,0.102974,-0.028666,-0.00059,-0.002122,-0.002117,-0.000219,0.087266,-0.0,-0.0,3.0,0.3261,0.345433,0.3261,0.305069,,,,,,
96142,0.10273,-0.028788,-0.000587,-0.002095,-0.000949,-0.001168,0.087266,-0.0,-0.0,3.0,0.3261,0.345499,0.3261,0.30499,,,,,,
96162,0.102366,-0.028783,-0.000715,-0.001031,-0.00095,-0.001168,0.087266,-0.0,-0.0,3.0,0.3261,0.349438,0.3261,0.300236,,,,,,
96182,0.102002,-0.028656,-0.000848,-0.001061,-0.001059,-0.000108,0.087266,-0.0,-0.0,3.0,0.3261,0.345388,0.3261,0.305122,,,,,,
96202,0.10151,-0.028527,-0.000983,-0.001064,0.0,0.0,0.087266,-0.0,-0.0,3.0,0.3261,0.345112,0.3261,0.305448,,,,,,
96222,0.101268,-0.0284,-0.001115,-0.001067,0.001059,0.000108,0.087266,-0.0,-0.0,3.0,0.3261,0.34529,0.3261,0.305238,,,,,,
96242,0.101024,-0.028522,-0.001112,-0.001034,0.000107,-0.001059,0.087266,-0.0,-0.0,3.0,0.3261,0.345239,0.3261,0.305298,,,,,,
96262,0.100784,-0.028389,-0.001366,-0.001061,-0.001059,-0.000107,0.087266,-0.0,-0.0,3.0,0.3261,0.345278,0.3261,0.305252,,,,,,
96282,0.100296,-0.028634,-0.001361,-0.001061,-0.001059,-0.000107,0.087266,-0.0,-0.0,3.0,0.3261,0.341028,0.3261,0.310181,,,,,,
96302,0.099808,-0.028635,-0.001368,-0.001031,-0.000953,-0.001165,0.087266,-0.0,-0.0,3.0,0.3261,0.340704,0.3261,0.310549,,,,,,
96322,0.099318,-0.028501,-0.001625,-0.001031,-0.000953,-0.001165,0.087266,-0.0,-0.0,3.0,0.3261,0.340501,0.3261,0.310779,,,,,,
96342,0.09871,-0.028497,-0.001756,-0.001061,-0.001059,-0.000105,0.087266,-0.0,-0.0,3.0,0.3261,0.340187,0.3261,0.311134,,,,,,
96362,0.098224,-0.028492,-0.001885,-0.001061,-0.001059,-0.000104,0.087266,-0.0,-0.0,3.0,0.3261,0.339969,0.3261,0.31138,,,,,,
96382,0.097982,-0.028609,-0.002004,-0.001064,0.0,0.0,0.087266,-0.0,-0.0,3.0,0.3261,0.339942,0.3261,0.31141,,,,,,
96402,0.097375,-0.028605,-0.002135,-0.001067,0.001059,0.000104,0.087266,-0.0,-0.0,3.0,0.3261,0.343815,0.3261,0.306971,,,,,,
96422,0.097011,-0.028478,-0.002269,-0.001067,0.001059,0.000103,0.087266,-0.0,-0.0,3.0,0.3261,0.347933,0.3261,0.302073,,,,,,
96442,0.096763,-0.028593,-0.002388,3e-05,0.000103,-0.00106,0.087266,-0.0,-0.0,3.0,0.3261,0.347918,0.3261,0.302091,,,,,,
96462,0.096763,-0.028715,-0.002382,3.3e-05,-0.000956,-0.001163,0.087266,-0.0,-0.0,3.0,0.3261,0.343838,0.3261,0.306943,,,,,,
96482,0.096521,-0.02871,-0.002507,6e-06,-0.002119,-0.000205,0.087266,-0.0,-0.0,3.0,0.3261,0.343788,0.3261,0.307002,,,,,,
96502,0.0964,-0.028582,-0.002637,-0.001031,-0.000957,-0.001162,0.087266,-0.0,-0.0,3.0,0.3261,0.34384,0.3261,0.306941,,,,,,
96522,0.096522,-0.028582,-0.002635,-0.002128,0.0,0.0,0.087266,-0.0,-0.0,3.0,0.3261,0.344109,0.3261,0.306627,,,,,,
96542,0.096522,-0.028582,-0.002635,-0.002126,-0.001059,-0.000103,0.087266,-0.0,-0.0,3.0,0.3261,0.344271,0.3261,0.306437,,,,,,
96562,0.096156,-0.028583,-0.002641,-0.002126,-0.001059,-0.000102,0.087266,-0.0,-0.0,3.0,0.3261,0.348245,0.3261,0.301694,,,,,,
96582,0.095791,-0.028463,-0.002652,-0.002128,0.0,0.0,0.087266,-0.0,-0.0,3.0,0.3261,0.348194,0.3261,0.301757,,,,,,
96602,0.095423,-0.02847,-0.002535,-0.001037,0.001161,-0.000958,0.087266,-0.0,-0.0,3.0,0.3261,0.348045,0.3261,0.301937,,,,,,
96622,0.095177,-0.028232,-0.002428,2.7e-05,0.001161,-0.000959,0.087266,-0.0,-0.0,3.0,0.3261,0.343863,0.3261,0.306915,,,,,,
96642,0.094812,-0.028234,-0.002434,-0.001034,0.000101,-0.00106,0.087266,-0.0,-0.0,3.0,0.3261,0.343703,0.3261,0.3071,,,,,,
96662,0.094566,-0.028362,-0.00231,-0.001031,-0.000959,-0.00116,0.087266,-0.0,-0.0,3.0,0.3261,0.339306,0.3261,0.312125,,,,,,
96682,0.094688,-0.028728,-0.00229,-0.001058,-0.002119,-0.000201,0.087266,-0.0,-0.0,3.0,0.3261,0.339534,0.3261,0.311869,,,,,,
96702,0.094443,-0.028856,-0.002166,-0.002126,-0.001059,-0.0001,0.087266,-0.0,-0.0,3.0,0.3261,0.343642,0.3261,0.307172,,,,,,
96722,0.094191,-0.028861,-0.002048,-0.002126,-0.00106,-0.0001,0.087266,-0.0,-0.0,3.0,0.3261,0.343656,0.3261,0.307155,,,,,,
96742,0.093946,-0.028867,-0.001929,-0.001034,0.0001,-0.00106,0.087266,-0.0,-0.0,3.0,0.3261,0.347702,0.3261,0.302354,,,,,,
96762,0.09358,-0.028746,-0.00194,3e-05,9.9e-05,-0.00106,0.087266,-0.0,-0.0,3.0,0.3261,0.347519,0.3261,0.302574,,,,,,
96782,0.093214,-0.028504,-0.001957,3e-05,9.9e-05,-0.00106,0.087266,-0.0,-0.0,3.0,0.3261,0.343179,0.3261,0.30771,,,,,,
96802,0.09297,-0.028382,-0.001966,2.7e-05,0.001158,-0.000961,0.087266,-0.0,-0.0,3.0,0.3261,0.342973,0.3261,0.307949,,,,,,
96822,0.09297,-0.028626,-0.001955,-0.001034,9.9e-05,-0.00106,0.087266,-0.0,-0.0,3.0,0.3261,0.338877,0.3261,0.312604,,,,,,
96842,0.092848,-0.028627,-0.001957,-0.002126,-0.00106,-9.9e-05,0.087266,-0.0,-0.0,3.0,0.3261,0.338872,0.3261,0.31261,,,,,,
96862,0.092482,-0.02875,-0.001956,-0.002123,-0.002119,-0.000197,0.087266,-0.0,-0.0,3.0,0.3261,0.342853,0.3261,0.308088,,,,,,
96882,0.09224,-0.028989,-0.002071,-0.002123,-0.002119,-0.000196,0.087266,-0.0,-0.0,3.0,0.3261,0.342841,0.3261,0.308102,,,,,,
96902,0.091753,-0.028868,-0.002084,-0.001064,0.0,0.0,0.087266,-0.0,-0.0,3.0,0.3261,0.342372,0.3261,0.308642,,,,,,
96922,0.091261,-0.02874,-0.002218,-0.001067,0.00106,9.7e-05,0.087266,-0.0,-0.0,3.0,0.3261,0.346304,0.3261,0.304033,,,,,,
96942,0.090775,-0.028371,-0.002364,2.7e-05,0.001156,-0.000964,0.087266,-0.0,-0.0,3.0,0.3261,0.345973,0.3261,0.304428,,,,,,
96962,0.090777,-0.028487,-0.00248,-0.001034,9.6e-05,-0.00106,0.087266,-0.0,-0.0,3.0,0.3261,0.341781,0.3261,0.309321,,,,,,
96982,0.090656,-0.028482,-0.002604,-0.001061,-0.00106,-9.6e-05,0.087266,-0.0,-0.0,3.0,0.3261,0.341741,0.3261,0.309367,,,,,,
97002,0.090658,-0.02872,-0.002715,-0.001059,-0.00212,-0.000193,0.087266,-0.0,-0.0,3.0,0.3261,0.341792,0.3261,0.309309,,,,,,
97022,0.090416,-0.028837,-0.002835,-0.001059,-0.00212,-0.000192,0.087266,-0.0,-0.0,3.0,0.3261,0.341749,0.3261,0.309358,,,,,,
97042,0.090418,-0.028832,-0.002957,-0.001061,-0.00106,-9.6e-05,0.087266,-0.0,-0.0,3.0,0.3261,0.34597,0.3261,0.304431,,,,,,
97062,0.090176,-0.028827,-0.003083,-0.001031,-0.000964,-0.001156,0.087266,-0.0,-0.0,3.0,0.3261,0.345697,0.3261,0.304755,,,,,,
97082,0.090178,-0.028822,-0.003205,-0.001061,-0.00106,-9.6e-05,0.087266,-0.0,-0.0,3.0,0.3261,0.345749,0.3261,0.304694,,,,,,
97102,0.089934,-0.028701,-0.003214,-0.001064,0.0,0.0,0.087266,-0.0,-0.0,3.0,0.3261,0.345699,0.3261,0.304753,,,,,,
97122,0.089813,-0.028574,-0.003343,-0.001037,0.001155,-0.000965,0.087266,-0.0,-0.0,3.0,0.3261,0.345539,0.3261,0.304943,,,,,,
97142,0.089813,-0.028452,-0.003348,-0.001067,0.00106,9.5e-05,0.087266,-0.0,-0.0,3.0,0.3261,0.341426,0.3261,0.309727,,,,,,
97162,0.089815,-0.028446,-0.00347,0.0,0.0,0.0,0.087266,-0.0,-0.0,3.0,0.3261,0.345773,0.3261,0.304665,,,,,,
97182,0.089815,-0.028446,-0.00347,3.3e-05,-0.000964,-0.001156,0.087266,-0.0,-0.0,3.0,0.3261,0.345701,0.3261,0.304751,,,,,,
97202,0.089693,-0.028569,-0.003467,5e-06,-0.00212,-0.000191,0.087266,-0.0,-0.0,3.0,0.3261,0.34158,0.3261,0.309552,,,,,,
97222,0.089448,-0.028697,-0.003343,3.3e-05,-0.000965,-0.001156,0.087266,-0.0,-0.0,3.0,0.3261,0.34128,0.3261,0.309894,,,,,,
97242,0.089571,-0.028691,-0.003463,-0.001064,0.0,0.0,0.087266,-0.0,-0.0,3.0,0.3261,0.341548,0.3261,0.309588,,,,,,
97262,0.08957,-0.028696,-0.003341,-0.001034,9.5e-05,-0.00106,0.087266,-0.0,-0.0,3.0,0.3261,0.341467,0.3261,0.309681,,,,,,
97282,0.08957,-0.028575,-0.003347,-0.001031,-0.000965,-0.001156,0.087266,-0.0,-0.0,3.0,0.3261,0.341514,0.3261,0.309627,,,,,,
97302,0.089204,-0.028454,-0.003357,-0.001062,-0.00106,-9.5e-05,0.087266,-0.0,-0.0,3.0,0.3261,0.345517,0.3261,0.304969,,,,,,
97322,0.089074,-0.028336,-0.003242,-0.001064,0.0,0.0,0.087266,-0.0,-0.0,3.0,0.3261,0.345441,0.3261,0.305059,,,,,,
97342,0.089074,-0.028336,-0.003242,2.7e-05,0.001155,-0.000966,0.087266,-0.0,-0.0,3.0,0.3261,0.345485,0.3261,0.305007,,,,,,
97362,0.088952,-0.028215,-0.003249,2.7e-05,0.001155,-0.000966,0.087266,-0.0,-0.0,3.0,0.3261,0.341239,0.3261,0.309941,,,,,,
97382,0.088588,-0.028454,-0.003366,3.3e-05,-0.000966,-0.001155,0.087266,-0.0,-0.0,3.0,0.3261,0.340835,0.3261,0.3104,,,,,,
97402,0.08859,-0.028693,-0.003477,-0.001059,-0.00212,-0.000188,0.087266,-0.0,-0.0,3.0,0.3261,0.340864,0.3261,0.310367,,,,,,
97422,0.088835,-0.029058,-0.003457,-0.001061,-0.00106,-9.4e-05,0.087266,-0.0,-0.0,3.0,0.3261,0.341089,0.3261,0.310111,,,,,,
97442,0.088837,-0.029052,-0.003579,-0.002126,-0.00106,-9.4e-05,0.087266,-0.0,-0.0,3.0,0.3261,0.341114,0.3261,0.310083,,,,,,
97462,0.088718,-0.02892,-0.00383,-0.001061,-0.00106,-9.4e-05,0.087266,-0.0,-0.0,3.0,0.3261,0.34532,0.3261,0.305203,,,,,,
97482,0.088597,-0.028671,-0.003965,-0.001064,0.0,0.0,0.087266,-0.0,-0.0,3.0,0.3261,0.349243,0.3261,0.300475,,,,,,
97502,0.088477,-0.028544,-0.004094,3e-05,9.4e-05,-0.00106,0.087266,-0.0,-0.0,3.0,0.3261,0.345062,0.3261,0.305507,,,,,,
97522,0.088358,-0.02829,-0.004351,0.0,0.0,0.0,0.087266,-0.0,-0.0,3.0,0.3261,0.340804,0.3261,0.310436,,,,,,
97542,0.088116,-0.028286,-0.004476,3e-05,9.4e-05,-0.001061,0.087266,-0.0,-0.0,3.0,0.3261,0.340616,0.3261,0.310649,,,,,,
97562,0.088118,-0.028402,-0.004593,-0.001064,0.0,0.0,0.087266,-0.0,-0.0,3.0,0.3261,0.336383,0.3261,0.315357,,,,,,
97582,0.088242,-0.028518,-0.004708,-0.001062,-0.00106,-9.4e-05,0.087266,-0.0,-0.0,3.0,0.3261,0.33652,0.3261,0.315208,,,,,,
97602,0.08812,-0.028763,-0.004699,-0.001059,-0.00212,-0.000187,0.087266,-0.0,-0.0,3.0,0.3261,0.340667,0.3261,0.310591,,,,,,
97622,0.087998,-0.028763,-0.004701,-0.001059,-0.00212,-0.000187,0.087266,-0.0,-0.0,3.0,0.3261,0.340681,0.3261,0.310575,,,,,,
97642,0.087876,-0.028642,-0.004708,-0.001034,9.3e-05,-0.001061,0.087266,-0.0,-0.0,3.0,0.3261,0.344757,0.3261,0.305866,,,,,,
97662,0.087632,-0.028399,-0.004722,2.7e-05,0.001153,-0.000967,0.087266,-0.0,-0.0,3.0,0.3261,0.344557,0.3261,0.306102,,,,,,
97682,0.08751,-0.028278,-0.004729,2.7e-05,0.001153,-0.000968,0.087266,-0.0,-0.0,3.0,0.3261,0.344472,0.3261,0.306201,,,,,,
97702,0.08751,-0.028278,-0.004729,3e-05,9.3e-05,-0.001061,0.087266,-0.0,-0.0,3.0,0.3261,0.340194,0.3261,0.311127,,,,,,
97722,0.087632,-0.028521,-0.004717,3.3e-05,-0.000967,-0.001154,0.087266,-0.0,-0.0,3.0,0.3261,0.340306,0.3261,0.310999,,,,,,
97742,0.087633,-0.028765,-0.004706,-0.001059,-0.00212,-0.000186,0.087266,-0.0,-0.0,3.0,0.3261,0.340301,0.3261,0.311006,,,,,,
97762,0.087511,-0.028887,-0.004703,-0.002123,-0.00212,-0.000186,0.087266,-0.0,-0.0,3.0,0.3261,0.344495,0.3261,0.306174,,,,,,
97782,0.087509,-0.029015,-0.004575,-0.001062,-0.00106,-9.3e-05,0.087266,-0.0,-0.0,3.0,0.3261,0.344495,0.3261,0.306175,,,,,,
97802,0.087387,-0.028893,-0.004582,-0.001034,9.3e-05,-0.001061,0.087266,-0.0,-0.0,3.0,0.3261,0.344388,0.3261,0.3063,,,,,,
97822,0.087021,-0.028773,-0.004593,3.3e-05,-0.000968,-0.001153,0.087266,-0.0,-0.0,3.0,0.3261,0.344075,0.3261,0.306667,,,,,,
97842,0.086777,-0.02853,-0.004607,3e-05,9.2e-05,-0.001061,0.087266,-0.0,-0.0,3.0,0.3261,0.343852,0.3261,0.306927,,,,,,
97862,0.086775,-0.028657,-0.00448,2.8e-05,0.001152,-0.000968,0.087266,-0.0,-0.0,3.0,0.3261,0.339537,0.3261,0.311866,,,,,,
97882,0.087019,-0.028412,-0.004487,2.8e-05,0.001153,-0.000968,0.087266,-0.0,-0.0,3.0,0.3261,0.339766,0.3261,0.311608,,,,,,
97902,0.087019,-0.028656,-0.004476,-0.001031,-0.000968,-0.001153,0.087266,-0.0,-0.0,3.0,0.3261,0.339883,0.3261,0.311477,,,,,,
97922,0.086774,-0.028784,-0.004353,-0.001059,-0.00212,-0.000185,0.087266,-0.0,-0.0,3.0,0.3261,0.339539,0.3261,0.311863,,,,,,
97942,0.086776,-0.028901,-0.00447,5e-06,-0.00212,-0.000185,0.087266,-0.0,-0.0,3.0,0.3261,0.339632,0.3261,0.311759,,,,,,
97962,0.086532,-0.02878,-0.004478,3.3e-05,-0.000968,-0.001153,0.087266,-0.0,-0.0,3.0,0.3261,0.339277,0.3261,0.312158,,,,,,
97982,0.086531,-0.028658,-0.004484,-0.001064,0.0,0.0,0.087266,-0.0,-0.0,3.0,0.3261,0.339383,0.3261,0.312038,,,,,,
98002,0.086531,-0.028536,-0.004489,-0.001064,0.0,0.0,0.087266,-0.0,-0.0,3.0,0.3261,0.339381,0.3261,0.312041,,,,,,
98022,0.086531,-0.028536,-0.004489,3e-05,9.2e-05,-0.001061,0.087266,-0.0,-0.0,3.0,0.3261,0.339259,0.3261,0.312177,,,,,,
98042,0.086533,-0.028531,-0.004611,0.0,0.0,0.0,0.087266,-0.0,-0.0,3.0,0.3261,0.343455,0.3261,0.30739,,,,,,
98062,0.086655,-0.02853,-0.004609,3e-06,-0.00106,-9.2e-05,0.087266,-0.0,-0.0,3.0,0.3261,0.343668,0.3261,0.307142,,,,,,
98082,0.086653,-0.028536,-0.004487,3e-05,9.2e-05,-0.001061,0.087266,-0.0,-0.0,3.0,0.3261,0.339451,0.3261,0.311962,,,,,,
98102,0.086653,-0.028414,-0.004492,3.3e-05,-0.000968,-0.001153,0.087266,-0.0,-0.0,3.0,0.3261,0.33944,0.3261,0.311975,,,,,,
98122,0.086409,-0.028415,-0.004496,-0.001031,-0.000968,-0.001153,0.087266,-0.0,-0.0,3.0,0.3261,0.339215,0.3261,0.312227,,,,,,
98142,0.086409,-0.028415,-0.004496,-0.001029,-0.002029,-0.001244,0.087266,-0.0,-0.0,3.0,0.3261,0.33908,0.3261,0.312378,,,,,,
98162,0.086531,-0.028536,-0.004489,-0.001059,-0.00212,-0.000184,0.087266,-0.0,-0.0,3.0,0.3261,0.33916,0.3261,0.312288,,,,,,
98182,0.086529,-0.028541,-0.004367,-0.001062,-0.00106,-9.2e-05,0.087266,-0.0,-0.0,3.0,0.3261,0.339142,0.3261,0.312308,,,,,,
98202,0.086158,-0.028419,-0.004377,-0.001064,0.0,0.0,0.087266,-0.0,-0.0,3.0,0.3261,0.343132,0.3261,0.307764,,,,,,
98222,0.086156,-0.028303,-0.00426,-0.001034,9.2e-05,-0.001061,0.087266,-0.0,-0.0,3.0,0.3261,0.34311,0.3261,0.30779,,,,,,
98242,0.086034,-0.028303,-0.004262,3e-05,9.1e-05,-0.001061,0.087266,-0.0,-0.0,3.0,0.3261,0.343007,0.3261,0.30791,,,,,,
98262,0.085912,-0.028304,-0.004264,0.001097,-0.000969,-0.001152,0.087266,-0.0,-0.0,3.0,0.3261,0.338656,0.3261,0.312851,,,,,,
98282,0.085913,-0.028425,-0.004259,5e-06,-0.002121,-0.000183,0.087266,-0.0,-0.0,3.0,0.3261,0.338625,0.3261,0.312885,,,,,,
98302,0.085914,-0.028542,-0.004375,3.3e-05,-0.000969,-0.001152,0.087266,-0.0,-0.0,3.0,0.3261,0.334193,0.3261,0.317725,,,,,,
98322,0.086286,-0.028664,-0.004365,-0.001062,-0.00106,-9.2e-05,0.087266,-0.0,-0.0,3.0,0.3261,0.338795,0.3261,0.312696,,,,,,
98342,0.086407,-0.028542,-0.004369,-0.001062,-0.00106,-9.2e-05,0.087266,-0.0,-0.0,3.0,0.3261,0.338988,0.3261,0.31248,,,,,,
98362,0.086286,-0.028542,-0.004371,-0.001059,-0.002121,-0.000184,0.087266,-0.0,-0.0,3.0,0.3261,0.342954,0.3261,0.307971,,,,,,
98382,0.086036,-0.028542,-0.004374,-0.001062,-0.00106,-9.1e-05,0.087266,-0.0,-0.0,3.0,0.3261,0.342825,0.3261,0.30812,,,,,,
98402,0.085792,-0.028421,-0.004382,2.8e-05,0.001152,-0.00097,0.087266,-0.0,-0.0,3.0,0.3261,0.342592,0.3261,0.308389,,,,,,
98422,0.085794,-0.028294,-0.00451,2.7e-05,0.001152,-0.00097,0.087266,-0.0,-0.0,3.0,0.3261,0.342581,0.3261,0.308402,,,,,,
98442,0.085794,-0.028294,-0.00451,2.7e-05,0.001152,-0.00097,0.087266,-0.0,-0.0,3.0,0.3261,0.34257,0.3261,0.308415,,,,,,
98462,0.085916,-0.028537,-0.004497,3.3e-05,-0.000969,-0.001152,0.087266,-0.0,-0.0,3.0,0.3261,0.338322,0.3261,0.313222,,,,,,
98482,0.085916,-0.028659,-0.004492,-0.001059,-0.002121,-0.000183,0.087266,-0.0,-0.0,3.0,0.3261,0.338299,0.3261,0.313248,,,,,,
98502,0.086287,-0.028659,-0.004487,-0.001059,-0.002121,-0.000184,0.087266,-0.0,-0.0,3.0,0.3261,0.338578,0.3261,0.312937,,,,,,
98522,0.086158,-0.028419,-0.004377,-0.001062,-0.00106,-9.2e-05,0.087266,-0.0,-0.0,3.0,0.3261,0.338552,0.3261,0.312967,,,,,,
98542,0.085914,-0.028298,-0.004386,-0.001064,0.0,0.0,0.087266,-0.0,-0.0,3.0,0.3261,0.342534,0.3261,0.308456,,,,,,
98562,0.085426,-0.027934,-0.004409,2.7e-05,0.001151,-0.00097,0.087266,-0.0,-0.0,3.0,0.3261,0.342096,0.3261,0.30896,,,,,,
98582,0.085182,-0.028057,-0.004407,2.7e-05,0.001151,-0.00097,0.087266,-0.0,-0.0,3.0,0.3261,0.341749,0.3261,0.309358,,,,,,
98602,0.085182,-0.028057,-0.004407,0.0,0.0,0.0,0.087266,-0.0,-0.0,3.0,0.3261,0.337493,0.3261,0.31414,,,,,,
98622,0.085426,-0.0283,-0.004393,3e-06,-0.00106,-9.1e-05,0.087266,-0.0,-0.0,3.0,0.3261,0.333366,0.3261,0.318607,,,,,,
98642,0.085305,-0.028423,-0.00439,-0.001062,-0.00106,-9.1e-05,0.087266,-0.0,-0.0,3.0,0.3261,0.337517,0.3261,0.314112,,,,,,
98662,0.085428,-0.028417,-0.00451,-0.001062,-0.00106,-9.1e-05,0.087266,-0.0,-0.0,3.0,0.3261,0.34194,0.3261,0.309139,,,,,,
98682,0.08555,-0.028538,-0.004503,-0.001062,-0.00106,-9.1e-05,0.087266,-0.0,-0.0,3.0,0.3261,0.341892,0.3261,0.309195,,,,,,
98702,0.085428,-0.028417,-0.00451,3.3e-05,-0.00097,-0.001152,0.087266,-0.0,-0.0,3.0,0.3261,0.341741,0.3261,0.309367,,,,,,
98722,0.085186,-0.028535,-0.00463,3e-06,-0.00106,-9.1e-05,0.087266,-0.0,-0.0,3.0,0.3261,0.341606,0.3261,0.309521,,,,,,
98742,0.085186,-0.028291,-0.004641,2.7e-05,0.001151,-0.00097,0.087266,-0.0,-0.0,3.0,0.3261,0.341454,0.3261,0.309696,,,,,,
98762,0.08543,-0.028412,-0.004632,2.8e-05,0.001151,-0.00097,0.087266,-0.0,-0.0,3.0,0.3261,0.341653,0.3261,0.309468,,,,,,
98782,0.085674,-0.028289,-0.004633,-0.001034,9.1e-05,-0.001061,0.087266,-0.0,-0.0,3.0,0.3261,0.341963,0.3261,0.309113,,,,,,
98802,0.085672,-0.028416,-0.004506,-0.001031,-0.000969,-0.001152,0.087266,-0.0,-0.0,3.0,0.3261,0.341932,0.3261,0.309149,,,,,,
98822,0.085672,-0.028538,-0.004501,-0.001059,-0.002121,-0.000182,0.087266,-0.0,-0.0,3.0,0.3261,0.337659,0.3261,0.313956,,,,,,
98842,0.085673,-0.028782,-0.00449,-0.001059,-0.002121,-0.000182,0.087266,-0.0,-0.0,3.0,0.3261,0.337617,0.3261,0.314003,,,,,,
98862,0.085307,-0.028783,-0.004496,-0.001031,-0.00097,-0.001152,0.087266,-0.0,-0.0,3.0,0.3261,0.337129,0.3261,0.31454,,,,,,
98882,0.085186,-0.028657,-0.004625,-0.001064,0.0,0.0,0.087266,-0.0,-0.0,3.0,0.3261,0.337107,0.3261,0.314564,,,,,,
98902,0.085308,-0.028656,-0.004623,-0.001036,0.001151,-0.00097,0.087266,-0.0,-0.0,3.0,0.3261,0.341307,0.3261,0.309863,,,,,,
98922,0.085188,-0.028651,-0.004747,2.8e-05,0.001151,-0.00097,0.087266,-0.0,-0.0,3.0,0.3261,0.341178,0.3261,0.31001,,,,,,
98942,0.08531,-0.028529,-0.00475,0.0,0.0,0.0,0.087266,-0.0,-0.0,3.0,0.3261,0.341249,0.3261,0.309929,,,,,,
98962,0.08531,-0.028651,-0.004745,3e-06,-0.00106,-9.1e-05,0.087266,-0.0,-0.0,3.0,0.3261,0.341337,0.3261,0.30983,,,,,,
98982,0.085308,-0.028534,-0.004628,3e-05,9.1e-05,-0.001061,0.087266,-0.0,-0.0,3.0,0.3261,0.337059,0.3261,0.314617,,,,,,
99002,0.085308,-0.028412,-0.004634,3e-05,9.1e-05,-0.001061,0.087266,-0.0,-0.0,3.0,0.3261,0.337024,0.3261,0.314656,,,,,,
99022,0.084942,-0.028536,-0.004634,-0.001031,-0.00097,-0.001151,0.087266,-0.0,-0.0,3.0,0.3261,0.336663,0.3261,0.315051,,,,,,
99042,0.084699,-0.028659,-0.004632,-0.001031,-0.00097,-0.001151,0.087266,-0.0,-0.0,3.0,0.3261,0.336283,0.3261,0.315466,,,,,,
99062,0.084699,-0.028781,-0.004627,-0.001059,-0.002121,-0.00018,0.087266,-0.0,-0.0,3.0,0.3261,0.336224,0.3261,0.31553,,,,,,
99082,0.084577,-0.028659,-0.004634,-0.001062,-0.00106,-9e-05,0.087266,-0.0,-0.0,3.0,0.3261,0.336053,0.3261,0.315716,,,,,,
99102,0.084211,-0.028539,-0.004645,-0.001064,0.0,0.0,0.087266,-0.0,-0.0,3.0,0.3261,0.340061,0.3261,0.311277,,,,,,
99122,0.08421,-0.028417,-0.00465,-0.001067,0.00106,9e-05,0.087266,-0.0,-0.0,3.0,0.3261,0.340016,0.3261,0.311328,,,,,,
99142,0.084211,-0.028539,-0.004645,2.8e-05,0.00115,-0.000971,0.087266,-0.0,-0.0,3.0,0.3261,0.339973,0.3261,0.311376,,,,,,
99162,0.084212,-0.028534,-0.004767,3e-05,9e-05,-0.001061,0.087266,-0.0,-0.0,3.0,0.3261,0.33981,0.3261,0.311559,,,,,,
99182,0.084093,-0.028895,-0.004875,5e-06,-0.002121,-0.000179,0.087266,-0.0,-0.0,3.0,0.3261,0.335372,0.3261,0.316456,,,,,,
99202,0.084095,-0.029012,-0.004992,-0.001059,-0.002121,-0.000179,0.087266,-0.0,-0.0,3.0,0.3261,0.330972,0.3261,0.321128,,,,,,
99222,0.084219,-0.02925,-0.005102,-0.002126,-0.00106,-9e-05,0.087266,-0.0,-0.0,3.0,0.3261,0.331014,0.3261,0.321083,,,,,,
99242,0.084464,-0.029,-0.00523,-0.002126,-0.00106,-9e-05,0.087266,-0.0,-0.0,3.0,0.3261,0.335517,0.3261,0.316299,,,,,,
99262,0.084098,-0.029001,-0.005236,-0.002126,-0.00106,-8.9e-05,0.087266,-0.0,-0.0,3.0,0.3261,0.339529,0.3261,0.311875,,,,,,
99282,0.083856,-0.028997,-0.005362,-0.001033,8.9e-05,-0.001061,0.087266,-0.0,-0.0,3.0,0.3261,0.343342,0.3261,0.307521,,,,,,
99302,0.083612,-0.028998,-0.005365,0.0,0.0,0.0,0.087266,-0.0,-0.0,3.0,0.3261,0.34319,0.3261,0.307698,,,,,,
99322,0.083612,-0.028755,-0.005376,3.1e-05,8.9e-05,-0.001061,0.087266,-0.0,-0.0,3.0,0.3261,0.338915,0.3261,0.312562,,,,,,
99342,0.08349,-0.028755,-0.005377,3.1e-05,8.9e-05,-0.001061,0.087266,-0.0,-0.0,3.0,0.3261,0.334347,0.3261,0.31756,,,,,,
99362,0.083612,-0.028755,-0.005376,3.1e-05,8.9e-05,-0.001061,0.087266,-0.0,-0.0,3.0,0.3261,0.33439,0.3261,0.317514,,,,,,
99382,0.083856,-0.028753,-0.005372,-0.001062,-0.00106,-8.9e-05,0.087266,-0.0,-0.0,3.0,0.3261,0.334551,0.3261,0.317341,,,,,,
99402,0.083856,-0.028875,-0.005367,-0.001062,-0.00106,-8.9e-05,0.087266,-0.0,-0.0,3.0,0.3261,0.334475,0.3261,0.317423,,,,,,
99422,0.083856,-0.028875,-0.005367,-0.001059,-0.002121,-0.000178,0.087266,-0.0,-0.0,3.0,0.3261,0.338685,0.3261,0.312819,,,,,,
99442,0.083856,-0.028997,-0.005362,3e-06,-0.00106,-8.9e-05,0.087266,-0.0,-0.0,3.0,0.3261,0.338729,0.3261,0.312769,,,,,,
99462,0.08361,-0.028882,-0.005248,3.1e-05,8.9e-05,-0.001061,0.087266,-0.0,-0.0,3.0,0.3261,0.338451,0.3261,0.313079,,,,,,
99482,0.083368,-0.028756,-0.005379,2.8e-05,0.001149,-0.000972,0.087266,-0.0,-0.0,3.0,0.3261,0.338174,0.3261,0.313387,,,,,,
99502,0.083489,-0.028511,-0.005388,2.8e-05,0.001149,-0.000972,0.087266,-0.0,-0.0,3.0,0.3261,0.333943,0.3261,0.317993,,,,,,
99522,0.083733,-0.028632,-0.005379,3e-05,8.9e-05,-0.001061,0.087266,-0.0,-0.0,3.0,0.3261,0.333993,0.3261,0.31794,,,,,,
99542,0.083856,-0.028997,-0.005362,-0.001028,-0.002032,-0.001239,0.087266,-0.0,-0.0,3.0,0.3261,0.329669,0.3261,0.322478,,,,,,
99562,0.083856,-0.029119,-0.005357,-0.001056,-0.003181,-0.000268,0.087266,-0.0,-0.0,3.0,0.3261,0.333951,0.3261,0.317984,,,,,,
99582,0.083857,-0.029363,-0.005346,-0.001059,-0.002121,-0.000178,0.087266,-0.0,-0.0,3.0,0.3261,0.333988,0.3261,0.317944,,,,,,
99602,0.083855,-0.029368,-0.005224,-0.001033,8.9e-05,-0.001061,0.087266,-0.0,-0.0,3.0,0.3261,0.338213,0.3261,0.313344,,,,,,
99622,0.083856,-0.029119,-0.005357,3.1e-05,8.9e-05,-0.001061,0.087266,-0.0,-0.0,3.0,0.3261,0.33815,0.3261,0.313413,,,,,,
99642,0.083856,-0.028875,-0.005367,2.8e-05,0.00115,-0.000972,0.087266,-0.0,-0.0,3.0,0.3261,0.3381,0.3261,0.313469,,,,,,
99662,0.083736,-0.028993,-0.005486,2.8e-05,0.00115,-0.000972,0.087266,-0.0,-0.0,3.0,0.3261,0.337823,0.3261,0.313775,,,,,,
99682,0.08398,-0.029114,-0.005477,0.0,0.0,0.0,0.087266,-0.0,-0.0,3.0,0.3261,0.333679,0.3261,0.318274,,,,,,
99702,0.084102,-0.029113,-0.005475,3e-06,-0.00106,-8.9e-05,0.087266,-0.0,-0.0,3.0,0.3261,0.333855,0.3261,0.318086,,,,,,
99722,0.083857,-0.029241,-0.005351,-0.001031,-0.000971,-0.00115,0.086799,-0.0,-0.0,3.0,0.3261,0.333873,0.3261,0.318068,,,,,,
99742,0.083859,-0.029358,-0.005468,-0.001062,-0.00106,-8.9e-05,0.08596,-0.0,-0.0,3.0,0.3261,0.334704,0.3261,0.317177,,,,,,
99762,0.083981,-0.029479,-0.005461,-0.00103,-0.000971,-0.00115,0.085278,-0.0,-0.0,3.0,0.3261,0.339658,0.3261,0.31173,,,,,,
99782,0.083735,-0.029364,-0.005348,-0.00103,-0.000971,-0.00115,0.084289,-0.0,-0.0,3.0,0.3261,0.340166,0.3261,0.311158,,,,,,
99802,0.083737,-0.029359,-0.00547,3e-06,-0.00106,-8.9e-05,0.083914,-0.0,-0.0,3.0,0.3261,0.34048,0.3261,0.310803,,,,,,
99822,0.083737,-0.029359,-0.00547,0.0,0.0,0.0,0.083179,-0.0,-0.0,3.0,0.3261,0.341114,0.3261,0.310083,,,,,,
99842,0.083737,-0.029359,-0.00547,-0.001067,0.00106,8.9e-05,0.08245,-0.0,-0.0,3.0,0.3261,0.337543,0.3261,0.314085,,,,,,
99862,0.083734,-0.02912,-0.005358,-0.001067,0.00106,8.9e-05,0.081687,-0.0,-0.0,3.0,0.3261,0.33838,0.3261,0.313158,,,,,,
