time_ms,roll,pitch,yaw,roll_rate,pitch_rate,yaw_rate,reference_roll,reference_pitch,reference_yaw,reference_throttle,throttle_1,throttle_2,throttle_3,throttle_4,roll_predicted,pitch_predicted,yaw_predicted,roll_rate_predicted,pitch_rate_predicted,yaw_rate_predicted
34392,-0.01124,-0.024044,0.00072,0.0,-0.001064,0.0,-0.0,-0.0,-0.0,3.0,0.3261,0.33058,0.3261,0.321535,0.0,-213.116206,-0.0,-0.0,-6.735378,-0.0
34412,-0.011118,-0.024044,0.000721,-0.001064,-0.001064,0.0,1e-05,-0.0,-0.0,3.0,0.3261,0.330467,0.3261,0.321652,0.0,-213.382616,-0.0,6e-06,-6.557683,0.0
34432,-0.010996,-0.024044,0.000723,-0.001064,-0.001064,-0.001064,0.000935,-0.0,-0.0,3.0,0.3261,0.330223,0.3261,0.321906,3e-06,-213.643584,-0.0,0.00058,-6.492367,0.0
34452,-0.011118,-0.023922,0.000722,0.0,-0.001064,-0.001064,0.001854,-0.0,-0.0,3.0,0.3261,0.32877,0.3261,0.323401,4.2e-05,-213.903669,-4e-06,0.001858,-6.542328,4e-06
34472,-0.011118,-0.023922,0.000722,0.0,-0.001064,0.0,0.002411,-0.0,-0.0,3.0,0.3261,0.328632,0.3261,0.323541,0.000145,-214.167455,-2.5e-05,0.003218,-6.70454,1.3e-05
34492,-0.01124,-0.024044,0.00072,-0.001064,0.0,0.0,0.003685,-0.0,-0.0,3.0,0.3261,0.328233,0.3261,0.323948,0.000336,-214.439316,-9.6e-05,0.004839,-6.969883,2.8e-05
34512,-0.011364,-0.023921,0.000841,-0.001064,0.001064,-0.001064,0.004144,-0.0,-0.0,3.0,0.3261,0.329203,0.3261,0.322957,0.000732,-214.723157,-0.000317,0.006338,-7.322171,5.1e-05
34532,-0.011242,-0.023921,0.000842,-0.001064,0.001064,-0.001064,0.005062,-0.0,-0.0,3.0,0.3261,0.32891,0.3261,0.323257,0.001921,-215.022116,-0.001293,0.007297,-7.736784,8e-05
34552,-0.011118,-0.023922,0.000722,0.0,0.0,0.0,0.005979,-0.0,-0.0,3.0,0.3261,0.328642,0.3261,0.323531,-0.009139,-215.338179,0.010076,-0.000402,-8.179681,0.000113
34572,-0.010752,-0.024044,0.000726,0.0,-0.001064,-0.001064,0.007085,-0.0,-0.0,3.0,0.3261,0.328353,0.3261,0.323826,-0.001206,-215.671906,0.002197,0.011315,-8.607938,0.000137
34592,-0.010751,-0.024167,0.000603,0.0,-0.001064,-0.001064,0.007891,-0.0,-0.0,3.0,0.3261,0.328103,0.3261,0.324081,-0.000234,-216.021975,0.001663,0.015238,-8.973078,0.000204
34612,-0.010629,-0.024167,0.000604,0.0,-0.002128,0.0,0.008824,-0.0,-0.0,3.0,0.3261,0.32779,0.3261,0.324399,0.000417,-216.38513,0.001654,0.017204,-9.227869,0.00029
34632,-0.010627,-0.02429,0.000481,0.0,-0.002128,0.0,0.009745,-0.0,-0.0,3.0,0.3261,0.327504,0.3261,0.324688,0.001073,-216.756362,0.001892,0.018523,-9.335734,0.000386
34652,-0.010627,-0.024168,0.000482,-0.001064,-0.001064,0.0,0.010202,-0.0,-0.0,3.0,0.3261,0.327326,0.3261,0.324869,0.001897,-217.129467,0.002391,0.01918,-9.279849,0.000489
34672,-0.010993,-0.024168,0.000478,-0.001064,0.001064,0.0,0.010832,-0.0,-0.0,3.0,0.3261,0.325824,0.3261,0.326376,0.003138,-217.497934,0.003352,0.019166,-9.068087,0.000593
34692,-0.010993,-0.023923,0.000479,-0.001064,0.001064,0.0,0.012252,-0.0,-0.0,3.0,0.3261,0.325316,0.3261,0.326882,0.005583,-217.855927,0.005533,0.018778,-8.73129,0.000693
34712,-0.010993,-0.023923,0.000479,0.0,0.001064,-0.001064,0.01317,-0.0,-0.0,3.0,0.3261,0.325011,0.3261,0.327185,0.014572,-218.199099,0.014243,0.015826,-8.315568,0.000784
34732,-0.010871,-0.023924,0.000481,0.001064,0.0,-0.001064,0.014072,-0.0,-0.0,3.0,0.3261,0.324674,0.3261,0.327518,-0.032387,-218.524198,-0.032398,0.039556,-7.872106,0.000824
34752,-0.01087,-0.024168,0.000357,0.0,-0.001064,-0.001064,0.01452,-0.0,-0.0,3.0,0.3261,0.325671,0.3261,0.326529,-0.006935,-218.832533,-0.008304,0.057418,-7.448254,0.001061
34772,-0.010748,-0.02429,0.000358,0.0,-0.002128,0.0,0.015152,-0.0,-0.0,3.0,0.3261,0.325366,0.3261,0.326832,-0.0024,-219.124742,-0.005532,0.051579,-7.082535,0.001298
34792,-0.01038,-0.024535,0.000239,-0.001064,-0.003193,0.0,0.016446,-0.0,-0.0,3.0,0.3261,0.324985,0.3261,0.32721,-7e-06,-219.403546,-0.004925,0.047909,-6.802882,0.001503
34812,-0.010382,-0.024413,0.000362,-0.001064,-0.002128,0.0,0.017365,-0.0,-0.0,3.0,0.3261,0.324661,0.3261,0.327531,0.001842,-219.672682,-0.005058,0.04671,-6.627299,0.00169
34832,-0.010504,-0.024291,0.000361,-0.001064,-0.001064,0.0,0.018255,-0.0,-0.0,3.0,0.3261,0.323074,0.3261,0.329089,0.003632,-219.936483,-0.005654,0.04671,-6.565469,0.001871
34852,-0.01087,-0.023924,0.000358,-0.001064,0.001064,-0.001064,0.018705,-0.0,-0.0,3.0,0.3261,0.322794,0.3261,0.329362,0.005647,-220.199558,-0.006736,0.046846,-6.620194,0.002052
34872,-0.01087,-0.023802,0.000359,0.0,0.002128,-0.001064,0.019841,-0.0,-0.0,3.0,0.3261,0.32237,0.3261,0.329773,0.008218,-220.466537,-0.008548,0.046775,-6.788114,0.002235
34892,-0.010868,-0.023559,0.000238,0.001064,0.001064,-0.001064,0.020618,-0.0,-0.0,3.0,0.3261,0.322059,0.3261,0.330075,0.012087,-220.741819,-0.011789,0.045699,-7.059503,0.002423
34912,-0.010868,-0.023681,0.000238,0.001064,0.0,-0.001064,0.021534,-0.0,-0.0,3.0,0.3261,0.321679,0.3261,0.330441,0.019625,-221.029301,-0.018855,0.04162,-7.417266,0.002611
34932,-0.010502,-0.023803,0.000241,0.0,-0.001064,0.0,0.022421,-0.0,-0.0,3.0,0.3261,0.322545,0.3261,0.329603,0.046429,-221.332021,-0.045423,0.027797,-7.835574,0.002779
34952,-0.010501,-0.02417,0.000117,-0.001064,-0.003193,0.0,0.02286,-0.0,-0.0,3.0,0.3261,0.322247,0.3261,0.329893,-0.549019,-221.576468,0.546224,0.265627,-8.27901,-0.009204
34972,-0.010257,-0.02417,0.00012,-0.001064,-0.003193,0.0,0.023499,-0.0,-0.0,3.0,0.3261,0.321896,0.3261,0.330232,-0.014535,-221.901697,0.022774,0.325191,-8.713105,-0.010094
34992,-0.010258,-0.024169,0.000242,-0.001064,-0.002128,0.0,0.024812,-0.0,-0.0,3.0,0.3261,0.320246,0.3261,0.331815,0.000765,-222.256134,0.017891,0.203655,-9.090889,-0.008669
35012,-0.01038,-0.024047,0.000242,0.0,-0.001064,0.0,0.025717,-0.0,-0.0,3.0,0.3261,0.319877,0.3261,0.332166,0.006718,-222.624244,0.019803,0.140572,-9.362565,-0.007714
35032,-0.010746,-0.023803,0.000238,0.0,0.001064,-0.001064,0.026599,-0.0,-0.0,3.0,0.3261,0.31948,0.3261,0.332543,0.010815,-223.001119,0.023383,0.108344,-9.488421,-0.007011
35052,-0.010746,-0.023559,0.00024,0.0,0.001064,-0.001064,0.027625,-0.0,-0.0,3.0,0.3261,0.320296,0.3261,0.331768,0.015355,-223.380549,0.028419,0.090431,-9.448486,-0.006448
35072,-0.010624,-0.023681,0.000241,0.0,0.001064,-0.001064,0.0284,-0.0,-0.0,3.0,0.3261,0.319945,0.3261,0.332101,0.022394,-223.755889,0.036242,0.0775,-9.248392,-0.005976
35092,-0.010257,-0.023804,0.000122,-0.001064,0.0,-0.001064,0.029287,-0.0,-0.0,3.0,0.3261,0.320726,0.3261,0.331357,0.037064,-224.121072,0.051796,0.062544,-8.91827,-0.005588
35112,-0.010257,-0.023804,0.000122,-0.001064,-0.001064,0.0,0.029718,-0.0,-0.0,3.0,0.3261,0.320394,0.3261,0.331674,0.092337,-224.471304,0.108103,0.030548,-8.50506,-0.005313
35132,-0.010134,-0.023926,0.000123,-0.001064,-0.002128,0.0,0.030591,-0.0,-0.0,3.0,0.3261,0.318692,0.3261,0.333287,-0.551233,-224.730938,-0.53012,0.175251,-8.061702,-0.017031
35152,-0.009768,-0.02417,0.000126,-0.001064,-0.002128,-0.001064,0.031659,-0.0,-0.0,3.0,0.3261,0.317046,0.3261,0.334825,-0.041351,-225.033624,-0.027244,0.327543,-7.628698,-0.018928
35172,-0.009892,-0.024047,0.000247,0.0,-0.001064,-0.001064,0.032493,-0.0,-0.0,3.0,0.3261,0.316657,0.3261,0.335186,-0.01436,-225.332687,-0.010143,0.252012,-7.244567,-0.017618
35192,-0.009892,-0.024047,0.000247,0.001064,-0.001064,-0.001064,0.033006,-0.0,-0.0,3.0,0.3261,0.316406,0.3261,0.335418,-0.002965,-225.617616,-0.007199,0.20545,-6.940842,-0.016644
35212,-0.00977,-0.023803,0.00025,0.002128,0.0,0.0,0.033849,-0.0,-0.0,3.0,0.3261,0.31607,0.3261,0.335728,0.004555,-225.891874,-0.007906,0.181047,-6.738526,-0.015857
35232,-0.009281,-0.024047,0.000255,0.001064,0.0,0.0,0.034693,-0.0,-0.0,3.0,0.3261,0.31824,0.3261,0.333711,0.011103,-226.159704,-0.010461,0.168473,-6.649573,-0.015165
35252,-0.008795,-0.024047,0.000383,0.001064,-0.001064,0.0,0.035737,-0.0,-0.0,3.0,0.3261,0.317852,0.3261,0.334075,0.018032,-226.425718,-0.014707,0.161031,-6.678467,-0.014518
35272,-0.008062,-0.024047,0.000392,0.001064,-0.001064,0.0,0.036548,-0.0,-0.0,3.0,0.3261,0.318751,0.3261,0.333231,0.026587,-226.694603,-0.021343,0.154261,-6.823154,-0.013891
35292,-0.007331,-0.024047,0.000522,0.0,-0.001064,-0.001064,0.036997,-0.0,-0.0,3.0,0.3261,0.318568,0.3261,0.333403,0.039028,-226.970843,-0.032477,0.144072,-7.075053,-0.013278
35312,-0.006845,-0.023925,0.000651,0.0,0.0,-0.002128,0.037842,-0.0,-0.0,3.0,0.3261,0.31699,0.3261,0.334878,0.062063,-227.258402,-0.05489,0.124853,-7.418205,-0.012695
35332,-0.005991,-0.023681,0.000784,0.0,0.0,-0.001064,0.038666,-0.0,-0.0,3.0,0.3261,0.316741,0.3261,0.335108,0.132517,-227.560051,-0.125679,0.078439,-7.827939,-0.0122
35352,-0.005015,-0.023559,0.000796,0.001064,0.0,-0.001064,0.039555,-0.0,-0.0,3.0,0.3261,0.316536,0.3261,0.335298,-1.334958,-227.850831,1.340939,-0.214683,-8.269932,-0.015578
35372,-0.004162,-0.023803,0.000927,0.001064,0.0,0.0,0.040329,-0.0,-0.0,3.0,0.3261,0.31633,0.3261,0.335489,-0.031636,-228.118192,0.034772,0.269882,-8.70874,-0.028867
35392,-0.003188,-0.023803,0.001183,0.001064,0.0,-0.001064,0.041151,-0.0,-0.0,3.0,0.3261,0.316111,0.3261,0.33569,-0.007831,-228.472601,0.020128,0.246229,-9.101471,-0.027496
35412,-0.002091,-0.023926,0.001318,0.002128,0.0,-0.001064,0.041967,-0.0,-0.0,3.0,0.3261,0.315957,0.3261,0.335833,0.002041,-228.841461,0.019597,0.218502,-9.396115,-0.026221
35432,-0.000872,-0.024049,0.001455,0.003193,-0.001064,-0.001064,0.042788,-0.0,-0.0,3.0,0.3261,0.315832,0.3261,0.335947,0.009463,-229.220091,0.022658,0.197351,-9.54973,-0.025051
35452,0.000223,-0.024172,0.001713,0.004257,-0.001064,-0.001064,0.04333,-0.0,-0.0,3.0,0.3261,0.315811,0.3261,0.335966,0.017331,-229.602393,0.028381,0.179863,-9.537997,-0.023979
35472,0.001319,-0.024173,0.00197,0.004257,-0.002128,-0.001064,0.04406,-0.0,-0.0,3.0,0.3261,0.316988,0.3261,0.334879,0.028322,-229.981655,0.03824,0.162539,-9.362181,-0.023012
35492,0.00266,-0.024174,0.002108,0.003193,-0.002128,0.0,0.044884,-0.0,-0.0,3.0,0.3261,0.318109,0.3261,0.333834,0.048955,-230.351553,0.058292,0.14034,-9.049257,-0.022168
35512,0.004244,-0.024421,0.002372,0.002128,-0.002128,0.0,0.045679,-0.0,-0.0,3.0,0.3261,0.319264,0.3261,0.332748,0.115094,-230.706795,0.124303,0.096969,-8.644939,-0.021502
35532,0.005949,-0.024302,0.002759,0.002128,-0.001064,-0.001064,0.046456,-0.0,-0.0,3.0,0.3261,0.319226,0.3261,0.332784,-0.372226,-230.995106,-0.364539,-0.232293,-8.202744,-0.027967
35552,0.007777,-0.024183,0.003025,0.002128,0.0,-0.001064,0.04694,-0.0,-0.0,3.0,0.3261,0.318064,0.3261,0.333876,-0.0138,-231.311019,-0.000867,0.063066,-7.7683,-0.029827
35572,0.009361,-0.023942,0.003287,0.002128,0.001064,-0.001064,0.047696,-0.0,-0.0,3.0,0.3261,0.318102,0.3261,0.333841,-0.005815,-231.615758,0.003564,0.14901,-7.383262,-0.029374
35592,0.011065,-0.024068,0.003675,0.003193,0.002128,-0.002128,0.048463,-0.0,-0.0,3.0,0.3261,0.318141,0.3261,0.333804,0.000661,-231.906249,0.003372,0.182917,-7.080262,-0.028674
35612,0.013016,-0.023951,0.003942,0.004257,0.002128,-0.002128,0.049226,-0.0,-0.0,3.0,0.3261,0.318247,0.3261,0.333704,0.007249,-232.186118,0.001146,0.196101,-6.881093,-0.027897
35632,0.014845,-0.024077,0.004086,0.005321,0.0,-0.001064,0.049986,-0.0,-0.0,3.0,0.3261,0.318421,0.3261,0.333542,0.014483,-232.459718,-0.002735,0.20037,-6.798076,-0.0271
35652,0.017038,-0.024327,0.004359,0.004257,-0.001064,-0.001064,0.050434,-0.0,-0.0,3.0,0.3261,0.319846,0.3261,0.332196,0.023041,-232.731766,-0.008625,0.199544,-6.835594,-0.026298
35672,0.019355,-0.024702,0.004636,0.004257,-0.002128,-0.001064,0.051548,-0.0,-0.0,3.0,0.3261,0.319883,0.3261,0.332161,0.034207,-233.007034,-0.017718,0.194343,-6.990988,-0.025497
35692,0.02167,-0.024953,0.004911,0.004257,-0.003193,-0.001064,0.052286,-0.0,-0.0,3.0,0.3261,0.321301,0.3261,0.330806,0.051148,-233.290042,-0.03321,0.182443,-7.25451,-0.024703
35712,0.024109,-0.024839,0.005184,0.004257,-0.002128,0.0,0.052651,-0.0,-0.0,3.0,0.3261,0.320378,0.3261,0.33169,0.084423,-233.584656,-0.065848,0.155976,-7.608393,-0.023947
35732,0.026425,-0.024847,0.005456,0.005321,-0.001064,-0.001064,0.053386,-0.0,-0.0,3.0,0.3261,0.320712,0.3261,0.33137,0.203128,-233.892882,-0.185176,0.085214,-8.025546,-0.023328
35752,0.028619,-0.024611,0.005724,0.006385,0.0,-0.001064,0.053857,-0.0,-0.0,3.0,0.3261,0.321089,0.3261,0.331009,-209.629417,-234.037964,209.643525,0.508039,-8.468998,-0.062233
35772,0.031182,-0.0245,0.005998,0.006385,0.001064,-0.001064,0.054766,-0.0,-0.0,3.0,0.3261,0.322582,0.3261,0.329568,-216.757408,-233.771313,216.831507,2.870199,-8.923708,-0.202947
35792,0.033864,-0.024389,0.006273,0.006385,0.001064,-0.001064,0.055638,-0.0,-0.0,3.0,0.3261,0.324141,0.3261,0.328044,-216.667729,-233.408264,216.892857,4.807036,-9.388611,-0.331504
35812,0.036791,-0.024646,0.006557,0.005321,0.001064,-0.001064,0.05635,-0.0,-0.0,3.0,0.3261,0.32451,0.3261,0.32768,-216.522885,-233.032976,216.995634,6.342398,-9.832604,-0.449056
35832,0.039717,-0.024903,0.006842,0.004257,0.0,-0.001064,0.056714,-0.0,-0.0,3.0,0.3261,0.324885,0.3261,0.327309,-216.312069,-232.660819,217.153269,7.49625,-10.221681,-0.557096
35852,0.0424,-0.025039,0.007122,0.003193,-0.001064,-0.001064,0.057571,-0.0,-0.0,3.0,0.3261,0.325151,0.3261,0.327046,-216.008915,-232.324839,217.394927,8.300044,-10.538547,-0.657493
35872,0.045204,-0.025174,0.007403,0.004257,-0.001064,-0.001064,0.058203,-0.0,-0.0,3.0,0.3261,0.324341,0.3261,0.327847,-215.57482,-232.08834,217.759396,8.813521,-10.799387,-0.752235
35892,0.047766,-0.025189,0.00768,0.005321,0.0,-0.001064,0.05891,-0.0,-0.0,3.0,0.3261,0.322398,0.3261,0.329746,-215.022698,-232.044912,218.23097,9.124469,-11.059166,-0.84295
35912,0.050203,-0.025324,0.007957,0.006385,0.0,-0.001064,0.059586,-0.0,-0.0,3.0,0.3261,0.322917,0.3261,0.329241,-214.495663,-232.242431,218.658849,9.332697,-11.403707,-0.93043
35932,0.052523,-0.025336,0.008109,0.006385,0.0,-0.001064,0.060253,-0.0,-0.0,3.0,0.3261,0.324591,0.3261,0.3276,-214.086716,-232.617767,218.930927,9.523252,-11.927247,-1.014379
35952,0.055327,-0.02547,0.008268,0.006385,-0.001064,0.0,0.060691,-0.0,-0.0,3.0,0.3261,0.326291,0.3261,0.32591,-213.734121,-233.091102,219.051462,9.734781,-12.694506,-1.093521
35972,0.058012,-0.025486,0.008546,0.005321,-0.001064,0.0,0.061283,-0.0,-0.0,3.0,0.3261,0.327952,0.3261,0.324235,-213.242118,-233.606332,218.928306,9.942566,-13.705861,-1.166144
35992,0.060819,-0.025504,0.008826,0.005321,-0.001064,-0.001064,0.061958,-0.0,-0.0,3.0,0.3261,0.328354,0.3261,0.323825,-210.863758,-233.877034,216.89731,10.048309,-14.881211,-1.231021
36012,0.063377,-0.025642,0.009105,0.003193,-0.001064,-0.001064,0.062609,-0.0,-0.0,3.0,0.3261,0.328771,0.3261,0.3234,-210.320251,-233.272343,216.766395,9.920805,-16.077448,-1.288683
36032,0.065699,-0.025412,0.009249,0.003193,-0.001064,-0.001064,0.063241,-0.0,-0.0,3.0,0.3261,0.327961,0.3261,0.324225,-210.059734,-232.649972,217.0263,9.57524,-17.11894,-1.341597
36052,0.067893,-0.025423,0.009397,0.003193,0.0,-0.001064,0.063653,-0.0,-0.0,3.0,0.3261,0.32724,0.3261,0.324955,-209.653936,-232.092041,217.448302,9.019038,-17.90214,-1.393436
36072,0.069969,-0.025436,0.009546,0.003193,0.0,-0.001064,0.06454,-0.0,-0.0,3.0,0.3261,0.326381,0.3261,0.325819,-208.909029,-231.807297,218.215415,8.335722,-18.459281,-1.447996
36092,0.0718,-0.025814,0.009705,0.004257,0.0,-0.001064,0.064849,-0.0,-0.0,3.0,0.3261,0.326856,0.3261,0.325342,-208.116259,-232.101062,219.031144,7.641989,-18.953246,-1.50752
36112,0.073384,-0.025824,0.009846,0.003193,0.0,-0.001064,0.065459,-0.0,-0.0,3.0,0.3261,0.327179,0.3261,0.325017,-207.74973,-232.761636,219.428801,7.018383,-19.604423,-1.572059
36132,0.075094,-0.025958,0.009995,0.003193,-0.001064,0.0,0.066065,-0.0,-0.0,3.0,0.3261,0.327448,0.3261,0.324744,-207.605488,-233.534346,219.674195,6.456336,-20.523134,-1.640327
36152,0.076555,-0.025973,0.010257,0.003193,-0.001064,0.0,0.066455,-0.0,-0.0,3.0,0.3261,0.327777,0.3261,0.324412,-206.717955,-234.319724,219.048525,5.894548,-21.603139,-1.711493
36172,0.078144,-0.025863,0.010395,0.003193,0.0,-0.001064,0.067338,-0.0,-0.0,3.0,0.3261,0.326774,0.3261,0.325425,-207.212993,-235.134542,219.835054,5.187191,-22.589321,-1.786653
36192,0.079362,-0.025872,0.010531,0.002128,0.0,-0.001064,0.067933,-0.0,-0.0,3.0,0.3261,0.327031,0.3261,0.325166,-207.046424,-236.019996,220.080852,4.351245,-23.213469,-1.869016
36212,0.080459,-0.025759,0.010662,0.001064,0.0,-0.001064,0.068219,-0.0,-0.0,3.0,0.3261,0.327249,0.3261,0.324946,-206.374664,-236.813665,220.798071,3.41071,-23.408015,-1.962151
36232,0.081437,-0.025892,0.010802,0.001064,-0.001064,-0.001064,0.068787,-0.0,-0.0,3.0,0.3261,0.327433,0.3261,0.32476,-204.313112,-236.496944,222.830539,2.506086,-23.375046,-2.06803
36252,0.082532,-0.026023,0.010942,0.001064,-0.001064,-0.001064,0.069156,-0.0,-0.0,3.0,0.3261,0.327607,0.3261,0.324584,-204.227129,-235.558337,222.81434,1.64283,-23.449215,-2.186005
36272,0.083384,-0.026153,0.011079,0.001064,-0.001064,-0.001064,0.069996,-0.0,-0.0,3.0,0.3261,0.326512,0.3261,0.325688,-204.120848,-234.616753,222.700978,0.734383,-23.805566,-2.315918
36292,0.083874,-0.026284,0.011215,0.001064,-0.001064,0.0,0.070543,-0.0,-0.0,3.0,0.3261,0.325424,0.3261,0.326775,-204.86701,-233.901905,223.448376,-0.295264,-24.279946,-2.458796
36312,0.08436,-0.026291,0.011342,0.001064,0.0,0.0,0.071079,-0.0,-0.0,3.0,0.3261,0.325504,0.3261,0.326695,-204.273966,-232.971882,222.844883,-1.447994,-24.547901,-2.617128
36332,0.084725,-0.026175,0.011464,0.001064,0.0,-0.001064,0.071353,-0.0,-0.0,3.0,0.3261,0.325648,0.3261,0.326552,-204.356804,-231.986339,222.85573,-2.650679,-24.27933,-2.792488
36352,0.084968,-0.026182,0.011588,0.001064,0.0,-0.001064,0.072014,-0.0,-0.0,3.0,0.3261,0.325669,0.3261,0.326531,-204.653561,-231.025862,222.65451,-3.84376,-23.395054,-2.98421
36372,0.085334,-0.026061,0.011588,0.0,0.0,-0.001064,0.072457,-0.0,-0.0,3.0,0.3261,0.325683,0.3261,0.326516,-204.35626,-230.290766,223.10591,-4.998394,-22.134989,-3.190011
36392,0.085577,-0.026184,0.011596,0.0,-0.001064,0.0,0.07296,-0.0,-0.0,3.0,0.3261,0.325653,0.3261,0.326547,-204.540343,-229.419047,223.176093,-6.101857,-20.766168,-3.406842
36412,0.085821,-0.026307,0.011604,-0.001064,-0.001064,0.0,0.07346,-0.0,-0.0,3.0,0.3261,0.326784,0.3261,0.325414,-204.864825,-228.627308,223.405583,-7.140072,-19.432018,-3.632261
36432,0.085944,-0.026302,0.011483,-0.001064,-0.001064,0.0,0.073706,-0.0,-0.0,3.0,0.3261,0.325591,0.3261,0.326608,-206.026107,-228.084267,224.421699,-8.017238,-18.034611,-3.863564
36452,0.086068,-0.026298,0.011363,-0.001064,-0.001064,0.0,0.074071,-0.0,-0.0,3.0,0.3261,0.325591,0.3261,0.326609,-207.528007,-228.53709,225.671906,-8.547016,-16.384589,-4.096196
36472,0.086069,-0.026292,0.011241,0.0,-0.001064,0.0,0.074765,-0.0,-0.0,3.0,0.3261,0.324339,0.3261,0.327848,-207.864714,-229.182035,225.638773,-8.611875,-14.345639,-4.323476
36492,0.08607,-0.026409,0.011124,0.0,0.0,0.0,0.075242,-0.0,-0.0,3.0,0.3261,0.324336,0.3261,0.327851,-208.21985,-229.717782,225.455196,-8.15752,-11.967209,-4.53877
36512,0.086195,-0.026282,0.010998,0.001064,0.0,0.0,0.075709,-0.0,-0.0,3.0,0.3261,0.324334,0.3261,0.327853,-208.710054,-230.098907,225.117862,-7.199279,-9.463946,-4.737718
36532,0.08632,-0.026272,0.010756,0.0,0.0,0.0,0.076232,-0.0,-0.0,3.0,0.3261,0.325517,0.3261,0.326682,-209.37141,-230.28215,224.595449,-5.828338,-7.099181,-4.919673
36552,0.086937,-0.026387,0.010527,0.0,0.0,0.0,0.076583,-0.0,-0.0,3.0,0.3261,0.326705,0.3261,0.325494,-210.029834,-230.270689,224.044464,-4.172632,-5.097401,-5.087249
36572,0.087307,-0.026378,0.010287,0.0,-0.001064,0.0,0.076847,-0.0,-0.0,3.0,0.3261,0.32672,0.3261,0.325479,-210.479774,-230.153853,223.648364,-2.376281,-3.61546,-5.244666
36592,0.087677,-0.026485,0.009931,-0.001064,-0.001064,0.0,0.077284,-0.0,-0.0,3.0,0.3261,0.326694,0.3261,0.325505,-210.738196,-230.003556,223.373454,-0.58892,-2.741892,-5.396003
36612,0.088168,-0.026476,0.009693,0.0,-0.001064,0.0,0.077708,-0.0,-0.0,3.0,0.3261,0.325536,0.3261,0.326663,-210.859675,-229.838544,223.158054,1.038768,-2.503131,-5.543987
36632,0.088659,-0.026467,0.009455,0.001064,-0.001064,0.0,0.078216,-0.0,-0.0,3.0,0.3261,0.325609,0.3261,0.32659,-210.875797,-229.658003,222.972028,2.364874,-2.868031,-5.689601
36652,0.08903,-0.02633,0.009088,0.002128,-0.001064,0.0,0.078604,-0.0,-0.0,3.0,0.3261,0.32577,0.3261,0.32643,-210.808921,-229.457001,222.797798,3.27201,-3.751205,-5.832484
36672,0.089521,-0.02632,0.00885,0.002128,0.0,0.001064,0.079017,-0.0,-0.0,3.0,0.3261,0.325899,0.3261,0.326302,-210.676806,-229.230928,222.616566,3.682523,-5.019603,-5.971907
36692,0.090263,-0.026429,0.0085,0.002128,0.0,0.0,0.079211,-0.0,-0.0,3.0,0.3261,0.327269,0.3261,0.324926,-210.485978,-228.980614,222.399353,3.56833,-6.503067,-6.10788
36712,0.091241,-0.026542,0.008274,0.001064,0.0,0.0,0.079591,-0.0,-0.0,3.0,0.3261,0.32859,0.3261,0.323584,-210.215599,-228.722942,222.094462,2.954509,-8.006182,-6.241897
36732,0.092348,-0.026652,0.007929,0.001064,0.0,0.0,0.080042,-0.0,-0.0,3.0,0.3261,0.328683,0.3261,0.323489,-209.798207,-228.513677,221.611201,1.920026,-9.320152,-6.376971
36752,0.093085,-0.026636,0.007572,0.0,-0.001064,0.001064,0.080389,-0.0,-0.0,3.0,0.3261,0.328805,0.3261,0.323365,-209.210969,-228.476909,220.910386,0.600487,-10.238876,-6.516827
36772,0.094187,-0.026743,0.007225,0.001064,-0.001064,0.0,0.080749,-0.0,-0.0,3.0,0.3261,0.3278,0.3261,0.324388,-208.757921,-228.695292,220.282312,-0.809978,-10.584183,-6.664448
36792,0.095051,-0.026607,0.006866,0.002128,-0.001064,0.0,0.081089,-0.0,-0.0,3.0,0.3261,0.328044,0.3261,0.324141,-208.610366,-229.053546,219.880488,-2.076648,-10.24739,-6.820528
36812,0.096033,-0.026585,0.00639,0.002128,-0.001064,0.0,0.081258,-0.0,-0.0,3.0,0.3261,0.328361,0.3261,0.323818,-208.665195,-229.433063,219.576983,-2.965881,-9.247262,-6.982791
36832,0.097014,-0.026568,0.006036,0.002128,-0.001064,0.001064,0.081617,-0.0,-0.0,3.0,0.3261,0.328636,0.3261,0.323538,-208.859207,-229.775331,219.278086,-3.304708,-7.75278,-7.146884
36852,0.098123,-0.026669,0.00557,0.002128,-0.001064,0.001064,0.08188,-0.0,-0.0,3.0,0.3261,0.330056,0.3261,0.322078,-209.173302,-230.049116,218.926308,-3.029469,-6.04673,-7.308521
36872,0.099469,-0.026774,0.005227,0.002128,0.0,0.001064,0.082237,-0.0,-0.0,3.0,0.3261,0.330337,0.3261,0.321787,-209.604433,-230.23344,218.475653,-2.203122,-4.451975,-7.465403
36892,0.10082,-0.02688,0.004885,0.002128,0.0,0.0,0.08254,-0.0,-0.0,3.0,0.3261,0.330607,0.3261,0.321507,-210.123562,-230.303471,217.918199,-1.001993,-3.254989,-7.617624
36912,0.102289,-0.026977,0.004423,0.002128,0.0,0.0,0.082834,-0.0,-0.0,3.0,0.3261,0.33094,0.3261,0.321161,-210.596747,-230.240139,217.362964,0.318064,-2.648606,-7.766571
36932,0.10352,-0.02696,0.004074,0.003193,-0.001064,0.0,0.083049,-0.0,-0.0,3.0,0.3261,0.331268,0.3261,0.320818,-210.883479,-230.066386,216.939651,1.473446,-2.698239,-7.913401
36952,0.104873,-0.027058,0.00361,0.002128,-0.001064,0.0,0.083306,-0.0,-0.0,3.0,0.3261,0.331647,0.3261,0.320422,-210.991381,-229.823948,216.642022,2.215475,-3.331455,-8.058348
36972,0.106341,-0.026916,0.003257,0.003193,-0.001064,0.001064,0.083573,-0.0,-0.0,3.0,0.3261,0.333192,0.3261,0.318793,-210.984468,-229.536824,216.413032,2.386093,-4.354796,-8.2013
36992,0.107939,-0.027013,0.002798,0.002128,-0.001064,0.001064,0.083833,-0.0,-0.0,3.0,0.3261,0.333608,0.3261,0.31835,-210.910757,-229.215741,216.204959,1.955596,-5.497837,-8.342951
37012,0.109283,-0.026754,0.002558,0.002128,-0.001064,0.001064,0.084084,-0.0,-0.0,3.0,0.3261,0.334002,0.3261,0.31793,-210.786893,-228.87214,215.972317,1.031453,-6.47363,-8.485332
37032,0.110635,-0.026856,0.002217,0.002128,0.001064,0.0,0.084241,-0.0,-0.0,3.0,0.3261,0.33324,0.3261,0.318741,-210.575363,-228.53244,215.641291,-0.163373,-7.040097,-8.631039
37052,0.112353,-0.026714,0.001868,0.002128,0.001064,0.0,0.084573,-0.0,-0.0,3.0,0.3261,0.333627,0.3261,0.31833,-210.119076,-228.269496,215.038846,-1.335852,-7.053198,-8.781637
37072,0.113827,-0.026936,0.001536,0.003193,0.0,0.0,0.084794,-0.0,-0.0,3.0,0.3261,0.334075,0.3261,0.317852,-209.335489,-228.267106,214.08229,-2.183083,-6.507761,-8.936486
37092,0.115296,-0.027028,0.001074,0.003193,-0.001064,0.0,0.084902,-0.0,-0.0,3.0,0.3261,0.334525,0.3261,0.317369,-208.94072,-228.557801,213.497501,-2.459391,-5.550053,-9.092979
37112,0.116526,-0.02725,0.00074,0.003193,-0.002128,0.0,0.085109,-0.0,-0.0,3.0,0.3261,0.334959,0.3261,0.316902,-208.878863,-228.925722,213.241215,-2.071199,-4.452838,-9.24816
37132,0.118123,-0.02747,0.00041,0.002128,-0.002128,0.001064,0.085243,-0.0,-0.0,3.0,0.3261,0.33653,0.3261,0.315197,-208.905461,-229.30271,213.081998,-1.128874,-3.544557,-9.400429
37152,0.119466,-0.027331,0.000178,0.002128,-0.001064,0.001064,0.085531,-0.0,-0.0,3.0,0.3261,0.336924,0.3261,0.314765,-208.947447,-229.680345,212.945248,0.076968,-3.090976,-9.549817
37172,0.120572,-0.0272,6.3e-05,0.001064,0.0,0.0,0.085633,-0.0,-0.0,3.0,0.3261,0.336165,0.3261,0.315594,-209.004236,-230.057852,212.782255,1.165302,-3.193072,-9.696912
37192,0.12155,-0.026818,-0.000189,0.001064,0.001064,0.0,0.085813,-0.0,-0.0,3.0,0.3261,0.335393,0.3261,0.316433,-209.173511,-230.42588,212.487281,1.791064,-3.745846,-9.842045
37212,0.122536,-0.02668,-0.000427,0.002128,0.001064,0.0,0.085976,-0.0,-0.0,3.0,0.3261,0.335747,0.3261,0.316049,-210.033197,-230.700615,211.498968,1.766816,-4.474217,-9.985727
37232,0.123268,-0.026914,-0.000524,0.002128,0.001064,-0.001064,0.086134,-0.0,-0.0,3.0,0.3261,0.335012,0.3261,0.316844,-211.329598,-230.45722,210.103134,1.12611,-5.035172,-10.129417
37252,0.12401,-0.027142,-0.000743,0.002128,0.0,0.0,0.086257,-0.0,-0.0,3.0,0.3261,0.336501,0.3261,0.315228,-211.443189,-230.011067,209.930679,0.121493,-5.162832,-10.275148
37272,0.124743,-0.027254,-0.000847,0.002128,-0.002128,0.0,0.086395,-0.0,-0.0,3.0,0.3261,0.336812,0.3261,0.314888,-211.490478,-229.555562,209.855596,-0.852,-4.778599,-10.423932
37292,0.125353,-0.027367,-0.000953,0.0,-0.002128,0.0,0.08652,-0.0,-0.0,3.0,0.3261,0.337071,0.3261,0.314603,-211.537997,-229.103665,209.790245,-1.43675,-4.022024,-10.574884
37312,0.12597,-0.027367,-0.000944,-0.001064,-0.001064,0.0,0.086635,-0.0,-0.0,3.0,0.3261,0.337279,0.3261,0.314375,-211.563627,-228.659828,209.705826,-1.436562,-3.199976,-10.726137
37332,0.126458,-0.027121,-0.000953,-0.001064,-0.001064,0.0,0.086721,-0.0,-0.0,3.0,0.3261,0.337553,0.3261,0.314073,-211.48814,-228.22542,209.539748,-0.895076,-2.668535,-10.876382
37352,0.126579,-0.026999,-0.000959,-0.001064,-0.001064,-0.001064,0.086808,-0.0,-0.0,3.0,0.3261,0.336629,0.3261,0.315088,-210.620891,-227.83291,208.619713,-0.087636,-2.679574,-11.025329
37372,0.12658,-0.026634,-0.000982,0.0,0.0,-0.001064,0.086899,-0.0,-0.0,3.0,0.3261,0.33573,0.3261,0.316068,-208.501462,-228.038822,206.514456,0.535438,-3.247572,-11.173033
37392,0.126578,-0.026763,-0.000853,0.0,0.0,-0.001064,0.086979,-0.0,-0.0,3.0,0.3261,0.335923,0.3261,0.315858,-208.560634,-228.508688,206.604946,0.721926,-4.101204,-11.319696
37412,0.1267,-0.026519,-0.000866,0.0,0.0,-0.001064,0.087048,-0.0,-0.0,3.0,0.3261,0.336146,0.3261,0.315616,-208.534259,-228.996572,206.603048,0.421074,-4.827859,-11.466059
37432,0.126698,-0.026771,-0.000729,-0.001064,0.0,-0.001064,0.087088,-0.0,-0.0,3.0,0.3261,0.337461,0.3261,0.314174,-208.524672,-229.498214,206.593325,-0.186196,-5.042825,-11.613491
37452,0.126818,-0.0269,-0.000598,-0.001064,-0.001064,-0.001064,0.087163,-0.0,-0.0,3.0,0.3261,0.337598,0.3261,0.314024,-208.543292,-230.004788,206.586333,-0.737764,-4.586944,-11.762697
37472,0.126938,-0.026907,-0.000474,-0.001064,-0.002128,0.0,0.087184,-0.0,-0.0,3.0,0.3261,0.337718,0.3261,0.313891,-208.564025,-230.507221,206.601608,-0.883887,-3.632661,-11.912795
37492,0.126937,-0.026915,-0.000352,-0.001064,-0.002128,-0.001064,0.087219,-0.0,-0.0,3.0,0.3261,0.336724,0.3261,0.314984,-207.350172,-230.997452,207.851117,-0.491147,-2.616571,-12.062309
37512,0.126935,-0.026923,-0.000231,0.0,-0.002128,0.0,0.087245,-0.0,-0.0,3.0,0.3261,0.336928,0.3261,0.314761,-208.733508,-231.394487,206.469901,0.299963,-2.025328,-12.21064
37532,0.126932,-0.026695,-2e-06,0.0,0.0,-0.001064,0.087256,-0.0,-0.0,3.0,0.3261,0.33719,0.3261,0.314472,-208.723139,-231.891567,206.452954,1.006949,-2.137467,-12.357961
37552,0.126809,-0.026581,0.00011,0.0,0.001064,-0.001064,0.087266,-0.0,-0.0,3.0,0.3261,0.337397,0.3261,0.314245,-208.682113,-232.397026,206.442841,1.193005,-2.850013,-12.504398
37572,0.126929,-0.026588,0.000234,0.0,0.001064,-0.001064,0.087265,-0.0,-0.0,3.0,0.3261,0.338743,0.3261,0.312754,-208.640256,-232.91541,206.441669,0.684909,-3.732706,-12.65046
37592,0.127171,-0.026717,0.000367,0.0,0.0,-0.001064,0.087254,-0.0,-0.0,3.0,0.3261,0.338954,0.3261,0.312518,-208.63659,-233.447832,206.456906,-0.29351,-4.263274,-12.79772
37612,0.127412,-0.026968,0.000507,0.0,-0.001064,-0.001064,0.087233,-0.0,-0.0,3.0,0.3261,0.339141,0.3261,0.31231,-208.7876,-233.98813,206.587869,-1.210492,-4.129174,-12.94741
37632,0.127654,-0.027097,0.00064,0.0,-0.002128,0.0,0.087214,-0.0,-0.0,3.0,0.3261,0.339383,0.3261,0.312039,-208.583347,-234.492478,206.334189,-1.526297,-3.428417,-13.098603
37652,0.127773,-0.026991,0.000878,0.0,-0.002128,0.0,0.087156,-0.0,-0.0,3.0,0.3261,0.33958,0.3261,0.311818,-208.684113,-235.032444,206.388467,-1.005107,-2.625483,-13.249192
37672,0.127771,-0.026877,0.000992,-0.001064,-0.001064,-0.001064,0.087104,-0.0,-0.0,3.0,0.3261,0.339804,0.3261,0.311566,-208.716577,-235.573253,206.408545,0.085238,-2.273489,-13.398121
37692,0.127899,-0.026764,0.001108,0.0,0.0,-0.001064,0.087043,-0.0,-0.0,3.0,0.3261,0.340057,0.3261,0.31128,-208.694055,-236.119314,206.425669,1.083359,-2.624895,-13.545443
37712,0.128142,-0.02665,0.001225,0.0,0.0,-0.001064,0.087009,-0.0,-0.0,3.0,0.3261,0.339178,0.3261,0.312268,-208.626736,-236.675379,206.451164,1.352779,-3.41604,-13.691299
37732,0.127896,-0.026658,0.001344,-0.001064,0.0,-0.001064,0.086961,-0.0,-0.0,3.0,0.3261,0.339376,0.3261,0.312047,-208.295353,-237.242629,206.740789,0.721137,-4.014819,-13.836787
37752,0.127894,-0.026787,0.001473,-0.001064,-0.001064,0.0,0.086835,-0.0,-0.0,3.0,0.3261,0.34069,0.3261,0.310564,-208.692985,-237.788143,206.342462,-0.359486,-3.868948,-13.984043
37772,0.127891,-0.026803,0.001717,-0.001064,0.0,-0.001064,0.086735,-0.0,-0.0,3.0,0.3261,0.339745,0.3261,0.311632,-208.704316,-238.367448,206.364134,-1.120297,-2.94921,-14.133497
37792,0.12801,-0.026697,0.001955,-0.001064,0.0,-0.001064,0.086628,-0.0,-0.0,3.0,0.3261,0.339927,0.3261,0.311428,-208.751515,-238.94391,206.35344,-1.006557,-1.84096,-14.283223
37812,0.127877,-0.026589,0.002189,-0.001064,-0.001064,-0.001064,0.086572,-0.0,-0.0,3.0,0.3261,0.340154,0.3261,0.311171,-208.768454,-239.520467,206.325537,-0.110893,-1.371073,-14.43193
37832,0.127632,-0.026719,0.002315,-0.001064,-0.002128,-0.001064,0.08649,-0.0,-0.0,3.0,0.3261,0.340304,0.3261,0.311002,-208.700376,-240.102168,206.258372,0.842355,-1.989981,-14.579679
37852,0.12763,-0.026727,0.002437,-0.001064,-0.002128,-0.001064,0.086276,-0.0,-0.0,3.0,0.3261,0.341662,0.3261,0.309458,-208.831261,-240.674059,206.422077,1.023908,-3.34509,-14.726236
37872,0.12775,-0.026734,0.00256,-0.001064,-0.001064,-0.001064,0.086134,-0.0,-0.0,3.0,0.3261,0.34188,0.3261,0.309208,-208.689996,-241.281976,206.296577,0.193002,-4.438696,-14.872549
37892,0.127747,-0.02675,0.002804,-0.001064,0.0,-0.001064,0.086058,-0.0,-0.0,3.0,0.3261,0.342111,0.3261,0.308943,-208.684641,-241.904719,206.255456,-1.006345,-4.34995,-15.021292
37912,0.127744,-0.026644,0.00304,-0.001064,0.0,-0.001064,0.085902,-0.0,-0.0,3.0,0.3261,0.341159,0.3261,0.310032,-208.74155,-242.527521,206.228541,-1.498171,-3.028437,-15.172239
37932,0.127741,-0.026538,0.003276,-0.001064,0.0,-0.001064,0.085782,-0.0,-0.0,3.0,0.3261,0.341374,0.3261,0.309786,-208.794933,-243.144428,206.224552,-0.685818,-1.45779,-15.322137
37952,0.127493,-0.026439,0.003631,0.0,-0.001064,-0.001064,0.085522,-0.0,-0.0,3.0,0.3261,0.340527,0.3261,0.31075,-208.878928,-243.709683,206.138522,0.916192,-0.924188,-15.470279
37972,0.127368,-0.026333,0.003865,0.001064,-0.001064,-0.001064,0.085324,-0.0,-0.0,3.0,0.3261,0.340762,0.3261,0.310484,-208.8034,-244.33255,206.158793,1.965896,-1.91244,-15.617267
37992,0.127363,-0.026356,0.004231,0.001064,-0.001064,-0.001064,0.085225,-0.0,-0.0,3.0,0.3261,0.342095,0.3261,0.308961,-208.723088,-244.967789,206.170684,1.38099,-3.573808,-15.762494
38012,0.127359,-0.026494,0.004482,0.0,-0.001064,-0.001064,0.085022,-0.0,-0.0,3.0,0.3261,0.342303,0.3261,0.308722,-208.699643,-245.619887,206.196434,-0.544803,-4.35581,-15.908925
38032,0.127232,-0.026639,0.004854,-0.001064,-0.001064,-0.001064,0.084876,-0.0,-0.0,3.0,0.3261,0.343612,0.3261,0.307207,-208.800249,-246.278283,206.26199,-2.207275,-3.404236,-16.059953
38052,0.127105,-0.026662,0.005218,-0.001064,-0.001064,-0.001064,0.08454,-0.0,-0.0,3.0,0.3261,0.342709,0.3261,0.308254,-213.412062,-246.640237,210.794055,-2.040234,-1.495729,-16.211629
38072,0.1271,-0.026807,0.005591,-0.001064,-0.001064,-0.001064,0.084303,-0.0,-0.0,3.0,0.3261,0.342925,0.3261,0.308004,-278.012795,-246.908768,275.340941,-0.164494,-0.484194,-16.360567
38092,0.126852,-0.026709,0.005946,-0.001064,0.0,-0.001064,0.084182,-0.0,-0.0,3.0,0.3261,0.343143,0.3261,0.307752,-277.968921,-247.566027,275.320793,1.863817,-1.554038,-16.508223
38112,0.126604,-0.02661,0.006301,0.0,0.001064,-0.001064,0.083936,-0.0,-0.0,3.0,0.3261,0.343362,0.3261,0.307498,-277.87274,-248.235307,275.286465,2.043317,-3.931887,-16.653155
38132,0.126477,-0.026511,0.006657,0.0,0.001064,-0.002128,0.083772,-0.0,-0.0,3.0,0.3261,0.343589,0.3261,0.307233,-277.838609,-248.926073,275.220717,-0.013121,-5.268852,-16.797527
38152,0.126594,-0.026534,0.007024,0.0,0.0,-0.002128,0.083362,-0.0,-0.0,3.0,0.3261,0.3439,0.3261,0.306871,-278.072046,-249.62178,274.998864,-2.309772,-3.869527,-16.948259
38172,0.12659,-0.026672,0.007276,-0.001064,-0.001064,-0.001064,0.083088,-0.0,-0.0,3.0,0.3261,0.345235,0.3261,0.305303,-279.202854,-249.802044,273.95151,-2.181319,-0.719477,-17.100276
38192,0.126341,-0.026816,0.007646,-0.001064,-0.002128,-0.001064,0.082802,-0.0,-0.0,3.0,0.3261,0.346513,0.3261,0.303784,-266.91742,-249.940477,286.27983,0.847283,1.012045,-17.248454
38212,0.126092,-0.026961,0.008016,-0.002128,-0.001064,-0.001064,0.082656,-0.0,-0.0,3.0,0.3261,0.345528,0.3261,0.304956,-265.47943,-250.469786,287.665089,3.700117,-0.866644,-17.396993
38232,0.125842,-0.026869,0.008493,-0.002128,-0.001064,-0.001064,0.08245,-0.0,-0.0,3.0,0.3261,0.34571,0.3261,0.30474,-265.295285,-251.173376,287.728613,2.821309,-4.713504,-17.540005
38252,0.125342,-0.02689,0.008851,-0.001064,0.0,-0.002128,0.081958,-0.0,-0.0,3.0,0.3261,0.344853,0.3261,0.305753,-265.253219,-251.908315,287.809378,-1.491432,-6.245637,-17.683995
38272,0.124607,-0.026789,0.0092,-0.001064,0.0,-0.002128,0.081632,-0.0,-0.0,3.0,0.3261,0.343957,0.3261,0.306805,-265.528226,-252.642164,288.004269,-4.802478,-3.194761,-17.84121
38292,0.124115,-0.026689,0.009553,-0.001064,0.0,-0.001064,0.08147,-0.0,-0.0,3.0,0.3261,0.345183,0.3261,0.305364,-265.591364,-253.180884,287.895006,-2.981756,1.509897,-17.993066
38312,0.123742,-0.02684,0.010043,-0.001064,0.0,-0.001064,0.081135,-0.0,-0.0,3.0,0.3261,0.345367,0.3261,0.305146,-265.600198,-253.908486,287.863955,2.663756,2.222324,-18.140197
38332,0.123486,-0.026861,0.010404,-0.001064,0.0,-0.001064,0.080915,-0.0,-0.0,3.0,0.3261,0.345497,0.3261,0.304992,-265.421742,-254.637724,287.830391,5.841837,-2.848559,-18.289055
38352,0.123114,-0.02689,0.010887,-0.002128,-0.001064,-0.001064,0.080377,-0.0,-0.0,3.0,0.3261,0.34567,0.3261,0.304788,-265.294892,-255.392626,287.685194,2.025388,-8.373384,-18.422738
38372,0.1225,-0.02691,0.011245,-0.002128,-0.002128,-0.001064,0.080019,-0.0,-0.0,3.0,0.3261,0.345776,0.3261,0.304661,-267.826758,-256.109051,285.133973,-5.171689,-7.088556,-18.574475
38392,0.122005,-0.02706,0.011735,-0.002128,-0.002128,-0.001064,0.079645,-0.0,-0.0,3.0,0.3261,0.344808,0.3261,0.305807,-268.569602,-255.556659,284.639951,-6.692684,0.956781,-18.738026
38412,0.121384,-0.026957,0.012083,-0.002128,-0.001064,-0.001064,0.079456,-0.0,-0.0,3.0,0.3261,0.344954,0.3261,0.305634,-268.831863,-254.79117,284.522299,0.754167,6.509139,-18.878503
38432,0.12077,-0.02674,0.012549,-0.002128,0.0,-0.001064,0.079193,-0.0,-0.0,3.0,0.3261,0.345117,0.3261,0.305442,-268.666093,-254.004479,284.453698,8.920362,1.409015,-19.03876
38452,0.11991,-0.026766,0.013027,-0.002128,0.0,-0.002128,0.078647,-0.0,-0.0,3.0,0.3261,0.344181,0.3261,0.306543,-268.38821,-253.226043,284.555557,6.387021,-9.752581,-19.172193
38472,0.119044,-0.026905,0.013387,-0.002128,-0.001064,-0.001064,0.078239,-0.0,-0.0,3.0,0.3261,0.345373,0.3261,0.30514,-268.049256,-252.673097,284.322347,-6.035132,-12.64829,-19.308492
38492,0.118185,-0.026808,0.013858,-0.002128,-0.001064,-0.001064,0.077828,-0.0,-0.0,3.0,0.3261,0.344321,0.3261,0.306378,-268.436082,-251.808873,284.32532,-13.008361,-1.066728,-19.505177
38512,0.117196,-0.02683,0.014331,-0.003193,-0.001064,-0.001064,0.07762,-0.0,-0.0,3.0,0.3261,0.344303,0.3261,0.3064,-268.873584,-251.007271,284.486138,-2.671588,11.696974,-19.631055
38532,0.116094,-0.026732,0.014799,-0.003193,-0.001064,-0.001064,0.07729,-0.0,-0.0,3.0,0.3261,0.344307,0.3261,0.306395,-268.44771,-250.140878,284.88781,14.274318,6.837293,-19.80544
38552,0.114619,-0.026743,0.015146,-0.003193,-0.002128,-0.002128,0.076667,-0.0,-0.0,3.0,0.3261,0.344347,0.3261,0.306348,-257.628876,-249.573915,295.095896,14.078289,-13.030341,-19.947895
38572,0.113274,-0.026757,0.015496,-0.003193,-0.002128,-0.001064,0.076215,-0.0,-0.0,3.0,0.3261,0.344317,0.3261,0.306383,-255.002209,-249.825169,297.473532,-7.470108,-21.28539,-20.03291
38592,0.111802,-0.026524,0.015829,-0.004257,-0.001064,-0.001064,0.075762,-0.0,-0.0,3.0,0.3261,0.344283,0.3261,0.306423,-255.825991,-248.958678,297.226621,-22.847987,-1.671007,-20.307165
38612,0.110693,-0.026536,0.016179,-0.005321,0.0,-0.001064,0.075524,-0.0,-0.0,3.0,0.3261,0.344171,0.3261,0.306554,-256.683106,-248.050032,296.995194,-6.006926,23.067999,-20.37075
38632,0.109106,-0.026303,0.016514,-0.004257,0.0,-0.001064,0.074819,-0.0,-0.0,3.0,0.3261,0.343101,0.3261,0.307801,-256.152759,-246.847633,296.578998,25.619576,14.369674,-20.60328
38652,0.107267,-0.026425,0.016741,-0.004257,0.0,-0.001064,0.074551,-0.0,-0.0,3.0,0.3261,0.34293,0.3261,0.307998,-238.333296,-246.899781,279.906558,24.358388,-24.117126,-20.751144
38672,0.105671,-0.026433,0.017086,-0.004257,-0.001064,-0.001064,0.074056,-0.0,-0.0,3.0,0.3261,0.342807,0.3261,0.308141,-239.216822,-248.270205,281.304126,-18.461129,-37.340692,-20.743557
38692,0.104084,-0.026313,0.017306,-0.004257,0.0,-0.002128,0.073566,-0.0,-0.0,3.0,0.3261,0.341612,0.3261,0.309515,-240.695712,-249.594633,281.095364,-43.67665,5.573528,-21.305148
38712,0.102243,-0.02644,0.017655,-0.004257,-0.001064,-0.002128,0.072949,-0.0,-0.0,3.0,0.3261,0.342622,0.3261,0.308355,-241.707597,-250.905224,281.383195,-0.976889,49.666776,-21.039196
38732,0.100042,-0.026192,0.017859,-0.004257,-0.002128,-0.001064,0.072636,-0.0,-0.0,3.0,0.3261,0.342387,0.3261,0.308625,-240.614259,-252.855846,281.505164,57.927838,17.184382,-21.752855
38752,0.098202,-0.026311,0.018086,-0.005321,-0.002128,-0.001064,0.071963,-0.0,-0.0,3.0,0.3261,0.342169,0.3261,0.308876,-246.590889,-252.959686,289.755666,32.44876,-62.132278,-21.480743
38772,0.09637,-0.02631,0.018309,-0.005321,-0.002128,-0.001064,0.071701,-0.0,-0.0,3.0,0.3261,0.341907,0.3261,0.309177,-236.226786,-251.44585,279.256414,-61.195402,-59.351112,-21.788851
38792,0.09429,-0.026182,0.018521,-0.006385,-0.001064,-0.001064,0.071175,-0.0,-0.0,3.0,0.3261,0.34167,0.3261,0.309449,-240.137811,-250.165544,278.010539,-76.398381,53.47706,-22.775739
38812,0.091967,-0.025931,0.018725,-0.006385,0.0,-0.001064,0.070499,-0.0,-0.0,3.0,0.3261,0.340308,0.3261,0.310998,-242.24665,-252.987646,278.286621,50.707095,102.443861,-21.58777
38832,0.089642,-0.025801,0.018935,-0.005321,0.0,-0.001064,0.069942,-0.0,-0.0,3.0,0.3261,0.338904,0.3261,0.312575,-231.870667,-255.341556,272.57093,130.617092,-36.208844,-24.731686
38852,0.087437,-0.025798,0.019273,-0.004257,0.0,-0.002128,0.069652,-0.0,-0.0,3.0,0.3261,0.337507,0.3261,0.314124,-227.216762,-254.393743,271.126926,-27.499242,-164.62253,-20.741376
38872,0.08487,-0.025781,0.019364,-0.004257,-0.001064,-0.001064,0.069082,-0.0,-0.0,3.0,0.3261,0.338354,0.3261,0.313186,-237.83952,-254.426369,262.917402,-197.824461,-10.887649,-27.881116
38892,0.082426,-0.025893,0.019586,-0.004257,-0.001064,-0.001064,0.068513,-0.0,-0.0,3.0,0.3261,0.339107,0.3261,0.312348,-252.162583,-255.817938,255.314725,6.777466,252.399589,-19.980147
38912,0.079977,-0.025886,0.019922,-0.005321,-0.001064,-0.001064,0.067874,-0.0,-0.0,3.0,0.3261,0.338734,0.3261,0.312764,-238.965667,-257.053013,259.794479,309.363533,49.6671,-34.802368
38932,0.07753,-0.025873,0.020135,-0.00745,-0.001064,-0.001064,0.06734,-0.0,-0.0,3.0,0.3261,0.338272,0.3261,0.313278,-233.502457,-259.16184,259.318416,-63.720172,-455.081536,-15.440562
38952,0.074719,-0.025613,0.020335,-0.00745,-0.001064,-0.001064,0.06675,-0.0,-0.0,3.0,0.3261,0.336672,0.3261,0.315041,-448.145296,-258.56127,447.043004,-646.059723,128.593054,-65.131602
38972,0.071783,-0.025716,0.020548,-0.00745,-0.001064,-0.001064,0.066152,-0.0,-0.0,3.0,0.3261,0.336174,0.3261,0.315585,2528.356363,-259.351728,3346.009644,735.94407,1145.29293,-54.238
38992,0.068726,-0.025696,0.020754,-0.006385,0.0,-0.001064,0.06555,-0.0,-0.0,3.0,0.3261,0.334599,0.3261,0.31729,2448.617931,-86.889675,3447.16933,484890.7767,-478714.911068,-49020.408657
39012,0.065426,-0.02555,0.020954,-0.006385,0.0,-0.001064,0.065101,-0.0,-0.0,3.0,0.3261,0.334039,0.3261,0.31789,-4.395898427599709e+23,-5.881550359542723e+23,-3.821533409817536e+23,6.37638888507344e+48,-6.279336855522449e+48,-6.44750153545601e+47
39032,0.062251,-0.025528,0.021163,-0.006385,0.001064,-0.001064,0.064471,-0.0,-0.0,3.0,0.3261,0.332119,0.3261,0.319927,,,,,,
39052,0.059437,-0.025748,0.021257,-0.00745,0.0,-0.001064,0.063819,-0.0,-0.0,3.0,0.3261,0.33271,0.3261,0.319304,,,,,,
39072,0.056624,-0.025845,0.021346,-0.00745,-0.001064,-0.001064,0.063184,-0.0,-0.0,3.0,0.3261,0.333284,0.3261,0.318695,,,,,,
39092,0.053449,-0.02594,0.021435,-0.008514,-0.002128,0.0,0.062547,-0.0,-0.0,3.0,0.3261,0.332659,0.3261,0.319357,,,,,,
39112,0.050396,-0.025908,0.021396,-0.008514,-0.002128,0.0,0.062048,-0.0,-0.0,3.0,0.3261,0.33199,0.3261,0.320063,,,,,,
39132,0.047221,-0.025635,0.021471,-0.00745,-0.002128,0.0,0.061462,-0.0,-0.0,3.0,0.3261,0.331299,0.3261,0.320787,,,,,,
39152,0.044051,-0.025359,0.021429,-0.00745,0.0,-0.001064,0.060783,-0.0,-0.0,3.0,0.3261,0.329501,0.3261,0.322651,,,,,,
39172,0.040757,-0.025081,0.021382,-0.00745,0.001064,-0.001064,0.060125,-0.0,-0.0,3.0,0.3261,0.328883,0.3261,0.323285,,,,,,
39192,0.037831,-0.024928,0.021224,-0.00745,0.001064,-0.001064,0.059452,-0.0,-0.0,3.0,0.3261,0.328227,0.3261,0.323955,,,,,,
39212,0.034898,-0.025019,0.021189,-0.00745,0.0,0.0,0.058949,-0.0,-0.0,3.0,0.3261,0.327515,0.3261,0.324677,,,,,,
39232,0.031845,-0.025233,0.021157,-0.00745,-0.001064,0.0,0.058382,-0.0,-0.0,3.0,0.3261,0.327992,0.3261,0.324193,,,,,,
39252,0.028793,-0.025199,0.020995,-0.006385,-0.002128,0.0,0.057569,-0.0,-0.0,3.0,0.3261,0.326143,0.3261,0.326058,,,,,,
39272,0.025863,-0.025292,0.020962,-0.006385,-0.002128,0.0,0.056865,-0.0,-0.0,3.0,0.3261,0.325441,0.3261,0.326757,,,,,,
39292,0.023059,-0.02514,0.020805,-0.006385,-0.002128,0.0,0.056156,-0.0,-0.0,3.0,0.3261,0.324787,0.3261,0.327407,,,,,,
39312,0.020132,-0.024743,0.020762,-0.006385,-0.001064,0.0,0.056156,-0.0,-0.0,3.0,0.3261,0.325176,0.3261,0.327021,,,,,,
39332,0.017692,-0.024718,0.020611,-0.00745,0.0,-0.001064,0.055223,-0.0,-0.0,3.0,0.3261,0.325779,0.3261,0.326421,,,,,,
39352,0.015253,-0.024571,0.020581,-0.006385,0.001064,-0.001064,0.054152,-0.0,-0.0,3.0,0.3261,0.325212,0.3261,0.326985,,,,,,
39372,0.012691,-0.024545,0.020428,-0.006385,0.0,0.0,0.05378,-0.0,-0.0,3.0,0.3261,0.324523,0.3261,0.327667,,,,,,
39392,0.01025,-0.024521,0.020399,-0.005321,0.0,0.0,0.053054,-0.0,-0.0,3.0,0.3261,0.323939,0.3261,0.328242,,,,,,
39412,0.007931,-0.024619,0.02025,-0.004257,-0.001064,-0.001064,0.052324,-0.0,-0.0,3.0,0.3261,0.322108,0.3261,0.330027,,,,,,
39432,0.005733,-0.024719,0.020223,-0.003193,-0.001064,-0.001064,0.051774,-0.0,-0.0,3.0,0.3261,0.321489,0.3261,0.330625,,,,,,
39452,0.003412,-0.024818,0.020195,-0.004257,-0.002128,0.0,0.050685,-0.0,-0.0,3.0,0.3261,0.321025,0.3261,0.331071,,,,,,
39472,0.001461,-0.024798,0.020049,-0.005321,-0.002128,0.0,0.049933,-0.0,-0.0,3.0,0.3261,0.321748,0.3261,0.330375,,,,,,
39492,-0.00049,-0.024534,0.020025,-0.005321,-0.001064,0.0,0.049554,-0.0,-0.0,3.0,0.3261,0.322282,0.3261,0.329859,,,,,,
39512,-0.002199,-0.024395,0.020126,-0.005321,0.0,-0.001064,0.048796,-0.0,-0.0,3.0,0.3261,0.322929,0.3261,0.32923,,,,,,
39532,-0.004149,-0.024131,0.020103,-0.005321,0.001064,-0.001064,0.048304,-0.0,-0.0,3.0,0.3261,0.322354,0.3261,0.329789,,,,,,
39552,-0.005978,-0.023991,0.019959,-0.004257,0.001064,-0.001064,0.04708,-0.0,-0.0,3.0,0.3261,0.321953,0.3261,0.330177,,,,,,
39572,-0.007564,-0.023975,0.019939,-0.003193,0.001064,-0.001064,0.0463,-0.0,-0.0,3.0,0.3261,0.320248,0.3261,0.331813,,,,,,
39592,-0.009152,-0.024204,0.019797,-0.002128,0.0,-0.001064,0.045909,-0.0,-0.0,3.0,0.3261,0.319718,0.3261,0.332317,,,,,,
39612,-0.010498,-0.024556,0.019778,-0.002128,-0.001064,0.0,0.04512,-0.0,-0.0,3.0,0.3261,0.319372,0.3261,0.332645,,,,,,
39632,-0.011598,-0.02479,0.019641,-0.002128,-0.002128,0.0,0.044576,-0.0,-0.0,3.0,0.3261,0.318931,0.3261,0.333061,,,,,,
39652,-0.012576,-0.024902,0.019628,-0.003193,-0.003193,0.001064,0.043444,-0.0,-0.0,3.0,0.3261,0.319863,0.3261,0.332179,,,,,,
39672,-0.013671,-0.02477,0.019493,-0.004257,-0.002128,0.001064,0.04262,-0.0,-0.0,3.0,0.3261,0.320714,0.3261,0.331368,,,,,,
39692,-0.014888,-0.024392,0.01948,-0.003193,-0.001064,0.0,0.041822,-0.0,-0.0,3.0,0.3261,0.320337,0.3261,0.331729,,,,,,
39712,-0.015985,-0.024137,0.019468,-0.003193,0.001064,-0.001064,0.041418,-0.0,-0.0,3.0,0.3261,0.319918,0.3261,0.332128,,,,,,
39732,-0.017201,-0.024004,0.01921,-0.003193,0.002128,-0.001064,0.040858,-0.0,-0.0,3.0,0.3261,0.318273,0.3261,0.33368,,,,,,
39752,-0.017931,-0.023876,0.019079,-0.002128,0.001064,-0.001064,0.039675,-0.0,-0.0,3.0,0.3261,0.318132,0.3261,0.333813,,,,,,
39772,-0.018664,-0.024237,0.018823,-0.002128,0.001064,0.0,0.038837,-0.0,-0.0,3.0,0.3261,0.319046,0.3261,0.332953,,,,,,
39792,-0.01915,-0.024357,0.018571,-0.002128,-0.001064,0.0,0.038006,-0.0,-0.0,3.0,0.3261,0.318819,0.3261,0.333167,,,,,,
39812,-0.019639,-0.024598,0.018441,-0.002128,-0.002128,0.001064,0.037593,-0.0,-0.0,3.0,0.3261,0.319716,0.3261,0.332319,,,,,,
39832,-0.020005,-0.024718,0.018313,-0.001064,-0.003193,0.001064,0.037013,-0.0,-0.0,3.0,0.3261,0.319489,0.3261,0.332535,,,,,,
39852,-0.020368,-0.024593,0.018187,0.0,-0.002128,0.0,0.035839,-0.0,-0.0,3.0,0.3261,0.319381,0.3261,0.332636,,,,,,
39872,-0.020486,-0.024473,0.017943,0.0,-0.002128,0.0,0.034988,-0.0,-0.0,3.0,0.3261,0.319257,0.3261,0.332753,,,,,,
39892,-0.020605,-0.024229,0.017822,0.0,-0.001064,0.0,0.034138,-0.0,-0.0,3.0,0.3261,0.319228,0.3261,0.332782,,,,,,
39912,-0.020601,-0.024109,0.017579,0.0,0.0,0.0,0.033102,-0.0,-0.0,3.0,0.3261,0.319248,0.3261,0.332762,,,,,,
39932,-0.020355,-0.024113,0.01746,0.0,0.001064,0.0,0.032439,-0.0,-0.0,3.0,0.3261,0.319241,0.3261,0.332769,,,,,,
39952,-0.020356,-0.024235,0.017459,0.0,0.001064,0.0,0.031922,-0.0,-0.0,3.0,0.3261,0.31911,0.3261,0.332892,,,,,,
39972,-0.020233,-0.024237,0.017338,-0.001064,0.0,0.0,0.031055,-0.0,-0.0,3.0,0.3261,0.320295,0.3261,0.331768,,,,,,
39992,-0.020232,-0.02436,0.017215,-0.002128,0.0,-0.001064,0.030187,-0.0,-0.0,3.0,0.3261,0.32023,0.3261,0.331831,,,,,,
40012,-0.020476,-0.024358,0.017212,-0.002128,-0.001064,-0.001064,0.029094,-0.0,-0.0,3.0,0.3261,0.320194,0.3261,0.331865,,,,,,
40032,-0.020598,-0.02448,0.017087,-0.001064,-0.001064,-0.001064,0.029094,-0.0,-0.0,3.0,0.3261,0.319949,0.3261,0.332098,,,,,,
40052,-0.020352,-0.024484,0.016968,-0.001064,-0.001064,0.0,0.027466,-0.0,-0.0,3.0,0.3261,0.320051,0.3261,0.332001,,,,,,
40072,-0.020231,-0.024607,0.016968,0.0,-0.001064,0.0,0.026597,-0.0,-0.0,3.0,0.3261,0.320062,0.3261,0.33199,,,,,,
40092,-0.020356,-0.024727,0.017087,0.0,-0.001064,0.0,0.026154,-0.0,-0.0,3.0,0.3261,0.319971,0.3261,0.332077,,,,,,
40112,-0.020111,-0.024607,0.017092,0.0,-0.001064,0.0,0.025063,-0.0,-0.0,3.0,0.3261,0.318879,0.3261,0.333111,,,,,,
40132,-0.01999,-0.024607,0.017215,0.001064,-0.001064,0.0,0.024227,-0.0,-0.0,3.0,0.3261,0.318865,0.3261,0.333123,,,,,,
40152,-0.020113,-0.024482,0.017337,0.001064,-0.001064,-0.001064,0.023284,-0.0,-0.0,3.0,0.3261,0.318883,0.3261,0.333107,,,,,,
40172,-0.020235,-0.024358,0.017459,0.0,-0.001064,-0.001064,0.022394,-0.0,-0.0,3.0,0.3261,0.31769,0.3261,0.334226,,,,,,
40192,-0.020481,-0.024354,0.017578,-0.001064,-0.001064,-0.001064,0.021505,-0.0,-0.0,3.0,0.3261,0.318935,0.3261,0.333058,,,,,,
40212,-0.02036,-0.024354,0.017701,-0.001064,0.0,-0.001064,0.02089,-0.0,-0.0,3.0,0.3261,0.320079,0.3261,0.331974,,,,,,
40232,-0.02012,-0.024476,0.017947,-0.002128,0.0,-0.001064,0.02008,-0.0,-0.0,3.0,0.3261,0.321268,0.3261,0.330837,,,,,,
40252,-0.020122,-0.024475,0.01807,-0.002128,0.0,-0.001064,0.019163,-0.0,-0.0,3.0,0.3261,0.321297,0.3261,0.330809,,,,,,
40272,-0.020125,-0.024472,0.018314,-0.001064,0.0,-0.001064,0.018262,-0.0,-0.0,3.0,0.3261,0.321297,0.3261,0.330809,,,,,,
40292,-0.020005,-0.024471,0.018559,0.0,0.0,-0.001064,0.017364,-0.0,-0.0,3.0,0.3261,0.320141,0.3261,0.331915,,,,,,
40312,-0.020129,-0.024469,0.01868,0.001064,-0.001064,-0.002128,0.0167,-0.0,-0.0,3.0,0.3261,0.318896,0.3261,0.333095,,,,,,
40332,-0.020251,-0.024344,0.018802,0.001064,-0.002128,-0.001064,0.015868,-0.0,-0.0,3.0,0.3261,0.31772,0.3261,0.334198,,,,,,
40352,-0.020131,-0.024344,0.018925,0.0,-0.002128,0.0,0.014955,-0.0,-0.0,3.0,0.3261,0.317832,0.3261,0.334093,,,,,,
40372,-0.020136,-0.024586,0.019167,0.0,-0.002128,0.0,0.014052,-0.0,-0.0,3.0,0.3261,0.319087,0.3261,0.332914,,,,,,
40392,-0.020015,-0.024586,0.019291,-0.001064,-0.001064,0.0,0.013137,-0.0,-0.0,3.0,0.3261,0.320403,0.3261,0.331665,,,,,,
40412,-0.019895,-0.024462,0.019538,-0.001064,0.0,-0.001064,0.012524,-0.0,-0.0,3.0,0.3261,0.321581,0.3261,0.330536,,,,,,
40432,-0.019775,-0.024462,0.019661,-0.001064,0.001064,-0.001064,0.011237,-0.0,-0.0,3.0,0.3261,0.321741,0.3261,0.330381,,,,,,
40452,-0.019898,-0.02446,0.019782,-0.001064,0.002128,-0.002128,0.010757,-0.0,-0.0,3.0,0.3261,0.320489,0.3261,0.331583,,,,,,
40472,-0.019776,-0.024461,0.019783,0.0,0.001064,-0.002128,0.009838,-0.0,-0.0,3.0,0.3261,0.319434,0.3261,0.332587,,,,,,
40492,-0.019776,-0.024584,0.01966,0.0,0.0,-0.001064,0.008928,-0.0,-0.0,3.0,0.3261,0.319516,0.3261,0.332509,,,,,,
40512,-0.019532,-0.024587,0.019663,0.0,-0.002128,0.0,0.007764,-0.0,-0.0,3.0,0.3261,0.319696,0.3261,0.332339,,,,,,
40532,-0.019533,-0.024709,0.019662,-0.001064,-0.003193,0.0,0.007001,-0.0,-0.0,3.0,0.3261,0.320974,0.3261,0.331119,,,,,,
40552,-0.019656,-0.02483,0.019659,-0.001064,-0.003193,0.0,0.006053,-0.0,-0.0,3.0,0.3261,0.321049,0.3261,0.331047,,,,,,
40572,-0.019533,-0.024709,0.019662,0.0,-0.002128,0.0,0.005595,-0.0,-0.0,3.0,0.3261,0.319786,0.3261,0.332253,,,,,,
40592,-0.019654,-0.024586,0.019661,0.0,-0.001064,0.0,0.004678,-0.0,-0.0,3.0,0.3261,0.319831,0.3261,0.33221,,,,,,
40612,-0.019899,-0.024582,0.01978,0.0,0.0,0.0,0.00422,-0.0,-0.0,3.0,0.3261,0.319825,0.3261,0.332216,,,,,,
40632,-0.020019,-0.02446,0.019658,0.0,0.001064,-0.001064,0.002636,-0.0,-0.0,3.0,0.3261,0.320193,0.3261,0.331866,,,,,,
40652,-0.019897,-0.024461,0.01966,0.0,0.001064,-0.001064,0.0017,-0.0,-0.0,3.0,0.3261,0.320347,0.3261,0.331719,,,,,,
40672,-0.019653,-0.024464,0.019663,-0.001064,0.0,-0.001064,0.001227,-0.0,-0.0,3.0,0.3261,0.321578,0.3261,0.330539,,,,,,
40692,-0.019409,-0.024466,0.019666,-0.001064,-0.001064,-0.001064,0.000313,-0.0,-0.0,3.0,0.3261,0.321733,0.3261,0.33039,,,,,,
40712,-0.019529,-0.024466,0.019542,-0.002128,-0.001064,-0.001064,-0.000288,-0.0,-0.0,3.0,0.3261,0.321755,0.3261,0.330368,,,,,,
40732,-0.019528,-0.024467,0.01942,-0.001064,-0.001064,0.0,-0.001187,-0.0,-0.0,3.0,0.3261,0.321854,0.3261,0.330273,,,,,,
40752,-0.01965,-0.024466,0.019419,-0.001064,-0.001064,0.0,-0.002486,-0.0,-0.0,3.0,0.3261,0.322027,0.3261,0.330106,,,,,,
40772,-0.019771,-0.024588,0.019294,0.0,-0.001064,0.0,-0.003519,-0.0,-0.0,3.0,0.3261,0.322169,0.3261,0.329969,,,,,,
40792,-0.019773,-0.02471,0.019293,0.0,-0.001064,0.0,-0.004434,-0.0,-0.0,3.0,0.3261,0.321131,0.3261,0.330969,,,,,,
40812,-0.019894,-0.024832,0.019168,0.0,-0.001064,0.0,-0.004895,-0.0,-0.0,3.0,0.3261,0.3212,0.3261,0.330902,,,,,,
40832,-0.019771,-0.024835,0.019047,0.0,-0.001064,0.0,-0.005385,-0.0,-0.0,3.0,0.3261,0.321279,0.3261,0.330826,,,,,,
40852,-0.01977,-0.024713,0.019048,0.0,0.0,0.0,-0.006671,-0.0,-0.0,3.0,0.3261,0.321499,0.3261,0.330615,,,,,,
40872,-0.019768,-0.02459,0.01905,0.0,0.0,-0.001064,-0.0076,-0.0,-0.0,3.0,0.3261,0.321697,0.3261,0.330424,,,,,,
40892,-0.019888,-0.024468,0.018927,0.0,0.0,-0.001064,-0.008513,-0.0,-0.0,3.0,0.3261,0.321835,0.3261,0.330291,,,,,,
40912,-0.019884,-0.024349,0.018684,-0.001064,0.0,-0.001064,-0.00897,-0.0,-0.0,3.0,0.3261,0.321923,0.3261,0.330206,,,,,,
40932,-0.019885,-0.024594,0.01856,-0.001064,0.0,0.0,-0.010489,-0.0,-0.0,3.0,0.3261,0.323426,0.3261,0.328745,,,,,,
40952,-0.019641,-0.024842,0.018438,-0.001064,-0.001064,0.0,-0.010968,-0.0,-0.0,3.0,0.3261,0.324671,0.3261,0.327521,,,,,,
40972,-0.019641,-0.024842,0.018438,-0.001064,-0.001064,0.0,-0.011905,-0.0,-0.0,3.0,0.3261,0.324859,0.3261,0.327335,,,,,,
40992,-0.019761,-0.02472,0.018316,-0.001064,-0.001064,0.0,-0.012808,-0.0,-0.0,3.0,0.3261,0.323841,0.3261,0.328339,,,,,,
41012,-0.019758,-0.024599,0.018195,0.0,-0.001064,0.0,-0.013894,-0.0,-0.0,3.0,0.3261,0.322869,0.3261,0.329289,,,,,,
41032,-0.019877,-0.024477,0.018073,0.001064,-0.001064,0.0,-0.014702,-0.0,-0.0,3.0,0.3261,0.322981,0.3261,0.329179,,,,,,
41052,-0.019997,-0.024355,0.01795,0.001064,-0.001064,0.0,-0.015611,-0.0,-0.0,3.0,0.3261,0.322,0.3261,0.330131,,,,,,
41072,-0.020238,-0.024232,0.017826,0.0,-0.001064,0.0,-0.016516,-0.0,-0.0,3.0,0.3261,0.322234,0.3261,0.329905,,,,,,
41092,-0.019751,-0.024482,0.017708,-0.002128,0.0,0.0,-0.016966,-0.0,-0.0,3.0,0.3261,0.323567,0.3261,0.328607,,,,,,
41112,-0.019995,-0.024603,0.017582,-0.002128,0.0,0.0,-0.018057,-0.0,-0.0,3.0,0.3261,0.324993,0.3261,0.327203,,,,,,
41132,-0.019872,-0.024727,0.01746,-0.002128,0.0,0.0,-0.018842,-0.0,-0.0,3.0,0.3261,0.326341,0.3261,0.325859,,,,,,
41152,-0.019868,-0.024608,0.017217,-0.002128,-0.001064,0.0,-0.019789,-0.0,-0.0,3.0,0.3261,0.326537,0.3261,0.325663,,,,,,
41172,-0.019988,-0.024731,0.01697,-0.001064,-0.001064,0.0,-0.020681,-0.0,-0.0,3.0,0.3261,0.32556,0.3261,0.326639,,,,,,
41192,-0.020105,-0.024488,0.016727,0.0,0.0,0.0,-0.02157,-0.0,-0.0,3.0,0.3261,0.324555,0.3261,0.327636,,,,,,
41212,-0.020224,-0.02449,0.016481,0.001064,-0.001064,0.0,-0.022215,-0.0,-0.0,3.0,0.3261,0.323548,0.3261,0.328626,,,,,,
41232,-0.020219,-0.024372,0.016116,0.001064,-0.001064,0.0,-0.022986,-0.0,-0.0,3.0,0.3261,0.32372,0.3261,0.328458,,,,,,
41252,-0.020339,-0.024495,0.015869,0.0,-0.001064,0.001064,-0.023935,-0.0,-0.0,3.0,0.3261,0.323997,0.3261,0.328185,,,,,,
41272,-0.020339,-0.02474,0.015745,-0.001064,0.0,0.0,-0.024812,-0.0,-0.0,3.0,0.3261,0.32543,0.3261,0.326769,,,,,,
41292,-0.020337,-0.024865,0.015499,-0.002128,0.0,0.0,-0.025689,-0.0,-0.0,3.0,0.3261,0.32683,0.3261,0.325369,,,,,,
41312,-0.020334,-0.024867,0.015255,-0.002128,0.0,0.0,-0.026181,-0.0,-0.0,3.0,0.3261,0.326917,0.3261,0.325281,,,,,,
41332,-0.020451,-0.024748,0.014888,-0.001064,0.0,0.0,-0.027387,-0.0,-0.0,3.0,0.3261,0.32718,0.3261,0.325016,,,,,,
41352,-0.020814,-0.024748,0.01464,-0.001064,0.0,0.0,-0.028267,-0.0,-0.0,3.0,0.3261,0.326237,0.3261,0.325964,,,,,,
41372,-0.020931,-0.024629,0.014273,0.0,-0.001064,0.0,-0.029142,-0.0,-0.0,3.0,0.3261,0.326458,0.3261,0.325742,,,,,,
41392,-0.021049,-0.024508,0.014029,0.0,-0.001064,0.0,-0.029573,-0.0,-0.0,3.0,0.3261,0.325381,0.3261,0.326818,,,,,,
41412,-0.021169,-0.024387,0.013906,0.0,-0.002128,0.0,-0.03017,-0.0,-0.0,3.0,0.3261,0.326702,0.3261,0.325497,,,,,,
41432,-0.02141,-0.024388,0.013659,-0.001064,-0.001064,0.0,-0.031388,-0.0,-0.0,3.0,0.3261,0.327013,0.3261,0.325184,,,,,,
41452,-0.02153,-0.024388,0.013535,-0.001064,0.0,0.0,-0.032313,-0.0,-0.0,3.0,0.3261,0.327256,0.3261,0.324938,,,,,,
41472,-0.021771,-0.024267,0.013289,-0.001064,0.0,0.0,-0.033164,-0.0,-0.0,3.0,0.3261,0.327428,0.3261,0.324765,,,,,,
41492,-0.021892,-0.024389,0.013164,-0.001064,0.0,0.0,-0.033588,-0.0,-0.0,3.0,0.3261,0.327527,0.3261,0.324665,,,,,,
41512,-0.022377,-0.024389,0.012914,-0.001064,0.0,0.0,-0.034756,-0.0,-0.0,3.0,0.3261,0.327807,0.3261,0.324381,,,,,,
41532,-0.0225,-0.024633,0.012788,-0.001064,0.0,0.0,-0.035227,-0.0,-0.0,3.0,0.3261,0.327951,0.3261,0.324235,,,,,,
41552,-0.022985,-0.024633,0.012537,-0.001064,-0.001064,0.0,-0.036075,-0.0,-0.0,3.0,0.3261,0.326944,0.3261,0.325254,,,,,,
41572,-0.023227,-0.024633,0.012412,-0.001064,-0.001064,0.0,-0.036907,-0.0,-0.0,3.0,0.3261,0.327122,0.3261,0.325074,,,,,,
41592,-0.023469,-0.024511,0.012289,-0.001064,-0.002128,0.0,-0.03732,-0.0,-0.0,3.0,0.3261,0.328356,0.3261,0.323824,,,,,,
41612,-0.02408,-0.024507,0.012281,-0.001064,-0.001064,-0.001064,-0.038207,-0.0,-0.0,3.0,0.3261,0.327365,0.3261,0.324829,,,,,,
41632,-0.024565,-0.024383,0.012154,-0.002128,0.0,-0.001064,-0.039209,-0.0,-0.0,3.0,0.3261,0.327559,0.3261,0.324633,,,,,,
41652,-0.02505,-0.024261,0.011905,-0.002128,0.0,-0.001064,-0.040046,-0.0,-0.0,3.0,0.3261,0.327744,0.3261,0.324445,,,,,,
41672,-0.025782,-0.02438,0.011772,-0.002128,0.0,0.0,-0.040859,-0.0,-0.0,3.0,0.3261,0.327837,0.3261,0.324351,,,,,,
41692,-0.026268,-0.024378,0.011644,-0.002128,0.0,0.0,-0.041845,-0.0,-0.0,3.0,0.3261,0.329154,0.3261,0.323007,,,,,,
41712,-0.027247,-0.024495,0.011632,-0.003193,-0.001064,0.0,-0.042534,-0.0,-0.0,3.0,0.3261,0.328009,0.3261,0.324176,,,,,,
41732,-0.028343,-0.024368,0.011498,-0.002128,-0.001064,0.0,-0.043404,-0.0,-0.0,3.0,0.3261,0.326902,0.3261,0.325296,,,,,,
41752,-0.029076,-0.02424,0.011613,-0.003193,-0.001064,-0.001064,-0.043806,-0.0,-0.0,3.0,0.3261,0.325617,0.3261,0.326583,,,,,,
41772,-0.030661,-0.024109,0.011473,-0.002128,-0.001064,-0.001064,-0.044597,-0.0,-0.0,3.0,0.3261,0.325586,0.3261,0.326613,,,,,,
41792,-0.032245,-0.023979,0.011333,-0.003193,-0.001064,-0.001064,-0.045539,-0.0,-0.0,3.0,0.3261,0.32556,0.3261,0.326639,,,,,,
41812,-0.032976,-0.023977,0.011201,-0.005321,0.0,0.0,-0.046295,-0.0,-0.0,3.0,0.3261,0.325485,0.3261,0.326714,,,,,,
41832,-0.035294,-0.024087,0.011048,-0.005321,-0.001064,0.0,-0.047107,-0.0,-0.0,3.0,0.3261,0.326497,0.3261,0.325703,,,,,,
41852,-0.037004,-0.023956,0.011031,-0.005321,-0.001064,0.0,-0.047883,-0.0,-0.0,3.0,0.3261,0.326213,0.3261,0.325987,,,,,,
41872,-0.039323,-0.024188,0.010875,-0.006385,-0.001064,0.0,-0.048267,-0.0,-0.0,3.0,0.3261,0.32469,0.3261,0.327502,,,,,,
41892,-0.041887,-0.023929,0.01085,-0.005321,-0.001064,0.0,-0.04913,-0.0,-0.0,3.0,0.3261,0.323149,0.3261,0.329016,,,,,,
41912,-0.044328,-0.023914,0.010819,-0.005321,-0.001064,0.0,-0.04979,-0.0,-0.0,3.0,0.3261,0.320319,0.3261,0.331745,,,,,,
41932,-0.046522,-0.023781,0.010672,-0.006385,-0.001064,-0.001064,-0.050572,-0.0,-0.0,3.0,0.3261,0.31988,0.3261,0.332164,,,,,,
41952,-0.050062,-0.023395,0.010639,-0.006385,-0.001064,-0.001064,-0.051319,-0.0,-0.0,3.0,0.3261,0.31822,0.3261,0.33373,,,,,,
41972,-0.052994,-0.023378,0.010605,-0.00745,-0.001064,-0.001064,-0.052059,-0.0,-0.0,3.0,0.3261,0.318947,0.3261,0.333047,,,,,,
41992,-0.055922,-0.023238,0.010572,-0.009578,-0.001064,-0.001064,-0.052566,-0.0,-0.0,3.0,0.3261,0.319511,0.3261,0.332514,,,,,,
42012,-0.058366,-0.023224,0.010543,-0.008514,0.0,-0.001064,-0.053244,-0.0,-0.0,3.0,0.3261,0.318846,0.3261,0.333142,,,,,,
42032,-0.062762,-0.023319,0.010487,-0.009578,0.0,-0.001064,-0.054,-0.0,-0.0,3.0,0.3261,0.318064,0.3261,0.333876,,,,,,
42052,-0.066426,-0.023175,0.010447,-0.008514,0.0,-0.001064,-0.054721,-0.0,-0.0,3.0,0.3261,0.316015,0.3261,0.335779,,,,,,
42072,-0.070213,-0.023148,0.010523,-0.00745,0.0,-0.001064,-0.055434,-0.0,-0.0,3.0,0.3261,0.313931,0.3261,0.337682,,,,,,
42092,-0.073024,-0.023375,0.010481,-0.00745,-0.002128,0.0,-0.055856,-0.0,-0.0,3.0,0.3261,0.311861,0.3261,0.339541,,,,,,
42112,-0.076688,-0.023231,0.010441,-0.008514,-0.002128,0.0,-0.056804,-0.0,-0.0,3.0,0.3261,0.309799,0.3261,0.341363,,,,,,
42132,-0.080352,-0.022959,0.010529,-0.009578,-0.002128,0.0,-0.057516,-0.0,-0.0,3.0,0.3261,0.310211,0.3261,0.341002,,,,,,
42152,-0.083893,-0.022566,0.010623,-0.009578,-0.001064,-0.001064,-0.058209,-0.0,-0.0,3.0,0.3261,0.310633,0.3261,0.34063,,,,,,
42172,-0.087557,-0.022171,0.010717,-0.008514,0.001064,-0.001064,-0.058551,-0.0,-0.0,3.0,0.3261,0.310916,0.3261,0.34038,,,,,,
42192,-0.091226,-0.021899,0.010809,-0.008514,0.001064,-0.002128,-0.059027,-0.0,-0.0,3.0,0.3261,0.309941,0.3261,0.341239,,,,,,
