time_ms,roll,pitch,yaw,reference_roll,reference_pitch,reference_yaw,reference_throttle,throttle_1,throttle_2,throttle_3,throttle_4,roll_predicted,pitch_predicted,yaw_predicted,roll_rate_predicted,pitch_rate_predicted,yaw_rate_predicted,value1,value2,value3,value4,value5,value6
376500,0.01051,-0.018132,0.012306,0.0,-0.0,-0.0,3.0,0.3261,0.329933,0.3261,0.322205,,,,,,,0.009289,-0.018014,0.020298,-0.023864,-0.000129,-4.6e-05
376520,0.010632,-0.018133,0.012307,0.0,-0.0,-0.0,3.0,0.3261,0.32596,0.3261,0.326241,,,,,,,0.009046,-0.018016,0.020297,0.048828,-0.000129,-4.5e-05
376540,0.010632,-0.018133,0.012307,0.0,-0.0,-0.0,3.0,0.3261,0.323549,0.3261,0.328625,,,,,,,0.008925,-0.018019,0.020296,0.072892,-0.000129,-4.5e-05
376560,0.010265,-0.018009,0.012425,0.0,-0.0,-0.0,3.0,0.3261,0.32007,0.3261,0.331983,,,,,,,0.008805,-0.018021,0.020295,0.023845,-0.000116,-3.3e-05
376580,0.010145,-0.017885,0.012302,0.0,-0.0,-0.0,3.0,0.3261,0.320347,0.3261,0.331719,,,,,,,0.008805,-0.018024,0.020294,-9.8e-05,-0.000103,-4.6e-05
376600,0.010145,-0.017885,0.012302,0.0,-0.0,-0.0,3.0,0.3261,0.320666,0.3261,0.331414,,,,,,,0.008927,-0.018026,0.020294,-0.024514,-0.000103,-4.6e-05
376620,0.010388,-0.018009,0.012304,0.0,-0.0,-0.0,3.0,0.3261,0.322566,0.3261,0.329583,,,,,,,0.009047,-0.018028,0.020293,0.00017,-0.000115,-4.5e-05
376640,0.01051,-0.017888,0.012427,0.0,-0.0,-0.0,3.0,0.3261,0.326935,0.3261,0.325263,,,,,,,0.009413,-0.01803,0.020292,-0.048477,-0.000103,-3.3e-05
376660,0.010753,-0.018134,0.01243,0.0,-0.0,-0.0,3.0,0.3261,0.328774,0.3261,0.323396,,,,,,,0.009533,-0.018033,0.020291,-0.024113,-0.000127,-3.3e-05
376680,0.010876,-0.01789,0.01243,0.0,-0.0,-0.0,3.0,0.3261,0.329684,0.3261,0.322462,,,,,,,0.009655,-0.018035,0.020291,-0.023862,-0.000103,-3.2e-05
376700,0.010998,-0.018013,0.012432,0.0,-0.0,-0.0,3.0,0.3261,0.32498,0.3261,0.327216,,,,,,,0.009412,-0.018037,0.02029,0.048727,-0.000115,-3.2e-05
376720,0.011121,-0.017892,0.012432,0.0,-0.0,-0.0,3.0,0.3261,0.325555,0.3261,0.326644,,,,,,,0.009537,-0.018039,0.020289,0.04836,-0.000103,-3.2e-05
376740,0.011,-0.017891,0.012309,0.0,-0.0,-0.0,3.0,0.3261,0.323597,0.3261,0.328577,,,,,,,0.009537,-0.018041,0.020288,0.024314,-0.000102,-4.4e-05
376760,0.011001,-0.01789,0.012187,0.0,-0.0,-0.0,3.0,0.3261,0.325245,0.3261,0.326952,,,,,,,0.009659,-0.018043,0.020287,0.000102,-0.000102,-5.6e-05
376780,0.010879,-0.017889,0.012186,0.0,-0.0,-0.0,3.0,0.3261,0.323597,0.3261,0.328578,,,,,,,0.009659,-0.018045,0.020286,-0.024094,-0.000102,-5.6e-05
376800,0.011,-0.018012,0.012188,0.0,-0.0,-0.0,3.0,0.3261,0.324342,0.3261,0.327845,,,,,,,0.009659,-0.018048,0.020285,1e-06,-0.000114,-5.6e-05
376820,0.011001,-0.01789,0.012187,0.0,-0.0,-0.0,3.0,0.3261,0.322232,0.3261,0.329907,,,,,,,0.009662,-0.018049,0.020284,-0.000351,-0.000101,-5.6e-05
376840,0.011,-0.017891,0.012309,0.0,-0.0,-0.0,3.0,0.3261,0.324598,0.3261,0.327593,,,,,,,0.009782,-0.018052,0.020283,-0.024633,-0.000101,-4.4e-05
376860,0.010879,-0.017646,0.012307,0.0,-0.0,-0.0,3.0,0.3261,0.327418,0.3261,0.324776,,,,,,,0.009904,-0.018053,0.020282,-0.072907,-7.6e-05,-4.4e-05
376880,0.011001,-0.017646,0.012308,0.0,-0.0,-0.0,3.0,0.3261,0.328629,0.3261,0.323545,,,,,,,0.009903,-0.018055,0.020281,-0.048344,-7.6e-05,-4.4e-05
376900,0.011247,-0.017525,0.012187,0.0,-0.0,-0.0,3.0,0.3261,0.326672,0.3261,0.325527,,,,,,,0.009782,-0.018057,0.02028,0.024778,-6.4e-05,-5.6e-05
376920,0.011367,-0.017649,0.012311,0.0,-0.0,-0.0,3.0,0.3261,0.324936,0.3261,0.327259,,,,,,,0.00966,-0.018058,0.020279,0.072941,-7.6e-05,-4.3e-05
376940,0.011244,-0.01777,0.012311,0.0,-0.0,-0.0,3.0,0.3261,0.325773,0.3261,0.326427,,,,,,,0.009782,-0.018059,0.020278,0.024263,-8.8e-05,-4.3e-05
376960,0.011123,-0.017647,0.012309,0.0,-0.0,-0.0,3.0,0.3261,0.324839,0.3261,0.327354,,,,,,,0.009781,-0.018061,0.020278,0.000317,-7.6e-05,-4.3e-05
376980,0.011244,-0.017649,0.012432,0.0,-0.0,-0.0,3.0,0.3261,0.322196,0.3261,0.329942,,,,,,,0.009783,-0.018062,0.020277,0.02391,-7.6e-05,-3.1e-05
377000,0.011245,-0.017527,0.012431,0.0,-0.0,-0.0,3.0,0.3261,0.320851,0.3261,0.331237,,,,,,,0.009784,-0.018064,0.020276,0.024013,-6.3e-05,-3.1e-05
377020,0.011246,-0.017404,0.012431,0.0,-0.0,-0.0,3.0,0.3261,0.322803,0.3261,0.329353,,,,,,,0.010028,-0.018065,0.020275,-0.024617,-5.1e-05,-3.1e-05
377040,0.011246,-0.017404,0.012431,0.0,-0.0,-0.0,3.0,0.3261,0.327349,0.3261,0.324845,,,,,,,0.01027,-0.018067,0.020275,-0.072637,-5.1e-05,-3.1e-05
377060,0.011611,-0.017529,0.012434,0.0,-0.0,-0.0,3.0,0.3261,0.333076,0.3261,0.318916,,,,,,,0.010634,-0.018068,0.020274,-0.072489,-6.3e-05,-3e-05
377080,0.011976,-0.017775,0.012439,0.0,-0.0,-0.0,3.0,0.3261,0.331713,0.3261,0.320353,,,,,,,0.010634,-0.018069,0.020274,0.0003,-8.8e-05,-3e-05
377100,0.012219,-0.017899,0.012442,0.0,-0.0,-0.0,3.0,0.3261,0.328649,0.3261,0.323524,,,,,,,0.010512,-0.018071,0.020273,0.072988,-0.0001,-3e-05
377120,0.012342,-0.017777,0.012442,0.0,-0.0,-0.0,3.0,0.3261,0.32687,0.3261,0.325328,,,,,,,0.010635,-0.018073,0.020273,0.073042,-8.8e-05,-2.9e-05
377140,0.012097,-0.017777,0.012562,0.0,-0.0,-0.0,3.0,0.3261,0.321772,0.3261,0.330352,,,,,,,0.010513,-0.018074,0.020272,0.048374,-8.7e-05,-1.7e-05
377160,0.012098,-0.017654,0.012561,0.0,-0.0,-0.0,3.0,0.3261,0.323752,0.3261,0.328426,,,,,,,0.010758,-0.018076,0.020272,-0.000253,-7.5e-05,-1.7e-05
377180,0.01222,-0.017655,0.012563,0.0,-0.0,-0.0,3.0,0.3261,0.322992,0.3261,0.329169,,,,,,,0.01088,-0.018078,0.020271,-0.0002,-7.5e-05,-1.7e-05
377200,0.012465,-0.017413,0.012563,0.0,-0.0,-0.0,3.0,0.3261,0.326073,0.3261,0.326127,,,,,,,0.011247,-0.018079,0.020271,-0.024361,-5.1e-05,-1.7e-05
377220,0.012952,-0.01766,0.012569,0.0,-0.0,-0.0,3.0,0.3261,0.332022,0.3261,0.320029,,,,,,,0.011733,-0.01808,0.020271,-0.024215,-7.5e-05,-1.7e-05
377240,0.013441,-0.017541,0.012572,0.0,-0.0,-0.0,3.0,0.3261,0.335918,0.3261,0.315864,,,,,,,0.01222,-0.018082,0.02027,-0.023759,-6.3e-05,-1.6e-05
377260,0.013927,-0.017667,0.012699,0.0,-0.0,-0.0,3.0,0.3261,0.332609,0.3261,0.31941,,,,,,,0.012341,-0.018083,0.02027,0.048927,-7.6e-05,-3e-06
377280,0.014416,-0.017547,0.012703,0.0,-0.0,-0.0,3.0,0.3261,0.331001,0.3261,0.321098,,,,,,,0.012586,-0.018084,0.02027,0.097453,-6.4e-05,-3e-06
377300,0.014416,-0.01767,0.012704,0.0,-0.0,-0.0,3.0,0.3261,0.326599,0.3261,0.3256,,,,,,,0.012832,-0.018085,0.02027,0.048471,-7.6e-05,-3e-06
377320,0.014783,-0.01755,0.012706,0.0,-0.0,-0.0,3.0,0.3261,0.326575,0.3261,0.325625,,,,,,,0.013199,-0.018087,0.02027,0.048371,-6.4e-05,-3e-06
377340,0.014905,-0.017428,0.012706,0.0,-0.0,-0.0,3.0,0.3261,0.325704,0.3261,0.326496,,,,,,,0.013566,-0.018088,0.02027,-0.0002,-5.1e-05,-3e-06
377360,0.015273,-0.01743,0.012587,0.0,-0.0,-0.0,3.0,0.3261,0.329747,0.3261,0.322397,,,,,,,0.014054,-0.018089,0.02027,-0.02426,-5.1e-05,-1.5e-05
377380,0.015517,-0.017431,0.012589,0.0,-0.0,-0.0,3.0,0.3261,0.331809,0.3261,0.320252,,,,,,,0.014419,-0.018091,0.020269,-0.048472,-5.1e-05,-1.4e-05
377400,0.01576,-0.017555,0.012592,0.0,-0.0,-0.0,3.0,0.3261,0.333229,0.3261,0.318753,,,,,,,0.014539,-0.018092,0.020269,-0.023805,-6.4e-05,-1.4e-05
377420,0.015761,-0.017554,0.01247,0.0,-0.0,-0.0,3.0,0.3261,0.331704,0.3261,0.320363,,,,,,,0.014418,-0.018093,0.020269,0.000568,-6.3e-05,-2.6e-05
377440,0.015881,-0.017921,0.012474,0.0,-0.0,-0.0,3.0,0.3261,0.330025,0.3261,0.32211,,,,,,,0.014296,-0.018095,0.020268,0.048672,-0.0001,-2.6e-05
377460,0.015759,-0.01792,0.012473,0.0,-0.0,-0.0,3.0,0.3261,0.325601,0.3261,0.326599,,,,,,,0.014054,-0.018096,0.020268,0.072634,-0.0001,-2.6e-05
377480,0.015637,-0.017919,0.012472,0.0,-0.0,-0.0,3.0,0.3261,0.324125,0.3261,0.32806,,,,,,,0.014055,-0.018098,0.020267,0.048119,-9.9e-05,-2.6e-05
377500,0.015518,-0.017551,0.012346,0.0,-0.0,-0.0,3.0,0.3261,0.323328,0.3261,0.328841,,,,,,,0.014056,-0.0181,0.020267,0.024227,-6.2e-05,-3.8e-05
377520,0.015518,-0.01743,0.012467,0.0,-0.0,-0.0,3.0,0.3261,0.327976,0.3261,0.32421,,,,,,,0.014422,-0.018101,0.020266,-0.048725,-5e-05,-2.6e-05
377540,0.01564,-0.017431,0.012468,0.0,-0.0,-0.0,3.0,0.3261,0.329567,0.3261,0.322583,,,,,,,0.014543,-0.018102,0.020266,-0.048472,-5e-05,-2.6e-05
377560,0.015884,-0.017432,0.01247,0.0,-0.0,-0.0,3.0,0.3261,0.328853,0.3261,0.323316,,,,,,,0.014542,-0.018104,0.020265,0.000359,-5e-05,-2.6e-05
377580,0.016005,-0.017677,0.012473,0.0,-0.0,-0.0,3.0,0.3261,0.330334,0.3261,0.32179,,,,,,,0.01454,-0.018105,0.020265,0.024617,-7.4e-05,-2.6e-05
377600,0.015881,-0.017921,0.012474,0.0,-0.0,-0.0,3.0,0.3261,0.331128,0.3261,0.320965,,,,,,,0.014661,-0.018107,0.020264,-0.024061,-9.9e-05,-2.5e-05
377620,0.015637,-0.017919,0.012472,0.0,-0.0,-0.0,3.0,0.3261,0.331606,0.3261,0.320465,,,,,,,0.01454,-0.018109,0.020264,-0.048477,-9.8e-05,-2.6e-05
377640,0.01576,-0.017798,0.012472,0.0,-0.0,-0.0,3.0,0.3261,0.329129,0.3261,0.323032,,,,,,,0.014296,-0.01811,0.020263,0.024413,-8.6e-05,-2.6e-05
377660,0.015638,-0.017675,0.01247,0.0,-0.0,-0.0,3.0,0.3261,0.324898,0.3261,0.327297,,,,,,,0.014057,-0.018111,0.020263,0.047965,-7.4e-05,-2.6e-05
377680,0.015518,-0.01743,0.012467,0.0,-0.0,-0.0,3.0,0.3261,0.326359,0.3261,0.325841,,,,,,,0.014057,-0.018112,0.020262,0.023958,-4.9e-05,-2.6e-05
377700,0.015151,-0.017307,0.012585,0.0,-0.0,-0.0,3.0,0.3261,0.328037,0.3261,0.324148,,,,,,,0.014057,-0.018113,0.020262,-0.048989,-3.7e-05,-1.4e-05
377720,0.015274,-0.017308,0.012586,0.0,-0.0,-0.0,3.0,0.3261,0.329943,0.3261,0.322195,,,,,,,0.014055,-0.018114,0.020261,-0.024421,-3.7e-05,-1.4e-05
377740,0.015273,-0.01743,0.012587,0.0,-0.0,-0.0,3.0,0.3261,0.325507,0.3261,0.326692,,,,,,,0.01381,-0.018116,0.020261,0.024206,-4.9e-05,-1.4e-05
377760,0.015273,-0.017551,0.012466,0.0,-0.0,-0.0,3.0,0.3261,0.326754,0.3261,0.325444,,,,,,,0.01381,-0.018117,0.02026,0.024418,-6.1e-05,-2.6e-05
377780,0.014906,-0.017671,0.012464,0.0,-0.0,-0.0,3.0,0.3261,0.329577,0.3261,0.322573,,,,,,,0.013929,-0.018119,0.02026,-0.072482,-7.2e-05,-2.6e-05
377800,0.014663,-0.017668,0.012339,0.0,-0.0,-0.0,3.0,0.3261,0.329226,0.3261,0.322933,,,,,,,0.013564,-0.01812,0.020259,-0.048158,-7.2e-05,-3.8e-05
377820,0.014417,-0.017911,0.012339,0.0,-0.0,-0.0,3.0,0.3261,0.326982,0.3261,0.325215,,,,,,,0.013077,-0.018121,0.020259,-8.8e-05,-9.6e-05,-3.8e-05
377840,0.01393,-0.017543,0.012454,0.0,-0.0,-0.0,3.0,0.3261,0.326236,0.3261,0.325964,,,,,,,0.012591,-0.018122,0.020258,-0.000305,-5.9e-05,-2.7e-05
377860,0.01332,-0.017539,0.012449,0.0,-0.0,-0.0,3.0,0.3261,0.323539,0.3261,0.328634,,,,,,,0.011982,-0.018123,0.020257,-0.000557,-5.9e-05,-2.7e-05
377880,0.012589,-0.017291,0.012441,0.0,-0.0,-0.0,3.0,0.3261,0.322611,0.3261,0.32954,,,,,,,0.011372,-0.018124,0.020257,-0.024564,-3.4e-05,-2.8e-05
377900,0.011978,-0.017409,0.012437,0.0,-0.0,-0.0,3.0,0.3261,0.321096,0.3261,0.331002,,,,,,,0.01076,-0.018125,0.020256,-0.02436,-4.6e-05,-2.8e-05
377920,0.011367,-0.017527,0.012432,0.0,-0.0,-0.0,3.0,0.3261,0.319318,0.3261,0.332697,,,,,,,0.010149,-0.018127,0.020256,-0.024409,-5.7e-05,-2.9e-05
377940,0.010756,-0.017646,0.012428,0.0,-0.0,-0.0,3.0,0.3261,0.320975,0.3261,0.331118,,,,,,,0.00966,-0.018128,0.020255,-0.048691,-6.9e-05,-2.9e-05
377960,0.010268,-0.017764,0.012302,0.0,-0.0,-0.0,3.0,0.3261,0.326056,0.3261,0.326145,,,,,,,0.009291,-0.01813,0.020255,-0.07242,-8.1e-05,-4.2e-05
377980,0.00978,-0.017639,0.012297,0.0,-0.0,-0.0,3.0,0.3261,0.327418,0.3261,0.324775,,,,,,,0.008804,-0.018131,0.020254,-0.072475,-6.8e-05,-4.2e-05
378000,0.009535,-0.017638,0.012417,0.0,-0.0,-0.0,3.0,0.3261,0.325977,0.3261,0.326223,,,,,,,0.008194,-0.018132,0.020253,8e-06,-6.8e-05,-3e-05
378020,0.009169,-0.017514,0.012536,0.0,-0.0,-0.0,3.0,0.3261,0.324591,0.3261,0.3276,,,,,,,0.007709,-0.018132,0.020253,0.023701,-5.5e-05,-1.8e-05
378040,0.008558,-0.017389,0.012652,0.0,-0.0,-0.0,3.0,0.3261,0.320573,0.3261,0.331503,,,,,,,0.0071,-0.018133,0.020252,0.023443,-4.3e-05,-6e-06
378060,0.007949,-0.017141,0.012646,0.0,-0.0,-0.0,3.0,0.3261,0.32259,0.3261,0.32956,,,,,,,0.006854,-0.018134,0.020252,-0.048936,-1.8e-05,-7e-06
378080,0.007582,-0.017261,0.012643,0.0,-0.0,-0.0,3.0,0.3261,0.323812,0.3261,0.328367,,,,,,,0.006485,-0.018135,0.020252,-0.04853,-3e-05,-7e-06
378100,0.007338,-0.017259,0.012641,0.0,-0.0,-0.0,3.0,0.3261,0.324328,0.3261,0.32786,,,,,,,0.006241,-0.018137,0.020252,-0.048479,-3e-05,-7e-06
378120,0.007094,-0.01738,0.012517,0.0,-0.0,-0.0,3.0,0.3261,0.321811,0.3261,0.330314,,,,,,,0.005752,-0.018138,0.020251,0.00031,-4.1e-05,-2e-05
378140,0.006728,-0.017377,0.012514,0.0,-0.0,-0.0,3.0,0.3261,0.327369,0.3261,0.324825,,,,,,,0.005628,-0.018139,0.020251,-0.048008,-4.1e-05,-2e-05
378160,0.00636,-0.017498,0.012633,0.0,-0.0,-0.0,3.0,0.3261,0.328517,0.3261,0.323658,,,,,,,0.005261,-0.018139,0.020251,-0.048174,-5.3e-05,-8e-06
378180,0.006238,-0.017497,0.012632,0.0,-0.0,-0.0,3.0,0.3261,0.324697,0.3261,0.327495,,,,,,,0.004775,-0.01814,0.020251,0.024316,-5.3e-05,-8e-06
378200,0.006114,-0.017618,0.012754,0.0,-0.0,-0.0,3.0,0.3261,0.320246,0.3261,0.331815,,,,,,,0.00441,-0.01814,0.020251,0.072328,-6.5e-05,4e-06
378220,0.005625,-0.017616,0.012872,0.0,-0.0,-0.0,3.0,0.3261,0.319295,0.3261,0.332718,,,,,,,0.004166,-0.018141,0.020251,0.02345,-6.5e-05,1.6e-05
378240,0.005382,-0.01737,0.012869,0.0,-0.0,-0.0,3.0,0.3261,0.322183,0.3261,0.329954,,,,,,,0.004165,-0.018142,0.020251,-0.024671,-4e-05,1.5e-05
378260,0.005139,-0.017246,0.012866,0.0,-0.0,-0.0,3.0,0.3261,0.325233,0.3261,0.326965,,,,,,,0.004164,-0.018143,0.020251,-0.072995,-2.8e-05,1.5e-05
378280,0.005138,-0.017245,0.012864,0.0,-0.0,-0.0,3.0,0.3261,0.327382,0.3261,0.324811,,,,,,,0.00404,-0.018145,0.020252,-0.048331,-2.7e-05,1.5e-05
378300,0.005017,-0.017244,0.012741,0.0,-0.0,-0.0,3.0,0.3261,0.324302,0.3261,0.327886,,,,,,,0.003675,-0.018146,0.020252,0.000306,-2.7e-05,2e-06
378320,0.004773,-0.017366,0.012741,0.0,-0.0,-0.0,3.0,0.3261,0.324001,0.3261,0.328181,,,,,,,0.003308,-0.018146,0.020252,0.024626,-3.9e-05,3e-06
378340,0.004527,-0.017608,0.01274,0.0,-0.0,-0.0,3.0,0.3261,0.325586,0.3261,0.326614,,,,,,,0.003186,-0.018147,0.020252,0.0001,-6.3e-05,2e-06
378360,0.004038,-0.017727,0.012736,0.0,-0.0,-0.0,3.0,0.3261,0.322794,0.3261,0.329362,,,,,,,0.00282,-0.018148,0.020252,-0.024469,-7.5e-05,2e-06
378380,0.003915,-0.017849,0.012735,0.0,-0.0,-0.0,3.0,0.3261,0.323332,0.3261,0.328837,,,,,,,0.002575,-0.018149,0.020252,-5e-05,-8.7e-05,2e-06
378400,0.003548,-0.017847,0.012854,0.0,-0.0,-0.0,3.0,0.3261,0.320527,0.3261,0.331547,,,,,,,0.00221,-0.01815,0.020253,-0.000629,-8.7e-05,1.4e-05
378420,0.003305,-0.0176,0.012849,0.0,-0.0,-0.0,3.0,0.3261,0.321785,0.3261,0.33034,,,,,,,0.001966,-0.018152,0.020253,-0.000358,-6.2e-05,1.3e-05
378440,0.002695,-0.017352,0.012965,0.0,-0.0,-0.0,3.0,0.3261,0.32159,0.3261,0.330527,,,,,,,0.001722,-0.018153,0.020253,-0.073196,-3.7e-05,2.5e-05
378460,0.00233,-0.017228,0.012962,0.0,-0.0,-0.0,3.0,0.3261,0.324142,0.3261,0.328043,,,,,,,0.001354,-0.018154,0.020254,-0.072679,-2.5e-05,2.4e-05
378480,0.001963,-0.017103,0.013081,0.0,-0.0,-0.0,3.0,0.3261,0.319202,0.3261,0.332806,,,,,,,0.000745,-0.018155,0.020254,-0.024405,-1.2e-05,3.6e-05
378500,0.001474,-0.017222,0.013077,0.0,-0.0,-0.0,3.0,0.3261,0.317681,0.3261,0.334234,,,,,,,0.000134,-0.018156,0.020255,-3.7e-05,-2.4e-05,3.6e-05
378520,0.000985,-0.017463,0.013073,0.0,-0.0,-0.0,3.0,0.3261,0.3221,0.3261,0.330035,,,,,,,-0.000113,-0.018156,0.020256,-0.04841,-4.8e-05,3.5e-05
378540,0.000373,-0.017703,0.013067,0.0,-0.0,-0.0,3.0,0.3261,0.322591,0.3261,0.329559,,,,,,,-0.000603,-0.018158,0.020256,-0.072687,-7.2e-05,3.5e-05
378560,5e-06,-0.017946,0.013067,0.0,-0.0,-0.0,3.0,0.3261,0.322238,0.3261,0.329901,,,,,,,-0.001213,-0.018159,0.020257,-0.024531,-9.6e-05,3.5e-05
378580,-0.000361,-0.017821,0.013061,0.0,-0.0,-0.0,3.0,0.3261,0.319094,0.3261,0.332908,,,,,,,-0.001822,-0.01816,0.020258,0.023948,-8.3e-05,3.4e-05
378600,-0.000969,-0.017572,0.013056,0.0,-0.0,-0.0,3.0,0.3261,0.316606,0.3261,0.335233,,,,,,,-0.00243,-0.018161,0.020259,0.023845,-5.8e-05,3.3e-05
378620,-0.001455,-0.017203,0.013052,0.0,-0.0,-0.0,3.0,0.3261,0.317774,0.3261,0.334147,,,,,,,-0.002796,-0.018161,0.02026,-5e-05,-2.1e-05,3.3e-05
378640,-0.001822,-0.017201,0.013171,0.0,-0.0,-0.0,3.0,0.3261,0.317966,0.3261,0.333968,,,,,,,-0.003038,-0.018162,0.02026,-0.024832,-2.1e-05,4.5e-05
378660,-0.002066,-0.017077,0.013169,0.0,-0.0,-0.0,3.0,0.3261,0.317147,0.3261,0.334732,,,,,,,-0.003282,-0.018163,0.020261,-0.024818,-9e-06,4.4e-05
378680,-0.001944,-0.0172,0.013169,0.0,-0.0,-0.0,3.0,0.3261,0.324091,0.3261,0.328093,,,,,,,-0.003042,-0.018164,0.020262,-0.048517,-2.1e-05,4.4e-05
378700,-0.001945,-0.017322,0.013169,0.0,-0.0,-0.0,3.0,0.3261,0.324235,0.3261,0.327951,,,,,,,-0.003045,-0.018165,0.020263,-0.047965,-3.3e-05,4.4e-05
378720,-0.001824,-0.017445,0.01317,0.0,-0.0,-0.0,3.0,0.3261,0.327203,0.3261,0.324992,,,,,,,-0.003046,-0.018166,0.020264,-0.023612,-4.5e-05,4.4e-05
378740,-0.001825,-0.017567,0.01317,0.0,-0.0,-0.0,3.0,0.3261,0.326649,0.3261,0.32555,,,,,,,-0.003167,-0.018167,0.020265,0.000302,-5.7e-05,4.4e-05
378760,-0.001823,-0.017323,0.01317,0.0,-0.0,-0.0,3.0,0.3261,0.323405,0.3261,0.328766,,,,,,,-0.003532,-0.018167,0.020266,0.073349,-3.3e-05,4.4e-05
378780,-0.00219,-0.01732,0.013289,0.0,-0.0,-0.0,3.0,0.3261,0.318806,0.3261,0.333179,,,,,,,-0.003896,-0.018167,0.020267,0.072616,-3.2e-05,5.6e-05
378800,-0.002556,-0.017196,0.013286,0.0,-0.0,-0.0,3.0,0.3261,0.315851,0.3261,0.33593,,,,,,,-0.004138,-0.018168,0.020268,0.048104,-2e-05,5.5e-05
378820,-0.003044,-0.017192,0.013282,0.0,-0.0,-0.0,3.0,0.3261,0.314179,0.3261,0.337457,,,,,,,-0.004382,-0.018168,0.020269,-0.000621,-2e-05,5.5e-05
378840,-0.003287,-0.017069,0.01328,0.0,-0.0,-0.0,3.0,0.3261,0.314997,0.3261,0.336712,,,,,,,-0.004505,-0.018168,0.02027,-0.024552,-7e-06,5.5e-05
378860,-0.003531,-0.017067,0.013278,0.0,-0.0,-0.0,3.0,0.3261,0.318742,0.3261,0.33324,,,,,,,-0.004505,-0.018169,0.020271,-0.073079,-7e-06,5.4e-05
378880,-0.003654,-0.017066,0.013277,0.0,-0.0,-0.0,3.0,0.3261,0.321881,0.3261,0.330247,,,,,,,-0.004629,-0.018169,0.020272,-0.072718,-7e-06,5.4e-05
378900,-0.003899,-0.017064,0.013397,0.0,-0.0,-0.0,3.0,0.3261,0.324891,0.3261,0.327304,,,,,,,-0.004874,-0.01817,0.020273,-0.072784,-7e-06,6.6e-05
378920,-0.004021,-0.017063,0.013396,0.0,-0.0,-0.0,3.0,0.3261,0.324995,0.3261,0.3272,,,,,,,-0.005241,-0.01817,0.020275,-0.024011,-7e-06,6.6e-05
378940,-0.004143,-0.017064,0.013397,0.0,-0.0,-0.0,3.0,0.3261,0.321469,0.3261,0.330644,,,,,,,-0.005729,-0.01817,0.020276,0.04883,-7e-06,6.6e-05
378960,-0.004508,-0.016939,0.013394,0.0,-0.0,-0.0,3.0,0.3261,0.314806,0.3261,0.336887,,,,,,,-0.006337,-0.01817,0.020277,0.097057,6e-06,6.5e-05
378980,-0.00512,-0.017057,0.013389,0.0,-0.0,-0.0,3.0,0.3261,0.313045,0.3261,0.338482,,,,,,,-0.006582,-0.01817,0.020278,0.024176,-6e-06,6.5e-05
379000,-0.005608,-0.017054,0.013385,0.0,-0.0,-0.0,3.0,0.3261,0.316562,0.3261,0.335274,,,,,,,-0.006705,-0.01817,0.02028,-0.048564,-6e-06,6.4e-05
379020,-0.005853,-0.017174,0.013382,0.0,-0.0,-0.0,3.0,0.3261,0.318416,0.3261,0.333546,,,,,,,-0.006829,-0.01817,0.020281,-0.07267,-1.8e-05,6.4e-05
379040,-0.00622,-0.017171,0.013501,0.0,-0.0,-0.0,3.0,0.3261,0.315062,0.3261,0.336653,,,,,,,-0.007316,-0.018171,0.020283,-0.048767,-1.7e-05,7.5e-05
379060,-0.006465,-0.017292,0.013499,0.0,-0.0,-0.0,3.0,0.3261,0.319003,0.3261,0.332993,,,,,,,-0.007562,-0.018171,0.020284,-0.048522,-2.9e-05,7.5e-05
379080,-0.006954,-0.017288,0.013616,0.0,-0.0,-0.0,3.0,0.3261,0.31851,0.3261,0.333458,,,,,,,-0.008049,-0.018171,0.020286,-0.048959,-2.9e-05,8.7e-05
379100,-0.007198,-0.017164,0.013615,0.0,-0.0,-0.0,3.0,0.3261,0.320864,0.3261,0.331225,,,,,,,-0.008294,-0.018172,0.020287,-0.048694,-1.7e-05,8.6e-05
379120,-0.007565,-0.017161,0.013734,0.0,-0.0,-0.0,3.0,0.3261,0.319341,0.3261,0.332675,,,,,,,-0.008781,-0.018172,0.020289,-0.024751,-1.6e-05,9.8e-05
379140,-0.007807,-0.016915,0.013732,0.0,-0.0,-0.0,3.0,0.3261,0.317895,0.3261,0.334035,,,,,,,-0.009146,-0.018172,0.020291,-0.000367,8e-06,9.8e-05
379160,-0.007929,-0.016792,0.013732,0.0,-0.0,-0.0,3.0,0.3261,0.317962,0.3261,0.333972,,,,,,,-0.009392,-0.018172,0.020293,0.024483,2.1e-05,9.7e-05
379180,-0.008173,-0.016668,0.013852,0.0,-0.0,-0.0,3.0,0.3261,0.318065,0.3261,0.333876,,,,,,,-0.009515,-0.018172,0.020295,0.000337,3.3e-05,0.000109
379200,-0.008418,-0.016788,0.01385,0.0,-0.0,-0.0,3.0,0.3261,0.318656,0.3261,0.33332,,,,,,,-0.009762,-0.018172,0.020297,0.000605,2.1e-05,0.000109
379220,-0.008542,-0.016909,0.01397,0.0,-0.0,-0.0,3.0,0.3261,0.316093,0.3261,0.335707,,,,,,,-0.010006,-0.018172,0.020299,0.024552,9e-06,0.000121
379240,-0.008665,-0.01703,0.013969,0.0,-0.0,-0.0,3.0,0.3261,0.314552,0.3261,0.337118,,,,,,,-0.01025,-0.018172,0.020302,0.048763,-3e-06,0.00012
379260,-0.009154,-0.017149,0.013964,0.0,-0.0,-0.0,3.0,0.3261,0.312414,0.3261,0.339048,,,,,,,-0.010493,-0.018172,0.020304,-0.000302,-1.5e-05,0.00012
379280,-0.009398,-0.01727,0.013839,0.0,-0.0,-0.0,3.0,0.3261,0.318253,0.3261,0.333699,,,,,,,-0.010495,-0.018172,0.020307,-0.048589,-2.7e-05,0.000107
379300,-0.009642,-0.017268,0.013837,0.0,-0.0,-0.0,3.0,0.3261,0.317477,0.3261,0.334424,,,,,,,-0.010738,-0.018172,0.020309,-0.048757,-2.7e-05,0.000106
379320,-0.009518,-0.017025,0.013839,0.0,-0.0,-0.0,3.0,0.3261,0.316484,0.3261,0.335346,,,,,,,-0.010979,-0.018172,0.020311,0.023913,-3e-06,0.000106
379340,-0.009641,-0.017023,0.01396,0.0,-0.0,-0.0,3.0,0.3261,0.314533,0.3261,0.337135,,,,,,,-0.011223,-0.018171,0.020313,0.04792,-2e-06,0.000118
379360,-0.009884,-0.016778,0.013959,0.0,-0.0,-0.0,3.0,0.3261,0.316578,0.3261,0.335259,,,,,,,-0.011222,-0.018171,0.020316,-0.000438,2.2e-05,0.000118
379380,-0.009885,-0.016777,0.014081,0.0,-0.0,-0.0,3.0,0.3261,0.31869,0.3261,0.333288,,,,,,,-0.011101,-0.018171,0.020318,-0.024853,2.2e-05,0.00013
379400,-0.009883,-0.016533,0.014083,0.0,-0.0,-0.0,3.0,0.3261,0.317037,0.3261,0.334833,,,,,,,-0.011101,-0.018171,0.02032,-0.024443,4.7e-05,0.00013
379420,-0.009761,-0.016534,0.014084,0.0,-0.0,-0.0,3.0,0.3261,0.317951,0.3261,0.333982,,,,,,,-0.011102,-0.01817,0.020323,3.8e-05,4.6e-05,0.00013
379440,-0.009639,-0.016535,0.014085,0.0,-0.0,-0.0,3.0,0.3261,0.322253,0.3261,0.329887,,,,,,,-0.010738,-0.01817,0.020325,-0.048051,4.6e-05,0.000129
379460,-0.009519,-0.01678,0.014085,0.0,-0.0,-0.0,3.0,0.3261,0.324447,0.3261,0.327742,,,,,,,-0.010619,-0.01817,0.020328,-0.047817,2.2e-05,0.000129
379480,-0.009398,-0.017025,0.014084,0.0,-0.0,-0.0,3.0,0.3261,0.322625,0.3261,0.329526,,,,,,,-0.010741,-0.01817,0.020331,0.000471,-3e-06,0.000129
379500,-0.009155,-0.017148,0.014086,0.0,-0.0,-0.0,3.0,0.3261,0.320575,0.3261,0.331501,,,,,,,-0.010864,-0.01817,0.020333,0.073348,-1.5e-05,0.000129
379520,-0.009399,-0.017147,0.014084,0.0,-0.0,-0.0,3.0,0.3261,0.313463,0.3261,0.338105,,,,,,,-0.011228,-0.018169,0.020336,0.097189,-1.5e-05,0.000128
379540,-0.009765,-0.017144,0.014081,0.0,-0.0,-0.0,3.0,0.3261,0.312062,0.3261,0.339363,,,,,,,-0.011349,-0.018169,0.020339,0.048291,-1.5e-05,0.000128
379560,-0.010253,-0.017018,0.014077,0.0,-0.0,-0.0,3.0,0.3261,0.310707,0.3261,0.340565,,,,,,,-0.011591,-0.018169,0.020341,-0.000538,-2e-06,0.000127
379580,-0.010495,-0.016895,0.013954,0.0,-0.0,-0.0,3.0,0.3261,0.313619,0.3261,0.337964,,,,,,,-0.011468,-0.018169,0.020344,-0.073308,1e-05,0.000115
379600,-0.010617,-0.016894,0.013952,0.0,-0.0,-0.0,3.0,0.3261,0.312921,0.3261,0.338593,,,,,,,-0.011712,-0.018169,0.020346,-0.048928,1e-05,0.000114
379620,-0.010617,-0.016894,0.013952,0.0,-0.0,-0.0,3.0,0.3261,0.317181,0.3261,0.3347,,,,,,,-0.011714,-0.018169,0.020348,-0.048662,1e-05,0.000114
379640,-0.010741,-0.017015,0.014073,0.0,-0.0,-0.0,3.0,0.3261,0.321316,0.3261,0.330791,,,,,,,-0.011716,-0.018169,0.020351,-0.072844,-2e-06,0.000126
379660,-0.010742,-0.017137,0.014072,0.0,-0.0,-0.0,3.0,0.3261,0.323261,0.3261,0.328907,,,,,,,-0.01184,-0.018169,0.020353,-0.048395,-1.4e-05,0.000125
379680,-0.010742,-0.017014,0.014195,0.0,-0.0,-0.0,3.0,0.3261,0.318629,0.3261,0.333346,,,,,,,-0.012204,-0.018169,0.020356,0.02414,-2e-06,0.000137
379700,-0.010741,-0.016892,0.014196,0.0,-0.0,-0.0,3.0,0.3261,0.31349,0.3261,0.338081,,,,,,,-0.012568,-0.018169,0.020358,0.096782,1e-05,0.000137
379720,-0.010862,-0.016769,0.014195,0.0,-0.0,-0.0,3.0,0.3261,0.316387,0.3261,0.335436,,,,,,,-0.012325,-0.018169,0.020361,0.024283,2.3e-05,0.000137
379740,-0.011104,-0.016524,0.014072,0.0,-0.0,-0.0,3.0,0.3261,0.315642,0.3261,0.336121,,,,,,,-0.012325,-0.018169,0.020363,-0.023801,4.7e-05,0.000124
379760,-0.010861,-0.01677,0.014073,0.0,-0.0,-0.0,3.0,0.3261,0.315146,0.3261,0.336577,,,,,,,-0.012326,-0.018168,0.020366,0.024724,2.3e-05,0.000124
379780,-0.010983,-0.016769,0.014072,0.0,-0.0,-0.0,3.0,0.3261,0.311913,0.3261,0.339495,,,,,,,-0.012448,-0.018168,0.020369,0.024728,2.3e-05,0.000124
379800,-0.010986,-0.017135,0.01407,0.0,-0.0,-0.0,3.0,0.3261,0.31574,0.3261,0.336031,,,,,,,-0.012328,-0.018168,0.020371,0.000275,-1.4e-05,0.000123
379820,-0.011232,-0.017255,0.014189,0.0,-0.0,-0.0,3.0,0.3261,0.316586,0.3261,0.335252,,,,,,,-0.01245,-0.018168,0.020374,-0.024385,-2.6e-05,0.000135
379840,-0.011354,-0.017254,0.014188,0.0,-0.0,-0.0,3.0,0.3261,0.315789,0.3261,0.335987,,,,,,,-0.012572,-0.018168,0.020377,-0.024453,-2.6e-05,0.000135
379860,-0.011232,-0.017255,0.014189,0.0,-0.0,-0.0,3.0,0.3261,0.314249,0.3261,0.337393,,,,,,,-0.012693,-0.018168,0.02038,0.023902,-2.6e-05,0.000135
379880,-0.011354,-0.017254,0.014188,0.0,-0.0,-0.0,3.0,0.3261,0.313581,0.3261,0.337998,,,,,,,-0.012691,-0.018168,0.020382,-0.000684,-2.6e-05,0.000134
379900,-0.01123,-0.017011,0.014191,0.0,-0.0,-0.0,3.0,0.3261,0.314854,0.3261,0.336843,,,,,,,-0.012691,-0.018168,0.020385,0.023972,-2e-06,0.000134
379920,-0.011229,-0.016767,0.014192,0.0,-0.0,-0.0,3.0,0.3261,0.318172,0.3261,0.333775,,,,,,,-0.012448,-0.018168,0.020388,-0.024111,2.3e-05,0.000134
379940,-0.01123,-0.016766,0.014314,0.0,-0.0,-0.0,3.0,0.3261,0.319344,0.3261,0.332671,,,,,,,-0.012326,-0.018168,0.02039,-0.048728,2.3e-05,0.000146
379960,-0.011106,-0.016523,0.014316,0.0,-0.0,-0.0,3.0,0.3261,0.318673,0.3261,0.333304,,,,,,,-0.012326,-0.018168,0.020393,-0.024068,4.7e-05,0.000146
379980,-0.010863,-0.016647,0.014318,0.0,-0.0,-0.0,3.0,0.3261,0.318414,0.3261,0.333548,,,,,,,-0.012327,-0.018167,0.020396,0.024557,3.5e-05,0.000146
380000,-0.010984,-0.016524,0.014318,0.0,-0.0,-0.0,3.0,0.3261,0.31729,0.3261,0.334599,,,,,,,-0.012326,-0.018167,0.020399,0.000314,4.7e-05,0.000145
380020,-0.011107,-0.016645,0.014316,0.0,-0.0,-0.0,3.0,0.3261,0.319334,0.3261,0.332681,,,,,,,-0.012329,-0.018167,0.020402,-0.023596,3.5e-05,0.000145
380040,-0.010986,-0.01689,0.014316,0.0,-0.0,-0.0,3.0,0.3261,0.319727,0.3261,0.332308,,,,,,,-0.012452,-0.018166,0.020405,0.024788,1e-05,0.000145
380060,-0.010865,-0.017013,0.014316,0.0,-0.0,-0.0,3.0,0.3261,0.316734,0.3261,0.335115,,,,,,,-0.012574,-0.018166,0.020408,0.073245,-2e-06,0.000144
380080,-0.010866,-0.017135,0.014315,0.0,-0.0,-0.0,3.0,0.3261,0.313987,0.3261,0.337631,,,,,,,-0.012572,-0.018165,0.020411,0.072698,-1.4e-05,0.000144
380100,-0.011109,-0.017011,0.014314,0.0,-0.0,-0.0,3.0,0.3261,0.313637,0.3261,0.337948,,,,,,,-0.012573,-0.018165,0.020414,0.02452,-2e-06,0.000144
380120,-0.011109,-0.017011,0.014314,0.0,-0.0,-0.0,3.0,0.3261,0.316167,0.3261,0.335639,,,,,,,-0.012327,-0.018165,0.020417,-0.024557,-2e-06,0.000143
380140,-0.011107,-0.01689,0.014192,0.0,-0.0,-0.0,3.0,0.3261,0.310643,0.3261,0.340621,,,,,,,-0.012447,-0.018165,0.02042,-0.000269,1e-05,0.000131
380160,-0.010984,-0.016646,0.014195,0.0,-0.0,-0.0,3.0,0.3261,0.31112,0.3261,0.340199,,,,,,,-0.012322,-0.018164,0.020422,-0.000402,3.5e-05,0.000131
380180,-0.010983,-0.016647,0.014073,0.0,-0.0,-0.0,3.0,0.3261,0.315701,0.3261,0.336068,,,,,,,-0.01208,-0.018164,0.020425,-0.048458,3.4e-05,0.000118
380200,-0.010861,-0.01677,0.014073,0.0,-0.0,-0.0,3.0,0.3261,0.320515,0.3261,0.331559,,,,,,,-0.011837,-0.018163,0.020427,-0.07264,2.2e-05,0.000118
380220,-0.010741,-0.016892,0.014196,0.0,-0.0,-0.0,3.0,0.3261,0.321066,0.3261,0.331031,,,,,,,-0.011837,-0.018163,0.02043,-0.048803,1e-05,0.00013
380240,-0.010742,-0.017014,0.014195,0.0,-0.0,-0.0,3.0,0.3261,0.321318,0.3261,0.330789,,,,,,,-0.011959,-0.018163,0.020432,-0.024558,-2e-06,0.00013
380260,-0.010742,-0.017137,0.014072,0.0,-0.0,-0.0,3.0,0.3261,0.317998,0.3261,0.333938,,,,,,,-0.012327,-0.018163,0.020434,0.04859,-1.5e-05,0.000117
380280,-0.010863,-0.017014,0.014072,0.0,-0.0,-0.0,3.0,0.3261,0.312867,0.3261,0.338642,,,,,,,-0.01257,-0.018163,0.020437,0.072943,-2e-06,0.000117
380300,-0.011228,-0.016889,0.014069,0.0,-0.0,-0.0,3.0,0.3261,0.31158,0.3261,0.339791,,,,,,,-0.012691,-0.018163,0.020439,0.024179,1e-05,0.000117
380320,-0.011349,-0.016767,0.013947,0.0,-0.0,-0.0,3.0,0.3261,0.310904,0.3261,0.34039,,,,,,,-0.012812,-0.018164,0.020441,0.024414,2.2e-05,0.000104
380340,-0.01147,-0.016767,0.013824,0.0,-0.0,-0.0,3.0,0.3261,0.311778,0.3261,0.339615,,,,,,,-0.012812,-0.018163,0.020443,0.000301,2.2e-05,9.2e-05
380360,-0.011348,-0.016768,0.013825,0.0,-0.0,-0.0,3.0,0.3261,0.314139,0.3261,0.337494,,,,,,,-0.012812,-0.018163,0.020445,0.024713,2.2e-05,9.2e-05
380380,-0.011471,-0.017011,0.013822,0.0,-0.0,-0.0,3.0,0.3261,0.316962,0.3261,0.334904,,,,,,,-0.012691,-0.018163,0.020447,-0.024214,-2e-06,9.1e-05
380400,-0.011473,-0.017132,0.013944,0.0,-0.0,-0.0,3.0,0.3261,0.318072,0.3261,0.333869,,,,,,,-0.012692,-0.018162,0.020449,-0.024284,-1.4e-05,0.000103
380420,-0.01123,-0.017256,0.013945,0.0,-0.0,-0.0,3.0,0.3261,0.314172,0.3261,0.337463,,,,,,,-0.012812,-0.018162,0.020451,0.048155,-2.7e-05,0.000103
380440,-0.010987,-0.017257,0.014069,0.0,-0.0,-0.0,3.0,0.3261,0.310181,0.3261,0.341028,,,,,,,-0.01281,-0.018161,0.020453,0.096104,-2.7e-05,0.000115
380460,-0.010987,-0.017257,0.014069,0.0,-0.0,-0.0,3.0,0.3261,0.312986,0.3261,0.338534,,,,,,,-0.012446,-0.018162,0.020455,0.023603,-2.7e-05,0.000115
380480,-0.011107,-0.017012,0.01407,0.0,-0.0,-0.0,3.0,0.3261,0.313331,0.3261,0.338224,,,,,,,-0.012203,-0.018162,0.020458,-0.048793,-2e-06,0.000115
380500,-0.010741,-0.017015,0.014073,0.0,-0.0,-0.0,3.0,0.3261,0.318837,0.3261,0.333151,,,,,,,-0.011838,-0.018163,0.02046,-0.048627,-2e-06,0.000115
380520,-0.010618,-0.016771,0.014197,0.0,-0.0,-0.0,3.0,0.3261,0.317173,0.3261,0.334707,,,,,,,-0.011714,-0.018163,0.020462,-0.04876,2.2e-05,0.000127
380540,-0.010374,-0.016896,0.014077,0.0,-0.0,-0.0,3.0,0.3261,0.322094,0.3261,0.330041,,,,,,,-0.011472,-0.018163,0.020465,-0.048258,9e-06,0.000115
380560,-0.010372,-0.016651,0.014078,0.0,-0.0,-0.0,3.0,0.3261,0.322324,0.3261,0.329818,,,,,,,-0.011473,-0.018163,0.020467,-0.047886,3.4e-05,0.000115
380580,-0.010009,-0.01702,0.014079,0.0,-0.0,-0.0,3.0,0.3261,0.319967,0.3261,0.332081,,,,,,,-0.011594,-0.018162,0.020469,0.048759,-3e-06,0.000115
380600,-0.010008,-0.016898,0.01408,0.0,-0.0,-0.0,3.0,0.3261,0.317793,0.3261,0.33413,,,,,,,-0.011593,-0.018162,0.020472,0.048626,9e-06,0.000114
380620,-0.010009,-0.01702,0.014079,0.0,-0.0,-0.0,3.0,0.3261,0.312483,0.3261,0.338985,,,,,,,-0.011716,-0.018162,0.020474,0.073011,-3e-06,0.000114
380640,-0.009886,-0.017022,0.013958,0.0,-0.0,-0.0,3.0,0.3261,0.311407,0.3261,0.339945,,,,,,,-0.011715,-0.018162,0.020476,0.09743,-3e-06,0.000102
380660,-0.009885,-0.0169,0.013959,0.0,-0.0,-0.0,3.0,0.3261,0.313624,0.3261,0.337959,,,,,,,-0.011349,-0.018163,0.020478,0.024551,9e-06,0.000102
380680,-0.009763,-0.016901,0.01396,0.0,-0.0,-0.0,3.0,0.3261,0.315049,0.3261,0.336665,,,,,,,-0.011226,-0.018162,0.02048,0.024483,9e-06,0.000102
380700,-0.009884,-0.016778,0.013959,0.0,-0.0,-0.0,3.0,0.3261,0.313503,0.3261,0.338069,,,,,,,-0.011103,-0.018162,0.020482,-0.024245,2.1e-05,0.000101
380720,-0.009641,-0.016901,0.013961,0.0,-0.0,-0.0,3.0,0.3261,0.312458,0.3261,0.339008,,,,,,,-0.011102,-0.018161,0.020484,0.023944,9e-06,0.000101
380740,-0.00964,-0.016779,0.013961,0.0,-0.0,-0.0,3.0,0.3261,0.311861,0.3261,0.339541,,,,,,,-0.010978,-0.018161,0.020486,-0.000471,2.1e-05,0.000101
380760,-0.009642,-0.016901,0.014083,0.0,-0.0,-0.0,3.0,0.3261,0.315596,0.3261,0.336164,,,,,,,-0.010736,-0.01816,0.020489,-0.049072,9e-06,0.000113
380780,-0.00952,-0.017024,0.014083,0.0,-0.0,-0.0,3.0,0.3261,0.316352,0.3261,0.335468,,,,,,,-0.010738,-0.01816,0.020491,-0.024453,-4e-06,0.000113
380800,-0.009155,-0.017026,0.014209,0.0,-0.0,-0.0,3.0,0.3261,0.31984,0.3261,0.332202,,,,,,,-0.010494,-0.01816,0.020493,-0.000417,-4e-06,0.000125
380820,-0.009154,-0.016904,0.014209,0.0,-0.0,-0.0,3.0,0.3261,0.316232,0.3261,0.335578,,,,,,,-0.010615,-0.01816,0.020496,0.02397,8e-06,0.000125
380840,-0.009153,-0.01666,0.01421,0.0,-0.0,-0.0,3.0,0.3261,0.320255,0.3261,0.331807,,,,,,,-0.010372,-0.018159,0.020498,-0.024212,3.3e-05,0.000125
380860,-0.008907,-0.016417,0.014213,0.0,-0.0,-0.0,3.0,0.3261,0.321066,0.3261,0.331031,,,,,,,-0.010249,-0.018159,0.0205,0.000377,5.7e-05,0.000125
380880,-0.008784,-0.016296,0.014215,0.0,-0.0,-0.0,3.0,0.3261,0.315339,0.3261,0.3364,,,,,,,-0.010248,-0.018158,0.020503,0.02463,6.9e-05,0.000125
380900,-0.00866,-0.016053,0.014217,0.0,-0.0,-0.0,3.0,0.3261,0.312696,0.3261,0.338795,,,,,,,-0.010246,-0.018157,0.020505,0.048916,9.3e-05,0.000125
380920,-0.008784,-0.016296,0.014215,0.0,-0.0,-0.0,3.0,0.3261,0.314163,0.3261,0.337472,,,,,,,-0.010128,-0.018156,0.020508,0.000757,6.9e-05,0.000124
380940,-0.008663,-0.016541,0.014215,0.0,-0.0,-0.0,3.0,0.3261,0.318358,0.3261,0.3336,,,,,,,-0.009884,-0.018155,0.02051,-0.023872,4.4e-05,0.000124
380960,-0.008545,-0.016908,0.014337,0.0,-0.0,-0.0,3.0,0.3261,0.318346,0.3261,0.333612,,,,,,,-0.009887,-0.018154,0.020513,0.000199,7e-06,0.000136
380980,-0.008546,-0.01703,0.014336,0.0,-0.0,-0.0,3.0,0.3261,0.316054,0.3261,0.335742,,,,,,,-0.010007,-0.018153,0.020516,0.024066,-5e-06,0.000136
381000,-0.008424,-0.017031,0.014337,0.0,-0.0,-0.0,3.0,0.3261,0.315684,0.3261,0.336083,,,,,,,-0.010008,-0.018153,0.020519,0.048409,-5e-06,0.000135
381020,-0.008424,-0.017031,0.014337,0.0,-0.0,-0.0,3.0,0.3261,0.314376,0.3261,0.337278,,,,,,,-0.009884,-0.018152,0.020521,0.02382,-5e-06,0.000135
381040,-0.008421,-0.016664,0.014339,0.0,-0.0,-0.0,3.0,0.3261,0.312013,0.3261,0.339406,,,,,,,-0.009758,-0.018152,0.020524,-0.000719,3.1e-05,0.000135
381060,-0.008298,-0.016543,0.01434,0.0,-0.0,-0.0,3.0,0.3261,0.313679,0.3261,0.33791,,,,,,,-0.009393,-0.018151,0.020527,-0.049002,4.4e-05,0.000135
381080,-0.008052,-0.016423,0.014221,0.0,-0.0,-0.0,3.0,0.3261,0.313868,0.3261,0.337739,,,,,,,-0.009271,-0.01815,0.020529,-0.024244,5.5e-05,0.000123
381100,-0.00781,-0.016547,0.014344,0.0,-0.0,-0.0,3.0,0.3261,0.318264,0.3261,0.333689,,,,,,,-0.008906,-0.01815,0.020532,-0.048759,4.3e-05,0.000135
381120,-0.007811,-0.016669,0.014344,0.0,-0.0,-0.0,3.0,0.3261,0.321198,0.3261,0.330904,,,,,,,-0.008786,-0.018149,0.020534,-0.072744,3.1e-05,0.000135
381140,-0.007568,-0.016793,0.014345,0.0,-0.0,-0.0,3.0,0.3261,0.324156,0.3261,0.328029,,,,,,,-0.008789,-0.018148,0.020537,-0.023813,1.8e-05,0.000134
381160,-0.007324,-0.016916,0.014347,0.0,-0.0,-0.0,3.0,0.3261,0.321462,0.3261,0.330651,,,,,,,-0.008788,-0.018148,0.02054,0.024543,6e-06,0.000134
381180,-0.007079,-0.016796,0.01435,0.0,-0.0,-0.0,3.0,0.3261,0.314331,0.3261,0.337319,,,,,,,-0.00903,-0.018148,0.020542,0.121571,1.8e-05,0.000134
381200,-0.007079,-0.016796,0.01435,0.0,-0.0,-0.0,3.0,0.3261,0.312299,0.3261,0.339151,,,,,,,-0.008786,-0.018148,0.020545,0.072915,1.8e-05,0.000134
381220,-0.006956,-0.016553,0.014351,0.0,-0.0,-0.0,3.0,0.3261,0.314284,0.3261,0.337362,,,,,,,-0.00842,-0.018147,0.020548,0.024563,4.2e-05,0.000134
381240,-0.006588,-0.016556,0.014232,0.0,-0.0,-0.0,3.0,0.3261,0.315555,0.3261,0.336201,,,,,,,-0.008053,-0.018147,0.02055,0.024731,4.2e-05,0.000122
381260,-0.006344,-0.016558,0.014235,0.0,-0.0,-0.0,3.0,0.3261,0.316228,0.3261,0.335582,,,,,,,-0.007685,-0.018146,0.020553,7.2e-05,4.2e-05,0.000122
381280,-0.005979,-0.016682,0.014237,0.0,-0.0,-0.0,3.0,0.3261,0.318637,0.3261,0.333339,,,,,,,-0.00732,-0.018145,0.020555,0.00017,2.9e-05,0.000122
381300,-0.005613,-0.016807,0.01424,0.0,-0.0,-0.0,3.0,0.3261,0.320418,0.3261,0.331651,,,,,,,-0.006833,-0.018144,0.020558,-0.024187,1.6e-05,0.000122
381320,-0.00525,-0.017054,0.014365,0.0,-0.0,-0.0,3.0,0.3261,0.31941,0.3261,0.332609,,,,,,,-0.006589,-0.018144,0.020561,-0.000424,-8e-06,0.000134
381340,-0.004763,-0.017057,0.014491,0.0,-0.0,-0.0,3.0,0.3261,0.318316,0.3261,0.33364,,,,,,,-0.006223,-0.018143,0.020563,0.023786,-9e-06,0.000146
381360,-0.004518,-0.016937,0.014493,0.0,-0.0,-0.0,3.0,0.3261,0.317086,0.3261,0.334788,,,,,,,-0.005978,-0.018143,0.020566,0.023861,3e-06,0.000146
381380,-0.004271,-0.016694,0.014374,0.0,-0.0,-0.0,3.0,0.3261,0.318155,0.3261,0.333791,,,,,,,-0.00561,-0.018143,0.020569,-0.000274,2.8e-05,0.000134
381400,-0.004147,-0.016451,0.014375,0.0,-0.0,-0.0,3.0,0.3261,0.318995,0.3261,0.333001,,,,,,,-0.005367,-0.018143,0.020572,-0.024138,5.2e-05,0.000134
381420,-0.003901,-0.016208,0.014375,0.0,-0.0,-0.0,3.0,0.3261,0.322356,0.3261,0.329787,,,,,,,-0.005122,-0.018142,0.020574,-0.023812,7.6e-05,0.000134
381440,-0.003778,-0.016087,0.014376,0.0,-0.0,-0.0,3.0,0.3261,0.319581,0.3261,0.332447,,,,,,,-0.005121,-0.018141,0.020577,0.000527,8.8e-05,0.000134
381460,-0.003535,-0.01621,0.014378,0.0,-0.0,-0.0,3.0,0.3261,0.317202,0.3261,0.33468,,,,,,,-0.005121,-0.01814,0.020579,0.048994,7.6e-05,0.000133
381480,-0.003291,-0.016334,0.01438,0.0,-0.0,-0.0,3.0,0.3261,0.316159,0.3261,0.335646,,,,,,,-0.004999,-0.018139,0.020582,0.073032,6.3e-05,0.000133
381500,-0.003173,-0.016824,0.014383,0.0,-0.0,-0.0,3.0,0.3261,0.320341,0.3261,0.331724,,,,,,,-0.004515,-0.018138,0.020585,0.000271,1.4e-05,0.000133
381520,-0.002808,-0.016949,0.014386,0.0,-0.0,-0.0,3.0,0.3261,0.319537,0.3261,0.332489,,,,,,,-0.004271,-0.018137,0.020587,0.024414,2e-06,0.000133
381540,-0.002442,-0.017074,0.014389,0.087266,-0.0,-0.0,3.0,0.3261,0.277902,0.3261,0.366128,,,,,,,-0.003904,-0.018137,0.02059,0.024165,-1.1e-05,0.000133
381560,-0.002073,-0.016833,0.01427,0.087266,-0.0,-0.0,3.0,0.3261,0.272298,0.3261,0.369886,,,,,,,-0.003778,-0.018136,0.020593,0.072492,1.3e-05,0.000121
381580,-0.001582,-0.016469,0.014272,0.087266,-0.0,-0.0,3.0,0.3261,0.275502,0.3261,0.367757,,,,,,,-0.003167,-0.018135,0.020595,0.048476,4.9e-05,0.000121
381600,-0.000239,-0.016234,0.014405,0.087266,-0.0,-0.0,3.0,0.3261,0.284161,0.3261,0.361735,,,,,,,-0.001946,-0.018134,0.020598,0.07289,7.3e-05,0.000134
381620,0.002202,-0.016252,0.014425,0.087266,-0.0,-0.0,3.0,0.3261,0.292788,0.3261,0.355324,,,,,,,0.000251,-0.018133,0.0206,0.121688,7.1e-05,0.000136
381640,0.00611,-0.01628,0.014337,0.087266,-0.0,-0.0,3.0,0.3261,0.304762,0.3261,0.345691,,,,,,,0.003668,-0.018131,0.020603,0.219246,6.8e-05,0.000127
381660,0.011236,-0.01656,0.014257,0.087266,-0.0,-0.0,3.0,0.3261,0.323336,0.3261,0.328833,,,,,,,0.008792,-0.01813,0.020606,0.219719,4e-05,0.000119
381680,0.017341,-0.016601,0.014062,0.087266,-0.0,-0.0,3.0,0.3261,0.33906,0.3261,0.3124,,,,,,,0.014894,-0.01813,0.020608,0.220311,3.6e-05,9.9e-05
381700,0.024179,-0.017008,0.013635,0.087266,-0.0,-0.0,3.0,0.3261,0.346535,0.3261,0.303756,,,,,,,0.021366,-0.018129,0.02061,0.293318,-5e-06,5.6e-05
381720,0.031752,-0.016805,0.013204,0.087266,-0.0,-0.0,3.0,0.3261,0.352556,0.3261,0.296344,,,,,,,0.02845,-0.018129,0.020611,0.390843,1.5e-05,1.3e-05
381740,0.038963,-0.01672,0.012774,0.087266,-0.0,-0.0,3.0,0.3261,0.349265,0.3261,0.300448,,,,,,,0.035294,-0.018128,0.02061,0.463724,2.4e-05,-3e-05
381760,0.045804,-0.016509,0.012458,0.087266,-0.0,-0.0,3.0,0.3261,0.34991,0.3261,0.299655,,,,,,,0.04238,-0.018128,0.020609,0.415017,4.5e-05,-6.2e-05
381780,0.051913,-0.016532,0.012018,0.087266,-0.0,-0.0,3.0,0.3261,0.348137,0.3261,0.301826,,,,,,,0.049101,-0.018127,0.020608,0.293028,4.2e-05,-0.000105
381800,0.057774,-0.016801,0.011827,0.087266,-0.0,-0.0,3.0,0.3261,0.346253,0.3261,0.304094,,,,,,,0.055084,-0.018127,0.020605,0.26874,1.5e-05,-0.000124
381820,0.062781,-0.016943,0.011626,0.087266,-0.0,-0.0,3.0,0.3261,0.341792,0.3261,0.309309,,,,,,,0.060336,-0.018128,0.020603,0.220103,1e-06,-0.000144
381840,0.066934,-0.017576,0.011682,0.087266,-0.0,-0.0,3.0,0.3261,0.339285,0.3261,0.312148,,,,,,,0.06473,-0.018128,0.0206,0.1719,-6.2e-05,-0.000138
381860,0.070105,-0.017713,0.011711,0.087266,-0.0,-0.0,3.0,0.3261,0.33747,0.3261,0.314165,,,,,,,0.068271,-0.018129,0.020597,0.098138,-7.6e-05,-0.000135
381880,0.072792,-0.01785,0.011739,0.087266,-0.0,-0.0,3.0,0.3261,0.333409,0.3261,0.318562,,,,,,,0.070838,-0.018131,0.020595,0.122134,-8.9e-05,-0.000132
381900,0.074626,-0.017503,0.011986,0.087266,-0.0,-0.0,3.0,0.3261,0.325487,0.3261,0.326712,,,,,,,0.072554,-0.018131,0.020592,0.145716,-5.4e-05,-0.000107
381920,0.075727,-0.017142,0.01198,0.087266,-0.0,-0.0,3.0,0.3261,0.314579,0.3261,0.337094,,,,,,,0.073656,-0.018132,0.02059,0.14536,-1.8e-05,-0.000107
381940,0.07646,-0.016902,0.011977,0.087266,-0.0,-0.0,3.0,0.3261,0.311037,0.3261,0.340273,,,,,,,0.074632,-0.018132,0.020587,0.097083,6e-06,-0.000107
381960,0.077198,-0.01678,0.011857,0.087266,-0.0,-0.0,3.0,0.3261,0.31525,0.3261,0.336481,,,,,,,0.075856,-0.018132,0.020585,0.000255,1.8e-05,-0.000119
381980,0.078418,-0.016786,0.011866,0.087266,-0.0,-0.0,3.0,0.3261,0.320004,0.3261,0.332045,,,,,,,0.077198,-0.018132,0.020583,-0.023944,1.7e-05,-0.000118
382000,0.080131,-0.016913,0.011764,0.087266,-0.0,-0.0,3.0,0.3261,0.323255,0.3261,0.328913,,,,,,,0.078662,-0.018132,0.02058,0.025615,5e-06,-0.000128
382020,0.082326,-0.017162,0.011668,0.087266,-0.0,-0.0,3.0,0.3261,0.329691,0.3261,0.322455,,,,,,,0.080617,-0.018132,0.020578,0.073341,-2e-05,-0.000137
382040,0.084893,-0.01717,0.011567,0.087266,-0.0,-0.0,3.0,0.3261,0.337286,0.3261,0.314368,,,,,,,0.083061,-0.018132,0.020575,0.097865,-2.1e-05,-0.000147
382060,0.087826,-0.017302,0.011474,0.087266,-0.0,-0.0,3.0,0.3261,0.340521,0.3261,0.310756,,,,,,,0.08575,-0.018133,0.020572,0.14639,-3.4e-05,-0.000156
382080,0.091246,-0.017551,0.011269,0.087266,-0.0,-0.0,3.0,0.3261,0.34527,0.3261,0.305261,,,,,,,0.088927,-0.018134,0.020568,0.194942,-5.9e-05,-0.000176
382100,0.094675,-0.017551,0.010933,0.087266,-0.0,-0.0,3.0,0.3261,0.343728,0.3261,0.307072,,,,,,,0.092105,-0.018135,0.020565,0.244812,-5.9e-05,-0.00021
382120,0.098097,-0.017555,0.010717,0.087266,-0.0,-0.0,3.0,0.3261,0.341862,0.3261,0.309229,,,,,,,0.09541,-0.018137,0.02056,0.268144,-5.9e-05,-0.000231
382140,0.101397,-0.017557,0.010499,0.087266,-0.0,-0.0,3.0,0.3261,0.344591,0.3261,0.306062,,,,,,,0.099075,-0.018138,0.020556,0.195363,-5.9e-05,-0.000252
382160,0.104457,-0.017571,0.010526,0.087266,-0.0,-0.0,3.0,0.3261,0.3466,0.3261,0.303679,,,,,,,0.102496,-0.018139,0.020551,0.123648,-6e-05,-0.000249
382180,0.107269,-0.017455,0.01042,0.087266,-0.0,-0.0,3.0,0.3261,0.343651,0.3261,0.307162,,,,,,,0.105315,-0.01814,0.020546,0.12212,-4.9e-05,-0.000259
382200,0.109469,-0.017349,0.010554,0.087266,-0.0,-0.0,3.0,0.3261,0.341581,0.3261,0.30955,,,,,,,0.107761,-0.018141,0.02054,0.073128,-3.8e-05,-0.000245
382220,0.111304,-0.017357,0.010569,0.087266,-0.0,-0.0,3.0,0.3261,0.340915,0.3261,0.31031,,,,,,,0.109841,-0.018142,0.020535,0.024437,-3.9e-05,-0.000243
382240,0.112401,-0.017362,0.010577,0.087266,-0.0,-0.0,3.0,0.3261,0.339415,0.3261,0.312003,,,,,,,0.111181,-0.018142,0.020531,-0.024096,-3.9e-05,-0.000242
382260,0.11326,-0.01761,0.010599,0.087266,-0.0,-0.0,3.0,0.3261,0.336093,0.3261,0.315673,,,,,,,0.111917,-0.018143,0.020526,0.000406,-6.4e-05,-0.000239
382280,0.113869,-0.017849,0.010496,0.087266,-0.0,-0.0,3.0,0.3261,0.331156,0.3261,0.320935,,,,,,,0.112161,-0.018145,0.020521,0.073107,-8.8e-05,-0.000249
382300,0.114113,-0.01785,0.010497,0.087266,-0.0,-0.0,3.0,0.3261,0.326003,0.3261,0.326198,,,,,,,0.112285,-0.018146,0.020516,0.096938,-8.8e-05,-0.000248
382320,0.11387,-0.017727,0.010489,0.087266,-0.0,-0.0,3.0,0.3261,0.325417,0.3261,0.326782,,,,,,,0.112407,-0.018148,0.020511,0.024219,-7.5e-05,-0.000249
382340,0.11375,-0.017361,0.010467,0.087266,-0.0,-0.0,3.0,0.3261,0.32324,0.3261,0.328927,,,,,,,0.112288,-0.018149,0.020506,0.024179,-3.8e-05,-0.00025
382360,0.113873,-0.017354,0.010346,0.087266,-0.0,-0.0,3.0,0.3261,0.322293,0.3261,0.329848,,,,,,,0.112289,-0.01815,0.020501,0.048388,-3.8e-05,-0.000262
382380,0.114239,-0.017234,0.010342,0.087266,-0.0,-0.0,3.0,0.3261,0.326649,0.3261,0.32555,,,,,,,0.112776,-0.018151,0.020496,0.024349,-2.5e-05,-0.000262
382400,0.114603,-0.017601,0.010365,0.087266,-0.0,-0.0,3.0,0.3261,0.331688,0.3261,0.320379,,,,,,,0.113504,-0.018152,0.020491,-0.048271,-6.2e-05,-0.000259
382420,0.115462,-0.017842,0.010266,0.087266,-0.0,-0.0,3.0,0.3261,0.338391,0.3261,0.313145,,,,,,,0.114364,-0.018154,0.020486,-0.048249,-8.6e-05,-0.000268
382440,0.11668,-0.01809,0.010289,0.087266,-0.0,-0.0,3.0,0.3261,0.341611,0.3261,0.309516,,,,,,,0.115215,-0.018155,0.02048,0.024633,-0.000111,-0.000265
382460,0.117783,-0.018095,0.010299,0.087266,-0.0,-0.0,3.0,0.3261,0.340865,0.3261,0.310366,,,,,,,0.116077,-0.018157,0.020475,0.072906,-0.000111,-0.000264
382480,0.118883,-0.017848,0.010171,0.087266,-0.0,-0.0,3.0,0.3261,0.33711,0.3261,0.314561,,,,,,,0.116811,-0.018159,0.02047,0.145653,-8.6e-05,-0.000276
382500,0.119866,-0.017609,0.010166,0.087266,-0.0,-0.0,3.0,0.3261,0.333408,0.3261,0.318563,,,,,,,0.117665,-0.01816,0.020464,0.171343,-6.2e-05,-0.000276
382520,0.120722,-0.017361,0.010035,0.087266,-0.0,-0.0,3.0,0.3261,0.33343,0.3261,0.31854,,,,,,,0.118893,-0.018162,0.020458,0.097113,-3.7e-05,-0.000289
382540,0.121582,-0.017601,0.009936,0.087266,-0.0,-0.0,3.0,0.3261,0.337396,0.3261,0.314247,,,,,,,0.120239,-0.018163,0.020453,0.00037,-6.1e-05,-0.000298
382560,0.122801,-0.017598,0.009824,0.087266,-0.0,-0.0,3.0,0.3261,0.340989,0.3261,0.310225,,,,,,,0.121579,-0.018165,0.020447,-0.023677,-6.1e-05,-0.000309
382580,0.124026,-0.017847,0.009849,0.087266,-0.0,-0.0,3.0,0.3261,0.342087,0.3261,0.30897,,,,,,,0.122561,-0.018166,0.020441,0.02463,-8.5e-05,-0.000305
382600,0.125001,-0.017964,0.009743,0.087266,-0.0,-0.0,3.0,0.3261,0.347099,0.3261,0.30308,,,,,,,0.123657,-0.018168,0.020435,0.000592,-9.7e-05,-0.000316
382620,0.125861,-0.017968,0.009751,0.087266,-0.0,-0.0,3.0,0.3261,0.345486,0.3261,0.305006,,,,,,,0.124274,-0.018169,0.020428,0.049003,-9.7e-05,-0.000314
382640,0.126592,-0.01797,0.009756,0.087266,-0.0,-0.0,3.0,0.3261,0.339315,0.3261,0.312115,,,,,,,0.124642,-0.018171,0.020422,0.121362,-9.7e-05,-0.000313
382660,0.126838,-0.017841,0.009629,0.087266,-0.0,-0.0,3.0,0.3261,0.332409,0.3261,0.319622,,,,,,,0.12489,-0.018173,0.020415,0.120963,-8.4e-05,-0.000325
382680,0.12696,-0.01772,0.009622,0.087266,-0.0,-0.0,3.0,0.3261,0.330739,0.3261,0.321371,,,,,,,0.125378,-0.018174,0.020409,0.048101,-7.2e-05,-0.000325
382700,0.126962,-0.01759,0.009492,0.087266,-0.0,-0.0,3.0,0.3261,0.332363,0.3261,0.31967,,,,,,,0.125864,-0.018176,0.020402,-0.048481,-5.9e-05,-0.000337
382720,0.127205,-0.017713,0.009502,0.087266,-0.0,-0.0,3.0,0.3261,0.336599,0.3261,0.315121,,,,,,,0.126238,-0.018177,0.020396,-0.07444,-7.1e-05,-0.000336
382740,0.127579,-0.017593,0.009498,0.087266,-0.0,-0.0,3.0,0.3261,0.340115,0.3261,0.311215,,,,,,,0.12648,-0.018179,0.020389,-0.04817,-5.9e-05,-0.000335
382760,0.127821,-0.017838,0.009516,0.087266,-0.0,-0.0,3.0,0.3261,0.340301,0.3261,0.311005,,,,,,,0.126477,-0.01818,0.020383,0.000554,-8.3e-05,-0.000333
382780,0.128063,-0.017968,0.009647,0.087266,-0.0,-0.0,3.0,0.3261,0.341895,0.3261,0.30919,,,,,,,0.12672,-0.018182,0.020376,0.000429,-9.6e-05,-0.000319
382800,0.128184,-0.01809,0.009656,0.087266,-0.0,-0.0,3.0,0.3261,0.337128,0.3261,0.314541,,,,,,,0.1266,-0.018184,0.02037,0.048494,-0.000108,-0.000318
382820,0.128428,-0.018091,0.009658,0.087266,-0.0,-0.0,3.0,0.3261,0.337555,0.3261,0.314071,,,,,,,0.126844,-0.018186,0.020363,0.048364,-0.000108,-0.000317
382840,0.12855,-0.017856,0.009765,0.087266,-0.0,-0.0,3.0,0.3261,0.33687,0.3261,0.314824,,,,,,,0.127089,-0.018187,0.020357,0.023903,-8.4e-05,-0.000306
382860,0.128916,-0.017735,0.00976,0.087266,-0.0,-0.0,3.0,0.3261,0.338759,0.3261,0.312736,,,,,,,0.127575,-0.018189,0.020351,1e-06,-7.2e-05,-0.000305
382880,0.129167,-0.017737,0.009763,0.087266,-0.0,-0.0,3.0,0.3261,0.336048,0.3261,0.315723,,,,,,,0.127697,-0.018191,0.020345,0.025755,-7.2e-05,-0.000304
382900,0.129159,-0.017858,0.009769,0.087266,-0.0,-0.0,3.0,0.3261,0.338151,0.3261,0.313412,,,,,,,0.127947,-0.018193,0.020339,-0.0257,-8.4e-05,-0.000303
382920,0.129167,-0.017973,0.009657,0.087266,-0.0,-0.0,3.0,0.3261,0.339826,0.3261,0.311541,,,,,,,0.128069,-0.018195,0.020333,-0.048293,-9.5e-05,-0.000314
382940,0.129289,-0.017973,0.009658,0.087266,-0.0,-0.0,3.0,0.3261,0.338012,0.3261,0.313566,,,,,,,0.127947,-0.018197,0.020326,0.000134,-9.5e-05,-0.000313
382960,0.129159,-0.017972,0.009655,0.087266,-0.0,-0.0,3.0,0.3261,0.336085,0.3261,0.315682,,,,,,,0.127821,-0.018198,0.02032,-0.000434,-9.5e-05,-0.000313
382980,0.128794,-0.018084,0.009539,0.087266,-0.0,-0.0,3.0,0.3261,0.337881,0.3261,0.313712,,,,,,,0.127698,-0.0182,0.020313,-0.048651,-0.000106,-0.000324
383000,0.128796,-0.017955,0.009409,0.087266,-0.0,-0.0,3.0,0.3261,0.340464,0.3261,0.31082,,,,,,,0.127576,-0.018202,0.020307,-0.02406,-9.2e-05,-0.000336
383020,0.128672,-0.018084,0.009538,0.087266,-0.0,-0.0,3.0,0.3261,0.336777,0.3261,0.314926,,,,,,,0.12721,-0.018204,0.0203,0.024136,-0.000105,-0.000323
383040,0.128551,-0.018084,0.009537,0.087266,-0.0,-0.0,3.0,0.3261,0.336669,0.3261,0.315044,,,,,,,0.126968,-0.018206,0.020294,0.048265,-0.000105,-0.000322
383060,0.128306,-0.018091,0.009657,0.087266,-0.0,-0.0,3.0,0.3261,0.335526,0.3261,0.316289,,,,,,,0.126844,-0.018208,0.020287,0.024033,-0.000106,-0.000309
383080,0.128063,-0.017968,0.009647,0.087266,-0.0,-0.0,3.0,0.3261,0.337142,0.3261,0.314525,,,,,,,0.126843,-0.01821,0.020281,-0.024171,-9.3e-05,-0.00031
383100,0.128061,-0.018098,0.009777,0.087266,-0.0,-0.0,3.0,0.3261,0.336004,0.3261,0.31577,,,,,,,0.126721,-0.018212,0.020275,-0.000232,-0.000106,-0.000296
383120,0.127941,-0.017854,0.00976,0.087266,-0.0,-0.0,3.0,0.3261,0.33349,0.3261,0.318476,,,,,,,0.126601,-0.018214,0.020269,-0.000267,-8.1e-05,-0.000297
383140,0.127818,-0.017975,0.009767,0.087266,-0.0,-0.0,3.0,0.3261,0.337146,0.3261,0.314522,,,,,,,0.126721,-0.018216,0.020263,-0.048456,-9.3e-05,-0.000296
383160,0.127818,-0.017975,0.009767,0.087266,-0.0,-0.0,3.0,0.3261,0.341206,0.3261,0.309978,,,,,,,0.12672,-0.018218,0.020257,-0.048386,-9.3e-05,-0.000295
383180,0.127817,-0.018219,0.009783,0.087266,-0.0,-0.0,3.0,0.3261,0.341111,0.3261,0.310087,,,,,,,0.126597,-0.01822,0.020251,-0.024166,-0.000117,-0.000293
383200,0.127816,-0.018341,0.009791,0.087266,-0.0,-0.0,3.0,0.3261,0.34194,0.3261,0.309139,,,,,,,0.126476,-0.018222,0.020246,-7.1e-05,-0.000129,-0.000292
383220,0.127572,-0.01834,0.009789,0.087266,-0.0,-0.0,3.0,0.3261,0.338591,0.3261,0.312923,,,,,,,0.126111,-0.018224,0.02024,0.024097,-0.000129,-0.000291
383240,0.127201,-0.018094,0.009769,0.087266,-0.0,-0.0,3.0,0.3261,0.334365,0.3261,0.317541,,,,,,,0.125617,-0.018226,0.020234,0.048293,-0.000104,-0.000293
383260,0.126592,-0.01797,0.009756,0.087266,-0.0,-0.0,3.0,0.3261,0.331435,0.3261,0.320645,,,,,,,0.125254,-0.018228,0.020228,-0.000432,-9.1e-05,-0.000293
383280,0.125983,-0.017968,0.009752,0.087266,-0.0,-0.0,3.0,0.3261,0.333559,0.3261,0.318403,,,,,,,0.125009,-0.01823,0.020222,-0.073089,-9.1e-05,-0.000293
383300,0.125619,-0.017959,0.009627,0.087266,-0.0,-0.0,3.0,0.3261,0.333444,0.3261,0.318525,,,,,,,0.124642,-0.018233,0.020216,-0.072601,-9e-05,-0.000305
383320,0.125244,-0.017965,0.009744,0.087266,-0.0,-0.0,3.0,0.3261,0.336698,0.3261,0.315012,,,,,,,0.124276,-0.018235,0.02021,-0.074258,-9e-05,-0.000293
383340,0.125001,-0.017964,0.009743,0.087266,-0.0,-0.0,3.0,0.3261,0.341659,0.3261,0.309461,,,,,,,0.124033,-0.018236,0.020204,-0.074212,-9e-05,-0.000293
383360,0.124635,-0.018085,0.009747,0.087266,-0.0,-0.0,3.0,0.3261,0.341341,0.3261,0.309825,,,,,,,0.123415,-0.018238,0.020199,-0.024097,-0.000102,-0.000291
383380,0.124268,-0.018091,0.009866,0.087266,-0.0,-0.0,3.0,0.3261,0.339946,0.3261,0.311406,,,,,,,0.122806,-0.01824,0.020193,0.024206,-0.000102,-0.000279
383400,0.123781,-0.017968,0.009855,0.087266,-0.0,-0.0,3.0,0.3261,0.334219,0.3261,0.317697,,,,,,,0.122076,-0.018241,0.020187,0.07267,-9e-05,-0.00028
383420,0.123165,-0.017964,0.009849,0.087266,-0.0,-0.0,3.0,0.3261,0.330396,0.3261,0.321726,,,,,,,0.121583,-0.018243,0.020181,0.047967,-8.9e-05,-0.00028
383440,0.122678,-0.017841,0.009838,0.087266,-0.0,-0.0,3.0,0.3261,0.330373,0.3261,0.321751,,,,,,,0.121339,-0.018245,0.020176,-0.000399,-7.7e-05,-0.00028
383460,0.122069,-0.017717,0.009826,0.087266,-0.0,-0.0,3.0,0.3261,0.334553,0.3261,0.317338,,,,,,,0.121216,-0.018247,0.02017,-0.097138,-6.4e-05,-0.000281
383480,0.121947,-0.017839,0.009832,0.087266,-0.0,-0.0,3.0,0.3261,0.337698,0.3261,0.313914,,,,,,,0.120971,-0.018248,0.020165,-0.072771,-7.6e-05,-0.00028
383500,0.12219,-0.017961,0.009841,0.087266,-0.0,-0.0,3.0,0.3261,0.340643,0.3261,0.310618,,,,,,,0.120848,-0.01825,0.020159,0.000133,-8.8e-05,-0.000278
383520,0.122067,-0.018205,0.009855,0.087266,-0.0,-0.0,3.0,0.3261,0.342455,0.3261,0.308548,,,,,,,0.120846,-0.018252,0.020154,-0.023936,-0.000112,-0.000276
383540,0.122066,-0.018326,0.009863,0.087266,-0.0,-0.0,3.0,0.3261,0.340639,0.3261,0.310623,,,,,,,0.120604,-0.018254,0.020148,0.0242,-0.000124,-0.000275
383560,0.121945,-0.018319,0.00974,0.087266,-0.0,-0.0,3.0,0.3261,0.336432,0.3261,0.315303,,,,,,,0.120239,-0.018256,0.020142,0.072769,-0.000123,-0.000287
383580,0.121703,-0.018074,0.009723,0.087266,-0.0,-0.0,3.0,0.3261,0.334372,0.3261,0.317533,,,,,,,0.120121,-0.018258,0.020137,0.048078,-9.9e-05,-0.000288
383600,0.121332,-0.017942,0.009589,0.087266,-0.0,-0.0,3.0,0.3261,0.33388,0.3261,0.31806,,,,,,,0.119993,-0.01826,0.020131,-0.000306,-8.5e-05,-0.0003
383620,0.120969,-0.01769,0.00945,0.087266,-0.0,-0.0,3.0,0.3261,0.333374,0.3261,0.318599,,,,,,,0.119749,-0.018262,0.020125,-0.024091,-6e-05,-0.000314
383640,0.120724,-0.017811,0.009456,0.087266,-0.0,-0.0,3.0,0.3261,0.336509,0.3261,0.31522,,,,,,,0.119627,-0.018264,0.020119,-0.048479,-7.2e-05,-0.000313
383660,0.120358,-0.017932,0.00946,0.087266,-0.0,-0.0,3.0,0.3261,0.340563,0.3261,0.310709,,,,,,,0.119503,-0.018266,0.020113,-0.096721,-8.4e-05,-0.000312
383680,0.120115,-0.018046,0.009344,0.087266,-0.0,-0.0,3.0,0.3261,0.338069,0.3261,0.313503,,,,,,,0.119016,-0.018268,0.020106,-0.048182,-9.5e-05,-0.000323
383700,0.119992,-0.018053,0.009465,0.087266,-0.0,-0.0,3.0,0.3261,0.337513,0.3261,0.314118,,,,,,,0.118651,-0.018269,0.0201,2.8e-05,-9.6e-05,-0.00031
383720,0.119627,-0.018052,0.009462,0.087266,-0.0,-0.0,3.0,0.3261,0.338868,0.3261,0.312614,,,,,,,0.118409,-0.018271,0.020094,-0.024628,-9.5e-05,-0.000309
383740,0.119384,-0.018044,0.009338,0.087266,-0.0,-0.0,3.0,0.3261,0.341026,0.3261,0.310184,,,,,,,0.118287,-0.018273,0.020087,-0.048469,-9.4e-05,-0.000321
383760,0.119255,-0.01792,0.009328,0.087266,-0.0,-0.0,3.0,0.3261,0.339115,0.3261,0.312339,,,,,,,0.117914,-0.018275,0.020081,0.000102,-8.2e-05,-0.000322
383780,0.11901,-0.018163,0.009341,0.087266,-0.0,-0.0,3.0,0.3261,0.336737,0.3261,0.31497,,,,,,,0.117549,-0.018276,0.020074,0.024043,-0.000106,-0.00032
383800,0.118767,-0.018041,0.009332,0.087266,-0.0,-0.0,3.0,0.3261,0.336867,0.3261,0.314827,,,,,,,0.117306,-0.018278,0.020068,0.024046,-9.3e-05,-0.00032
383820,0.118401,-0.018047,0.009451,0.087266,-0.0,-0.0,3.0,0.3261,0.33634,0.3261,0.315404,,,,,,,0.11706,-0.01828,0.020062,-0.0001,-9.4e-05,-0.000307
383840,0.118157,-0.017931,0.009564,0.087266,-0.0,-0.0,3.0,0.3261,0.337955,0.3261,0.313629,,,,,,,0.116938,-0.018282,0.020056,-0.024271,-8.2e-05,-0.000296
383860,0.118035,-0.017809,0.009555,0.087266,-0.0,-0.0,3.0,0.3261,0.335574,0.3261,0.316237,,,,,,,0.116695,-0.018284,0.02005,-7.1e-05,-7e-05,-0.000296
383880,0.117792,-0.017808,0.009554,0.087266,-0.0,-0.0,3.0,0.3261,0.335213,0.3261,0.316627,,,,,,,0.116452,-0.018285,0.020044,-0.000173,-7e-05,-0.000295
383900,0.117175,-0.017927,0.009554,0.087266,-0.0,-0.0,3.0,0.3261,0.340106,0.3261,0.311225,,,,,,,0.116326,-0.018287,0.020038,-0.098026,-8.1e-05,-0.000295
383920,0.11693,-0.01817,0.009567,0.087266,-0.0,-0.0,3.0,0.3261,0.342353,0.3261,0.308665,,,,,,,0.115961,-0.018289,0.020032,-0.074061,-0.000105,-0.000293
383940,0.116684,-0.018413,0.009579,0.087266,-0.0,-0.0,3.0,0.3261,0.338041,0.3261,0.313534,,,,,,,0.115223,-0.018291,0.020026,0.024115,-0.000129,-0.000291
383960,0.116198,-0.018289,0.009568,0.087266,-0.0,-0.0,3.0,0.3261,0.336778,0.3261,0.314926,,,,,,,0.114737,-0.018293,0.02002,0.023885,-0.000117,-0.000292
383980,0.115711,-0.018166,0.009557,0.087266,-0.0,-0.0,3.0,0.3261,0.335668,0.3261,0.316135,,,,,,,0.114249,-0.018295,0.020015,0.024144,-0.000104,-0.000292
384000,0.114974,-0.018034,0.009421,0.087266,-0.0,-0.0,3.0,0.3261,0.330105,0.3261,0.322028,,,,,,,0.113513,-0.018297,0.020008,0.023969,-9.1e-05,-0.000305
384020,0.114365,-0.018032,0.009416,0.087266,-0.0,-0.0,3.0,0.3261,0.330658,0.3261,0.321454,,,,,,,0.113148,-0.018299,0.020002,-0.024546,-9e-05,-0.000305
384040,0.114001,-0.018024,0.009291,0.087266,-0.0,-0.0,3.0,0.3261,0.335399,0.3261,0.316427,,,,,,,0.113025,-0.018301,0.019996,-0.072769,-8.9e-05,-0.000317
384060,0.113757,-0.018138,0.009175,0.087266,-0.0,-0.0,3.0,0.3261,0.336149,0.3261,0.315613,,,,,,,0.112781,-0.018304,0.01999,-0.072546,-0.000101,-0.000328
384080,0.113634,-0.018381,0.009188,0.087266,-0.0,-0.0,3.0,0.3261,0.341331,0.3261,0.309835,,,,,,,0.11278,-0.018306,0.019983,-0.09687,-0.000125,-0.000326
384100,0.113512,-0.018381,0.009187,0.087266,-0.0,-0.0,3.0,0.3261,0.341911,0.3261,0.309173,,,,,,,0.112414,-0.018308,0.019977,-0.048351,-0.000124,-0.000325
384120,0.11339,-0.018502,0.009193,0.087266,-0.0,-0.0,3.0,0.3261,0.341971,0.3261,0.309104,,,,,,,0.112048,-0.01831,0.01997,0.000174,-0.000136,-0.000324
384140,0.113024,-0.018501,0.00919,0.087266,-0.0,-0.0,3.0,0.3261,0.336809,0.3261,0.314891,,,,,,,0.111434,-0.018313,0.019964,0.049772,-0.000136,-0.000324
384160,0.112529,-0.018505,0.009306,0.087266,-0.0,-0.0,3.0,0.3261,0.332653,0.3261,0.319363,,,,,,,0.110825,-0.018315,0.019957,0.072372,-0.000136,-0.000311
384180,0.111676,-0.018381,0.009292,0.087266,-0.0,-0.0,3.0,0.3261,0.328582,0.3261,0.323592,,,,,,,0.110338,-0.018318,0.019951,-0.000522,-0.000124,-0.000312
384200,0.110944,-0.018385,0.009408,0.087266,-0.0,-0.0,3.0,0.3261,0.331227,0.3261,0.320862,,,,,,,0.10997,-0.01832,0.019945,-0.073129,-0.000124,-0.0003
384220,0.110572,-0.018261,0.009397,0.087266,-0.0,-0.0,3.0,0.3261,0.33398,0.3261,0.317954,,,,,,,0.109726,-0.018323,0.019939,-0.098623,-0.000111,-0.000301
384240,0.11045,-0.018146,0.009511,0.087266,-0.0,-0.0,3.0,0.3261,0.337142,0.3261,0.314526,,,,,,,0.109353,-0.018326,0.019933,-0.048505,-9.9e-05,-0.000289
384260,0.110083,-0.018388,0.009522,0.087266,-0.0,-0.0,3.0,0.3261,0.33962,0.3261,0.311773,,,,,,,0.108985,-0.018328,0.019927,-0.048324,-0.000123,-0.000287
384280,0.109715,-0.018637,0.009654,0.087266,-0.0,-0.0,3.0,0.3261,0.340595,0.3261,0.310672,,,,,,,0.108494,-0.01833,0.019922,-0.023976,-0.000148,-0.000273
384300,0.109347,-0.018765,0.00978,0.087266,-0.0,-0.0,3.0,0.3261,0.336187,0.3261,0.315571,,,,,,,0.107763,-0.018333,0.019916,0.048493,-0.00016,-0.00026
384320,0.10886,-0.018641,0.009769,0.087266,-0.0,-0.0,3.0,0.3261,0.330786,0.3261,0.321321,,,,,,,0.10715,-0.018335,0.019911,0.073685,-0.000148,-0.000261
384340,0.108245,-0.018516,0.009756,0.087266,-0.0,-0.0,3.0,0.3261,0.329117,0.3261,0.323046,,,,,,,0.106786,-0.018338,0.019906,0.023611,-0.000135,-0.000261
384360,0.107758,-0.018392,0.009745,0.087266,-0.0,-0.0,3.0,0.3261,0.331837,0.3261,0.320223,,,,,,,0.106663,-0.018341,0.019901,-0.048853,-0.000122,-0.000262
384380,0.107516,-0.018263,0.009615,0.087266,-0.0,-0.0,3.0,0.3261,0.335556,0.3261,0.316257,,,,,,,0.10654,-0.018344,0.019895,-0.072675,-0.000109,-0.000274
384400,0.10764,-0.018135,0.009487,0.087266,-0.0,-0.0,3.0,0.3261,0.337527,0.3261,0.314102,,,,,,,0.106418,-0.018347,0.01989,-0.023633,-9.6e-05,-0.000287
384420,0.107517,-0.018494,0.009384,0.087266,-0.0,-0.0,3.0,0.3261,0.338561,0.3261,0.312956,,,,,,,0.106296,-0.018349,0.019884,-0.023793,-0.000132,-0.000296
384440,0.107274,-0.018608,0.009267,0.087266,-0.0,-0.0,3.0,0.3261,0.340436,0.3261,0.310853,,,,,,,0.106174,-0.018352,0.019878,-0.047997,-0.000143,-0.000307
384460,0.107029,-0.01873,0.009271,0.087266,-0.0,-0.0,3.0,0.3261,0.336132,0.3261,0.315631,,,,,,,0.105689,-0.018354,0.019872,-0.000126,-0.000155,-0.000306
384480,0.106787,-0.018722,0.009147,0.087266,-0.0,-0.0,3.0,0.3261,0.336325,0.3261,0.31542,,,,,,,0.105447,-0.018357,0.019866,-0.000248,-0.000154,-0.000318
384500,0.106422,-0.018715,0.009023,0.087266,-0.0,-0.0,3.0,0.3261,0.33486,0.3261,0.317009,,,,,,,0.105083,-0.01836,0.019859,-0.000363,-0.000153,-0.00033
384520,0.106052,-0.018584,0.008889,0.087266,-0.0,-0.0,3.0,0.3261,0.333712,0.3261,0.31824,,,,,,,0.104712,-0.018363,0.019853,-9.8e-05,-0.000139,-0.000343
384540,0.105686,-0.018583,0.008886,0.087266,-0.0,-0.0,3.0,0.3261,0.333143,0.3261,0.318845,,,,,,,0.104346,-0.018366,0.019846,-7.9e-05,-0.000139,-0.000342
384560,0.105199,-0.018581,0.008882,0.087266,-0.0,-0.0,3.0,0.3261,0.333428,0.3261,0.318542,,,,,,,0.10398,-0.018369,0.019839,-0.024255,-0.000138,-0.000342
