time_ms,roll,pitch,yaw,reference_roll,reference_pitch,reference_yaw,reference_throttle,throttle_1,throttle_2,throttle_3,throttle_4,roll_predicted,pitch_predicted,yaw_predicted,roll_rate_predicted,pitch_rate_predicted,yaw_rate_predicted,value1,value2,value3,value4,value5,value6
318694,0.00098,-0.017939,-0.014035,0.0,-0.0,-0.0,3.0,0.3261,0.327164,0.3261,0.325032,,,,,,,0.000743,-0.019745,-0.010035,-0.071575,1.5e-05,1e-06
318714,0.000981,-0.018183,-0.013912,0.0,-0.0,-0.0,3.0,0.3261,0.330794,0.3261,0.321313,,,,,,,0.000719,-0.019745,-0.010036,-0.090297,3e-06,1e-06
318734,0.000981,-0.018183,-0.013912,0.0,-0.0,-0.0,3.0,0.3261,0.330412,0.3261,0.32171,,,,,,,0.000471,-0.019745,-0.010036,0.004634,-9e-06,1e-06
318754,0.000859,-0.018306,-0.013791,0.0,-0.0,-0.0,3.0,0.3261,0.322882,0.3261,0.329276,,,,,,,-0.000121,-0.019745,-0.010036,0.094927,-9e-06,1e-06
318774,0.00098,-0.018183,-0.01379,0.0,-0.0,-0.0,3.0,0.3261,0.318271,0.3261,0.333682,,,,,,,-0.00047,-0.019744,-0.010035,0.138102,1.5e-05,1.3e-05
318794,0.00098,-0.018183,-0.01379,0.0,-0.0,-0.0,3.0,0.3261,0.319839,0.3261,0.332202,,,,,,,-0.000352,-0.019744,-0.010035,-0.00207,1.5e-05,1.3e-05
318814,0.000856,-0.018062,-0.013669,0.0,-0.0,-0.0,3.0,0.3261,0.323259,0.3261,0.328908,,,,,,,-0.000239,-0.019744,-0.010035,-0.047364,2.7e-05,1.2e-05
318834,0.00049,-0.017943,-0.013795,0.0,-0.0,-0.0,3.0,0.3261,0.322409,0.3261,0.329736,,,,,,,-0.000231,-0.019744,-0.010034,-0.048718,2e-06,1.2e-05
318854,0.00049,-0.017943,-0.013795,0.0,-0.0,-0.0,3.0,0.3261,0.323099,0.3261,0.329065,,,,,,,-0.000227,-0.019744,-0.010034,0.020943,3e-06,1.3e-05
318874,0.000613,-0.018064,-0.013794,0.0,-0.0,-0.0,3.0,0.3261,0.326532,0.3261,0.325668,,,,,,,4e-06,-0.019744,-0.010034,-0.023388,-1e-05,2.5e-05
318894,0.000736,-0.018185,-0.013793,0.0,-0.0,-0.0,3.0,0.3261,0.329002,0.3261,0.323163,,,,,,,0.000111,-0.019743,-0.010033,-0.043939,-1e-05,2.5e-05
318914,0.000613,-0.018308,-0.013672,0.0,-0.0,-0.0,3.0,0.3261,0.327636,0.3261,0.324554,,,,,,,-1.2e-05,-0.019743,-0.010033,-0.020352,-1e-05,2.5e-05
318934,0.000491,-0.018187,-0.013673,0.0,-0.0,-0.0,3.0,0.3261,0.324997,0.3261,0.327198,,,,,,,-0.000246,-0.019743,-0.010033,0.047787,1.5e-05,2.5e-05
318954,0.000369,-0.01831,-0.013674,0.0,-0.0,-0.0,3.0,0.3261,0.321264,0.3261,0.330841,,,,,,,-0.000476,-0.019743,-0.010032,0.045122,1.5e-05,2.5e-05
318974,0.000612,-0.018064,-0.013672,0.0,-0.0,-0.0,3.0,0.3261,0.32219,0.3261,0.329948,,,,,,,-0.000602,-0.019743,-0.010032,0.046058,1.4e-05,1.2e-05
318994,0.000368,-0.018188,-0.013674,0.0,-0.0,-0.0,3.0,0.3261,0.322424,0.3261,0.329721,,,,,,,-0.000606,-0.019743,-0.010031,-0.023721,1.4e-05,1.2e-05
319014,0.000369,-0.018066,-0.013796,0.0,-0.0,-0.0,3.0,0.3261,0.323134,0.3261,0.32903,,,,,,,-0.000727,-0.019743,-0.010031,-0.000152,2e-06,1.2e-05
319034,0.000125,-0.018189,-0.013798,0.0,-0.0,-0.0,3.0,0.3261,0.320178,0.3261,0.331879,,,,,,,-0.000836,-0.019743,-0.010031,0.020839,2e-06,1.2e-05
319054,3e-06,-0.018068,-0.013799,0.0,-0.0,-0.0,3.0,0.3261,0.320308,0.3261,0.331756,,,,,,,-0.000832,-0.019743,-0.01003,0.019946,-1e-05,2.4e-05
319074,0.000125,-0.018189,-0.013798,0.0,-0.0,-0.0,3.0,0.3261,0.326436,0.3261,0.325764,,,,,,,-0.000487,-0.019742,-0.01003,-0.070061,2e-06,2.4e-05
319094,2e-06,-0.01819,-0.013677,0.0,-0.0,-0.0,3.0,0.3261,0.327458,0.3261,0.324735,,,,,,,-0.000493,-0.019742,-0.01003,-0.092334,2e-06,2.4e-05
319114,-0.000363,-0.018315,-0.013681,0.0,-0.0,-0.0,3.0,0.3261,0.328172,0.3261,0.324011,,,,,,,-0.000621,-0.019742,-0.010029,-0.020849,1.4e-05,2.4e-05
319134,-0.000485,-0.018316,-0.013682,0.0,-0.0,-0.0,3.0,0.3261,0.323492,0.3261,0.32868,,,,,,,-0.001095,-0.019742,-0.010029,0.070628,-1e-05,2.4e-05
319154,-0.000362,-0.018437,-0.013681,0.0,-0.0,-0.0,3.0,0.3261,0.320811,0.3261,0.331275,,,,,,,-0.001456,-0.019742,-0.010028,0.046054,-1.1e-05,2.3e-05
319174,-0.000484,-0.018438,-0.013682,0.0,-0.0,-0.0,3.0,0.3261,0.321289,0.3261,0.330817,,,,,,,-0.001708,-0.019743,-0.010028,0.000606,-1.1e-05,2.3e-05
319194,-0.000973,-0.018319,-0.013686,0.0,-0.0,-0.0,3.0,0.3261,0.320338,0.3261,0.331727,,,,,,,-0.001947,-0.019743,-0.010028,-0.047095,-2.3e-05,2.2e-05
319214,-0.001339,-0.018199,-0.013811,0.0,-0.0,-0.0,3.0,0.3261,0.317607,0.3261,0.334304,,,,,,,-0.002296,-0.019744,-0.010027,0.019926,-1.1e-05,1e-05
319234,-0.001706,-0.01808,-0.013815,0.0,-0.0,-0.0,3.0,0.3261,0.319322,0.3261,0.332692,,,,,,,-0.002297,-0.019744,-0.010027,-0.026806,-1.1e-05,1e-05
319254,-0.001829,-0.017959,-0.013816,0.0,-0.0,-0.0,3.0,0.3261,0.324143,0.3261,0.328042,,,,,,,-0.002316,-0.019744,-0.010027,-0.093885,1e-06,2.2e-05
319274,-0.002075,-0.01796,-0.013696,0.0,-0.0,-0.0,3.0,0.3261,0.328797,0.3261,0.323373,,,,,,,-0.00221,-0.019743,-0.010026,-0.091036,1.3e-05,2.2e-05
319294,-0.002196,-0.018083,-0.013697,0.0,-0.0,-0.0,3.0,0.3261,0.326899,0.3261,0.325299,,,,,,,-0.002577,-0.019743,-0.010026,-0.020453,1.3e-05,2.2e-05
319314,-0.002196,-0.018205,-0.013575,0.0,-0.0,-0.0,3.0,0.3261,0.323735,0.3261,0.328443,,,,,,,-0.002935,-0.019742,-0.010025,0.071663,1.3e-05,3.4e-05
319334,-0.002196,-0.018327,-0.013453,0.0,-0.0,-0.0,3.0,0.3261,0.319536,0.3261,0.332489,,,,,,,-0.00329,-0.019742,-0.010025,0.069672,1.3e-05,3.4e-05
319354,-0.002198,-0.018205,-0.013331,0.0,-0.0,-0.0,3.0,0.3261,0.3203,0.3261,0.331764,,,,,,,-0.003417,-0.019742,-0.010024,0.023226,2.5e-05,4.5e-05
319374,-0.002443,-0.018084,-0.013333,0.0,-0.0,-0.0,3.0,0.3261,0.31943,0.3261,0.33259,,,,,,,-0.003534,-0.019742,-0.010023,-0.024997,2.4e-05,5.7e-05
319394,-0.002812,-0.017721,-0.013336,0.0,-0.0,-0.0,3.0,0.3261,0.320408,0.3261,0.331661,,,,,,,-0.003531,-0.019742,-0.010022,-0.025759,3.7e-05,5.7e-05
319414,-0.002935,-0.017721,-0.013215,0.0,-0.0,-0.0,3.0,0.3261,0.320091,0.3261,0.331962,,,,,,,-0.003649,-0.019741,-0.01002,-0.026409,2.4e-05,5.7e-05
319434,-0.002936,-0.017599,-0.013214,0.0,-0.0,-0.0,3.0,0.3261,0.325036,0.3261,0.327159,,,,,,,-0.003421,-0.01974,-0.010019,-0.070367,2.4e-05,6.9e-05
319454,-0.003056,-0.017966,-0.013216,0.0,-0.0,-0.0,3.0,0.3261,0.325562,0.3261,0.326637,,,,,,,-0.003553,-0.01974,-0.010018,-0.044615,-0.0,6.9e-05
319474,-0.002935,-0.017965,-0.013093,0.0,-0.0,-0.0,3.0,0.3261,0.327076,0.3261,0.32512,,,,,,,-0.003561,-0.019739,-0.010016,0.00337,2.4e-05,8.1e-05
319494,-0.003177,-0.018211,-0.013095,0.0,-0.0,-0.0,3.0,0.3261,0.319487,0.3261,0.332537,,,,,,,-0.004032,-0.019738,-0.010014,0.046627,2.4e-05,9.3e-05
319514,-0.003057,-0.018088,-0.012972,0.0,-0.0,-0.0,3.0,0.3261,0.320258,0.3261,0.331804,,,,,,,-0.004154,-0.019737,-0.010013,0.046128,4.8e-05,0.000105
319534,-0.003182,-0.017844,-0.012851,0.0,-0.0,-0.0,3.0,0.3261,0.320927,0.3261,0.331164,,,,,,,-0.004156,-0.019737,-0.010011,-0.023828,7.2e-05,9.2e-05
319554,-0.003549,-0.017725,-0.012854,0.0,-0.0,-0.0,3.0,0.3261,0.320392,0.3261,0.331676,,,,,,,-0.004273,-0.019736,-0.010009,-0.024881,7.2e-05,9.2e-05
319574,-0.003552,-0.017235,-0.01285,0.0,-0.0,-0.0,3.0,0.3261,0.320541,0.3261,0.331533,,,,,,,-0.00439,-0.019735,-0.010007,0.021268,6e-05,9.2e-05
319594,-0.003672,-0.01748,-0.012852,0.0,-0.0,-0.0,3.0,0.3261,0.320485,0.3261,0.331587,,,,,,,-0.004392,-0.019734,-0.010005,-0.002038,4.8e-05,0.000104
319614,-0.003428,-0.017479,-0.01285,0.0,-0.0,-0.0,3.0,0.3261,0.32506,0.3261,0.327136,,,,,,,-0.004288,-0.019733,-0.010003,-0.045229,3.5e-05,0.000103
319634,-0.003428,-0.017602,-0.01273,0.0,-0.0,-0.0,3.0,0.3261,0.322859,0.3261,0.329298,,,,,,,-0.004408,-0.019732,-0.01,0.001173,2.3e-05,0.000115
319654,-0.003549,-0.017846,-0.012732,0.0,-0.0,-0.0,3.0,0.3261,0.320271,0.3261,0.331791,,,,,,,-0.004523,-0.019731,-0.009998,0.046588,2.3e-05,0.000127
319674,-0.003671,-0.017969,-0.012611,0.0,-0.0,-0.0,3.0,0.3261,0.320397,0.3261,0.331671,,,,,,,-0.004524,-0.01973,-0.009996,-0.000359,3.5e-05,0.000127
319694,-0.003549,-0.017968,-0.01261,0.0,-0.0,-0.0,3.0,0.3261,0.322204,0.3261,0.329934,,,,,,,-0.004402,-0.019729,-0.009993,-0.024403,7.2e-05,0.000139
319714,-0.003673,-0.017847,-0.012489,0.0,-0.0,-0.0,3.0,0.3261,0.322402,0.3261,0.329742,,,,,,,-0.004406,-0.019728,-0.00999,-0.023556,7.1e-05,0.000139
319734,-0.003675,-0.017602,-0.012486,0.0,-0.0,-0.0,3.0,0.3261,0.323697,0.3261,0.32848,,,,,,,-0.00441,-0.019727,-0.009988,0.000536,8.4e-05,0.000139
319754,-0.003553,-0.017479,-0.012485,0.0,-0.0,-0.0,3.0,0.3261,0.32356,0.3261,0.328614,,,,,,,-0.004409,-0.019725,-0.009985,0.000393,8.4e-05,0.000139
319774,-0.003554,-0.017357,-0.012484,0.0,-0.0,-0.0,3.0,0.3261,0.32144,0.3261,0.330672,,,,,,,-0.004525,-0.019724,-0.009983,0.023054,7.1e-05,0.000126
319794,-0.003433,-0.017234,-0.012483,0.0,-0.0,-0.0,3.0,0.3261,0.322473,0.3261,0.329674,,,,,,,-0.004404,-0.019723,-0.00998,0.023083,7.1e-05,0.000126
319814,-0.003554,-0.017357,-0.012484,0.0,-0.0,-0.0,3.0,0.3261,0.321514,0.3261,0.3306,,,,,,,-0.004404,-0.019722,-0.009977,-0.023444,4.6e-05,0.000125
319834,-0.003674,-0.01748,-0.012608,0.0,-0.0,-0.0,3.0,0.3261,0.323056,0.3261,0.329107,,,,,,,-0.004409,-0.01972,-0.009975,-0.045918,3.4e-05,0.000125
319854,-0.003673,-0.017725,-0.012611,0.0,-0.0,-0.0,3.0,0.3261,0.322173,0.3261,0.329964,,,,,,,-0.004529,-0.019719,-0.009972,0.000615,3.4e-05,0.000125
319874,-0.003672,-0.017847,-0.012611,0.0,-0.0,-0.0,3.0,0.3261,0.319689,0.3261,0.332345,,,,,,,-0.004642,-0.019718,-0.009969,0.045794,3.4e-05,0.000125
319894,-0.003427,-0.017968,-0.012609,0.0,-0.0,-0.0,3.0,0.3261,0.321953,0.3261,0.330177,,,,,,,-0.004529,-0.019717,-0.009967,0.023628,5.8e-05,0.000137
319914,-0.003306,-0.017845,-0.012608,0.0,-0.0,-0.0,3.0,0.3261,0.323453,0.3261,0.328719,,,,,,,-0.004291,-0.019716,-0.009964,-0.045818,7e-05,0.000136
319934,-0.00343,-0.0176,-0.012484,0.0,-0.0,-0.0,3.0,0.3261,0.320492,0.3261,0.331581,,,,,,,-0.004403,-0.019715,-0.009962,-0.001161,8.2e-05,0.000148
319954,-0.003554,-0.017479,-0.012363,0.0,-0.0,-0.0,3.0,0.3261,0.322682,0.3261,0.329471,,,,,,,-0.004157,-0.019713,-0.009959,-0.001569,9.5e-05,0.000148
319974,-0.003555,-0.017356,-0.012362,0.0,-0.0,-0.0,3.0,0.3261,0.323041,0.3261,0.329121,,,,,,,-0.004159,-0.019712,-0.009956,-0.047816,8.2e-05,0.000136
319994,-0.003433,-0.017356,-0.012361,0.0,-0.0,-0.0,3.0,0.3261,0.32599,0.3261,0.32621,,,,,,,-0.004047,-0.019711,-0.009954,-0.045768,7e-05,0.000136
320014,-0.003554,-0.017357,-0.012484,0.0,-0.0,-0.0,3.0,0.3261,0.324455,0.3261,0.327734,,,,,,,-0.004169,-0.01971,-0.009951,0.001652,3.3e-05,0.000135
320034,-0.003308,-0.017599,-0.012483,0.0,-0.0,-0.0,3.0,0.3261,0.32318,0.3261,0.328985,,,,,,,-0.004287,-0.019709,-0.009948,0.047855,3.3e-05,0.000135
320054,-0.003185,-0.017844,-0.012484,0.0,-0.0,-0.0,3.0,0.3261,0.319709,0.3261,0.332326,,,,,,,-0.004401,-0.019708,-0.009945,0.069859,2.1e-05,0.000135
320074,-0.003061,-0.017965,-0.012606,0.0,-0.0,-0.0,3.0,0.3261,0.319132,0.3261,0.332872,,,,,,,-0.004403,-0.019707,-0.009942,0.046762,2.1e-05,0.000134
320094,-0.003062,-0.017843,-0.012605,0.0,-0.0,-0.0,3.0,0.3261,0.318922,0.3261,0.33307,,,,,,,-0.004276,-0.019706,-0.00994,-0.001403,4.5e-05,0.000134
320114,-0.003185,-0.017843,-0.012482,0.0,-0.0,-0.0,3.0,0.3261,0.319741,0.3261,0.332295,,,,,,,-0.004153,-0.019705,-0.009937,-0.048795,6.9e-05,0.000134
320134,-0.00343,-0.0176,-0.012484,0.0,-0.0,-0.0,3.0,0.3261,0.321226,0.3261,0.330877,,,,,,,-0.00403,-0.019704,-0.009935,-0.049081,8.1e-05,0.000134
320154,-0.003553,-0.017479,-0.012485,0.0,-0.0,-0.0,3.0,0.3261,0.324266,0.3261,0.327921,,,,,,,-0.003916,-0.019703,-0.009932,-0.047394,6.9e-05,0.000133
320174,-0.003554,-0.017357,-0.012484,0.0,-0.0,-0.0,3.0,0.3261,0.326919,0.3261,0.325279,,,,,,,-0.003804,-0.019702,-0.009929,-0.045432,6.9e-05,0.000133
320194,-0.003309,-0.017477,-0.012483,0.0,-0.0,-0.0,3.0,0.3261,0.325699,0.3261,0.326501,,,,,,,-0.004052,-0.0197,-0.009927,0.02605,4.5e-05,0.000133
320214,-0.003186,-0.017721,-0.012482,0.0,-0.0,-0.0,3.0,0.3261,0.324118,0.3261,0.328067,,,,,,,-0.004174,-0.019699,-0.009924,0.073089,3.3e-05,0.000133
320234,-0.003184,-0.017721,-0.012604,0.0,-0.0,-0.0,3.0,0.3261,0.316667,0.3261,0.335177,,,,,,,-0.004644,-0.019699,-0.009921,0.116707,2e-05,0.000132
320254,-0.003186,-0.017721,-0.012482,0.0,-0.0,-0.0,3.0,0.3261,0.317477,0.3261,0.334424,,,,,,,-0.004518,-0.019698,-0.009919,0.02177,4.4e-05,0.000132
320274,-0.003186,-0.017721,-0.012482,0.0,-0.0,-0.0,3.0,0.3261,0.318836,0.3261,0.333152,,,,,,,-0.004396,-0.019697,-0.009916,-0.025172,4.4e-05,0.000132
320294,-0.003552,-0.017723,-0.012485,0.0,-0.0,-0.0,3.0,0.3261,0.319894,0.3261,0.33215,,,,,,,-0.004274,-0.019696,-0.009914,-0.025078,4.4e-05,0.000119
320314,-0.003673,-0.017602,-0.012608,0.0,-0.0,-0.0,3.0,0.3261,0.320839,0.3261,0.331249,,,,,,,-0.004274,-0.019695,-0.009911,-0.025358,5.6e-05,0.000131
320334,-0.003673,-0.017725,-0.012611,0.0,-0.0,-0.0,3.0,0.3261,0.32473,0.3261,0.327462,,,,,,,-0.004039,-0.019694,-0.009909,-0.046861,4.4e-05,0.000131
320354,-0.00343,-0.017722,-0.012484,0.0,-0.0,-0.0,3.0,0.3261,0.327338,0.3261,0.324856,,,,,,,-0.004058,-0.019693,-0.009906,-0.043352,4.4e-05,0.000131
320374,-0.003552,-0.017723,-0.012485,0.0,-0.0,-0.0,3.0,0.3261,0.325044,0.3261,0.327152,,,,,,,-0.004175,-0.019692,-0.009903,0.002944,3.2e-05,0.000131
320394,-0.003552,-0.017723,-0.012485,0.0,-0.0,-0.0,3.0,0.3261,0.321987,0.3261,0.330144,,,,,,,-0.00441,-0.019691,-0.009901,0.047974,4.4e-05,0.00013
320414,-0.003429,-0.017844,-0.012484,0.0,-0.0,-0.0,3.0,0.3261,0.318021,0.3261,0.333917,,,,,,,-0.00464,-0.01969,-0.009898,0.068633,5.6e-05,0.000118
320434,-0.003429,-0.0176,-0.012606,0.0,-0.0,-0.0,3.0,0.3261,0.319611,0.3261,0.332419,,,,,,,-0.004522,-0.019689,-0.009896,0.022448,5.6e-05,0.000117
320454,-0.003551,-0.017601,-0.012607,0.0,-0.0,-0.0,3.0,0.3261,0.320383,0.3261,0.331685,,,,,,,-0.004525,-0.019689,-0.009894,-0.023775,5.5e-05,0.000117
320474,-0.003551,-0.017723,-0.012607,0.0,-0.0,-0.0,3.0,0.3261,0.320438,0.3261,0.331632,,,,,,,-0.004647,-0.019688,-0.009891,-0.000185,3.1e-05,0.000116
320494,-0.003672,-0.017847,-0.012611,0.0,-0.0,-0.0,3.0,0.3261,0.31912,0.3261,0.332883,,,,,,,-0.004639,-0.019687,-0.009889,0.022032,1.8e-05,0.000116
320514,-0.003794,-0.017848,-0.012612,0.0,-0.0,-0.0,3.0,0.3261,0.319175,0.3261,0.332831,,,,,,,-0.004639,-0.019687,-0.009886,-0.001424,6e-06,0.000116
320534,-0.003672,-0.017847,-0.012611,0.0,-0.0,-0.0,3.0,0.3261,0.323206,0.3261,0.32896,,,,,,,-0.004404,-0.019686,-0.009884,-0.046915,3.1e-05,0.000116
320554,-0.003793,-0.018092,-0.012612,0.0,-0.0,-0.0,3.0,0.3261,0.324226,0.3261,0.32796,,,,,,,-0.004286,-0.019685,-0.009882,-0.069375,1.8e-05,0.000115
320574,-0.003795,-0.017726,-0.012612,0.0,-0.0,-0.0,3.0,0.3261,0.325368,0.3261,0.32683,,,,,,,-0.004291,-0.019685,-0.00988,-0.021866,5.5e-05,0.000116
320594,-0.003916,-0.017849,-0.012613,0.0,-0.0,-0.0,3.0,0.3261,0.323399,0.3261,0.328771,,,,,,,-0.004409,-0.019684,-0.009877,0.024309,4.3e-05,0.000115
320614,-0.003673,-0.017725,-0.012611,0.0,-0.0,-0.0,3.0,0.3261,0.322788,0.3261,0.329368,,,,,,,-0.004531,-0.019683,-0.009875,0.047922,5.5e-05,0.000103
320634,-0.003428,-0.017845,-0.012609,0.0,-0.0,-0.0,3.0,0.3261,0.321107,0.3261,0.330991,,,,,,,-0.004653,-0.019682,-0.009873,0.047911,5.5e-05,0.000103
320654,-0.003551,-0.017601,-0.012607,0.0,-0.0,-0.0,3.0,0.3261,0.318801,0.3261,0.333184,,,,,,,-0.004769,-0.019681,-0.009871,0.046715,4.2e-05,0.000115
320674,-0.003795,-0.017726,-0.012612,0.0,-0.0,-0.0,3.0,0.3261,0.315174,0.3261,0.33655,,,,,,,-0.004999,-0.019681,-0.009868,0.020574,3e-05,0.000114
320694,-0.004039,-0.017727,-0.012614,0.0,-0.0,-0.0,3.0,0.3261,0.316146,0.3261,0.335658,,,,,,,-0.004995,-0.01968,-0.009866,-0.003581,1.7e-05,0.000114
320714,-0.004405,-0.017852,-0.012617,0.0,-0.0,-0.0,3.0,0.3261,0.318729,0.3261,0.333252,,,,,,,-0.005004,-0.01968,-0.009864,-0.07222,1.7e-05,0.000113
320734,-0.004649,-0.017853,-0.012619,0.0,-0.0,-0.0,3.0,0.3261,0.322483,0.3261,0.329664,,,,,,,-0.005014,-0.019679,-0.009862,-0.070239,1.7e-05,0.000113
320754,-0.004894,-0.017733,-0.012621,0.0,-0.0,-0.0,3.0,0.3261,0.324409,0.3261,0.327779,,,,,,,-0.00502,-0.019678,-0.009859,-0.045695,2.9e-05,0.000113
320774,-0.004892,-0.017977,-0.012622,0.0,-0.0,-0.0,3.0,0.3261,0.323212,0.3261,0.328954,,,,,,,-0.005392,-0.019677,-0.009857,0.002072,4.1e-05,0.000112
320794,-0.00477,-0.017976,-0.012621,0.0,-0.0,-0.0,3.0,0.3261,0.321271,0.3261,0.330834,,,,,,,-0.005757,-0.019677,-0.009855,0.048507,5.3e-05,0.000124
320814,-0.005016,-0.017855,-0.012501,0.0,-0.0,-0.0,3.0,0.3261,0.318879,0.3261,0.333111,,,,,,,-0.005996,-0.019676,-0.009853,0.047611,6.5e-05,0.000112
320834,-0.005139,-0.017734,-0.012501,0.0,-0.0,-0.0,3.0,0.3261,0.316042,0.3261,0.335754,,,,,,,-0.006352,-0.019675,-0.00985,0.045676,5.3e-05,0.000111
320854,-0.005383,-0.017735,-0.012504,0.0,-0.0,-0.0,3.0,0.3261,0.315055,0.3261,0.33666,,,,,,,-0.006465,-0.019674,-0.009848,0.020439,5.3e-05,0.000111
320874,-0.00575,-0.017615,-0.012506,0.0,-0.0,-0.0,3.0,0.3261,0.315574,0.3261,0.336184,,,,,,,-0.006585,-0.019674,-0.009846,-0.003291,4e-05,0.00011
320894,-0.005871,-0.017617,-0.01263,0.0,-0.0,-0.0,3.0,0.3261,0.320091,0.3261,0.331963,,,,,,,-0.006472,-0.019673,-0.009843,-0.048091,1.6e-05,0.00011
320914,-0.005994,-0.017495,-0.01263,0.0,-0.0,-0.0,3.0,0.3261,0.322301,0.3261,0.32984,,,,,,,-0.006482,-0.019673,-0.009841,-0.069639,1.6e-05,0.000109
320934,-0.005992,-0.017739,-0.012631,0.0,-0.0,-0.0,3.0,0.3261,0.323019,0.3261,0.329143,,,,,,,-0.006611,-0.019672,-0.009839,-0.021146,3e-06,0.000109
320954,-0.006233,-0.018229,-0.012635,0.0,-0.0,-0.0,3.0,0.3261,0.31946,0.3261,0.332562,,,,,,,-0.006975,-0.019671,-0.009836,0.025496,-9e-06,0.000109
320974,-0.006233,-0.018351,-0.012635,0.0,-0.0,-0.0,3.0,0.3261,0.317566,0.3261,0.334342,,,,,,,-0.007209,-0.019671,-0.009834,0.046644,3e-06,0.000121
320994,-0.006112,-0.018228,-0.012511,0.0,-0.0,-0.0,3.0,0.3261,0.317168,0.3261,0.334712,,,,,,,-0.007205,-0.01967,-0.009832,-0.001721,4e-05,0.000133
321014,-0.006235,-0.018107,-0.012512,0.0,-0.0,-0.0,3.0,0.3261,0.317803,0.3261,0.33412,,,,,,,-0.007209,-0.01967,-0.009829,-0.048134,5.2e-05,0.000132
321034,-0.006482,-0.017864,-0.012391,0.0,-0.0,-0.0,3.0,0.3261,0.321292,0.3261,0.330814,,,,,,,-0.007095,-0.019669,-0.009827,-0.046405,6.4e-05,0.00012
321054,-0.006606,-0.017498,-0.012391,0.0,-0.0,-0.0,3.0,0.3261,0.320542,0.3261,0.331533,,,,,,,-0.007085,-0.019669,-0.009825,-0.001426,6.4e-05,0.00012
321074,-0.006484,-0.017498,-0.01239,0.0,-0.0,-0.0,3.0,0.3261,0.322208,0.3261,0.32993,,,,,,,-0.006967,-0.019668,-0.009822,-0.000481,5.2e-05,0.00012
321094,-0.006118,-0.017495,-0.012387,0.0,-0.0,-0.0,3.0,0.3261,0.323713,0.3261,0.328464,,,,,,,-0.006981,-0.019667,-0.00982,0.002434,2.7e-05,0.000119
321114,-0.006239,-0.01774,-0.012389,0.0,-0.0,-0.0,3.0,0.3261,0.321559,0.3261,0.330558,,,,,,,-0.007103,-0.019667,-0.009817,0.026326,3e-06,0.000119
321134,-0.006483,-0.017742,-0.012391,0.0,-0.0,-0.0,3.0,0.3261,0.315132,0.3261,0.336589,,,,,,,-0.007575,-0.019666,-0.009814,0.069837,1.5e-05,0.000119
321154,-0.006357,-0.018108,-0.012513,0.0,-0.0,-0.0,3.0,0.3261,0.314349,0.3261,0.337303,,,,,,,-0.007688,-0.019665,-0.009812,0.044705,2e-06,0.00013
321174,-0.006358,-0.017985,-0.012513,0.0,-0.0,-0.0,3.0,0.3261,0.316077,0.3261,0.335722,,,,,,,-0.007571,-0.019665,-0.009809,-0.024817,1.4e-05,0.000118
321194,-0.006601,-0.018109,-0.012515,0.0,-0.0,-0.0,3.0,0.3261,0.318182,0.3261,0.333765,,,,,,,-0.007453,-0.019664,-0.009807,-0.023907,1.4e-05,0.000118
321214,-0.006603,-0.017865,-0.012515,0.0,-0.0,-0.0,3.0,0.3261,0.319714,0.3261,0.332321,,,,,,,-0.007331,-0.019664,-0.009804,-0.02434,2.7e-05,0.00013
321234,-0.006603,-0.017865,-0.012515,0.0,-0.0,-0.0,3.0,0.3261,0.320289,0.3261,0.331774,,,,,,,-0.00721,-0.019664,-0.009802,-0.024323,3.9e-05,0.00013
321254,-0.006481,-0.017864,-0.012514,0.0,-0.0,-0.0,3.0,0.3261,0.322358,0.3261,0.329785,,,,,,,-0.007097,-0.019663,-0.009799,-0.022542,3.9e-05,0.000129
321274,-0.006482,-0.017864,-0.012391,0.0,-0.0,-0.0,3.0,0.3261,0.323265,0.3261,0.328902,,,,,,,-0.006978,-0.019662,-0.009797,-0.045344,3.9e-05,0.000129
321294,-0.006483,-0.017742,-0.012391,0.0,-0.0,-0.0,3.0,0.3261,0.32295,0.3261,0.32921,,,,,,,-0.007105,-0.019662,-0.009795,-0.021014,3.9e-05,0.000129
321314,-0.006606,-0.017742,-0.01227,0.0,-0.0,-0.0,3.0,0.3261,0.321477,0.3261,0.330636,,,,,,,-0.007222,-0.019661,-0.009792,0.001574,3.9e-05,0.000129
321334,-0.006604,-0.017864,-0.012393,0.0,-0.0,-0.0,3.0,0.3261,0.31775,0.3261,0.334169,,,,,,,-0.007578,-0.01966,-0.00979,0.070426,2.6e-05,0.000116
321354,-0.006483,-0.017742,-0.012391,0.0,-0.0,-0.0,3.0,0.3261,0.318141,0.3261,0.333804,,,,,,,-0.007579,-0.01966,-0.009787,0.070486,3.9e-05,0.000116
321374,-0.006359,-0.017863,-0.012512,0.0,-0.0,-0.0,3.0,0.3261,0.316591,0.3261,0.335247,,,,,,,-0.007701,-0.019659,-0.009785,0.023621,2.6e-05,0.000115
321394,-0.00636,-0.017741,-0.012512,0.0,-0.0,-0.0,3.0,0.3261,0.317791,0.3261,0.334132,,,,,,,-0.007579,-0.019659,-0.009782,-0.02356,2.6e-05,0.000127
321414,-0.006482,-0.017742,-0.012513,0.0,-0.0,-0.0,3.0,0.3261,0.31461,0.3261,0.337065,,,,,,,-0.007687,-0.019658,-0.00978,0.020896,1.4e-05,0.000127
321434,-0.006726,-0.017744,-0.012515,0.0,-0.0,-0.0,3.0,0.3261,0.314941,0.3261,0.336763,,,,,,,-0.007562,-0.019657,-0.009777,-0.003354,3.8e-05,0.000115
321454,-0.006726,-0.017744,-0.012515,0.0,-0.0,-0.0,3.0,0.3261,0.318076,0.3261,0.333865,,,,,,,-0.007448,-0.019656,-0.009775,-0.048543,2.6e-05,0.000114
321474,-0.006603,-0.017865,-0.012515,0.0,-0.0,-0.0,3.0,0.3261,0.325848,0.3261,0.326352,,,,,,,-0.006983,-0.019656,-0.009773,-0.091018,2.6e-05,0.000114
321494,-0.006724,-0.017866,-0.012638,0.0,-0.0,-0.0,3.0,0.3261,0.324735,0.3261,0.327458,,,,,,,-0.006982,-0.019655,-0.00977,-0.020658,1.4e-05,0.000114
321514,-0.006602,-0.017987,-0.012515,0.0,-0.0,-0.0,3.0,0.3261,0.32187,0.3261,0.330257,,,,,,,-0.007223,-0.019654,-0.009768,0.048939,3.8e-05,0.000114
321534,-0.006358,-0.017985,-0.012513,0.0,-0.0,-0.0,3.0,0.3261,0.319753,0.3261,0.332284,,,,,,,-0.00734,-0.019654,-0.009766,0.071338,3.8e-05,0.000114
321554,-0.00636,-0.017741,-0.012512,0.0,-0.0,-0.0,3.0,0.3261,0.317797,0.3261,0.334126,,,,,,,-0.007462,-0.019653,-0.009764,0.024288,5e-05,0.000114
321574,-0.006483,-0.01762,-0.012391,0.0,-0.0,-0.0,3.0,0.3261,0.315038,0.3261,0.336675,,,,,,,-0.007697,-0.019652,-0.009762,0.02233,6.2e-05,0.000113
321594,-0.006729,-0.017377,-0.012392,0.0,-0.0,-0.0,3.0,0.3261,0.314467,0.3261,0.337195,,,,,,,-0.007814,-0.019652,-0.009759,0.021178,7.4e-05,0.000113
321614,-0.007095,-0.017379,-0.012395,0.0,-0.0,-0.0,3.0,0.3261,0.313174,0.3261,0.338365,,,,,,,-0.007926,-0.01965,-0.009757,-0.004217,6.2e-05,0.000125
321634,-0.007217,-0.01738,-0.012396,0.0,-0.0,-0.0,3.0,0.3261,0.316674,0.3261,0.335171,,,,,,,-0.007936,-0.01965,-0.009754,-0.025365,2.5e-05,0.000124
321654,-0.007095,-0.017501,-0.012396,0.0,-0.0,-0.0,3.0,0.3261,0.321715,0.3261,0.330407,,,,,,,-0.007708,-0.019649,-0.009752,-0.069268,2.5e-05,0.000124
321674,-0.007093,-0.017745,-0.012396,0.0,-0.0,-0.0,3.0,0.3261,0.321996,0.3261,0.330135,,,,,,,-0.007714,-0.019648,-0.009749,-0.020957,1.3e-05,0.000124
321694,-0.007092,-0.01799,-0.012397,0.0,-0.0,-0.0,3.0,0.3261,0.318197,0.3261,0.333752,,,,,,,-0.00795,-0.019647,-0.009746,0.047754,1.3e-05,0.000136
321714,-0.006847,-0.01811,-0.012396,0.0,-0.0,-0.0,3.0,0.3261,0.316423,0.3261,0.335402,,,,,,,-0.008066,-0.019646,-0.009744,0.069966,2.5e-05,0.000136
321734,-0.006725,-0.018109,-0.012394,0.0,-0.0,-0.0,3.0,0.3261,0.316572,0.3261,0.335265,,,,,,,-0.007818,-0.019645,-0.009741,-0.001712,6.1e-05,0.000135
321754,-0.006482,-0.017864,-0.012391,0.0,-0.0,-0.0,3.0,0.3261,0.319328,0.3261,0.332686,,,,,,,-0.007582,-0.019644,-0.009739,-0.023718,7.3e-05,0.000135
321774,-0.006728,-0.017743,-0.012271,0.0,-0.0,-0.0,3.0,0.3261,0.319804,0.3261,0.332235,,,,,,,-0.007336,-0.019644,-0.009736,-0.047542,7.3e-05,0.000135
321794,-0.006487,-0.017253,-0.012267,0.0,-0.0,-0.0,3.0,0.3261,0.322862,0.3261,0.329295,,,,,,,-0.007096,-0.019643,-0.009734,0.000382,7.4e-05,0.000123
321814,-0.006364,-0.017374,-0.012267,0.0,-0.0,-0.0,3.0,0.3261,0.321767,0.3261,0.330357,,,,,,,-0.006973,-0.019642,-0.009731,0.000236,7.4e-05,0.000123
321834,-0.00612,-0.01725,-0.012262,0.0,-0.0,-0.0,3.0,0.3261,0.322357,0.3261,0.329786,,,,,,,-0.006984,-0.019641,-0.009729,0.026097,4.9e-05,0.000123
321854,-0.005998,-0.017372,-0.012264,0.0,-0.0,-0.0,3.0,0.3261,0.320554,0.3261,0.331522,,,,,,,-0.006979,-0.01964,-0.009726,0.048744,2.5e-05,0.000135
321874,-0.005998,-0.017494,-0.012142,0.0,-0.0,-0.0,3.0,0.3261,0.315445,0.3261,0.336302,,,,,,,-0.007211,-0.019639,-0.009723,0.069447,3.7e-05,0.000147
321894,-0.005752,-0.017737,-0.01214,0.0,-0.0,-0.0,3.0,0.3261,0.314904,0.3261,0.336797,,,,,,,-0.007208,-0.019637,-0.00972,0.045429,3.7e-05,0.000146
321914,-0.005753,-0.017614,-0.01214,0.0,-0.0,-0.0,3.0,0.3261,0.315927,0.3261,0.33586,,,,,,,-0.006965,-0.019636,-0.009717,-0.025031,4.9e-05,0.000146
321934,-0.005875,-0.017615,-0.012141,0.0,-0.0,-0.0,3.0,0.3261,0.316717,0.3261,0.335131,,,,,,,-0.006844,-0.019635,-0.009714,-0.024878,4.9e-05,0.000146
321954,-0.005998,-0.017494,-0.012142,0.0,-0.0,-0.0,3.0,0.3261,0.317723,0.3261,0.334195,,,,,,,-0.006721,-0.019634,-0.009711,-0.02511,6.1e-05,0.000145
321974,-0.005996,-0.017616,-0.012264,0.0,-0.0,-0.0,3.0,0.3261,0.319521,0.3261,0.332504,,,,,,,-0.006604,-0.019633,-0.009708,-0.024175,6.1e-05,0.000145
321994,-0.005996,-0.017616,-0.012264,0.0,-0.0,-0.0,3.0,0.3261,0.320909,0.3261,0.331182,,,,,,,-0.006485,-0.019632,-0.009706,-0.023414,4.8e-05,0.000145
322014,-0.005875,-0.017493,-0.012263,0.0,-0.0,-0.0,3.0,0.3261,0.322073,0.3261,0.330061,,,,,,,-0.006494,-0.019631,-0.009703,-0.02172,4.8e-05,0.000145
322034,-0.005754,-0.017492,-0.01214,0.0,-0.0,-0.0,3.0,0.3261,0.323492,0.3261,0.328681,,,,,,,-0.006376,-0.01963,-0.0097,0.002712,6.1e-05,0.000133
322054,-0.00563,-0.017491,-0.012259,0.0,-0.0,-0.0,3.0,0.3261,0.322019,0.3261,0.330113,,,,,,,-0.006244,-0.019628,-0.009697,-0.046072,6e-05,0.000132
322074,-0.005386,-0.017489,-0.012256,0.0,-0.0,-0.0,3.0,0.3261,0.318499,0.3261,0.333469,,,,,,,-0.006483,-0.019627,-0.009695,0.070518,6e-05,0.00012
322094,-0.005021,-0.017243,-0.012375,0.0,-0.0,-0.0,3.0,0.3261,0.318316,0.3261,0.33364,,,,,,,-0.006361,-0.019626,-0.009693,0.070346,7.3e-05,0.00012
322114,-0.005019,-0.017488,-0.012375,0.0,-0.0,-0.0,3.0,0.3261,0.316325,0.3261,0.335493,,,,,,,-0.006361,-0.019625,-0.00969,0.023512,6e-05,0.00012
322134,-0.005021,-0.017243,-0.012375,0.0,-0.0,-0.0,3.0,0.3261,0.317551,0.3261,0.334355,,,,,,,-0.006239,-0.019623,-0.009687,-0.000221,7.2e-05,0.000132
322154,-0.005265,-0.017367,-0.012255,0.0,-0.0,-0.0,3.0,0.3261,0.314024,0.3261,0.337598,,,,,,,-0.006348,-0.019622,-0.009685,-0.002792,6e-05,0.000131
322174,-0.005267,-0.017244,-0.012133,0.0,-0.0,-0.0,3.0,0.3261,0.31526,0.3261,0.336472,,,,,,,-0.006223,-0.019621,-0.009682,-0.027025,7.2e-05,0.000143
322194,-0.005388,-0.017367,-0.012134,0.0,-0.0,-0.0,3.0,0.3261,0.31307,0.3261,0.338459,,,,,,,-0.006344,-0.019619,-0.009679,0.019727,7.2e-05,0.000143
322214,-0.005144,-0.017366,-0.012132,0.0,-0.0,-0.0,3.0,0.3261,0.324631,0.3261,0.32756,,,,,,,-0.005642,-0.019617,-0.009677,-0.068618,7.2e-05,0.000155
322234,-0.005266,-0.017366,-0.012133,0.0,-0.0,-0.0,3.0,0.3261,0.322941,0.3261,0.329218,,,,,,,-0.005642,-0.019616,-0.009674,-0.021574,7.2e-05,0.000155
322254,-0.004899,-0.017486,-0.01213,0.0,-0.0,-0.0,3.0,0.3261,0.322979,0.3261,0.329181,,,,,,,-0.005642,-0.019614,-0.009671,0.048751,8.4e-05,0.000155
322275,-0.004535,-0.017362,-0.012005,0.0,-0.0,-0.0,3.0,0.3261,0.32351,0.3261,0.328663,,,,,,,-0.005397,-0.019612,-0.009667,0.001799,7.2e-05,0.000155
322295,-0.004413,-0.017361,-0.012004,0.0,-0.0,-0.0,3.0,0.3261,0.320662,0.3261,0.331418,,,,,,,-0.005516,-0.019611,-0.009664,0.048162,7.2e-05,0.000155
322314,-0.004535,-0.017118,-0.012126,0.0,-0.0,-0.0,3.0,0.3261,0.315634,0.3261,0.336129,,,,,,,-0.005748,-0.01961,-0.009662,0.0222,9.6e-05,0.000142
322334,-0.004657,-0.017119,-0.012127,0.0,-0.0,-0.0,3.0,0.3261,0.314786,0.3261,0.336905,,,,,,,-0.005738,-0.019608,-0.009659,0.020147,9.6e-05,0.000142
322354,-0.004779,-0.017119,-0.012128,0.0,-0.0,-0.0,3.0,0.3261,0.315123,0.3261,0.336598,,,,,,,-0.005736,-0.019607,-0.009656,-0.003236,8.3e-05,0.000129
322374,-0.0049,-0.01712,-0.012251,0.0,-0.0,-0.0,3.0,0.3261,0.319235,0.3261,0.332775,,,,,,,-0.005502,-0.019605,-0.009654,-0.047929,4.6e-05,0.000129
322395,-0.005022,-0.017243,-0.012253,0.0,-0.0,-0.0,3.0,0.3261,0.316079,0.3261,0.33572,,,,,,,-0.005863,-0.019604,-0.00965,-0.002291,8.3e-05,0.000128
322414,-0.005019,-0.017488,-0.012375,0.0,-0.0,-0.0,3.0,0.3261,0.318739,0.3261,0.333242,,,,,,,-0.005746,-0.019602,-0.009648,-0.024338,5.8e-05,0.000116
322434,-0.005262,-0.017734,-0.01238,0.0,-0.0,-0.0,3.0,0.3261,0.317314,0.3261,0.334576,,,,,,,-0.005998,-0.019601,-0.009646,0.024094,4.6e-05,0.000128
322454,-0.005018,-0.017733,-0.012378,0.0,-0.0,-0.0,3.0,0.3261,0.317157,0.3261,0.334722,,,,,,,-0.006116,-0.0196,-0.009643,0.069976,5.8e-05,0.00014
322474,-0.004897,-0.017732,-0.012255,0.0,-0.0,-0.0,3.0,0.3261,0.31699,0.3261,0.334877,,,,,,,-0.005995,-0.019598,-0.009641,-0.000847,9.4e-05,0.000139
322494,-0.004898,-0.017608,-0.01213,0.0,-0.0,-0.0,3.0,0.3261,0.318413,0.3261,0.333549,,,,,,,-0.005875,-0.019597,-0.009638,-0.047363,9.4e-05,0.000139
322514,-0.005023,-0.017243,-0.012131,0.0,-0.0,-0.0,3.0,0.3261,0.318263,0.3261,0.33369,,,,,,,-0.005751,-0.019596,-0.009635,-0.024099,8.2e-05,0.000139
322534,-0.005023,-0.017121,-0.01213,0.0,-0.0,-0.0,3.0,0.3261,0.321049,0.3261,0.331047,,,,,,,-0.005506,-0.019595,-0.009633,-0.000646,9.4e-05,0.000127
322554,-0.004779,-0.017119,-0.012128,0.0,-0.0,-0.0,3.0,0.3261,0.319132,0.3261,0.332872,,,,,,,-0.005504,-0.019593,-0.00963,-0.0247,9.4e-05,0.000139
322574,-0.004535,-0.017118,-0.012126,0.0,-0.0,-0.0,3.0,0.3261,0.321693,0.3261,0.330428,,,,,,,-0.00552,-0.019592,-0.009628,0.026078,4.5e-05,0.000126
322594,-0.004656,-0.017241,-0.012127,0.0,-0.0,-0.0,3.0,0.3261,0.318301,0.3261,0.333654,,,,,,,-0.005633,-0.019591,-0.009625,0.071302,3.3e-05,0.000138
322614,-0.004656,-0.017363,-0.012128,0.0,-0.0,-0.0,3.0,0.3261,0.314194,0.3261,0.337443,,,,,,,-0.005866,-0.01959,-0.009622,0.092399,4.5e-05,0.000138
322634,-0.004533,-0.017484,-0.012127,0.0,-0.0,-0.0,3.0,0.3261,0.317814,0.3261,0.334109,,,,,,,-0.005757,-0.019588,-0.009619,0.071278,5.7e-05,0.000138
322654,-0.004656,-0.017363,-0.012128,0.0,-0.0,-0.0,3.0,0.3261,0.315793,0.3261,0.335983,,,,,,,-0.00587,-0.019586,-0.009616,0.06947,6.9e-05,0.000137
322674,-0.004898,-0.017486,-0.012252,0.0,-0.0,-0.0,3.0,0.3261,0.314722,0.3261,0.336963,,,,,,,-0.005865,-0.019585,-0.009613,0.021866,5.7e-05,0.000125
322694,-0.0049,-0.017242,-0.012252,0.0,-0.0,-0.0,3.0,0.3261,0.315871,0.3261,0.335912,,,,,,,-0.005749,-0.019583,-0.00961,-0.000776,8.1e-05,0.000124
322714,-0.004899,-0.017364,-0.012252,0.0,-0.0,-0.0,3.0,0.3261,0.320238,0.3261,0.331823,,,,,,,-0.005383,-0.019582,-0.009608,-0.024427,8.1e-05,0.000137
322734,-0.004778,-0.017242,-0.012251,0.0,-0.0,-0.0,3.0,0.3261,0.317351,0.3261,0.334542,,,,,,,-0.005502,-0.01958,-0.009605,-0.024896,8.1e-05,0.000124
322754,-0.004777,-0.017364,-0.012251,0.0,-0.0,-0.0,3.0,0.3261,0.319252,0.3261,0.332758,,,,,,,-0.005383,-0.019579,-0.009603,-0.047588,6.8e-05,0.000124
322774,-0.004534,-0.01724,-0.012126,0.0,-0.0,-0.0,3.0,0.3261,0.320928,0.3261,0.331164,,,,,,,-0.005266,-0.019577,-0.0096,-0.023407,8e-05,0.000136
322794,-0.004656,-0.017363,-0.012128,0.0,-0.0,-0.0,3.0,0.3261,0.321001,0.3261,0.331093,,,,,,,-0.005273,-0.019576,-0.009598,0.001441,9.3e-05,0.000124
322814,-0.004656,-0.017241,-0.012127,0.0,-0.0,-0.0,3.0,0.3261,0.322755,0.3261,0.329399,,,,,,,-0.005278,-0.019574,-0.009595,-0.044513,8e-05,0.000135
322834,-0.004412,-0.017117,-0.012247,0.0,-0.0,-0.0,3.0,0.3261,0.323069,0.3261,0.329094,,,,,,,-0.005278,-0.019572,-0.009593,0.002365,9.2e-05,0.000123
322854,-0.004289,-0.017239,-0.012246,0.0,-0.0,-0.0,3.0,0.3261,0.319298,0.3261,0.332715,,,,,,,-0.005513,-0.019571,-0.00959,0.071343,8e-05,0.000123
322874,-0.004411,-0.017239,-0.012247,0.0,-0.0,-0.0,3.0,0.3261,0.316255,0.3261,0.335557,,,,,,,-0.005626,-0.01957,-0.009588,0.0694,8e-05,0.000123
322894,-0.004533,-0.017362,-0.012249,0.0,-0.0,-0.0,3.0,0.3261,0.316314,0.3261,0.335503,,,,,,,-0.005629,-0.019568,-0.009585,0.046811,6.7e-05,0.000122
322914,-0.004778,-0.017363,-0.012129,0.0,-0.0,-0.0,3.0,0.3261,0.315956,0.3261,0.335833,,,,,,,-0.005629,-0.019567,-0.009582,-0.000383,6.7e-05,0.000134
322934,-0.004899,-0.017486,-0.01213,0.0,-0.0,-0.0,3.0,0.3261,0.31977,0.3261,0.332268,,,,,,,-0.005387,-0.019566,-0.00958,-0.093581,4.2e-05,0.000133
322954,-0.005144,-0.017366,-0.012132,0.0,-0.0,-0.0,3.0,0.3261,0.314684,0.3261,0.336998,,,,,,,-0.005862,-0.019564,-0.009577,-0.026135,6.7e-05,0.000133
322974,-0.00551,-0.017368,-0.012135,0.0,-0.0,-0.0,3.0,0.3261,0.318857,0.3261,0.333131,,,,,,,-0.005755,-0.019563,-0.009574,-0.117031,6.6e-05,0.000132
322994,-0.005509,-0.01749,-0.012135,0.0,-0.0,-0.0,3.0,0.3261,0.320221,0.3261,0.331839,,,,,,,-0.006009,-0.019561,-0.009572,-0.068037,5.4e-05,0.000132
323014,-0.005268,-0.017244,-0.012011,0.0,-0.0,-0.0,3.0,0.3261,0.318842,0.3261,0.333145,,,,,,,-0.006245,-0.019559,-0.009569,0.023804,7.8e-05,0.000144
323034,-0.005635,-0.017124,-0.012013,0.0,-0.0,-0.0,3.0,0.3261,0.316697,0.3261,0.335149,,,,,,,-0.006611,-0.019558,-0.009566,0.023641,9e-05,0.000144
323054,-0.005757,-0.017125,-0.012014,0.0,-0.0,-0.0,3.0,0.3261,0.31899,0.3261,0.333006,,,,,,,-0.006619,-0.019556,-0.009563,0.001743,9e-05,0.000143
323074,-0.006003,-0.017004,-0.011894,0.0,-0.0,-0.0,3.0,0.3261,0.316612,0.3261,0.335227,,,,,,,-0.006859,-0.019555,-0.00956,0.000467,0.000102,0.000155
323094,-0.006126,-0.016882,-0.011895,0.0,-0.0,-0.0,3.0,0.3261,0.313529,0.3261,0.338045,,,,,,,-0.007089,-0.019553,-0.009557,0.021149,0.000114,0.000155
323114,-0.006246,-0.017006,-0.012018,0.0,-0.0,-0.0,3.0,0.3261,0.316155,0.3261,0.335649,,,,,,,-0.00697,-0.019552,-0.009554,-0.024815,0.000101,0.000142
323134,-0.006367,-0.017128,-0.01202,0.0,-0.0,-0.0,3.0,0.3261,0.316257,0.3261,0.335556,,,,,,,-0.007091,-0.01955,-0.009551,-0.02499,8.9e-05,0.000142
323154,-0.00612,-0.017495,-0.012143,0.0,-0.0,-0.0,3.0,0.3261,0.319791,0.3261,0.332248,,,,,,,-0.006977,-0.019549,-0.009549,0.000666,5.2e-05,0.000129
323174,-0.005997,-0.017738,-0.012143,0.0,-0.0,-0.0,3.0,0.3261,0.318917,0.3261,0.333075,,,,,,,-0.006977,-0.019548,-0.009546,0.024422,2.8e-05,0.000129
323194,-0.005997,-0.017738,-0.012143,0.0,-0.0,-0.0,3.0,0.3261,0.318575,0.3261,0.333397,,,,,,,-0.006979,-0.019546,-0.009543,0.024763,2.8e-05,0.000129
323214,-0.005875,-0.017737,-0.012142,0.0,-0.0,-0.0,3.0,0.3261,0.315952,0.3261,0.335836,,,,,,,-0.007097,-0.019545,-0.00954,0.07091,2.7e-05,0.000128
323234,-0.005876,-0.017615,-0.012019,0.0,-0.0,-0.0,3.0,0.3261,0.314936,0.3261,0.336768,,,,,,,-0.006971,-0.019544,-0.009538,0.046372,4e-05,0.00014
323254,-0.006122,-0.017371,-0.012018,0.0,-0.0,-0.0,3.0,0.3261,0.313197,0.3261,0.338344,,,,,,,-0.006968,-0.019543,-0.009535,-0.001446,6.4e-05,0.00014
323274,-0.006122,-0.017249,-0.012018,0.0,-0.0,-0.0,3.0,0.3261,0.316192,0.3261,0.335615,,,,,,,-0.006727,-0.019541,-0.009532,-0.047769,7.6e-05,0.00014
323294,-0.006,-0.017248,-0.012017,0.0,-0.0,-0.0,3.0,0.3261,0.317022,0.3261,0.334847,,,,,,,-0.006601,-0.01954,-0.00953,-0.048711,7.6e-05,0.00014
323314,-0.005755,-0.017369,-0.012015,0.0,-0.0,-0.0,3.0,0.3261,0.319341,0.3261,0.332674,,,,,,,-0.006482,-0.019539,-0.009527,-0.024401,6.4e-05,0.00014
323334,-0.005754,-0.017613,-0.012016,0.0,-0.0,-0.0,3.0,0.3261,0.32292,0.3261,0.329239,,,,,,,-0.006251,-0.019538,-0.009524,-0.06854,3.9e-05,0.000139
323354,-0.00551,-0.017612,-0.012014,0.0,-0.0,-0.0,3.0,0.3261,0.324979,0.3261,0.327216,,,,,,,-0.006269,-0.019537,-0.009521,-0.018119,3.9e-05,0.000139
323374,-0.005266,-0.01761,-0.012012,0.0,-0.0,-0.0,3.0,0.3261,0.321457,0.3261,0.330655,,,,,,,-0.006381,-0.019537,-0.009519,0.050433,3.9e-05,0.000139
323394,-0.005265,-0.017488,-0.012133,0.0,-0.0,-0.0,3.0,0.3261,0.315982,0.3261,0.335809,,,,,,,-0.006608,-0.019536,-0.009516,0.094036,5.1e-05,0.000127
323414,-0.005509,-0.01749,-0.012135,0.0,-0.0,-0.0,3.0,0.3261,0.312473,0.3261,0.338995,,,,,,,-0.00672,-0.019535,-0.009513,0.06865,5.1e-05,0.000126
323434,-0.005388,-0.017245,-0.012256,0.0,-0.0,-0.0,3.0,0.3261,0.317693,0.3261,0.334223,,,,,,,-0.006367,-0.019534,-0.009511,0.024284,7.6e-05,0.000114
323454,-0.005386,-0.017613,-0.012259,0.0,-0.0,-0.0,3.0,0.3261,0.314752,0.3261,0.336936,,,,,,,-0.006229,-0.019533,-0.009509,-0.001969,3.9e-05,0.000113
323474,-0.005386,-0.017613,-0.012259,0.0,-0.0,-0.0,3.0,0.3261,0.315211,0.3261,0.336517,,,,,,,-0.006229,-0.019532,-0.009506,-0.001911,3.9e-05,0.000113
323494,-0.005262,-0.017856,-0.012259,0.0,-0.0,-0.0,3.0,0.3261,0.319619,0.3261,0.332412,,,,,,,-0.005872,-0.019531,-0.009504,-0.046828,1.4e-05,0.000113
323514,-0.005019,-0.017854,-0.012134,0.0,-0.0,-0.0,3.0,0.3261,0.321515,0.3261,0.330599,,,,,,,-0.00564,-0.01953,-0.009501,-0.044718,1.4e-05,0.000125
323534,-0.004896,-0.017976,-0.012134,0.0,-0.0,-0.0,3.0,0.3261,0.318645,0.3261,0.33333,,,,,,,-0.005756,-0.01953,-0.009499,0.001253,2e-06,0.000125
323554,-0.004654,-0.017729,-0.012129,0.0,-0.0,-0.0,3.0,0.3261,0.320351,0.3261,0.331715,,,,,,,-0.005514,-0.019529,-0.009496,0.00135,2.7e-05,0.000125
323574,-0.004655,-0.017485,-0.012128,0.0,-0.0,-0.0,3.0,0.3261,0.319192,0.3261,0.332815,,,,,,,-0.005387,-0.019528,-0.009494,-0.023302,5.1e-05,0.000125
323594,-0.004533,-0.017484,-0.012127,0.0,-0.0,-0.0,3.0,0.3261,0.319393,0.3261,0.332625,,,,,,,-0.005264,-0.019527,-0.009492,-0.023503,5.1e-05,0.000125
323614,-0.004412,-0.017361,-0.012126,0.0,-0.0,-0.0,3.0,0.3261,0.319307,0.3261,0.332707,,,,,,,-0.005269,-0.019527,-0.009489,0.000679,6.3e-05,0.000125
323634,-0.004411,-0.017239,-0.012247,0.0,-0.0,-0.0,3.0,0.3261,0.319857,0.3261,0.332185,,,,,,,-0.005272,-0.019526,-0.009487,0.001477,7.5e-05,0.000113
323654,-0.004411,-0.017361,-0.012248,0.0,-0.0,-0.0,3.0,0.3261,0.318207,0.3261,0.333743,,,,,,,-0.005388,-0.019525,-0.009485,0.023923,6.3e-05,0.000112
323674,-0.00441,-0.017484,-0.012248,0.0,-0.0,-0.0,3.0,0.3261,0.31536,0.3261,0.336381,,,,,,,-0.005501,-0.019524,-0.009483,0.045656,5.1e-05,0.000112
323694,-0.004289,-0.017483,-0.012125,0.0,-0.0,-0.0,3.0,0.3261,0.316831,0.3261,0.335024,,,,,,,-0.005379,-0.019523,-0.00948,0.045512,5.1e-05,0.000124
323714,-0.004409,-0.017727,-0.012126,0.087266,-0.0,-0.0,3.0,0.3261,0.268194,0.3261,0.372537,,,,,,,-0.005261,-0.019522,-0.009478,-0.0003,2.6e-05,0.000124
323734,-0.004286,-0.017727,-0.012247,0.087266,-0.0,-0.0,3.0,0.3261,0.269978,0.3261,0.371395,,,,,,,-0.005144,-0.019522,-0.009475,0.000903,2.6e-05,0.000111
323754,-0.003919,-0.017847,-0.012244,0.087266,-0.0,-0.0,3.0,0.3261,0.271,0.3261,0.370733,,,,,,,-0.004902,-0.019521,-0.009473,0.0249,1.4e-05,0.000111
323774,-0.002578,-0.017838,-0.01211,0.087266,-0.0,-0.0,3.0,0.3261,0.277205,0.3261,0.366603,,,,,,,-0.004053,-0.01952,-0.00947,0.119744,1.5e-05,0.000125
323794,-0.000624,-0.017949,-0.012093,0.087266,-0.0,-0.0,3.0,0.3261,0.285584,0.3261,0.360706,,,,,,,-0.00211,-0.019519,-0.009468,0.12177,4e-06,0.000126
323814,0.002795,-0.017928,-0.012185,0.087266,-0.0,-0.0,3.0,0.3261,0.297486,0.3261,0.351651,,,,,,,0.00105,-0.019519,-0.009465,0.171472,6e-06,0.000117
323834,0.007558,-0.018021,-0.012265,0.087266,-0.0,-0.0,3.0,0.3261,0.307214,0.3261,0.343606,,,,,,,0.005449,-0.019519,-0.009463,0.241567,-4e-06,0.000108
323854,0.013786,-0.01798,-0.012575,0.087266,-0.0,-0.0,3.0,0.3261,0.320297,0.3261,0.331766,,,,,,,0.011302,-0.019519,-0.009461,0.313822,1e-06,7.7e-05
323874,0.020872,-0.018173,-0.012995,0.087266,-0.0,-0.0,3.0,0.3261,0.333164,0.3261,0.318822,,,,,,,0.018372,-0.019519,-0.00946,0.31683,-1.9e-05,3.5e-05
323894,0.028812,-0.018111,-0.013532,0.087266,-0.0,-0.0,3.0,0.3261,0.347998,0.3261,0.301995,,,,,,,0.026402,-0.019519,-0.00946,0.299642,-1.3e-05,-1.9e-05
323914,0.03737,-0.018526,-0.014179,0.087266,-0.0,-0.0,3.0,0.3261,0.352785,0.3261,0.296054,,,,,,,0.034341,-0.019519,-0.009461,0.418664,-5.4e-05,-8.3e-05
323934,0.045677,-0.01845,-0.014708,0.087266,-0.0,-0.0,3.0,0.3261,0.353493,0.3261,0.295152,,,,,,,0.042412,-0.01952,-0.009463,0.464033,-4.6e-05,-0.000136
323954,0.053379,-0.01874,-0.015236,0.087266,-0.0,-0.0,3.0,0.3261,0.349785,0.3261,0.299809,,,,,,,0.05001,-0.01952,-0.009466,0.484154,-7.5e-05,-0.000188
323974,0.060221,-0.018791,-0.015652,0.087266,-0.0,-0.0,3.0,0.3261,0.348606,0.3261,0.301256,,,,,,,0.057476,-0.019522,-0.00947,0.363908,-8e-05,-0.00023
323994,0.066212,-0.018847,-0.016078,0.087266,-0.0,-0.0,3.0,0.3261,0.346675,0.3261,0.303589,,,,,,,0.06408,-0.019523,-0.009475,0.246061,-8.6e-05,-0.000272
324014,0.071467,-0.018905,-0.016508,0.087266,-0.0,-0.0,3.0,0.3261,0.349634,0.3261,0.299995,,,,,,,0.068605,-0.019525,-0.009479,0.198869,-9.2e-05,-0.000315
324034,0.075384,-0.018852,-0.016959,0.087266,-0.0,-0.0,3.0,0.3261,0.337631,0.3261,0.313987,,,,,,,0.073893,-0.019527,-0.009488,0.122694,-8.6e-05,-0.000359
324054,0.078444,-0.019054,-0.017285,0.087266,-0.0,-0.0,3.0,0.3261,0.335211,0.3261,0.31663,,,,,,,0.077071,-0.01953,-0.009495,0.100079,-0.000106,-0.00039
324074,0.080156,-0.019144,-0.017627,0.087266,-0.0,-0.0,3.0,0.3261,0.331547,0.3261,0.320527,,,,,,,0.079148,-0.019532,-0.009503,0.029774,-0.000115,-0.000424
324094,0.081015,-0.019492,-0.017846,0.087266,-0.0,-0.0,3.0,0.3261,0.323614,0.3261,0.328561,,,,,,,0.079887,-0.019534,-0.009512,0.052784,-0.000149,-0.000445
324114,0.081017,-0.019609,-0.017963,0.087266,-0.0,-0.0,3.0,0.3261,0.314965,0.3261,0.336742,,,,,,,0.079903,-0.019537,-0.009521,0.050167,-0.00016,-0.000456
324134,0.080653,-0.019481,-0.018216,0.087266,-0.0,-0.0,3.0,0.3261,0.307127,0.3261,0.34368,,,,,,,0.079436,-0.01954,-0.00953,0.069819,-0.000147,-0.00048
324154,0.080408,-0.019234,-0.018351,0.087266,-0.0,-0.0,3.0,0.3261,0.307292,0.3261,0.343539,,,,,,,0.079442,-0.019543,-0.00954,0.021592,-0.000122,-0.000492
324174,0.080409,-0.019103,-0.0186,0.087266,-0.0,-0.0,3.0,0.3261,0.310048,0.3261,0.341145,,,,,,,0.079563,-0.019546,-0.00955,-0.001562,-0.000109,-0.000516
324194,0.081021,-0.019213,-0.01871,0.087266,-0.0,-0.0,3.0,0.3261,0.314886,0.3261,0.336814,,,,,,,0.080174,-0.019548,-0.00956,-0.001344,-0.00012,-0.000526
324214,0.082004,-0.019448,-0.018692,0.087266,-0.0,-0.0,3.0,0.3261,0.317482,0.3261,0.33442,,,,,,,0.080908,-0.019551,-0.009571,0.046627,-0.000143,-0.000523
324234,0.083471,-0.019671,-0.018787,0.087266,-0.0,-0.0,3.0,0.3261,0.325139,0.3261,0.327058,,,,,,,0.082357,-0.019554,-0.009581,0.050035,-0.000165,-0.000532
324254,0.085427,-0.019652,-0.018767,0.087266,-0.0,-0.0,3.0,0.3261,0.332592,0.3261,0.319428,,,,,,,0.084295,-0.019557,-0.009592,0.053629,-0.000163,-0.000529
324274,0.087753,-0.019994,-0.018727,0.087266,-0.0,-0.0,3.0,0.3261,0.333705,0.3261,0.318246,,,,,,,0.086374,-0.019559,-0.009602,0.101146,-0.000197,-0.000524
324294,0.090441,-0.019966,-0.018697,0.087266,-0.0,-0.0,3.0,0.3261,0.334604,0.3261,0.317284,,,,,,,0.0887,-0.019563,-0.009613,0.17082,-0.000194,-0.00052
324314,0.093127,-0.019695,-0.018679,0.087266,-0.0,-0.0,3.0,0.3261,0.335424,0.3261,0.316399,,,,,,,0.091397,-0.019566,-0.009623,0.168645,-0.000166,-0.000517
324334,0.095815,-0.019667,-0.01865,0.087266,-0.0,-0.0,3.0,0.3261,0.338653,0.3261,0.312854,,,,,,,0.094327,-0.01957,-0.009633,0.122205,-0.000163,-0.000513
324354,0.098502,-0.019517,-0.018627,0.087266,-0.0,-0.0,3.0,0.3261,0.341447,0.3261,0.309704,,,,,,,0.09713,-0.019573,-0.009644,0.099818,-0.000148,-0.00051
324374,0.100948,-0.019486,-0.018723,0.087266,-0.0,-0.0,3.0,0.3261,0.340558,0.3261,0.310715,,,,,,,0.09958,-0.019577,-0.009654,0.098928,-0.000144,-0.000518
324394,0.103148,-0.019463,-0.0187,0.087266,-0.0,-0.0,3.0,0.3261,0.337583,0.3261,0.31404,,,,,,,0.101669,-0.01958,-0.009664,0.120398,-0.000142,-0.000515
324414,0.104863,-0.019689,-0.018669,0.087266,-0.0,-0.0,3.0,0.3261,0.333877,0.3261,0.318063,,,,,,,0.103385,-0.019583,-0.009674,0.120175,-0.000164,-0.000511
324434,0.106082,-0.019804,-0.018526,0.087266,-0.0,-0.0,3.0,0.3261,0.333775,0.3261,0.318172,,,,,,,0.104975,-0.019587,-0.009684,0.048798,-0.000175,-0.000495
324454,0.106943,-0.019918,-0.018512,0.087266,-0.0,-0.0,3.0,0.3261,0.332771,0.3261,0.319239,,,,,,,0.106077,-0.01959,-0.009694,0.002335,-0.000186,-0.000493
324474,0.107552,-0.019911,-0.018504,0.087266,-0.0,-0.0,3.0,0.3261,0.332073,0.3261,0.319975,,,,,,,0.106809,-0.019593,-0.009704,-0.021171,-0.000185,-0.000491
324494,0.107917,-0.019786,-0.018506,0.087266,-0.0,-0.0,3.0,0.3261,0.328223,0.3261,0.323958,,,,,,,0.106935,-0.019596,-0.009714,0.024754,-0.000172,-0.000491
324514,0.107917,-0.019786,-0.018506,0.087266,-0.0,-0.0,3.0,0.3261,0.324768,0.3261,0.327425,,,,,,,0.106824,-0.0196,-0.009724,0.04601,-0.000172,-0.00049
324534,0.107793,-0.019543,-0.018521,0.087266,-0.0,-0.0,3.0,0.3261,0.325528,0.3261,0.326671,,,,,,,0.106819,-0.019603,-0.009734,0.023233,-0.000147,-0.00049
324554,0.107549,-0.019546,-0.018524,0.087266,-0.0,-0.0,3.0,0.3261,0.325656,0.3261,0.326544,,,,,,,0.106814,-0.019607,-0.009743,-0.022837,-0.000147,-0.000489
324574,0.107673,-0.019788,-0.018509,0.087266,-0.0,-0.0,3.0,0.3261,0.324314,0.3261,0.327873,,,,,,,0.106825,-0.01961,-0.009753,-0.000951,-0.000171,-0.000487
324594,0.107917,-0.019657,-0.018635,0.087266,-0.0,-0.0,3.0,0.3261,0.323958,0.3261,0.328224,,,,,,,0.106954,-0.019613,-0.009763,0.020998,-0.000158,-0.000499
324614,0.108285,-0.019897,-0.018617,0.087266,-0.0,-0.0,3.0,0.3261,0.329045,0.3261,0.323119,,,,,,,0.107557,-0.019616,-0.009773,-0.024227,-0.000181,-0.000496
324634,0.109023,-0.01989,-0.018611,0.087266,-0.0,-0.0,3.0,0.3261,0.335811,0.3261,0.31598,,,,,,,0.108398,-0.01962,-0.009783,-0.044037,-0.00018,-0.000494
324654,0.11,-0.019994,-0.018714,0.087266,-0.0,-0.0,3.0,0.3261,0.337518,0.3261,0.314112,,,,,,,0.109001,-0.019624,-0.009793,0.028019,-0.00019,-0.000503
324674,0.110974,-0.019862,-0.018709,0.087266,-0.0,-0.0,3.0,0.3261,0.335902,0.3261,0.315881,,,,,,,0.109614,-0.019627,-0.009803,0.097412,-0.000177,-0.000502
324694,0.111713,-0.019848,-0.018825,0.087266,-0.0,-0.0,3.0,0.3261,0.333552,0.3261,0.31841,,,,,,,0.110229,-0.019631,-0.009813,0.121441,-0.000175,-0.000512
324714,0.112321,-0.019719,-0.018824,0.087266,-0.0,-0.0,3.0,0.3261,0.331221,0.3261,0.320868,,,,,,,0.110977,-0.019634,-0.009823,0.094434,-0.000162,-0.000511
324734,0.112687,-0.019715,-0.018819,0.087266,-0.0,-0.0,3.0,0.3261,0.329144,0.3261,0.323017,,,,,,,0.111717,-0.019638,-0.009833,0.022494,-0.000161,-0.00051
324754,0.113175,-0.01971,-0.018813,0.087266,-0.0,-0.0,3.0,0.3261,0.328861,0.3261,0.323308,,,,,,,0.112335,-0.019641,-0.009844,-0.002701,-0.00016,-0.000508
324774,0.113669,-0.019705,-0.01881,0.087266,-0.0,-0.0,3.0,0.3261,0.331909,0.3261,0.320148,,,,,,,0.113069,-0.019644,-0.009854,-0.048803,-0.000159,-0.000507
324794,0.114159,-0.019944,-0.01879,0.087266,-0.0,-0.0,3.0,0.3261,0.334729,0.3261,0.31715,,,,,,,0.113548,-0.019648,-0.009864,-0.046756,-0.000183,-0.000504
324814,0.114646,-0.019938,-0.018784,0.087266,-0.0,-0.0,3.0,0.3261,0.337826,0.3261,0.313772,,,,,,,0.113901,-0.019651,-0.009874,-0.020842,-0.000182,-0.000502
324834,0.114768,-0.019937,-0.018783,0.087266,-0.0,-0.0,3.0,0.3261,0.336888,0.3261,0.314804,,,,,,,0.113891,-0.019655,-0.009884,0.00449,-0.000181,-0.000501
324854,0.114768,-0.019937,-0.018783,0.087266,-0.0,-0.0,3.0,0.3261,0.33344,0.3261,0.318529,,,,,,,0.113653,-0.019658,-0.009894,0.050398,-0.000181,-0.0005
324874,0.114645,-0.019816,-0.018791,0.087266,-0.0,-0.0,3.0,0.3261,0.32646,0.3261,0.32574,,,,,,,0.113308,-0.019662,-0.009904,0.092976,-0.000169,-0.0005
324894,0.114401,-0.019819,-0.018794,0.087266,-0.0,-0.0,3.0,0.3261,0.323667,0.3261,0.328509,,,,,,,0.113199,-0.019665,-0.009914,0.067095,-0.000169,-0.000499
324914,0.114156,-0.0197,-0.018804,0.087266,-0.0,-0.0,3.0,0.3261,0.3271,0.3261,0.325097,,,,,,,0.113438,-0.019668,-0.009924,-0.025946,-0.000156,-0.000499
324934,0.114155,-0.019707,-0.018682,0.087266,-0.0,-0.0,3.0,0.3261,0.33273,0.3261,0.319282,,,,,,,0.113791,-0.019672,-0.009934,-0.094183,-0.000157,-0.000486
324954,0.114523,-0.019818,-0.018793,0.087266,-0.0,-0.0,3.0,0.3261,0.334015,0.3261,0.317915,,,,,,,0.113914,-0.019675,-0.009944,-0.047031,-0.000168,-0.000496
324974,0.115012,-0.019934,-0.018779,0.087266,-0.0,-0.0,3.0,0.3261,0.335151,0.3261,0.316694,,,,,,,0.114032,-0.019679,-0.009954,0.024209,-0.000179,-0.000494
324994,0.115258,-0.020046,-0.018891,0.087266,-0.0,-0.0,3.0,0.3261,0.33783,0.3261,0.313767,,,,,,,0.114263,-0.019683,-0.009963,0.027098,-0.00019,-0.000504
325014,0.11563,-0.020043,-0.01889,0.087266,-0.0,-0.0,3.0,0.3261,0.335876,0.3261,0.31591,,,,,,,0.114512,-0.019686,-0.009974,0.050915,-0.000189,-0.000503
325034,0.115875,-0.020033,-0.019009,0.087266,-0.0,-0.0,3.0,0.3261,0.330904,0.3261,0.321198,,,,,,,0.114525,-0.01969,-0.009984,0.095494,-0.000188,-0.000514
325054,0.115995,-0.019788,-0.019021,0.087266,-0.0,-0.0,3.0,0.3261,0.329373,0.3261,0.322783,,,,,,,0.114787,-0.019693,-0.009994,0.068074,-0.000163,-0.000514
325074,0.115995,-0.019788,-0.019021,0.087266,-0.0,-0.0,3.0,0.3261,0.330442,0.3261,0.321679,,,,,,,0.115154,-0.019696,-0.010004,-0.002451,-0.000162,-0.000513
325094,0.116117,-0.019658,-0.019149,0.087266,-0.0,-0.0,3.0,0.3261,0.335968,0.3261,0.31581,,,,,,,0.115624,-0.0197,-0.010015,-0.069415,-0.000149,-0.000525
325114,0.11624,-0.019779,-0.01914,0.087266,-0.0,-0.0,3.0,0.3261,0.335449,0.3261,0.316372,,,,,,,0.115626,-0.019703,-0.010025,-0.046184,-0.000161,-0.000523
325134,0.116363,-0.019899,-0.019131,0.087266,-0.0,-0.0,3.0,0.3261,0.334218,0.3261,0.317699,,,,,,,0.115511,-0.019707,-0.010036,-0.000379,-0.000172,-0.000521
325154,0.116364,-0.020021,-0.019124,0.087266,-0.0,-0.0,3.0,0.3261,0.334568,0.3261,0.317323,,,,,,,0.115508,-0.019711,-0.010046,0.000495,-0.000184,-0.000519
325174,0.11612,-0.020153,-0.018998,0.087266,-0.0,-0.0,3.0,0.3261,0.332539,0.3261,0.319485,,,,,,,0.115266,-0.019714,-0.010056,7e-06,-0.000197,-0.000506
325194,0.115997,-0.020032,-0.019007,0.087266,-0.0,-0.0,3.0,0.3261,0.331276,0.3261,0.32081,,,,,,,0.115025,-0.019718,-0.010066,0.022759,-0.000185,-0.000505
325214,0.115752,-0.019913,-0.019017,0.087266,-0.0,-0.0,3.0,0.3261,0.332996,0.3261,0.319,,,,,,,0.115018,-0.019721,-0.010077,-0.023017,-0.000173,-0.000505
325234,0.115751,-0.01992,-0.018895,0.087266,-0.0,-0.0,3.0,0.3261,0.33322,0.3261,0.318763,,,,,,,0.114896,-0.019724,-0.010087,0.000208,-0.000173,-0.000492
325254,0.115873,-0.019919,-0.018894,0.087266,-0.0,-0.0,3.0,0.3261,0.332427,0.3261,0.319602,,,,,,,0.114779,-0.019727,-0.010096,0.046205,-0.000172,-0.000491
325274,0.11575,-0.019798,-0.018902,0.087266,-0.0,-0.0,3.0,0.3261,0.333154,0.3261,0.318832,,,,,,,0.114775,-0.019731,-0.010106,0.023427,-0.00016,-0.000491
325294,0.115629,-0.019921,-0.018897,0.087266,-0.0,-0.0,3.0,0.3261,0.33337,0.3261,0.318604,,,,,,,0.114771,-0.019735,-0.010116,0.000831,-0.000172,-0.000489
325314,0.115629,-0.019921,-0.018897,0.087266,-0.0,-0.0,3.0,0.3261,0.331813,0.3261,0.320249,,,,,,,0.114781,-0.019738,-0.010125,-0.000938,-0.000172,-0.000488
325334,0.115628,-0.019929,-0.018775,0.087266,-0.0,-0.0,3.0,0.3261,0.329126,0.3261,0.323036,,,,,,,0.114672,-0.019742,-0.010135,0.01965,-0.000172,-0.000475
325354,0.115628,-0.019929,-0.018775,0.087266,-0.0,-0.0,3.0,0.3261,0.333363,0.3261,0.318611,,,,,,,0.114907,-0.019745,-0.010145,-0.02559,-0.000172,-0.000474
325374,0.115628,-0.019929,-0.018775,0.087266,-0.0,-0.0,3.0,0.3261,0.338332,0.3261,0.313211,,,,,,,0.115132,-0.019749,-0.010154,-0.068695,-0.000171,-0.000473
325394,0.115631,-0.020165,-0.018883,0.087266,-0.0,-0.0,3.0,0.3261,0.338293,0.3261,0.313255,,,,,,,0.115006,-0.019752,-0.010164,-0.043914,-0.000195,-0.000483
325414,0.115752,-0.020042,-0.018888,0.087266,-0.0,-0.0,3.0,0.3261,0.336245,0.3261,0.315508,,,,,,,0.114644,-0.019756,-0.010174,0.048942,-0.000182,-0.000483
325434,0.115631,-0.020165,-0.018883,0.087266,-0.0,-0.0,3.0,0.3261,0.334502,0.3261,0.317394,,,,,,,0.114521,-0.019759,-0.010183,0.049336,-0.000194,-0.000481
325454,0.11563,-0.020043,-0.01889,0.087266,-0.0,-0.0,3.0,0.3261,0.333308,0.3261,0.318669,,,,,,,0.114526,-0.019763,-0.010193,0.048199,-0.000181,-0.000481
325474,0.115379,-0.020045,-0.01889,0.087266,-0.0,-0.0,3.0,0.3261,0.330736,0.3261,0.321373,,,,,,,0.114408,-0.019766,-0.010203,0.022645,-0.000181,-0.00048
325494,0.115378,-0.019923,-0.018897,0.087266,-0.0,-0.0,3.0,0.3261,0.3311,0.3261,0.320994,,,,,,,0.114539,-0.01977,-0.010212,-0.002772,-0.000169,-0.00048
325514,0.115377,-0.019801,-0.018904,0.087266,-0.0,-0.0,3.0,0.3261,0.333993,0.3261,0.31794,,,,,,,0.114786,-0.019774,-0.010222,-0.050436,-0.000156,-0.00048
325534,0.115507,-0.019923,-0.018899,0.087266,-0.0,-0.0,3.0,0.3261,0.336678,0.3261,0.315035,,,,,,,0.1149,-0.019777,-0.010232,-0.047272,-0.000168,-0.000478
325554,0.11563,-0.019914,-0.019019,0.087266,-0.0,-0.0,3.0,0.3261,0.337741,0.3261,0.313866,,,,,,,0.114896,-0.019781,-0.010241,-0.022902,-0.000167,-0.000489
325574,0.115511,-0.020288,-0.018877,0.087266,-0.0,-0.0,3.0,0.3261,0.338295,0.3261,0.313252,,,,,,,0.114765,-0.019784,-0.010251,-0.020696,-0.000204,-0.000474
325594,0.115632,-0.020287,-0.018876,0.087266,-0.0,-0.0,3.0,0.3261,0.338067,0.3261,0.313505,,,,,,,0.114642,-0.019788,-0.01026,0.026374,-0.000203,-0.000473
325614,0.115632,-0.020287,-0.018876,0.087266,-0.0,-0.0,3.0,0.3261,0.331669,0.3261,0.320399,,,,,,,0.114286,-0.019792,-0.01027,0.09479,-0.000203,-0.000472
325634,0.115379,-0.020174,-0.018761,0.087266,-0.0,-0.0,3.0,0.3261,0.330774,0.3261,0.321334,,,,,,,0.114295,-0.019795,-0.010279,0.044312,-0.000191,-0.000459
325654,0.115134,-0.019804,-0.018907,0.087266,-0.0,-0.0,3.0,0.3261,0.332345,0.3261,0.319689,,,,,,,0.114412,-0.019799,-0.010288,-0.025297,-0.000154,-0.000473
325674,0.115255,-0.019803,-0.018905,0.087266,-0.0,-0.0,3.0,0.3261,0.335787,0.3261,0.316006,,,,,,,0.114659,-0.019803,-0.010298,-0.049552,-0.000153,-0.000472
325694,0.115507,-0.019923,-0.018899,0.087266,-0.0,-0.0,3.0,0.3261,0.336881,0.3261,0.314812,,,,,,,0.114782,-0.019806,-0.010307,-0.02469,-0.000165,-0.00047
325714,0.115631,-0.020036,-0.019012,0.087266,-0.0,-0.0,3.0,0.3261,0.339213,0.3261,0.312229,,,,,,,0.114898,-0.01981,-0.010317,-0.02307,-0.000176,-0.000481
325734,0.115635,-0.020402,-0.018991,0.087266,-0.0,-0.0,3.0,0.3261,0.34009,0.3261,0.311244,,,,,,,0.114888,-0.019814,-0.010326,-0.020435,-0.000212,-0.000478
325754,0.115758,-0.020522,-0.018982,0.087266,-0.0,-0.0,3.0,0.3261,0.340167,0.3261,0.311157,,,,,,,0.11476,-0.019817,-0.010336,0.027712,-0.000224,-0.000476
325774,0.115635,-0.020531,-0.018862,0.087266,-0.0,-0.0,3.0,0.3261,0.33308,0.3261,0.318912,,,,,,,0.114411,-0.019821,-0.010345,0.07114,-0.000224,-0.000463
325794,0.115381,-0.020167,-0.018883,0.087266,-0.0,-0.0,3.0,0.3261,0.331812,0.3261,0.320249,,,,,,,0.114292,-0.019825,-0.010355,0.045205,-0.000187,-0.000464
325814,0.115016,-0.020164,-0.019009,0.087266,-0.0,-0.0,3.0,0.3261,0.330746,0.3261,0.321363,,,,,,,0.114055,-0.019829,-0.010364,0.020693,-0.000187,-0.000476
325834,0.114893,-0.020043,-0.019018,0.087266,-0.0,-0.0,3.0,0.3261,0.33459,0.3261,0.317299,,,,,,,0.114168,-0.019833,-0.010374,-0.024597,-0.000174,-0.000476
325854,0.114774,-0.02016,-0.019134,0.087266,-0.0,-0.0,3.0,0.3261,0.336497,0.3261,0.315233,,,,,,,0.114165,-0.019837,-0.010383,-0.047091,-0.000185,-0.000486
325874,0.11514,-0.020277,-0.019123,0.087266,-0.0,-0.0,3.0,0.3261,0.337644,0.3261,0.313973,,,,,,,0.11429,-0.019841,-0.010393,-0.000595,-0.000197,-0.000484
325894,0.115142,-0.020521,-0.019108,0.087266,-0.0,-0.0,3.0,0.3261,0.337279,0.3261,0.314375,,,,,,,0.114289,-0.019845,-0.010402,5.2e-05,-0.000221,-0.000482
325914,0.115264,-0.02052,-0.019107,0.087266,-0.0,-0.0,3.0,0.3261,0.339685,0.3261,0.311699,,,,,,,0.114402,-0.01985,-0.010412,0.001811,-0.00022,-0.000481
325934,0.115394,-0.020512,-0.019231,0.087266,-0.0,-0.0,3.0,0.3261,0.338027,0.3261,0.31355,,,,,,,0.114408,-0.019854,-0.010422,0.025679,-0.000219,-0.000492
325954,0.115396,-0.020634,-0.019224,0.087266,-0.0,-0.0,3.0,0.3261,0.338284,0.3261,0.313264,,,,,,,0.114537,-0.019858,-0.010431,0.000921,-0.000231,-0.000491
325974,0.115266,-0.020384,-0.019358,0.087266,-0.0,-0.0,3.0,0.3261,0.336454,0.3261,0.315279,,,,,,,0.114413,-0.019863,-0.010441,-0.000235,-0.000205,-0.000503
325994,0.115146,-0.0205,-0.019474,0.087266,-0.0,-0.0,3.0,0.3261,0.334075,0.3261,0.317851,,,,,,,0.114178,-0.019867,-0.010451,0.022081,-0.000217,-0.000514
326014,0.115022,-0.020258,-0.01949,0.087266,-0.0,-0.0,3.0,0.3261,0.338036,0.3261,0.31354,,,,,,,0.114286,-0.01987,-0.010459,-0.02279,-0.000193,-0.000502
326034,0.114657,-0.020384,-0.019487,0.087266,-0.0,-0.0,3.0,0.3261,0.337088,0.3261,0.314585,,,,,,,0.114042,-0.019875,-0.010472,-0.045816,-0.000204,-0.000513
326054,0.114778,-0.02026,-0.019493,0.087266,-0.0,-0.0,3.0,0.3261,0.337028,0.3261,0.314651,,,,,,,0.113926,-0.019879,-0.010482,-0.000249,-0.000191,-0.000512
326074,0.11478,-0.020504,-0.019479,0.087266,-0.0,-0.0,3.0,0.3261,0.333668,0.3261,0.318287,,,,,,,0.113699,-0.019884,-0.010492,0.043766,-0.000215,-0.00051
326094,0.114661,-0.02062,-0.019595,0.087266,-0.0,-0.0,3.0,0.3261,0.337506,0.3261,0.314125,,,,,,,0.113936,-0.019888,-0.010503,-0.024732,-0.000226,-0.000521
326114,0.114663,-0.020735,-0.01971,0.087266,-0.0,-0.0,3.0,0.3261,0.341078,0.3261,0.310124,,,,,,,0.114167,-0.019893,-0.010513,-0.068717,-0.000237,-0.000531
326134,0.114907,-0.020732,-0.019707,0.087266,-0.0,-0.0,3.0,0.3261,0.342636,0.3261,0.308338,,,,,,,0.114283,-0.019897,-0.010524,-0.044154,-0.000237,-0.00053
326154,0.115029,-0.020731,-0.019705,0.087266,-0.0,-0.0,3.0,0.3261,0.339546,0.3261,0.311856,,,,,,,0.114046,-0.019902,-0.010534,0.024806,-0.000236,-0.000528
326174,0.115029,-0.020602,-0.019834,0.087266,-0.0,-0.0,3.0,0.3261,0.338375,0.3261,0.313163,,,,,,,0.113924,-0.019906,-0.010545,0.048428,-0.000223,-0.00054
326194,0.114784,-0.020483,-0.019844,0.087266,-0.0,-0.0,3.0,0.3261,0.334495,0.3261,0.317402,,,,,,,0.113569,-0.019911,-0.010556,0.069583,-0.00021,-0.00054
326214,0.114298,-0.020611,-0.019844,0.087266,-0.0,-0.0,3.0,0.3261,0.333921,0.3261,0.318016,,,,,,,0.113448,-0.019915,-0.010566,-0.000793,-0.000223,-0.000539
326234,0.113932,-0.020615,-0.019849,0.087266,-0.0,-0.0,3.0,0.3261,0.332149,0.3261,0.319895,,,,,,,0.113094,-0.01992,-0.010577,-0.002984,-0.000223,-0.000538
326254,0.11381,-0.020616,-0.01985,0.087266,-0.0,-0.0,3.0,0.3261,0.333482,0.3261,0.318485,,,,,,,0.113097,-0.019924,-0.010588,-0.027033,-0.000222,-0.000538
326274,0.11381,-0.020616,-0.01985,0.087266,-0.0,-0.0,3.0,0.3261,0.337484,0.3261,0.31415,,,,,,,0.113212,-0.019929,-0.010599,-0.049044,-0.000222,-0.000536
326294,0.11381,-0.020616,-0.01985,0.087266,-0.0,-0.0,3.0,0.3261,0.342157,0.3261,0.308891,,,,,,,0.113314,-0.019933,-0.010609,-0.068688,-0.000222,-0.000535
326314,0.11369,-0.02074,-0.019845,0.087266,-0.0,-0.0,3.0,0.3261,0.340225,0.3261,0.311091,,,,,,,0.112949,-0.019938,-0.01062,-0.021642,-0.000233,-0.000534
326334,0.113811,-0.020738,-0.019843,0.087266,-0.0,-0.0,3.0,0.3261,0.339843,0.3261,0.311522,,,,,,,0.112704,-0.019942,-0.010631,0.048903,-0.000233,-0.000533
326354,0.113688,-0.020618,-0.019852,0.087266,-0.0,-0.0,3.0,0.3261,0.336496,0.3261,0.315233,,,,,,,0.112467,-0.019947,-0.010641,0.070737,-0.00022,-0.000532
326374,0.113566,-0.020748,-0.019725,0.087266,-0.0,-0.0,3.0,0.3261,0.334207,0.3261,0.31771,,,,,,,0.112355,-0.019951,-0.010652,0.068914,-0.000233,-0.000519
326394,0.113078,-0.020632,-0.019738,0.087266,-0.0,-0.0,3.0,0.3261,0.333593,0.3261,0.318366,,,,,,,0.112358,-0.019955,-0.010662,-0.025757,-0.000221,-0.000519
326414,0.11307,-0.020509,-0.019741,0.087266,-0.0,-0.0,3.0,0.3261,0.337261,0.3261,0.314395,,,,,,,0.112473,-0.01996,-0.010672,-0.04938,-0.000208,-0.000518
326434,0.113076,-0.020388,-0.019752,0.087266,-0.0,-0.0,3.0,0.3261,0.338356,0.3261,0.313185,,,,,,,0.112599,-0.019965,-0.010683,-0.072524,-0.000196,-0.000518
326454,0.11332,-0.020507,-0.019742,0.087266,-0.0,-0.0,3.0,0.3261,0.34046,0.3261,0.310826,,,,,,,0.112597,-0.019969,-0.010693,-0.025088,-0.000207,-0.000516
326474,0.113322,-0.0205,-0.019864,0.087266,-0.0,-0.0,3.0,0.3261,0.343922,0.3261,0.306846,,,,,,,0.112699,-0.019973,-0.010703,-0.044324,-0.000206,-0.000527
326494,0.113324,-0.020873,-0.019721,0.087266,-0.0,-0.0,3.0,0.3261,0.342739,0.3261,0.30822,,,,,,,0.112449,-0.019977,-0.010714,0.004068,-0.000243,-0.000512
326514,0.113202,-0.020874,-0.019723,0.087266,-0.0,-0.0,3.0,0.3261,0.339063,0.3261,0.312396,,,,,,,0.112086,-0.019981,-0.010724,0.050616,-0.000243,-0.000511
326534,0.11295,-0.020754,-0.019729,0.087266,-0.0,-0.0,3.0,0.3261,0.334919,0.3261,0.316945,,,,,,,0.111732,-0.019986,-0.010734,0.070218,-0.00023,-0.000511
326554,0.112337,-0.020524,-0.019629,0.087266,-0.0,-0.0,3.0,0.3261,0.331198,0.3261,0.320892,,,,,,,0.111382,-0.01999,-0.010745,0.019545,-0.000207,-0.0005
326574,0.111971,-0.020407,-0.019641,0.087266,-0.0,-0.0,3.0,0.3261,0.333776,0.3261,0.318171,,,,,,,0.111257,-0.019995,-0.010755,-0.026859,-0.000194,-0.0005
326594,0.111606,-0.020533,-0.019639,0.087266,-0.0,-0.0,3.0,0.3261,0.337055,0.3261,0.314621,,,,,,,0.111247,-0.019999,-0.010765,-0.095153,-0.000207,-0.000499
326614,0.111485,-0.020656,-0.019634,0.087266,-0.0,-0.0,3.0,0.3261,0.335943,0.3261,0.315837,,,,,,,0.110763,-0.020003,-0.010775,-0.025217,-0.000219,-0.000497
