time_ms,roll,pitch,yaw,roll_rate,pitch_rate,yaw_rate,reference_roll,reference_pitch,reference_yaw,reference_throttle,throttle_1,throttle_2,throttle_3,throttle_4,roll_predicted,pitch_predicted,yaw_predicted,roll_rate_predicted,pitch_rate_predicted,yaw_rate_predicted
55918,-0.000348,-0.013063,-0.002811,1.4e-05,-0.001065,-0.001064,-0.0,-0.0,-0.0,2.0,0.282024,0.281997,0.282024,0.282051,-0.0,-554.292155,-0.0,-0.0,-10.223143,-0.0
55938,-0.000349,-0.013063,-0.002688,1.4e-05,-0.0,-0.001064,1.3e-05,-0.0,-0.0,2.0,0.282024,0.281987,0.282024,0.282062,0.0,-554.707685,0.0,1.1e-05,-10.665141,0.0
55958,-0.000105,-0.013062,-0.002565,1.4e-05,-0.001064,-0.001064,0.000485,-0.0,-0.0,2.0,0.282024,0.281887,0.282024,0.282161,5e-06,-555.140677,1e-06,0.000427,-11.076163,1e-06
55978,-0.000228,-0.013062,-0.002443,-0.00105,-0.001064,-0.001064,0.001437,-0.0,-0.0,2.0,0.282024,0.281443,0.282024,0.282604,3.1e-05,-555.588713,7e-06,0.001546,-11.378769,6e-06
55998,-0.000352,-0.01294,-0.0022,-0.00105,-0.0,-0.001064,0.002204,-0.0,-0.0,2.0,0.282024,0.279582,0.282024,0.284436,0.000106,-556.04644,3.3e-05,0.00291,-11.510179,2e-05
56018,-0.000475,-0.012818,-0.002079,-0.001051,-1e-06,-0.001064,0.003339,-0.0,-0.0,2.0,0.282024,0.279027,0.282024,0.284976,0.00026,-556.50644,0.000105,0.004605,-11.441035,4.3e-05
56038,-0.000599,-0.012819,-0.001835,1.4e-05,-0.001065,-0.001064,0.004418,-0.0,-0.0,2.0,0.282024,0.278473,0.282024,0.285513,0.000595,-556.96077,0.000311,0.006393,-11.1859,7.8e-05
56058,-0.0006,-0.012818,-0.001591,1.4e-05,-1e-06,-0.001064,0.00518,-0.0,-0.0,2.0,0.282024,0.279563,0.282024,0.284454,0.00167,-557.402701,0.001202,0.007645,-10.799093,0.000123
56078,-0.000479,-0.012818,-0.001468,1.4e-05,-1e-06,-0.001064,0.00565,-0.0,-0.0,2.0,0.282024,0.279328,0.282024,0.284684,-0.005664,-557.828011,-0.006569,-0.003836,-10.35792,0.00017
56098,-0.000358,-0.01294,-0.001223,1.4e-05,-0.001065,-0.001064,0.006648,-0.0,-0.0,2.0,0.282024,0.278869,0.282024,0.285129,-0.001057,-558.235895,-0.001817,0.007352,-9.942202,0.000174
56118,-0.000238,-0.01294,-0.000978,1.4e-05,-0.001064,-0.001064,0.007607,-0.0,-0.0,2.0,0.282024,0.278412,0.282024,0.285571,-0.000316,-558.628357,-0.001348,0.012842,-9.618712,0.00023
56138,-0.000117,-0.012818,-0.000733,-0.001051,-0.001064,-0.001064,0.008543,-0.0,-0.0,2.0,0.282024,0.276452,0.282024,0.287442,0.000279,-559.009846,-0.001293,0.016052,-9.433518,0.000309
56158,-0.000242,-0.012818,-0.000368,-0.001051,-0.001064,-0.001064,0.009053,-0.0,-0.0,2.0,0.282024,0.277549,0.282024,0.286399,0.000951,-559.386317,-0.001476,0.018061,-9.410348,0.000402
56178,-0.000365,-0.012818,-0.000124,-0.001051,-0.001065,-0.001064,0.009804,-0.0,-0.0,2.0,0.282024,0.275534,0.282024,0.288307,0.001864,-559.764351,-0.001969,0.01955,-9.551446,0.000506
56198,-0.00049,-0.012818,0.000241,-0.001051,-1e-06,-0.001064,0.011331,-0.0,-0.0,2.0,0.282024,0.274678,0.282024,0.289105,0.003477,-560.150305,-0.003183,0.021109,-9.83833,0.00062
56218,-0.000491,-0.012818,0.000485,1.4e-05,-1e-06,-0.001064,0.011922,-0.0,-0.0,2.0,0.282024,0.275751,0.282024,0.288103,0.008484,-560.549485,-0.007774,0.020504,-10.231886,0.000744
56238,-0.000372,-0.012696,0.000852,1.4e-05,-0.0,-0.001064,0.012888,-0.0,-0.0,2.0,0.282024,0.275194,0.282024,0.288624,-0.03394,-560.964133,0.035813,-0.033208,-10.673227,0.00085
56258,-0.000252,-0.01294,0.001219,1.4e-05,-0.0,-0.001064,0.013798,-0.0,-0.0,2.0,0.282024,0.274646,0.282024,0.289135,-0.005973,-561.397413,0.006353,0.016175,-11.088447,0.000779
56278,-0.000131,-0.012818,0.001464,1.4e-05,-0.001064,-0.001064,0.014704,-0.0,-0.0,2.0,0.282024,0.274085,0.282024,0.289654,-0.002796,-561.846051,0.003281,0.032517,-11.399394,0.000935
56298,-1.2e-05,-0.012818,0.001831,1.4e-05,-0.001064,-0.001064,0.015157,-0.0,-0.0,2.0,0.282024,0.2737,0.282024,0.290009,-0.001019,-562.304758,0.002207,0.037804,-11.541514,0.001171
56318,-1.4e-05,-0.012818,0.002198,-0.001051,-0.001064,-0.001064,0.015733,-0.0,-0.0,2.0,0.282024,0.273207,0.282024,0.290461,0.000511,-562.766175,0.001949,0.039152,-11.483022,0.001432
56338,-0.000139,-0.012818,0.002563,-0.001037,-0.001065,-0.002128,0.016904,-0.0,-0.0,2.0,0.282024,0.270876,0.282024,0.292571,0.002449,-563.222319,0.002548,0.039382,-11.236187,0.001696
56358,-0.000263,-0.012818,0.002929,-0.001051,-0.0,-0.001064,0.016904,-0.0,-0.0,2.0,0.282024,0.27052,0.282024,0.29289,0.007163,-563.66634,0.006105,0.037346,-10.85395,0.00195
56378,-0.000388,-0.012939,0.003294,-0.00105,-0.0,-0.001064,0.019041,-0.0,-0.0,2.0,0.282024,0.270816,0.282024,0.292626,-0.033702,-564.093601,-0.036241,0.010195,-10.413453,0.002168
56398,-0.000268,-0.01294,0.003661,1.4e-05,-0.001065,-0.001064,0.019719,-0.0,-0.0,2.0,0.282024,0.270272,0.282024,0.293111,-0.00449,-564.503604,-0.007247,0.044354,-9.99527,0.00233
56418,-2.6e-05,-0.013062,0.004029,2.8e-05,-0.0,-0.002129,0.020613,-0.0,-0.0,2.0,0.282024,0.269635,0.282024,0.293676,-0.001005,-564.898125,-0.005221,0.052745,-9.667389,0.002609
56438,0.000216,-0.013185,0.004275,1.4e-05,0.0,-0.001064,0.021504,-0.0,-0.0,2.0,0.282024,0.269007,0.282024,0.29423,0.001269,-565.281485,-0.005031,0.056014,-9.477103,0.002914
56458,0.000335,-0.013063,0.004764,1.4e-05,-0.001064,-0.001065,0.02216,-0.0,-0.0,2.0,0.282024,0.268415,0.282024,0.294748,0.003519,-565.659625,-0.005704,0.057692,-9.449102,0.00323
56478,0.000333,-0.012941,0.00513,-0.00105,-0.001064,-0.001065,0.02299,-0.0,-0.0,2.0,0.282024,0.267705,0.282024,0.295367,0.006397,-566.039143,-0.007388,0.058507,-9.586268,0.003554
56498,0.000209,-0.012941,0.005374,-0.00105,0.0,-0.001064,0.023764,-0.0,-0.0,2.0,0.282024,0.265319,0.282024,0.297414,0.011341,-566.426435,-0.011346,0.057564,-9.87046,0.003886
56518,0.000207,-0.012819,0.00574,-0.001051,0.0,-0.001064,0.024518,-0.0,-0.0,2.0,0.282024,0.264579,0.282024,0.298039,0.026493,-566.826833,-0.025654,0.050942,-10.262644,0.004215
56538,8.3e-05,-0.012818,0.006105,-0.001051,-0.001064,-0.001064,0.025485,-0.0,-0.0,2.0,0.282024,0.265279,0.282024,0.297448,-0.105218,-567.236554,0.108514,-0.06924,-10.703786,0.003194
56558,8.1e-05,-0.01294,0.00635,1.4e-05,0.0,-0.001064,0.026395,-0.0,-0.0,2.0,0.282024,0.264459,0.282024,0.29814,-0.015757,-567.670393,0.015713,0.051889,-11.120614,0.003124
56578,0.000201,-0.012941,0.006717,1.4e-05,0.0,-0.001064,0.027286,-0.0,-0.0,2.0,0.282024,0.263642,0.282024,0.298825,-0.007114,-568.12033,0.007536,0.081616,-11.434576,0.003561
56598,0.000566,-0.012942,0.006841,1.4e-05,1e-06,-0.001064,0.027724,-0.0,-0.0,2.0,0.282024,0.263136,0.282024,0.299246,-0.002704,-568.58049,0.004729,0.088369,-11.580167,0.004137
56618,0.000685,-0.013065,0.007208,1.4e-05,-0.001063,-0.001065,0.029095,-0.0,-0.0,2.0,0.282024,0.262101,0.282024,0.300102,0.000797,-569.0435,0.003909,0.088553,-11.524664,0.004741
56638,0.000805,-0.013065,0.007575,1.4e-05,1e-06,-0.001064,0.029592,-0.0,-0.0,2.0,0.282024,0.259815,0.282024,0.301962,0.004955,-569.501341,0.004959,0.08578,-11.27974,0.005331
56658,0.000926,-0.013066,0.007698,-0.00105,1e-06,-0.001064,0.030017,-0.0,-0.0,2.0,0.282024,0.26079,0.282024,0.301173,0.01458,-569.94711,0.012026,0.079755,-10.898282,0.005881
56678,0.001048,-0.013066,0.007821,-0.001064,-0.001064,-1e-06,0.031349,-0.0,-0.0,2.0,0.282024,0.259704,0.282024,0.302051,-0.069139,-570.375186,-0.074777,0.023146,-10.457857,0.006346
56698,0.001046,-0.012944,0.008187,1.4e-05,-0.001063,-0.001065,0.032229,-0.0,-0.0,2.0,0.282024,0.258784,0.282024,0.302788,-0.008757,-570.786718,-0.014886,0.088506,-10.039516,0.006681
56718,0.001289,-0.012945,0.008311,1.4e-05,-0.001063,-0.001066,0.033141,-0.0,-0.0,2.0,0.282024,0.257941,0.282024,0.303457,-0.001837,-571.183003,-0.010827,0.102239,-9.711794,0.007235
56738,0.001411,-0.012824,0.008434,1.4e-05,-0.001063,-0.001066,0.033592,-0.0,-0.0,2.0,0.282024,0.257174,0.282024,0.304062,0.002552,-571.56815,-0.010409,0.105813,-9.522423,0.007823
56758,0.001776,-0.012948,0.008558,0.0,0.0,0.0,0.034633,-0.0,-0.0,2.0,0.282024,0.256279,0.282024,0.304762,0.006778,-571.948125,-0.011652,0.107066,-9.496221,0.008417
56778,0.002141,-0.012827,0.008805,0.001064,-0.001064,-2e-06,0.03544,-0.0,-0.0,2.0,0.282024,0.257178,0.282024,0.304058,0.01212,-572.329556,-0.014802,0.106793,-9.635868,0.009018
56798,0.002506,-0.012707,0.009051,0.001091,-0.001059,-0.002131,0.036061,-0.0,-0.0,2.0,0.282024,0.256459,0.282024,0.304621,0.021303,-572.718843,-0.02224,0.103065,-9.922692,0.009624
56818,0.003239,-0.012711,0.009055,0.001078,3e-06,-0.001064,0.036979,-0.0,-0.0,2.0,0.282024,0.254066,0.282024,0.306466,0.050224,-573.121248,-0.049737,0.088766,-10.316833,0.010211
56838,0.004215,-0.012837,0.009062,0.001064,0.0,0.0,0.037844,-0.0,-0.0,2.0,0.282024,0.255173,0.282024,0.305618,0.198816,-573.459628,-0.19205,-0.212923,-10.758292,-0.000303
56858,0.00519,-0.01272,0.009312,0.002129,-0.001064,-6e-06,0.038668,-0.0,-0.0,2.0,0.282024,0.256335,0.282024,0.304718,0.00051,-573.894357,-0.000498,-0.115389,-11.183241,-0.001661
56878,0.00641,-0.012726,0.009442,0.003206,-0.001057,-0.001071,0.039079,-0.0,-0.0,2.0,0.282024,0.256097,0.282024,0.304903,-0.001775,-574.347073,-0.000902,0.003928,-11.514743,-0.002082
56898,0.007753,-0.012611,0.009572,0.003206,-0.001056,-0.001073,0.039607,-0.0,-0.0,2.0,0.282024,0.257556,0.282024,0.303762,-0.000412,-574.81078,-0.001534,0.057749,-11.683118,-0.001894
56918,0.009584,-0.012619,0.009583,0.003206,-0.001054,-0.001074,0.040962,-0.0,-0.0,2.0,0.282024,0.257172,0.282024,0.304063,0.002378,-575.278257,-0.001208,0.08102,-11.650189,-0.001426
56938,0.011659,-0.012385,0.009717,0.004257,0.0,0.0,0.041822,-0.0,-0.0,2.0,0.282024,0.258821,0.282024,0.302759,0.00701,-575.7414,0.001034,0.089228,-11.422695,-0.000848
56958,0.013856,-0.012397,0.009852,0.005334,1.5e-05,-0.001064,0.042608,-0.0,-0.0,2.0,0.282024,0.260582,0.282024,0.301342,0.018821,-576.193043,0.010558,0.087659,-11.050804,-0.000254
56978,0.016298,-0.012288,0.00999,0.005334,-0.001047,-0.001082,0.043075,-0.0,-0.0,2.0,0.282024,0.260955,0.282024,0.30104,-0.196286,-576.627728,-0.207304,0.043025,-10.612151,0.000267
56998,0.019229,-0.012179,0.009884,0.006399,-0.001044,-0.001085,0.043885,-0.0,-0.0,2.0,0.282024,0.261405,0.282024,0.300673,-0.015143,-577.043439,-0.027121,0.146191,-10.189783,0.000883
57018,0.022158,-0.012072,0.010021,0.006386,-0.001064,-2.4e-05,0.04468,-0.0,-0.0,2.0,0.282024,0.263537,0.282024,0.298913,-0.003968,-577.445619,-0.020336,0.144026,-9.855038,0.001748
57038,0.025698,-0.011967,0.01004,0.006386,-0.001064,-2.7e-05,0.045466,-0.0,-0.0,2.0,0.282024,0.265968,0.282024,0.296862,0.002155,-577.836383,-0.019522,0.139269,-9.658382,0.002564
57058,0.029363,-0.011863,0.010061,0.007462,3.1e-05,-0.001064,0.04601,-0.0,-0.0,2.0,0.282024,0.266975,0.282024,0.295998,0.007629,-578.221703,-0.021027,0.136243,-9.6265,0.003346
57078,0.033148,-0.011757,0.009958,0.008514,0.0,0.0,0.046566,-0.0,-0.0,2.0,0.282024,0.269624,0.282024,0.293686,0.01434,-578.608282,-0.024979,0.133487,-9.762928,0.004115
57098,0.0373,-0.011775,0.00986,0.009578,-0.001063,-4e-05,0.047295,-0.0,-0.0,2.0,0.282024,0.270846,0.282024,0.292599,0.025829,-579.00261,-0.034344,0.127773,-10.048868,0.004879
57118,0.04182,-0.011672,0.009762,0.008514,-0.001063,-4.4e-05,0.04841,-0.0,-0.0,2.0,0.282024,0.272105,0.282024,0.291465,0.062657,-579.40997,-0.069461,0.109358,-10.44346,0.005615
57138,0.046338,-0.011443,0.009536,0.009578,0.0,0.0,0.049176,-0.0,-0.0,2.0,0.282024,0.275078,0.282024,0.288732,5.456128,-579.693837,-5.466228,-0.621294,-10.885069,-0.033479
57158,0.050979,-0.011338,0.009437,0.010643,-0.001063,-5.4e-05,0.049976,-0.0,-0.0,2.0,0.282024,0.278103,0.282024,0.285868,6.261125,-580.095246,-6.332929,-3.101633,-11.307017,-0.20208
57178,0.055744,-0.011349,0.009096,0.010643,-0.001063,-5.9e-05,0.050743,-0.0,-0.0,2.0,0.282024,0.278248,0.282024,0.285729,6.126796,-580.551865,-6.36475,-5.320564,-11.591585,-0.387039
57198,0.060753,-0.011237,0.008753,0.009566,-6.5e-05,0.001062,0.050743,-0.0,-0.0,2.0,0.282024,0.280332,0.282024,0.283702,5.924659,-581.008669,-6.460597,-7.283119,-11.613493,-0.586941
57218,0.065765,-0.011124,0.008411,0.010631,-0.001132,0.000992,0.052124,-0.0,-0.0,2.0,0.282024,0.283407,0.282024,0.280631,5.610005,-581.431125,-6.644454,-8.720556,-11.294147,-0.78019
57238,0.070774,-0.011008,0.008067,0.010643,-0.001062,-7.5e-05,0.052556,-0.0,-0.0,2.0,0.282024,0.285416,0.282024,0.278573,5.124822,-581.750418,-6.973694,-9.545146,-10.650408,-0.950604
57258,0.075788,-0.011003,0.007484,0.010643,-0.001061,-8.1e-05,0.053405,-0.0,-0.0,2.0,0.282024,0.287297,0.282024,0.276606,4.455655,-581.860498,-7.457853,-9.880657,-9.777173,-1.093763
57278,0.080797,-0.010878,0.007016,0.009567,-0.001147,0.000975,0.054126,-0.0,-0.0,2.0,0.282024,0.28929,0.282024,0.274479,3.805852,-581.719769,-7.887004,-9.869974,-8.805461,-1.207276
57298,0.085811,-0.010751,0.006549,0.009568,-0.001152,0.000969,0.054844,-0.0,-0.0,2.0,0.282024,0.291344,0.282024,0.272239,3.318984,-581.444611,-8.105826,-9.728585,-7.853088,-1.297414
57318,0.090703,-0.010621,0.006081,0.009568,-0.001156,0.000964,0.055217,-0.0,-0.0,2.0,0.282024,0.292126,0.282024,0.271373,2.920584,-581.147061,-8.168235,-9.594407,-6.98405,-1.371049
57338,0.095224,-0.010603,0.005494,0.009579,-0.001059,-0.000101,0.055943,-0.0,-0.0,2.0,0.282024,0.294065,0.282024,0.269194,2.53004,-580.878487,-8.124818,-9.47417,-6.212486,-1.430356
57358,0.099751,-0.010461,0.004901,0.008504,-0.001165,0.000953,0.056673,-0.0,-0.0,2.0,0.282024,0.294689,0.282024,0.268483,2.099911,-580.667936,-7.991121,-9.30476,-5.526865,-1.474703
57378,0.104156,-0.010315,0.004307,0.008504,-0.001169,0.000948,0.057286,-0.0,-0.0,2.0,0.282024,0.296727,0.282024,0.266126,1.61483,-580.539591,-7.779317,-8.977109,-4.909791,-1.504603
57398,0.108073,-0.010167,0.003711,0.00744,-0.001173,0.000943,0.057886,-0.0,-0.0,2.0,0.282024,0.298643,0.282024,0.26386,1.110152,-580.506525,-7.532255,-8.333401,-4.352898,-1.528814
57418,0.11174,-0.010016,0.003112,0.00744,-0.001176,0.000939,0.058675,-0.0,-0.0,2.0,0.282024,0.297713,0.282024,0.264966,0.653341,-580.555272,-7.315164,-7.493281,-3.854529,-1.549834
57438,0.11517,-0.009977,0.002398,0.005312,-0.001179,0.000935,0.059355,-0.0,-0.0,2.0,0.282024,0.299484,0.282024,0.262849,0.279382,-580.653058,-7.161939,-6.600172,-3.4056,-1.569033
57458,0.117983,-0.009943,0.001802,0.005311,-0.000125,0.001057,0.060028,-0.0,-0.0,2.0,0.282024,0.299726,0.282024,0.262557,-0.01697,-580.770627,-7.066789,-5.705001,-2.997122,-1.583625
57478,0.12043,-0.009907,0.001204,0.004248,-0.001184,0.000929,0.060693,-0.0,-0.0,2.0,0.282024,0.29987,0.282024,0.262383,-0.252762,-580.890826,-7.011957,-4.863364,-2.623735,-1.592852
57498,0.122512,-0.009747,0.000598,0.003194,-0.001056,-0.00013,0.060693,-0.0,-0.0,2.0,0.282024,0.30015,0.282024,0.262043,-0.443833,-581.005644,-6.982368,-4.13777,-2.277775,-1.599581
57518,0.123985,-0.00958,-0.000134,0.002118,-0.000132,0.001056,0.061857,-0.0,-0.0,2.0,0.282024,0.299805,0.282024,0.262461,-0.60198,-581.112017,-6.967712,-3.515956,-1.950485,-1.604529
57538,0.124971,-0.009663,-0.00073,0.001055,-0.001189,0.000923,0.062351,-0.0,-0.0,2.0,0.282024,0.299537,0.282024,0.262786,-0.734687,-581.209257,-6.961145,-2.980886,-1.635997,-1.608102
57558,0.125461,-0.009624,-0.001337,-1e-05,-0.000133,0.001056,0.063198,-0.0,-0.0,2.0,0.282024,0.298964,0.282024,0.263476,-0.846617,-581.297797,-6.957926,-2.516972,-1.330456,-1.610615
57578,0.125342,-0.009586,-0.001947,-0.001074,-0.000133,0.001056,0.063835,-0.0,-0.0,2.0,0.282024,0.298247,0.282024,0.264332,-0.940597,-581.378563,-6.954576,-2.11203,-1.031359,-1.612312
57598,0.124858,-0.009671,-0.002551,-0.002128,0.0,0.0,0.064169,-0.0,-0.0,2.0,0.282024,0.297473,0.282024,0.26525,-1.01828,-581.452643,-6.948371,-1.75702,-0.736932,-1.613387
57618,0.124122,-0.009756,-0.003156,-0.002139,-0.000132,0.001056,0.064967,-0.0,-0.0,2.0,0.282024,0.297785,0.282024,0.264881,-1.080545,-581.521085,-6.937044,-1.444687,-0.445769,-1.613995
57638,0.123272,-0.009842,-0.003763,-0.002138,-0.001187,0.000925,0.065361,-0.0,-0.0,2.0,0.282024,0.298183,0.282024,0.264408,-1.127701,-581.584769,-6.918583,-1.166439,-0.156718,-1.614566
57658,0.122293,-0.009807,-0.004377,-0.002138,-0.001186,0.000926,0.065825,-0.0,-0.0,2.0,0.282024,0.29849,0.282024,0.264042,-1.159427,-581.644326,-6.891087,-0.914916,0.13076,-1.615766
57678,0.121565,-0.009643,-0.005119,-0.002139,-0.000129,0.001056,0.066567,-0.0,-0.0,2.0,0.282024,0.298765,0.282024,0.263715,-1.175123,-581.70004,-6.852683,-0.692125,0.417209,-1.617812
57698,0.121081,-0.0096,-0.005853,-0.001074,-0.000129,0.001056,0.067243,-0.0,-0.0,2.0,0.282024,0.299129,0.282024,0.263278,-1.174108,-581.751749,-6.801482,-0.49934,0.70343,-1.620935
57718,0.120475,-0.009559,-0.006588,-0.002139,-0.000128,0.001057,0.067826,-0.0,-0.0,2.0,0.282024,0.299467,0.282024,0.26287,-1.155672,-581.798758,-6.735598,-0.337472,0.990262,-1.625395
57738,0.119983,-0.009524,-0.007199,-0.001073,-0.001184,0.000929,0.068126,-0.0,-0.0,2.0,0.282024,0.299936,0.282024,0.262303,-1.119255,-581.839768,-6.653297,-0.207364,1.278383,-1.63148
57758,0.119622,-0.009603,-0.007925,-0.001073,-0.001184,0.00093,0.068709,-0.0,-0.0,2.0,0.282024,0.301663,0.282024,0.260186,-1.064785,-581.872836,-6.553318,-0.109471,1.568138,-1.639481
57778,0.119137,-0.00944,-0.008667,-0.001074,-0.000126,0.001057,0.069045,-0.0,-0.0,2.0,0.282024,0.302091,0.282024,0.259655,-0.993217,-581.895423,-6.4354,-0.04405,1.859346,-1.649695
57798,0.118897,-0.009391,-0.009521,-0.001074,-0.000126,0.001057,0.069658,-0.0,-0.0,2.0,0.282024,0.302491,0.282024,0.259156,-0.907183,-581.904594,-6.300926,-0.010205,2.151129,-1.662355
57818,0.118657,-0.00947,-0.010247,-0.001074,-0.000126,0.001057,0.070382,-0.0,-0.0,2.0,0.282024,0.302839,0.282024,0.25872,-0.811398,-581.897421,-6.153356,-0.005369,2.441659,-1.677581
57838,0.118172,-0.009315,-0.010866,-0.001073,-0.001182,0.000931,0.070712,-0.0,-0.0,2.0,0.282024,0.30323,0.282024,0.258228,-0.712414,-581.871552,-5.998009,-0.024914,2.727921,-1.695341
57858,0.1178,-0.009045,-0.011368,-0.002127,-0.001057,-0.000125,0.071306,-0.0,-0.0,2.0,0.282024,0.303565,0.282024,0.257805,-0.617469,-581.825757,-5.840956,-0.061523,3.005486,-1.715385
57878,0.117312,-0.008661,-0.011758,-0.002127,-0.001057,-0.000125,0.071859,-0.0,-0.0,2.0,0.282024,0.303846,0.282024,0.257449,-0.53289,-581.760204,-5.687449,-0.106354,3.268364,-1.737302
57898,0.116823,-0.008291,-0.011905,-0.002127,-0.001057,-0.000124,0.072121,-0.0,-0.0,2.0,0.282024,0.3029,0.282024,0.258643,-0.462939,-581.676381,-5.540734,-0.150544,3.509135,-1.760606
57918,0.116089,-0.007938,-0.011808,-0.002119,-0.000934,-0.00118,0.072717,-0.0,-0.0,2.0,0.282024,0.303062,0.282024,0.258439,-0.409619,-581.576778,-5.401764,-0.186225,3.719373,-1.784792
57938,0.115348,-0.007598,-0.011466,-0.002119,-0.001992,-0.001302,0.073215,-0.0,-0.0,2.0,0.282024,0.303228,0.282024,0.258231,-0.373236,-581.464535,-5.269622,-0.207897,3.890321,-1.809428
57958,0.11437,-0.007374,-0.011241,-0.003176,-0.000814,-0.002236,0.073834,-0.0,-0.0,2.0,0.282024,0.301925,0.282024,0.259862,-0.353235,-581.343195,-5.142186,-0.212424,4.01379,-1.834159
57978,0.113264,-0.007158,-0.010893,-0.003184,-0.000937,-0.001178,0.074134,-0.0,-0.0,2.0,0.282024,0.301991,0.282024,0.259779,-0.348894,-581.216568,-5.016679,-0.19887,4.083054,-1.858696
57998,0.112165,-0.00707,-0.010418,-0.003185,0.000119,-0.001058,0.074668,-0.0,-0.0,2.0,0.282024,0.301956,0.282024,0.259823,-0.359762,-581.088668,-4.890022,-0.167402,4.093605,-1.882761
58018,0.11106,-0.007089,-0.010178,-0.003185,0.000118,-0.001058,0.075142,-0.0,-0.0,2.0,0.282024,0.301916,0.282024,0.259873,-0.385816,-580.963677,-4.759061,-0.118886,4.043586,-1.906058
58038,0.10972,-0.007361,-0.009806,-0.003185,0.000117,-0.001058,0.075618,-0.0,-0.0,2.0,0.282024,0.301778,0.282024,0.260044,-0.427371,-580.845898,-4.620788,-0.054218,3.933889,-1.928239
58058,0.108372,-0.007503,-0.00956,-0.003184,-0.000943,-0.001173,0.075955,-0.0,-0.0,2.0,0.282024,0.301645,0.282024,0.260209,-0.484691,-580.739664,-4.472716,0.025971,3.767856,-1.9489
58078,0.107024,-0.007645,-0.009315,-0.003184,-0.000944,-0.001172,0.076415,-0.0,-0.0,2.0,0.282024,0.30145,0.282024,0.26045,-0.557272,-580.649144,-4.313533,0.121436,3.550716,-1.967579
58098,0.10556,-0.007794,-0.00895,-0.004249,0.000112,-0.001058,0.076753,-0.0,-0.0,2.0,0.282024,0.299899,0.282024,0.262348,-0.642852,-580.577982,-4.144015,0.231586,3.288881,-1.983822
58118,0.103969,-0.007936,-0.008707,-0.004248,0.00011,-0.001059,0.077189,-0.0,-0.0,2.0,0.282024,0.299569,0.282024,0.262746,-0.736539,-580.528756,-3.96786,0.35471,2.989333,-1.99725
58138,0.102378,-0.008194,-0.008579,-0.004248,0.000109,-0.001059,0.077766,-0.0,-0.0,2.0,0.282024,0.299159,0.282024,0.263242,-0.830819,-580.502381,-3.791685,0.486914,2.659217,-2.007663
58158,0.10055,-0.008459,-0.008332,-0.004248,0.000107,-0.001059,0.077992,-0.0,-0.0,2.0,0.282024,0.29876,0.282024,0.26372,-0.917021,-580.497811,-3.623612,0.621411,2.305712,-2.015114
58178,0.098715,-0.008717,-0.008206,-0.004248,0.000105,-0.001059,0.0784,-0.0,-0.0,2.0,0.282024,0.298251,0.282024,0.264328,-0.987728,-580.512334,-3.470933,0.749739,1.936087,-2.019869
58198,0.097002,-0.00898,-0.007958,-0.005312,0.000103,-0.001059,0.078798,-0.0,-0.0,2.0,0.282024,0.297779,0.282024,0.264888,-1.038618,-580.542393,-3.33826,0.86325,1.557731,-2.022329
58218,0.095045,-0.009117,-0.00784,-0.004247,0.000101,-0.001059,0.079259,-0.0,-0.0,2.0,0.282024,0.297149,0.282024,0.265631,-1.068798,-580.584508,-3.227128,0.959149,1.178081,-2.023188
58238,0.093216,-0.00938,-0.007595,-0.004247,9.9e-05,-0.00106,0.079459,-0.0,-0.0,2.0,0.282024,0.296629,0.282024,0.26624,-1.079598,-580.635899,-3.136696,1.043076,0.803304,-2.023792
58258,0.091382,-0.009637,-0.00747,-0.005311,9.7e-05,-0.00106,0.079792,-0.0,-0.0,2.0,0.282024,0.296025,0.282024,0.266944,-1.073752,-580.694666,-3.064789,1.102919,0.439291,-2.024209
58278,0.089546,-0.009656,-0.007236,-0.004246,-0.000965,-0.001155,0.080335,-0.0,-0.0,2.0,0.282024,0.295307,0.282024,0.267774,-1.054849,-580.759679,-3.008665,1.135042,0.092778,-2.024411
58298,0.087716,-0.009796,-0.006997,-0.004246,-0.000967,-0.001153,0.08069,-0.0,-0.0,2.0,0.282024,0.294625,0.282024,0.268556,-1.026514,-580.83034,-2.965448,1.141497,-0.229547,-2.02439
58318,0.08588,-0.009565,-0.006894,-0.004246,-0.000969,-0.001152,0.080872,-0.0,-0.0,2.0,0.282024,0.293973,0.282024,0.269299,-0.991977,-580.906325,-2.932361,1.126978,-0.521488,-2.024162
58338,0.084288,-0.009703,-0.006653,-0.004247,9e-05,-0.00106,0.081239,-0.0,-0.0,2.0,0.282024,0.293309,0.282024,0.270049,-0.953867,-580.987357,-2.906826,1.097223,-0.777604,-2.023755
58358,0.082702,-0.009836,-0.006534,-0.003182,8.8e-05,-0.001061,0.081404,-0.0,-0.0,2.0,0.282024,0.292693,0.282024,0.270741,-0.914122,-581.073052,-2.886506,1.057612,-0.993374,-2.023206
58378,0.081234,-0.009968,-0.006415,-0.003193,0.0,0.0,0.081739,-0.0,-0.0,2.0,0.282024,0.293414,0.282024,0.26993,-0.874013,-581.162824,-2.869293,1.01258,-1.165242,-2.022556
58398,0.080014,-0.0101,-0.006295,-0.003182,8.5e-05,-0.001061,0.082132,-0.0,-0.0,2.0,0.282024,0.292796,0.282024,0.270625,-0.83417,-581.255853,-2.853273,0.965561,-1.290708,-2.021845
58418,0.078794,-0.010226,-0.006297,-0.002118,8.4e-05,-0.001061,0.082558,-0.0,-0.0,2.0,0.282024,0.293527,0.282024,0.269803,-0.79464,-581.351086,-2.836662,0.918597,-1.368364,-2.021107
58438,0.077815,-0.010346,-0.006418,-0.002128,0.0,0.0,0.082706,-0.0,-0.0,2.0,0.282024,0.291644,0.282024,0.271907,-0.754944,-581.447261,-2.817725,0.872653,-1.397907,-2.020374
58458,0.077083,-0.010593,-0.006413,-0.002128,0.0,0.0,0.082998,-0.0,-0.0,2.0,0.282024,0.292572,0.282024,0.270876,-0.714126,-581.542936,-2.794684,0.82747,-1.380058,-2.019672
58478,0.076474,-0.010591,-0.006539,-0.001064,0.0,0.0,0.083286,-0.0,-0.0,2.0,0.282024,0.293542,0.282024,0.269786,-0.67079,-581.636511,-2.765634,0.781892,-1.316499,-2.019024
58498,0.075987,-0.010588,-0.006664,-0.001063,-0.001061,-8.1e-05,0.083581,-0.0,-0.0,2.0,0.282024,0.293131,0.282024,0.270249,-0.623149,-581.726226,-2.728472,0.733603,-1.20967,-2.018448
58518,0.075744,-0.010584,-0.006787,-0.001063,-0.001061,-8.1e-05,0.083581,-0.0,-0.0,2.0,0.282024,0.292928,0.282024,0.270477,-0.569119,-581.810141,-2.680889,0.679159,-1.062534,-2.017962
58538,0.075744,-0.010453,-0.007036,1e-06,-0.001061,-8.1e-05,0.084035,-0.0,-0.0,2.0,0.282024,0.29402,0.282024,0.269245,-0.50652,-581.886097,-2.620485,0.614967,-0.8783,-2.017577
58558,0.075867,-0.010326,-0.007162,1e-06,-0.001061,-8.1e-05,0.084214,-0.0,-0.0,2.0,0.282024,0.293875,0.282024,0.26941,-0.433452,-581.951677,-2.545093,0.536601,-0.660251,-2.0173
58578,0.075989,-0.010199,-0.007288,1.2e-05,-0.00098,-0.001142,0.084515,-0.0,-0.0,2.0,0.282024,0.293684,0.282024,0.269626,-0.349017,-582.004207,-2.453443,0.44009,-0.411492,-2.017131
58598,0.076233,-0.010193,-0.007408,0.0,0.0,0.0,0.084741,-0.0,-0.0,2.0,0.282024,0.293562,0.282024,0.269763,-0.254277,-582.040892,-2.346137,0.323361,-0.134997,-2.017057
58618,0.076234,-0.010189,-0.00753,-0.001064,0.0,0.0,0.084851,-0.0,-0.0,2.0,0.282024,0.293395,0.282024,0.269952,-0.153146,-582.059137,-2.226592,0.18727,0.166206,-2.017051
58638,0.076233,-0.010193,-0.007408,-0.001053,8.1e-05,-0.001061,0.085131,-0.0,-0.0,2.0,0.282024,0.29179,0.282024,0.271746,-0.052375,-582.057037,-2.10116,0.0379,0.48854,-2.017071
58658,0.076233,-0.010198,-0.007286,1.2e-05,-0.00098,-0.001142,0.085131,-0.0,-0.0,2.0,0.282024,0.291656,0.282024,0.271894,0.040016,-582.033821,-1.97773,-0.114307,0.827193,-2.017062
58678,0.075988,-0.010077,-0.007292,-0.001054,8.1e-05,-0.001061,0.08547,-0.0,-0.0,2.0,0.282024,0.2913,0.282024,0.272287,0.117298,-581.989965,-1.863284,-0.255753,1.175567,-2.016969
58698,0.075866,-0.010078,-0.007293,1e-06,-0.001061,-8.1e-05,0.085625,-0.0,-0.0,2.0,0.282024,0.291039,0.282024,0.272575,0.176055,-581.926902,-1.761957,-0.369772,1.524824,-2.017106
58718,0.075988,-0.010082,-0.00717,1e-06,-0.001061,-8.1e-05,0.085827,-0.0,-0.0,2.0,0.282024,0.292268,0.282024,0.271215,0.216449,-581.846566,-1.674678,-0.451002,1.864024,-2.017523
58738,0.075987,-0.009964,-0.007053,1.1e-05,8.1e-05,-0.001061,0.085992,-0.0,-0.0,2.0,0.282024,0.292057,0.282024,0.27145,0.240797,-581.751054,-1.600077,-0.500793,2.181708,-2.018107
58758,0.076231,-0.009837,-0.007178,1.1e-05,-0.00098,-0.001142,0.086144,-0.0,-0.0,2.0,0.282024,0.291929,0.282024,0.271591,0.252245,-581.642496,-1.535631,-0.522197,2.466568,-2.018826
58778,0.076476,-0.009953,-0.007294,1e-06,-0.001061,-8.1e-05,0.086216,-0.0,-0.0,2.0,0.282024,0.291844,0.282024,0.271686,0.253818,-581.52308,-1.478492,-0.519709,2.707997,-2.019721
58798,0.076354,-0.009953,-0.007295,-0.001064,0.0,0.0,0.086342,-0.0,-0.0,2.0,0.282024,0.291617,0.282024,0.271937,0.247903,-581.395113,-1.425906,-0.498509,2.896722,-2.020859
58818,0.076231,-0.009959,-0.007174,-0.001053,-0.00098,-0.001142,0.0865,-0.0,-0.0,2.0,0.282024,0.289962,0.282024,0.273751,0.23604,-581.261084,-1.375323,-0.463805,3.025414,-2.022296
58838,0.07611,-0.009954,-0.007296,-0.001053,-0.00098,-0.001142,0.086596,-0.0,-0.0,2.0,0.282024,0.289723,0.282024,0.27401,0.21887,-581.123674,-1.324347,-0.420268,3.089203,-2.024039
58858,0.075989,-0.00995,-0.007419,-0.001064,0.0,0.0,0.086712,-0.0,-0.0,2.0,0.282024,0.289459,0.282024,0.274296,0.196159,-580.985738,-1.270592,-0.371479,3.086002,-2.026014
58878,0.075988,-0.009955,-0.007297,1e-06,-0.001061,-8.1e-05,0.086811,-0.0,-0.0,2.0,0.282024,0.28926,0.282024,0.274511,0.166824,-580.850279,-1.211518,-0.319658,3.016538,-2.028049
58898,0.075987,-0.009833,-0.007302,1.1e-05,-0.00098,-0.001142,0.0869,-0.0,-0.0,2.0,0.282024,0.29048,0.282024,0.273187,0.128979,-580.72042,-1.144278,-0.265463,2.884099,-2.02986
58918,0.076109,-0.009589,-0.00731,1e-05,8.1e-05,-0.001061,0.086943,-0.0,-0.0,2.0,0.282024,0.290331,0.282024,0.27335,0.08002,-580.599407,-1.065637,-0.207929,2.693986,-2.031049
58938,0.07611,-0.009706,-0.007428,1e-06,-0.001061,-8.1e-05,0.086999,-0.0,-0.0,2.0,0.282024,0.290148,0.282024,0.273549,0.016906,-580.490633,-0.972113,-0.143464,2.452785,-2.031164
58958,0.076231,-0.00971,-0.007305,1e-05,8.1e-05,-0.001061,0.087091,-0.0,-0.0,2.0,0.282024,0.290008,0.282024,0.273701,-0.06287,-580.397654,-0.860542,-0.049604,2.166699,-2.03101
58978,0.076231,-0.00971,-0.007305,-0.001054,8.1e-05,-0.001061,0.087132,-0.0,-0.0,2.0,0.282024,0.289829,0.282024,0.273896,-0.159473,-580.324114,-0.729459,0.079692,1.839718,-2.031003
58998,0.076109,-0.009833,-0.007301,-0.001053,-0.00098,-0.001142,0.087188,-0.0,-0.0,2.0,0.282024,0.288172,0.282024,0.275677,-0.269221,-580.273365,-0.581331,0.241284,1.475593,-2.031139
59018,0.076109,-0.009833,-0.007301,-0.001053,-0.00098,-0.001142,0.087223,-0.0,-0.0,2.0,0.282024,0.288004,0.282024,0.275856,-0.382929,-580.247686,-0.424365,0.427919,1.078155,-2.031378
59038,0.075988,-0.009706,-0.007428,1e-06,-0.001061,-8.1e-05,0.087248,-0.0,-0.0,2.0,0.282024,0.287763,0.282024,0.276112,-0.487108,-580.247442,-0.271508,0.624534,0.65193,-2.031646
59058,0.075865,-0.00959,-0.007312,-0.001063,-0.001061,-8.1e-05,0.08726,-0.0,-0.0,2.0,0.282024,0.287553,0.282024,0.276335,-0.568972,-580.270912,-0.135713,0.809559,0.203179,-2.03184
59078,0.076109,-0.009589,-0.00731,1.1e-05,-0.00098,-0.001142,0.08726,-0.0,-0.0,2.0,0.282024,0.28889,0.282024,0.274909,-0.62166,-580.315144,-0.024851,0.961537,-0.259391,-2.031853
59098,0.076231,-0.009583,-0.007432,1e-05,8.1e-05,-0.001061,0.087265,-0.0,-0.0,2.0,0.282024,0.288751,0.282024,0.275058,-0.645489,-580.377181,0.059718,1.06641,-0.724759,-2.031594
59118,0.076353,-0.009583,-0.007431,0.0,0.0,0.0,0.087257,-0.0,-0.0,2.0,0.282024,0.288648,0.282024,0.275169,-0.645592,-580.45479,0.121196,1.120465,-1.180462,-2.031017
59138,0.076475,-0.009709,-0.007304,1e-05,8.1e-05,-0.001061,0.087238,-0.0,-0.0,2.0,0.282024,0.287118,0.282024,0.276794,-0.628831,-580.54648,0.164691,1.128663,-1.613642,-2.030125
59158,0.076476,-0.009826,-0.007421,-0.001063,-0.001061,-8.1e-05,0.087209,-0.0,-0.0,2.0,0.282024,0.288371,0.282024,0.275465,-0.601671,-580.651149,0.195425,1.100906,-2.011912,-2.028961
59178,0.076353,-0.009709,-0.007304,-0.001064,0.0,0.0,0.087171,-0.0,-0.0,2.0,0.282024,0.286769,0.282024,0.277162,-0.569192,-580.767694,0.2179,1.04855,-2.363937,-2.027594
59198,0.076353,-0.009709,-0.007304,1.1e-05,-0.00098,-0.001142,0.087113,-0.0,-0.0,2.0,0.282024,0.286626,0.282024,0.277311,-0.534843,-580.894751,0.235691,0.982056,-2.659852,-2.026101
59218,0.076231,-0.009588,-0.00731,-0.001053,-0.00098,-0.001142,0.087062,-0.0,-0.0,2.0,0.282024,0.287843,0.282024,0.276027,-0.500563,-581.030577,0.251568,0.909821,-2.891636,-2.024555
59238,0.076108,-0.009467,-0.007315,-0.001063,-0.001061,-8.1e-05,0.086992,-0.0,-0.0,2.0,0.282024,0.286246,0.282024,0.27771,-0.467035,-581.173044,0.267738,0.837703,-3.05348,-2.02302
59258,0.076108,-0.009345,-0.00732,1.1e-05,-0.00098,-0.001142,0.086936,-0.0,-0.0,2.0,0.282024,0.287527,0.282024,0.276362,-0.433924,-581.319702,0.286135,0.769094,-3.142109,-2.021544
59278,0.07623,-0.009344,-0.007319,1e-05,8.1e-05,-0.001061,0.086848,-0.0,-0.0,2.0,0.282024,0.287431,0.282024,0.276463,-0.400022,-581.467863,0.308716,0.704848,-3.156968,-2.020174
59298,0.076352,-0.009466,-0.007314,0.0,0.0,0.0,0.086748,-0.0,-0.0,2.0,0.282024,0.287355,0.282024,0.276544,-0.363339,-581.614686,0.337775,0.64039,-3.099999,-2.019207
59318,0.076353,-0.009588,-0.007309,1e-05,8.1e-05,-0.001061,0.086642,-0.0,-0.0,2.0,0.282024,0.287251,0.282024,0.276654,-0.321025,-581.757212,0.37628,0.575601,-2.975223,-2.018617
59338,0.076353,-0.009583,-0.007431,-0.001063,-0.001061,-8.1e-05,0.086586,-0.0,-0.0,2.0,0.282024,0.287104,0.282024,0.276809,-0.268901,-581.89235,0.428277,0.510524,-2.788898,-2.018067
59358,0.076353,-0.009588,-0.007309,-0.001053,-0.00098,-0.001142,0.08642,-0.0,-0.0,2.0,0.282024,0.285583,0.282024,0.278399,-0.201199,-582.016774,0.49932,0.437518,-2.5486,-2.017314
59378,0.076231,-0.009583,-0.007432,-0.001064,0.0,0.0,0.08642,-0.0,-0.0,2.0,0.282024,0.286825,0.282024,0.277103,-0.110861,-582.126701,0.596693,0.33827,-2.261048,-2.016734
59398,0.076109,-0.009462,-0.007437,-0.001063,-0.001061,-8.1e-05,0.086224,-0.0,-0.0,2.0,0.282024,0.285253,0.282024,0.278741,0.009393,-582.217574,0.728463,0.20006,-1.931152,-2.016367
59418,0.07623,-0.009339,-0.007441,1e-06,-0.001061,-8.1e-05,0.086095,-0.0,-0.0,2.0,0.282024,0.286641,0.282024,0.277296,0.163095,-582.284005,0.899425,0.009961,-1.561801,-2.016223
59438,0.076231,-0.009461,-0.007436,1e-05,8.1e-05,-0.001061,0.085916,-0.0,-0.0,2.0,0.282024,0.286546,0.282024,0.277395,0.341474,-582.320713,1.102511,-0.238099,-1.153758,-2.016284
59458,0.076353,-0.009456,-0.007558,0.0,0.0,0.0,0.085746,-0.0,-0.0,2.0,0.282024,0.286512,0.282024,0.277431,0.517254,-582.325035,1.312126,-0.529893,-0.70703,-2.016479
59478,0.076354,-0.009705,-0.007426,1e-06,-0.001061,-8.1e-05,0.085563,-0.0,-0.0,2.0,0.282024,0.286453,0.282024,0.277493,0.656108,-582.299184,1.494647,-0.824483,-0.22401,-2.016672
59498,0.076354,-0.009827,-0.007422,1e-05,8.1e-05,-0.001061,0.085563,-0.0,-0.0,2.0,0.282024,0.286312,0.282024,0.27764,0.739344,-582.248878,1.630239,-1.070713,0.287469,-2.016684
59518,0.076354,-0.0097,-0.007548,-0.001063,-0.001061,-8.1e-05,0.085312,-0.0,-0.0,2.0,0.282024,0.286257,0.282024,0.277698,0.769841,-582.179561,1.718873,-1.234813,0.813854,-2.016355
59538,0.076354,-0.009705,-0.007426,-0.001053,-0.00098,-0.001142,0.085018,-0.0,-0.0,2.0,0.282024,0.284814,0.282024,0.279194,0.76146,-582.0944,1.770723,-1.310042,1.338352,-2.015598
59558,0.076231,-0.009583,-0.007432,1e-06,-0.001061,-8.1e-05,0.084842,-0.0,-0.0,2.0,0.282024,0.284701,0.282024,0.27931,0.729248,-581.994634,1.797421,-1.30918,1.84367,-2.014414
59578,0.076109,-0.009462,-0.007437,1e-06,-0.001061,-8.1e-05,0.084563,-0.0,-0.0,2.0,0.282024,0.284618,0.282024,0.279396,0.685306,-581.88069,1.808553,-1.253525,2.313681,-2.012878
59598,0.076109,-0.009462,-0.007437,-0.001063,-0.001061,-8.1e-05,0.084445,-0.0,-0.0,2.0,0.282024,0.285985,0.282024,0.277982,0.637951,-581.753062,1.81103,-1.164446,2.734106,-2.0111
59618,0.076109,-0.009462,-0.007437,1e-05,8.1e-05,-0.001061,0.084194,-0.0,-0.0,2.0,0.282024,0.285955,0.282024,0.278013,0.592181,-581.612762,1.80947,-1.059981,3.092678,-2.009199
59638,0.076231,-0.009461,-0.007436,1e-05,8.1e-05,-0.001061,0.08404,-0.0,-0.0,2.0,0.282024,0.285926,0.282024,0.278043,0.550457,-581.46144,1.806828,-0.953187,3.379341,-2.007277
59658,0.076354,-0.009578,-0.007553,1e-06,-0.001061,-8.1e-05,0.083781,-0.0,-0.0,2.0,0.282024,0.285972,0.282024,0.277995,0.513476,-581.301335,1.805024,-0.8527,3.586556,-2.005414
59678,0.076475,-0.009582,-0.00743,1e-05,8.1e-05,-0.001061,0.083407,-0.0,-0.0,2.0,0.282024,0.286038,0.282024,0.277926,0.480745,-581.135134,1.805465,-0.76027,3.709721,-2.003872
59698,0.076354,-0.009578,-0.007553,-0.001063,-0.001061,-8.1e-05,0.083128,-0.0,-0.0,2.0,0.282024,0.28601,0.282024,0.277956,0.451146,-580.965809,1.809479,-0.670798,3.746844,-2.003349
59718,0.076475,-0.00946,-0.007435,-0.001063,-0.001061,-8.1e-05,0.082956,-0.0,-0.0,2.0,0.282024,0.284571,0.282024,0.279444,0.422846,-580.79649,1.818673,-0.58887,3.699257,-2.003911
59738,0.076475,-0.00946,-0.007435,1.1e-05,-0.00098,-0.001142,0.082659,-0.0,-0.0,2.0,0.282024,0.284602,0.282024,0.279412,0.392879,-580.630336,1.835373,-0.516903,3.572241,-2.005404
59758,0.076352,-0.009339,-0.00744,-0.001064,0.0,0.0,0.082353,-0.0,-0.0,2.0,0.282024,0.284581,0.282024,0.279433,0.356712,-580.470456,1.863295,-0.454141,3.37421,-2.007479
59778,0.07623,-0.009339,-0.007441,-0.001054,-0.00098,-0.001142,0.082142,-0.0,-0.0,2.0,0.282024,0.284525,0.282024,0.279491,0.30732,-580.31996,1.908647,-0.39648,3.115472,-2.009567
59798,0.076353,-0.009461,-0.007436,1e-05,8.1e-05,-0.001061,0.081688,-0.0,-0.0,2.0,0.282024,0.286098,0.282024,0.277864,0.233391,-580.182241,1.982093,-0.335975,2.80678,-2.010818
59818,0.076353,-0.009583,-0.007431,0.0,0.0,0.0,0.08148,-0.0,-0.0,2.0,0.282024,0.286084,0.282024,0.277878,0.116356,-580.061685,2.101924,-0.249852,2.457696,-2.010524
59838,0.076353,-0.009583,-0.007431,1e-06,-0.001061,-8.1e-05,0.081217,-0.0,-0.0,2.0,0.282024,0.286123,0.282024,0.277837,-0.07118,-579.965063,2.296891,-0.073938,2.071889,-2.010258
59858,0.076476,-0.009704,-0.007426,1.1e-05,-0.00098,-0.001142,0.080809,-0.0,-0.0,2.0,0.282024,0.286245,0.282024,0.27771,-0.352978,-579.903225,2.594375,0.234724,1.644678,-2.010286
59878,0.076476,-0.009578,-0.007552,0.0,0.0,0.0,0.080454,-0.0,-0.0,2.0,0.282024,0.286318,0.282024,0.277634,-0.690116,-579.888016,2.960635,0.684293,1.165129,-2.011729
59898,0.076353,-0.009583,-0.007431,-0.001063,-0.001061,-8.1e-05,0.080092,-0.0,-0.0,2.0,0.282024,0.284919,0.282024,0.279085,-0.954682,-579.918386,3.271013,1.14754,0.627027,-2.019263
59918,0.076353,-0.009583,-0.007431,-0.001053,-0.00098,-0.001142,0.079899,-0.0,-0.0,2.0,0.282024,0.284952,0.282024,0.279051,-1.077904,-579.978029,3.455352,1.544901,0.037397,-2.029429
59938,0.076231,-0.009457,-0.007558,-0.001064,0.0,0.0,0.07964,-0.0,-0.0,2.0,0.282024,0.284938,0.282024,0.279066,-1.089372,-580.053666,3.539049,1.821134,-0.588319,-2.037833
59958,0.076109,-0.009584,-0.007432,-0.001053,-0.00098,-0.001142,0.079116,-0.0,-0.0,2.0,0.282024,0.285047,0.282024,0.278954,-1.034643,-580.141252,3.561965,1.962334,-1.229075,-2.042464
59978,0.07611,-0.009706,-0.007428,1e-05,8.1e-05,-0.001061,0.078882,-0.0,-0.0,2.0,0.282024,0.285107,0.282024,0.278892,-0.946945,-580.241841,3.551793,1.983074,-1.862313,-2.043227
59998,0.076109,-0.009584,-0.007432,0.0,0.0,0.0,0.078234,-0.0,-0.0,2.0,0.282024,0.286739,0.282024,0.277193,-0.848241,-580.357804,3.526096,1.907683,-2.46632,-2.041129
60018,0.07611,-0.009706,-0.007428,1e-06,-0.001061,-8.1e-05,0.078026,-0.0,-0.0,2.0,0.282024,0.28679,0.282024,0.27714,-0.752469,-580.490827,3.495667,1.757093,-3.020379,-2.038209
60038,0.076231,-0.009832,-0.0073,1.1e-05,-0.00098,-0.001142,0.077598,-0.0,-0.0,2.0,0.282024,0.286989,0.282024,0.27693,-0.667252,-580.641096,3.466514,1.574581,-3.506062,-2.035025
60058,0.076232,-0.009705,-0.007427,1e-05,8.1e-05,-0.001061,0.077078,-0.0,-0.0,2.0,0.282024,0.287159,0.282024,0.276751,-0.595164,-580.80728,3.441423,1.38709,-3.909143,-2.032042
60078,0.07611,-0.009706,-0.007428,-0.001063,-0.001061,-8.1e-05,0.076718,-0.0,-0.0,2.0,0.282024,0.287242,0.282024,0.276663,-0.536143,-580.986901,3.421401,1.198838,-4.21786,-2.030577
60098,0.076109,-0.009584,-0.007432,-0.001053,-0.00098,-0.001142,0.076302,-0.0,-0.0,2.0,0.282024,0.285984,0.282024,0.277983,-0.488812,-581.176672,3.406687,1.021409,-4.423368,-2.031228
60118,0.07611,-0.009579,-0.007554,1e-05,8.1e-05,-0.001061,0.075991,-0.0,-0.0,2.0,0.282024,0.286103,0.282024,0.277858,-0.450823,-581.372809,3.397424,0.863181,-4.521733,-2.034248
60138,0.075988,-0.00958,-0.007555,-0.001063,-0.001061,-8.1e-05,0.07537,-0.0,-0.0,2.0,0.282024,0.28629,0.282024,0.277663,-0.419104,-581.571331,3.39418,0.728448,-4.514564,-2.039599
60158,0.075987,-0.009584,-0.007433,1.1e-05,-0.00098,-0.001142,0.074872,-0.0,-0.0,2.0,0.282024,0.28651,0.282024,0.277433,-0.389693,-581.768306,3.398499,0.618219,-4.408932,-2.047025
60178,0.075987,-0.009462,-0.007438,0.0,0.0,0.0,0.074634,-0.0,-0.0,2.0,0.282024,0.288042,0.282024,0.275815,-0.356965,-581.960015,3.41383,0.530287,-4.216523,-2.056063
60198,0.075987,-0.009462,-0.007438,1.1e-05,-0.00098,-0.001142,0.074152,-0.0,-0.0,2.0,0.282024,0.288238,0.282024,0.275607,-0.311638,-582.142953,3.447599,0.458473,-3.952028,-2.065991
60218,0.076109,-0.009462,-0.007437,1e-05,8.1e-05,-0.001061,0.073545,-0.0,-0.0,2.0,0.282024,0.288566,0.282024,0.275257,-0.235333,-582.313463,3.516746,0.39109,-3.630996,-2.075698
60238,0.076231,-0.009461,-0.007436,1e-05,8.1e-05,-0.001061,0.073151,-0.0,-0.0,2.0,0.282024,0.288791,0.282024,0.275016,-0.083339,-582.466259,3.665164,0.305118,-3.267294,-2.083203
60258,0.076231,-0.009461,-0.007436,-0.001063,-0.001061,-8.1e-05,0.072708,-0.0,-0.0,2.0,0.282024,0.28901,0.282024,0.27478,0.276535,-582.588441,4.025445,0.13338,-2.869452,-2.084813
60278,0.076108,-0.009467,-0.007315,-0.001053,-0.00098,-0.001142,0.072051,-0.0,-0.0,2.0,0.282024,0.28786,0.282024,0.276009,1.11087,-582.636609,4.870789,-0.448275,-2.423313,-2.087459
60298,0.076109,-0.009462,-0.007437,-0.001064,0.0,0.0,0.0717,-0.0,-0.0,2.0,0.282024,0.288073,0.282024,0.275783,1.765344,-582.570185,5.563425,-1.347578,-1.880241,-2.113657
60318,0.075864,-0.009341,-0.007443,-0.001063,-0.001061,-8.1e-05,0.071159,-0.0,-0.0,2.0,0.282024,0.288244,0.282024,0.275601,1.882918,-582.471456,5.752362,-2.145472,-1.223617,-2.145464
60338,0.075742,-0.009341,-0.007444,-0.001054,8.1e-05,-0.001061,0.070603,-0.0,-0.0,2.0,0.282024,0.288499,0.282024,0.275328,1.822656,-582.377798,5.788309,-2.662668,-0.481744,-2.1689
60358,0.075863,-0.009097,-0.007452,0.0,0.0,0.0,0.070054,-0.0,-0.0,2.0,0.282024,0.290245,0.282024,0.273443,1.688977,-582.290848,5.763428,-2.919694,0.305171,-2.182495
60378,0.075864,-0.009219,-0.007448,1e-06,-0.001061,-8.1e-05,0.070054,-0.0,-0.0,2.0,0.282024,0.290317,0.282024,0.273364,1.518939,-582.204625,5.703908,-2.969464,1.100826,-2.187503
60398,0.075863,-0.009097,-0.007452,1e-05,8.1e-05,-0.001061,0.06935,-0.0,-0.0,2.0,0.282024,0.29069,0.282024,0.272957,1.335433,-582.11075,5.624238,-2.861261,1.874612,-2.186059
60418,0.075986,-0.009092,-0.007573,0.0,0.0,0.0,0.068849,-0.0,-0.0,2.0,0.282024,0.289615,0.282024,0.274127,1.157313,-582.001394,5.536953,-2.614109,2.598908,-2.182553
60438,0.075986,-0.009214,-0.007569,1e-06,-0.001061,-8.1e-05,0.067978,-0.0,-0.0,2.0,0.282024,0.291458,0.282024,0.272112,0.999057,-581.871538,5.452327,-2.300704,3.248781,-2.178375
60458,0.075742,-0.009215,-0.00757,-0.001054,8.1e-05,-0.001061,0.067339,-0.0,-0.0,2.0,0.282024,0.290349,0.282024,0.27333,0.867623,-581.719838,5.376437,-1.980002,3.806765,-2.17394
60478,0.075742,-0.009093,-0.007575,-0.001055,8.1e-05,-0.001061,0.067049,-0.0,-0.0,2.0,0.282024,0.290589,0.282024,0.273068,0.763767,-581.547891,5.311179,-1.685297,4.260548,-2.16957
60498,0.07562,-0.009093,-0.007575,-0.001063,-0.001061,-8e-05,0.066461,-0.0,-0.0,2.0,0.282024,0.29228,0.282024,0.271201,0.684803,-581.359091,5.255822,-1.419206,4.601362,-2.166489
60518,0.075493,-0.009093,-0.007575,-0.001063,-0.001061,-8e-05,0.065712,-0.0,-0.0,2.0,0.282024,0.291278,0.282024,0.272312,0.627427,-581.157728,5.20858,-1.176864,4.822128,-2.166365
60538,0.075619,-0.008976,-0.007458,1e-06,-0.001061,-8e-05,0.065352,-0.0,-0.0,2.0,0.282024,0.291612,0.282024,0.271943,0.588216,-580.948509,5.167458,-0.968852,4.920727,-2.169589
60558,0.07562,-0.009098,-0.007453,1e-05,-0.000981,-0.001142,0.064794,-0.0,-0.0,2.0,0.282024,0.293365,0.282024,0.269986,0.56381,-580.736139,5.13066,-0.800822,4.901923,-2.176211
60578,0.075742,-0.009098,-0.007453,1e-05,8.1e-05,-0.001061,0.064252,-0.0,-0.0,2.0,0.282024,0.293764,0.282024,0.269535,0.551114,-580.524979,5.096752,-0.674274,4.77709,-2.186029
60598,0.075742,-0.009098,-0.007453,0.0,0.0,0.0,0.063492,-0.0,-0.0,2.0,0.282024,0.294224,0.282024,0.269013,0.547256,-580.318783,5.064759,-0.58769,4.562939,-2.198693
60618,0.075741,-0.009224,-0.007326,-0.001063,-0.001061,-8.1e-05,0.062828,-0.0,-0.0,2.0,0.282024,0.294669,0.282024,0.268505,0.549293,-580.120524,5.034369,-0.537168,4.279556,-2.213763
60638,0.075742,-0.009219,-0.007448,-0.001054,8.1e-05,-0.001061,0.062171,-0.0,-0.0,2.0,0.282024,0.293722,0.282024,0.269583,0.553169,-579.932317,5.006881,-0.517086,3.948151,-2.230759
60658,0.075742,-0.009346,-0.007322,-0.001063,-0.001061,-8.1e-05,0.061687,-0.0,-0.0,2.0,0.282024,0.294108,0.282024,0.269145,0.547071,-579.755455,4.991775,-0.519268,3.588989,-2.249081
60678,0.07562,-0.009347,-0.007322,-0.001063,-0.001061,-8e-05,0.06108,-0.0,-0.0,2.0,0.282024,0.294513,0.282024,0.268683,-0.403726,-579.591091,5.921886,-0.514067,3.219272,-2.266647
60698,0.075493,-0.009225,-0.007326,-0.001054,8e-05,-0.001061,0.060494,-0.0,-0.0,2.0,0.282024,0.294902,0.282024,0.268239,0.632776,-579.456875,4.869335,-0.418766,2.830422,-2.285374
60718,0.07537,-0.009103,-0.007331,-0.001055,8e-05,-0.001061,0.059968,-0.0,-0.0,2.0,0.282024,0.295264,0.282024,0.267823,0.654577,-579.315699,4.827429,-0.566803,2.465031,-2.311255
60738,0.07537,-0.009103,-0.007331,-0.001063,-0.001061,-8e-05,0.059091,-0.0,-0.0,2.0,0.282024,0.295823,0.282024,0.267178,0.672054,-579.184828,4.78243,-0.693535,2.138171,-2.336481
60758,0.07537,-0.009103,-0.007331,0.0,0.0,0.0,0.058382,-0.0,-0.0,2.0,0.282024,0.297685,0.282024,0.264999,0.684842,-579.062806,4.734649,-0.80332,1.853197,-2.361306
60778,0.075249,-0.009226,-0.007327,-0.001064,0.0,0.0,0.057677,-0.0,-0.0,2.0,0.282024,0.296808,0.282024,0.266031,0.692533,-578.948221,4.684418,-0.898578,1.612372,-2.385865
60798,0.075371,-0.009225,-0.007327,1.1e-05,-0.000981,-0.001141,0.057161,-0.0,-0.0,2.0,0.282024,0.298655,0.282024,0.263846,0.694752,-578.839736,4.632082,-0.98037,1.417055,-2.41021
60818,0.075372,-0.009342,-0.007444,-0.001063,-0.001061,-8e-05,0.056541,-0.0,-0.0,2.0,0.282024,0.299136,0.282024,0.263269,0.691217,-578.736106,4.577984,-1.04908,1.267873,-2.434348
60838,0.075371,-0.009221,-0.007449,-0.001063,-0.001061,-8e-05,0.055882,-0.0,-0.0,2.0,0.282024,0.29832,0.282024,0.264245,0.681759,-578.636169,4.522451,-1.104622,1.164901,-2.458248
60858,0.075127,-0.009222,-0.00745,-0.001054,-0.000981,-0.001141,0.054973,-0.0,-0.0,2.0,0.282024,0.298852,0.282024,0.26361,0.666335,-578.538836,4.465775,-1.146764,1.107801,-2.481869
60878,0.075005,-0.0091,-0.007455,-0.001054,-0.000981,-0.001141,0.05453,-0.0,-0.0,2.0,0.282024,0.299251,0.282024,0.263131,0.645022,-578.443065,4.408187,-1.174891,1.095946,-2.505136
60898,0.074761,-0.008975,-0.007583,-0.001064,-0.001061,-7.9e-05,0.053796,-0.0,-0.0,2.0,0.282024,0.299728,0.282024,0.262554,0.618005,-578.347831,4.349837,-1.188731,1.128493,-2.527993
60918,0.074272,-0.008733,-0.007595,-0.001064,-0.001061,-7.9e-05,0.053045,-0.0,-0.0,2.0,0.282024,0.300129,0.282024,0.262068,0.585538,-578.252102,4.29076,-1.18803,1.204523,-2.550384
60938,0.073784,-0.008613,-0.007602,-0.002119,-0.000983,-0.00114,0.052661,-0.0,-0.0,2.0,0.282024,0.29907,0.282024,0.263348,0.547903,-578.154816,4.23084,-1.172368,1.323085,-2.572249
60958,0.073052,-0.008367,-0.007736,-0.002119,-0.000984,-0.001139,0.051942,-0.0,-0.0,2.0,0.282024,0.299361,0.282024,0.262997,0.505349,-578.054872,4.169759,-1.141667,1.483219,-2.593557
60978,0.07207,-0.008127,-0.007748,-0.003192,-0.001061,-7.7e-05,0.051071,-0.0,-0.0,2.0,0.282024,0.29963,0.282024,0.262674,0.457999,-577.951132,4.106926,-1.095755,1.684001,-2.614287
60998,0.070972,-0.007884,-0.007884,-0.003192,-0.001062,-7.5e-05,0.050486,-0.0,-0.0,2.0,0.282024,0.298403,0.282024,0.264146,0.405725,-577.842441,4.04136,-1.034045,1.924447,-2.634407
61018,0.069507,-0.007524,-0.007904,-0.004256,-0.001062,-7.4e-05,0.049511,-0.0,-0.0,2.0,0.282024,0.298535,0.282024,0.263989,0.347949,-577.727676,3.971496,-0.955938,2.203328,-2.653904
61038,0.067793,-0.007165,-0.007922,-0.004249,-0.00099,-0.001134,0.048736,-0.0,-0.0,2.0,0.282024,0.297132,0.282024,0.26565,0.28328,-577.60584,3.894844,-0.860086,2.518927,-2.672735
61058,0.065962,-0.006803,-0.008064,-0.005313,-0.002054,-0.001202,0.047968,-0.0,-0.0,2.0,0.282024,0.295651,0.282024,0.267377,0.208861,-577.476238,3.807318,-0.744285,2.868546,-2.69081
61078,0.064004,-0.006323,-0.008086,-0.005321,-0.001062,-6.8e-05,0.047337,-0.0,-0.0,2.0,0.282024,0.295425,0.282024,0.267638,0.11902,-577.338826,3.701877,-0.604737,3.247847,-2.707929
61098,0.061562,-0.005971,-0.007985,-0.006385,-0.001062,-6.5e-05,0.04652,-0.0,-0.0,2.0,0.282024,0.295076,0.282024,0.268039,0.002296,-577.194955,3.565493,-0.434769,3.649884,-2.723669
61118,0.058994,-0.00549,-0.008129,-0.006379,-0.001,-0.001125,0.045798,-0.0,-0.0,2.0,0.282024,0.293235,0.282024,0.270133,-0.165527,-577.049178,3.372067,-0.221319,4.063709,-2.73709
61138,0.055938,-0.005015,-0.008152,-0.007444,-0.002066,-0.001182,0.045171,-0.0,-0.0,2.0,0.282024,0.291119,0.282024,0.272487,-0.436835,-576.914145,3.066709,0.062611,4.472187,-2.746124
61158,0.052882,-0.00454,-0.008172,-0.007449,-0.001063,-5.6e-05,0.044285,-0.0,-0.0,2.0,0.282024,0.290459,0.282024,0.27321,-0.901064,-576.823303,2.556075,0.498423,4.848155,-2.748173
61178,0.049585,-0.003947,-0.008075,-0.008513,-0.002126,-0.000105,0.043478,-0.0,-0.0,2.0,0.282024,0.288235,0.282024,0.27561,-1.509433,-576.838527,1.878825,1.300682,5.134605,-2.75129
61198,0.045918,-0.003476,-0.007971,-0.00851,-0.002077,-0.001161,0.04307,-0.0,-0.0,2.0,0.282024,0.287068,0.282024,0.276847,-1.90738,-576.970605,1.376512,2.195142,5.259818,-2.765259
61218,0.042008,-0.003007,-0.007867,-0.00851,-0.001019,-0.001108,0.042245,-0.0,-0.0,2.0,0.282024,0.285915,0.282024,0.278054,-2.052073,-577.155082,1.08986,2.9365,5.202891,-2.782536
61238,0.038101,-0.002661,-0.007637,-0.009575,-0.001023,-0.001104,0.041829,-0.0,-0.0,2.0,0.282024,0.283095,0.282024,0.280947,-2.066009,-577.350499,0.900184,3.436961,4.977348,-2.796897
61258,0.034069,-0.002441,-0.007158,-0.009575,-0.001027,-0.0011,0.040424,-0.0,-0.0,2.0,0.282024,0.28201,0.282024,0.282039,-2.012405,-577.539375,0.750473,3.690554,4.61299,-2.807539
61278,0.029795,-0.002463,-0.006675,-0.009573,6.3e-05,-0.002128,0.039846,-0.0,-0.0,2.0,0.282024,0.280434,0.282024,0.283602,-1.920767,-577.713374,0.619092,3.711202,4.147833,-2.817247
61298,0.025156,-0.002363,-0.006195,-0.009573,-0.00101,-0.002155,0.038884,-0.0,-0.0,2.0,0.282024,0.278797,0.282024,0.285199,-1.807407,-577.869006,0.497978,3.583305,3.618403,-2.825788
61318,0.020881,-0.002381,-0.005712,-0.01064,-0.001042,-0.001086,0.03845,-0.0,-0.0,2.0,0.282024,0.27551,0.282024,0.288328,-1.681973,-578.006016,0.384549,3.3718,3.051571,-2.832827
61338,0.016486,-0.002399,-0.005107,-0.009573,3.5e-05,-0.002128,0.037625,-0.0,-0.0,2.0,0.282024,0.275274,0.282024,0.28855,-1.550981,-578.126407,0.278529,3.117004,2.466476,-2.838297
61358,0.011968,-0.00217,-0.004626,-0.009576,-0.001051,-0.001077,0.036755,-0.0,-0.0,2.0,0.282024,0.273422,0.282024,0.290265,-1.419238,-578.23368,0.180439,2.84422,1.876269,-2.842287
61378,0.007573,-0.00206,-0.004021,-0.009574,-0.001048,-0.002136,0.036755,-0.0,-0.0,2.0,0.282024,0.271172,0.282024,0.292307,-1.290321,-578.332142,0.090779,2.56227,1.289265,-2.845494
61398,0.003421,-0.001825,-0.003538,-0.009574,-0.001057,-0.002132,0.034964,-0.0,-0.0,2.0,0.282024,0.269694,0.282024,0.293623,-1.167144,-578.42635,0.009565,2.269792,0.711685,-2.849195
61418,-0.000608,-0.00171,-0.003053,-0.009576,-0.001065,-0.001064,0.03433,-0.0,-0.0,2.0,0.282024,0.269285,0.282024,0.293985,-1.051605,-578.520648,-0.06388,1.980181,0.146869,-2.853837
61438,-0.004515,-0.001348,-0.002445,-0.008511,-0.001074,-0.002124,0.033349,-0.0,-0.0,2.0,0.282024,0.267452,0.282024,0.295586,-0.944303,-578.618844,-0.130905,1.701236,-0.405337,-2.859699
61458,-0.008056,-0.001107,-0.001958,-0.007447,-0.001081,-0.00212,0.032499,-0.0,-0.0,2.0,0.282024,0.265648,0.282024,0.297135,-0.844723,-578.724099,-0.193506,1.436423,-0.946999,-2.866948
61478,-0.011597,-0.000863,-0.00147,-0.007448,-0.001089,-0.002116,0.032073,-0.0,-0.0,2.0,0.282024,0.265194,0.282024,0.29752,-0.751187,-578.838942,-0.254479,1.186189,-1.480787,-2.875665
61498,-0.014649,-0.000495,-0.00098,-0.006385,-0.00108,-0.001049,0.031214,-0.0,-0.0,2.0,0.282024,0.263488,0.282024,0.298954,-0.660278,-578.965315,-0.318112,0.948086,-2.008736,-2.885805
61518,-0.017457,-0.000247,-0.000368,-0.006385,-0.002147,-0.001027,0.030767,-0.0,-0.0,2.0,0.282024,0.263269,0.282024,0.299136,-0.564771,-579.104533,-0.392394,0.717432,-2.530975,-2.897192
61538,-0.020142,1e-06,0.000122,-0.005321,-0.001107,-0.002107,0.02998,-0.0,-0.0,2.0,0.282024,0.263216,0.282024,0.29918,-0.445734,-579.256944,-0.49705,0.484564,-3.044388,-2.90928
61558,-0.022219,0.000129,0.000612,-0.005321,-0.001111,-0.002104,0.028663,-0.0,-0.0,2.0,0.282024,0.262018,0.282024,0.30017,-0.230466,-579.420068,-0.705879,0.224221,-3.540368,-2.920356
61578,-0.023927,0.000135,0.0011,-0.003193,-2.5e-05,-0.001064,0.027921,-0.0,-0.0,2.0,0.282024,0.263948,0.282024,0.29857,0.710962,-579.568412,-1.651008,-0.212369,-3.998382,-2.923995
61598,-0.02527,2.2e-05,0.001709,-0.002128,-2.7e-05,-0.001064,0.027038,-0.0,-0.0,2.0,0.282024,0.262851,0.282024,0.299483,2.507216,-579.447113,-3.47887,-1.834589,-4.306952,-2.972796
61618,-0.026369,-9.3e-05,0.002196,-0.002128,-5.6e-05,-0.002128,0.026151,-0.0,-0.0,2.0,0.282024,0.261852,0.282024,0.300307,2.447171,-579.237014,-3.517069,-3.264099,-4.279505,-3.03038
61638,-0.026857,-8.9e-05,0.00244,-0.001064,-0.001092,-0.001035,0.025274,-0.0,-0.0,2.0,0.282024,0.264352,0.282024,0.298231,2.343806,-579.031025,-3.563539,-4.104826,-3.982363,-3.069189
61658,-0.026979,-8.3e-05,0.002928,-0.001064,-2.9e-05,-0.001064,0.024712,-0.0,-0.0,2.0,0.282024,0.26525,0.282024,0.297472,2.213376,-578.837622,-3.615632,-4.496569,-3.501263,-3.094935
61678,-0.026979,4.6e-05,0.003418,-0.0,-0.001093,-0.001035,0.023615,-0.0,-0.0,2.0,0.282024,0.264847,0.282024,0.297814,2.066829,-578.661403,-3.669085,-4.557112,-2.906413,-3.11214
61698,-0.026613,5e-05,0.003784,0.001064,-0.00112,-0.002099,0.023099,-0.0,-0.0,2.0,0.282024,0.264365,0.282024,0.298219,1.913031,-578.503128,-3.719961,-4.386648,-2.253129,-3.124413
61718,-0.026125,5.3e-05,0.004028,-0.0,-0.001092,-0.001036,0.021851,-0.0,-0.0,2.0,0.282024,0.264275,0.282024,0.298295,1.75944,-578.360379,-3.765132,-4.069481,-1.582013,-3.134658
61738,-0.02588,0.000179,0.004396,0.0,0.0,0.0,0.02084,-0.0,-0.0,2.0,0.282024,0.264003,0.282024,0.298523,1.612055,-578.2287,-3.802553,-3.67228,-0.919485,-3.145077
61758,-0.025636,0.000183,0.004762,-0.0,-2.7e-05,-0.001064,0.020395,-0.0,-0.0,2.0,0.282024,0.2635,0.282024,0.298944,1.475309,-578.102843,-3.831286,-3.244065,-0.279632,-3.157235
61778,-0.025636,6.4e-05,0.005005,-0.0,-0.001118,-0.0021,0.019467,-0.0,-0.0,2.0,0.282024,0.261492,0.282024,0.300602,1.352122,-577.977738,-3.851222,-2.818473,0.33318,-3.172201
61798,-0.025759,-5.4e-05,0.005248,-0.001064,-2.7e-05,-0.001064,0.01843,-0.0,-0.0,2.0,0.282024,0.261115,0.282024,0.300909,1.244199,-577.849017,-3.862624,-2.415889,0.921437,-3.190632
61818,-0.025637,-5.2e-05,0.005492,-0.001064,-0.001064,2.7e-05,0.017896,-0.0,-0.0,2.0,0.282024,0.260633,0.282024,0.301301,1.152555,-577.713158,-3.865603,-2.046493,1.491618,-3.212883
61838,-0.02588,7.6e-05,0.005859,-0.0,-0.001091,-0.001036,0.017054,-0.0,-0.0,2.0,0.282024,0.261774,0.282024,0.300371,1.078215,-577.567407,-3.859557,-1.714294,2.051769,-3.23918
61858,-0.026002,0.0002,0.005983,-0.0,-0.001092,-0.001036,0.01577,-0.0,-0.0,2.0,0.282024,0.259907,0.282024,0.301888,1.023213,-577.409654,-3.842339,-1.419889,2.609696,-3.269728
61878,-0.02588,0.000201,0.006105,-0.0,-0.001091,-0.001036,0.015251,-0.0,-0.0,2.0,0.282024,0.261104,0.282024,0.300918,0.99258,-577.238419,-3.808455,-1.162597,3.171486,-3.304798
61898,-0.025636,8e-05,0.006226,-0.001064,0.0,0.0,0.014313,-0.0,-0.0,2.0,0.282024,0.260914,0.282024,0.301073,0.999843,-577.053195,-3.743691,-0.945173,3.740445,-3.344995
61918,-0.025514,8.3e-05,0.00647,0.0,0.0,0.0,0.013387,-0.0,-0.0,2.0,0.282024,0.260684,0.282024,0.30126,1.088501,-576.856139,-3.603592,-0.78117,4.317178,-3.391761
61938,-0.025514,8.4e-05,0.006592,-0.0,-0.001118,-0.002101,0.012357,-0.0,-0.0,2.0,0.282024,0.260466,0.282024,0.301436,1.46602,-576.662771,-3.179145,-0.727324,4.902708,-3.449632
61958,-0.025392,8.4e-05,0.006592,-0.0,-0.001091,-0.001037,0.011634,-0.0,-0.0,2.0,0.282024,0.258531,0.282024,0.302989,3.137032,-576.620114,-1.461354,-1.108371,5.520189,-3.541973
61978,-0.02527,-3.9e-05,0.00659,-0.001064,0.0,0.0,0.011093,-0.0,-0.0,2.0,0.282024,0.258175,0.282024,0.303272,3.533466,-576.876319,-0.99708,-2.089793,6.290774,-3.685857
61998,-0.02527,8.6e-05,0.006836,-0.001064,0.0,0.0,0.009853,-0.0,-0.0,2.0,0.282024,0.259748,0.282024,0.302016,3.509926,-577.178651,-0.916945,-2.69229,7.233293,-3.822508
62018,-0.02527,0.00021,0.00696,-0.0,-0.001091,-0.001037,0.008891,-0.0,-0.0,2.0,0.282024,0.259566,0.282024,0.302163,3.438798,-577.517183,-0.857162,-2.881784,8.216554,-3.950731
62038,-0.02527,0.000208,0.006838,-0.0,-0.001091,-0.001037,0.007976,-0.0,-0.0,2.0,0.282024,0.259376,0.282024,0.302315,3.35128,-577.889561,-0.786795,-2.753942,9.107326,-4.077137
62058,-0.02527,0.000208,0.006838,-0.001064,0.0,0.0,0.007508,-0.0,-0.0,2.0,0.282024,0.257337,0.282024,0.303933,3.246098,-578.287549,-0.687765,-2.406251,9.799361,-4.207698
62078,-0.025026,8.6e-05,0.006836,-0.001064,2.7e-05,0.001064,0.006415,-0.0,-0.0,2.0,0.282024,0.259027,0.282024,0.302594,3.092694,-578.694971,-0.524532,-1.922086,10.230776,-4.34626
62098,-0.025026,-3.5e-05,0.006957,0.0,-2.7e-05,-0.001064,0.005858,-0.0,-0.0,2.0,0.282024,0.258721,0.282024,0.302838,2.775977,-579.076257,-0.181892,-1.34595,10.390909,-4.492703
62118,-0.025026,-3.5e-05,0.006957,0.0,-0.001091,-0.001037,0.00498,-0.0,-0.0,2.0,0.282024,0.258575,0.282024,0.302955,1.875606,-579.29843,0.758555,-0.603666,10.300725,-4.637322
62138,-0.024783,-0.000159,0.006833,-0.0,-0.001064,2.6e-05,0.003616,-0.0,-0.0,2.0,0.282024,0.257112,0.282024,0.30411,0.923661,-579.066903,1.768967,0.51042,9.948137,-4.759295
62158,-0.024538,-0.00016,0.006833,-0.001064,0.0,0.0,0.00316,-0.0,-0.0,2.0,0.282024,0.25859,0.282024,0.302942,0.7589,-578.664289,2.027759,1.510175,9.333897,-4.883566
62178,-0.024294,-3.8e-05,0.006957,0.0,0.0,0.0,0.002173,-0.0,-0.0,2.0,0.282024,0.258657,0.282024,0.302889,0.77535,-578.265411,2.147271,2.104068,8.588401,-5.025732
62198,-0.024049,8.2e-05,0.006836,-0.0,-0.00109,-0.001038,0.001188,-0.0,-0.0,2.0,0.282024,0.258748,0.282024,0.302817,0.857232,-577.888227,2.245482,2.333004,7.848342,-5.181507
62218,-0.023806,-4.2e-05,0.006713,0.0,-0.001089,-0.001039,0.000525,-0.0,-0.0,2.0,0.282024,0.258714,0.282024,0.302844,0.984707,-577.535156,2.359367,2.275744,7.209274,-5.345558
62238,-0.02344,-0.000167,0.006589,0.0,0.0,0.0,-0.000491,-0.0,-0.0,2.0,0.282024,0.258912,0.282024,0.302686,1.176704,-577.207947,2.531056,2.025175,6.728958,-5.512803
62258,-0.023196,-0.000168,0.00659,0.0,0.0,0.0,-0.001482,-0.0,-0.0,2.0,0.282024,0.259068,0.282024,0.302561,1.535366,-576.921249,2.87334,1.679193,6.424465,-5.678536
62278,-0.022952,-0.000168,0.00659,0.0,-2.4e-05,-0.001064,-0.001983,-0.0,-0.0,2.0,0.282024,0.260669,0.282024,0.301272,2.407605,-576.759836,3.737072,1.27521,6.287477,-5.84261
62298,-0.022585,-0.000172,0.006346,0.001064,-2.4e-05,-0.001064,-0.003183,-0.0,-0.0,2.0,0.282024,0.25936,0.282024,0.302327,3.36744,-576.921761,4.696689,0.851896,6.296022,-6.00508
62318,-0.022342,-0.000297,0.006222,-0.0,-0.001064,2.4e-05,-0.004154,-0.0,-0.0,2.0,0.282024,0.259571,0.282024,0.302159,3.635108,-577.242172,4.975081,0.45539,6.406278,-6.166025
62338,-0.022097,-0.000175,0.006224,-0.001064,-0.001064,2.4e-05,-0.005096,-0.0,-0.0,2.0,0.282024,0.259788,0.282024,0.301984,3.71845,-577.591129,5.084714,0.137664,6.556866,-6.325616
62358,-0.021975,-0.000177,0.006102,-0.0,-0.001064,2.3e-05,-0.005555,-0.0,-0.0,2.0,0.282024,0.25975,0.282024,0.302015,3.743174,-577.952785,5.154372,-0.072297,6.679322,-6.484153
62378,-0.021975,-5.5e-05,0.006103,0.0,-0.001087,-0.001041,-0.006059,-0.0,-0.0,2.0,0.282024,0.25969,0.282024,0.302063,3.73588,-578.32184,5.219062,-0.168684,6.710894,-6.642036
62398,-0.02173,-5.8e-05,0.005859,-0.0,-0.001064,2.3e-05,-0.007695,-0.0,-0.0,2.0,0.282024,0.260262,0.282024,0.301601,3.694523,-578.692505,5.303722,-0.167968,6.608955,-6.799693
62418,-0.021486,-5.9e-05,0.005859,0.0,0.0,0.0,-0.008259,-0.0,-0.0,2.0,0.282024,0.25873,0.282024,0.302831,3.576807,-579.055026,5.460535,-0.104046,6.361993,-6.957471
62438,-0.021487,-0.000181,0.005857,-0.001064,0.0,0.0,-0.008742,-0.0,-0.0,2.0,0.282024,0.260365,0.282024,0.301518,3.141177,-579.378518,5.933504,-0.020659,5.993011,-7.115549
62458,-0.021364,-5.9e-05,0.005859,0.0,-0.001087,-0.001041,-0.010087,-0.0,-0.0,2.0,0.282024,0.260803,0.282024,0.301164,1.334469,-579.410682,7.769419,0.031018,5.553927,-7.273903
62478,-0.021363,-6.1e-05,0.005736,0.0,-0.001087,-0.001041,-0.011014,-0.0,-0.0,2.0,0.282024,0.261022,0.282024,0.300985,1.043733,-579.058481,8.073655,0.033752,5.120442,-7.432356
62498,-0.021486,6.2e-05,0.005738,0.0,-0.001064,2.3e-05,-0.011919,-0.0,-0.0,2.0,0.282024,0.259551,0.282024,0.302175,1.022086,-578.699101,8.102278,0.011882,4.768912,-7.59078
62518,-0.021362,0.000183,0.005738,-0.001064,0.0,0.0,-0.012374,-0.0,-0.0,2.0,0.282024,0.259646,0.282024,0.302098,1.021821,-578.340472,8.102222,-0.016343,4.551534,-7.749127
62538,-0.021241,6.1e-05,0.005737,-0.001064,0.0,0.0,-0.013818,-0.0,-0.0,2.0,0.282024,0.26183,0.282024,0.300324,1.022106,-577.979732,8.093384,-0.026433,4.495353,-7.907411
62558,-0.02124,0.000183,0.005738,-0.0,-0.001087,-0.001041,-0.01434,-0.0,-0.0,2.0,0.282024,0.261936,0.282024,0.300238,1.018692,-577.613508,8.080792,0.00653,4.596904,-8.065707
62578,-0.02124,0.000183,0.005738,-0.0,-0.001087,-0.001041,-0.015097,-0.0,-0.0,2.0,0.282024,0.262156,0.282024,0.300057,1.012126,-577.238773,8.066147,0.099022,4.820775,-8.224152
62598,-0.021118,0.000184,0.00586,-0.001064,-0.001086,-0.001042,-0.01622,-0.0,-0.0,2.0,0.282024,0.260977,0.282024,0.301022,1.004215,-576.853401,8.049032,0.250836,5.103676,-8.382938
62618,-0.021118,0.000184,0.00586,-0.001064,0.0,0.0,-0.017135,-0.0,-0.0,2.0,0.282024,0.261302,0.282024,0.300757,0.967101,-576.45671,7.998264,0.440011,5.364927,-8.542265
