time_ms,roll,pitch,yaw,roll_rate,pitch_rate,yaw_rate,reference_roll,reference_pitch,reference_yaw,reference_throttle,throttle_1,throttle_2,throttle_3,throttle_4,roll_predicted,pitch_predicted,yaw_predicted,roll_rate_predicted,pitch_rate_predicted,yaw_rate_predicted
27300,-0.000243,-0.000124,-0.015627,-0.001064,-0.001064,-0.001064,-0.0,-0.0,-0.0,2.0,0.282024,0.290332,0.282024,0.273349,-0.0,-115.883389,0.0,-0.0,-8.282518,0.0
27320,-0.000243,-0.000124,-0.015627,-0.001064,-0.001064,-0.001064,0.00047,-0.0,-0.0,2.0,0.282024,0.290148,0.282024,0.273549,1e-06,-116.216662,-0.0,0.000287,-8.384026,0.0
27340,-0.000366,-3e-06,-0.015627,0.0,0.0,0.0,0.000928,-0.0,-0.0,2.0,0.282024,0.289914,0.282024,0.273803,2.1e-05,-116.551799,2e-06,0.000924,-8.338213,3e-06
27360,-0.000366,-3e-06,-0.015627,0.0,-0.001064,0.0,0.002137,-0.0,-0.0,2.0,0.282024,0.289429,0.282024,0.274329,7.7e-05,-116.882926,1.6e-05,0.002149,-8.150286,9e-06
27380,-0.000244,-2e-06,-0.015627,0.0,0.0,-0.001064,0.003097,-0.0,-0.0,2.0,0.282024,0.290823,0.282024,0.272812,0.000225,-117.20465,7.2e-05,0.003813,-7.842904,2.1e-05
27400,-0.000122,-1e-06,-0.015627,0.0,0.0,-0.001064,0.004025,-0.0,-0.0,2.0,0.282024,0.290463,0.282024,0.273205,0.000611,-117.512691,0.000307,0.005414,-7.451041,4.1e-05
27420,1e-06,-0.000122,-0.015627,0.0,0.0,0.0,0.004502,-0.0,-0.0,2.0,0.282024,0.290265,0.282024,0.273421,0.00339,-117.804265,0.002879,0.006151,-7.014822,6.6e-05
27440,1e-06,-0.000122,-0.015627,-0.001064,0.0,-0.001064,0.005421,-0.0,-0.0,2.0,0.282024,0.289844,0.282024,0.27388,-0.001102,-118.078115,-0.001673,-0.002399,-6.5729,6.4e-05
27460,-0.000121,-0.000123,-0.015627,-0.001064,-0.001064,-0.001064,0.006536,-0.0,-0.0,2.0,0.282024,0.289333,0.282024,0.274433,-0.000439,-118.33468,-0.001031,0.00667,-6.158071,7e-05
27480,-0.000121,-0.000123,-0.015627,0.0,-0.001064,0.0,0.007456,-0.0,-0.0,2.0,0.282024,0.287059,0.282024,0.276857,1e-05,-118.575369,-0.000905,0.011435,-5.795464,0.0001
27500,-0.000121,-0.000123,-0.015627,-0.001064,0.0,0.0,0.008375,-0.0,-0.0,2.0,0.282024,0.286584,0.282024,0.277356,0.000484,-118.802556,-0.000952,0.014427,-5.502702,0.000142
27520,-0.000121,-0.000123,-0.015627,0.0,-0.001064,0.0,0.009288,-0.0,-0.0,2.0,0.282024,0.287877,0.282024,0.275991,0.00102,-119.019224,-0.001111,0.016705,-5.291115,0.000191
27540,0.0,0.0,-0.015627,0.0,0.0,-0.001064,0.009742,-0.0,-0.0,2.0,0.282024,0.287557,0.282024,0.27633,0.001643,-119.22873,-0.001374,0.018391,-5.167251,0.000244
27560,0.000123,-0.000121,-0.015749,0.0,0.0,0.0,0.010271,-0.0,-0.0,2.0,0.282024,0.287295,0.282024,0.276608,0.00237,-119.434638,-0.001758,0.019587,-5.134182,0.000301
27580,0.000245,-0.00012,-0.015749,0.0,-0.001064,0.0,0.01153,-0.0,-0.0,2.0,0.282024,0.286695,0.282024,0.277239,0.003243,-119.640594,-0.002303,0.020944,-5.192357,0.000362
27600,0.000245,-0.00012,-0.015627,0.0,0.0,-0.001064,0.01247,-0.0,-0.0,2.0,0.282024,0.284357,0.282024,0.279663,0.00437,-119.850226,-0.0031,0.02235,-5.339909,0.000428
27620,0.000123,-0.000121,-0.015749,-0.001064,0.0,-0.001064,0.013379,-0.0,-0.0,2.0,0.282024,0.283808,0.282024,0.280224,0.005931,-120.067052,-0.004337,0.023247,-5.572413,0.0005
27640,0.000123,-0.000121,-0.015749,-0.001064,-0.001064,0.0,0.014286,-0.0,-0.0,2.0,0.282024,0.285001,0.282024,0.279001,0.008365,-120.294364,-0.006475,0.02322,-5.882122,0.000578
27660,0.000123,-0.000121,-0.015749,0.0,0.0,-0.001064,0.014782,-0.0,-0.0,2.0,0.282024,0.282727,0.282024,0.281318,0.013088,-120.535079,-0.010967,0.020993,-6.25679,0.000658
27680,1e-06,-0.000122,-0.015749,-0.001064,0.0,-0.001064,0.016076,-0.0,-0.0,2.0,0.282024,0.283798,0.282024,0.280234,0.028376,-120.791523,-0.02618,0.013118,-6.678321,0.000728
27700,0.000245,-0.00012,-0.015749,0.0,-0.001064,0.0,0.016967,-0.0,-0.0,2.0,0.282024,0.283242,0.282024,0.280798,-0.152454,-121.062699,0.154769,-0.087959,-7.121683,0.000563
27720,0.000368,-0.000241,-0.015627,0.0,0.0,-0.001064,0.017872,-0.0,-0.0,2.0,0.282024,0.282716,0.282024,0.28133,-0.018973,-121.353144,0.018906,0.042742,-7.555077,0.000483
27740,0.000489,-0.000118,-0.015749,0.0,0.0,0.0,0.018321,-0.0,-0.0,2.0,0.282024,0.282312,0.282024,0.281736,-0.008573,-121.661314,0.009474,0.060879,-7.941036,0.00072
27760,0.000612,-0.000239,-0.015749,-0.001064,-0.001064,-0.001064,0.019431,-0.0,-0.0,2.0,0.282024,0.281636,0.282024,0.282411,-0.004017,-121.983768,0.006446,0.061858,-8.240438,0.001013
27780,0.000612,-0.000239,-0.015627,0.0,-0.001064,0.0,0.020399,-0.0,-0.0,2.0,0.282024,0.279106,0.282024,0.284899,-0.001105,-122.316483,0.005343,0.05956,-8.418915,0.001311
27800,0.000489,-0.000118,-0.015749,-0.001064,0.0,0.0,0.021293,-0.0,-0.0,2.0,0.282024,0.278378,0.282024,0.285604,0.001265,-122.654232,0.005217,0.056845,-8.453967,0.001602
27820,0.000367,-0.000119,-0.015749,-0.001064,-0.001064,-0.001064,0.021741,-0.0,-0.0,2.0,0.282024,0.279719,0.282024,0.284303,0.003693,-122.991141,0.005904,0.053938,-8.340497,0.001878
27840,0.000489,-0.000118,-0.015749,0.0,-0.001064,0.0,0.022632,-0.0,-0.0,2.0,0.282024,0.278969,0.282024,0.285033,0.006861,-123.321418,0.007747,0.050732,-8.092419,0.002134
27860,0.000488,4e-06,-0.015749,0.0,0.0,-0.001064,0.023724,-0.0,-0.0,2.0,0.282024,0.278218,0.282024,0.285758,0.012506,-123.640079,0.012302,0.04649,-7.739502,0.002365
27880,0.000732,6e-06,-0.015871,0.0,0.0,0.0,0.024653,-0.0,-0.0,2.0,0.282024,0.277564,0.282024,0.286385,0.030779,-123.943475,0.029652,0.036724,-7.320788,0.002559
27900,0.000977,8e-06,-0.015871,0.0,-0.001064,0.0,0.025098,-0.0,-0.0,2.0,0.282024,0.277047,0.282024,0.286878,0.53004,-124.158813,0.525992,-0.267163,-6.877192,-0.011084
27920,0.000977,8e-06,-0.015871,0.0,0.0,-0.001064,0.02597,-0.0,-0.0,2.0,0.282024,0.274458,0.282024,0.289309,-0.008678,-124.417768,-0.001734,-0.200913,-6.438428,-0.015254
27940,0.000977,8e-06,-0.015871,-0.001064,0.0,0.0,0.026846,-0.0,-0.0,2.0,0.282024,0.273735,0.282024,0.289977,-0.010253,-124.669069,0.002725,-0.064329,-6.032686,-0.015779
27960,0.000978,-0.000114,-0.015871,-0.001064,-0.001064,0.0,0.027924,-0.0,-0.0,2.0,0.282024,0.274716,0.282024,0.28907,-0.00951,-124.904924,0.005582,-0.00364,-5.683124,-0.015912
27980,0.000855,-0.000115,-0.015871,0.0,-0.001064,-0.001064,0.028472,-0.0,-0.0,2.0,0.282024,0.272032,0.282024,0.291531,-0.008069,-125.127839,0.007352,0.023454,-5.405594,-0.015885
28000,0.000732,6e-06,-0.015871,-0.001064,0.0,-0.001064,0.029358,-0.0,-0.0,2.0,0.282024,0.271251,0.282024,0.292236,-0.006437,-125.340862,0.008424,0.036097,-5.2101,-0.015795
28020,0.000977,8e-06,-0.015993,0.0,-0.001064,0.0,0.030227,-0.0,-0.0,2.0,0.282024,0.272389,0.282024,0.291208,-0.004734,-125.547369,0.009013,0.042809,-5.10227,-0.015677
28040,0.001099,9e-06,-0.015993,0.0,-0.001064,0.0,0.031089,-0.0,-0.0,2.0,0.282024,0.271541,0.282024,0.291975,-0.002942,-125.750912,0.009217,0.046996,-5.084568,-0.015544
28060,0.001099,9e-06,-0.015871,0.0,0.0,-0.001064,0.031516,-0.0,-0.0,2.0,0.282024,0.270964,0.282024,0.292493,-0.000984,-125.955103,0.009048,0.04972,-5.157034,-0.0154
28080,0.001465,1.2e-05,-0.015993,0.0,0.0,0.0,0.032578,-0.0,-0.0,2.0,0.282024,0.27006,0.282024,0.2933,0.001265,-126.163522,0.008423,0.051698,-5.317497,-0.015245
28100,0.001466,-0.00011,-0.015993,0.0,-0.001064,0.0,0.033432,-0.0,-0.0,2.0,0.282024,0.269223,0.282024,0.294039,0.004092,-126.379626,0.007097,0.052996,-5.561245,-0.015079
28120,0.001344,-0.000111,-0.015993,0.0,-0.001064,0.0,0.034279,-0.0,-0.0,2.0,0.282024,0.266296,0.282024,0.296581,0.008166,-126.606635,0.004404,0.052834,-5.880198,-0.014902
28140,0.001588,-0.000109,-0.015993,-0.001064,-0.001064,-0.001064,0.035125,-0.0,-0.0,2.0,0.282024,0.267454,0.282024,0.295584,0.015713,-126.847375,-0.001916,0.049642,-6.261705,-0.014718
28160,0.00171,-0.000108,-0.016115,-0.001064,-0.001064,0.0,0.035544,-0.0,-0.0,2.0,0.282024,0.266702,0.282024,0.296233,0.041325,-127.104044,-0.026551,0.036861,-6.687195,-0.014544
28180,0.001709,1.4e-05,-0.016115,0.0,-0.001064,0.0,0.036697,-0.0,-0.0,2.0,0.282024,0.265622,0.282024,0.297156,-1.290454,-127.27083,1.303334,0.354166,-7.131145,-0.034377
28200,0.001953,1.6e-05,-0.016115,0.0,-0.001064,-0.001064,0.037526,-0.0,-0.0,2.0,0.282024,0.264764,0.282024,0.297884,-0.027058,-127.498197,0.056481,0.349503,-7.574802,-0.048782
28220,0.002197,1.8e-05,-0.016237,0.0,0.0,-0.001064,0.038345,-0.0,-0.0,2.0,0.282024,0.263948,0.282024,0.29857,-0.005418,-127.807531,0.04632,0.228492,-7.988086,-0.047422
28240,0.002685,0.000144,-0.016237,0.001064,0.0,0.0,0.039176,-0.0,-0.0,2.0,0.282024,0.265071,0.282024,0.297624,0.001408,-128.132469,0.04793,0.162536,-8.329727,-0.046466
28260,0.003174,2.6e-05,-0.016237,0.002128,-0.001064,0.0,0.039582,-0.0,-0.0,2.0,0.282024,0.262512,0.282024,0.299764,0.005608,-128.469517,0.051304,0.128733,-8.560884,-0.045732
28280,0.004028,3.3e-05,-0.016237,0.001064,-0.001064,-0.001064,0.040609,-0.0,-0.0,2.0,0.282024,0.263766,0.282024,0.298721,0.009584,-128.81377,0.055664,0.110455,-8.652364,-0.04512
28300,0.005006,-8.1e-05,-0.016481,0.002128,0.0,0.0,0.041423,-0.0,-0.0,2.0,0.282024,0.265207,0.282024,0.297509,0.014663,-129.159386,0.061472,0.098803,-8.591586,-0.044582
28320,0.006228,-0.000192,-0.016602,0.002128,0.0,0.0,0.04223,-0.0,-0.0,2.0,0.282024,0.264702,0.282024,0.297936,0.022608,-129.500306,0.070236,0.088277,-8.386118,-0.044106
28340,0.007447,-6e-05,-0.016602,0.003193,-0.001064,0.0,0.043029,-0.0,-0.0,2.0,0.282024,0.266255,0.282024,0.296617,0.038003,-129.83103,0.086508,0.073904,-8.062093,-0.0437
28360,0.009035,-0.000169,-0.016723,0.004257,-0.001064,-0.001064,0.043425,-0.0,-0.0,2.0,0.282024,0.266105,0.282024,0.296745,0.083049,-130.147137,0.132629,0.043737,-7.658137,-0.043398
28380,0.010866,-0.000153,-0.016845,0.003193,0.0,-0.001064,0.044487,-0.0,-0.0,2.0,0.282024,0.265893,0.282024,0.296926,5.883911,-130.440606,5.935003,-0.107398,-7.217307,-0.043674
28400,0.013186,-0.000254,-0.016965,0.004257,0.0,0.0,0.045316,-0.0,-0.0,2.0,0.282024,0.269787,0.282024,0.293541,6.241021,-130.717079,6.336081,-2.643743,-6.770309,-0.206466
28420,0.015507,-0.000235,-0.016967,0.005321,-0.001064,0.0,0.046099,-0.0,-0.0,2.0,0.282024,0.267881,0.282024,0.295214,6.121749,-130.980966,6.359636,-4.886027,-6.307133,-0.378366
28440,0.017947,-9.1e-05,-0.017089,0.005321,-0.001064,-0.001064,0.046492,-0.0,-0.0,2.0,0.282024,0.268282,0.282024,0.294864,5.938607,-131.223561,6.416623,-6.904607,-5.806283,-0.557043
28460,0.020998,-6.2e-05,-0.017332,0.005321,-0.001064,-0.001064,0.047266,-0.0,-0.0,2.0,0.282024,0.272588,0.282024,0.291027,5.687952,-131.437132,6.504915,-8.563132,-5.242008,-0.72691
28480,0.024051,-0.000155,-0.017573,0.006385,0.0,0.0,0.048186,-0.0,-0.0,2.0,0.282024,0.27298,0.282024,0.290669,5.376342,-131.6096,6.621813,-9.715825,-4.606025,-0.870298
28500,0.027104,-0.000128,-0.017575,0.00745,0.0,0.0,0.048949,-0.0,-0.0,2.0,0.282024,0.273523,0.282024,0.290172,5.01361,-131.729477,6.757826,-10.480915,-3.899894,-0.98971
28520,0.030643,2.7e-05,-0.017696,0.00745,-0.001064,-0.001064,0.049717,-0.0,-0.0,2.0,0.282024,0.276193,0.282024,0.287687,4.613018,-131.792759,6.896081,-10.907067,-3.125296,-1.086932
28540,0.034307,-5.8e-05,-0.017939,0.00745,-0.001064,-0.001064,0.050465,-0.0,-0.0,2.0,0.282024,0.277062,0.282024,0.286864,4.191779,-131.808346,7.017204,-11.008859,-2.288753,-1.164043
28560,0.038213,-1.9e-05,-0.01818,0.008514,0.0,0.0,0.050839,-0.0,-0.0,2.0,0.282024,0.280031,0.282024,0.283998,3.766569,-131.796889,7.109125,-10.801352,-1.406423,-1.224081
28580,0.042365,2.2e-05,-0.018301,0.008514,-0.001064,0.001064,0.051816,-0.0,-0.0,2.0,0.282024,0.281038,0.282024,0.283005,3.351033,-131.781739,7.174192,-10.322266,-0.504495,-1.271028
28600,0.046517,6e-05,-0.0183,0.009578,-0.001064,-0.001064,0.052568,-0.0,-0.0,2.0,0.282024,0.282274,0.282024,0.281774,2.956785,-131.778112,7.227474,-9.637815,0.385997,-1.309376
28620,0.051035,0.00011,-0.018665,0.009578,0.0,0.0,0.052941,-0.0,-0.0,2.0,0.282024,0.285559,0.282024,0.278424,2.593111,-131.787772,7.288085,-8.832683,1.237509,-1.343516
28640,0.055677,3.5e-05,-0.018781,0.009578,0.0,0.0,0.053665,-0.0,-0.0,2.0,0.282024,0.28699,0.282024,0.276929,2.26498,-131.801426,7.370176,-7.990769,2.033027,-1.377074
28660,0.06044,-3.8e-05,-0.018897,0.010642,0.0,0.0,0.054389,-0.0,-0.0,2.0,0.282024,0.288517,0.282024,0.275309,1.973188,-131.805231,7.479133,-7.178821,2.768864,-1.412521
28680,0.065203,-0.000111,-0.019011,0.010642,0.0,-0.001064,0.054895,-0.0,-0.0,2.0,0.282024,0.290269,0.282024,0.273417,1.71697,-131.78649,7.613039,-6.43954,3.453343,-1.451167
28700,0.069968,-0.000301,-0.019242,0.009578,0.0,-0.001064,0.055711,-0.0,-0.0,2.0,0.282024,0.293683,0.282024,0.269626,1.496362,-131.736531,7.766384,-5.793256,4.103206,-1.493437
28720,0.074858,-0.000494,-0.019353,0.010642,0.0,0.0,0.056435,-0.0,-0.0,2.0,0.282024,0.295388,0.282024,0.26768,1.312984,-131.651209,7.933948,-5.244502,4.739547,-1.539289
28740,0.079621,-0.000569,-0.019342,0.010642,0.0,0.0,0.057129,-0.0,-0.0,2.0,0.282024,0.295448,0.282024,0.267611,1.170223,-131.530137,8.114164,-4.788812,5.384239,-1.588581
28760,0.08439,-0.000757,-0.019571,0.009578,0.0,-0.001064,0.057823,-0.0,-0.0,2.0,0.282024,0.297314,0.282024,0.265436,1.074808,-131.375752,8.312372,-4.418062,6.056871,-1.641349
28780,0.089036,-0.000822,-0.019806,0.009578,-0.001064,0.0,0.058293,-0.0,-0.0,2.0,0.282024,0.299216,0.282024,0.263173,1.04245,-131.193451,8.546438,-4.12594,6.772068,-1.698121
28800,0.093434,-0.001016,-0.019908,0.009578,0.0,0.0,0.059091,-0.0,-0.0,2.0,0.282024,0.299282,0.282024,0.263093,1.114477,-130.995238,8.862582,-3.916367,7.537317,-1.760466
28820,0.097715,-0.001083,-0.020141,0.00745,0.0,0.0,0.059766,-0.0,-0.0,2.0,0.282024,0.301117,0.282024,0.26086,1.403767,-130.815621,9.380793,-3.824306,8.352432,-1.832441
28840,0.101751,-0.001158,-0.020252,0.00745,0.0,0.0,0.060435,-0.0,-0.0,2.0,0.282024,0.302856,0.282024,0.258698,2.065597,-130.762814,10.266859,-3.954576,9.214276,-1.923448
28860,0.105417,-0.001358,-0.020353,0.00745,0.0,0.0,0.061093,-0.0,-0.0,2.0,0.282024,0.302861,0.282024,0.258693,2.611024,-130.96061,11.049526,-4.344321,10.122653,-2.039528
28880,0.108724,-0.001554,-0.020579,0.006385,0.0,0.0,0.06156,-0.0,-0.0,2.0,0.282024,0.302932,0.282024,0.258603,2.745085,-131.298894,11.458498,-4.681585,11.050067,-2.16389
28900,0.111901,-0.001636,-0.020687,0.005321,0.0,0.0,0.062286,-0.0,-0.0,2.0,0.282024,0.304468,0.282024,0.256655,2.700837,-131.682894,11.758215,-4.766024,11.923745,-2.285822
28920,0.114471,-0.001968,-0.020782,0.005321,0.0,-0.001064,0.062948,-0.0,-0.0,2.0,0.282024,0.304241,0.282024,0.256945,2.547166,-132.069696,12.07422,-4.584544,12.668114,-2.405544
28940,0.116798,-0.002294,-0.020999,0.004257,0.0,0.0,0.063581,-0.0,-0.0,2.0,0.282024,0.303924,0.282024,0.257349,2.259913,-132.404108,12.493728,-4.169106,13.242024,-2.524828
28960,0.118635,-0.002511,-0.021102,0.002128,0.0,0.0,0.063893,-0.0,-0.0,2.0,0.282024,0.303658,0.282024,0.257687,1.790489,-132.583018,13.093431,-3.538449,13.65144,-2.643097
28980,0.120109,-0.002854,-0.021199,0.002128,0.0,0.0,0.064677,-0.0,-0.0,2.0,0.282024,0.303025,0.282024,0.258486,1.268372,-132.484553,13.765784,-2.713522,13.939729,-2.759006
29000,0.121215,-0.003078,-0.021305,0.001064,0.0,-0.001064,0.065327,-0.0,-0.0,2.0,0.282024,0.302317,0.282024,0.259373,0.961318,-132.14635,14.272742,-1.825488,14.176656,-2.878817
29020,0.121826,-0.003178,-0.021538,0.0,0.0,0.0,0.065662,-0.0,-0.0,2.0,0.282024,0.303339,0.282024,0.25809,0.884429,-131.70624,14.657447,-1.035337,14.439069,-3.012646
29040,0.122074,-0.003534,-0.021637,-0.001064,0.0,0.0,0.066261,-0.0,-0.0,2.0,0.282024,0.302313,0.282024,0.259379,1.028322,-131.255168,15.086441,-0.3673,14.767053,-3.1633
29060,0.121953,-0.003649,-0.021752,-0.001064,0.0,0.0,0.066856,-0.0,-0.0,2.0,0.282024,0.301232,0.282024,0.260718,1.605065,-130.919612,15.858406,0.343148,15.116539,-3.320737
29080,0.121467,-0.003777,-0.021747,-0.001064,-0.001064,-0.001064,0.067486,-0.0,-0.0,2.0,0.282024,0.301702,0.282024,0.260138,2.605101,-131.045978,16.995031,1.086787,15.365228,-3.484652
29100,0.121102,-0.003781,-0.021749,-0.002128,-0.001064,-0.001064,0.068077,-0.0,-0.0,2.0,0.282024,0.302083,0.282024,0.259665,2.986299,-131.570041,17.474215,1.821867,15.349186,-3.655346
29120,0.120603,-0.003421,-0.021769,-0.001064,-0.001064,0.0,0.068432,-0.0,-0.0,2.0,0.282024,0.300871,0.282024,0.261162,3.107215,-132.160603,17.690009,2.507512,14.928309,-3.832354
29140,0.120114,-0.003312,-0.021657,-0.001064,0.0,-0.001064,0.069009,-0.0,-0.0,2.0,0.282024,0.302931,0.282024,0.258604,3.138325,-132.743613,17.875433,3.081894,14.071218,-4.01422
29160,0.119992,-0.003313,-0.021658,-0.001064,0.0,-0.001064,0.069569,-0.0,-0.0,2.0,0.282024,0.303324,0.282024,0.25811,2.942086,-133.282365,18.253694,3.487023,12.863851,-4.19861
29180,0.119871,-0.003315,-0.021658,0.0,-0.001064,0.0,0.070121,-0.0,-0.0,2.0,0.282024,0.303793,0.282024,0.257516,-9.781767,-133.57583,31.136082,3.979065,11.461513,-4.361466
29200,0.119872,-0.003436,-0.021651,0.0,0.0,-0.001064,0.070422,-0.0,-0.0,2.0,0.282024,0.306063,0.282024,0.254594,-8.818809,-133.980202,30.411477,8.144455,9.432358,-4.508968
29220,0.120239,-0.003554,-0.021642,0.0,-0.001064,0.0,0.071283,-0.0,-0.0,2.0,0.282024,0.306492,0.282024,0.254032,-8.556985,-134.354728,30.538347,10.468794,6.445679,-4.611286
29240,0.12036,-0.00356,-0.02152,0.0,0.0,-0.001064,0.071816,-0.0,-0.0,2.0,0.282024,0.307027,0.282024,0.253328,-8.175582,-134.624214,30.62891,11.266007,3.010762,-4.668173
29260,0.120359,-0.003431,-0.021649,-0.001064,0.0,-0.001064,0.072079,-0.0,-0.0,2.0,0.282024,0.307652,0.282024,0.2525,-7.743195,-134.823035,30.668333,10.888092,-0.458126,-4.689753
29280,0.120359,-0.003431,-0.021649,-0.001064,-0.001064,0.0,0.07259,-0.0,-0.0,2.0,0.282024,0.306523,0.282024,0.253992,-7.321833,-135.024639,30.654941,9.672775,-3.64164,-4.693161
29300,0.120116,-0.003426,-0.021772,-0.001064,-0.001064,0.0,0.073137,-0.0,-0.0,2.0,0.282024,0.30695,0.282024,0.25343,-6.960152,-135.289445,30.627546,7.958814,-6.306184,-4.699045
29320,0.119749,-0.003316,-0.021659,-0.001064,-0.001064,0.0,0.073604,-0.0,-0.0,2.0,0.282024,0.30731,0.282024,0.252954,-6.665238,-135.63038,30.637891,6.066719,-8.315013,-4.72623
29340,0.119626,-0.003195,-0.021667,-0.001064,-0.001064,-0.001064,0.074101,-0.0,-0.0,2.0,0.282024,0.30769,0.282024,0.252449,-6.373179,-136.022471,30.754293,4.244813,-9.639435,-4.786352
29360,0.119138,-0.003201,-0.021669,-0.001064,-0.001064,-0.001064,0.074587,-0.0,-0.0,2.0,0.282024,0.308021,0.282024,0.252007,-5.754248,-136.399246,31.281446,2.593995,-10.344964,-4.878895
29380,0.118765,-0.003205,-0.021667,-0.001064,0.0,-0.001064,0.075063,-0.0,-0.0,2.0,0.282024,0.30834,0.282024,0.251579,-3.837829,-136.348715,33.158769,0.741039,-10.513746,-4.968596
29400,0.1184,-0.003209,-0.021669,-0.001064,0.0,-0.001064,0.075297,-0.0,-0.0,2.0,0.282024,0.308735,0.282024,0.251047,-3.674732,-135.893101,33.337191,-1.100565,-10.118361,-5.056431
29420,0.118156,-0.003212,-0.02167,-0.001064,0.0,-0.001064,0.075976,-0.0,-0.0,2.0,0.282024,0.309008,0.282024,0.250679,-3.715075,-135.450303,33.373608,-2.173483,-9.353891,-5.185866
29440,0.117669,-0.003217,-0.021672,-0.001064,0.0,0.0,0.07622,-0.0,-0.0,2.0,0.282024,0.309334,0.282024,0.250236,-3.803956,-135.033986,33.406817,-2.618366,-8.477258,-5.344118
29460,0.117303,-0.003221,-0.021674,-0.001064,-0.001064,-0.001064,0.076659,-0.0,-0.0,2.0,0.282024,0.308017,0.282024,0.252012,-3.920235,-134.645041,33.454423,-2.666342,-7.662497,-5.514931
29480,0.116939,-0.003347,-0.021669,-0.002128,-0.001064,-0.001064,0.077102,-0.0,-0.0,2.0,0.282024,0.308297,0.282024,0.251637,-4.071919,-134.280841,33.537371,-2.522304,-6.98322,-5.684706
29500,0.116444,-0.003352,-0.021667,-0.001064,-0.001064,0.0,0.077528,-0.0,-0.0,2.0,0.282024,0.310087,0.282024,0.249208,-4.322657,-133.942359,33.725856,-2.209307,-6.465671,-5.852691
29520,0.115835,-0.003366,-0.021548,-0.002128,-0.001064,-0.001064,0.0778,-0.0,-0.0,2.0,0.282024,0.308755,0.282024,0.25102,-5.124387,-133.66662,34.475584,-1.761291,-6.124741,-6.018669
29540,0.115347,-0.003372,-0.021551,-0.002128,-0.001064,-0.001064,0.078272,-0.0,-0.0,2.0,0.282024,0.310546,0.282024,0.248576,-6.939572,-133.801152,36.244984,-1.223587,-5.965884,-6.182589
29560,0.114608,-0.003258,-0.021557,-0.002128,0.0,-0.001064,0.078679,-0.0,-0.0,2.0,0.282024,0.309057,0.282024,0.250613,-7.063369,-134.14473,36.334139,-0.665094,-5.974802,-6.344479
29580,0.113877,-0.003273,-0.021439,-0.002128,0.0,-0.001064,0.079075,-0.0,-0.0,2.0,0.282024,0.309202,0.282024,0.250415,-7.091547,-134.496132,36.346452,-0.172547,-6.106379,-6.504493
29600,0.113267,-0.00328,-0.021442,-0.002128,0.0,-0.001064,0.07946,-0.0,-0.0,2.0,0.282024,0.309294,0.282024,0.25029,-7.093528,-134.85661,36.348688,0.195942,-6.293117,-6.662918
29620,0.112407,-0.003289,-0.021442,-0.002128,0.0,-0.001064,0.079649,-0.0,-0.0,2.0,0.282024,0.309437,0.282024,0.250096,-7.082144,-135.226738,36.35103,0.406495,-6.456655,-6.820183
29640,0.111433,-0.003429,-0.021318,-0.002128,0.0,-0.001064,0.08023,-0.0,-0.0,2.0,0.282024,0.309389,0.282024,0.250161,-7.061916,-135.604976,36.359949,0.456,-6.523809,-6.976859
29660,0.110581,-0.00356,-0.021315,-0.002128,0.0,0.0,0.080409,-0.0,-0.0,2.0,0.282024,0.309421,0.282024,0.250119,-7.026417,-135.987645,36.388518,0.372287,-6.444282,-7.133544
29680,0.109601,-0.003699,-0.021187,-0.002128,0.0,-0.001064,0.080768,-0.0,-0.0,2.0,0.282024,0.307762,0.282024,0.252353,-6.917952,-136.368355,36.497395,0.206613,-6.204002,-7.290711
29700,0.108627,-0.003832,-0.021185,-0.003193,0.0,-0.001064,0.081111,-0.0,-0.0,2.0,0.282024,0.307659,0.282024,0.25249,-2.968615,-136.696572,40.45057,0.02667,-5.82923,-7.448564
29720,0.107523,-0.003843,-0.021187,-0.003193,-0.001064,0.0,0.081523,-0.0,-0.0,2.0,0.282024,0.307553,0.282024,0.252631,-12.809232,-136.626822,30.617263,-1.041796,-5.288394,-7.537254
29740,0.106184,-0.00398,-0.021187,-0.003193,-0.001064,0.0,0.081706,-0.0,-0.0,2.0,0.282024,0.307423,0.282024,0.252803,-11.770903,-136.556971,31.693837,-0.641208,-4.405187,-7.698278
29760,0.104838,-0.004117,-0.021183,-0.003193,-0.001064,0.0,0.082033,-0.0,-0.0,2.0,0.282024,0.307177,0.282024,0.253129,-10.580966,-136.279407,32.909607,-0.047318,-3.761006,-7.857676
29780,0.103614,-0.004252,-0.021178,-0.004257,0.0,-0.001064,0.082341,-0.0,-0.0,2.0,0.282024,0.306917,0.282024,0.253473,-10.566476,-135.931217,32.917229,0.543832,-3.464858,-8.015645
29800,0.102152,-0.00439,-0.021179,-0.004257,0.0,-0.001064,0.082643,-0.0,-0.0,2.0,0.282024,0.306634,0.282024,0.253845,-10.54626,-135.579891,32.903499,0.98227,-3.54467,-8.172509
29820,0.100806,-0.004526,-0.021176,-0.003193,0.0,-0.001064,0.082791,-0.0,-0.0,2.0,0.282024,0.304752,0.282024,0.256291,-10.509139,-135.219655,32.887086,1.153502,-3.944867,-8.328537
29840,0.099465,-0.004535,-0.021304,-0.004257,0.0,0.0,0.083198,-0.0,-0.0,2.0,0.282024,0.306019,0.282024,0.254651,-10.464133,-134.845502,32.870917,1.002707,-4.541185,-8.484138
29860,0.097999,-0.004788,-0.021418,-0.003193,0.0,0.0,0.08347,-0.0,-0.0,2.0,0.282024,0.305634,0.282024,0.255153,-10.42398,-134.454165,32.855047,0.552436,-5.168214,-8.640092
29880,0.096536,-0.004799,-0.021547,-0.003193,0.0,0.0,0.083733,-0.0,-0.0,2.0,0.282024,0.303589,0.282024,0.257774,-10.398953,-134.045449,32.837706,-0.096554,-5.655678,-8.797444
29900,0.095192,-0.005052,-0.02166,-0.004257,0.0,0.0,0.083987,-0.0,-0.0,2.0,0.282024,0.303201,0.282024,0.258265,-10.38227,-133.622956,32.804725,-0.782423,-5.867688,-8.95701
29920,0.093731,-0.005179,-0.021906,-0.003193,-0.001064,0.0,0.084233,-0.0,-0.0,2.0,0.282024,0.304396,0.282024,0.256748,-19.983156,-133.548657,42.369126,-1.362862,-5.738863,-9.118818
29940,0.092506,-0.005181,-0.022152,-0.003193,-0.001064,0.0,0.084429,-0.0,-0.0,2.0,0.282024,0.303983,0.282024,0.257274,-19.881922,-133.972673,42.210807,-1.683422,-5.297218,-9.28214
29960,0.091167,-0.005313,-0.022275,-0.003193,-0.001064,0.0,0.084559,-0.0,-0.0,2.0,0.282024,0.303617,0.282024,0.257739,-19.956971,-134.397915,42.220313,-1.562613,-4.6736,-9.445477
29980,0.089942,-0.005315,-0.022521,-0.003193,-0.001064,0.0,0.084787,-0.0,-0.0,2.0,0.282024,0.30315,0.282024,0.258329,-20.013542,-134.817598,42.222262,-1.027532,-4.066557,-9.607463
30000,0.088845,-0.005323,-0.022649,-0.002128,0.0,-0.001064,0.085002,-0.0,-0.0,2.0,0.282024,0.30271,0.282024,0.258881,-20.043605,-135.234507,42.226512,-0.240113,-3.66533,-9.767524
30020,0.087619,-0.005204,-0.0229,-0.003193,0.0,0.0,0.085204,-0.0,-0.0,2.0,0.282024,0.302342,0.282024,0.259342,-20.037457,-135.653094,42.237322,0.549068,-3.575122,-9.925733
30040,0.086766,-0.005209,-0.023026,-0.002128,0.0,0.0,0.085308,-0.0,-0.0,2.0,0.282024,0.30364,0.282024,0.25771,-19.986532,-136.077535,42.266273,1.085286,-3.772321,-10.08241
30060,0.086035,-0.00534,-0.023025,-0.002128,0.0,0.0,0.085569,-0.0,-0.0,2.0,0.282024,0.30322,0.282024,0.25824,-19.808977,-136.509177,42.406748,1.20254,-4.112818,-10.238082
30080,0.085303,-0.005221,-0.023156,-0.002128,-0.001064,0.0,0.085749,-0.0,-0.0,2.0,0.282024,0.302944,0.282024,0.258588,-19.829412,-136.837454,42.342854,0.912006,-4.39427,-10.393647
30100,0.084687,-0.005233,-0.023033,-0.001064,-0.001064,-0.001064,0.085915,-0.0,-0.0,2.0,0.282024,0.304347,0.282024,0.25681,-19.974687,-137.288937,42.16282,0.354634,-4.451599,-10.550116
30120,0.084323,-0.00536,-0.023029,-0.001064,-0.001064,-0.001064,0.086071,-0.0,-0.0,2.0,0.282024,0.304059,0.282024,0.257178,-19.991932,-137.747634,42.131675,-0.278734,-4.219201,-10.708164
30140,0.084077,-0.005246,-0.022914,-0.001064,0.0,-0.001064,0.08618,-0.0,-0.0,2.0,0.282024,0.303909,0.282024,0.257369,-20.019369,-138.20719,42.103331,-0.741495,-3.762711,-10.867629
30160,0.083835,-0.005376,-0.022788,-0.001064,0.0,-0.001064,0.086339,-0.0,-0.0,2.0,0.282024,0.305416,0.282024,0.255435,-20.046621,-138.665802,42.068526,-0.870906,-3.264517,-11.027689
30180,0.083836,-0.005503,-0.022661,0.0,0.0,-0.001064,0.086468,-0.0,-0.0,2.0,0.282024,0.305249,0.282024,0.255651,-20.047238,-139.124497,42.013892,-0.653352,-2.949198,-11.18753
30200,0.083957,-0.005507,-0.022539,0.0,0.0,0.0,0.086587,-0.0,-0.0,2.0,0.282024,0.303529,0.282024,0.25785,-19.930929,-139.584557,41.861153,-0.230674,-2.980493,-11.346741
30220,0.08408,-0.005632,-0.022411,0.0,-0.001064,-0.001064,0.086696,-0.0,-0.0,2.0,0.282024,0.305221,0.282024,0.255687,-27.614735,-139.828396,49.532721,0.139696,-3.370595,-11.50521
30240,0.084325,-0.005757,-0.022282,0.0,-0.001064,-0.001064,0.086771,-0.0,-0.0,2.0,0.282024,0.3052,0.282024,0.255714,-22.94699,-139.622135,44.876761,0.12251,-3.936917,-11.6632
30260,0.08469,-0.005635,-0.022164,0.0,-0.001064,-0.001064,0.086872,-0.0,-0.0,2.0,0.282024,0.305258,0.282024,0.255639,-23.193387,-139.130845,45.13103,-0.165132,-4.368749,-11.821488
30280,0.084812,-0.005634,-0.022163,-0.001064,0.0,-0.001064,0.086956,-0.0,-0.0,2.0,0.282024,0.305282,0.282024,0.255608,-23.208729,-138.623695,45.135775,-0.499987,-4.435219,-11.980603
30300,0.085055,-0.005636,-0.02204,0.0,0.0,-0.001064,0.086994,-0.0,-0.0,2.0,0.282024,0.305325,0.282024,0.255552,-23.231918,-138.111834,45.135647,-0.664116,-4.081475,-12.14043
30320,0.085178,-0.005757,-0.022034,0.0,0.0,0.0,0.087061,-0.0,-0.0,2.0,0.282024,0.303635,0.282024,0.257716,-23.254225,-137.599999,45.143589,-0.504592,-3.461524,-12.300212
30340,0.084936,-0.005882,-0.02203,-0.001064,0.0,-0.001064,0.087121,-0.0,-0.0,2.0,0.282024,0.303586,0.282024,0.257779,-23.234924,-137.089796,45.186942,-0.043437,-2.867158,-12.459231
30360,0.084815,-0.006005,-0.022026,-0.001064,-0.001064,0.0,0.087165,-0.0,-0.0,2.0,0.282024,0.303498,0.282024,0.25789,-22.127574,-136.589709,46.296487,0.507956,-2.571529,-12.617315
30380,0.084571,-0.006008,-0.022027,-0.001064,-0.001064,0.0,0.087205,-0.0,-0.0,2.0,0.282024,0.303364,0.282024,0.258059,-23.332166,-136.174677,45.06256,0.889867,-2.678545,-12.774629
30400,0.084329,-0.006133,-0.022023,-0.001064,-0.001064,-0.001064,0.087234,-0.0,-0.0,2.0,0.282024,0.30323,0.282024,0.258228,-23.310545,-135.649257,45.044222,0.819047,-3.06644,-12.931479
30420,0.084329,-0.006133,-0.022023,-0.001064,-0.001064,-0.001064,0.087254,-0.0,-0.0,2.0,0.282024,0.303139,0.282024,0.258342,-23.288337,-135.113985,45.033878,0.287379,-3.441187,-13.088603
30440,0.084206,-0.006007,-0.022151,0.0,0.0,0.0,0.087265,-0.0,-0.0,2.0,0.282024,0.303051,0.282024,0.258454,-23.286144,-134.569784,45.02498,-0.435825,-3.531594,-13.24692
30460,0.084207,-0.006129,-0.022146,-0.001064,0.0,0.0,0.087265,-0.0,-0.0,2.0,0.282024,0.304651,0.282024,0.256421,-23.304406,-134.019907,45.012978,-0.946784,-3.270537,-13.406598
30480,0.084329,-0.006122,-0.022267,0.0,0.0,0.0,0.087258,-0.0,-0.0,2.0,0.282024,0.30461,0.282024,0.256473,-23.250033,-133.467237,44.917093,-0.944313,-2.850923,-13.566756
30500,0.08433,-0.006117,-0.022389,0.0,-0.001064,0.0,0.08724,-0.0,-0.0,2.0,0.282024,0.304617,0.282024,0.256464,-23.40278,-132.914716,45.034118,-0.431543,-2.605082,-13.726365
30520,0.084453,-0.006238,-0.022383,0.0,-0.001064,0.0,0.087212,-0.0,-0.0,2.0,0.282024,0.30463,0.282024,0.256448,-23.394357,-132.353535,45.012428,0.260601,-2.762379,-13.884966
30540,0.084698,-0.006357,-0.022377,0.0,-0.001064,-0.001064,0.087195,-0.0,-0.0,2.0,0.282024,0.304641,0.282024,0.256434,-23.372786,-131.783868,44.993571,0.676843,-3.245743,-14.042518
30560,0.084819,-0.006234,-0.022381,-0.001064,0.0,-0.001064,0.087131,-0.0,-0.0,2.0,0.282024,0.304714,0.282024,0.256339,-23.356095,-131.20384,44.967023,0.552584,-3.680877,-14.199505
30580,0.084697,-0.00623,-0.022504,0.0,0.0,0.0,0.087103,-0.0,-0.0,2.0,0.282024,0.304692,0.282024,0.256369,-23.394565,-130.615341,44.903864,0.019924,-3.651867,-14.357041
30600,0.08482,-0.006355,-0.022376,-0.001064,0.0,0.0,0.087042,-0.0,-0.0,2.0,0.282024,0.303037,0.282024,0.258471,-23.195974,-130.05071,45.101707,-0.468554,-3.040987,-14.515755
30620,0.084698,-0.006357,-0.022377,-0.001064,0.0,-0.001064,0.086971,-0.0,-0.0,2.0,0.282024,0.302987,0.282024,0.258534,-23.343437,-129.461057,44.959469,-0.49004,-2.187562,-14.674928
30640,0.084454,-0.00636,-0.022378,0.0,-0.001064,0.0,0.08689,-0.0,-0.0,2.0,0.282024,0.302941,0.282024,0.258592,-23.377154,-128.867977,44.912375,-0.022568,-1.685834,-14.833676
30660,0.084332,-0.006361,-0.022379,-0.001064,-0.001064,-0.001064,0.086847,-0.0,-0.0,2.0,0.282024,0.302879,0.282024,0.25867,-23.362006,-128.269835,44.868235,0.523295,-1.94327,-14.991815
30680,0.084332,-0.006361,-0.022379,-0.001064,-0.001064,0.0,0.08671,-0.0,-0.0,2.0,0.282024,0.30285,0.282024,0.258706,-23.292459,-127.662689,44.803943,0.603997,-2.820687,-15.149353
30700,0.084331,-0.006239,-0.022384,0.0,0.0,-0.001064,0.086602,-0.0,-0.0,2.0,0.282024,0.3045,0.282024,0.256614,-24.567634,-127.053584,46.090706,0.025219,-3.663798,-15.306914
30720,0.084332,-0.006361,-0.022379,0.0,0.0,-0.001064,0.086485,-0.0,-0.0,2.0,0.282024,0.304554,0.282024,0.256545,-23.395917,-126.544256,44.876377,-0.845597,-3.77987,-15.465959
30740,0.084578,-0.00648,-0.022372,0.0,0.0,0.0,0.086357,-0.0,-0.0,2.0,0.282024,0.304571,0.282024,0.256523,-23.407044,-125.908212,44.828289,-1.188632,-3.021908,-15.626468
30760,0.084456,-0.006477,-0.022495,0.0,0.0,0.0,0.08629,-0.0,-0.0,2.0,0.282024,0.304569,0.282024,0.256526,-23.447136,-125.272151,44.810993,-0.55407,-2.012418,-15.78642
30780,0.084456,-0.006477,-0.022495,-0.001064,-0.001064,0.0,0.086076,-0.0,-0.0,2.0,0.282024,0.304664,0.282024,0.256404,-23.452726,-124.634232,44.80779,0.662863,-1.648007,-15.944905
30800,0.084454,-0.00636,-0.022378,-0.001064,-0.001064,-0.001064,0.085996,-0.0,-0.0,2.0,0.282024,0.302941,0.282024,0.258592,-23.317391,-123.990042,44.902981,1.436542,-2.267418,-16.102129
30820,0.08421,-0.006363,-0.022379,-0.001064,-0.001064,-0.001064,0.085833,-0.0,-0.0,2.0,0.282024,0.302976,0.282024,0.258548,-23.377526,-123.336147,44.790153,0.98932,-3.251264,-16.258349
30840,0.084088,-0.006364,-0.02238,-0.001064,0.0,-0.001064,0.085658,-0.0,-0.0,2.0,0.282024,0.302931,0.282024,0.258605,-23.352843,-122.669087,44.798027,-0.401106,-3.531335,-16.415703
30860,0.084089,-0.006359,-0.022502,-0.001064,0.0,0.0,0.085456,-0.0,-0.0,2.0,0.282024,0.304625,0.282024,0.256454,-23.387646,-121.997088,44.795744,-1.50164,-2.651171,-16.575724
30880,0.08409,-0.006481,-0.022497,0.0,0.0,0.0,0.085289,-0.0,-0.0,2.0,0.282024,0.303022,0.282024,0.258491,-23.426689,-121.326237,44.767047,-1.21186,-1.367601,-16.735991
30900,0.08397,-0.006604,-0.022492,0.0,-0.001064,-0.001064,0.085084,-0.0,-0.0,2.0,0.282024,0.304679,0.282024,0.256385,-23.654801,-120.697215,44.970757,0.27771,-1.06307,-16.894834
30920,0.084213,-0.006601,-0.022491,0.0,-0.001064,-0.001064,0.084874,-0.0,-0.0,2.0,0.282024,0.304825,0.282024,0.256197,-23.476739,-120.019294,44.814044,1.475485,-2.319033,-17.052422
30940,0.084213,-0.006601,-0.022491,-0.001064,-0.001064,-0.001064,0.084655,-0.0,-0.0,2.0,0.282024,0.304894,0.282024,0.256109,-23.402675,-119.325273,44.769861,1.035017,-4.050995,-17.208207
30960,0.084212,-0.006479,-0.022496,0.0,-0.001064,-0.001064,0.084543,-0.0,-0.0,2.0,0.282024,0.304928,0.282024,0.256065,-23.40652,-118.615338,44.708955,-0.733692,-4.36138,-17.365543
30980,0.084334,-0.006483,-0.022374,-0.001064,0.0,0.0,0.084218,-0.0,-0.0,2.0,0.282024,0.305084,0.282024,0.255864,-23.626603,-117.905909,44.52052,-1.894465,-2.556651,-17.526709
31000,0.08421,-0.006363,-0.022379,-0.001064,0.0,-0.001064,0.083972,-0.0,-0.0,2.0,0.282024,0.30513,0.282024,0.255804,-23.419191,-117.275106,44.777912,-0.856682,-0.251348,-17.686752
31020,0.084212,-0.006485,-0.022374,-0.001064,0.0,0.0,0.083845,-0.0,-0.0,2.0,0.282024,0.303496,0.282024,0.257892,-23.496629,-116.568736,44.670921,1.555541,0.00826,-17.845169
31040,0.08409,-0.006481,-0.022497,-0.001064,-0.001064,0.0,0.083586,-0.0,-0.0,2.0,0.282024,0.303637,0.282024,0.257714,-23.414731,-115.852415,44.635527,2.573625,-2.393179,-18.002434
31060,0.08409,-0.006481,-0.022497,-0.001064,-0.001064,0.0,0.083317,-0.0,-0.0,2.0,0.282024,0.305337,0.282024,0.255537,-23.342431,-115.11612,44.645515,0.534273,-4.9682,-18.156833
31080,0.083967,-0.006365,-0.022381,-0.001064,-0.001064,-0.001064,0.082952,-0.0,-0.0,2.0,0.282024,0.303753,0.282024,0.257566,-23.054193,-114.382176,44.327294,-2.7146,-4.544052,-18.317417
31100,0.083843,-0.006245,-0.022387,-0.001064,-0.001064,-0.001064,0.08278,-0.0,-0.0,2.0,0.282024,0.303871,0.282024,0.257416,-23.422891,-113.642438,44.588238,-3.291001,-1.131219,-18.482094
31120,0.083723,-0.006368,-0.022382,-0.001064,0.0,-0.001064,0.082486,-0.0,-0.0,2.0,0.282024,0.305585,0.282024,0.255216,-23.529151,-112.902961,44.657789,0.214899,1.340896,-18.640785
31140,0.083601,-0.006365,-0.022505,0.0,0.0,-0.001064,0.082182,-0.0,-0.0,2.0,0.282024,0.303989,0.282024,0.257267,-23.409155,-112.15821,44.752848,4.12457,-0.67742,-18.799909
31160,0.083601,-0.006365,-0.022505,-0.001064,0.0,0.0,0.081868,-0.0,-0.0,2.0,0.282024,0.304122,0.282024,0.257097,-22.316513,-111.407445,45.691845,3.311298,-5.373108,-18.952076
31180,0.083479,-0.006366,-0.022505,0.0,-0.001064,0.0,0.081707,-0.0,-0.0,2.0,0.282024,0.305839,0.282024,0.254885,-23.243854,-110.707159,44.711248,-2.106902,-6.690288,-19.105519
31200,0.083482,-0.00661,-0.022495,0.0,-0.001064,-0.001064,0.081233,-0.0,-0.0,2.0,0.282024,0.304358,0.282024,0.256796,-23.398119,-109.911,44.705077,-5.659877,-1.801361,-19.275015
31220,0.08336,-0.006611,-0.022496,-0.001064,-0.001064,-0.001064,0.080886,-0.0,-0.0,2.0,0.282024,0.304515,0.282024,0.256595,-23.549257,-109.140219,44.599969,-1.879026,3.931812,-19.432357
31240,0.083236,-0.006491,-0.022502,-0.001064,-0.001064,0.0,0.080534,-0.0,-0.0,2.0,0.282024,0.304591,0.282024,0.256498,-22.69195,-108.390109,43.729951,5.496545,2.319163,-19.592935
31260,0.083113,-0.00637,-0.022507,0.0,0.0,-0.001064,0.080357,-0.0,-0.0,2.0,0.282024,0.304648,0.282024,0.256425,8.190115,-107.882371,13.122276,6.271225,-6.329662,-19.747686
31280,0.082992,-0.006367,-0.02263,-0.001064,0.0,0.0,0.079902,-0.0,-0.0,2.0,0.282024,0.304807,0.282024,0.256221,8.328707,-107.012587,13.115246,-2.532296,-10.92811,-19.890227
31300,0.08287,-0.006368,-0.022631,-0.001064,-0.001064,0.0,0.079492,-0.0,-0.0,2.0,0.282024,0.304954,0.282024,0.256031,8.090701,-106.135201,13.109138,-9.941758,-3.268624,-20.077874
31320,0.082748,-0.006369,-0.022631,0.0,-0.001064,-0.001064,0.079109,-0.0,-0.0,2.0,0.282024,0.305094,0.282024,0.255851,8.139231,-105.339521,13.551583,-3.780031,8.260606,-20.231097
31340,0.082503,-0.006245,-0.02276,-0.001064,-0.001064,0.0,0.078914,-0.0,-0.0,2.0,0.282024,0.30513,0.282024,0.255805,4.306771,-105.303348,9.649906,10.440837,6.583565,-20.398727
31360,0.082504,-0.006367,-0.022755,-0.001064,0.0,0.0,0.078519,-0.0,-0.0,2.0,0.282024,0.305321,0.282024,0.255557,5.036957,-106.136066,9.869491,12.277731,-9.534307,-20.56159
31380,0.08226,-0.00637,-0.022756,-0.001064,0.0,-0.001064,0.078011,-0.0,-0.0,2.0,0.282024,0.305473,0.282024,0.255361,5.340356,-107.140416,9.982407,-5.337327,-18.016526,-20.672215
31400,0.082138,-0.006372,-0.022757,-0.001064,0.0,0.0,0.077762,-0.0,-0.0,2.0,0.282024,0.305578,0.282024,0.255225,4.744361,-108.141918,10.138103,-19.441002,-2.327453,-20.919925
31420,0.08201,-0.006251,-0.022758,-0.001064,0.0,-0.001064,0.077333,-0.0,-0.0,2.0,0.282024,0.305791,0.282024,0.254948,4.002767,-109.049964,10.223297,-5.153275,18.96877,-21.02437
31440,0.082011,-0.006373,-0.022753,-0.001064,-0.001064,-0.001064,0.0769,-0.0,-0.0,2.0,0.282024,0.305925,0.282024,0.254774,4.226733,-110.185589,10.240388,22.446771,10.972279,-21.243837
31460,0.081766,-0.006254,-0.02276,-0.001064,-0.001064,0.0,0.076463,-0.0,-0.0,2.0,0.282024,0.306107,0.282024,0.254536,5.057911,-111.091942,9.993475,19.839863,-22.538313,-21.37892
31480,0.081522,-0.006261,-0.022639,-0.001064,-0.001064,0.0,0.076242,-0.0,-0.0,2.0,0.282024,0.30626,0.282024,0.254336,9.927558,-111.744028,14.58531,-18.86714,-30.840754,-21.449597
31500,0.0814,-0.006263,-0.02264,-0.001064,-0.001064,-0.001064,0.075629,-0.0,-0.0,2.0,0.282024,0.306467,0.282024,0.254065,12.665623,-111.383289,18.546328,-36.580907,10.33832,-21.884367
31520,0.081156,-0.006266,-0.022641,-0.001064,-0.001064,-0.001064,0.075165,-0.0,-0.0,2.0,0.282024,0.306628,0.282024,0.253854,12.849565,-110.114704,19.755174,7.423349,43.831667,-21.730935
31540,0.080789,-0.006275,-0.022521,-0.001064,0.0,-0.001064,0.074691,-0.0,-0.0,2.0,0.282024,0.306795,0.282024,0.253634,14.095799,-108.469746,19.796139,54.033359,3.548043,-22.403227
31560,0.080546,-0.006278,-0.022522,-0.001064,0.0,-0.001064,0.07421,-0.0,-0.0,2.0,0.282024,0.306923,0.282024,0.253465,15.780851,-107.028234,20.063525,14.448288,-63.109656,-21.974742
31580,0.080301,-0.006286,-0.022402,-0.001064,0.0,0.0,0.073719,-0.0,-0.0,2.0,0.282024,0.305476,0.282024,0.255357,7.546668,-104.822253,13.210505,-68.511309,-36.55728,-22.784756
31600,0.079815,-0.006413,-0.022399,-0.001064,0.0,0.0,0.073253,-0.0,-0.0,2.0,0.282024,0.30552,0.282024,0.2553,5.839291,-103.710718,14.673668,-48.861948,71.548201,-22.781026
31620,0.079327,-0.006424,-0.02228,-0.001064,-0.001064,-0.001064,0.072717,-0.0,-0.0,2.0,0.282024,0.305674,0.282024,0.255101,3.941232,-103.931567,17.990396,78.64033,74.881859,-22.979228
31640,0.078712,-0.00643,-0.022279,-0.002128,-0.001064,-0.001064,0.072465,-0.0,-0.0,2.0,0.282024,0.30564,0.282024,0.255144,9.791395,-104.306368,20.241096,98.16351,-83.965964,-24.183437
31660,0.07798,-0.006444,-0.022161,-0.002128,-0.001064,-0.001064,0.071948,-0.0,-0.0,2.0,0.282024,0.305697,0.282024,0.25507,11.90559,-104.905887,16.365156,-83.587954,-138.16967,-22.411794
31680,0.077371,-0.006577,-0.022038,-0.003193,0.0,-0.001064,0.07142,-0.0,-0.0,2.0,0.282024,0.305713,0.282024,0.255049,6.465322,-104.708263,16.395771,-171.408038,89.11073,-27.530489
31700,0.076395,-0.006593,-0.021921,-0.002128,0.0,-0.001064,0.071039,-0.0,-0.0,2.0,0.282024,0.305631,0.282024,0.255156,2.235147,-107.729294,18.149685,102.269073,223.763685,-21.649527
31720,0.075414,-0.006609,-0.021801,-0.002128,0.0,-0.001064,0.070375,-0.0,-0.0,2.0,0.282024,0.305599,0.282024,0.255198,10.6853,-107.68898,17.623146,282.187691,-155.213459,-34.505679
31740,0.074438,-0.006624,-0.021684,-0.003193,0.0,-0.001064,0.069822,-0.0,-0.0,2.0,0.282024,0.303886,0.282024,0.257398,18.575119,-114.120575,26.108762,-195.624324,-378.523399,-22.741328
31760,0.073463,-0.006762,-0.021563,-0.003193,0.0,-0.001064,0.069261,-0.0,-0.0,2.0,0.282024,0.303763,0.282024,0.257554,-46.728367,-112.931532,-39.912962,-329.873746,743.208609,-39.197164
31780,0.072239,-0.006901,-0.021439,-0.003193,0.0,-0.001064,0.068699,-0.0,-0.0,2.0,0.282024,0.303632,0.282024,0.25772,-31.071506,-112.819556,-36.438479,1222.229592,435.078791,-119.85529
31800,0.071019,-0.006924,-0.021202,-0.003193,-0.001064,-0.001064,0.068378,-0.0,-0.0,2.0,0.282024,0.303408,0.282024,0.258004,585.636568,41.798315,-471.669049,-2105015.364418,-2964729.418052,184071.880451
31820,0.0698,-0.007063,-0.021082,-0.003193,-0.001064,-0.001064,0.067588,-0.0,-0.0,2.0,0.282024,0.303297,0.282024,0.258144,1.4345416748829901e+29,5.248240550714068e+28,-9.921399251198454e+28,-2.912696575267324e+59,-4.099333667229683e+59,2.546910464904702e+58
31840,0.068575,-0.007085,-0.020841,-0.003193,-0.001064,-0.001064,0.067001,-0.0,-0.0,2.0,0.282024,0.30306,0.282024,0.258443,,,,,,
31860,0.067232,-0.007107,-0.020604,-0.003193,0.0,-0.001064,0.066706,-0.0,-0.0,2.0,0.282024,0.302753,0.282024,0.258828,,,,,,
31880,0.066007,-0.007124,-0.020484,-0.003193,0.0,-0.001064,0.066105,-0.0,-0.0,2.0,0.282024,0.302499,0.282024,0.259146,,,,,,
31900,0.064543,-0.007273,-0.020122,-0.003193,0.0,-0.001064,0.065359,-0.0,-0.0,2.0,0.282024,0.302286,0.282024,0.259412,,,,,,
31920,0.063202,-0.007417,-0.019881,-0.003193,0.0,-0.001064,0.064903,-0.0,-0.0,2.0,0.282024,0.300297,0.282024,0.261864,,,,,,
31940,0.061855,-0.007438,-0.019641,-0.003193,-0.001064,-0.001064,0.064278,-0.0,-0.0,2.0,0.282024,0.301682,0.282024,0.260162,,,,,,
31960,0.060514,-0.007707,-0.019275,-0.003193,-0.001064,-0.001064,0.063637,-0.0,-0.0,2.0,0.282024,0.301399,0.282024,0.260512,,,,,,
31980,0.05905,-0.007851,-0.019035,-0.003193,0.0,-0.001064,0.063003,-0.0,-0.0,2.0,0.282024,0.299389,0.282024,0.262964,,,,,,
32000,0.057703,-0.007874,-0.018672,-0.003193,0.0,-0.001064,0.06235,-0.0,-0.0,2.0,0.282024,0.300759,0.282024,0.261299,,,,,,
32020,0.056361,-0.008016,-0.018432,-0.003193,0.0,-0.001064,0.061744,-0.0,-0.0,2.0,0.282024,0.30043,0.282024,0.261701,,,,,,
32040,0.05502,-0.008283,-0.018066,-0.003193,0.0,-0.001064,0.061076,-0.0,-0.0,2.0,0.282024,0.30007,0.282024,0.26214,,,,,,
32060,0.053796,-0.008423,-0.017822,-0.003193,0.0,-0.001064,0.06075,-0.0,-0.0,2.0,0.282024,0.299705,0.282024,0.262583,,,,,,
32080,0.052453,-0.008567,-0.01746,-0.003193,0.0,-0.001064,0.060078,-0.0,-0.0,2.0,0.282024,0.299365,0.282024,0.262993,,,,,,
32100,0.051354,-0.008583,-0.017222,-0.003193,0.0,-0.001064,0.059408,-0.0,-0.0,2.0,0.282024,0.299016,0.282024,0.263413,,,,,,
32120,0.05013,-0.008724,-0.016856,-0.003193,0.0,-0.001064,0.059008,-0.0,-0.0,2.0,0.282024,0.298691,0.282024,0.263803,,,,,,
32140,0.049033,-0.008984,-0.016612,-0.003193,0.0,-0.001064,0.058312,-0.0,-0.0,2.0,0.282024,0.300054,0.282024,0.262159,,,,,,
32160,0.047934,-0.009,-0.016374,-0.002128,0.0,-0.001064,0.05753,-0.0,-0.0,2.0,0.282024,0.298129,0.282024,0.264472,,,,,,
32180,0.046835,-0.009139,-0.016011,-0.003193,0.0,-0.001064,0.056829,-0.0,-0.0,2.0,0.282024,0.297893,0.282024,0.264752,,,,,,
32200,0.04598,-0.009277,-0.015647,-0.002128,0.0,-0.001064,0.056129,-0.0,-0.0,2.0,0.282024,0.299336,0.282024,0.263028,,,,,,
32220,0.045122,-0.009289,-0.015405,-0.002128,0.0,-0.001064,0.055286,-0.0,-0.0,2.0,0.282024,0.299146,0.282024,0.263257,,,,,,
32240,0.04439,-0.009544,-0.01516,-0.002128,0.0,-0.001064,0.054636,-0.0,-0.0,2.0,0.282024,0.298973,0.282024,0.263465,,,,,,
32260,0.043658,-0.009678,-0.014917,-0.002128,0.0,-0.001064,0.05391,-0.0,-0.0,2.0,0.282024,0.300544,0.282024,0.261562,,,,,,
32280,0.043046,-0.009688,-0.014676,-0.001064,0.0,-0.001064,0.053187,-0.0,-0.0,2.0,0.282024,0.298722,0.282024,0.263765,,,,,,
32300,0.042435,-0.009822,-0.014311,-0.002128,0.0,-0.001064,0.052823,-0.0,-0.0,2.0,0.282024,0.298487,0.282024,0.264046,,,,,,
32320,0.041947,-0.00995,-0.014189,-0.001064,0.0,-0.001064,0.052089,-0.0,-0.0,2.0,0.282024,0.300109,0.282024,0.262093,,,,,,
32340,0.041582,-0.010202,-0.013942,-0.001064,0.0,-0.001064,0.051684,-0.0,-0.0,2.0,0.282024,0.298255,0.282024,0.264323,,,,,,
32360,0.041093,-0.010333,-0.013698,-0.001064,0.0,-0.001064,0.050553,-0.0,-0.0,2.0,0.282024,0.300071,0.282024,0.262138,,,,,,
32380,0.040848,-0.01034,-0.013456,-0.001064,-0.001064,-0.001064,0.049779,-0.0,-0.0,2.0,0.282024,0.300087,0.282024,0.262119,,,,,,
32400,0.040479,-0.010466,-0.013331,-0.001064,0.0,-0.001064,0.049026,-0.0,-0.0,2.0,0.282024,0.300101,0.282024,0.262102,,,,,,
32420,0.040234,-0.010348,-0.013213,-0.001064,0.0,-0.001064,0.048265,-0.0,-0.0,2.0,0.282024,0.300169,0.282024,0.26202,,,,,,
32440,0.039989,-0.010477,-0.012968,-0.001064,0.0,0.0,0.048265,-0.0,-0.0,2.0,0.282024,0.299964,0.282024,0.262269,,,,,,
32460,0.039745,-0.010481,-0.012847,-0.001064,0.0,-0.001064,0.048265,-0.0,-0.0,2.0,0.282024,0.299756,0.282024,0.262521,,,,,,
32480,0.0395,-0.010485,-0.012726,-0.001064,-0.001064,-0.001064,0.046741,-0.0,-0.0,2.0,0.282024,0.300104,0.282024,0.262099,,,,,,
32500,0.039256,-0.010611,-0.012603,-0.001064,-0.001064,-0.001064,0.045446,-0.0,-0.0,2.0,0.282024,0.300429,0.282024,0.261703,,,,,,
32520,0.039133,-0.010614,-0.012482,-0.001064,0.0,-0.001064,0.044658,-0.0,-0.0,2.0,0.282024,0.300586,0.282024,0.261512,,,,,,
32540,0.039134,-0.010736,-0.01248,-0.001064,0.0,0.0,0.043868,-0.0,-0.0,2.0,0.282024,0.300708,0.282024,0.261362,,,,,,
32560,0.038767,-0.010741,-0.01236,-0.001064,0.0,-0.001064,0.043066,-0.0,-0.0,2.0,0.282024,0.300888,0.282024,0.261141,,,,,,
32580,0.038645,-0.010742,-0.012361,-0.001064,-0.001064,-0.001064,0.042324,-0.0,-0.0,2.0,0.282024,0.301011,0.282024,0.260991,,,,,,
32600,0.038402,-0.010865,-0.01236,-0.001064,0.0,0.0,0.04151,-0.0,-0.0,2.0,0.282024,0.301166,0.282024,0.260799,,,,,,
32620,0.037914,-0.010869,-0.012363,-0.001064,0.0,0.0,0.041098,-0.0,-0.0,2.0,0.282024,0.301184,0.282024,0.260778,,,,,,
32640,0.03767,-0.01087,-0.012364,-0.001064,0.0,0.0,0.040285,-0.0,-0.0,2.0,0.282024,0.30126,0.282024,0.260683,,,,,,
32660,0.037182,-0.010995,-0.012365,-0.001064,0.0,0.0,0.039469,-0.0,-0.0,2.0,0.282024,0.299675,0.282024,0.262619,,,,,,
32680,0.036451,-0.01112,-0.012489,-0.002128,-0.001064,0.0,0.038998,-0.0,-0.0,2.0,0.282024,0.299683,0.282024,0.26261,,,,,,
32700,0.036087,-0.011242,-0.012611,-0.002128,-0.001064,0.0,0.037861,-0.0,-0.0,2.0,0.282024,0.299845,0.282024,0.262413,,,,,,
32720,0.035477,-0.011244,-0.012737,-0.002128,0.0,0.0,0.037021,-0.0,-0.0,2.0,0.282024,0.299907,0.282024,0.262338,,,,,,
32740,0.034745,-0.011371,-0.012739,-0.002128,0.0,0.0,0.036189,-0.0,-0.0,2.0,0.282024,0.299926,0.282024,0.262315,,,,,,
32760,0.034015,-0.011496,-0.012864,-0.002128,0.0,0.0,0.035349,-0.0,-0.0,2.0,0.282024,0.299948,0.282024,0.262288,,,,,,
32780,0.033159,-0.011497,-0.013111,-0.002128,0.0,0.0,0.034407,-0.0,-0.0,2.0,0.282024,0.300009,0.282024,0.262214,,,,,,
32800,0.032063,-0.011625,-0.013238,-0.003193,0.0,0.0,0.03365,-0.0,-0.0,2.0,0.282024,0.298192,0.282024,0.264398,,,,,,
32820,0.031088,-0.01175,-0.013486,-0.003193,0.0,0.0,0.032785,-0.0,-0.0,2.0,0.282024,0.298134,0.282024,0.264467,,,,,,
32840,0.029747,-0.011879,-0.013615,-0.003193,0.0,0.0,0.03236,-0.0,-0.0,2.0,0.282024,0.297821,0.282024,0.264838,,,,,,
32860,0.028286,-0.01213,-0.013865,-0.003193,0.0,0.0,0.031509,-0.0,-0.0,2.0,0.282024,0.297565,0.282024,0.265141,,,,,,
32880,0.026702,-0.012506,-0.013993,-0.004257,0.0,0.0,0.030425,-0.0,-0.0,2.0,0.282024,0.295686,0.282024,0.267337,,,,,,
32900,0.025119,-0.012881,-0.014243,-0.004257,0.0,0.0,0.029881,-0.0,-0.0,2.0,0.282024,0.295206,0.282024,0.26789,,,,,,
32920,0.023168,-0.013259,-0.014372,-0.004257,0.0,0.0,0.029027,-0.0,-0.0,2.0,0.282024,0.293058,0.282024,0.270332,,,,,,
32940,0.02122,-0.01376,-0.014503,-0.005321,0.0,-0.001064,0.028152,-0.0,-0.0,2.0,0.282024,0.292575,0.282024,0.270872,,,,,,
32960,0.019271,-0.014262,-0.014634,-0.005321,0.001064,0.0,0.02729,-0.0,-0.0,2.0,0.282024,0.293755,0.282024,0.269545,,,,,,
32980,0.017078,-0.014766,-0.014768,-0.005321,0.0,0.0,0.026395,-0.0,-0.0,2.0,0.282024,0.291466,0.282024,0.272104,,,,,,
33000,0.014763,-0.015272,-0.014783,-0.005321,0.001064,-0.001064,0.025612,-0.0,-0.0,2.0,0.282024,0.290799,0.282024,0.272837,,,,,,
33020,0.01257,-0.015776,-0.014919,-0.005321,0.001064,0.0,0.024681,-0.0,-0.0,2.0,0.282024,0.290165,0.282024,0.27353,,,,,,
33040,0.010255,-0.016404,-0.014935,-0.005321,0.001064,0.0,0.023794,-0.0,-0.0,2.0,0.282024,0.289445,0.282024,0.274311,,,,,,
33060,0.00782,-0.017032,-0.015075,-0.005321,0.001064,-0.001064,0.02291,-0.0,-0.0,2.0,0.282024,0.288702,0.282024,0.275111,,,,,,
33080,0.005626,-0.017537,-0.015093,-0.006385,0.001064,0.0,0.022471,-0.0,-0.0,2.0,0.282024,0.287759,0.282024,0.276116,,,,,,
33100,0.00319,-0.018288,-0.015113,-0.005321,0.001064,0.0,0.021223,-0.0,-0.0,2.0,0.282024,0.287053,0.282024,0.276863,,,,,,
33120,0.000632,-0.01904,-0.015136,-0.005321,0.001064,-0.001064,0.020684,-0.0,-0.0,2.0,0.282024,0.284203,0.282024,0.279821,,,,,,
33140,-0.001681,-0.01979,-0.015159,-0.006385,0.001064,0.0,0.019801,-0.0,-0.0,2.0,0.282024,0.285144,0.282024,0.278854,,,,,,
33160,-0.00424,-0.020541,-0.015064,-0.005321,0.001064,0.0,0.018902,-0.0,-0.0,2.0,0.282024,0.28417,0.282024,0.279855,,,,,,
33180,-0.006676,-0.021292,-0.015091,-0.005321,0.001064,-0.001064,0.018003,-0.0,-0.0,2.0,0.282024,0.283214,0.282024,0.280827,,,,,,
33200,-0.009112,-0.022164,-0.014999,-0.005321,0.001064,-0.001064,0.017534,-0.0,-0.0,2.0,0.282024,0.282107,0.282024,0.281941,,,,,,
33220,-0.011303,-0.023034,-0.015028,-0.005321,0.001064,0.0,0.016261,-0.0,-0.0,2.0,0.282024,0.281237,0.282024,0.282808,,,,,,
33240,-0.013618,-0.023783,-0.014937,-0.005321,0.001064,-0.001064,0.015327,-0.0,-0.0,2.0,0.282024,0.280259,0.282024,0.283774,,,,,,
33260,-0.015814,-0.024409,-0.014726,-0.005321,0.0,-0.001064,0.01441,-0.0,-0.0,2.0,0.282024,0.279295,0.282024,0.284716,,,,,,
33280,-0.017767,-0.024665,-0.014629,-0.004257,-0.001064,-0.001064,0.013487,-0.0,-0.0,2.0,0.282024,0.280257,0.282024,0.283776,,,,,,
33300,-0.019479,-0.024675,-0.014405,-0.004257,-0.001064,-0.002128,0.013032,-0.0,-0.0,2.0,0.282024,0.279214,0.282024,0.284794,,,,,,
33320,-0.021072,-0.024316,-0.014054,-0.004257,-0.001064,-0.001064,0.011767,-0.0,-0.0,2.0,0.282024,0.280421,0.282024,0.283614,,,,,,
33340,-0.022424,-0.02371,-0.013697,-0.003193,-0.002128,-0.001064,0.011307,-0.0,-0.0,2.0,0.282024,0.279548,0.282024,0.284469,,,,,,
33360,-0.023651,-0.023348,-0.01334,-0.002128,-0.001064,-0.002128,0.010391,-0.0,-0.0,2.0,0.282024,0.278893,0.282024,0.285106,,,,,,
33380,-0.024634,-0.022983,-0.012981,-0.003193,-0.001064,-0.001064,0.009479,-0.0,-0.0,2.0,0.282024,0.280181,0.282024,0.283851,,,,,,
33400,-0.025494,-0.022862,-0.012622,-0.002128,-0.001064,-0.001064,0.008341,-0.0,-0.0,2.0,0.282024,0.279708,0.282024,0.284313,,,,,,
33420,-0.02623,-0.022983,-0.012266,-0.002128,0.0,-0.001064,0.007774,-0.0,-0.0,2.0,0.282024,0.279058,0.282024,0.284946,,,,,,
33440,-0.026965,-0.023105,-0.011909,-0.002128,0.0,-0.001064,0.006825,-0.0,-0.0,2.0,0.282024,0.278656,0.282024,0.285335,,,,,,
33460,-0.027454,-0.02347,-0.011676,-0.001064,0.0,-0.001064,0.005904,-0.0,-0.0,2.0,0.282024,0.280099,0.282024,0.28393,,,,,,
33480,-0.027945,-0.023712,-0.011318,-0.001064,0.0,-0.001064,0.004986,-0.0,-0.0,2.0,0.282024,0.277889,0.282024,0.286074,,,,,,
33500,-0.028316,-0.023954,-0.010962,-0.001064,0.0,-0.001064,0.004518,-0.0,-0.0,2.0,0.282024,0.279216,0.282024,0.284792,,,,,,
33520,-0.028686,-0.024073,-0.010602,-0.001064,0.0,-0.001064,0.003148,-0.0,-0.0,2.0,0.282024,0.279151,0.282024,0.284856,,,,,,
33540,-0.028931,-0.024436,-0.010366,-0.001064,0.0,-0.001064,0.002204,-0.0,-0.0,2.0,0.282024,0.278879,0.282024,0.28512,,,,,,
33560,-0.029301,-0.024555,-0.010005,-0.001064,0.0,-0.001064,0.001741,-0.0,-0.0,2.0,0.282024,0.278472,0.282024,0.285513,,,,,,
33580,-0.029427,-0.024672,-0.009642,-0.001064,0.0,-0.001064,0.000826,-0.0,-0.0,2.0,0.282024,0.278298,0.282024,0.28568,,,,,,
33600,-0.029553,-0.024789,-0.009279,-0.001064,-0.001064,-0.001064,-9.4e-05,-0.0,-0.0,2.0,0.282024,0.279993,0.282024,0.284035,,,,,,
33620,-0.029556,-0.024908,-0.009037,0.0,0.0,-0.001064,-0.000576,-0.0,-0.0,2.0,0.282024,0.277766,0.282024,0.286192,,,,,,
33640,-0.029558,-0.025026,-0.008795,-0.001064,0.0,-0.001064,-0.001853,-0.0,-0.0,2.0,0.282024,0.27787,0.282024,0.286092,,,,,,
33660,-0.029439,-0.025022,-0.008549,-0.001064,-0.001064,-0.001064,-0.002782,-0.0,-0.0,2.0,0.282024,0.27971,0.282024,0.284311,,,,,,
33680,-0.029442,-0.025019,-0.008305,0.0,-0.001064,-0.001064,-0.003711,-0.0,-0.0,2.0,0.282024,0.279661,0.282024,0.284359,,,,,,
33700,-0.029445,-0.025015,-0.008061,-0.001064,0.0,-0.001064,-0.004631,-0.0,-0.0,2.0,0.282024,0.277767,0.282024,0.286191,,,,,,
33720,-0.029447,-0.025013,-0.007938,-0.001064,-0.001064,-0.001064,-0.005143,-0.0,-0.0,2.0,0.282024,0.279437,0.282024,0.284578,,,,,,
33740,-0.02945,-0.02501,-0.007694,0.0,-0.001064,-0.001064,-0.006411,-0.0,-0.0,2.0,0.282024,0.279563,0.282024,0.284455,,,,,,
33760,-0.029697,-0.025007,-0.007453,0.0,0.0,-0.001064,-0.007317,-0.0,-0.0,2.0,0.282024,0.277656,0.282024,0.286297,,,,,,
33780,-0.029575,-0.024884,-0.00745,-0.001064,0.0,-0.001064,-0.008234,-0.0,-0.0,2.0,0.282024,0.27958,0.282024,0.284438,,,,,,
33800,-0.029456,-0.025124,-0.007208,0.0,0.0,-0.001064,-0.008703,-0.0,-0.0,2.0,0.282024,0.279431,0.282024,0.284583,,,,,,
33820,-0.029457,-0.025123,-0.007086,0.0,0.0,-0.001064,-0.009833,-0.0,-0.0,2.0,0.282024,0.2777,0.282024,0.286255,,,,,,
33840,-0.029335,-0.025,-0.007082,-0.001064,0.0,-0.001064,-0.01084,-0.0,-0.0,2.0,0.282024,0.277847,0.282024,0.286114,,,,,,
33860,-0.029337,-0.025121,-0.006962,-0.001064,-0.001064,-0.001064,-0.011307,-0.0,-0.0,2.0,0.282024,0.279648,0.282024,0.284372,,,,,,
33880,-0.029337,-0.024998,-0.00696,0.0,-0.001064,0.0,-0.012222,-0.0,-0.0,2.0,0.282024,0.277826,0.282024,0.286135,,,,,,
33900,-0.029461,-0.024997,-0.00684,-0.001064,0.0,-0.001064,-0.013134,-0.0,-0.0,2.0,0.282024,0.277924,0.282024,0.28604,,,,,,
33920,-0.029461,-0.024875,-0.006838,-0.001064,0.0,-0.001064,-0.014254,-0.0,-0.0,2.0,0.282024,0.279975,0.282024,0.284052,,,,,,
33940,-0.029461,-0.024875,-0.006838,0.0,-0.001064,0.0,-0.014844,-0.0,-0.0,2.0,0.282024,0.279875,0.282024,0.28415,,,,,,
33960,-0.029584,-0.024996,-0.006719,0.0,0.0,-0.001064,-0.015786,-0.0,-0.0,2.0,0.282024,0.278169,0.282024,0.285805,,,,,,
33980,-0.029462,-0.024995,-0.006717,-0.001064,0.0,-0.001064,-0.016682,-0.0,-0.0,2.0,0.282024,0.280216,0.282024,0.283816,,,,,,
34000,-0.02934,-0.025117,-0.006718,0.0,-0.001064,0.0,-0.017588,-0.0,-0.0,2.0,0.282024,0.280378,0.282024,0.283656,,,,,,
34020,-0.029462,-0.025117,-0.006719,0.0,-0.001064,-0.001064,-0.018036,-0.0,-0.0,2.0,0.282024,0.278521,0.282024,0.285466,,,,,,
34040,-0.029462,-0.024995,-0.006717,-0.001064,0.0,-0.001064,-0.019257,-0.0,-0.0,2.0,0.282024,0.278836,0.282024,0.285161,,,,,,
34060,-0.029462,-0.024995,-0.006717,-0.001064,-0.001064,0.0,-0.01978,-0.0,-0.0,2.0,0.282024,0.278886,0.282024,0.285113,,,,,,
34080,-0.029584,-0.024996,-0.006719,-0.001064,-0.001064,-0.001064,-0.020819,-0.0,-0.0,2.0,0.282024,0.279104,0.282024,0.284901,,,,,,
34100,-0.029707,-0.024874,-0.006719,-0.001064,0.0,-0.001064,-0.021729,-0.0,-0.0,2.0,0.282024,0.279286,0.282024,0.284725,,,,,,
34120,-0.029705,-0.024876,-0.006841,-0.001064,0.0,0.0,-0.022835,-0.0,-0.0,2.0,0.282024,0.279607,0.282024,0.284412,,,,,,
34140,-0.029707,-0.024874,-0.006719,-0.001064,-0.001064,-0.001064,-0.023311,-0.0,-0.0,2.0,0.282024,0.28153,0.282024,0.282517,,,,,,
34160,-0.029707,-0.024874,-0.006719,0.0,0.0,-0.001064,-0.024087,-0.0,-0.0,2.0,0.282024,0.279903,0.282024,0.284123,,,,,,
34180,-0.029707,-0.024874,-0.006719,-0.001064,0.0,-0.001064,-0.025003,-0.0,-0.0,2.0,0.282024,0.280232,0.282024,0.2838,,,,,,
34200,-0.029707,-0.024874,-0.006719,-0.001064,-0.001064,0.0,-0.025883,-0.0,-0.0,2.0,0.282024,0.282297,0.282024,0.28175,,,,,,
34220,-0.029709,-0.02475,-0.006595,0.0,-0.001064,0.0,-0.026753,-0.0,-0.0,2.0,0.282024,0.280707,0.282024,0.283333,,,,,,
34240,-0.029831,-0.02475,-0.006596,-0.001064,0.0,-0.001064,-0.027192,-0.0,-0.0,2.0,0.282024,0.280884,0.282024,0.283157,,,,,,
34260,-0.029829,-0.024752,-0.006718,-0.001064,-0.001064,0.0,-0.028566,-0.0,-0.0,2.0,0.282024,0.283171,0.282024,0.28087,,,,,,
34280,-0.029831,-0.02475,-0.006596,0.0,-0.001064,0.0,-0.029426,-0.0,-0.0,2.0,0.282024,0.283493,0.282024,0.280544,,,,,,
34300,-0.029953,-0.024751,-0.006598,0.0,0.0,-0.001064,-0.030295,-0.0,-0.0,2.0,0.282024,0.282014,0.282024,0.282035,,,,,,
34320,-0.029953,-0.024751,-0.006598,-0.001064,-0.001064,0.0,-0.030725,-0.0,-0.0,2.0,0.282024,0.282145,0.282024,0.281903,,,,,,
34340,-0.029954,-0.024749,-0.006476,-0.001064,-0.001064,0.0,-0.03163,-0.0,-0.0,2.0,0.282024,0.284331,0.282024,0.27969,,,,,,
34360,-0.030078,-0.024747,-0.006355,0.0,0.0,-0.001064,-0.032395,-0.0,-0.0,2.0,0.282024,0.282849,0.282024,0.281196,,,,,,
34380,-0.030077,-0.024627,-0.006475,-0.001064,-0.001064,0.0,-0.033249,-0.0,-0.0,2.0,0.282024,0.283178,0.282024,0.280863,,,,,,
34400,-0.030322,-0.024748,-0.006358,-0.001064,-0.001064,-0.001064,-0.034096,-0.0,-0.0,2.0,0.282024,0.285319,0.282024,0.278673,,,,,,
34420,-0.030324,-0.024624,-0.006234,-0.001064,0.0,-0.001064,-0.034943,-0.0,-0.0,2.0,0.282024,0.283815,0.282024,0.280217,,,,,,
34440,-0.030568,-0.024503,-0.006235,-0.001064,0.0,-0.001064,-0.035791,-0.0,-0.0,2.0,0.282024,0.284173,0.282024,0.279851,,,,,,
34460,-0.031058,-0.024624,-0.006121,-0.002128,-0.001064,-0.001064,-0.036565,-0.0,-0.0,2.0,0.282024,0.284464,0.282024,0.279554,,,,,,
34480,-0.031426,-0.024501,-0.006001,-0.001064,0.0,-0.001064,-0.037413,-0.0,-0.0,2.0,0.282024,0.284648,0.282024,0.279365,,,,,,
34500,-0.032037,-0.024501,-0.005886,-0.002128,0.0,-0.001064,-0.038248,-0.0,-0.0,2.0,0.282024,0.283119,0.282024,0.280924,,,,,,
34520,-0.032648,-0.024744,-0.005776,-0.002128,0.0,-0.001064,-0.039072,-0.0,-0.0,2.0,0.282024,0.28511,0.282024,0.278889,,,,,,
34540,-0.03326,-0.024743,-0.005661,-0.002128,0.0,-0.001064,-0.039481,-0.0,-0.0,2.0,0.282024,0.28328,0.282024,0.28076,,,,,,
34560,-0.034116,-0.024743,-0.005549,-0.002128,0.0,-0.001064,-0.040614,-0.0,-0.0,2.0,0.282024,0.283539,0.282024,0.280498,,,,,,
34580,-0.034973,-0.024863,-0.005318,-0.003193,0.0,-0.001064,-0.041076,-0.0,-0.0,2.0,0.282024,0.283489,0.282024,0.280548,,,,,,
34600,-0.03583,-0.024982,-0.005086,-0.002128,0.0,-0.001064,-0.041904,-0.0,-0.0,2.0,0.282024,0.283531,0.282024,0.280506,,,,,,
34620,-0.037056,-0.024859,-0.004856,-0.003193,0.0,-0.001064,-0.042707,-0.0,-0.0,2.0,0.282024,0.281738,0.282024,0.282309,,,,,,
34640,-0.038156,-0.024859,-0.004747,-0.003193,-0.001064,-0.001064,-0.043507,-0.0,-0.0,2.0,0.282024,0.281714,0.282024,0.282333,,,,,,
34660,-0.039381,-0.024976,-0.004398,-0.003193,-0.001064,-0.001064,-0.043921,-0.0,-0.0,2.0,0.282024,0.281481,0.282024,0.282566,,,,,,
34680,-0.04085,-0.024971,-0.00405,-0.003193,0.0,-0.002128,-0.045033,-0.0,-0.0,2.0,0.282024,0.281418,0.282024,0.282628,,,,,,
34700,-0.042195,-0.024967,-0.003822,-0.003193,0.0,-0.001064,-0.045827,-0.0,-0.0,2.0,0.282024,0.281272,0.282024,0.282774,,,,,,
34720,-0.043545,-0.025084,-0.003476,-0.004257,-0.001064,-0.001064,-0.046603,-0.0,-0.0,2.0,0.282024,0.279262,0.282024,0.284748,,,,,,
34740,-0.045134,-0.025202,-0.003254,-0.004257,0.0,-0.001064,-0.047375,-0.0,-0.0,2.0,0.282024,0.278988,0.282024,0.285014,,,,,,
34760,-0.046846,-0.025076,-0.003028,-0.004257,0.0,-0.001064,-0.047782,-0.0,-0.0,2.0,0.282024,0.278503,0.282024,0.285483,,,,,,
34780,-0.048561,-0.025191,-0.002687,-0.004257,-0.001064,-0.001064,-0.048904,-0.0,-0.0,2.0,0.282024,0.278334,0.282024,0.285646,,,,,,
34800,-0.050397,-0.025061,-0.00234,-0.004257,-0.001064,-0.001064,-0.049289,-0.0,-0.0,2.0,0.282024,0.27771,0.282024,0.286246,,,,,,
34820,-0.052352,-0.025055,-0.00212,-0.004257,0.0,-0.001064,-0.050044,-0.0,-0.0,2.0,0.282024,0.277261,0.282024,0.286675,,,,,,
34840,-0.054311,-0.02505,-0.001901,-0.005321,-0.001064,-0.001064,-0.0508,-0.0,-0.0,2.0,0.282024,0.27679,0.282024,0.287122,,,,,,
34860,-0.056145,-0.02504,-0.001557,-0.004257,-0.001064,-0.001064,-0.051576,-0.0,-0.0,2.0,0.282024,0.276211,0.282024,0.28767,,,,,,
34880,-0.058226,-0.025033,-0.001339,-0.005321,0.0,-0.001064,-0.052301,-0.0,-0.0,2.0,0.282024,0.273742,0.282024,0.289971,,,,,,
34900,-0.060181,-0.025147,-0.001123,-0.005321,0.0,-0.001064,-0.053049,-0.0,-0.0,2.0,0.282024,0.275054,0.282024,0.288755,,,,,,
34920,-0.06214,-0.025018,-0.0009,-0.004257,-0.001064,-0.001064,-0.053776,-0.0,-0.0,2.0,0.282024,0.274388,0.282024,0.289374,,,,,,
34940,-0.064218,-0.025009,-0.000682,-0.004257,0.0,-0.002128,-0.054502,-0.0,-0.0,2.0,0.282024,0.2738,0.282024,0.289917,,,,,,
34960,-0.065809,-0.025005,-0.00058,-0.004257,0.0,-0.001064,-0.05486,-0.0,-0.0,2.0,0.282024,0.273035,0.282024,0.290619,,,,,,
34980,-0.067398,-0.024995,-0.000355,-0.004257,-0.001064,-0.001064,-0.055874,-0.0,-0.0,2.0,0.282024,0.272623,0.282024,0.290995,,,,,,
35000,-0.069113,-0.024986,-0.000133,-0.003193,0.0,-0.001064,-0.056243,-0.0,-0.0,2.0,0.282024,0.271878,0.282024,0.291671,,,,,,
