time_ms,roll,pitch,yaw,roll_rate,pitch_rate,yaw_rate,reference_roll,reference_pitch,reference_yaw,reference_throttle,throttle_1,throttle_2,throttle_3,throttle_4,roll_predicted,pitch_predicted,yaw_predicted,roll_rate_predicted,pitch_rate_predicted,yaw_rate_predicted
116578,0.001103,-7.3e-05,0.353793,-0.001064,0.0,0.0,-0.0,-0.0,-0.0,2.0,0.282024,0.276948,0.282024,0.286972,,,,,,
116598,0.001223,-9.5e-05,0.353793,0.0,-0.001064,-1e-06,-0.0,-0.0,-0.0,2.0,0.282024,0.276966,0.282024,0.286955,,,,,,
116618,0.001223,-9.5e-05,0.35368,0.0,0.0,0.0,0.002568,-0.0,-0.0,2.0,0.282024,0.273663,0.282024,0.290043,,,,,,
116638,0.001202,-0.000215,0.35368,-0.001064,1e-06,-0.001064,0.006426,-0.0,-0.0,2.0,0.282024,0.274668,0.282024,0.289114,,,,,,
116658,0.001343,-0.000116,0.353567,-0.001064,-0.001064,-1e-06,0.010589,-0.0,-0.0,2.0,0.282024,0.273058,0.282024,0.290598,,,,,,
116678,0.001202,-0.000215,0.353454,-0.001064,-0.001064,-1e-06,0.010589,-0.0,-0.0,2.0,0.282024,0.270426,0.282024,0.292974,,,,,,
116698,0.001082,-0.000193,0.353454,-0.001064,0.0,0.0,0.016666,-0.0,-0.0,2.0,0.282024,0.267941,0.282024,0.295162,,,,,,
116718,0.001223,-9.4e-05,0.353279,-0.001064,0.0,0.0,0.018879,-0.0,-0.0,2.0,0.282024,0.269418,0.282024,0.293868,,,,,,
116738,0.001343,-0.000116,0.353166,0.0,0.0,0.0,0.02299,-0.0,-0.0,2.0,0.282024,0.267614,0.282024,0.295446,,,,,,
116758,0.001464,-0.000137,0.353053,0.0,-0.001064,-2e-06,0.026576,-0.0,-0.0,2.0,0.282024,0.265872,0.282024,0.296943,,,,,,
116778,0.001584,-0.000158,0.353053,0.0,2e-06,-0.001064,0.030125,-0.0,-0.0,2.0,0.282024,0.264184,0.282024,0.298372,,,,,,
116798,0.001944,-0.000223,0.35294,0.0,0.0,0.0,0.032159,-0.0,-0.0,2.0,0.282024,0.262986,0.282024,0.299371,,,,,,
116818,0.002305,-0.000287,0.352827,0.001064,0.0,0.0,0.034958,-0.0,-0.0,2.0,0.282024,0.261505,0.282024,0.300591,,,,,,
116838,0.002807,-0.000252,0.352826,0.001064,-0.001064,-3e-06,0.038086,-0.0,-0.0,2.0,0.282024,0.259892,0.282024,0.301901,,,,,,
116858,0.003549,-0.00026,0.352536,0.001065,4e-06,-0.001064,0.043429,-0.0,-0.0,2.0,0.282024,0.260043,0.282024,0.301779,,,,,,
116878,0.004532,-0.000311,0.352309,0.002128,0.0,0.0,0.045542,-0.0,-0.0,2.0,0.282024,0.261475,0.282024,0.300615,,,,,,
116898,0.005636,-0.000383,0.352194,0.002128,0.0,0.0,0.049045,-0.0,-0.0,2.0,0.282024,0.259846,0.282024,0.301937,,,,,,
116918,0.007121,-0.000399,0.352077,0.003193,-0.001064,-8e-06,0.052097,-0.0,-0.0,2.0,0.282024,0.258388,0.282024,0.303104,,,,,,
116938,0.008846,-0.000456,0.351782,0.004257,9e-06,-0.001064,0.053579,-0.0,-0.0,2.0,0.282024,0.260329,0.282024,0.301547,,,,,,
116958,0.011151,-0.00074,0.351433,0.004257,0.0,0.0,0.056511,-0.0,-0.0,2.0,0.282024,0.261827,0.282024,0.300327,,,,,,
116978,0.013761,-0.000707,0.351305,0.00532,-1.5e-05,0.001064,0.058137,-0.0,-0.0,2.0,0.282024,0.263945,0.282024,0.298572,,,,,,
116998,0.016689,-0.000975,0.350947,0.00745,-0.001064,-1.8e-05,0.061733,-0.0,-0.0,2.0,0.282024,0.265441,0.282024,0.297311,,,,,,
117018,0.020139,-0.001087,0.350516,0.008514,0.0,0.0,0.064563,-0.0,-0.0,2.0,0.282024,0.264873,0.282024,0.297791,,,,,,
117038,0.024312,-0.001324,0.350023,0.008512,-2.6e-05,0.001064,0.067113,-0.0,-0.0,2.0,0.282024,0.269752,0.282024,0.293572,,,,,,
117058,0.028726,-0.001602,0.349519,0.009576,-3.1e-05,0.001064,0.068808,-0.0,-0.0,2.0,0.282024,0.272474,0.282024,0.29113,,,,,,
117078,0.033542,-0.001702,0.349111,0.01064,-3.6e-05,0.001064,0.071155,-0.0,-0.0,2.0,0.282024,0.2726,0.282024,0.291015,,,,,,
117098,0.03884,-0.001881,0.348458,0.011706,0.0,0.0,0.073233,-0.0,-0.0,2.0,0.282024,0.275609,0.282024,0.288236,,,,,,
117118,0.044479,-0.002238,0.347675,0.011704,-4.7e-05,0.001063,0.075162,-0.0,-0.0,2.0,0.282024,0.27873,0.282024,0.285264,,,,,,
117138,0.050661,-0.002317,0.346973,0.012766,-0.000108,0.002126,0.076985,-0.0,-0.0,2.0,0.282024,0.281992,0.282024,0.282056,,,,,,
117158,0.056825,-0.002513,0.346317,0.013832,-6e-05,0.001063,0.077902,-0.0,-0.0,2.0,0.282024,0.283426,0.282024,0.280613,,,,,,
117178,0.063468,-0.002785,0.345457,0.013835,0.0,0.0,0.079914,-0.0,-0.0,2.0,0.282024,0.286915,0.282024,0.277008,,,,,,
117198,0.070356,-0.003087,0.344406,0.014896,-7.5e-05,0.001062,0.081114,-0.0,-0.0,2.0,0.282024,0.288562,0.282024,0.27526,,,,,,
117218,0.077264,-0.003271,0.343555,0.013828,-0.000164,0.002122,0.081815,-0.0,-0.0,2.0,0.282024,0.292744,0.282024,0.270684,,,,,,
117238,0.084433,-0.003371,0.342669,0.014892,-0.000179,0.002121,0.083321,-0.0,-0.0,2.0,0.282024,0.294437,0.282024,0.268771,,,,,,
117258,0.091561,-0.003701,0.341656,0.014899,0.0,0.0,0.084149,-0.0,-0.0,2.0,0.282024,0.296475,0.282024,0.26642,,,,,,
117278,0.098718,-0.003895,0.34045,0.014895,-0.000105,0.001059,0.085052,-0.0,-0.0,2.0,0.282024,0.298614,0.282024,0.263895,,,,,,
117298,0.105994,-0.004114,0.339441,0.01489,-0.000225,0.002117,0.085808,-0.0,-0.0,2.0,0.282024,0.300848,0.282024,0.26119,,,,,,
117318,0.113028,-0.004293,0.338533,0.014895,-0.00012,0.001057,0.086405,-0.0,-0.0,2.0,0.282024,0.301017,0.282024,0.260983,,,,,,
117338,0.119965,-0.004311,0.337375,0.01383,-0.000127,0.001057,0.086742,-0.0,-0.0,2.0,0.282024,0.305587,0.282024,0.255213,,,,,,
117358,0.126743,-0.004535,0.336101,0.01383,-0.000135,0.001056,0.087149,-0.0,-0.0,2.0,0.282024,0.305916,0.282024,0.254786,,,,,,
117378,0.133277,-0.004728,0.335047,0.013825,-0.000283,0.00211,0.087238,-0.0,-0.0,2.0,0.282024,0.306376,0.282024,0.254185,,,,,,
117398,0.139474,-0.004725,0.333872,0.012761,-0.000296,0.002108,0.087264,-0.0,-0.0,2.0,0.282024,0.308927,0.282024,0.250789,,,,,,
117418,0.145416,-0.004806,0.332875,0.011701,-0.000154,0.001053,0.087089,-0.0,-0.0,2.0,0.282024,0.309473,0.282024,0.250047,,,,,,
117438,0.150972,-0.004931,0.331718,0.010637,-0.00016,0.001052,0.086939,-0.0,-0.0,2.0,0.282024,0.312017,0.282024,0.246525,,,,,,
117458,0.156169,-0.004981,0.330457,0.009568,-0.000331,0.002103,0.086487,-0.0,-0.0,2.0,0.282024,0.312589,0.282024,0.245717,,,,,,
117478,0.160973,-0.005102,0.329384,0.008503,-0.000341,0.002101,0.085922,-0.0,-0.0,2.0,0.282024,0.313123,0.282024,0.244956,,,,,,
117498,0.165207,-0.005001,0.328389,0.007445,-0.001225,0.000875,0.085196,-0.0,-0.0,2.0,0.282024,0.313659,0.282024,0.244189,,,,,,
117518,0.168934,-0.004914,0.327142,0.007445,-0.001228,0.00087,0.084189,-0.0,-0.0,2.0,0.282024,0.31412,0.282024,0.243523,,,,,,
117538,0.17216,-0.004873,0.326043,0.005316,-0.000182,0.001049,0.083439,-0.0,-0.0,2.0,0.282024,0.314534,0.282024,0.242922,,,,,,
117558,0.175025,-0.00477,0.324965,0.004247,-0.000371,0.002096,0.082743,-0.0,-0.0,2.0,0.282024,0.314781,0.282024,0.242561,,,,,,
117578,0.177279,-0.004574,0.32398,0.004252,-0.000188,0.001048,0.081015,-0.0,-0.0,2.0,0.282024,0.315189,0.282024,0.241964,,,,,,
117598,0.17891,-0.004408,0.323159,0.002124,-0.000189,0.001047,0.079896,-0.0,-0.0,2.0,0.282024,0.315371,0.282024,0.241696,,,,,,
117618,0.180332,-0.004083,0.322399,0.001061,-0.001238,0.000856,0.078243,-0.0,-0.0,2.0,0.282024,0.315608,0.282024,0.241346,,,,,,
117638,0.181117,-0.003809,0.321976,1e-06,-0.001047,-0.000192,0.076529,-0.0,-0.0,2.0,0.282024,0.315793,0.282024,0.241072,,,,,,
117658,0.181418,-0.003477,0.321814,1e-06,-0.001047,-0.000192,0.074635,-0.0,-0.0,2.0,0.282024,0.315888,0.282024,0.240932,,,,,,
117678,0.18148,-0.003107,0.321669,-0.00106,-0.000855,-0.001239,0.073667,-0.0,-0.0,2.0,0.282024,0.315617,0.282024,0.241332,,,,,,
117698,0.181009,-0.002906,0.321635,-0.002125,0.000192,-0.001047,0.070857,-0.0,-0.0,2.0,0.282024,0.315835,0.282024,0.24101,,,,,,
117718,0.180385,-0.002949,0.321916,-0.002125,0.000191,-0.001047,0.068505,-0.0,-0.0,2.0,0.282024,0.317793,0.282024,0.238068,,,,,,
117738,0.179382,-0.003052,0.322231,-0.003189,0.00019,-0.001047,0.067146,-0.0,-0.0,2.0,0.282024,0.317448,0.282024,0.238592,,,,,,
117758,0.178248,-0.003134,0.322498,-0.004254,0.000189,-0.001047,0.064813,-0.0,-0.0,2.0,0.282024,0.319283,0.282024,0.235772,,,,,,
117778,0.176737,-0.003266,0.322684,-0.004253,0.000187,-0.001048,0.061496,-0.0,-0.0,2.0,0.282024,0.321346,0.282024,0.232509,,,,,,
117798,0.175214,-0.003529,0.323051,-0.004253,0.000186,-0.001048,0.058816,-0.0,-0.0,2.0,0.282024,0.32128,0.282024,0.232616,,,,,,
117818,0.173332,-0.003599,0.323202,-0.005317,0.000184,-0.001048,0.057441,-0.0,-0.0,2.0,0.282024,0.322628,0.282024,0.230431,,,,,,
117838,0.171078,-0.003741,0.323556,-0.005317,0.000181,-0.001049,0.054633,-0.0,-0.0,2.0,0.282024,0.322427,0.282024,0.230759,,,,,,
117858,0.168437,-0.003932,0.32377,-0.006381,0.000178,-0.001049,0.05152,-0.0,-0.0,2.0,0.282024,0.322182,0.282024,0.231158,,,,,,
117878,0.165543,-0.004214,0.324176,-0.007445,0.000175,-0.00105,0.049683,-0.0,-0.0,2.0,0.282024,0.3215,0.282024,0.232261,,,,,,
117898,0.162079,-0.004155,0.324539,-0.008509,0.000172,-0.00105,0.045899,-0.0,-0.0,2.0,0.282024,0.3212,0.282024,0.232744,,,,,,
117918,0.158086,-0.004254,0.324887,-0.009574,0.000168,-0.001051,0.043545,-0.0,-0.0,2.0,0.282024,0.320338,0.282024,0.234117,,,,,,
117938,0.15364,-0.004163,0.325419,-0.011701,-0.000889,-0.001215,0.03924,-0.0,-0.0,2.0,0.282024,0.319893,0.282024,0.234818,,,,,,
117958,0.148545,-0.00421,0.325936,-0.012766,-0.000895,-0.00121,0.035643,-0.0,-0.0,2.0,0.282024,0.319046,0.282024,0.23614,,,,,,
117978,0.142849,-0.004156,0.326474,-0.01383,-0.000902,-0.001205,0.033961,-0.0,-0.0,2.0,0.282024,0.317404,0.282024,0.238658,,,,,,
117998,0.136673,-0.004021,0.327023,-0.014894,-0.000909,-0.001199,0.030524,-0.0,-0.0,2.0,0.282024,0.314135,0.282024,0.2435,,,,,,
118018,0.129736,-0.004003,0.327606,-0.015959,-0.000918,-0.001193,0.027062,-0.0,-0.0,2.0,0.282024,0.314593,0.282024,0.242836,,,,,,
118038,0.122338,-0.003784,0.328183,-0.017023,-0.000926,-0.001186,0.025181,-0.0,-0.0,2.0,0.282024,0.310317,0.282024,0.248891,,,,,,
118058,0.114433,-0.0036,0.328706,-0.018088,-0.000936,-0.001179,0.02167,-0.0,-0.0,2.0,0.282024,0.308355,0.282024,0.251559,,,,,,
118078,0.106052,-0.003342,0.329393,-0.019152,-0.000946,-0.001171,0.016207,-0.0,-0.0,2.0,0.282024,0.308779,0.282024,0.250989,,,,,,
118098,0.097433,-0.003028,0.32983,-0.020217,-0.000956,-0.001163,0.012355,-0.0,-0.0,2.0,0.282024,0.304407,0.282024,0.256733,,,,,,
118118,0.088191,-0.002737,0.330375,-0.021281,-0.000966,-0.001154,0.010035,-0.0,-0.0,2.0,0.282024,0.303551,0.282024,0.257823,,,,,,
118138,0.07871,-0.002398,0.330776,-0.022346,-0.002038,-0.001228,0.005268,-0.0,-0.0,2.0,0.282024,0.303207,0.282024,0.258257,,,,,,
118158,0.068867,-0.002001,0.33126,-0.022346,-0.000988,-0.001135,0.00338,-0.0,-0.0,2.0,0.282024,0.297471,0.282024,0.265251,,,,,,
118178,0.058668,-0.001542,0.33177,-0.022347,-0.002062,-0.001187,-0.000335,-0.0,-0.0,2.0,0.282024,0.296434,0.282024,0.266468,,,,,,
118198,0.048228,-0.001038,0.332239,-0.023412,-0.001012,-0.001114,-0.005098,-0.0,-0.0,2.0,0.282024,0.295533,0.282024,0.267513,,,,,,
118218,0.037771,-0.000651,0.332723,-0.023412,-0.000983,-0.002167,-0.007803,-0.0,-0.0,2.0,0.282024,0.291561,0.282024,0.271999,,,,,,
118238,0.027094,-0.0001,0.33316,-0.024477,-0.001035,-0.001093,-0.011611,-0.0,-0.0,2.0,0.282024,0.289988,0.282024,0.273723,,,,,,
118258,0.016135,0.000253,0.333665,-0.024478,-0.00103,-0.002145,-0.013855,-0.0,-0.0,2.0,0.282024,0.287725,0.282024,0.276153,,,,,,
118278,0.005038,0.000512,0.334235,-0.024478,-0.001059,-0.00107,-0.017169,-0.0,-0.0,2.0,0.282024,0.283265,0.282024,0.280776,,,,,,
118298,-0.006159,0.000917,0.334804,-0.024479,-0.001077,-0.002122,-0.021587,-0.0,-0.0,2.0,0.282024,0.281332,0.282024,0.282713,,,,,,
118318,-0.017377,0.001208,0.335322,-0.02448,-0.001101,-0.00211,-0.025518,-0.0,-0.0,2.0,0.282024,0.279061,0.282024,0.284943,,,,,,
118338,-0.028496,0.001364,0.335782,-0.02448,-0.001124,-0.002097,-0.029013,-0.0,-0.0,2.0,0.282024,0.276487,0.282024,0.28741,,,,,,
118358,-0.039714,0.001668,0.336299,-0.025545,-0.001148,-0.002085,-0.030734,-0.0,-0.0,2.0,0.282024,0.273093,0.282024,0.290566,,,,,,
118378,-0.050954,0.00186,0.336816,-0.024481,-0.001171,-0.002071,-0.0345,-0.0,-0.0,2.0,0.282024,0.270287,0.282024,0.293097,,,,,,
118398,-0.062095,0.001915,0.337159,-0.024481,-0.001194,-0.002058,-0.037964,-0.0,-0.0,2.0,0.282024,0.267144,0.282024,0.295852,,,,,,
118418,-0.07324,0.001976,0.337503,-0.024481,-0.001217,-0.002045,-0.041032,-0.0,-0.0,2.0,0.282024,0.263711,0.282024,0.298768,,,,,,
118438,-0.084364,0.002164,0.337793,-0.024482,-0.000179,-0.002121,-0.043618,-0.0,-0.0,2.0,0.282024,0.259924,0.282024,0.301874,,,,,,
118458,-0.09527,0.002209,0.338316,-0.023417,-0.001262,-0.002018,-0.047625,-0.0,-0.0,2.0,0.282024,0.256463,0.282024,0.304618,,,,,,
118478,-0.10594,0.002203,0.338452,-0.023415,-0.001171,-0.000946,-0.049405,-0.0,-0.0,2.0,0.282024,0.251984,0.282024,0.308039,,,,,,
118498,-0.116493,0.002196,0.338825,-0.02342,-0.000371,-0.003171,-0.052441,-0.0,-0.0,2.0,0.282024,0.250714,0.282024,0.308982,,,,,,
118518,-0.126548,0.002227,0.339063,-0.022351,-0.000134,-0.001056,-0.055352,-0.0,-0.0,2.0,0.282024,0.249232,0.282024,0.310069,,,,,,
118538,-0.1366,0.002271,0.339365,-0.021289,-0.00029,-0.002109,-0.05814,-0.0,-0.0,2.0,0.282024,0.244889,0.282024,0.31317,,,,,,
118558,-0.146301,0.002262,0.3397,-0.020225,-0.001363,-0.001951,-0.059821,-0.0,-0.0,2.0,0.282024,0.242863,0.282024,0.314574,,,,,,
118578,-0.155353,0.002385,0.339871,-0.020225,-0.001381,-0.001938,-0.061865,-0.0,-0.0,2.0,0.282024,0.240976,0.282024,0.315858,,,,,,
118598,-0.164173,0.002484,0.340193,-0.019161,-0.001398,-0.001926,-0.064915,-0.0,-0.0,2.0,0.282024,0.239592,0.282024,0.316786,,,,,,
118618,-0.172592,0.002766,0.340522,-0.018098,-0.000366,-0.002097,-0.068009,-0.0,-0.0,2.0,0.282024,0.238195,0.282024,0.317709,,,,,,
118638,-0.180518,0.002979,0.340906,-0.017033,-0.001429,-0.001903,-0.069591,-0.0,-0.0,2.0,0.282024,0.23618,0.282024,0.31902,,,,,,
118658,-0.188218,0.003148,0.341226,-0.015973,-0.001643,-0.002937,-0.071917,-0.0,-0.0,2.0,0.282024,0.231543,0.282024,0.321945,,,,,,
118678,-0.195179,0.003316,0.341586,-0.014906,-0.000413,-0.002088,-0.073984,-0.0,-0.0,2.0,0.282024,0.229814,0.282024,0.323003,,,,,,
118698,-0.201649,0.003403,0.341903,-0.013838,-0.000213,-0.001043,-0.07587,-0.0,-0.0,2.0,0.282024,0.228167,0.282024,0.323995,,,,,,
118718,-0.207854,0.003597,0.342457,-0.013842,-0.000439,-0.002083,-0.07676,-0.0,-0.0,2.0,0.282024,0.229388,0.282024,0.323261,,,,,,
118738,-0.213325,0.003764,0.342842,-0.011719,0.000364,-0.003346,-0.077812,-0.0,-0.0,2.0,0.282024,0.227576,0.282024,0.324347,,,,,,
118758,-0.218207,0.003708,0.343194,-0.01065,-0.000461,-0.002078,-0.080603,-0.0,-0.0,2.0,0.282024,0.223484,0.282024,0.326731,,,,,,
118778,-0.22247,0.003669,0.343601,-0.009586,-0.00047,-0.002076,-0.081501,-0.0,-0.0,2.0,0.282024,0.225436,0.282024,0.325606,,,,,,
118798,-0.226351,0.003702,0.344158,-0.007456,-0.001515,-0.001835,-0.082946,-0.0,-0.0,2.0,0.282024,0.224451,0.282024,0.326176,,,,,,
118818,-0.22968,0.003995,0.344619,-0.006393,-0.001521,-0.00183,-0.083613,-0.0,-0.0,2.0,0.282024,0.219827,0.282024,0.328784,,,,,,
118838,-0.232791,0.004129,0.345085,-0.005329,-0.001527,-0.001826,-0.084601,-0.0,-0.0,2.0,0.282024,0.22214,0.282024,0.327494,,,,,,
118858,-0.234933,0.004091,0.34558,-0.00426,-0.001283,-0.000787,-0.085456,-0.0,-0.0,2.0,0.282024,0.22137,0.282024,0.327927,,,,,,
118878,-0.23652,0.004325,0.346098,-0.003202,-0.000499,-0.002069,-0.086146,-0.0,-0.0,2.0,0.282024,0.220975,0.282024,0.328147,,,,,,
118898,-0.237586,0.004713,0.34669,-0.002138,-0.000501,-0.002069,-0.086705,-0.0,-0.0,2.0,0.282024,0.224002,0.282024,0.326434,,,,,,
118918,-0.238207,0.00476,0.347128,-0.001075,0.000532,-0.002319,-0.086956,-0.0,-0.0,2.0,0.282024,0.223762,0.282024,0.326573,,,,,,
118938,-0.238256,0.004567,0.3475,-6e-06,0.000783,-0.001285,-0.087117,-0.0,-0.0,2.0,0.282024,0.223668,0.282024,0.326627,,,,,,
118958,-0.237627,0.004636,0.348023,0.001059,-0.000251,-0.001034,-0.087255,-0.0,-0.0,2.0,0.282024,0.223992,0.282024,0.32644,,,,,,
118978,-0.236783,0.004528,0.348444,0.001056,-0.001534,-0.001819,-0.087175,-0.0,-0.0,2.0,0.282024,0.220989,0.282024,0.32814,,,,,,
118998,-0.23594,0.00442,0.348864,0.002125,-0.001284,-0.000786,-0.086974,-0.0,-0.0,2.0,0.282024,0.217804,0.282024,0.329889,,,,,,
119018,-0.234966,0.004273,0.349123,0.002125,-0.001283,-0.000787,-0.086532,-0.0,-0.0,2.0,0.282024,0.214556,0.282024,0.331617,,,,,,
119038,-0.233726,0.004231,0.349642,0.002125,-0.001282,-0.000789,-0.086275,-0.0,-0.0,2.0,0.282024,0.215107,0.282024,0.331327,,,,,,
119058,-0.232319,0.004513,0.350162,0.003189,-0.001281,-0.000791,-0.085644,-0.0,-0.0,2.0,0.282024,0.215505,0.282024,0.331118,,,,,,
119078,-0.2308,0.00465,0.350617,0.003188,-0.000243,-0.001036,-0.084862,-0.0,-0.0,2.0,0.282024,0.212365,0.282024,0.332752,,,,,,
119098,-0.228955,0.004468,0.350905,0.003188,-0.000242,-0.001036,-0.083979,-0.0,-0.0,2.0,0.282024,0.21288,0.282024,0.332487,,,,,,
119118,-0.226677,0.004714,0.351453,0.004252,-0.000239,-0.001037,-0.083021,-0.0,-0.0,2.0,0.282024,0.209895,0.282024,0.334001,,,,,,
119138,-0.224288,0.004815,0.351934,0.005316,-0.000237,-0.001038,-0.082207,-0.0,-0.0,2.0,0.282024,0.210952,0.282024,0.33347,,,,,,
119158,-0.221423,0.004816,0.352344,0.00638,-0.000234,-0.001038,-0.080284,-0.0,-0.0,2.0,0.282024,0.211619,0.282024,0.333132,,,,,,
119178,-0.218071,0.004714,0.35262,0.007446,-0.001269,-0.000809,-0.079257,-0.0,-0.0,2.0,0.282024,0.20926,0.282024,0.334318,,,,,,
119198,-0.214573,0.004735,0.353139,0.00851,-0.001266,-0.000813,-0.077208,-0.0,-0.0,2.0,0.282024,0.210312,0.282024,0.333793,,,,,,
119218,-0.210458,0.004753,0.353604,0.009579,-0.001041,0.000222,-0.075412,-0.0,-0.0,2.0,0.282024,0.211724,0.282024,0.333079,,,,,,
119238,-0.205985,0.004705,0.354093,0.010638,-0.001259,-0.000824,-0.074382,-0.0,-0.0,2.0,0.282024,0.210269,0.282024,0.333814,,,,,,
119258,-0.201141,0.004589,0.35454,0.010643,-0.001043,0.000213,-0.07239,-0.0,-0.0,2.0,0.282024,0.212168,0.282024,0.332852,,,,,,
119278,-0.195757,0.004731,0.354937,0.011707,-0.001044,0.000207,-0.071194,-0.0,-0.0,2.0,0.282024,0.218274,0.282024,0.329634,,,,,,
119298,-0.189763,0.004763,0.355303,0.012766,-0.000201,-0.001045,-0.067358,-0.0,-0.0,2.0,0.282024,0.219916,0.282024,0.328735,,,,,,
119318,-0.183171,0.004685,0.355699,0.013834,0.001046,-0.000194,-0.06531,-0.0,-0.0,2.0,0.282024,0.22262,0.282024,0.327223,,,,,,
119338,-0.176224,0.004532,0.355987,0.014898,0.001048,-0.000187,-0.06288,-0.0,-0.0,2.0,0.282024,0.225508,0.282024,0.325564,,,,,,
119358,-0.169006,0.004443,0.356103,0.015958,0.00087,-0.001228,-0.061267,-0.0,-0.0,2.0,0.282024,0.228964,0.282024,0.323517,,,,,,
119378,-0.160961,0.004205,0.356314,0.017028,0.0,0.0,-0.058252,-0.0,-0.0,2.0,0.282024,0.232069,0.282024,0.32162,,,,,,
119398,-0.152548,0.003901,0.356454,0.018092,0.0,0.0,-0.055494,-0.0,-0.0,2.0,0.282024,0.235665,0.282024,0.319352,,,,,,
119418,-0.143515,0.003602,0.356492,0.019157,-0.001053,0.000152,-0.052584,-0.0,-0.0,2.0,0.282024,0.239338,0.282024,0.316954,,,,,,
119438,-0.134223,0.003375,0.3564,0.021289,-0.000912,0.001197,-0.049569,-0.0,-0.0,2.0,0.282024,0.243107,0.282024,0.314407,,,,,,
119458,-0.124454,0.003057,0.356178,0.021289,-0.00198,0.00132,-0.047964,-0.0,-0.0,2.0,0.282024,0.244962,0.282024,0.313119,,,,,,
119478,-0.11421,0.002666,0.356109,0.022352,-0.000936,0.001179,-0.045222,-0.0,-0.0,2.0,0.282024,0.249458,0.282024,0.309905,,,,,,
119498,-0.103635,0.002703,0.355736,0.022352,0.00011,0.001059,-0.041855,-0.0,-0.0,2.0,0.282024,0.253811,0.282024,0.306661,,,,,,
119518,-0.092843,0.002579,0.355198,0.022351,0.001158,0.000961,-0.038197,-0.0,-0.0,2.0,0.282024,0.258219,0.282024,0.303237,,,,,,
119538,-0.081676,0.00252,0.354682,0.02448,0.001148,0.000974,-0.03405,-0.0,-0.0,2.0,0.282024,0.26252,0.282024,0.299757,,,,,,
119558,-0.07017,0.002281,0.353997,0.025544,7.5e-05,0.001062,-0.032202,-0.0,-0.0,2.0,0.282024,0.265356,0.282024,0.297383,,,,,,
119578,-0.058407,0.002131,0.35332,0.025546,-0.000938,0.002187,-0.028346,-0.0,-0.0,2.0,0.282024,0.270113,0.282024,0.293252,,,,,,
119598,-0.046425,0.001828,0.352577,0.025545,-0.000964,0.002176,-0.024828,-0.0,-0.0,2.0,0.282024,0.27269,0.282024,0.290934,,,,,,
119618,-0.034064,0.001591,0.351721,0.025543,3.6e-05,0.001064,-0.021278,-0.0,-0.0,2.0,0.282024,0.277868,0.282024,0.286094,,,,,,
119638,-0.021702,0.001367,0.350792,0.026609,0.00111,0.002105,-0.01752,-0.0,-0.0,2.0,0.282024,0.282968,0.282024,0.281076,,,,,,
119658,-0.0092,0.001253,0.349676,0.027673,2e-05,0.002128,-0.015677,-0.0,-0.0,2.0,0.282024,0.284241,0.282024,0.279782,,,,,,
119678,0.003359,0.000772,0.34861,0.027671,-4e-06,0.001064,-0.011955,-0.0,-0.0,2.0,0.282024,0.287322,0.282024,0.276579,,,,,,
119698,0.015939,0.000427,0.347181,0.026607,0.00103,0.002145,-0.007061,-0.0,-0.0,2.0,0.282024,0.290084,0.282024,0.273618,,,,,,
119718,0.02862,-4.4e-05,0.345915,0.026606,0.001003,0.002158,-0.007061,-0.0,-0.0,2.0,0.282024,0.294591,0.282024,0.268595,,,,,,
119738,0.041161,-0.0006,0.344579,0.026604,0.000976,0.00217,-0.00227,-0.0,-0.0,2.0,0.282024,0.297581,0.282024,0.265121,,,,,,
119758,0.053703,-0.001136,0.34306,0.026603,0.000948,0.002183,0.0023,-0.0,-0.0,2.0,0.282024,0.300675,0.282024,0.261403,,,,,,
119778,0.066087,-0.001877,0.341541,0.025537,0.000921,0.002194,0.005723,-0.0,-0.0,2.0,0.282024,0.304222,0.282024,0.25697,,,,,,
119798,0.078214,-0.00268,0.340029,0.025535,0.000895,0.002205,0.008841,-0.0,-0.0,2.0,0.282024,0.305775,0.282024,0.254968,,,,,,
119818,0.090222,-0.003447,0.338459,0.024466,0.000772,0.003276,0.013006,-0.0,-0.0,2.0,0.282024,0.309109,0.282024,0.250542,,,,,,
119838,0.101813,-0.004498,0.33692,0.024467,0.001901,0.002334,0.016749,-0.0,-0.0,2.0,0.282024,0.310469,0.282024,0.248683,,,,,,
119858,0.113168,-0.005486,0.335225,0.0234,0.001874,0.002355,0.020503,-0.0,-0.0,2.0,0.282024,0.311875,0.282024,0.246724,,,,,,
119878,0.124129,-0.006638,0.33357,0.022333,0.001849,0.002376,0.022288,-0.0,-0.0,2.0,0.282024,0.315878,0.282024,0.240947,,,,,,
119898,0.13471,-0.007842,0.332008,0.022329,0.002878,0.002538,0.025664,-0.0,-0.0,2.0,0.282024,0.317368,0.282024,0.238713,,,,,,
119918,0.145031,-0.009111,0.330427,0.021263,0.001798,0.002414,0.030309,-0.0,-0.0,2.0,0.282024,0.318489,0.282024,0.237001,,,,,,
119938,0.154854,-0.010406,0.328845,0.020204,0.00299,0.001544,0.032168,-0.0,-0.0,2.0,0.282024,0.320304,0.282024,0.23417,,,,,,
119958,0.164156,-0.011847,0.327278,0.019125,0.002802,0.002622,0.035544,-0.0,-0.0,2.0,0.282024,0.321693,0.282024,0.231952,,,,,,
119978,0.173131,-0.013098,0.325754,0.018057,0.002778,0.002647,0.040186,-0.0,-0.0,2.0,0.282024,0.322688,0.282024,0.230332,,,,,,
119998,0.181445,-0.014609,0.324388,0.016989,0.002756,0.00267,0.042109,-0.0,-0.0,2.0,0.282024,0.324283,0.282024,0.227684,,,,,,
120018,0.189309,-0.015787,0.322955,0.015941,0.00189,0.001446,0.045279,-0.0,-0.0,2.0,0.282024,0.3255,0.282024,0.225618,,,,,,
120038,0.196481,-0.016745,0.321828,0.013814,0.000836,0.001252,0.048391,-0.0,-0.0,2.0,0.282024,0.326652,0.282024,0.223623,,,,,,
120058,0.203236,-0.017159,0.320841,0.012753,-0.000215,0.001042,0.051553,-0.0,-0.0,2.0,0.282024,0.327623,0.282024,0.221912,,,,,,
120078,0.209341,-0.017108,0.320026,0.011692,-0.001262,0.00082,0.051553,-0.0,-0.0,2.0,0.282024,0.32752,0.282024,0.222095,,,,,,
120098,0.214629,-0.0167,0.319404,0.009582,-0.00104,-0.000227,0.057058,-0.0,-0.0,2.0,0.282024,0.327669,0.282024,0.221829,,,,,,
120118,0.219315,-0.016206,0.31893,0.008521,-0.002077,-0.000463,0.058602,-0.0,-0.0,2.0,0.282024,0.328674,0.282024,0.220026,,,,,,
120138,0.223266,-0.015606,0.31856,0.006393,-0.002076,-0.000471,0.061004,-0.0,-0.0,2.0,0.282024,0.327335,0.282024,0.222423,,,,,,
120158,0.226437,-0.015262,0.318394,0.005325,-0.001037,-0.000239,0.064571,-0.0,-0.0,2.0,0.282024,0.327445,0.282024,0.222227,,,,,,
120178,0.228859,-0.014905,0.318125,0.00426,-0.001036,-0.000241,0.066027,-0.0,-0.0,2.0,0.282024,0.326021,0.282024,0.22472,,,,,,
120198,0.230594,-0.014913,0.317786,0.002128,0.0,0.0,0.068375,-0.0,-0.0,2.0,0.282024,0.326075,0.282024,0.224627,,,,,,
120218,0.231787,-0.015216,0.317641,0.001064,0.0,0.0,0.070595,-0.0,-0.0,2.0,0.282024,0.324016,0.282024,0.228131,,,,,,
120238,0.23211,-0.015499,0.317524,-0.001064,0.0,0.0,0.072928,-0.0,-0.0,2.0,0.282024,0.323645,0.282024,0.228751,,,,,,
120258,0.231834,-0.015686,0.317457,-0.002128,0.0,0.0,0.072928,-0.0,-0.0,2.0,0.282024,0.323724,0.282024,0.22862,,,,,,
120278,0.23117,-0.015918,0.317263,-0.002128,0.0,0.0,0.076382,-0.0,-0.0,2.0,0.282024,0.322691,0.282024,0.230327,,,,,,
120298,0.230182,-0.015866,0.317187,-0.003189,-0.001036,-0.000243,0.077865,-0.0,-0.0,2.0,0.282024,0.323992,0.282024,0.228172,,,,,,
120318,0.229231,-0.015589,0.317197,-0.003189,-0.001036,-0.000242,0.078824,-0.0,-0.0,2.0,0.282024,0.323468,0.282024,0.229045,,,,,,
120338,0.228024,-0.015379,0.317126,-0.003189,-0.001037,-0.000241,0.080904,-0.0,-0.0,2.0,0.282024,0.324473,0.282024,0.227365,,,,,,
120358,0.226817,-0.015169,0.317055,-0.003173,-0.000798,-0.001276,0.082229,-0.0,-0.0,2.0,0.282024,0.325681,0.282024,0.225306,,,,,,
120378,0.225574,-0.015089,0.317054,-0.003189,-0.001037,-0.000238,0.083424,-0.0,-0.0,2.0,0.282024,0.326838,0.282024,0.223297,,,,,,
120398,0.224344,-0.015013,0.317108,-0.003189,-0.001038,-0.000237,0.084421,-0.0,-0.0,2.0,0.282024,0.328017,0.282024,0.221209,,,,,,
120418,0.222875,-0.014898,0.317181,-0.004241,0.000235,-0.001038,0.084993,-0.0,-0.0,2.0,0.282024,0.327358,0.282024,0.222381,,,,,,
120438,0.221369,-0.014912,0.317324,-0.004238,-0.000805,-0.001272,0.085454,-0.0,-0.0,2.0,0.282024,0.330476,0.282024,0.216712,,,,,,
120458,0.219741,-0.015017,0.317431,-0.004241,0.000232,-0.001039,0.086253,-0.0,-0.0,2.0,0.282024,0.329626,0.282024,0.218289,,,,,,
120478,0.217866,-0.01511,0.317783,-0.005305,0.00023,-0.001039,0.086554,-0.0,-0.0,2.0,0.282024,0.3307,0.282024,0.216292,,,,,,
120498,0.215879,-0.015059,0.318074,-0.005302,-0.000812,-0.001268,0.087128,-0.0,-0.0,2.0,0.282024,0.331637,0.282024,0.214517,,,,,,
120518,0.213493,-0.01519,0.318415,-0.006366,-0.000815,-0.001266,0.08723,-0.0,-0.0,2.0,0.282024,0.330726,0.282024,0.216243,,,,,,
120538,0.210868,-0.015282,0.318772,-0.006366,-0.000818,-0.001264,0.087259,-0.0,-0.0,2.0,0.282024,0.329729,0.282024,0.218098,,,,,,
120558,0.208132,-0.015368,0.319306,-0.00743,-0.000821,-0.001261,0.08713,-0.0,-0.0,2.0,0.282024,0.330528,0.282024,0.216614,,,,,,
120578,0.204913,-0.015251,0.319746,-0.00743,-0.000825,-0.001259,0.08684,-0.0,-0.0,2.0,0.282024,0.329391,0.282024,0.21872,,,,,,
120598,0.201426,-0.015336,0.32028,-0.008498,0.000213,-0.001043,0.086587,-0.0,-0.0,2.0,0.282024,0.328132,0.282024,0.221002,,,,,,
120618,0.197687,-0.015377,0.320768,-0.009562,0.000209,-0.001044,0.086123,-0.0,-0.0,2.0,0.282024,0.328709,0.282024,0.219963,,,,,,
120638,0.193838,-0.015413,0.321429,-0.009559,-0.000839,-0.001249,0.085361,-0.0,-0.0,2.0,0.282024,0.327357,0.282024,0.222382,,,,,,
120658,0.189461,-0.015594,0.321968,-0.010626,0.0002,-0.001045,0.084596,-0.0,-0.0,2.0,0.282024,0.325855,0.282024,0.225007,,,,,,
120678,0.184721,-0.015726,0.322635,-0.011674,0.000391,-0.002092,0.083218,-0.0,-0.0,2.0,0.282024,0.326327,0.282024,0.22419,,,,,,
120698,0.179821,-0.016077,0.32332,-0.011673,0.000381,-0.002094,0.08251,-0.0,-0.0,2.0,0.282024,0.324501,0.282024,0.227318,,,,,,
120718,0.174453,-0.016213,0.323841,-0.012754,0.000185,-0.001048,0.081246,-0.0,-0.0,2.0,0.282024,0.322723,0.282024,0.230274,,,,,,
120738,0.168816,-0.016551,0.32444,-0.013818,0.000179,-0.001049,0.079798,-0.0,-0.0,2.0,0.282024,0.322748,0.282024,0.230234,,,,,,
120758,0.163029,-0.016986,0.324982,-0.013817,0.000173,-0.00105,0.078243,-0.0,-0.0,2.0,0.282024,0.320716,0.282024,0.233517,,,,,,
120778,0.156512,-0.017422,0.325614,-0.014881,0.000166,-0.001051,0.077143,-0.0,-0.0,2.0,0.282024,0.320339,0.282024,0.234114,,,,,,
120798,0.149842,-0.017964,0.326295,-0.014861,0.000318,-0.002105,0.075951,-0.0,-0.0,2.0,0.282024,0.317874,0.282024,0.237943,,,,,,
120818,0.142955,-0.018334,0.326842,-0.015944,0.000152,-0.001054,0.073533,-0.0,-0.0,2.0,0.282024,0.315562,0.282024,0.241414,,,,,,
120838,0.135736,-0.018525,0.327432,-0.017008,0.000144,-0.001055,0.073533,-0.0,-0.0,2.0,0.282024,0.312373,0.282024,0.246022,,,,,,
120858,0.128148,-0.018652,0.327955,-0.017008,0.000136,-0.001056,0.070422,-0.0,-0.0,2.0,0.282024,0.311931,0.282024,0.246645,,,,,,
120878,0.120345,-0.018625,0.328626,-0.01805,-0.000801,-0.002241,0.066467,-0.0,-0.0,2.0,0.282024,0.309572,0.282024,0.249912,,,,,,
120898,0.112436,-0.018453,0.329207,-0.018051,-0.000819,-0.002235,0.065109,-0.0,-0.0,2.0,0.282024,0.308373,0.282024,0.251535,,,,,,
120918,0.104295,-0.018232,0.329715,-0.019115,-0.000837,-0.002228,0.062166,-0.0,-0.0,2.0,0.282024,0.30742,0.282024,0.252807,,,,,,
120938,0.095817,-0.017836,0.330371,-0.019134,-0.002017,-0.001263,0.059501,-0.0,-0.0,2.0,0.282024,0.304166,0.282024,0.257041,,,,,,
120958,0.087314,-0.017554,0.330943,-0.019117,-0.000875,-0.002213,0.056756,-0.0,-0.0,2.0,0.282024,0.302916,0.282024,0.258623,,,,,,
120978,0.078693,-0.017242,0.331372,-0.019118,-0.000894,-0.002206,0.056756,-0.0,-0.0,2.0,0.282024,0.300648,0.282024,0.261435,,,,,,
120998,0.069934,-0.017034,0.331948,-0.019137,-0.000987,-0.001136,0.052519,-0.0,-0.0,2.0,0.282024,0.29955,0.282024,0.26277,,,,,,
121018,0.061056,-0.016797,0.332378,-0.020201,-0.000997,-0.001127,0.048323,-0.0,-0.0,2.0,0.282024,0.296196,0.282024,0.266745,,,,,,
121038,0.052162,-0.016678,0.332835,-0.019121,0.000111,-0.002126,0.045364,-0.0,-0.0,2.0,0.282024,0.296682,0.282024,0.266178,,,,,,
121058,0.043388,-0.016576,0.333255,-0.020202,-0.001017,-0.00111,0.042905,-0.0,-0.0,2.0,0.282024,0.292456,0.282024,0.271005,,,,,,
121078,0.034593,-0.016591,0.333642,-0.020202,-0.001027,-0.001101,0.040914,-0.0,-0.0,2.0,0.282024,0.290283,0.282024,0.273402,,,,,,
121098,0.025699,-0.016461,0.33399,-0.019121,-0.001009,-0.002155,0.037255,-0.0,-0.0,2.0,0.282024,0.29068,0.282024,0.272968,,,,,,
121118,0.016805,-0.016329,0.334362,-0.019138,-0.001046,-0.001082,0.033825,-0.0,-0.0,2.0,0.282024,0.288744,0.282024,0.275066,,,,,,
121138,0.008034,-0.016213,0.334585,-0.019121,-0.001047,-0.002137,0.030312,-0.0,-0.0,2.0,0.282024,0.286784,0.282024,0.277146,,,,,,
121158,-0.000498,-0.016134,0.334887,-0.019122,-1e-06,-0.002129,0.028296,-0.0,-0.0,2.0,0.282024,0.286474,0.282024,0.277471,,,,,,
121178,-0.00881,-0.016214,0.335217,-0.018075,-0.001074,-0.001055,0.024044,-0.0,-0.0,2.0,0.282024,0.282386,0.282024,0.281662,,,,,,
121198,-0.017201,-0.016029,0.335513,-0.018058,-0.001101,-0.00211,0.022183,-0.0,-0.0,2.0,0.282024,0.282016,0.282024,0.282032,,,,,,
121218,-0.025111,-0.015923,0.335786,-0.018058,-0.001117,-0.002101,0.017338,-0.0,-0.0,2.0,0.282024,0.282589,0.282024,0.281458,,,,,,
121238,-0.032901,-0.015833,0.336032,-0.016994,-0.001134,-0.002093,0.014553,-0.0,-0.0,2.0,0.282024,0.277814,0.282024,0.286146,,,,,,
121258,-0.040692,-0.015737,0.336423,-0.016994,-8.7e-05,-0.002127,0.010502,-0.0,-0.0,2.0,0.282024,0.278209,0.282024,0.285766,,,,,,
121278,-0.048003,-0.015719,0.336798,-0.015947,-5.1e-05,-0.001063,0.006731,-0.0,-0.0,2.0,0.282024,0.278473,0.282024,0.285512,,,,,,
121298,-0.055314,-0.015697,0.337148,-0.01593,-0.000118,-0.002125,0.003007,-0.0,-0.0,2.0,0.282024,0.276341,0.282024,0.287547,,,,,,
121318,-0.062387,-0.015713,0.33754,-0.01593,-0.000133,-0.002125,-0.001405,-0.0,-0.0,2.0,0.282024,0.274471,0.282024,0.289297,,,,,,
121338,-0.069216,-0.015765,0.337856,-0.014866,-0.000147,-0.002124,-0.004895,-0.0,-0.0,2.0,0.282024,0.274696,0.282024,0.289088,,,,,,
121358,-0.07607,-0.015928,0.338319,-0.014882,-8.1e-05,-0.001061,-0.008281,-0.0,-0.0,2.0,0.282024,0.272417,0.282024,0.291182,,,,,,
121378,-0.082663,-0.016003,0.338886,-0.014865,-0.000176,-0.002121,-0.011195,-0.0,-0.0,2.0,0.282024,0.269966,0.282024,0.293383,,,,,,
121398,-0.089162,-0.016219,0.33938,-0.013783,-0.000284,-0.00318,-0.012983,-0.0,-0.0,2.0,0.282024,0.269513,0.282024,0.293784,,,,,,
121418,-0.095275,-0.016373,0.339813,-0.013818,-0.000101,-0.00106,-0.018059,-0.0,-0.0,2.0,0.282024,0.267824,0.282024,0.295263,,,,,,
121438,-0.101514,-0.016494,0.340395,-0.0138,-0.000216,-0.002118,-0.022073,-0.0,-0.0,2.0,0.282024,0.265834,0.282024,0.296976,,,,,,
121458,-0.107286,-0.016815,0.340915,-0.012735,-0.000228,-0.002117,-0.023882,-0.0,-0.0,2.0,0.282024,0.265425,0.282024,0.297324,,,,,,
121478,-0.112946,-0.017151,0.341485,-0.012716,-0.00036,-0.003173,-0.027404,-0.0,-0.0,2.0,0.282024,0.263206,0.282024,0.299188,,,,,,
121498,-0.118337,-0.017405,0.341997,-0.011668,0.000805,-0.00224,-0.030915,-0.0,-0.0,2.0,0.282024,0.263575,0.282024,0.298881,,,,,,
121518,-0.123517,-0.017808,0.342674,-0.011669,-0.000262,-0.002113,-0.033857,-0.0,-0.0,2.0,0.282024,0.261207,0.282024,0.300834,,,,,,
121538,-0.128556,-0.018099,0.343465,-0.010585,-0.000409,-0.003167,-0.038116,-0.0,-0.0,2.0,0.282024,0.25931,0.282024,0.302368,,,,,,
121558,-0.133334,-0.018316,0.344151,-0.010584,-0.000424,-0.003165,-0.040651,-0.0,-0.0,2.0,0.282024,0.259545,0.282024,0.302179,,,,,,
121578,-0.137732,-0.018471,0.344856,-0.009539,-0.000292,-0.002109,-0.042444,-0.0,-0.0,2.0,0.282024,0.25945,0.282024,0.302256,,,,,,
121598,-0.141847,-0.018408,0.345809,-0.008458,-0.001505,-0.003011,-0.046649,-0.0,-0.0,2.0,0.282024,0.25791,0.282024,0.303482,,,,,,
121618,-0.145822,-0.018242,0.346769,-0.008459,-0.001517,-0.003005,-0.049698,-0.0,-0.0,2.0,0.282024,0.258443,0.282024,0.303059,,,,,,
121638,-0.149436,-0.018135,0.347747,-0.008457,-0.000475,-0.003158,-0.052677,-0.0,-0.0,2.0,0.282024,0.256438,0.282024,0.304638,,,,,,
121658,-0.152823,-0.018188,0.348666,-0.007411,-0.000324,-0.002104,-0.055559,-0.0,-0.0,2.0,0.282024,0.257217,0.282024,0.304028,,,,,,
121678,-0.155957,-0.01814,0.349892,-0.006328,-0.000496,-0.003154,-0.057231,-0.0,-0.0,2.0,0.282024,0.254936,0.282024,0.3058,,,,,,
121698,-0.158873,-0.018261,0.351009,-0.006309,-0.000673,-0.004204,-0.05958,-0.0,-0.0,2.0,0.282024,0.252861,0.282024,0.30738,,,,,,
121718,-0.161332,-0.018584,0.35215,-0.005243,-0.000684,-0.004202,-0.062529,-0.0,-0.0,2.0,0.282024,0.253967,0.282024,0.306542,,,,,,
121738,-0.163661,-0.018917,0.353346,-0.005258,0.00053,-0.003324,-0.063872,-0.0,-0.0,2.0,0.282024,0.25452,0.282024,0.306119,,,,,,
121758,-0.165716,-0.019031,0.354863,-0.004194,0.000523,-0.003325,-0.068025,-0.0,-0.0,2.0,0.282024,0.256238,0.282024,0.304794,,,,,,
121778,-0.167501,-0.019076,0.356231,-0.003113,-0.00071,-0.004198,-0.069635,-0.0,-0.0,2.0,0.282024,0.254385,0.282024,0.306222,,,,,,
121798,-0.169035,-0.019033,0.357801,-0.003093,-0.000895,-0.005246,-0.071809,-0.0,-0.0,2.0,0.282024,0.252855,0.282024,0.307384,,,,,,
121818,-0.1702,-0.019064,0.359223,-0.003133,-0.000541,-0.003147,-0.073845,-0.0,-0.0,2.0,0.282024,0.254145,0.282024,0.306406,,,,,,
121838,-0.170983,-0.019021,0.360908,-0.003133,-0.000543,-0.003147,-0.07574,-0.0,-0.0,2.0,0.282024,0.255589,0.282024,0.305297,,,,,,
121858,-0.171885,-0.018954,0.362581,-0.002049,-0.000728,-0.004195,-0.076712,-0.0,-0.0,2.0,0.282024,0.253833,0.282024,0.306644,,,,,,
121878,-0.172668,-0.018908,0.364264,-0.000985,-0.000731,-0.004194,-0.079083,-0.0,-0.0,2.0,0.282024,0.252682,0.282024,0.307514,,,,,,
121898,-0.173092,-0.018939,0.365864,-0.000988,-0.001781,-0.004011,-0.080002,-0.0,-0.0,2.0,0.282024,0.251266,0.282024,0.308573,,,,,,
121918,-0.173397,-0.018982,0.367586,-0.000985,-0.000734,-0.004194,-0.080705,-0.0,-0.0,2.0,0.282024,0.252434,0.282024,0.307701,,,,,,
121938,-0.173536,-0.018797,0.369449,-0.000985,-0.000735,-0.004194,-0.082617,-0.0,-0.0,2.0,0.282024,0.254158,0.282024,0.306396,,,,,,
121958,-0.173697,-0.018732,0.371302,-0.000966,-0.00092,-0.005242,-0.083615,-0.0,-0.0,2.0,0.282024,0.252827,0.282024,0.307405,,,,,,
121978,-0.17361,-0.018724,0.372997,9.8e-05,-0.000919,-0.005242,-0.084599,-0.0,-0.0,2.0,0.282024,0.251499,0.282024,0.3084,,,,,,
121998,-0.173391,-0.018619,0.374777,7.5e-05,-0.001783,-0.00401,-0.085442,-0.0,-0.0,2.0,0.282024,0.250334,0.282024,0.309262,,,,,,
122018,-0.17317,-0.018504,0.376669,7.4e-05,-0.001782,-0.004011,-0.086131,-0.0,-0.0,2.0,0.282024,0.249168,0.282024,0.310116,,,,,,
122038,-0.172893,-0.018152,0.378512,7.6e-05,-0.000732,-0.004194,-0.086503,-0.0,-0.0,2.0,0.282024,0.247728,0.282024,0.311158,,,,,,
122058,-0.172554,-0.018072,0.380302,7.6e-05,-0.000731,-0.004194,-0.086878,-0.0,-0.0,2.0,0.282024,0.246335,0.282024,0.312152,,,,,,
122078,-0.172594,-0.01802,0.382273,7.9e-05,0.000317,-0.004377,-0.087178,-0.0,-0.0,2.0,0.282024,0.244836,0.282024,0.313207,,,,,,
122098,-0.172492,-0.017883,0.384152,9.4e-05,-0.000913,-0.005243,-0.087245,-0.0,-0.0,2.0,0.282024,0.240292,0.282024,0.316318,,,,,,
122118,-0.172437,-0.017984,0.386011,7.5e-05,-0.00073,-0.004194,-0.087257,-0.0,-0.0,2.0,0.282024,0.238633,0.282024,0.317421,,,,,,
122138,-0.172359,-0.017967,0.38788,7.5e-05,-0.00073,-0.004195,-0.087022,-0.0,-0.0,2.0,0.282024,0.239801,0.282024,0.316646,,,,,,
122158,-0.172137,-0.017854,0.389768,7.5e-05,-0.000729,-0.004195,-0.086648,-0.0,-0.0,2.0,0.282024,0.238014,0.282024,0.317828,,,,,,
122178,-0.172057,-0.017826,0.391746,7.5e-05,-0.000729,-0.004195,-0.086135,-0.0,-0.0,2.0,0.282024,0.236072,0.282024,0.31909,,,,,,
122198,-0.171692,-0.01762,0.393652,0.001135,-0.001776,-0.004013,-0.085468,-0.0,-0.0,2.0,0.282024,0.234082,0.282024,0.32036,,,,,,
122218,-0.17135,-0.017522,0.39566,0.001153,-0.001956,-0.005063,-0.085011,-0.0,-0.0,2.0,0.282024,0.232276,0.282024,0.321491,,,,,,
122238,-0.170734,-0.017357,0.397627,0.001134,-0.001772,-0.004015,-0.084393,-0.0,-0.0,2.0,0.282024,0.23366,0.282024,0.320626,,,,,,
122258,-0.170009,-0.017216,0.399673,0.001133,-0.001769,-0.004016,-0.08283,-0.0,-0.0,2.0,0.282024,0.23138,0.282024,0.322046,,,,,,
122278,-0.169115,-0.016853,0.401858,0.002217,-0.000896,-0.005246,-0.081901,-0.0,-0.0,2.0,0.282024,0.232729,0.282024,0.321209,,,,,,
122298,-0.167878,-0.016697,0.403883,0.002216,-0.000889,-0.005247,-0.080389,-0.0,-0.0,2.0,0.282024,0.230612,0.282024,0.322517,,,,,,
122318,-0.166508,-0.016449,0.405997,0.003279,-0.000882,-0.005248,-0.078945,-0.0,-0.0,2.0,0.282024,0.231885,0.282024,0.321734,,,,,,
122338,-0.165006,-0.016219,0.408158,0.004342,-0.000874,-0.00525,-0.07796,-0.0,-0.0,2.0,0.282024,0.230201,0.282024,0.322768,,,,,,
122358,-0.163004,-0.015985,0.410257,0.004338,-0.001914,-0.005079,-0.076244,-0.0,-0.0,2.0,0.282024,0.231695,0.282024,0.321851,,,,,,
122378,-0.160643,-0.01582,0.412494,0.005402,-0.001902,-0.005083,-0.074382,-0.0,-0.0,2.0,0.282024,0.230024,0.282024,0.322876,,,,,,
122398,-0.158138,-0.015577,0.414636,0.005384,-0.001721,-0.004037,-0.072362,-0.0,-0.0,2.0,0.282024,0.231533,0.282024,0.321951,,,,,,
122418,-0.15525,-0.015287,0.416921,0.005383,-0.00171,-0.004042,-0.07011,-0.0,-0.0,2.0,0.282024,0.233086,0.282024,0.320986,,,,,,
122438,-0.152232,-0.01503,0.419137,0.006464,-0.000807,-0.00526,-0.068556,-0.0,-0.0,2.0,0.282024,0.231966,0.282024,0.321684,,,,,,
122458,-0.148723,-0.014772,0.421357,0.00753,0.000264,-0.005421,-0.065337,-0.0,-0.0,2.0,0.282024,0.233276,0.282024,0.320867,,,,,,
122478,-0.14494,-0.014454,0.423523,0.008575,-0.000615,-0.004213,-0.063449,-0.0,-0.0,2.0,0.282024,0.232418,0.282024,0.321403,,,,,,
122498,-0.140851,-0.014459,0.425691,0.009654,-0.000747,-0.005269,-0.061701,-0.0,-0.0,2.0,0.282024,0.234906,0.282024,0.319837,,,,,,
122518,-0.13626,-0.014459,0.427893,0.010701,-0.001633,-0.004073,-0.058968,-0.0,-0.0,2.0,0.282024,0.237067,0.282024,0.318446,,,,,,
122538,-0.131279,-0.014428,0.430039,0.010701,-0.001612,-0.004081,-0.056005,-0.0,-0.0,2.0,0.282024,0.236376,0.282024,0.318894,,,,,,
122558,-0.12604,-0.014332,0.432378,0.011765,-0.001591,-0.00409,-0.053048,-0.0,-0.0,2.0,0.282024,0.241828,0.282024,0.315281,,,,,,
122578,-0.120274,-0.014122,0.434637,0.01283,-0.000511,-0.004227,-0.050265,-0.0,-0.0,2.0,0.282024,0.241584,0.282024,0.315447,,,,,,
122598,-0.114288,-0.014096,0.436808,0.01283,-0.000485,-0.00423,-0.047448,-0.0,-0.0,2.0,0.282024,0.244502,0.282024,0.313441,,,,,,
122618,-0.107808,-0.014076,0.43896,0.013895,-0.000458,-0.004233,-0.043802,-0.0,-0.0,2.0,0.282024,0.247151,0.282024,0.311571,,,,,,
122638,-0.100938,-0.014041,0.440821,0.014959,-0.000429,-0.004236,-0.043802,-0.0,-0.0,2.0,0.282024,0.248746,0.282024,0.310423,,,,,,
122658,-0.093825,-0.014083,0.442374,0.016008,-0.000299,-0.003179,-0.038098,-0.0,-0.0,2.0,0.282024,0.251033,0.282024,0.308746,,,,,,
122678,-0.086212,-0.014139,0.443601,0.017055,-0.002304,-0.001937,-0.035998,-0.0,-0.0,2.0,0.282024,0.254852,0.282024,0.305865,,,,,,
122698,-0.078184,-0.014064,0.444311,0.01704,-0.002205,-0.000895,-0.032423,-0.0,-0.0,2.0,0.282024,0.255599,0.282024,0.305289,,,,,,
122718,-0.07001,-0.013918,0.44456,0.017027,-0.001062,7.4e-05,-0.028907,-0.0,-0.0,2.0,0.282024,0.261848,0.282024,0.30031,,,,,,
122738,-0.06151,-0.013483,0.4442,0.018077,-0.000997,0.001128,-0.025383,-0.0,-0.0,2.0,0.282024,0.262947,0.282024,0.299403,,,,,,
122758,-0.052922,-0.013199,0.44355,0.018077,-0.001006,0.001119,-0.02347,-0.0,-0.0,2.0,0.282024,0.264824,0.282024,0.297833,,,,,,
122778,-0.044065,-0.012847,0.44257,0.019128,-0.000969,0.002173,-0.018667,-0.0,-0.0,2.0,0.282024,0.268308,0.282024,0.294842,,,,,,
122798,-0.034997,-0.012658,0.441436,0.020193,-0.000989,0.002165,-0.016447,-0.0,-0.0,2.0,0.282024,0.270407,0.282024,0.292991,,,,,,
122818,-0.025694,-0.012512,0.440226,0.019129,-0.001009,0.002155,-0.010868,-0.0,-0.0,2.0,0.282024,0.271439,0.282024,0.292067,,,,,,
122838,-0.016243,-0.012259,0.438995,0.020181,-0.001012,0.00321,-0.008096,-0.0,-0.0,2.0,0.282024,0.275953,0.282024,0.287913,,,,,,
122858,-0.006795,-0.011995,0.437756,0.021259,-0.00105,0.002136,-0.005828,-0.0,-0.0,2.0,0.282024,0.278392,0.282024,0.28559,,,,,,
122878,0.002892,-0.01177,0.436493,0.02126,-0.002135,0.002122,-0.001792,-0.0,-0.0,2.0,0.282024,0.280305,0.282024,0.283728,,,,,,
122898,0.01287,-0.011345,0.435032,0.021248,-0.001105,0.003179,0.002073,-0.0,-0.0,2.0,0.282024,0.282445,0.282024,0.281602,,,,,,
122918,0.022702,-0.011,0.433619,0.020185,-0.001136,0.003168,0.005826,-0.0,-0.0,2.0,0.282024,0.287026,0.282024,0.276891,,,,,,
122938,0.032534,-0.010641,0.432223,0.021251,-0.001168,0.003157,0.008348,-0.0,-0.0,2.0,0.282024,0.289675,0.282024,0.274062,,,,,,
122958,0.042513,-0.010174,0.430655,0.021264,-0.002217,0.002036,0.01241,-0.0,-0.0,2.0,0.282024,0.289684,0.282024,0.274052,,,,,,
122978,0.052344,-0.009787,0.429139,0.021264,-0.001174,0.00207,0.014713,-0.0,-0.0,2.0,0.282024,0.292664,0.282024,0.270773,,,,,,
122998,0.062443,-0.009318,0.427521,0.020191,-0.001261,0.00312,0.020064,-0.0,-0.0,2.0,0.282024,0.296898,0.282024,0.265925,,,,,,
123018,0.072303,-0.008782,0.425849,0.021258,-0.002354,0.003031,0.022883,-0.0,-0.0,2.0,0.282024,0.29978,0.282024,0.262492,,,,,,
123038,0.081899,-0.008311,0.424423,0.020212,-0.001148,0.000974,0.026865,-0.0,-0.0,2.0,0.282024,0.300105,0.282024,0.262098,,,,,,
123058,0.091577,-0.007455,0.422599,0.020206,-0.002314,0.001925,0.030396,-0.0,-0.0,2.0,0.282024,0.302783,0.282024,0.25879,,,,,,
123078,0.100935,-0.006902,0.420961,0.019136,-0.002439,0.002962,0.032142,-0.0,-0.0,2.0,0.282024,0.306065,0.282024,0.254592,,,,,,
123098,0.109964,-0.00615,0.419466,0.019144,-0.002349,0.001882,0.035562,-0.0,-0.0,2.0,0.282024,0.306607,0.282024,0.253881,,,,,,
123118,0.118782,-0.005211,0.417818,0.018082,-0.002366,0.001861,0.03755,-0.0,-0.0,2.0,0.282024,0.307706,0.282024,0.252428,,,,,,
123138,0.12719,-0.004423,0.416157,0.017019,-0.002381,0.001841,0.0404,-0.0,-0.0,2.0,0.282024,0.310532,0.282024,0.248595,,,,,,
123158,0.135264,-0.003431,0.414467,0.015954,-0.00254,0.002877,0.04556,-0.0,-0.0,2.0,0.282024,0.310575,0.282024,0.248536,,,,,,
123178,0.142959,-0.002491,0.41306,0.014895,-0.00241,0.001803,0.04893,-0.0,-0.0,2.0,0.282024,0.311047,0.282024,0.247882,,,,,,
123198,0.15017,-0.001432,0.411468,0.013833,-0.003475,0.001627,0.050908,-0.0,-0.0,2.0,0.282024,0.311881,0.282024,0.246716,,,,,,
123218,0.156999,-0.000401,0.409768,0.013834,-0.002435,0.001769,0.054205,-0.0,-0.0,2.0,0.282024,0.312274,0.282024,0.246162,,,,,,
123238,0.163227,0.000744,0.408305,0.012772,-0.002446,0.001754,0.057101,-0.0,-0.0,2.0,0.282024,0.312703,0.282024,0.245555,,,,,,
123258,0.169345,0.001918,0.406898,0.011709,-0.003506,0.00156,0.058522,-0.0,-0.0,2.0,0.282024,0.31548,0.282024,0.241535,,,,,,
123278,0.17471,0.003118,0.405575,0.010644,-0.003329,0.000493,0.061217,-0.0,-0.0,2.0,0.282024,0.313765,0.282024,0.244035,,,,,,
123298,0.179479,0.004447,0.404285,0.00958,-0.003331,0.000477,0.064255,-0.0,-0.0,2.0,0.282024,0.31385,0.282024,0.243913,,,,,,
123318,0.183999,0.005843,0.402819,0.008523,-0.003528,0.001508,0.066825,-0.0,-0.0,2.0,0.282024,0.313985,0.282024,0.243717,,,,,,
123338,0.18795,0.006841,0.401715,0.007461,-0.002489,0.001693,0.066825,-0.0,-0.0,2.0,0.282024,0.314727,0.282024,0.24264,,,,,,
123358,0.191314,0.007466,0.400617,0.006393,-0.000202,0.001045,0.070547,-0.0,-0.0,2.0,0.282024,0.314299,0.282024,0.243263,,,,,,
123378,0.194413,0.007405,0.399587,0.00533,0.000839,0.00125,0.072149,-0.0,-0.0,2.0,0.282024,0.316363,0.282024,0.240224,,,,,,
123398,0.196769,0.006755,0.398676,0.004265,0.000836,0.001252,0.074384,-0.0,-0.0,2.0,0.282024,0.316106,0.282024,0.240607,,,,,,
123418,0.198824,0.005896,0.397958,0.0032,0.000833,0.001253,0.07624,-0.0,-0.0,2.0,0.282024,0.313769,0.282024,0.24403,,,,,,
123438,0.200262,0.005055,0.397199,0.002135,0.000831,0.001255,0.077954,-0.0,-0.0,2.0,0.282024,0.313362,0.282024,0.244614,,,,,,
123458,0.201414,0.004633,0.396552,0.001069,-0.000213,0.001043,0.079767,-0.0,-0.0,2.0,0.282024,0.314826,0.282024,0.242495,,,,,,
123478,0.202236,0.004415,0.39582,0.001069,-0.000214,0.001043,0.080832,-0.0,-0.0,2.0,0.282024,0.314405,0.282024,0.24311,,,,,,
123498,0.20271,0.004381,0.395152,5e-06,-0.000214,0.001042,0.082309,-0.0,-0.0,2.0,0.282024,0.313753,0.282024,0.244053,,,,,,
123518,0.202853,0.004538,0.394509,-0.00106,-0.001257,0.000828,0.082309,-0.0,-0.0,2.0,0.282024,0.315408,0.282024,0.241641,,,,,,
123538,0.202637,0.004769,0.3939,-0.001065,-0.001042,-0.000214,0.08407,-0.0,-0.0,2.0,0.282024,0.314468,0.282024,0.243017,,,,,,
123558,0.202398,0.00488,0.393303,-0.001064,0.0,0.0,0.084854,-0.0,-0.0,2.0,0.282024,0.315753,0.282024,0.241131,,,,,,
123578,0.202156,0.00498,0.392817,-0.001059,-0.000214,0.001043,0.085663,-0.0,-0.0,2.0,0.282024,0.317006,0.282024,0.239261,,,,,,
123598,0.201772,0.004984,0.392352,-0.001064,0.0,0.0,0.086299,-0.0,-0.0,2.0,0.282024,0.318222,0.282024,0.237411,,,,,,
123618,0.201506,0.004964,0.391877,-0.001064,0.0,0.0,0.086786,-0.0,-0.0,2.0,0.282024,0.319559,0.282024,0.235342,,,,,,
123638,0.201478,0.004895,0.391377,-0.001059,-0.000213,0.001043,0.087103,-0.0,-0.0,2.0,0.282024,0.320923,0.282024,0.233187,,,,,,
123658,0.20133,0.004839,0.391,-0.001064,0.0,0.0,0.087103,-0.0,-0.0,2.0,0.282024,0.32238,0.282024,0.230836,,,,,,
123678,0.201086,0.004925,0.390623,-0.001064,0.0,0.0,0.087254,-0.0,-0.0,2.0,0.282024,0.323741,0.282024,0.228592,,,,,,
123698,0.20083,0.004891,0.390326,-0.001065,-0.001043,-0.000212,0.087165,-0.0,-0.0,2.0,0.282024,0.325162,0.282024,0.226196,,,,,,
123718,0.200465,0.004989,0.390071,-0.001065,-0.001043,-0.000212,0.0868,-0.0,-0.0,2.0,0.282024,0.326663,0.282024,0.223603,,,,,,
123738,0.199957,0.004992,0.389839,-0.00213,-0.001043,-0.000211,0.086527,-0.0,-0.0,2.0,0.282024,0.326127,0.282024,0.224536,,,,,,
123758,0.199256,0.005269,0.389718,-0.00213,-0.001043,-0.000211,0.085973,-0.0,-0.0,2.0,0.282024,0.327562,0.282024,0.22202,,,,,,
123778,0.198175,0.0055,0.389643,-0.003194,-0.001043,-0.00021,0.085268,-0.0,-0.0,2.0,0.282024,0.328941,0.282024,0.219543,,,,,,
123798,0.196974,0.005754,0.389578,-0.003194,-0.001044,-0.000208,0.084366,-0.0,-0.0,2.0,0.282024,0.328396,0.282024,0.220528,,,,,,
123818,0.195485,0.005806,0.389668,-0.004257,0.0,0.0,0.083752,-0.0,-0.0,2.0,0.282024,0.32769,0.282024,0.221792,,,,,,
123838,0.193482,0.005825,0.389855,-0.005327,0.000205,-0.001044,0.082273,-0.0,-0.0,2.0,0.282024,0.328996,0.282024,0.219441,,,,,,
123858,0.191204,0.005652,0.390151,-0.006391,0.000202,-0.001045,0.081544,-0.0,-0.0,2.0,0.282024,0.328078,0.282024,0.2211,,,,,,
123878,0.188508,0.005304,0.390539,-0.006391,0.000199,-0.001045,0.079791,-0.0,-0.0,2.0,0.282024,0.327347,0.282024,0.222402,,,,,,
123898,0.185478,0.005148,0.390945,-0.008519,0.000196,-0.001046,0.078488,-0.0,-0.0,2.0,0.282024,0.326378,0.282024,0.224101,,,,,,
123918,0.181972,0.005088,0.391388,-0.00852,-0.000854,-0.001239,0.076658,-0.0,-0.0,2.0,0.282024,0.325406,0.282024,0.225778,,,,,,
123938,0.177976,0.005117,0.391907,-0.009584,-0.000859,-0.001236,0.074812,-0.0,-0.0,2.0,0.282024,0.32427,0.282024,0.227706,,,,,,
123958,0.173536,0.00535,0.392629,-0.010649,-0.000864,-0.001232,0.072858,-0.0,-0.0,2.0,0.282024,0.323028,0.282024,0.229773,,,,,,
123978,0.168944,0.005502,0.39318,-0.011713,-0.00087,-0.001228,0.071839,-0.0,-0.0,2.0,0.282024,0.323289,0.282024,0.229341,,,,,,
123998,0.16373,0.005646,0.393887,-0.011713,-0.000877,-0.001223,0.070724,-0.0,-0.0,2.0,0.282024,0.319549,0.282024,0.235357,,,,,,
124018,0.158109,0.005618,0.394736,-0.013848,-0.000716,-0.00227,0.068528,-0.0,-0.0,2.0,0.282024,0.319869,0.282024,0.234855,,,,,,
124038,0.152237,0.005529,0.395553,-0.013847,-0.000729,-0.002265,0.064218,-0.0,-0.0,2.0,0.282024,0.320581,0.282024,0.233731,,,,,,
124058,0.145971,0.005388,0.396425,-0.014906,-0.000898,-0.001208,0.062841,-0.0,-0.0,2.0,0.282024,0.316358,0.282024,0.240232,,,,,,
124078,0.139178,0.005101,0.397434,-0.015974,0.000295,-0.002108,0.059259,-0.0,-0.0,2.0,0.282024,0.31662,0.282024,0.23984,,,,,,
124098,0.132172,0.004994,0.398314,-0.015975,-0.000774,-0.00225,0.057882,-0.0,-0.0,2.0,0.282024,0.313999,0.282024,0.243697,,,,,,
124118,0.124687,0.004981,0.399307,-0.017038,0.000265,-0.002112,0.055075,-0.0,-0.0,2.0,0.282024,0.311629,0.282024,0.24707,,,,,,
124138,0.116749,0.005189,0.400291,-0.018103,-0.000809,-0.002238,0.052142,-0.0,-0.0,2.0,0.282024,0.3091,0.282024,0.250554,,,,,,
124158,0.1087,0.005433,0.401207,-0.018104,-0.000827,-0.002231,0.049153,-0.0,-0.0,2.0,0.282024,0.308472,0.282024,0.251402,,,,,,
124178,0.100235,0.005504,0.402268,-0.019168,-0.000846,-0.002224,0.045839,-0.0,-0.0,2.0,0.282024,0.305693,0.282024,0.255076,,,,,,
124198,0.091514,0.005516,0.403267,-0.020232,0.000195,-0.00212,0.042896,-0.0,-0.0,2.0,0.282024,0.304686,0.282024,0.256375,,,,,,
124218,0.082554,0.005582,0.404234,-0.020232,0.000176,-0.002121,0.041293,-0.0,-0.0,2.0,0.282024,0.301007,0.282024,0.260995,,,,,,
124238,0.073401,0.005321,0.405172,-0.020232,0.000156,-0.002123,0.036382,-0.0,-0.0,2.0,0.282024,0.300293,0.282024,0.261869,,,,,,
124258,0.063919,0.005259,0.406143,-0.021296,0.000136,-0.002124,0.033557,-0.0,-0.0,2.0,0.282024,0.296594,0.282024,0.266281,,,,,,
124278,0.054411,0.00508,0.407175,-0.021295,0.000116,-0.002125,0.029943,-0.0,-0.0,2.0,0.282024,0.295161,0.282024,0.267942,,,,,,
124298,0.044664,0.00496,0.408052,-0.021295,-0.000968,-0.002174,0.026431,-0.0,-0.0,2.0,0.282024,0.291294,0.282024,0.272294,,,,,,
124318,0.03485,0.005111,0.408945,-0.021296,-0.000989,-0.002164,0.024664,-0.0,-0.0,2.0,0.282024,0.288891,0.282024,0.274908,,,,,,
124338,0.024891,0.005173,0.409897,-0.02236,-0.001011,-0.002154,0.020837,-0.0,-0.0,2.0,0.282024,0.28934,0.282024,0.274424,,,,,,
124358,0.015078,0.005338,0.410682,-0.021296,-0.001032,-0.002144,0.017022,-0.0,-0.0,2.0,0.282024,0.285079,0.282024,0.278921,,,,,,
124378,0.005146,0.005535,0.411487,-0.022361,-0.001053,-0.002134,0.013683,-0.0,-0.0,2.0,0.282024,0.282846,0.282024,0.281199,,,,,,
124398,-0.004597,0.005451,0.412345,-0.021296,-1e-05,-0.002128,0.011732,-0.0,-0.0,2.0,0.282024,0.282359,0.282024,0.281688,,,,,,
124418,-0.014315,0.005494,0.413114,-0.021296,-0.001095,-0.002113,0.00842,-0.0,-0.0,2.0,0.282024,0.279891,0.282024,0.284134,,,,,,
124438,-0.024033,0.005543,0.41372,-0.021296,-5.1e-05,-0.002128,0.002986,-0.0,-0.0,2.0,0.282024,0.2781,0.282024,0.285871,,,,,,
124458,-0.033512,0.005549,0.414385,-0.021296,-7.1e-05,-0.002127,-0.000752,-0.0,-0.0,2.0,0.282024,0.275621,0.282024,0.288225,,,,,,
124478,-0.042729,0.005632,0.415078,-0.020232,-0.001154,-0.002081,-0.004441,-0.0,-0.0,2.0,0.282024,0.275516,0.282024,0.288323,,,,,,
124498,-0.051946,0.005723,0.415723,-0.020232,-0.001173,-0.00207,-0.006365,-0.0,-0.0,2.0,0.282024,0.272274,0.282024,0.291312,,,,,,
124518,-0.061046,0.005796,0.416397,-0.020233,-0.00013,-0.002125,-0.010191,-0.0,-0.0,2.0,0.282024,0.26961,0.282024,0.293698,,,,,,
124538,-0.069881,0.005941,0.416853,-0.019162,-0.001136,-0.000987,-0.012853,-0.0,-0.0,2.0,0.282024,0.26642,0.282024,0.296475,,,,,,
124558,-0.078623,0.005952,0.417447,-0.019168,-0.001228,-0.002038,-0.017298,-0.0,-0.0,2.0,0.282024,0.266407,0.282024,0.296486,,,,,,
124578,-0.08722,0.006069,0.418116,-0.019175,-0.000278,-0.003181,-0.020307,-0.0,-0.0,2.0,0.282024,0.263288,0.282024,0.29912,,,,,,
124598,-0.095348,0.006077,0.41851,-0.018105,-0.000203,-0.002119,-0.025215,-0.0,-0.0,2.0,0.282024,0.263459,0.282024,0.298978,,,,,,
124618,-0.103467,0.006106,0.41912,-0.018105,-0.00022,-0.002117,-0.027503,-0.0,-0.0,2.0,0.282024,0.260054,0.282024,0.30177,,,,,,
124638,-0.111091,0.006156,0.419688,-0.01704,-0.001294,-0.001997,-0.030917,-0.0,-0.0,2.0,0.282024,0.259588,0.282024,0.302145,,,,,,
124658,-0.11857,0.006305,0.420236,-0.015983,-0.000378,-0.00317,-0.034345,-0.0,-0.0,2.0,0.282024,0.256638,0.282024,0.304482,,,,,,
124678,-0.125481,0.006206,0.420672,-0.015976,-0.000266,-0.002112,-0.037678,-0.0,-0.0,2.0,0.282024,0.256333,0.282024,0.30472,,,,,,
124698,-0.132365,0.006239,0.421196,-0.014912,-0.000281,-0.00211,-0.039587,-0.0,-0.0,2.0,0.282024,0.255483,0.282024,0.305379,,,,,,
124718,-0.138866,0.006319,0.421725,-0.013847,-0.001349,-0.001961,-0.043111,-0.0,-0.0,2.0,0.282024,0.252592,0.282024,0.307582,,,,,,
124738,-0.145009,0.006328,0.422254,-0.013854,-0.001514,-0.003005,-0.045835,-0.0,-0.0,2.0,0.282024,0.252185,0.282024,0.307888,,,,,,
124758,-0.150976,0.006543,0.422603,-0.013849,-0.00032,-0.002104,-0.048604,-0.0,-0.0,2.0,0.282024,0.251822,0.282024,0.308159,,,,,,
124778,-0.156589,0.006706,0.423251,-0.012778,-0.000166,-0.001051,-0.052551,-0.0,-0.0,2.0,0.282024,0.249136,0.282024,0.310139,,,,,,
124798,-0.162086,0.006838,0.423782,-0.01172,-0.001394,-0.001929,-0.054462,-0.0,-0.0,2.0,0.282024,0.248586,0.282024,0.310539,,,,,,
124818,-0.167109,0.006862,0.424226,-0.010663,-0.00158,-0.002971,-0.057329,-0.0,-0.0,2.0,0.282024,0.245543,0.282024,0.312711,,,,,,
124838,-0.171885,0.006835,0.424601,-0.010655,-0.001413,-0.001915,-0.060257,-0.0,-0.0,2.0,0.282024,0.245599,0.282024,0.312672,,,,,,
124858,-0.176075,0.006695,0.425197,-0.009585,-0.000186,-0.001048,-0.062877,-0.0,-0.0,2.0,0.282024,0.245567,0.282024,0.312695,,,,,,
124878,-0.179965,0.006741,0.425749,-0.008529,0.000666,-0.002285,-0.064218,-0.0,-0.0,2.0,0.282024,0.245149,0.282024,0.312988,,,,,,
124898,-0.183498,0.006713,0.426325,-0.007471,-0.000583,-0.003139,-0.066685,-0.0,-0.0,2.0,0.282024,0.242466,0.282024,0.314846,,,,,,
124918,-0.18643,0.006543,0.426765,-0.006399,-0.000395,-0.002092,-0.070136,-0.0,-0.0,2.0,0.282024,0.243325,0.282024,0.314256,,,,,,
124938,-0.189128,0.006312,0.427115,-0.005326,-0.001245,-0.000845,-0.070136,-0.0,-0.0,2.0,0.282024,0.242756,0.282024,0.314648,,,,,,
124958,-0.191237,0.006487,0.427872,-0.005328,-0.000202,-0.001045,-0.073304,-0.0,-0.0,2.0,0.282024,0.2437,0.282024,0.313998,,,,,,
124978,-0.193141,0.00647,0.428423,-0.00427,-0.000409,-0.002089,-0.075033,-0.0,-0.0,2.0,0.282024,0.244288,0.282024,0.313589,,,,,,
124998,-0.194509,0.006572,0.428856,-0.003206,-0.000411,-0.002088,-0.076996,-0.0,-0.0,2.0,0.282024,0.245112,0.282024,0.313014,,,,,,
125018,-0.195548,0.006478,0.429313,-0.002135,-0.000207,-0.001044,-0.078668,-0.0,-0.0,2.0,0.282024,0.243092,0.282024,0.314417,,,,,,
125038,-0.196202,0.006435,0.429923,-0.001076,-0.001459,-0.00188,-0.080188,-0.0,-0.0,2.0,0.282024,0.244076,0.282024,0.313737,,,,,,
125058,-0.196466,0.006419,0.430396,-0.001076,-0.001459,-0.00188,-0.08122,-0.0,-0.0,2.0,0.282024,0.245003,0.282024,0.313091,,,,,,
125078,-0.196483,0.006335,0.43071,-5e-06,-0.001252,-0.000836,-0.082665,-0.0,-0.0,2.0,0.282024,0.246295,0.282024,0.31218,,,,,,
125098,-0.196272,0.006213,0.431231,-6e-06,-0.000208,-0.001044,-0.083536,-0.0,-0.0,2.0,0.282024,0.244568,0.282024,0.313395,,,,,,
125118,-0.195762,0.006261,0.431613,-7e-06,-0.000207,-0.001044,-0.084485,-0.0,-0.0,2.0,0.282024,0.245858,0.282024,0.312489,,,,,,
125138,-0.195377,0.006312,0.431767,0.001058,-0.000207,-0.001044,-0.085122,-0.0,-0.0,2.0,0.282024,0.24121,0.282024,0.3157,,,,,,
125158,-0.195134,0.006282,0.432007,-7e-06,-0.000206,-0.001044,-0.085982,-0.0,-0.0,2.0,0.282024,0.239609,0.282024,0.316774,,,,,,
125178,-0.19466,0.006177,0.432054,1e-06,-0.001044,0.000206,-0.086495,-0.0,-0.0,2.0,0.282024,0.237785,0.282024,0.317978,,,,,,
125198,-0.194446,0.006017,0.432175,0.0,0.0,0.0,-0.086943,-0.0,-0.0,2.0,0.282024,0.235903,0.282024,0.319199,,,,,,
125218,-0.194206,0.005976,0.432307,-0.00107,-0.000205,-0.001044,-0.087182,-0.0,-0.0,2.0,0.282024,0.233852,0.282024,0.320505,,,,,,
125238,-0.193916,0.00616,0.432351,-6e-06,-0.000205,-0.001044,-0.087266,-0.0,-0.0,2.0,0.282024,0.231777,0.282024,0.321801,,,,,,
125258,-0.193682,0.006096,0.432267,-6e-06,-0.000205,-0.001044,-0.087212,-0.0,-0.0,2.0,0.282024,0.229606,0.282024,0.323129,,,,,,
125278,-0.193315,0.006014,0.432227,0.001064,0.0,0.0,-0.08704,-0.0,-0.0,2.0,0.282024,0.227401,0.282024,0.324451,,,,,,
125298,-0.192935,0.006042,0.432164,0.001065,-0.001044,0.000204,-0.086835,-0.0,-0.0,2.0,0.282024,0.225187,0.282024,0.325751,,,,,,
125318,-0.192213,0.00588,0.432159,0.001065,-0.001045,0.000203,-0.086182,-0.0,-0.0,2.0,0.282024,0.226151,0.282024,0.325188,,,,,,
125338,-0.191176,0.006011,0.4321,0.001065,-0.001045,0.000202,-0.085836,-0.0,-0.0,2.0,0.282024,0.227294,0.282024,0.324514,,,,,,
125358,-0.190192,0.005905,0.432019,0.002128,0.0,0.0,-0.084696,-0.0,-0.0,2.0,0.282024,0.22496,0.282024,0.325882,,,,,,
125378,-0.188681,0.00593,0.432005,0.003193,0.0,0.0,-0.08423,-0.0,-0.0,2.0,0.282024,0.22639,0.282024,0.325048,,,,,,
125398,-0.186895,0.006019,0.431946,0.003193,0.0,0.0,-0.083197,-0.0,-0.0,2.0,0.282024,0.224359,0.282024,0.32623,,,,,,
125418,-0.184872,0.006055,0.431908,0.004257,0.0,0.0,-0.081955,-0.0,-0.0,2.0,0.282024,0.225739,0.282024,0.325429,,,,,,
125438,-0.182404,0.005857,0.431793,0.005322,-0.001047,0.000193,-0.081267,-0.0,-0.0,2.0,0.282024,0.224284,0.282024,0.326272,,,,,,
125458,-0.179632,0.005852,0.431749,0.006386,-0.001047,0.00019,-0.079851,-0.0,-0.0,2.0,0.282024,0.225983,0.282024,0.325287,,,,,,
125478,-0.176491,0.00588,0.43171,0.006386,-0.001048,0.000187,-0.077507,-0.0,-0.0,2.0,0.282024,0.227382,0.282024,0.324463,,,,,,
125498,-0.173009,0.005709,0.43161,0.007457,-0.000865,0.001232,-0.075661,-0.0,-0.0,2.0,0.282024,0.229139,0.282024,0.323411,,,,,,
125518,-0.169116,0.005707,0.431662,0.008515,-0.001049,0.000179,-0.074274,-0.0,-0.0,2.0,0.282024,0.228233,0.282024,0.323956,,,,,,
125538,-0.164978,0.00564,0.43154,0.008514,0.0,0.0,-0.072059,-0.0,-0.0,2.0,0.282024,0.233386,0.282024,0.320798,,,,,,
125558,-0.160444,0.005728,0.431423,0.009578,0.0,0.0,-0.069869,-0.0,-0.0,2.0,0.282024,0.232437,0.282024,0.321391,,,,,,
125578,-0.155567,0.005626,0.431345,0.010642,0.0,0.0,-0.068735,-0.0,-0.0,2.0,0.282024,0.235384,0.282024,0.319532,,,,,,
125598,-0.150284,0.005676,0.431188,0.011712,0.000159,0.001052,-0.066415,-0.0,-0.0,2.0,0.282024,0.237902,0.282024,0.317901,,,,,,
125618,-0.144696,0.005412,0.431026,0.012772,-0.001053,0.000153,-0.064821,-0.0,-0.0,2.0,0.282024,0.237967,0.282024,0.317859,,,,,,
125638,-0.138691,0.005307,0.430809,0.012771,-0.001054,0.000147,-0.062002,-0.0,-0.0,2.0,0.282024,0.237761,0.282024,0.317994,,,,,,
125658,-0.13234,0.005121,0.430563,0.013841,-0.000914,0.001195,-0.059269,-0.0,-0.0,2.0,0.282024,0.243631,0.282024,0.314045,,,,,,
125678,-0.125841,0.005039,0.430417,0.013841,-0.000922,0.001189,-0.055493,-0.0,-0.0,2.0,0.282024,0.243367,0.282024,0.314227,,,,,,
125698,-0.119053,0.005139,0.430164,0.01384,0.000126,0.001057,-0.053354,-0.0,-0.0,2.0,0.282024,0.246818,0.282024,0.311809,,,,,,
125718,-0.111758,0.005249,0.429733,0.014905,0.000119,0.001058,-0.049979,-0.0,-0.0,2.0,0.282024,0.249907,0.282024,0.309576,,,,,,
125738,-0.10464,0.005159,0.429435,0.015963,0.0,0.0,-0.048457,-0.0,-0.0,2.0,0.282024,0.251138,0.282024,0.308668,,,,,,
125758,-0.096895,0.005056,0.428959,0.017033,0.000103,0.001059,-0.044919,-0.0,-0.0,2.0,0.282024,0.251732,0.282024,0.308226,,,,,,
125778,-0.088774,0.004995,0.428434,0.017033,-0.000966,0.001154,-0.043172,-0.0,-0.0,2.0,0.282024,0.256029,0.282024,0.304955,,,,,,
125798,-0.080678,0.004826,0.427975,0.018097,-0.000975,0.001147,-0.037981,-0.0,-0.0,2.0,0.282024,0.256335,0.282024,0.304717,,,,,,
125818,-0.07203,0.004908,0.42729,0.018097,7.7e-05,0.001061,-0.034951,-0.0,-0.0,2.0,0.282024,0.260329,0.282024,0.301548,,,,,,
125838,-0.063167,0.004831,0.426672,0.019161,6.7e-05,0.001062,-0.032833,-0.0,-0.0,2.0,0.282024,0.264868,0.282024,0.297796,,,,,,
125858,-0.054186,0.004735,0.426012,0.020225,5.8e-05,0.001063,-0.031157,-0.0,-0.0,2.0,0.282024,0.267053,0.282024,0.295931,,,,,,
125878,-0.0448,0.004806,0.425284,0.02129,-0.001015,0.001111,-0.025227,-0.0,-0.0,2.0,0.282024,0.267882,0.282024,0.295213,,,,,,
125898,-0.035081,0.004687,0.424399,0.020225,-0.001026,0.001101,-0.022958,-0.0,-0.0,2.0,0.282024,0.272795,0.282024,0.290838,,,,,,
125918,-0.025337,0.004699,0.423569,0.021295,-0.00101,0.002155,-0.019389,-0.0,-0.0,2.0,0.282024,0.277159,0.282024,0.286771,,,,,,
