time_ms,roll,pitch,yaw,roll_rate,pitch_rate,yaw_rate,reference_roll,reference_pitch,reference_yaw,reference_throttle,throttle_1,throttle_2,throttle_3,throttle_4,roll_predicted,pitch_predicted,yaw_predicted,roll_rate_predicted,pitch_rate_predicted,yaw_rate_predicted
1076268,0.001033,-0.025185,0.053759,2.7e-05,-0.001063,-0.001066,0.0,-0.0,-0.0,3.032258,0.327388,0.31217,0.327388,0.341702,,,,,,
1076288,0.000908,-0.025304,0.053758,2.7e-05,-0.001063,-0.001066,0.0,-0.0,-0.0,3.032258,0.327388,0.312191,0.327388,0.341684,,,,,,
1076308,0.001155,-0.025188,0.053761,-0.001037,1e-06,-0.001065,0.0,-0.0,-0.0,3.032258,0.327388,0.31715,0.327388,0.33721,,,,,,
1076328,0.001396,-0.025317,0.053764,-0.001037,1e-06,-0.001065,0.0,-0.0,-0.0,3.032258,0.327388,0.317287,0.327388,0.337084,,,,,,
1076348,0.001396,-0.025317,0.053764,2.7e-05,1e-06,-0.001065,0.0,-0.0,-0.0,3.032258,0.327388,0.317432,0.327388,0.33695,,,,,,
1076368,0.001399,-0.025195,0.053764,0.0,-0.001064,-1e-06,0.0,-0.0,-0.0,3.032258,0.327388,0.317464,0.327388,0.336921,,,,,,
1076388,0.001396,-0.025317,0.053764,0.0,-0.001064,-1e-06,0.0,-0.0,-0.0,3.032258,0.327388,0.317488,0.327388,0.336898,,,,,,
1076408,0.001641,-0.025324,0.053645,2.7e-05,2e-06,-0.001065,0.0,-0.0,-0.0,3.032258,0.327388,0.312951,0.327388,0.34101,,,,,,
1076428,0.001523,-0.025198,0.053644,2.7e-05,-0.001063,-0.001066,0.0,-0.0,-0.0,3.032258,0.327388,0.312866,0.327388,0.341085,,,,,,
1076448,0.001518,-0.02532,0.053766,2.7e-05,-0.001063,-0.001066,0.0,-0.0,-0.0,3.032258,0.327388,0.312891,0.327388,0.341063,,,,,,
1076468,0.001274,-0.025314,0.053763,2.7e-05,1e-06,-0.001065,0.0,-0.0,-0.0,3.032258,0.327388,0.312683,0.327388,0.341248,,,,,,
1076488,0.001518,-0.02532,0.053766,0.0,0.0,0.0,0.0,-0.0,-0.0,3.032258,0.327388,0.317634,0.327388,0.336764,,,,,,
1076508,0.00164,-0.025324,0.053767,0.0,0.0,0.0,0.0,-0.0,-0.0,3.032258,0.327388,0.317898,0.327388,0.336519,,,,,,
1076528,0.00164,-0.025324,0.053767,-0.001064,-0.001064,-2e-06,0.0,-0.0,-0.0,3.032258,0.327388,0.317931,0.327388,0.336488,,,,,,
1076548,0.00164,-0.025324,0.053767,-0.001064,-0.001064,-2e-06,0.0,-0.0,-0.0,3.032258,0.327388,0.317963,0.327388,0.336459,,,,,,
1076568,0.001521,-0.025198,0.053765,-0.001064,-0.001064,-2e-06,0.0,-0.0,-0.0,3.032258,0.327388,0.313202,0.327388,0.340786,,,,,,
1076588,0.001518,-0.02532,0.053766,2.7e-05,-0.001063,-0.001066,0.0,-0.0,-0.0,3.032258,0.327388,0.31311,0.327388,0.340868,,,,,,
1076608,0.001521,-0.025198,0.053765,2.7e-05,-0.001063,-0.001066,0.0,-0.0,-0.0,3.032258,0.327388,0.317824,0.327388,0.336587,,,,,,
1076628,0.001518,-0.02532,0.053766,2.7e-05,2e-06,-0.001065,0.0,-0.0,-0.0,3.032258,0.327388,0.317852,0.327388,0.336562,,,,,,
1076648,0.001762,-0.025327,0.053769,-0.001037,2e-06,-0.001065,0.0,-0.0,-0.0,3.032258,0.327388,0.318116,0.327388,0.336317,,,,,,
1076668,0.001762,-0.025327,0.053769,-0.001064,0.0,0.0,0.0,-0.0,-0.0,3.032258,0.327388,0.318152,0.327388,0.336284,,,,,,
1076688,0.001886,-0.025208,0.053892,-0.001064,0.0,0.0,0.0,-0.0,-0.0,3.032258,0.327388,0.318424,0.327388,0.336031,,,,,,
1076708,0.002011,-0.025089,0.053893,-0.001064,0.0,0.0,0.0,-0.0,-0.0,3.032258,0.327388,0.318698,0.327388,0.335776,,,,,,
1076728,0.001887,-0.025086,0.054014,2.7e-05,2e-06,-0.001065,0.0,-0.0,-0.0,3.032258,0.327388,0.3185,0.327388,0.335961,,,,,,
1076748,0.001765,-0.025083,0.054012,2.7e-05,-0.001062,-0.001066,0.0,-0.0,-0.0,3.032258,0.327388,0.31842,0.327388,0.336035,,,,,,
1076768,0.001767,-0.025083,0.05389,2.7e-05,-0.001062,-0.001066,0.0,-0.0,-0.0,3.032258,0.327388,0.318342,0.327388,0.336107,,,,,,
1076788,0.002008,-0.025211,0.053893,2.7e-05,2e-06,-0.001065,0.0,-0.0,-0.0,3.032258,0.327388,0.318492,0.327388,0.335968,,,,,,
1076808,0.002008,-0.025211,0.053893,0.0,0.0,0.0,0.0,-0.0,-0.0,3.032258,0.327388,0.318531,0.327388,0.335932,,,,,,
1076828,0.002009,-0.025211,0.053771,0.0,-0.001064,-2e-06,0.0,-0.0,-0.0,3.032258,0.327388,0.314025,0.327388,0.34005,,,,,,
1076848,0.002009,-0.025211,0.053771,-2.7e-05,-0.001066,0.001062,0.0,-0.0,-0.0,3.032258,0.327388,0.314184,0.327388,0.339907,,,,,,
1076868,0.001887,-0.025208,0.05377,-0.001064,-0.001064,-2e-06,0.0,-0.0,-0.0,3.032258,0.327388,0.314105,0.327388,0.339978,,,,,,
1076888,0.001887,-0.025208,0.05377,-0.001064,-0.001064,-2e-06,0.0,-0.0,-0.0,3.032258,0.327388,0.314144,0.327388,0.339943,,,,,,
1076908,0.00189,-0.025086,0.05377,-0.001064,-0.001064,-2e-06,0.0,-0.0,-0.0,3.032258,0.327388,0.318847,0.327388,0.335637,,,,,,
1076928,0.002009,-0.025211,0.053771,2.7e-05,-0.001062,-0.001067,0.0,-0.0,-0.0,3.032258,0.327388,0.318882,0.327388,0.335605,,,,,,
1076948,0.002009,-0.025211,0.053771,2.7e-05,-0.001062,-0.001067,0.0,-0.0,-0.0,3.032258,0.327388,0.318922,0.327388,0.335568,,,,,,
1076968,0.001884,-0.02533,0.05377,2.7e-05,2e-06,-0.001065,0.0,-0.0,-0.0,3.032258,0.327388,0.318843,0.327388,0.335641,,,,,,
1076988,0.002009,-0.025211,0.053771,-0.001064,0.0,0.0,0.0,-0.0,-0.0,3.032258,0.327388,0.319117,0.327388,0.335385,,,,,,
1077008,0.002128,-0.025337,0.053773,-0.001064,0.0,0.0,0.0,-0.0,-0.0,3.032258,0.327388,0.319268,0.327388,0.335244,,,,,,
1077028,0.002131,-0.025215,0.053773,2.7e-05,2e-06,-0.001065,0.0,-0.0,-0.0,3.032258,0.327388,0.314662,0.327388,0.339476,,,,,,
1077048,0.001765,-0.025205,0.053768,0.0,-0.001064,-2e-06,0.0,-0.0,-0.0,3.032258,0.327388,0.314349,0.327388,0.339758,,,,,,
1077068,0.001887,-0.025208,0.05377,-0.001064,0.0,0.0,0.0,-0.0,-0.0,3.032258,0.327388,0.319158,0.327388,0.335347,,,,,,
1077088,0.002006,-0.025333,0.053772,-0.001037,2e-06,-0.001065,0.0,-0.0,-0.0,3.032258,0.327388,0.319192,0.327388,0.335315,,,,,,
1077108,0.002128,-0.025337,0.053773,2.7e-05,2e-06,-0.001065,0.0,-0.0,-0.0,3.032258,0.327388,0.319349,0.327388,0.335168,,,,,,
1077128,0.002125,-0.025459,0.053773,0.0,-0.001064,-2e-06,0.0,-0.0,-0.0,3.032258,0.327388,0.319387,0.327388,0.335133,,,,,,
1077148,0.002125,-0.025459,0.053773,0.0,-0.001064,-2e-06,0.0,-0.0,-0.0,3.032258,0.327388,0.319431,0.327388,0.335092,,,,,,
1077168,0.002367,-0.025587,0.053655,2.7e-05,3e-06,-0.001065,0.0,-0.0,-0.0,3.032258,0.327388,0.319704,0.327388,0.334835,,,,,,
1077188,0.002375,-0.025343,0.053532,0.0,-0.001064,-3e-06,0.0,-0.0,-0.0,3.032258,0.327388,0.319874,0.327388,0.334676,,,,,,
1077208,0.002373,-0.025465,0.053411,0.0,-0.001064,-3e-06,0.0,-0.0,-0.0,3.032258,0.327388,0.31528,0.327388,0.338917,,,,,,
1077228,0.002251,-0.025462,0.053409,0.0,-0.001064,-2e-06,0.0,-0.0,-0.0,3.032258,0.327388,0.31509,0.327388,0.339089,,,,,,
1077248,0.002248,-0.025584,0.053409,2.7e-05,-0.001062,-0.001067,0.0,-0.0,-0.0,3.032258,0.327388,0.315134,0.327388,0.33905,,,,,,
1077268,0.002367,-0.025709,0.053411,0.0,0.0,0.0,0.0,-0.0,-0.0,3.032258,0.327388,0.319932,0.327388,0.33462,,,,,,
1077288,0.002489,-0.025712,0.053413,-0.001064,0.0,0.0,0.0,-0.0,-0.0,3.032258,0.327388,0.320213,0.327388,0.334356,,,,,,
1077308,0.002608,-0.025838,0.053414,-0.001037,3e-06,-0.001065,0.0,-0.0,-0.0,3.032258,0.327388,0.320376,0.327388,0.334203,,,,,,
1077328,0.002614,-0.025593,0.053414,2.7e-05,3e-06,-0.001065,0.0,-0.0,-0.0,3.032258,0.327388,0.315805,0.327388,0.33844,,,,,,
1077348,0.002489,-0.025712,0.053413,2.7e-05,-0.001062,-0.001067,0.0,-0.0,-0.0,3.032258,0.327388,0.315736,0.327388,0.338503,,,,,,
1077368,0.002492,-0.02559,0.053412,2.7e-05,-0.001062,-0.001067,0.0,-0.0,-0.0,3.032258,0.327388,0.31567,0.327388,0.338564,,,,,,
1077388,0.002736,-0.025597,0.053416,2.7e-05,3e-06,-0.001065,0.0,-0.0,-0.0,3.032258,0.327388,0.32058,0.327388,0.33401,,,,,,
1077408,0.002736,-0.025597,0.053416,2.7e-05,3e-06,-0.001065,0.0,-0.0,-0.0,3.032258,0.327388,0.320633,0.327388,0.333959,,,,,,
1077428,0.002736,-0.025597,0.053416,0.0,0.0,0.0,0.0,-0.0,-0.0,3.032258,0.327388,0.316064,0.327388,0.338204,,,,,,
1077448,0.002611,-0.025716,0.053414,0.0,0.0,0.0,0.0,-0.0,-0.0,3.032258,0.327388,0.320622,0.327388,0.33397,,,,,,
1077468,0.002855,-0.025722,0.053417,-0.001064,0.0,0.0,0.0,-0.0,-0.0,3.032258,0.327388,0.321022,0.327388,0.33359,,,,,,
1077488,0.002858,-0.0256,0.053417,-0.001064,-0.001064,-3e-06,0.0,-0.0,-0.0,3.032258,0.327388,0.32108,0.327388,0.333536,,,,,,
1077508,0.002736,-0.025597,0.053416,0.0,-0.001064,-3e-06,0.0,-0.0,-0.0,3.032258,0.327388,0.316405,0.327388,0.337893,,,,,,
1077528,0.002614,-0.025593,0.053414,2.7e-05,-0.001061,-0.001067,0.0,-0.0,-0.0,3.032258,0.327388,0.316223,0.327388,0.338059,,,,,,
1077548,0.002611,-0.025716,0.053414,2.7e-05,-0.001061,-0.001067,0.0,-0.0,-0.0,3.032258,0.327388,0.320891,0.327388,0.333715,,,,,,
1077568,0.002858,-0.0256,0.053417,-0.001037,3e-06,-0.001065,0.0,-0.0,-0.0,3.032258,0.327388,0.321178,0.327388,0.333443,,,,,,
1077588,0.00298,-0.025603,0.053419,-0.001064,0.0,0.0,0.0,-0.0,-0.0,3.032258,0.327388,0.321348,0.327388,0.333281,,,,,,
1077608,0.002855,-0.025722,0.053417,0.0,0.0,0.0,0.0,-0.0,-0.0,3.032258,0.327388,0.316797,0.327388,0.337534,,,,,,
1077628,0.002855,-0.025722,0.053417,0.0,0.0,0.0,0.0,-0.0,-0.0,3.032258,0.327388,0.316855,0.327388,0.337481,,,,,,
1077648,0.002733,-0.025719,0.053416,-0.001037,3e-06,-0.001065,0.0,-0.0,-0.0,3.032258,0.327388,0.321403,0.327388,0.333229,,,,,,
1077668,0.002855,-0.025722,0.053417,-0.001037,-0.001061,-0.001068,0.0,-0.0,-0.0,3.032258,0.327388,0.321573,0.327388,0.333067,,,,,,
1077688,0.002858,-0.0256,0.053417,-0.001037,-0.001061,-0.001068,0.0,-0.0,-0.0,3.032258,0.327388,0.321515,0.327388,0.333122,,,,,,
1077708,0.002858,-0.0256,0.053417,2.7e-05,-0.001061,-0.001068,0.0,-0.0,-0.0,3.032258,0.327388,0.32157,0.327388,0.333069,,,,,,
1077728,0.002858,-0.0256,0.053417,0.0,-0.001064,-3e-06,0.0,-0.0,-0.0,3.032258,0.327388,0.321628,0.327388,0.333014,,,,,,
1077748,0.002982,-0.025603,0.053297,0.0,0.0,0.0,0.0,-0.0,-0.0,3.032258,0.327388,0.3218,0.327388,0.33285,,,,,,
1077768,0.002853,-0.025844,0.053296,-0.001064,-0.001064,-3e-06,0.0,-0.0,-0.0,3.032258,0.327388,0.317256,0.327388,0.337112,,,,,,
1077788,0.002856,-0.025722,0.053295,-0.001064,-0.001064,-3e-06,0.0,-0.0,-0.0,3.032258,0.327388,0.317314,0.327388,0.337059,,,,,,
1077808,0.002856,-0.025722,0.053295,0.0,-0.001064,-3e-06,0.0,-0.0,-0.0,3.032258,0.327388,0.317368,0.327388,0.337009,,,,,,
1077828,0.002486,-0.025834,0.053413,2.8e-05,-0.001062,-0.001067,0.0,-0.0,-0.0,3.032258,0.327388,0.31695,0.327388,0.337394,,,,,,
1077848,0.002611,-0.025716,0.053414,-0.001037,3e-06,-0.001065,0.0,-0.0,-0.0,3.032258,0.327388,0.321723,0.327388,0.332923,,,,,,
1077868,0.002978,-0.025725,0.053297,-0.001064,0.0,0.0,0.0,-0.0,-0.0,3.032258,0.327388,0.322121,0.327388,0.332543,,,,,,
1077888,0.002978,-0.025725,0.053297,0.0,0.0,0.0,0.0,-0.0,-0.0,3.032258,0.327388,0.317704,0.327388,0.336699,,,,,,
1077908,0.002734,-0.025719,0.053294,0.0,-0.001064,-3e-06,0.0,-0.0,-0.0,3.032258,0.327388,0.31753,0.327388,0.33686,,,,,,
1077928,0.002734,-0.025719,0.053294,0.0,-0.001064,-3e-06,0.0,-0.0,-0.0,3.032258,0.327388,0.322177,0.327388,0.332489,,,,,,
1077948,0.002738,-0.025597,0.053294,-0.001037,3e-06,-0.001065,0.0,-0.0,-0.0,3.032258,0.327388,0.322233,0.327388,0.332435,,,,,,
1077968,0.002614,-0.025715,0.05317,2.7e-05,3e-06,-0.001065,0.0,-0.0,-0.0,3.032258,0.327388,0.317458,0.327388,0.336926,,,,,,
1077988,0.002489,-0.025834,0.053169,2.8e-05,-0.001062,-0.001067,0.0,-0.0,-0.0,3.032258,0.327388,0.31739,0.327388,0.336989,,,,,,
1078008,0.002614,-0.025715,0.05317,0.0,-0.001064,-3e-06,0.0,-0.0,-0.0,3.032258,0.327388,0.317561,0.327388,0.336831,,,,,,
1078028,0.002614,-0.025715,0.05317,0.0,-0.001064,-3e-06,0.0,-0.0,-0.0,3.032258,0.327388,0.322321,0.327388,0.332351,,,,,,
1078048,0.002733,-0.025841,0.053172,-0.001064,-0.001064,-3e-06,0.0,-0.0,-0.0,3.032258,0.327388,0.317897,0.327388,0.33652,,,,,,
1078068,0.002734,-0.025719,0.053294,-0.001064,-0.001064,-3e-06,0.0,-0.0,-0.0,3.032258,0.327388,0.322537,0.327388,0.332144,,,,,,
1078088,0.002734,-0.025719,0.053294,2.7e-05,-0.001061,-0.001067,0.0,-0.0,-0.0,3.032258,0.327388,0.32259,0.327388,0.332092,,,,,,
1078108,0.002612,-0.025715,0.053292,2.7e-05,3e-06,-0.001065,0.0,-0.0,-0.0,3.032258,0.327388,0.322528,0.327388,0.332152,,,,,,
1078128,0.002611,-0.025837,0.053171,2.8e-05,3e-06,-0.001065,0.0,-0.0,-0.0,3.032258,0.327388,0.322462,0.327388,0.332216,,,,,,
1078148,0.002733,-0.025841,0.053172,-0.001037,3e-06,-0.001065,0.0,-0.0,-0.0,3.032258,0.327388,0.318046,0.327388,0.336382,,,,,,
1078168,0.002734,-0.02584,0.05305,-0.001064,0.0,0.0,0.0,-0.0,-0.0,3.032258,0.327388,0.318101,0.327388,0.336331,,,,,,
1078188,0.002616,-0.025715,0.053048,-0.001064,-0.001064,-3e-06,0.0,-0.0,-0.0,3.032258,0.327388,0.31816,0.327388,0.336277,,,,,,
1078208,0.002492,-0.025712,0.053169,-0.001064,-0.001064,-3e-06,0.0,-0.0,-0.0,3.032258,0.327388,0.322558,0.327388,0.332123,,,,,,
1078228,0.002367,-0.025831,0.053167,-0.001037,3e-06,-0.001065,0.0,-0.0,-0.0,3.032258,0.327388,0.322607,0.327388,0.332076,,,,,,
1078248,0.002612,-0.025715,0.053292,-0.001037,3e-06,-0.001065,0.0,-0.0,-0.0,3.032258,0.327388,0.322768,0.327388,0.331922,,,,,,
1078268,0.002616,-0.025593,0.053292,2.7e-05,3e-06,-0.001065,0.0,-0.0,-0.0,3.032258,0.327388,0.322821,0.327388,0.331871,,,,,,
1078288,0.002614,-0.025715,0.05317,2.7e-05,-0.001061,-0.001067,0.0,-0.0,-0.0,3.032258,0.327388,0.31841,0.327388,0.336044,,,,,,
1078308,0.002489,-0.025834,0.053169,0.0,-0.001064,-3e-06,0.0,-0.0,-0.0,3.032258,0.327388,0.318224,0.327388,0.336217,,,,,,
1078328,0.00249,-0.025834,0.053047,-0.001064,-0.001064,-3e-06,0.0,-0.0,-0.0,3.032258,0.327388,0.318275,0.327388,0.336169,,,,,,
1078348,0.002492,-0.025712,0.053169,-0.001064,-0.001064,-3e-06,0.0,-0.0,-0.0,3.032258,0.327388,0.318325,0.327388,0.336123,,,,,,
1078368,0.002245,-0.025828,0.053166,-0.001064,-0.001064,-2e-06,0.0,-0.0,-0.0,3.032258,0.327388,0.318136,0.327388,0.336298,,,,,,
1078388,0.002119,-0.025946,0.053165,-0.001037,2e-06,-0.001065,0.0,-0.0,-0.0,3.032258,0.327388,0.318181,0.327388,0.336257,,,,,,
1078408,0.002241,-0.02595,0.053166,-0.001037,2e-06,-0.001065,0.0,-0.0,-0.0,3.032258,0.327388,0.322918,0.327388,0.331777,,,,,,
1078428,0.002241,-0.02595,0.053166,-0.001037,2e-06,-0.001065,0.0,-0.0,-0.0,3.032258,0.327388,0.322963,0.327388,0.331734,,,,,,
1078448,0.002363,-0.025953,0.053168,2.8e-05,-0.001062,-0.001067,0.0,-0.0,-0.0,3.032258,0.327388,0.323121,0.327388,0.331581,,,,,,
1078468,0.002367,-0.025831,0.053167,-0.001037,-0.001062,-0.001067,0.0,-0.0,-0.0,3.032258,0.327388,0.323052,0.327388,0.331648,,,,,,
1078488,0.002367,-0.025831,0.053167,-0.001037,-0.001062,-0.001067,0.0,-0.0,-0.0,3.032258,0.327388,0.318524,0.327388,0.335938,,,,,,
1078508,0.002119,-0.025946,0.053165,-0.001037,2e-06,-0.001065,0.0,-0.0,-0.0,3.032258,0.327388,0.318335,0.327388,0.336114,,,,,,
1078528,0.002116,-0.026068,0.053165,-0.001036,2e-06,-0.001065,0.0,-0.0,-0.0,3.032258,0.327388,0.318375,0.327388,0.336077,,,,,,
1078548,0.001994,-0.026065,0.053163,0.0,0.0,0.0,0.0,-0.0,-0.0,3.032258,0.327388,0.31842,0.327388,0.336035,,,,,,
1078568,0.001991,-0.026187,0.053163,0.0,-0.001064,-2e-06,0.0,-0.0,-0.0,3.032258,0.327388,0.323031,0.327388,0.331668,,,,,,
1078588,0.001997,-0.025943,0.053163,0.0,-0.001064,-2e-06,0.0,-0.0,-0.0,3.032258,0.327388,0.31838,0.327388,0.336072,,,,,,
1078608,0.001994,-0.026065,0.053163,-0.001064,-0.001064,-2e-06,0.0,-0.0,-0.0,3.032258,0.327388,0.318538,0.327388,0.335925,,,,,,
1078628,0.001996,-0.025943,0.053285,-0.001037,-0.001062,-0.001067,0.0,-0.0,-0.0,3.032258,0.327388,0.323035,0.327388,0.331664,,,,,,
1078648,0.001996,-0.025943,0.053285,-0.001037,2e-06,-0.001065,0.0,-0.0,-0.0,3.032258,0.327388,0.322961,0.327388,0.331735,,,,,,
1078668,0.001752,-0.025937,0.053282,-0.001037,2e-06,-0.001065,0.0,-0.0,-0.0,3.032258,0.327388,0.318305,0.327388,0.336142,,,,,,
1078688,0.00163,-0.025933,0.05328,-0.001064,-0.001064,-2e-06,0.0,-0.0,-0.0,3.032258,0.327388,0.318344,0.327388,0.336105,,,,,,
1078708,0.001623,-0.026178,0.05328,-0.001064,0.0,0.0,0.0,-0.0,-0.0,3.032258,0.327388,0.318372,0.327388,0.33608,,,,,,
1078728,0.001626,-0.026055,0.05328,-0.001036,2e-06,-0.001065,0.0,-0.0,-0.0,3.032258,0.327388,0.322982,0.327388,0.331715,,,,,,
1078748,0.001628,-0.026055,0.053158,-0.001036,-0.001062,-0.001066,0.0,-0.0,-0.0,3.032258,0.327388,0.322896,0.327388,0.331799,,,,,,
1078768,0.001503,-0.026174,0.053157,2.8e-05,-0.001063,-0.001066,0.0,-0.0,-0.0,3.032258,0.327388,0.318229,0.327388,0.336212,,,,,,
1078788,0.001386,-0.026049,0.053033,2.8e-05,-0.001063,-0.001066,0.0,-0.0,-0.0,3.032258,0.327388,0.318149,0.327388,0.336287,,,,,,
1078808,0.00163,-0.026055,0.053037,-0.001064,0.0,0.0,0.0,-0.0,-0.0,3.032258,0.327388,0.318411,0.327388,0.336043,,,,,,
1078828,0.001512,-0.02593,0.052913,-0.001064,0.0,0.0,0.0,-0.0,-0.0,3.032258,0.327388,0.323027,0.327388,0.331672,,,,,,
1078848,0.001387,-0.026049,0.052911,-0.001064,-0.001064,-1e-06,0.0,-0.0,-0.0,3.032258,0.327388,0.318361,0.327388,0.33609,,,,,,
1078868,0.001386,-0.026049,0.053033,-0.001064,-0.001064,-1e-06,0.0,-0.0,-0.0,3.032258,0.327388,0.318387,0.327388,0.336065,,,,,,
1078888,0.001142,-0.026042,0.05303,-0.001036,-0.001063,-0.001066,0.0,-0.0,-0.0,3.032258,0.327388,0.318182,0.327388,0.336256,,,,,,
1078908,0.001018,-0.026161,0.052907,-0.001036,1e-06,-0.001065,0.0,-0.0,-0.0,3.032258,0.327388,0.317966,0.327388,0.336456,,,,,,
1078928,0.001018,-0.026161,0.052907,-0.001036,1e-06,-0.001065,0.0,-0.0,-0.0,3.032258,0.327388,0.317986,0.327388,0.336438,,,,,,
1078948,0.001016,-0.026283,0.052785,0.0,0.0,0.0,0.0,-0.0,-0.0,3.032258,0.327388,0.318008,0.327388,0.336418,,,,,,
1078968,0.00114,-0.026286,0.052665,0.0,-0.001064,-1e-06,0.0,-0.0,-0.0,3.032258,0.327388,0.322725,0.327388,0.331963,,,,,,
1078988,0.001145,-0.026164,0.052543,0.0,-0.001064,-1e-06,0.0,-0.0,-0.0,3.032258,0.327388,0.322749,0.327388,0.33194,,,,,,
1079008,0.001389,-0.026171,0.052546,0.0,-0.001064,-1e-06,0.0,-0.0,-0.0,3.032258,0.327388,0.323002,0.327388,0.331696,,,,,,
1079028,0.001389,-0.026171,0.052546,-0.001036,1e-06,-0.001065,0.0,-0.0,-0.0,3.032258,0.327388,0.318453,0.327388,0.336005,,,,,,
1079048,0.001268,-0.026168,0.052422,-0.001036,1e-06,-0.001065,0.0,-0.0,-0.0,3.032258,0.327388,0.318485,0.327388,0.335975,,,,,,
1079068,0.000907,-0.026034,0.052286,-0.001036,-0.001063,-0.001066,0.0,-0.0,-0.0,3.032258,0.327388,0.318043,0.327388,0.336385,,,,,,
1079088,0.000658,-0.026272,0.052161,-0.001064,-0.001064,-1e-06,0.0,-0.0,-0.0,3.032258,0.327388,0.317824,0.327388,0.336588,,,,,,
1079108,0.000782,-0.026275,0.052041,0.0,0.0,0.0,0.0,-0.0,-0.0,3.032258,0.327388,0.317957,0.327388,0.336465,,,,,,
1079128,0.000904,-0.026278,0.052042,-2.8e-05,-0.001065,0.001064,0.0,-0.0,-0.0,3.032258,0.327388,0.32256,0.327388,0.332122,,,,,,
1079148,0.001029,-0.026159,0.052044,0.0,-0.001064,-1e-06,0.0,-0.0,-0.0,3.032258,0.327388,0.318107,0.327388,0.336326,,,,,,
1079168,0.000904,-0.026278,0.052042,-0.001036,-0.001063,-0.001066,0.0,-0.0,-0.0,3.032258,0.327388,0.32305,0.327388,0.331649,,,,,,
1079188,0.000782,-0.026275,0.052041,-0.001036,1e-06,-0.001065,0.0,-0.0,-0.0,3.032258,0.327388,0.322729,0.327388,0.331959,,,,,,
1079208,0.000904,-0.026278,0.052042,-0.001036,1e-06,-0.001065,0.0,-0.0,-0.0,3.032258,0.327388,0.318282,0.327388,0.336163,,,,,,
1079228,0.000785,-0.026153,0.052041,-0.001036,1e-06,-0.001065,0.0,-0.0,-0.0,3.032258,0.327388,0.318185,0.327388,0.336253,,,,,,
1079248,0.00066,-0.026272,0.052039,2.8e-05,-0.001064,-0.001065,0.0,-0.0,-0.0,3.032258,0.327388,0.317838,0.327388,0.336575,,,,,,
1079268,0.000663,-0.02615,0.052039,2.8e-05,-0.001064,-0.001065,0.0,-0.0,-0.0,3.032258,0.327388,0.32244,0.327388,0.332237,,,,,,
1079288,0.000905,-0.026278,0.051921,0.0,-0.001064,-1e-06,0.0,-0.0,-0.0,3.032258,0.327388,0.322801,0.327388,0.33189,,,,,,
1079308,0.001148,-0.026285,0.052046,2.8e-05,1e-06,-0.001065,0.0,-0.0,-0.0,3.032258,0.327388,0.323164,0.327388,0.33154,,,,,,
1079328,0.001142,-0.026529,0.052046,2.8e-05,1e-06,-0.001065,0.0,-0.0,-0.0,3.032258,0.327388,0.31861,0.327388,0.335858,,,,,,
1079348,0.001145,-0.026407,0.052046,-0.001036,1e-06,-0.001065,0.0,-0.0,-0.0,3.032258,0.327388,0.31875,0.327388,0.335728,,,,,,
1079368,0.000896,-0.026522,0.052165,-0.001064,0.0,0.0,0.0,-0.0,-0.0,3.032258,0.327388,0.318539,0.327388,0.335924,,,,,,
1079388,0.000774,-0.026521,0.052172,-0.001064,-0.001064,-1e-06,0.0,-0.0,-0.0,3.032258,0.327388,0.318198,0.327388,0.336241,,,,,,
1079408,0.000644,-0.026762,0.052293,-0.001064,-0.001064,-1e-06,0.0,-0.0,-0.0,3.032258,0.327388,0.318217,0.327388,0.336223,,,,,,
1079428,0.000525,-0.026636,0.052291,-0.001036,-0.001064,-0.001065,0.0,-0.0,-0.0,3.032258,0.327388,0.31799,0.327388,0.336434,,,,,,
1079448,0.000645,-0.026762,0.052171,2.9e-05,-0.001064,-0.001065,0.0,-0.0,-0.0,3.032258,0.327388,0.322819,0.327388,0.331872,,,,,,
1079468,0.000645,-0.026762,0.052171,2.8e-05,1e-06,-0.001065,0.0,-0.0,-0.0,3.032258,0.327388,0.322946,0.327388,0.33175,,,,,,
1079488,0.00089,-0.026768,0.052174,-0.001064,0.0,0.0,0.0,-0.0,-0.0,3.032258,0.327388,0.323187,0.327388,0.331517,,,,,,
1079508,0.00089,-0.026768,0.052174,-0.001064,0.0,0.0,0.0,-0.0,-0.0,3.032258,0.327388,0.31852,0.327388,0.335942,,,,,,
1079528,0.000649,-0.02664,0.052171,-0.001064,0.0,0.0,0.0,-0.0,-0.0,3.032258,0.327388,0.318061,0.327388,0.336368,,,,,,
1079548,0.000527,-0.026636,0.052169,-0.001036,1e-06,-0.001065,0.0,-0.0,-0.0,3.032258,0.327388,0.318076,0.327388,0.336354,,,,,,
1079568,0.000279,-0.026752,0.052166,-0.001036,0.0,-0.001065,0.0,-0.0,-0.0,3.032258,0.327388,0.322665,0.327388,0.33202,,,,,,
1079588,0.000401,-0.026755,0.052168,-0.001036,0.0,-0.001065,0.0,-0.0,-0.0,3.032258,0.327388,0.322794,0.327388,0.331896,,,,,,
1079608,0.000645,-0.026762,0.052171,2.8e-05,1e-06,-0.001065,0.0,-0.0,-0.0,3.032258,0.327388,0.318337,0.327388,0.336112,,,,,,
1079628,0.000769,-0.026765,0.052051,0.0,-0.001064,-1e-06,0.0,-0.0,-0.0,3.032258,0.327388,0.323045,0.327388,0.331655,,,,,,
1079648,0.000769,-0.026763,0.052041,0.0,-0.001064,-1e-06,0.0,-0.0,-0.0,3.032258,0.327388,0.323054,0.327388,0.331646,,,,,,
1079668,0.000893,-0.026766,0.051921,-0.001064,-0.001064,-1e-06,0.0,-0.0,-0.0,3.032258,0.327388,0.318379,0.327388,0.336073,,,,,,
1079688,0.000771,-0.026763,0.051919,-0.001064,0.0,0.0,0.0,-0.0,-0.0,3.032258,0.327388,0.318276,0.327388,0.336169,,,,,,
1079708,0.000405,-0.026754,0.051914,-0.001036,0.0,-0.001065,0.0,-0.0,-0.0,3.032258,0.327388,0.318061,0.327388,0.336368,,,,,,
1079728,0.000157,-0.026869,0.051911,-0.001036,0.0,-0.001065,0.0,-0.0,-0.0,3.032258,0.327388,0.318076,0.327388,0.336354,,,,,,
1079748,0.000284,-0.026751,0.051791,-0.001036,0.0,-0.001065,0.0,-0.0,-0.0,3.032258,0.327388,0.322781,0.327388,0.331909,,,,,,
1079768,0.000403,-0.026876,0.051793,0.0,0.0,0.0,0.0,-0.0,-0.0,3.032258,0.327388,0.322663,0.327388,0.332023,,,,,,
1079788,0.000652,-0.02676,0.051674,0.0,0.0,0.0,0.0,-0.0,-0.0,3.032258,0.327388,0.322789,0.327388,0.331901,,,,,,
1079808,0.00053,-0.026757,0.051672,-0.001064,-0.001064,-1e-06,0.0,-0.0,-0.0,3.032258,0.327388,0.322801,0.327388,0.331889,,,,,,
1079828,0.000533,-0.026635,0.051672,-0.001036,-0.001064,-0.001065,0.0,-0.0,-0.0,3.032258,0.327388,0.31835,0.327388,0.3361,,,,,,
1079848,0.000283,-0.026873,0.051669,-0.001036,0.0,-0.001065,0.0,-0.0,-0.0,3.032258,0.327388,0.318125,0.327388,0.336309,,,,,,
1079868,4e-05,-0.026866,0.051544,-0.001036,0.0,-0.001065,0.0,-0.0,-0.0,3.032258,0.327388,0.318024,0.327388,0.336403,,,,,,
1079888,-8e-05,-0.026863,0.05142,2.9e-05,-0.0,-0.001065,0.0,-0.0,-0.0,3.032258,0.327388,0.317908,0.327388,0.336509,,,,,,
1079908,-0.000203,-0.026982,0.051297,-0.0,-0.001064,0.0,0.0,-0.0,-0.0,3.032258,0.327388,0.317664,0.327388,0.336735,,,,,,
1079928,4.1e-05,-0.026988,0.0513,-0.001093,-0.001064,0.001065,0.0,-0.0,-0.0,3.032258,0.327388,0.322135,0.327388,0.332529,,,,,,
1079948,0.000161,-0.026992,0.051424,0.0,-0.001064,-0.0,0.0,-0.0,-0.0,3.032258,0.327388,0.322488,0.327388,0.33219,,,,,,
1079968,3.9e-05,-0.026988,0.051422,2.9e-05,-0.001064,-0.001065,0.0,-0.0,-0.0,3.032258,0.327388,0.322606,0.327388,0.332077,,,,,,
1079988,0.000162,-0.02687,0.051546,-0.001036,0.0,-0.001065,0.0,-0.0,-0.0,3.032258,0.327388,0.322723,0.327388,0.331964,,,,,,
1080008,0.000284,-0.026873,0.051547,-0.001036,0.0,-0.001065,0.0,-0.0,-0.0,3.032258,0.327388,0.318027,0.327388,0.3364,,,,,,
1080028,0.000162,-0.02687,0.051546,-0.001036,0.0,-0.001065,0.0,-0.0,-0.0,3.032258,0.327388,0.31791,0.327388,0.336508,,,,,,
1080048,-8.6e-05,-0.026985,0.051664,2.9e-05,-0.0,-0.001065,0.0,-0.0,-0.0,3.032258,0.327388,0.317911,0.327388,0.336507,,,,,,
1080068,-8.6e-05,-0.026985,0.051664,-0.0,-0.001064,0.0,0.0,-0.0,-0.0,3.032258,0.327388,0.317787,0.327388,0.336622,,,,,,
1080088,0.000156,-0.026991,0.051789,0.0,-0.001064,-0.0,0.0,-0.0,-0.0,3.032258,0.327388,0.322262,0.327388,0.332407,,,,,,
1080108,0.000276,-0.026996,0.051922,2.9e-05,-0.001064,-0.001065,0.0,-0.0,-0.0,3.032258,0.327388,0.322499,0.327388,0.33218,,,,,,
1080128,0.000278,-0.026874,0.052044,2.9e-05,-0.001064,-0.001065,0.0,-0.0,-0.0,3.032258,0.327388,0.322731,0.327388,0.331957,,,,,,
1080148,0.000156,-0.026871,0.052043,-0.001064,-0.001064,-0.0,0.0,-0.0,-0.0,3.032258,0.327388,0.318387,0.327388,0.336065,,,,,,
1080168,0.000159,-0.026749,0.052043,-0.001064,-0.001064,-0.0,0.0,-0.0,-0.0,3.032258,0.327388,0.318047,0.327388,0.336381,,,,,,
1080188,-8.3e-05,-0.026741,0.051908,-0.001064,0.0,0.0,0.0,-0.0,-0.0,3.032258,0.327388,0.317578,0.327388,0.336815,,,,,,
1080208,-0.000329,-0.026857,0.051783,-0.001064,-0.001064,0.0,0.0,-0.0,-0.0,3.032258,0.327388,0.317339,0.327388,0.337036,,,,,,
1080228,-0.000573,-0.02685,0.05178,-0.001064,-0.001064,1e-06,0.0,-0.0,-0.0,3.032258,0.327388,0.317446,0.327388,0.336937,,,,,,
1080248,-0.000574,-0.026973,0.051658,-0.001064,-0.001064,1e-06,0.0,-0.0,-0.0,3.032258,0.327388,0.317322,0.327388,0.337052,,,,,,
1080268,-0.000451,-0.026976,0.051537,-0.001036,-0.0,-0.001065,0.0,-0.0,-0.0,3.032258,0.327388,0.317322,0.327388,0.337051,,,,,,
1080288,-0.000448,-0.026854,0.051537,-0.001064,0.0,0.0,0.0,-0.0,-0.0,3.032258,0.327388,0.317316,0.327388,0.337056,,,,,,
1080308,-0.000446,-0.026854,0.051415,-0.001064,0.0,0.0,0.0,-0.0,-0.0,3.032258,0.327388,0.321894,0.327388,0.33276,,,,,,
1080328,-0.000441,-0.026732,0.051294,0.0,0.0,0.0,0.0,-0.0,-0.0,3.032258,0.327388,0.32189,0.327388,0.332764,,,,,,
1080348,-0.000443,-0.026854,0.051172,-0.001064,0.0,0.0,0.0,-0.0,-0.0,3.032258,0.327388,0.321768,0.327388,0.33288,,,,,,
1080368,-0.000443,-0.026854,0.051172,-0.001064,0.0,0.0,0.0,-0.0,-0.0,3.032258,0.327388,0.317155,0.327388,0.337205,,,,,,
1080388,-0.00056,-0.026729,0.051048,-0.001036,-0.001065,-0.001064,0.0,-0.0,-0.0,3.032258,0.327388,0.317144,0.327388,0.337215,,,,,,
1080408,-0.000563,-0.026851,0.051048,-0.001036,-0.001065,-0.001064,0.0,-0.0,-0.0,3.032258,0.327388,0.317138,0.327388,0.337221,,,,,,
1080428,-0.000687,-0.02697,0.050925,2.9e-05,-0.001065,-0.001064,0.0,-0.0,-0.0,3.032258,0.327388,0.317251,0.327388,0.337117,,,,,,
1080448,-0.000682,-0.026848,0.050803,0.0,0.0,0.0,0.0,-0.0,-0.0,3.032258,0.327388,0.317355,0.327388,0.337021,,,,,,
1080468,-0.000555,-0.026729,0.050682,-0.0,-0.001064,1e-06,0.0,-0.0,-0.0,3.032258,0.327388,0.317219,0.327388,0.337146,,,,,,
1080488,-0.000439,-0.026976,0.050684,-0.001064,0.0,0.0,0.0,-0.0,-0.0,3.032258,0.327388,0.316975,0.327388,0.33737,,,,,,
1080508,-0.000439,-0.026976,0.050684,-0.001064,-0.001064,0.0,0.0,-0.0,-0.0,3.032258,0.327388,0.316848,0.327388,0.337487,,,,,,
1080528,-0.000807,-0.027089,0.050557,-0.001064,-0.001064,1e-06,0.0,-0.0,-0.0,3.032258,0.327388,0.317067,0.327388,0.337286,,,,,,
1080548,-0.000926,-0.026964,0.050556,-0.001064,-0.001064,1e-06,0.0,-0.0,-0.0,3.032258,0.327388,0.31705,0.327388,0.337301,,,,,,
1080568,-0.000927,-0.026964,0.050677,-0.001036,-1e-06,-0.001065,0.0,-0.0,-0.0,3.032258,0.327388,0.316933,0.327388,0.337409,,,,,,
1080588,-0.00068,-0.026848,0.050681,-0.001036,-1e-06,-0.001065,0.0,-0.0,-0.0,3.032258,0.327388,0.321409,0.327388,0.333223,,,,,,
1080608,-0.000798,-0.026723,0.050557,0.0,0.0,0.0,0.0,-0.0,-0.0,3.032258,0.327388,0.321502,0.327388,0.333134,,,,,,
1080628,-0.000679,-0.026848,0.050559,-0.0,-0.001064,1e-06,0.0,-0.0,-0.0,3.032258,0.327388,0.321599,0.327388,0.333042,,,,,,
1080648,-0.000564,-0.027095,0.050682,2.9e-05,-1e-06,-0.001065,0.0,-0.0,-0.0,3.032258,0.327388,0.316861,0.327388,0.337475,,,,,,
1080668,-0.000442,-0.027098,0.050684,-0.001035,-0.0,-0.001065,0.0,-0.0,-0.0,3.032258,0.327388,0.316845,0.327388,0.337489,,,,,,
1080688,-0.00069,-0.027214,0.050681,-0.001035,-0.001065,-0.001064,0.0,-0.0,-0.0,3.032258,0.327388,0.316714,0.327388,0.33761,,,,,,
1080708,-0.000812,-0.027211,0.050679,-0.001035,-0.001065,-0.001064,0.0,-0.0,-0.0,3.032258,0.327388,0.316816,0.327388,0.337516,,,,,,
1080728,-0.000935,-0.027208,0.050799,-0.001035,-0.001065,-0.001064,0.0,-0.0,-0.0,3.032258,0.327388,0.321535,0.327388,0.333103,,,,,,
1080748,-0.000566,-0.027095,0.050804,2.9e-05,-1e-06,-0.001065,0.0,-0.0,-0.0,3.032258,0.327388,0.321518,0.327388,0.333119,,,,,,
1080768,-0.000563,-0.026973,0.050804,0.0,0.0,0.0,0.0,-0.0,-0.0,3.032258,0.327388,0.321621,0.327388,0.333021,,,,,,
1080788,-0.000566,-0.027095,0.050804,-0.0,-0.001064,1e-06,0.0,-0.0,-0.0,3.032258,0.327388,0.321483,0.327388,0.333152,,,,,,
1080808,-0.000446,-0.027098,0.050928,-0.001064,-0.001064,0.0,0.0,-0.0,-0.0,3.032258,0.327388,0.316749,0.327388,0.337578,,,,,,
1080828,-0.000572,-0.027217,0.051048,-0.001035,-0.001065,-0.001064,0.0,-0.0,-0.0,3.032258,0.327388,0.316977,0.327388,0.337369,,,,,,
1080848,-0.000817,-0.027211,0.051045,-0.001035,-0.001065,-0.001064,0.0,-0.0,-0.0,3.032258,0.327388,0.316728,0.327388,0.337597,,,,,,
1080868,-0.00094,-0.027208,0.051165,2.9e-05,-0.001065,-0.001064,0.0,-0.0,-0.0,3.032258,0.327388,0.316594,0.327388,0.33772,,,,,,
1080888,-0.000818,-0.027211,0.051167,2.9e-05,-1e-06,-0.001065,0.0,-0.0,-0.0,3.032258,0.327388,0.321303,0.327388,0.333324,,,,,,
1080908,-0.000568,-0.026973,0.05117,2.9e-05,-1e-06,-0.001065,0.0,-0.0,-0.0,3.032258,0.327388,0.321523,0.327388,0.333114,,,,,,
1080928,-0.000449,-0.027098,0.051172,0.0,0.0,0.0,0.0,-0.0,-0.0,3.032258,0.327388,0.321618,0.327388,0.333023,,,,,,
1080948,-0.000329,-0.027101,0.051295,-0.001064,0.0,0.0,0.0,-0.0,-0.0,3.032258,0.327388,0.321721,0.327388,0.332925,,,,,,
1080968,-0.000332,-0.027223,0.051295,-0.001035,-0.0,-0.001065,0.0,-0.0,-0.0,3.032258,0.327388,0.31688,0.327388,0.337458,,,,,,
1080988,-0.000581,-0.027339,0.051414,-0.001035,-1e-06,-0.001065,0.0,-0.0,-0.0,3.032258,0.327388,0.316747,0.327388,0.337579,,,,,,
1081008,-0.000947,-0.027329,0.051409,-0.001035,-0.001065,-0.001064,0.0,-0.0,-0.0,3.032258,0.327388,0.316628,0.327388,0.337689,,,,,,
1081028,-0.00107,-0.027326,0.051529,2.9e-05,-0.001065,-0.001063,0.0,-0.0,-0.0,3.032258,0.327388,0.316607,0.327388,0.337708,,,,,,
1081048,-0.00082,-0.027088,0.051532,2.9e-05,-1e-06,-0.001065,0.0,-0.0,-0.0,3.032258,0.327388,0.31659,0.327388,0.337723,,,,,,
1081068,-0.000454,-0.027098,0.051537,-0.0,-0.001064,0.0,0.0,-0.0,-0.0,3.032258,0.327388,0.321186,0.327388,0.333435,,,,,,
1081088,-0.00021,-0.027104,0.051541,-0.0,-0.001064,0.0,0.0,-0.0,-0.0,3.032258,0.327388,0.321394,0.327388,0.333237,,,,,,
1081108,-0.000337,-0.027223,0.051661,-0.001064,-0.001064,0.0,0.0,-0.0,-0.0,3.032258,0.327388,0.32174,0.327388,0.332907,,,,,,
1081128,-0.000582,-0.027217,0.05178,-0.001064,-0.001064,1e-06,0.0,-0.0,-0.0,3.032258,0.327388,0.317012,0.327388,0.337336,,,,,,
1081148,-0.000827,-0.027212,0.051786,-0.001035,-1e-06,-0.001065,0.0,-0.0,-0.0,3.032258,0.327388,0.316534,0.327388,0.337775,,,,,,
1081168,-0.001074,-0.027328,0.051782,-0.001035,-1e-06,-0.001065,0.0,-0.0,-0.0,3.032258,0.327388,0.31628,0.327388,0.338008,,,,,,
1081188,-0.001315,-0.027198,0.05177,2.9e-05,-0.001066,-0.001063,0.0,-0.0,-0.0,3.032258,0.327388,0.316021,0.327388,0.338244,,,,,,
1081208,-0.00131,-0.027076,0.051648,2.9e-05,-0.001066,-0.001063,0.0,-0.0,-0.0,3.032258,0.327388,0.320734,0.327388,0.333864,,,,,,
1081228,-0.001064,-0.027082,0.051529,0.0,0.0,0.0,0.0,-0.0,-0.0,3.032258,0.327388,0.320583,0.327388,0.334006,,,,,,
1081248,-0.000698,-0.027092,0.051534,0.0,0.0,0.0,0.0,-0.0,-0.0,3.032258,0.327388,0.320804,0.327388,0.333797,,,,,,
1081268,-0.000455,-0.02722,0.051416,-0.001064,0.0,0.0,0.0,-0.0,-0.0,3.032258,0.327388,0.320906,0.327388,0.333701,,,,,,
1081288,-0.000703,-0.027336,0.051412,-0.001064,-0.001064,1e-06,0.087266,-0.0,-0.0,3.032258,0.327388,0.204361,0.327388,0.406211,,,,,,
1081308,-0.001073,-0.02757,0.051285,-0.001035,-1e-06,-0.001065,0.087266,-0.0,-0.0,3.032258,0.327388,0.200178,0.327388,0.407727,,,,,,
1081328,-0.000589,-0.027462,0.051789,0.003251,-1e-06,-0.002129,0.087266,-0.0,-0.0,3.032258,0.327388,0.215158,0.327388,0.402009,,,,,,
1081348,0.001606,-0.027275,0.052428,0.007537,5e-06,-0.003194,0.087266,-0.0,-0.0,3.032258,0.327388,0.244276,0.327388,0.388472,,,,,,
1081368,0.005875,-0.027266,0.052851,0.012829,1.3e-05,-0.002129,0.087266,-0.0,-0.0,3.032258,0.327388,0.277501,0.327388,0.368605,,,,,,
1081388,0.01247,-0.027195,0.052935,0.018092,-0.001064,-1.3e-05,0.087266,-0.0,-0.0,3.032258,0.327388,0.30329,0.327388,0.34929,,,,,,
1081408,0.021629,-0.027311,0.052814,0.02232,-0.001087,0.001041,0.087266,-0.0,-0.0,3.032258,0.327388,0.333203,0.327388,0.32143,,,,,,
1081428,0.032635,-0.027098,0.052215,0.025484,-6.9e-05,0.002128,0.087266,-0.0,-0.0,3.032258,0.327388,0.353391,0.327388,0.298224,,,,,,
1081448,0.045094,-0.027517,0.051399,0.027611,-9.6e-05,0.002127,0.087266,-0.0,-0.0,3.032258,0.327388,0.373559,0.327388,0.26998,,,,,,
1081468,0.05829,-0.027814,0.050459,0.028673,0.000938,0.002188,0.087266,-0.0,-0.0,3.032258,0.327388,0.389948,0.327388,0.241423,,,,,,
1081488,0.071485,-0.028223,0.049647,0.026546,-0.000152,0.002124,0.087266,-0.0,-0.0,3.032258,0.327388,0.399263,0.327388,0.22168,,,,,,
1081508,0.083952,-0.028601,0.048831,0.023383,-8.9e-05,0.001061,0.087266,-0.0,-0.0,3.032258,0.327388,0.397561,0.327388,0.225542,,,,,,
1081528,0.094957,-0.028932,0.047996,0.019125,-0.000101,0.00106,0.087266,-0.0,-0.0,3.032258,0.327388,0.395245,0.327388,0.2306,,,,,,
1081548,0.103642,-0.029214,0.047381,0.014871,-0.001169,0.000949,0.087266,-0.0,-0.0,3.032258,0.327388,0.384554,0.327388,0.251547,,,,,,
1081568,0.109891,-0.028831,0.046815,0.009551,-0.001175,0.000941,0.087266,-0.0,-0.0,3.032258,0.327388,0.372036,0.327388,0.272337,,,,,,
1081588,0.113819,-0.028639,0.04624,0.00423,-0.001178,0.000937,0.087266,-0.0,-0.0,3.032258,0.327388,0.360691,0.327388,0.288688,,,,,,
1081608,0.115545,-0.028404,0.045761,-0.001064,0.0,0.0,0.087266,-0.0,-0.0,3.032258,0.327388,0.338234,0.327388,0.316032,,,,,,
1081628,0.115063,-0.028236,0.045133,-0.004287,-0.000122,0.001058,0.087266,-0.0,-0.0,3.032258,0.327388,0.320904,0.327388,0.333703,,,,,,
1081648,0.112867,-0.028399,0.044513,-0.006415,-0.00012,0.001058,0.087266,-0.0,-0.0,3.032258,0.327388,0.310577,0.327388,0.343102,,,,,,
1081668,0.109698,-0.028537,0.043762,-0.00748,-0.000117,0.001058,0.087266,-0.0,-0.0,3.032258,0.327388,0.298192,0.327388,0.353417,,,,,,
1081688,0.106276,-0.028793,0.043006,-0.00748,-0.000113,0.001059,0.087266,-0.0,-0.0,3.032258,0.327388,0.295335,0.327388,0.355659,,,,,,
1081708,0.103353,-0.028935,0.042132,-0.006416,-0.00011,0.001059,0.087266,-0.0,-0.0,3.032258,0.327388,0.29752,0.327388,0.353948,,,,,,
1081728,0.101166,-0.028603,0.041232,-0.004284,-0.001166,0.000952,0.087266,-0.0,-0.0,3.032258,0.327388,0.300006,0.327388,0.351967,,,,,,
1081748,0.099843,-0.028292,0.040354,-0.001091,-0.001165,0.000953,0.087266,-0.0,-0.0,3.032258,0.327388,0.313443,0.327388,0.340571,,,,,,
1081768,0.099736,-0.02788,0.039475,0.001008,-0.001271,0.002013,0.087266,-0.0,-0.0,3.032258,0.327388,0.322859,0.327388,0.331834,,,,,,
1081788,0.10073,-0.027856,0.038638,0.003166,-0.001166,0.000952,0.087266,-0.0,-0.0,3.032258,0.327388,0.332559,0.327388,0.322104,,,,,,
1081808,0.102568,-0.027966,0.037808,0.005292,-0.000109,0.001059,0.087266,-0.0,-0.0,3.032258,0.327388,0.338519,0.327388,0.315719,,,,,,
1081828,0.105024,-0.02808,0.036869,0.005291,-0.000112,0.001059,0.087266,-0.0,-0.0,3.032258,0.327388,0.345118,0.327388,0.308249,,,,,,
1081848,0.10797,-0.028329,0.03607,0.006325,-0.000229,0.002117,0.087266,-0.0,-0.0,3.032258,0.327388,0.351886,0.327388,0.300107,,,,,,
1081868,0.110792,-0.028443,0.035135,0.005261,-0.000235,0.002116,0.087266,-0.0,-0.0,3.032258,0.327388,0.354583,0.327388,0.296713,,,,,,
1081888,0.113491,-0.028559,0.034321,0.0042,-0.001298,0.001995,0.087266,-0.0,-0.0,3.032258,0.327388,0.357208,0.327388,0.293324,,,,,,
1081908,0.115826,-0.028431,0.033611,0.003166,-0.00118,0.000934,0.087266,-0.0,-0.0,3.032258,0.327388,0.355813,0.327388,0.295137,,,,,,
1081928,0.117425,-0.028168,0.03288,0.001038,-0.001182,0.000933,0.087266,-0.0,-0.0,3.032258,0.327388,0.349699,0.327388,0.302795,,,,,,
1081948,0.118053,-0.02802,0.032276,4e-06,-0.001057,-0.000125,0.087266,-0.0,-0.0,3.032258,0.327388,0.34687,0.327388,0.30619,,,,,,
1081968,0.117938,-0.028105,0.031673,-0.001064,0.0,0.0,0.087266,-0.0,-0.0,3.032258,0.327388,0.339389,0.327388,0.314758,,,,,,
1081988,0.117449,-0.028304,0.031068,-0.002128,0.0,0.0,0.087266,-0.0,-0.0,3.032258,0.327388,0.335019,0.327388,0.319508,,,,,,
1082008,0.116234,-0.028504,0.030583,-0.003193,0.0,0.0,0.087266,-0.0,-0.0,3.032258,0.327388,0.330351,0.327388,0.324389,,,,,,
1082028,0.114888,-0.028822,0.030098,-0.003193,0.0,0.0,0.087266,-0.0,-0.0,3.032258,0.327388,0.329804,0.327388,0.324947,,,,,,
1082048,0.113665,-0.029028,0.029728,-0.003193,0.0,0.0,0.087266,-0.0,-0.0,3.032258,0.327388,0.328893,0.327388,0.325874,,,,,,
1082068,0.112208,-0.028989,0.029347,-0.003189,-0.001058,-0.000119,0.087266,-0.0,-0.0,3.032258,0.327388,0.328397,0.327388,0.326375,,,,,,
1082088,0.111112,-0.028831,0.028958,-0.002156,-0.001176,0.00094,0.087266,-0.0,-0.0,3.032258,0.327388,0.332378,0.327388,0.322293,,,,,,
1082108,0.110638,-0.028318,0.02856,-0.002155,-0.001175,0.000941,0.087266,-0.0,-0.0,3.032258,0.327388,0.33196,0.327388,0.322728,,,,,,
1082128,0.110156,-0.028292,0.028189,-0.001091,-0.001175,0.000941,0.087266,-0.0,-0.0,3.032258,0.327388,0.336177,0.327388,0.318267,,,,,,
1082148,0.110031,-0.028275,0.027939,0.0,0.0,0.0,0.087266,-0.0,-0.0,3.032258,0.327388,0.33659,0.327388,0.317822,,,,,,
1082168,0.110156,-0.028379,0.027582,3e-05,0.000117,-0.001058,0.087266,-0.0,-0.0,3.032258,0.327388,0.341475,0.327388,0.312427,,,,,,
1082188,0.110531,-0.028493,0.027354,0.0,0.0,0.0,0.087266,-0.0,-0.0,3.032258,0.327388,0.342206,0.327388,0.311599,,,,,,
1082208,0.110774,-0.028726,0.027126,0.0,0.0,0.0,0.087266,-0.0,-0.0,3.032258,0.327388,0.342626,0.327388,0.311122,,,,,,
1082228,0.110778,-0.028713,0.026882,-0.001064,0.0,0.0,0.087266,-0.0,-0.0,3.032258,0.327388,0.338835,0.327388,0.315371,,,,,,
1082248,0.110409,-0.028578,0.026745,-0.001061,-0.001058,-0.000117,0.087266,-0.0,-0.0,3.032258,0.327388,0.339291,0.327388,0.314867,,,,,,
1082268,0.110049,-0.028324,0.026605,-0.002125,-0.001058,-0.000117,0.087266,-0.0,-0.0,3.032258,0.327388,0.339271,0.327388,0.31489,,,,,,
1082288,0.109318,-0.028431,0.026483,-0.002128,0.0,0.0,0.087266,-0.0,-0.0,3.032258,0.327388,0.335,0.327388,0.319529,,,,,,
1082308,0.108712,-0.028296,0.026347,-0.002128,0.0,0.0,0.087266,-0.0,-0.0,3.032258,0.327388,0.334517,0.327388,0.320043,,,,,,
1082328,0.107854,-0.028278,0.026212,-0.002128,0.0,0.0,0.087266,-0.0,-0.0,3.032258,0.327388,0.334161,0.327388,0.32042,,,,,,
1082348,0.107001,-0.028269,0.026203,-0.002099,0.000114,-0.001059,0.087266,-0.0,-0.0,3.032258,0.327388,0.334094,0.327388,0.320491,,,,,,
1082368,0.106147,-0.028497,0.026084,-0.002098,0.000113,-0.001059,0.087266,-0.0,-0.0,3.032258,0.327388,0.33381,0.327388,0.320791,,,,,,
1082388,0.105653,-0.02872,0.025844,-0.002125,-0.001058,-0.000112,0.087266,-0.0,-0.0,3.032258,0.327388,0.333391,0.327388,0.321232,,,,,,
1082408,0.105045,-0.028592,0.02583,-0.002125,-0.001058,-0.000112,0.087266,-0.0,-0.0,3.032258,0.327388,0.332968,0.327388,0.321676,,,,,,
1082428,0.104314,-0.028584,0.025822,-0.002125,-0.001058,-0.000111,0.087266,-0.0,-0.0,3.032258,0.327388,0.332998,0.327388,0.321645,,,,,,
1082448,0.103702,-0.028448,0.025683,-0.002125,-0.001059,-0.00011,0.087266,-0.0,-0.0,3.032258,0.327388,0.332883,0.327388,0.321765,,,,,,
1082468,0.103338,-0.028437,0.025557,-0.001064,0.0,0.0,0.087266,-0.0,-0.0,3.032258,0.327388,0.336835,0.327388,0.317556,,,,,,
1082488,0.103096,-0.028313,0.025548,-0.001034,0.00011,-0.001059,0.087266,-0.0,-0.0,3.032258,0.327388,0.336905,0.327388,0.31748,,,,,,
1082508,0.102854,-0.028304,0.025423,-0.001034,0.000109,-0.001059,0.087266,-0.0,-0.0,3.032258,0.327388,0.337088,0.327388,0.317282,,,,,,
1082528,0.102852,-0.028542,0.025314,-0.001031,-0.000949,-0.001168,0.087266,-0.0,-0.0,3.032258,0.327388,0.337376,0.327388,0.316969,,,,,,
1082548,0.102729,-0.028662,0.025319,-0.001061,-0.001059,-0.000109,0.087266,-0.0,-0.0,3.032258,0.327388,0.337445,0.327388,0.316894,,,,,,
1082568,0.102607,-0.028777,0.025202,-0.001064,0.0,0.0,0.087266,-0.0,-0.0,3.032258,0.327388,0.337849,0.327388,0.316453,,,,,,
1082588,0.102487,-0.028653,0.025194,-0.001064,0.0,0.0,0.087266,-0.0,-0.0,3.032258,0.327388,0.338037,0.327388,0.316248,,,,,,
1082608,0.102243,-0.028651,0.025191,-0.001064,0.0,0.0,0.087266,-0.0,-0.0,3.032258,0.327388,0.337873,0.327388,0.316427,,,,,,
1082628,0.102121,-0.02865,0.02519,-0.001034,0.000108,-0.001059,0.087266,-0.0,-0.0,3.032258,0.327388,0.337934,0.327388,0.316361,,,,,,
1082648,0.101634,-0.02876,0.025069,-0.001034,0.000108,-0.001059,0.087266,-0.0,-0.0,3.032258,0.327388,0.337977,0.327388,0.316313,,,,,,
1082668,0.101384,-0.028872,0.024946,-0.001064,0.0,0.0,0.087266,-0.0,-0.0,3.032258,0.327388,0.338132,0.327388,0.316143,,,,,,
1082688,0.101264,-0.028864,0.024823,-0.001061,-0.001059,-0.000108,0.087266,-0.0,-0.0,3.032258,0.327388,0.338172,0.327388,0.3161,,,,,,
1082708,0.10114,-0.028985,0.024827,-0.00103,-0.000951,-0.001167,0.087266,-0.0,-0.0,3.032258,0.327388,0.338216,0.327388,0.316051,,,,,,
1082728,0.10102,-0.028977,0.024704,-0.001061,-0.001059,-0.000107,0.087266,-0.0,-0.0,3.032258,0.327388,0.3385,0.327388,0.31574,,,,,,
1082748,0.100658,-0.028846,0.024572,3e-06,-0.001059,-0.000107,0.087266,-0.0,-0.0,3.032258,0.327388,0.338414,0.327388,0.315834,,,,,,
1082768,0.100784,-0.028835,0.024329,-0.001064,0.0,0.0,0.087266,-0.0,-0.0,3.032258,0.327388,0.338663,0.327388,0.31556,,,,,,
1082788,0.100786,-0.028828,0.024207,-0.001064,0.0,0.0,0.087266,-0.0,-0.0,3.032258,0.327388,0.338792,0.327388,0.315418,,,,,,
1082808,0.100669,-0.028809,0.02384,-0.001061,-0.001059,-0.000107,0.087266,-0.0,-0.0,3.032258,0.327388,0.338828,0.327388,0.315379,,,,,,
1082828,0.100548,-0.028923,0.023723,-0.001061,-0.001059,-0.000107,0.087266,-0.0,-0.0,3.032258,0.327388,0.339285,0.327388,0.314874,,,,,,
1082848,0.100429,-0.02891,0.023478,-0.001064,0.0,0.0,0.087266,-0.0,-0.0,3.032258,0.327388,0.339545,0.327388,0.314586,,,,,,
1082868,0.100552,-0.029143,0.023248,-0.001061,-0.001059,-0.000107,0.087266,-0.0,-0.0,3.032258,0.327388,0.339776,0.327388,0.31433,,,,,,
1082888,0.100682,-0.028766,0.022987,-0.001064,0.0,0.0,0.087266,-0.0,-0.0,3.032258,0.327388,0.339929,0.327388,0.314159,,,,,,
1082908,0.10044,-0.028873,0.022746,-0.001061,-0.001059,-0.000107,0.087266,-0.0,-0.0,3.032258,0.327388,0.340174,0.327388,0.313886,,,,,,
1082928,0.100322,-0.028744,0.022617,-0.001061,-0.001059,-0.000107,0.087266,-0.0,-0.0,3.032258,0.327388,0.340312,0.327388,0.313732,,,,,,
1082948,0.100204,-0.028731,0.022372,-0.001064,0.0,0.0,0.087266,-0.0,-0.0,3.032258,0.327388,0.340444,0.327388,0.313584,,,,,,
1082968,0.100082,-0.028846,0.022254,-0.001034,0.000106,-0.001059,0.087266,-0.0,-0.0,3.032258,0.327388,0.340563,0.327388,0.313452,,,,,,
1082988,0.099839,-0.028959,0.022136,-0.001061,-0.001059,-0.000106,0.087266,-0.0,-0.0,3.032258,0.327388,0.340479,0.327388,0.313546,,,,,,
1083008,0.099711,-0.029072,0.022014,-0.001061,-0.001059,-0.000106,0.087266,-0.0,-0.0,3.032258,0.327388,0.3405,0.327388,0.313523,,,,,,
1083028,0.099224,-0.029068,0.022009,-0.00103,-0.000954,-0.001165,0.087266,-0.0,-0.0,3.032258,0.327388,0.34074,0.327388,0.313253,,,,,,
1083048,0.098983,-0.028938,0.021878,-0.001061,-0.001059,-0.000105,0.087266,-0.0,-0.0,3.032258,0.327388,0.340746,0.327388,0.313246,,,,,,
1083068,0.098863,-0.028815,0.02187,-0.001061,-0.001059,-0.000105,0.087266,-0.0,-0.0,3.032258,0.327388,0.340627,0.327388,0.313381,,,,,,
1083088,0.098617,-0.028819,0.021989,-0.001034,0.000105,-0.001059,0.087266,-0.0,-0.0,3.032258,0.327388,0.340628,0.327388,0.313379,,,,,,
1083108,0.098495,-0.028818,0.021988,-0.001034,0.000105,-0.00106,0.087266,-0.0,-0.0,3.032258,0.327388,0.340634,0.327388,0.313372,,,,,,
1083128,0.098006,-0.028819,0.022104,-0.001034,0.000104,-0.00106,0.087266,-0.0,-0.0,3.032258,0.327388,0.340503,0.327388,0.313518,,,,,,
1083148,0.097513,-0.029065,0.022232,-0.00103,-0.000956,-0.001163,0.087266,-0.0,-0.0,3.032258,0.327388,0.340468,0.327388,0.313557,,,,,,
1083168,0.097393,-0.028942,0.022225,-0.001061,-0.001059,-0.000104,0.087266,-0.0,-0.0,3.032258,0.327388,0.340337,0.327388,0.313704,,,,,,
1083188,0.097016,-0.02907,0.022466,-0.00103,-0.000956,-0.001163,0.087266,-0.0,-0.0,3.032258,0.327388,0.340114,0.327388,0.313953,,,,,,
1083208,0.096404,-0.028954,0.022697,-0.001031,-0.000957,-0.001162,0.087266,-0.0,-0.0,3.032258,0.327388,0.340092,0.327388,0.313978,,,,,,
1083228,0.095914,-0.02884,0.022929,-0.001061,-0.001059,-0.000102,0.087266,-0.0,-0.0,3.032258,0.327388,0.339932,0.327388,0.314156,,,,,,
1083248,0.095423,-0.028847,0.023167,-0.002095,-0.000958,-0.001161,0.087266,-0.0,-0.0,3.032258,0.327388,0.339543,0.327388,0.314588,,,,,,
1083268,0.094811,-0.02873,0.023398,-0.002068,0.000201,-0.00212,0.087266,-0.0,-0.0,3.032258,0.327388,0.334756,0.327388,0.319788,,,,,,
1083288,0.094313,-0.028857,0.023638,-0.001031,-0.000959,-0.00116,0.087266,-0.0,-0.0,3.032258,0.327388,0.334346,0.327388,0.320224,,,,,,
1083308,0.093701,-0.028741,0.023869,-0.001031,-0.00096,-0.00116,0.087266,-0.0,-0.0,3.032258,0.327388,0.338339,0.327388,0.315917,,,,,,
1083328,0.093089,-0.028624,0.0241,-0.001031,-0.000961,-0.001159,0.087266,-0.0,-0.0,3.032258,0.327388,0.338132,0.327388,0.316144,,,,,,
1083348,0.092842,-0.028749,0.024225,-0.001034,9.9e-05,-0.00106,0.087266,-0.0,-0.0,3.032258,0.327388,0.337809,0.327388,0.316497,,,,,,
1083368,0.092716,-0.028759,0.024467,-0.001064,0.0,0.0,0.087266,-0.0,-0.0,3.032258,0.327388,0.337478,0.327388,0.316858,,,,,,
1083388,0.092347,-0.028767,0.024707,-0.001034,9.8e-05,-0.00106,0.087266,-0.0,-0.0,3.032258,0.327388,0.337356,0.327388,0.31699,,,,,,
1083408,0.0921,-0.028775,0.024948,-0.001031,-0.000962,-0.001158,0.087266,-0.0,-0.0,3.032258,0.327388,0.337675,0.327388,0.316643,,,,,,
1083428,0.09197,-0.028913,0.025318,-0.001061,-0.00106,-9.8e-05,0.087266,-0.0,-0.0,3.032258,0.327388,0.337426,0.327388,0.316914,,,,,,
1083448,0.09209,-0.028803,0.025557,-0.001031,-0.000962,-0.001158,0.087266,-0.0,-0.0,3.032258,0.327388,0.341733,0.327388,0.312136,,,,,,
1083468,0.092085,-0.02882,0.025923,-0.001003,0.000196,-0.00212,0.087266,-0.0,-0.0,3.032258,0.327388,0.341711,0.327388,0.31216,,,,,,
1083488,0.092081,-0.028831,0.026167,6.4e-05,-0.000864,-0.002218,0.087266,-0.0,-0.0,3.032258,0.327388,0.342016,0.327388,0.311815,,,,,,
1083508,0.092077,-0.028726,0.026527,-0.001031,-0.000962,-0.001158,0.087266,-0.0,-0.0,3.032258,0.327388,0.3421,0.327388,0.31172,,,,,,
1083528,0.09207,-0.028865,0.026899,-0.001,-0.000864,-0.002218,0.087266,-0.0,-0.0,3.032258,0.327388,0.337956,0.327388,0.316337,,,,,,
1083548,0.092188,-0.028761,0.02726,-0.001031,-0.000962,-0.001158,0.087266,-0.0,-0.0,3.032258,0.327388,0.338149,0.327388,0.316125,,,,,,
1083568,0.091937,-0.028781,0.027745,-0.001031,-0.000962,-0.001158,0.087266,-0.0,-0.0,3.032258,0.327388,0.337798,0.327388,0.316509,,,,,,
1083588,0.091562,-0.028921,0.028234,-0.001034,9.7e-05,-0.00106,0.087266,-0.0,-0.0,3.032258,0.327388,0.337782,0.327388,0.316526,,,,,,
1083608,0.091311,-0.02894,0.028719,-0.001034,9.7e-05,-0.00106,0.087266,-0.0,-0.0,3.032258,0.327388,0.337748,0.327388,0.316564,,,,,,
1083628,0.091056,-0.029086,0.029332,-0.001,-0.000866,-0.002217,0.087266,-0.0,-0.0,3.032258,0.327388,0.337372,0.327388,0.316974,,,,,,
1083648,0.091052,-0.028865,0.029808,-0.001003,0.000194,-0.002121,0.087266,-0.0,-0.0,3.032258,0.327388,0.337438,0.327388,0.316901,,,,,,
1083668,0.090801,-0.028884,0.030293,-0.001,-0.000867,-0.002217,0.087266,-0.0,-0.0,3.032258,0.327388,0.337504,0.327388,0.31683,,,,,,
1083688,0.09079,-0.029033,0.030908,-0.001031,-0.000963,-0.001157,0.087266,-0.0,-0.0,3.032258,0.327388,0.337466,0.327388,0.316871,,,,,,
1083708,0.090661,-0.028937,0.031511,6.4e-05,-0.000867,-0.002217,0.087266,-0.0,-0.0,3.032258,0.327388,0.337524,0.327388,0.316808,,,,,,
1083728,0.090651,-0.028965,0.032121,-0.001003,0.000193,-0.002121,0.087266,-0.0,-0.0,3.032258,0.327388,0.337701,0.327388,0.316615,,,,,,
1083748,0.090766,-0.028872,0.032726,3.1e-05,9.6e-05,-0.00106,0.087266,-0.0,-0.0,3.032258,0.327388,0.337524,0.327388,0.316808,,,,,,
1083768,0.090757,-0.028899,0.033335,-0.001003,0.000193,-0.002121,0.087266,-0.0,-0.0,3.032258,0.327388,0.33735,0.327388,0.316998,,,,,,
1083788,0.090501,-0.029045,0.033948,-0.001,-0.000868,-0.002217,0.087266,-0.0,-0.0,3.032258,0.327388,0.337625,0.327388,0.316697,,,,,,
1083808,0.090372,-0.028949,0.03455,-0.001,-0.000868,-0.002217,0.087266,-0.0,-0.0,3.032258,0.327388,0.337689,0.327388,0.316627,,,,,,
1083828,0.090483,-0.028984,0.035283,-0.001031,-0.000964,-0.001157,0.087266,-0.0,-0.0,3.032258,0.327388,0.337632,0.327388,0.31669,,,,,,
1083848,0.090228,-0.029013,0.036012,-0.001003,0.000192,-0.002121,0.087266,-0.0,-0.0,3.032258,0.327388,0.337561,0.327388,0.316767,,,,,,
1083868,0.090224,-0.028926,0.036744,-0.001,-0.000868,-0.002217,0.087266,-0.0,-0.0,3.032258,0.327388,0.337512,0.327388,0.316821,,,,,,
1083888,0.090089,-0.028962,0.037596,6.4e-05,-0.000868,-0.002216,0.087266,-0.0,-0.0,3.032258,0.327388,0.341795,0.327388,0.312066,,,,,,
1083908,0.090081,-0.028873,0.038322,9.5e-05,-0.000773,-0.003277,0.087266,-0.0,-0.0,3.032258,0.327388,0.341838,0.327388,0.312016,,,,,,
1083928,0.090193,-0.028902,0.038933,-0.001003,0.000192,-0.002121,0.087266,-0.0,-0.0,3.032258,0.327388,0.337635,0.327388,0.316686,,,,,,
1083948,0.09006,-0.028933,0.039663,6.4e-05,-0.000868,-0.002216,0.087266,-0.0,-0.0,3.032258,0.327388,0.337464,0.327388,0.316873,,,,,,
1083968,0.089924,-0.029085,0.040398,-0.001,-0.000869,-0.002216,0.087266,-0.0,-0.0,3.032258,0.327388,0.337504,0.327388,0.31683,,,,,,
1083988,0.089915,-0.029113,0.041008,-0.001,-0.000869,-0.002216,0.087266,-0.0,-0.0,3.032258,0.327388,0.341896,0.327388,0.311951,,,,,,
1084008,0.089903,-0.029145,0.041739,-0.001031,-0.000964,-0.001156,0.087266,-0.0,-0.0,3.032258,0.327388,0.341832,0.327388,0.312024,,,,,,
1084028,0.090021,-0.028931,0.042338,-0.001,-0.000869,-0.002216,0.087266,-0.0,-0.0,3.032258,0.327388,0.337749,0.327388,0.316563,,,,,,
1084048,0.08989,-0.028956,0.042946,-0.001003,0.000191,-0.002121,0.087266,-0.0,-0.0,3.032258,0.327388,0.337671,0.327388,0.316648,,,,,,
1084068,0.089758,-0.028981,0.043554,6.4e-05,-0.000869,-0.002216,0.087266,-0.0,-0.0,3.032258,0.327388,0.33748,0.327388,0.316856,,,,,,
1084088,0.089627,-0.029006,0.044162,6.4e-05,-0.000869,-0.002216,0.087266,-0.0,-0.0,3.032258,0.327388,0.337528,0.327388,0.316803,,,,,,
1084108,0.089498,-0.029154,0.044784,6.2e-05,0.00019,-0.002121,0.087266,-0.0,-0.0,3.032258,0.327388,0.337575,0.327388,0.316752,,,,,,
1084128,0.089615,-0.029056,0.045267,-0.001,-0.000869,-0.002216,0.087266,-0.0,-0.0,3.032258,0.327388,0.337622,0.327388,0.3167,,,,,,
1084148,0.089486,-0.029075,0.045753,3.4e-05,-0.000965,-0.001156,0.087266,-0.0,-0.0,3.032258,0.327388,0.337208,0.327388,0.317151,,,,,,
1084168,0.089476,-0.029103,0.046362,6.4e-05,-0.00087,-0.002216,0.087266,-0.0,-0.0,3.032258,0.327388,0.341815,0.327388,0.312043,,,,,,
1084188,0.08935,-0.029,0.046843,3.4e-05,-0.000965,-0.001155,0.087266,-0.0,-0.0,3.032258,0.327388,0.34185,0.327388,0.312003,,,,,,
1084208,0.089464,-0.029024,0.047331,-0.001031,-0.000965,-0.001156,0.087266,-0.0,-0.0,3.032258,0.327388,0.341772,0.327388,0.312091,,,,,,
1084228,0.089457,-0.028929,0.047935,-0.001003,0.00019,-0.002121,0.087266,-0.0,-0.0,3.032258,0.327388,0.341795,0.327388,0.312065,,,,,,
1084248,0.089447,-0.029073,0.048427,6.2e-05,0.00019,-0.002121,0.087266,-0.0,-0.0,3.032258,0.327388,0.337592,0.327388,0.316733,,,,,,
1084268,0.089317,-0.029092,0.048914,6.4e-05,-0.00087,-0.002216,0.087266,-0.0,-0.0,3.032258,0.327388,0.341747,0.327388,0.312119,,,,,,
1084288,0.089064,-0.029113,0.04952,6.4e-05,-0.000871,-0.002216,0.087266,-0.0,-0.0,3.032258,0.327388,0.337541,0.327388,0.316789,,,,,,
1084308,0.08918,-0.029132,0.049887,-0.001031,-0.000965,-0.001155,0.087266,-0.0,-0.0,3.032258,0.327388,0.337453,0.327388,0.316885,,,,,,
1084328,0.089179,-0.02891,0.050363,3.3e-05,-0.000965,-0.001155,0.087266,-0.0,-0.0,3.032258,0.327388,0.337276,0.327388,0.317078,,,,,,
1084348,0.089051,-0.029052,0.050864,3.1e-05,9.5e-05,-0.00106,0.087266,-0.0,-0.0,3.032258,0.327388,0.341774,0.327388,0.312089,,,,,,
1084368,0.089042,-0.029191,0.051235,-0.001031,-0.000965,-0.001155,0.087266,-0.0,-0.0,3.032258,0.327388,0.341905,0.327388,0.31194,,,,,,
1084388,0.08892,-0.029076,0.051472,-0.001061,-0.00106,-9.5e-05,0.087266,-0.0,-0.0,3.032258,0.327388,0.341604,0.327388,0.312281,,,,,,
1084408,0.088798,-0.029074,0.051471,-0.001033,9.4e-05,-0.00106,0.087266,-0.0,-0.0,3.032258,0.327388,0.337396,0.327388,0.316947,,,,,,
1084428,0.088808,-0.028819,0.051216,-0.001031,-0.000966,-0.001155,0.087266,-0.0,-0.0,3.032258,0.327388,0.337192,0.327388,0.317169,,,,,,
1084448,0.088681,-0.028925,0.050968,-0.001061,-0.00106,-9.4e-05,0.087266,-0.0,-0.0,3.032258,0.327388,0.336885,0.327388,0.317502,,,,,,
1084468,0.088448,-0.028665,0.050711,-0.001062,-0.00106,-9.4e-05,0.087266,-0.0,-0.0,3.032258,0.327388,0.33715,0.327388,0.317215,,,,,,
1084488,0.0882,-0.028898,0.050598,-0.001064,0.0,0.0,0.087266,-0.0,-0.0,3.032258,0.327388,0.337068,0.327388,0.317303,,,,,,
1084508,0.088328,-0.028768,0.05035,-0.001064,0.0,0.0,0.087266,-0.0,-0.0,3.032258,0.327388,0.336861,0.327388,0.317528,,,,,,
1084528,0.088325,-0.02889,0.050355,-0.001064,0.0,0.0,0.087266,-0.0,-0.0,3.032258,0.327388,0.336675,0.327388,0.31773,,,,,,
1084548,0.088078,-0.029006,0.050359,3.1e-05,9.4e-05,-0.001061,0.087266,-0.0,-0.0,3.032258,0.327388,0.336695,0.327388,0.317708,,,,,,
1084568,0.08808,-0.029001,0.050237,3e-06,-0.00106,-9.4e-05,0.087266,-0.0,-0.0,3.032258,0.327388,0.340945,0.327388,0.313024,,,,,,
1084588,0.087955,-0.02912,0.050241,3.4e-05,-0.000967,-0.001154,0.087266,-0.0,-0.0,3.032258,0.327388,0.340968,0.327388,0.312998,,,,,,
1084608,0.087956,-0.029003,0.050358,-0.001031,-0.000967,-0.001154,0.087266,-0.0,-0.0,3.032258,0.327388,0.336859,0.327388,0.31753,,,,,,
1084628,0.088078,-0.029006,0.050359,-0.001033,9.4e-05,-0.001061,0.087266,-0.0,-0.0,3.032258,0.327388,0.336644,0.327388,0.317763,,,,,,
1084648,0.087834,-0.028889,0.050595,-0.001031,-0.000967,-0.001154,0.087266,-0.0,-0.0,3.032258,0.327388,0.336665,0.327388,0.31774,,,,,,
1084668,0.08771,-0.028892,0.050715,3.3e-05,-0.000967,-0.001154,0.087266,-0.0,-0.0,3.032258,0.327388,0.341029,0.327388,0.31293,,,,,,
1084688,0.08795,-0.028908,0.050961,3.1e-05,9.3e-05,-0.001061,0.087266,-0.0,-0.0,3.032258,0.327388,0.336778,0.327388,0.317618,,,,,,
1084708,0.088067,-0.029038,0.051089,3e-06,-0.00106,-9.4e-05,0.087266,-0.0,-0.0,3.032258,0.327388,0.336677,0.327388,0.317728,,,,,,
1084728,0.087946,-0.028919,0.051205,3e-06,-0.00106,-9.4e-05,0.087266,-0.0,-0.0,3.032258,0.327388,0.336577,0.327388,0.317836,,,,,,
1084748,0.087702,-0.028913,0.051203,-0.001031,-0.000967,-0.001154,0.087266,-0.0,-0.0,3.032258,0.327388,0.336714,0.327388,0.317687,,,,,,
1084768,0.087589,-0.028661,0.051069,-0.001062,-0.00106,-9.3e-05,0.087266,-0.0,-0.0,3.032258,0.327388,0.340859,0.327388,0.31312,,,,,,
1084788,0.087592,-0.028539,0.051064,-0.001064,0.0,0.0,0.087266,-0.0,-0.0,3.032258,0.327388,0.340656,0.327388,0.313347,,,,,,
1084808,0.087473,-0.028414,0.051057,-0.001034,9.3e-05,-0.001061,0.087266,-0.0,-0.0,3.032258,0.327388,0.336416,0.327388,0.318009,,,,,,
1084828,0.087469,-0.028653,0.050946,3e-06,-0.00106,-9.3e-05,0.087266,-0.0,-0.0,3.032258,0.327388,0.34055,0.327388,0.313466,,,,,,
1084848,0.087591,-0.028656,0.050947,3.3e-05,-0.000967,-0.001154,0.087266,-0.0,-0.0,3.032258,0.327388,0.340667,0.327388,0.313335,,,,,,
1084868,0.087588,-0.028778,0.050952,3.1e-05,9.3e-05,-0.001061,0.087266,-0.0,-0.0,3.032258,0.327388,0.340783,0.327388,0.313205,,,,,,
1084888,0.087833,-0.028667,0.051071,3e-05,9.3e-05,-0.001061,0.087266,-0.0,-0.0,3.032258,0.327388,0.336764,0.327388,0.317633,,,,,,
1084908,0.087833,-0.028667,0.051071,-0.001031,-0.000967,-0.001154,0.087266,-0.0,-0.0,3.032258,0.327388,0.336542,0.327388,0.317873,,,,,,
1084928,0.087709,-0.028669,0.051192,-0.001031,-0.000967,-0.001154,0.087266,-0.0,-0.0,3.032258,0.327388,0.336549,0.327388,0.317866,,,,,,
1084948,0.087462,-0.028785,0.051195,-0.001062,-0.00106,-9.3e-05,0.087266,-0.0,-0.0,3.032258,0.327388,0.336572,0.327388,0.317841,,,,,,
1084968,0.08734,-0.028782,0.051194,-0.001064,0.0,0.0,0.087266,-0.0,-0.0,3.032258,0.327388,0.34049,0.327388,0.313534,,,,,,
1084988,0.08734,-0.028782,0.051194,0.0,0.0,0.0,0.087266,-0.0,-0.0,3.032258,0.327388,0.340605,0.327388,0.313404,,,,,,
1085008,0.087584,-0.028788,0.051196,0.0,0.0,0.0,0.087266,-0.0,-0.0,3.032258,0.327388,0.340713,0.327388,0.313284,,,,,,
1085028,0.087706,-0.028791,0.051197,3.3e-05,-0.000967,-0.001154,0.087266,-0.0,-0.0,3.032258,0.327388,0.340606,0.327388,0.313404,,,,,,
1085048,0.087584,-0.028788,0.051196,3.3e-05,-0.000967,-0.001154,0.087266,-0.0,-0.0,3.032258,0.327388,0.336686,0.327388,0.317717,,,,,,
1085068,0.087708,-0.028786,0.051075,-0.001031,-0.000967,-0.001154,0.087266,-0.0,-0.0,3.032258,0.327388,0.336815,0.327388,0.317578,,,,,,
1085088,0.087592,-0.028539,0.051064,-0.001062,-0.00106,-9.3e-05,0.087266,-0.0,-0.0,3.032258,0.327388,0.336487,0.327388,0.317933,,,,,,
1085108,0.087468,-0.028541,0.051184,-0.001064,0.0,0.0,0.087266,-0.0,-0.0,3.032258,0.327388,0.336391,0.327388,0.318037,,,,,,
1085128,0.087224,-0.028536,0.051182,-0.001064,0.0,0.0,0.087266,-0.0,-0.0,3.032258,0.327388,0.336391,0.327388,0.318037,,,,,,
1085148,0.087224,-0.028536,0.051182,3e-06,-0.00106,-9.3e-05,0.087266,-0.0,-0.0,3.032258,0.327388,0.340764,0.327388,0.313227,,,,,,
1085168,0.087466,-0.028547,0.051306,-0.001064,0.0,0.0,0.087266,-0.0,-0.0,3.032258,0.327388,0.340647,0.327388,0.313358,,,,,,
1085188,0.087592,-0.028428,0.051302,-0.001034,9.3e-05,-0.001061,0.087266,-0.0,-0.0,3.032258,0.327388,0.340757,0.327388,0.313234,,,,,,
1085208,0.08747,-0.028425,0.051301,-0.001031,-0.000967,-0.001154,0.087266,-0.0,-0.0,3.032258,0.327388,0.336392,0.327388,0.318035,,,,,,
1085228,0.087351,-0.0283,0.051294,-0.001032,-0.000967,-0.001153,0.087266,-0.0,-0.0,3.032258,0.327388,0.336408,0.327388,0.318018,,,,,,
1085248,0.087104,-0.028416,0.051298,-0.001031,-0.000968,-0.001153,0.087266,-0.0,-0.0,3.032258,0.327388,0.33641,0.327388,0.318016,,,,,,
1085268,0.087346,-0.028538,0.051183,-0.001064,0.0,0.0,0.087266,-0.0,-0.0,3.032258,0.327388,0.336413,0.327388,0.318012,,,,,,
1085288,0.08735,-0.028417,0.051178,0.0,0.0,0.0,0.087266,-0.0,-0.0,3.032258,0.327388,0.340346,0.327388,0.313694,,,,,,
1085308,0.087224,-0.028536,0.051182,3.3e-05,-0.000967,-0.001153,0.087266,-0.0,-0.0,3.032258,0.327388,0.340568,0.327388,0.313446,,,,,,
1085328,0.087478,-0.028176,0.051168,0.0,0.0,0.0,0.087266,-0.0,-0.0,3.032258,0.327388,0.340785,0.327388,0.313203,,,,,,
1085348,0.087597,-0.0283,0.051175,-0.001062,-0.00106,-9.3e-05,0.087266,-0.0,-0.0,3.032258,0.327388,0.34067,0.327388,0.313331,,,,,,
1085368,0.087473,-0.028303,0.051295,-0.001034,9.3e-05,-0.001061,0.087266,-0.0,-0.0,3.032258,0.327388,0.336412,0.327388,0.318013,,,,,,
1085388,0.08735,-0.028417,0.051178,-0.001034,9.3e-05,-0.001061,0.087266,-0.0,-0.0,3.032258,0.327388,0.336428,0.327388,0.317997,,,,,,
1085408,0.087231,-0.028292,0.051171,-0.001062,-0.00106,-9.3e-05,0.087266,-0.0,-0.0,3.032258,0.327388,0.336207,0.327388,0.318234,,,,,,
1085428,0.086982,-0.028413,0.051296,-0.001031,-0.000968,-0.001153,0.087266,-0.0,-0.0,3.032258,0.327388,0.336209,0.327388,0.318233,,,,,,
1085448,0.086985,-0.028291,0.051291,3.3e-05,-0.000968,-0.001153,0.087266,-0.0,-0.0,3.032258,0.327388,0.336329,0.327388,0.318103,,,,,,
1085468,0.087234,-0.02817,0.051166,3e-06,-0.00106,-9.3e-05,0.087266,-0.0,-0.0,3.032258,0.327388,0.336099,0.327388,0.318352,,,,,,
1085488,0.087234,-0.02817,0.051166,0.0,0.0,0.0,0.087266,-0.0,-0.0,3.032258,0.327388,0.33599,0.327388,0.318469,,,,,,
1085508,0.087231,-0.028292,0.051171,-0.001034,9.3e-05,-0.001061,0.087266,-0.0,-0.0,3.032258,0.327388,0.340462,0.327388,0.313565,,,,,,
1085528,0.086988,-0.028169,0.051286,-0.001032,-0.000968,-0.001153,0.087266,-0.0,-0.0,3.032258,0.327388,0.340472,0.327388,0.313554,,,,,,
1085548,0.086992,-0.028047,0.05128,-0.001034,9.2e-05,-0.001061,0.087266,-0.0,-0.0,3.032258,0.327388,0.336089,0.327388,0.318362,,,,,,
1085568,0.086992,-0.028047,0.05128,-0.001034,9.2e-05,-0.001061,0.087266,-0.0,-0.0,3.032258,0.327388,0.33597,0.327388,0.31849,,,,,,
1085588,0.087114,-0.02805,0.051281,-0.001062,-0.00106,-9.3e-05,0.087266,-0.0,-0.0,3.032258,0.327388,0.336083,0.327388,0.318369,,,,,,
1085608,0.086993,-0.028042,0.051159,3e-06,-0.00106,-9.3e-05,0.087266,-0.0,-0.0,3.032258,0.327388,0.33597,0.327388,0.31849,,,,,,
