time_ms,roll,pitch,yaw,reference_roll,reference_pitch,reference_yaw,reference_throttle,throttle_1,throttle_2,throttle_3,throttle_4,roll_predicted,pitch_predicted,yaw_predicted,roll_rate_predicted,pitch_rate_predicted,yaw_rate_predicted,value1,value2,value3,value4,value5,value6
330100,0.002612,-0.016248,0.009056,-0.0,-0.0,-0.0,3.0,0.3261,0.323962,0.3261,0.32822,0.0,-2917.199613,-0.0,-0.0,-14.312466,-0.0,0.001636,-0.01738,0.014944,-0.023912,-4e-06,0.000165
330120,0.002734,-0.016126,0.009179,0.0,-0.0,-0.0,3.0,0.3261,0.321148,0.3261,0.330952,0.0,-2917.487466,-0.0,-0.0,-14.521857,-0.0,0.001515,-0.01738,0.014947,0.048828,8e-06,0.000165
330140,0.002977,-0.01625,0.009181,0.0,-0.0,-0.0,3.0,0.3261,0.319659,0.3261,0.332373,-0.0,-2917.77931,-0.0,-0.0,-14.701492,-0.0,0.001515,-0.01738,0.01495,0.048727,-4e-06,0.000165
330160,0.003221,-0.016251,0.009183,0.0,-0.0,-0.0,3.0,0.3261,0.317243,0.3261,0.334642,-0.0,-2918.074429,-0.0,-0.0,-14.835778,-0.0,0.001392,-0.01738,0.014954,0.048936,8e-06,0.000164
330180,0.003099,-0.01625,0.009182,0.0,-0.0,-0.0,3.0,0.3261,0.315971,0.3261,0.33582,-0.0,-2918.371818,-0.0,-0.0,-14.912662,-0.0,0.001392,-0.01738,0.014957,0.04864,-4e-06,0.000176
330200,0.002978,-0.016128,0.009181,0.0,-0.0,-0.0,3.0,0.3261,0.313887,0.3261,0.337721,-0.0,-2918.670267,-0.0,-0.0,-14.925055,-0.0,0.001271,-0.017381,0.014961,0.024125,-4e-06,0.000175
330220,0.002855,-0.016249,0.00918,0.0,-0.0,-0.0,3.0,0.3261,0.317038,0.3261,0.334832,-0.0,-2918.968469,-0.0,-0.0,-14.871744,-0.0,0.001515,-0.017381,0.014964,-0.024603,-1.6e-05,0.000175
330240,0.002734,-0.016126,0.009179,0.0,-0.0,-0.0,3.0,0.3261,0.318695,0.3261,0.333284,-0.0,-2919.265136,-0.0,-0.0,-14.75758,-0.0,0.001637,-0.017381,0.014968,-0.072844,-1.6e-05,0.000162
330260,0.002489,-0.016247,0.009177,0.0,-0.0,-0.0,3.0,0.3261,0.319177,0.3261,0.332829,-0.0,-2919.559121,-0.0,-0.0,-14.592893,-0.0,0.001515,-0.017381,0.014971,-0.048541,-1.6e-05,0.000162
330280,0.002368,-0.016247,0.009054,0.0,-0.0,-0.0,3.0,0.3261,0.321651,0.3261,0.330469,-0.0,-2919.849518,-0.0,-0.0,-14.392263,-0.0,0.001514,-0.017381,0.014974,-0.048651,-1.6e-05,0.000174
330300,0.002367,-0.016369,0.009055,0.0,-0.0,-0.0,3.0,0.3261,0.320014,0.3261,0.332036,-0.0,-2920.135733,-0.0,-0.0,-14.172875,-0.0,0.001272,-0.017381,0.014978,0.024078,-4e-06,0.000174
330320,0.002366,-0.016613,0.009055,0.0,-0.0,-0.0,3.0,0.3261,0.316956,0.3261,0.334909,0.0,-2920.417527,-0.0,-0.0,-13.95278,-0.0,0.000905,-0.017381,0.014981,0.048404,-4e-06,0.000173
330340,0.002122,-0.01649,0.009175,0.0,-0.0,-0.0,3.0,0.3261,0.316059,0.3261,0.335738,0.0,-2920.695017,-0.0,-0.0,-13.749288,-0.0,0.000784,-0.017381,0.014984,-0.000294,2.1e-05,0.000185
330360,0.002,-0.016367,0.009174,0.0,-0.0,-0.0,3.0,0.3261,0.318185,0.3261,0.333763,-0.0,-2920.968656,-0.0,-0.0,-13.577686,-0.0,0.000661,-0.017381,0.014988,-0.024185,2.1e-05,0.000172
330380,0.001634,-0.016121,0.009293,0.0,-0.0,-0.0,3.0,0.3261,0.317656,0.3261,0.334257,-0.0,-2921.239177,-0.0,-0.0,-13.450317,-0.0,0.000538,-0.017382,0.014991,-0.04849,2.1e-05,0.000171
330400,0.00127,-0.015876,0.009167,0.0,-0.0,-0.0,3.0,0.3261,0.315487,0.3261,0.336264,-0.0,-2921.507538,-0.0,-0.0,-13.376001,-0.0,0.000172,-0.017382,0.014995,0.00024,9e-06,0.000159
330420,0.00127,-0.015876,0.009167,0.0,-0.0,-0.0,3.0,0.3261,0.316479,0.3261,0.335351,-0.0,-2921.774843,-0.0,-0.0,-13.359725,-0.0,4.9e-05,-0.017382,0.014998,0.024754,-3e-06,0.000158
330440,0.00127,-0.015876,0.009167,0.0,-0.0,-0.0,3.0,0.3261,0.318937,0.3261,0.333056,-0.0,-2922.042268,-0.0,-0.0,-13.402518,-0.0,4.8e-05,-0.017382,0.015001,0.000411,-2.8e-05,0.000158
330460,0.00127,-0.015998,0.009167,0.0,-0.0,-0.0,3.0,0.3261,0.319275,0.3261,0.332736,-0.0,-2922.310977,-0.0,-0.0,-13.50145,-0.0,-7.5e-05,-0.017382,0.015005,0.024601,-2.8e-05,0.00017
330480,0.001268,-0.016242,0.009168,0.0,-0.0,-0.0,3.0,0.3261,0.316433,0.3261,0.335393,-0.0,-2922.582048,-0.0,-0.0,-13.649743,-0.0,-0.000316,-0.017381,0.015008,0.048175,-2.8e-05,0.000182
330500,0.001388,-0.016487,0.009291,0.0,-0.0,-0.0,3.0,0.3261,0.314506,0.3261,0.33716,-0.0,-2922.856396,-0.0,-0.0,-13.837007,-0.0,-0.000437,-0.017381,0.015012,0.047862,-2.8e-05,0.000181
330520,0.001266,-0.016486,0.00929,0.0,-0.0,-0.0,3.0,0.3261,0.313465,0.3261,0.338103,-0.0,-2923.134703,-0.0,-0.0,-14.049669,-0.0,-0.000437,-0.017381,0.015016,-0.02484,-3e-06,0.000181
330540,0.001144,-0.016485,0.009289,0.0,-0.0,-0.0,3.0,0.3261,0.318252,0.3261,0.3337,0.0,-2923.417361,-0.0,-0.0,-14.271664,-0.0,-0.000194,-0.017381,0.015019,-0.048851,9e-06,0.00018
330560,0.000901,-0.01624,0.009287,0.0,-0.0,-0.0,3.0,0.3261,0.31842,0.3261,0.333542,0.0,-2923.704424,-0.0,-0.0,-14.485449,-0.0,-7.2e-05,-0.017381,0.015023,-0.048727,9e-06,0.00018
330580,0.000779,-0.01624,0.009286,0.0,-0.0,-0.0,3.0,0.3261,0.318858,0.3261,0.333131,-0.0,-2923.995596,-0.0,-0.0,-14.673352,-0.0,-7.2e-05,-0.017381,0.015026,-0.024303,2.1e-05,0.00018
330600,0.000901,-0.01624,0.009287,0.0,-0.0,-0.0,3.0,0.3261,0.32204,0.3261,0.330093,-0.0,-2924.290234,-0.0,-0.0,-14.819186,-0.0,4.7e-05,-0.017381,0.01503,-0.048315,-3e-06,0.000179
330620,0.000902,-0.016118,0.009287,0.0,-0.0,-0.0,3.0,0.3261,0.322414,0.3261,0.329731,-0.0,-2924.587392,-0.0,-0.0,-14.909935,-0.0,-7.5e-05,-0.017382,0.015034,-0.023799,9e-06,0.000179
330640,0.000902,-0.016118,0.009287,0.0,-0.0,-0.0,3.0,0.3261,0.320386,0.3261,0.331681,-0.0,-2924.885899,-0.0,-0.0,-14.93727,-0.0,-0.000319,-0.017381,0.015037,0.024616,-3e-06,0.000179
330660,0.000779,-0.016118,0.009408,0.0,-0.0,-0.0,3.0,0.3261,0.31758,0.3261,0.334328,-0.0,-2925.184457,-0.0,-0.0,-14.898599,-0.0,-0.000562,-0.017381,0.015041,0.048729,9e-06,0.000178
330680,0.000901,-0.016118,0.009409,0.0,-0.0,-0.0,3.0,0.3261,0.315209,0.3261,0.336518,-0.0,-2925.481762,-0.0,-0.0,-14.79743,-0.0,-0.000805,-0.017381,0.015044,0.04864,9e-06,0.000178
330700,0.000901,-0.016118,0.009409,0.0,-0.0,-0.0,3.0,0.3261,0.315461,0.3261,0.336288,-0.0,-2925.776625,-0.0,-0.0,-14.642958,-0.0,-0.000805,-0.017381,0.015048,0.048642,9e-06,0.000177
330720,0.00078,-0.015995,0.009286,0.0,-0.0,-0.0,3.0,0.3261,0.315407,0.3261,0.336337,-0.0,-2926.068079,-0.0,-0.0,-14.448955,-0.0,-0.000806,-0.017381,0.015052,0.024524,9e-06,0.000177
330740,0.00078,-0.016118,0.009286,0.0,-0.0,-0.0,3.0,0.3261,0.315166,0.3261,0.336558,-0.0,-2926.355454,-0.0,-0.0,-14.232198,-0.0,-0.000806,-0.017381,0.015055,-8.7e-05,-3e-06,0.000189
330760,0.00078,-0.016118,0.009286,0.0,-0.0,-0.0,3.0,0.3261,0.317633,0.3261,0.334279,0.0,-2926.63843,-0.0,-0.0,-14.010713,-0.0,-0.000685,-0.017381,0.015059,-0.024314,-3e-06,0.000188
330780,0.000658,-0.016117,0.009285,0.0,-0.0,-0.0,3.0,0.3261,0.316089,0.3261,0.335711,0.0,-2926.917047,-0.0,-0.0,-13.802126,-0.0,-0.000684,-0.017381,0.015063,-0.02463,-1.5e-05,0.000188
330800,0.000535,-0.016238,0.009284,0.0,-0.0,-0.0,3.0,0.3261,0.31714,0.3261,0.334738,-0.0,-2927.191684,-0.0,-0.0,-13.622286,-0.0,-0.000683,-0.017381,0.015066,-0.024644,-3e-06,0.000187
330820,0.000413,-0.016238,0.009283,0.0,-0.0,-0.0,3.0,0.3261,0.319781,0.3261,0.332258,-0.0,-2927.463021,-0.0,-0.0,-13.48427,-0.0,-0.000562,-0.017381,0.01507,-0.072872,-1.5e-05,0.000175
330840,0.000168,-0.016359,0.009281,0.0,-0.0,-0.0,3.0,0.3261,0.320407,0.3261,0.331661,-0.0,-2927.731971,-0.0,-0.0,-13.397723,-0.0,-0.000561,-0.01738,0.015074,-0.048754,-3e-06,0.000175
330860,0.000168,-0.016481,0.009281,0.0,-0.0,-0.0,3.0,0.3261,0.317976,0.3261,0.333958,-0.0,-2927.999614,-0.0,-0.0,-13.368503,-0.0,-0.000928,-0.017381,0.015077,0.024198,-3e-06,0.000186
330880,0.000168,-0.016481,0.009281,0.0,-0.0,-0.0,3.0,0.3261,0.317599,0.3261,0.334311,-0.0,-2928.267117,-0.0,-0.0,-13.398512,-0.0,-0.001049,-0.017381,0.015081,0.024004,-3e-06,0.000186
330900,0.000167,-0.016359,0.009403,0.0,-0.0,-0.0,3.0,0.3261,0.317013,0.3261,0.334856,-0.0,-2928.535656,-0.0,-0.0,-13.485675,-0.0,-0.001295,-0.017381,0.015084,1.9e-05,9e-06,0.000185
330920,-7.7e-05,-0.016358,0.009401,0.0,-0.0,-0.0,3.0,0.3261,0.317812,0.3261,0.334112,-0.0,-2928.806333,-0.0,-0.0,-13.624027,-0.0,-0.001418,-0.017381,0.015088,-0.024195,-3e-06,0.000185
330940,-0.000319,-0.01599,0.009399,0.0,-0.0,-0.0,3.0,0.3261,0.313828,0.3261,0.337775,-0.0,-2929.080107,-0.0,-0.0,-13.803918,-0.0,-0.001782,-0.017382,0.015091,0.024257,1e-05,0.000184
330960,-0.000441,-0.01599,0.009398,0.0,-0.0,-0.0,3.0,0.3261,0.311976,0.3261,0.339439,-0.0,-2929.357716,-0.0,-0.0,-14.012394,-0.0,-0.002026,-0.017382,0.015095,0.048368,1e-05,0.000184
330980,-0.000441,-0.015868,0.009398,0.0,-0.0,-0.0,3.0,0.3261,0.316641,0.3261,0.335201,0.0,-2929.639618,-0.0,0.0,-14.233832,-0.0,-0.001784,-0.017382,0.015099,0.000438,-2e-06,0.000171
331000,-0.000441,-0.01599,0.009398,0.0,-0.0,-0.0,3.0,0.3261,0.317243,0.3261,0.334642,0.0,-2929.925943,-0.0,-0.0,-14.450877,-0.0,-0.001784,-0.017382,0.015102,-0.024002,-1.5e-05,0.000171
331020,-0.000319,-0.01599,0.009399,0.0,-0.0,-0.0,3.0,0.3261,0.319102,0.3261,0.3329,0.0,-2930.21647,-0.0,-0.0,-14.645735,-0.0,-0.001662,-0.017382,0.015106,-1.5e-05,-2.7e-05,0.000183
331040,-7.7e-05,-0.016358,0.009401,0.0,-0.0,-0.0,3.0,0.3261,0.317567,0.3261,0.33434,-0.0,-2930.510628,-0.0,-0.0,-14.801738,-0.0,-0.001662,-0.017381,0.01511,0.024051,-3.9e-05,0.000183
331060,4.4e-05,-0.016602,0.009402,0.0,-0.0,-0.0,3.0,0.3261,0.317348,0.3261,0.334545,-0.0,-2930.807528,-0.0,-0.0,-14.90504,-0.0,-0.001539,-0.017381,0.015113,0.023851,-2.7e-05,0.000194
331080,4.3e-05,-0.016602,0.009524,0.0,-0.0,-0.0,3.0,0.3261,0.316505,0.3261,0.335326,-0.0,-2931.10604,-0.0,-0.0,-14.946202,-0.0,-0.001539,-0.017381,0.015117,-0.00027,-1.5e-05,0.000194
331100,-7.9e-05,-0.016602,0.009523,0.0,-0.0,-0.0,3.0,0.3261,0.315101,0.3261,0.336617,-0.0,-2931.40488,-0.0,-0.0,-14.921357,-0.0,-0.001537,-0.017381,0.015121,-0.024745,1e-05,0.000194
331120,-0.0002,-0.016357,0.009522,0.0,-0.0,-0.0,3.0,0.3261,0.316407,0.3261,0.335417,-0.0,-2931.702738,-0.0,-0.0,-14.83274,-0.0,-0.001416,-0.017382,0.015125,-0.024399,2.2e-05,0.000193
331140,-0.000443,-0.016234,0.00952,0.0,-0.0,-0.0,3.0,0.3261,0.31637,0.3261,0.335451,-0.0,-2931.998389,-0.0,-0.0,-14.688429,-0.0,-0.001416,-0.017382,0.015129,-0.072911,3.4e-05,0.000193
331160,-0.000442,-0.016112,0.009398,0.0,-0.0,-0.0,3.0,0.3261,0.320627,0.3261,0.331452,-0.0,-2932.290809,-0.0,-0.0,-14.501374,-0.0,-0.001296,-0.017382,0.015132,-0.048299,1e-05,0.00018
331180,-0.000321,-0.016112,0.009521,0.0,-0.0,-0.0,3.0,0.3261,0.323324,0.3261,0.328845,-0.0,-2932.579263,-0.0,-0.0,-14.287886,-0.0,-0.001175,-0.017382,0.015136,-0.047998,1e-05,0.00018
331200,-7.7e-05,-0.016114,0.009523,0.0,-0.0,-0.0,3.0,0.3261,0.32364,0.3261,0.328535,0.0,-2932.863355,-0.0,0.0,-14.065899,-0.0,-0.001176,-0.017382,0.01514,0.02493,-3e-06,0.00018
331220,4.5e-05,-0.016236,0.009524,0.0,-0.0,-0.0,3.0,0.3261,0.317099,0.3261,0.334776,0.0,-2933.14305,-0.0,-0.0,-13.853267,-0.0,-0.00154,-0.017382,0.015143,0.097355,-1.5e-05,0.00018
331240,0.000289,-0.016115,0.009526,0.0,-0.0,-0.0,3.0,0.3261,0.314664,0.3261,0.337016,-0.0,-2933.418661,-0.0,-0.0,-13.666328,-0.0,-0.00166,-0.017382,0.015147,0.145668,-3e-06,0.000179
331260,0.000411,-0.016238,0.009527,0.0,-0.0,-0.0,3.0,0.3261,0.312811,0.3261,0.338692,-0.0,-2933.690811,-0.0,-0.0,-13.518812,-0.0,-0.001537,-0.017382,0.015151,0.048328,1e-05,0.000179
331280,0.000412,-0.016116,0.009527,0.0,-0.0,-0.0,3.0,0.3261,0.315648,0.3261,0.336116,-0.0,-2933.96037,-0.0,-0.0,-13.421125,-0.0,-0.001295,-0.017382,0.015154,-0.048611,1e-05,0.00019
331300,0.000289,-0.016115,0.009526,0.0,-0.0,-0.0,3.0,0.3261,0.315897,0.3261,0.335887,-0.0,-2934.228392,-0.0,-0.0,-13.379929,-0.0,-0.001173,-0.017382,0.015158,-0.048713,-3e-06,0.00019
331320,0.000291,-0.015993,0.009404,0.0,-0.0,-0.0,3.0,0.3261,0.317618,0.3261,0.334293,-0.0,-2934.496033,-0.0,-0.0,-13.397943,-0.0,-0.000929,-0.017382,0.015162,-0.024516,-3e-06,0.00019
331340,0.000412,-0.016238,0.009405,0.0,-0.0,-0.0,3.0,0.3261,0.319819,0.3261,0.332222,-0.0,-2934.764474,-0.0,-0.0,-13.473894,-0.0,-0.000686,-0.017382,0.015166,-0.048431,-1.5e-05,0.000177
331360,0.000533,-0.016361,0.009406,0.0,-0.0,-0.0,3.0,0.3261,0.32136,0.3261,0.330748,-0.0,-2935.034841,-0.0,-0.0,-13.602586,-0.0,-0.000565,-0.017382,0.015169,-0.024032,-1.5e-05,0.000177
331380,0.000777,-0.016484,0.009408,0.0,-0.0,-0.0,3.0,0.3261,0.319948,0.3261,0.332099,-0.0,-2935.308126,-0.0,-0.0,-13.775071,-0.0,-0.000563,-0.017382,0.015173,0.048378,-2.8e-05,0.000189
331400,0.000777,-0.016484,0.009408,0.0,-0.0,-0.0,3.0,0.3261,0.316996,0.3261,0.334872,-0.0,-2935.585119,-0.0,-0.0,-13.979001,-0.0,-0.000561,-0.017382,0.015177,0.023787,-3e-06,0.000189
331420,0.001021,-0.016485,0.00941,0.0,-0.0,-0.0,3.0,0.3261,0.318575,0.3261,0.333397,-0.0,-2935.866338,-0.0,0.0,-14.199199,-0.0,-0.000439,-0.017382,0.01518,0.0242,9e-06,0.000176
331440,0.0009,-0.01624,0.009409,0.0,-0.0,-0.0,3.0,0.3261,0.318221,0.3261,0.333729,0.0,-2936.151983,-0.0,-0.0,-14.418541,-0.0,-0.00044,-0.017382,0.015184,0.000332,3.4e-05,0.000176
331460,0.001023,-0.016119,0.00941,0.0,-0.0,-0.0,3.0,0.3261,0.320328,0.3261,0.331737,0.0,-2936.441901,-0.0,-0.0,-14.619178,-0.0,-0.000319,-0.017382,0.015187,0.000317,2.1e-05,0.000176
331480,0.0009,-0.015996,0.009531,0.0,-0.0,-0.0,3.0,0.3261,0.317379,0.3261,0.334515,-0.0,-2936.73559,-0.0,-0.0,-14.784063,-0.0,-0.000441,-0.017382,0.015191,0.000344,2.1e-05,0.000175
331500,0.0009,-0.015996,0.009531,0.0,-0.0,-0.0,3.0,0.3261,0.316494,0.3261,0.335337,-0.0,-2937.032219,-0.0,-0.0,-14.898644,-0.0,-0.000563,-0.017382,0.015194,0.04887,9e-06,0.000175
331520,0.000779,-0.016118,0.009408,0.0,-0.0,-0.0,3.0,0.3261,0.315607,0.3261,0.336154,-0.0,-2937.330696,-0.0,-0.0,-14.952492,-0.0,-0.000686,-0.017382,0.015198,0.048755,-1.5e-05,0.000175
331540,0.000778,-0.01624,0.009408,0.0,-0.0,-0.0,3.0,0.3261,0.316274,0.3261,0.33554,-0.0,-2937.62976,-0.0,-0.0,-14.940576,-0.0,-0.000686,-0.017382,0.015202,0.024213,-4e-05,0.000174
331560,0.0009,-0.016362,0.009409,0.0,-0.0,-0.0,3.0,0.3261,0.317169,0.3261,0.334711,-0.0,-2937.928094,-0.0,-0.0,-14.863933,-0.0,-0.000685,-0.017383,0.015205,-0.024656,-5.2e-05,0.000174
331580,0.000777,-0.016484,0.009408,0.0,-0.0,-0.0,3.0,0.3261,0.318057,0.3261,0.333883,-0.0,-2938.224447,-0.0,-0.0,-14.729568,-0.0,-0.000563,-0.017383,0.015209,-0.024657,-3.9e-05,0.000173
331600,0.000655,-0.016605,0.009285,0.0,-0.0,-0.0,3.0,0.3261,0.31666,0.3261,0.335184,-0.0,-2938.517748,-0.0,-0.0,-14.549602,-0.0,-0.000684,-0.017383,0.015212,0.02387,-2.7e-05,0.000173
331620,0.000656,-0.016483,0.009285,0.0,-0.0,-0.0,3.0,0.3261,0.317725,0.3261,0.334193,-0.0,-2938.8072,-0.0,-0.0,-14.339847,-0.0,-0.000561,-0.017384,0.015215,-0.000444,-1.5e-05,0.000173
331640,0.001022,-0.016607,0.009288,0.0,-0.0,-0.0,3.0,0.3261,0.320658,0.3261,0.331422,0.0,-2939.092338,-0.0,0.0,-14.118084,-0.0,-0.000318,-0.017384,0.015219,-0.024329,9e-06,0.000173
331660,0.000899,-0.016484,0.009409,0.0,-0.0,-0.0,3.0,0.3261,0.319087,0.3261,0.332915,0.0,-2939.373059,-0.0,-0.0,-13.90233,-0.0,-0.000318,-0.017384,0.015222,-0.048606,2.2e-05,0.000184
331680,0.000778,-0.016362,0.009408,0.0,-0.0,-0.0,3.0,0.3261,0.318122,0.3261,0.333822,-0.0,-2939.64961,-0.0,-0.0,-13.70933,-0.0,-0.00044,-0.017384,0.015226,-7.9e-05,2.2e-05,0.000184
331700,0.000778,-0.016118,0.00953,0.0,-0.0,-0.0,3.0,0.3261,0.318432,0.3261,0.333531,-0.0,-2939.92256,-0.0,-0.0,-13.553401,-0.0,-0.000441,-0.017384,0.015229,3.4e-05,9e-06,0.000184
331720,0.000778,-0.016118,0.00953,0.0,-0.0,-0.0,3.0,0.3261,0.31995,0.3261,0.332097,-0.0,-2940.192738,-0.0,-0.0,-13.44564,-0.0,-0.00032,-0.017385,0.015233,-0.02387,9e-06,0.000171
331740,0.0009,-0.015996,0.009531,0.0,-0.0,-0.0,3.0,0.3261,0.320587,0.3261,0.33149,-0.0,-2940.461168,-0.0,-0.0,-13.39345,-0.0,-0.000321,-0.017385,0.015236,-0.02377,-3e-06,0.000171
331760,0.001023,-0.015997,0.00941,0.0,-0.0,-0.0,3.0,0.3261,0.320428,0.3261,0.331641,-0.0,-2940.728996,-0.0,-0.0,-13.400307,-0.0,-0.000321,-0.017385,0.01524,0.048828,-2.7e-05,0.000171
331780,0.001145,-0.016119,0.009411,0.0,-0.0,-0.0,3.0,0.3261,0.317272,0.3261,0.334615,-0.0,-2940.997403,-0.0,-0.0,-13.465687,-0.0,-0.000441,-0.017385,0.015243,0.09714,-1.5e-05,0.000171
331800,0.001388,-0.016365,0.009413,0.0,-0.0,-0.0,3.0,0.3261,0.316702,0.3261,0.335145,-0.0,-2941.267533,-0.0,-0.0,-13.585111,-0.0,-0.000318,-0.017385,0.015247,0.072611,-2.7e-05,0.00017
331820,0.001511,-0.016365,0.009292,0.0,-0.0,-0.0,3.0,0.3261,0.31636,0.3261,0.335461,-0.0,-2941.540411,-0.0,-0.0,-13.750299,-0.0,-0.000318,-0.017385,0.01525,0.024086,-1.5e-05,0.00017
331840,0.001509,-0.016487,0.009414,0.0,-0.0,-0.0,3.0,0.3261,0.314782,0.3261,0.336909,-0.0,-2941.816869,-0.0,-0.0,-13.94948,-0.0,-0.000317,-0.017385,0.015253,-0.000543,-2.7e-05,0.000169
331860,0.001265,-0.016486,0.009412,0.0,-0.0,-0.0,3.0,0.3261,0.314894,0.3261,0.336807,-0.0,-2942.097479,-0.0,-0.0,-14.167922,-0.0,-0.000195,-0.017385,0.015257,-0.024533,-3e-06,0.000169
331880,0.001143,-0.016485,0.009411,0.0,-0.0,-0.0,3.0,0.3261,0.317128,0.3261,0.334749,0.0,-2942.382504,-0.0,0.0,-14.388755,-0.0,4.9e-05,-0.017385,0.01526,-0.024502,-3e-06,0.000169
331900,0.001388,-0.016243,0.009413,0.0,-0.0,-0.0,3.0,0.3261,0.320765,0.3261,0.33132,0.0,-2942.671858,-0.0,-0.0,-14.594134,-0.0,0.000414,-0.017386,0.015263,-0.048502,9e-06,0.000169
331920,0.001511,-0.016121,0.009414,0.0,-0.0,-0.0,3.0,0.3261,0.32392,0.3261,0.328261,0.0,-2942.965099,-0.0,-0.0,-14.766718,-0.0,0.000779,-0.017386,0.015267,-0.048429,-3e-06,0.000169
331940,0.002,-0.016001,0.009417,0.0,-0.0,-0.0,3.0,0.3261,0.326401,0.3261,0.3258,-0.0,-2943.261453,-0.0,-0.0,-14.891354,-0.0,0.0009,-0.017386,0.01527,-0.023909,-3e-06,0.000168
331960,0.002366,-0.016003,0.00942,0.0,-0.0,-0.0,3.0,0.3261,0.324757,0.3261,0.327436,-0.0,-2943.559869,-0.0,-0.0,-14.956742,-0.0,0.001024,-0.017385,0.015273,0.049017,9e-06,0.000156
331980,0.002732,-0.016371,0.009302,0.0,-0.0,-0.0,3.0,0.3261,0.318995,0.3261,0.333001,-0.0,-2943.859109,-0.0,-0.0,-14.956796,-0.0,0.000904,-0.017385,0.015277,0.121556,9e-06,0.000156
332000,0.002976,-0.01625,0.009304,0.0,-0.0,-0.0,3.0,0.3261,0.315034,0.3261,0.336679,-0.0,-2944.157854,-0.0,-0.0,-14.891444,-0.0,0.000905,-0.017385,0.01528,0.121369,9e-06,0.000156
332020,0.00322,-0.016373,0.009306,0.0,-0.0,-0.0,3.0,0.3261,0.316284,0.3261,0.335531,-0.0,-2944.454832,-0.0,-0.0,-14.766664,-0.0,0.001271,-0.017385,0.015283,0.023917,-4e-06,0.000155
332040,0.003222,-0.016129,0.009183,0.0,-0.0,-0.0,3.0,0.3261,0.318322,0.3261,0.333634,-0.0,-2944.748933,-0.0,-0.0,-14.593768,-0.0,0.001636,-0.017386,0.015286,-0.024189,-4e-06,0.000143
332060,0.003099,-0.01625,0.009182,0.0,-0.0,-0.0,3.0,0.3261,0.319318,0.3261,0.332696,-0.0,-2945.039303,-0.0,-0.0,-14.388048,-0.0,0.00188,-0.017386,0.015289,-0.024302,-1.6e-05,0.000143
332080,0.003222,-0.016129,0.009183,0.0,-0.0,-0.0,3.0,0.3261,0.320624,0.3261,0.331454,0.0,-2945.325416,-0.0,-0.0,-14.167086,-0.0,0.002124,-0.017386,0.015292,-0.024304,-2.8e-05,0.000143
332100,0.003345,-0.016251,0.009062,0.0,-0.0,-0.0,3.0,0.3261,0.322548,0.3261,0.329601,-0.0,-2945.607104,-0.0,-0.0,-13.949,-0.0,0.002245,-0.017386,0.015295,-0.04854,-2.8e-05,0.000143
332120,0.003465,-0.016374,0.009186,0.0,-0.0,-0.0,3.0,0.3261,0.322964,0.3261,0.329196,-0.0,-2945.884555,-0.0,-0.0,-13.75088,-0.0,0.002245,-0.017386,0.015297,0.00016,-2.8e-05,0.000142
332140,0.003465,-0.016374,0.009186,0.0,-0.0,-0.0,3.0,0.3261,0.32086,0.3261,0.331228,-0.0,-2946.158283,-0.0,-0.0,-13.587557,-0.0,0.002248,-0.017386,0.0153,0.023881,-4e-06,0.000154
332160,0.003464,-0.016496,0.009186,0.0,-0.0,-0.0,3.0,0.3261,0.317435,0.3261,0.334463,-0.0,-2946.429078,-0.0,-0.0,-13.470753,-0.0,0.002006,-0.017386,0.015303,0.023569,-4e-06,0.000154
332180,0.003463,-0.016496,0.009308,0.0,-0.0,-0.0,3.0,0.3261,0.318692,0.3261,0.333287,-0.0,-2946.697937,-0.0,-0.0,-13.40855,-0.0,0.002004,-0.017386,0.015306,-0.000192,2.1e-05,0.000154
332200,0.003343,-0.016251,0.009306,0.0,-0.0,-0.0,3.0,0.3261,0.318918,0.3261,0.333074,-0.0,-2946.965989,-0.0,-0.0,-13.405122,-0.0,0.002003,-0.017386,0.015309,-0.024088,3.3e-05,0.000141
332220,0.003343,-0.016129,0.009306,0.0,-0.0,-0.0,3.0,0.3261,0.319605,0.3261,0.332425,-0.0,-2947.234417,-0.0,-0.0,-13.460638,-0.0,0.002002,-0.017387,0.015312,0.02465,8e-06,0.000141
332240,0.003222,-0.016007,0.009305,0.0,-0.0,-0.0,3.0,0.3261,0.31853,0.3261,0.333439,-0.0,-2947.504379,-0.0,-0.0,-13.571284,-0.0,0.002002,-0.017387,0.015315,0.02455,-4e-06,0.000141
332260,0.003589,-0.016008,0.009186,0.0,-0.0,-0.0,3.0,0.3261,0.321137,0.3261,0.330963,-0.0,-2947.776924,-0.0,-0.0,-13.729404,-0.0,0.002122,-0.017387,0.015318,0.024749,-1.6e-05,0.00014
332280,0.003589,-0.015886,0.009186,0.0,-0.0,-0.0,3.0,0.3261,0.321288,0.3261,0.330818,-0.0,-2948.052924,-0.0,-0.0,-13.923774,-0.0,0.002244,-0.017387,0.015321,0.000513,-1.6e-05,0.00014
332300,0.003833,-0.016009,0.009188,0.0,-0.0,-0.0,3.0,0.3261,0.319644,0.3261,0.332388,-0.0,-2948.333,-0.0,-0.0,-14.140097,-0.0,0.002124,-0.017387,0.015324,0.024187,-1.6e-05,0.000152
332320,0.003709,-0.016131,0.009309,0.0,-0.0,-0.0,3.0,0.3261,0.3175,0.3261,0.334403,0.0,-2948.617469,-0.0,-0.0,-14.361767,-0.0,0.002126,-0.017386,0.015327,0.023874,-4e-06,0.000152
332340,0.003708,-0.016253,0.009432,0.0,-0.0,-0.0,3.0,0.3261,0.318518,0.3261,0.33345,0.0,-2948.906307,-0.0,-0.0,-14.570983,-0.0,0.002248,-0.017386,0.01533,-0.00025,8e-06,0.000151
332360,0.003708,-0.016253,0.009432,0.0,-0.0,-0.0,3.0,0.3261,0.317671,0.3261,0.334244,-0.0,-2949.199131,-0.0,-0.0,-14.750185,-0.0,0.002248,-0.017386,0.015333,-0.000431,2e-05,0.000163
332380,0.003708,-0.016131,0.009431,0.0,-0.0,-0.0,3.0,0.3261,0.319944,0.3261,0.332102,-0.0,-2949.495218,-0.0,-0.0,-14.883715,-0.0,0.002491,-0.017385,0.015336,-0.024531,3.3e-05,0.000175
332400,0.003585,-0.016253,0.009553,0.0,-0.0,-0.0,3.0,0.3261,0.320225,0.3261,0.331836,-0.0,-2949.793558,-0.0,-0.0,-14.959509,-0.0,0.00249,-0.017385,0.01534,-0.04882,3.3e-05,0.000187
332420,0.003586,-0.015887,0.009552,0.0,-0.0,-0.0,3.0,0.3261,0.32162,0.3261,0.330499,-0.0,-2950.092935,-0.0,-0.0,-14.970535,-0.0,0.002489,-0.017385,0.015343,-0.024172,4.5e-05,0.000187
332440,0.003586,-0.016009,0.009552,0.0,-0.0,-0.0,3.0,0.3261,0.321624,0.3261,0.330494,-0.0,-2950.392035,-0.0,-0.0,-14.915702,-0.0,0.002488,-0.017384,0.015347,0.024646,3.2e-05,0.000174
332460,0.003708,-0.015766,0.009675,0.0,-0.0,-0.0,3.0,0.3261,0.320535,0.3261,0.331539,-0.0,-2950.68957,-0.0,-0.0,-14.800027,-0.0,0.00249,-0.017384,0.01535,0.024467,4.4e-05,0.000174
332480,0.00383,-0.015766,0.009676,0.0,-0.0,-0.0,3.0,0.3261,0.320779,0.3261,0.331306,-0.0,-2950.984394,-0.0,-0.0,-14.634037,-0.0,0.002489,-0.017383,0.015354,2.1e-05,2e-05,0.000174
332500,0.003831,-0.015766,0.009554,0.0,-0.0,-0.0,3.0,0.3261,0.32289,0.3261,0.329268,-0.0,-2951.275605,-0.0,-0.0,-14.432503,-0.0,0.002609,-0.017383,0.015357,0.000612,2e-05,0.000161
332520,0.00383,-0.01601,0.009554,0.0,-0.0,-0.0,3.0,0.3261,0.318989,0.3261,0.333007,-0.0,-2951.562622,-0.0,-0.0,-14.212777,-0.0,0.002367,-0.017382,0.015361,0.073022,-5e-06,0.000161
332540,0.003951,-0.016133,0.009555,0.0,-0.0,-0.0,3.0,0.3261,0.318155,0.3261,0.333791,0.0,-2951.845215,-0.0,-0.0,-13.993027,-0.0,0.002368,-0.017382,0.015364,0.048294,-5e-06,0.000173
332560,0.004073,-0.016255,0.009557,0.0,-0.0,-0.0,3.0,0.3261,0.317865,0.3261,0.334062,-0.0,-2952.123518,-0.0,-0.0,-13.790625,-0.0,0.002367,-0.017382,0.015368,0.024175,-5e-06,0.000172
332580,0.00395,-0.016377,0.009556,0.0,-0.0,-0.0,3.0,0.3261,0.316803,0.3261,0.335051,-0.0,-2952.397995,-0.0,-0.0,-13.620856,-0.0,0.002245,-0.017381,0.015371,-0.000335,8e-06,0.000184
332600,0.003707,-0.016254,0.009554,0.0,-0.0,-0.0,3.0,0.3261,0.316266,0.3261,0.335548,-0.0,-2952.669398,-0.0,-0.0,-13.496001,-0.0,0.002246,-0.017381,0.015375,0.023894,8e-06,0.000184
332620,0.003828,-0.016132,0.009676,0.0,-0.0,-0.0,3.0,0.3261,0.318406,0.3261,0.333556,-0.0,-2952.938695,-0.0,-0.0,-13.424758,-0.0,0.00249,-0.017381,0.015378,-0.000303,3.2e-05,0.000183
332640,0.003707,-0.016132,0.009553,0.0,-0.0,-0.0,3.0,0.3261,0.320603,0.3261,0.331475,-0.0,-2953.207001,-0.0,-0.0,-13.411939,-0.0,0.002733,-0.017381,0.015382,-0.048689,3.2e-05,0.000183
332660,0.003831,-0.015888,0.009554,0.0,-0.0,-0.0,3.0,0.3261,0.324459,0.3261,0.327731,-0.0,-2953.475497,-0.0,-0.0,-13.458348,-0.0,0.002977,-0.01738,0.015385,-0.096938,3.2e-05,0.00017
332680,0.003831,-0.015888,0.009554,0.0,-0.0,-0.0,3.0,0.3261,0.325578,0.3261,0.326621,-0.0,-2953.745349,-0.0,-0.0,-13.560787,-0.0,0.002975,-0.01738,0.015389,-0.023796,2e-05,0.00017
332700,0.004075,-0.015889,0.009556,0.0,-0.0,-0.0,3.0,0.3261,0.32369,0.3261,0.328487,-0.0,-2954.017631,-0.0,-0.0,-13.712172,-0.0,0.002854,-0.017379,0.015392,0.024614,1.9e-05,0.00017
332720,0.004196,-0.016012,0.009557,0.0,-0.0,-0.0,3.0,0.3261,0.321407,0.3261,0.330704,-0.0,-2954.293247,-0.0,-0.0,-13.901795,-0.0,0.002732,-0.017379,0.015395,0.073026,7e-06,0.00017
332740,0.004562,-0.016013,0.00956,0.0,-0.0,-0.0,3.0,0.3261,0.318715,0.3261,0.333266,-0.0,-2954.572862,-0.0,-0.0,-14.115768,-0.0,0.002611,-0.017379,0.015399,0.121569,1.9e-05,0.00017
332760,0.004562,-0.016136,0.00956,0.0,-0.0,-0.0,3.0,0.3261,0.315737,0.3261,0.336034,0.0,-2954.856843,-0.0,0.0,-14.337758,-0.0,0.002612,-0.017378,0.015402,0.048312,7e-06,0.000169
332780,0.004684,-0.016014,0.009561,0.0,-0.0,-0.0,3.0,0.3261,0.318435,0.3261,0.333528,0.0,-2955.14522,-0.0,-0.0,-14.550037,-0.0,0.002855,-0.017378,0.015406,1.8e-05,1.9e-05,0.000169
332800,0.004318,-0.016012,0.009558,0.0,-0.0,-0.0,3.0,0.3261,0.318628,0.3261,0.333347,-0.0,-2955.437663,-0.0,-0.0,-14.73488,-0.0,0.0031,-0.017378,0.015409,-0.048711,1.9e-05,0.000168
332820,0.004318,-0.016012,0.009558,0.0,-0.0,-0.0,3.0,0.3261,0.319466,0.3261,0.332556,-0.0,-2955.733499,-0.0,-0.0,-14.876209,-0.0,0.003099,-0.017378,0.015412,-0.024516,-5e-06,0.000168
332840,0.004318,-0.016012,0.009558,0.0,-0.0,-0.0,3.0,0.3261,0.322386,0.3261,0.329758,-0.0,-2956.031757,-0.0,-0.0,-14.961299,-0.0,0.003343,-0.017378,0.015416,-0.048629,7e-06,0.000168
332860,0.004684,-0.016136,0.009561,0.0,-0.0,-0.0,3.0,0.3261,0.325791,0.3261,0.326409,-0.0,-2956.331244,-0.0,-0.0,-14.982276,-0.0,0.003585,-0.017377,0.015419,-0.048133,7e-06,0.000168
332880,0.004561,-0.016258,0.00956,0.0,-0.0,-0.0,3.0,0.3261,0.322762,0.3261,0.329392,-0.0,-2956.630653,-0.0,-0.0,-14.937124,-0.0,0.003464,-0.017377,0.015423,-0.000154,-5e-06,0.00018
332900,0.004683,-0.016258,0.009561,0.0,-0.0,-0.0,3.0,0.3261,0.319246,0.3261,0.332764,-0.0,-2956.928682,-0.0,-0.0,-14.82997,-0.0,0.0031,-0.017377,0.015426,0.072512,7e-06,0.000179
332920,0.004682,-0.016258,0.009684,0.0,-0.0,-0.0,3.0,0.3261,0.320677,0.3261,0.331404,-0.0,-2957.224158,-0.0,-0.0,-14.670599,-0.0,0.003344,-0.017377,0.015429,-7.6e-05,3.1e-05,0.000179
332940,0.004683,-0.016136,0.009683,0.0,-0.0,-0.0,3.0,0.3261,0.320534,0.3261,0.33154,-0.0,-2957.516137,-0.0,-0.0,-14.473267,-0.0,0.003221,-0.017377,0.015433,0.000336,3.1e-05,0.000166
332960,0.004683,-0.016136,0.009683,0.0,-0.0,-0.0,3.0,0.3261,0.319481,0.3261,0.332542,-0.0,-2957.803984,-0.0,-0.0,-14.255078,-0.0,0.00322,-0.017377,0.015436,0.024447,7e-06,0.000166
332980,0.004685,-0.015892,0.009561,0.0,-0.0,-0.0,3.0,0.3261,0.320053,0.3261,0.331999,0.0,-2958.087419,-0.0,0.0,-14.034212,-0.0,0.003342,-0.017377,0.01544,0.024564,7e-06,0.000166
333000,0.004806,-0.016137,0.009562,0.0,-0.0,-0.0,3.0,0.3261,0.319704,0.3261,0.33233,0.0,-2958.366522,-0.0,-0.0,-13.82827,-0.0,0.003341,-0.017377,0.015443,0.024329,-3e-05,0.000166
333020,0.005051,-0.016016,0.009564,0.0,-0.0,-0.0,3.0,0.3261,0.321558,0.3261,0.330558,-0.0,-2958.641714,-0.0,-0.0,-13.65293,-0.0,0.003462,-0.017377,0.015446,0.000417,-1.8e-05,0.000165
333040,0.005049,-0.016382,0.009565,0.0,-0.0,-0.0,3.0,0.3261,0.32151,0.3261,0.330604,-0.0,-2958.913707,-0.0,-0.0,-13.520969,-0.0,0.003585,-0.017377,0.01545,-0.024568,-4.2e-05,0.000177
333060,0.004926,-0.016382,0.009686,0.0,-0.0,-0.0,3.0,0.3261,0.319181,0.3261,0.332826,-0.0,-2959.183444,-0.0,-0.0,-13.441642,-0.0,0.003465,-0.017377,0.015453,0.023741,-3e-05,0.000177
333080,0.004803,-0.016503,0.009685,0.0,-0.0,-0.0,3.0,0.3261,0.320179,0.3261,0.331879,-0.0,-2959.452024,-0.0,-0.0,-13.42034,-0.0,0.003587,-0.017377,0.015457,-0.000262,-6e-06,0.000176
333100,0.004925,-0.016504,0.009686,0.0,-0.0,-0.0,3.0,0.3261,0.320465,0.3261,0.331606,-0.0,-2959.720625,-0.0,-0.0,-13.458441,-0.0,0.003588,-0.017377,0.01546,-0.000414,1.9e-05,0.000188
333120,0.004804,-0.016259,0.009685,0.0,-0.0,-0.0,3.0,0.3261,0.321616,0.3261,0.330502,-0.0,-2959.99042,-0.0,-0.0,-13.553306,-0.0,0.003709,-0.017377,0.015464,-0.024508,1.9e-05,0.000188
333140,0.004925,-0.01626,0.009808,0.0,-0.0,-0.0,3.0,0.3261,0.323363,0.3261,0.328806,-0.0,-2960.262503,-0.0,-0.0,-13.698381,-0.0,0.003707,-0.017377,0.015468,-0.024187,1.9e-05,0.000187
333160,0.004927,-0.016016,0.009807,0.0,-0.0,-0.0,3.0,0.3261,0.323908,0.3261,0.328272,-0.0,-2960.537806,-0.0,-0.0,-13.883427,-0.0,0.003828,-0.017377,0.015471,-0.023952,1.9e-05,0.000187
333180,0.005049,-0.016016,0.009808,0.0,-0.0,-0.0,3.0,0.3261,0.320589,0.3261,0.331488,-0.0,-2960.817031,-0.0,-0.0,-14.094945,-0.0,0.003584,-0.017377,0.015475,0.024672,7e-06,0.000187
333200,0.005171,-0.016017,0.009809,0.0,-0.0,-0.0,3.0,0.3261,0.320518,0.3261,0.331555,0.0,-2961.100592,-0.0,-0.0,-14.316864,-0.0,0.003705,-0.017378,0.015479,0.048884,-6e-06,0.000187
333220,0.005292,-0.01614,0.00981,0.0,-0.0,-0.0,3.0,0.3261,0.321776,0.3261,0.330348,-0.0,-2961.388564,-0.0,-0.0,-14.531547,-0.0,0.003828,-0.017378,0.015482,1.9e-05,-1.8e-05,0.000186
333240,0.005293,-0.016018,0.00981,0.0,-0.0,-0.0,3.0,0.3261,0.322303,0.3261,0.329838,-0.0,-2961.68067,-0.0,-0.0,-14.721155,-0.0,0.00395,-0.017378,0.015486,0.0001,-1.8e-05,0.000186
333260,0.005291,-0.016384,0.009811,0.0,-0.0,-0.0,3.0,0.3261,0.319758,0.3261,0.332279,-0.0,-2961.97628,-0.0,-0.0,-14.86926,-0.0,0.00383,-0.017378,0.01549,0.023854,-3e-05,0.000186
333280,0.00529,-0.016506,0.009811,0.0,-0.0,-0.0,3.0,0.3261,0.319802,0.3261,0.332237,-0.0,-2962.274459,-0.0,-0.0,-14.962569,-0.0,0.003829,-0.017378,0.015494,0.02405,-3e-05,0.000185
333300,0.00529,-0.016628,0.009812,0.0,-0.0,-0.0,3.0,0.3261,0.319785,0.3261,0.332254,-0.0,-2962.574038,-0.0,-0.0,-14.992466,-0.0,0.00383,-0.017378,0.015498,-0.000264,-1.8e-05,0.000185
333320,0.005412,-0.016629,0.009813,0.0,-0.0,-0.0,3.0,0.3261,0.321491,0.3261,0.330623,-0.0,-2962.873717,-0.0,-0.0,-14.956105,-0.0,0.003951,-0.017378,0.015501,-0.024434,7e-06,0.000197
333340,0.005169,-0.016383,0.00981,0.0,-0.0,-0.0,3.0,0.3261,0.318758,0.3261,0.333225,-0.0,-2963.172187,-0.0,-0.0,-14.856803,-0.0,0.003829,-0.017379,0.015505,-0.024513,7e-06,0.000196
333360,0.005169,-0.016261,0.009932,0.0,-0.0,-0.0,3.0,0.3261,0.321348,0.3261,0.33076,-0.0,-2963.468249,-0.0,-0.0,-14.703653,-0.0,0.003951,-0.017379,0.015509,-5.6e-05,1.9e-05,0.000196
333380,0.005047,-0.016139,0.00993,0.0,-0.0,-0.0,3.0,0.3261,0.323907,0.3261,0.328274,-0.0,-2963.760923,-0.0,-0.0,-14.510419,-0.0,0.004193,-0.017379,0.015513,-0.048048,7e-06,0.000183
333400,0.00517,-0.016017,0.009931,0.0,-0.0,-0.0,3.0,0.3261,0.324087,0.3261,0.328097,-0.0,-2964.04953,-0.0,-0.0,-14.293949,-0.0,0.004072,-0.017379,0.015516,-0.024074,-5e-06,0.000183
333420,0.00517,-0.016139,0.009809,0.0,-0.0,-0.0,3.0,0.3261,0.323965,0.3261,0.328217,0.0,-2964.333741,-0.0,-0.0,-14.072404,-0.0,0.00407,-0.01738,0.01552,0.00052,-3e-05,0.000171
333440,0.00517,-0.016261,0.00981,0.0,-0.0,-0.0,3.0,0.3261,0.321571,0.3261,0.330546,0.0,-2964.61359,-0.0,-0.0,-13.863569,-0.0,0.003827,-0.01738,0.015524,0.048727,-3e-05,0.000182
333460,0.00529,-0.016506,0.009811,0.0,-0.0,-0.0,3.0,0.3261,0.31882,0.3261,0.333166,-0.0,-2964.889455,-0.0,-0.0,-13.683461,-0.0,0.003584,-0.01738,0.015527,0.096913,-5.4e-05,0.000182
333480,0.005534,-0.016629,0.009814,0.0,-0.0,-0.0,3.0,0.3261,0.318556,0.3261,0.333415,-0.0,-2965.162013,-0.0,-0.0,-13.545294,-0.0,0.003584,-0.017381,0.015531,0.048487,-4.2e-05,0.000181
333500,0.005412,-0.016629,0.009813,0.0,-0.0,-0.0,3.0,0.3261,0.318901,0.3261,0.33309,-0.0,-2965.432184,-0.0,-0.0,-13.458819,-0.0,0.003706,-0.017381,0.015535,-0.000141,-3e-05,0.000181
333520,0.00529,-0.016628,0.009812,0.0,-0.0,-0.0,3.0,0.3261,0.320041,0.3261,0.332011,-0.0,-2965.701051,-0.0,-0.0,-13.429943,-0.0,0.003829,-0.017382,0.015538,-0.048845,-1.7e-05,0.00018
333540,0.004925,-0.016382,0.009808,0.0,-0.0,-0.0,3.0,0.3261,0.320572,0.3261,0.331504,-0.0,-2965.969787,-0.0,-0.0,-13.460564,-0.0,0.003952,-0.017382,0.015542,-0.048709,7e-06,0.00018
333560,0.004803,-0.016381,0.009807,0.0,-0.0,-0.0,3.0,0.3261,0.32215,0.3261,0.329986,-0.0,-2966.239573,-0.0,-0.0,-13.548546,-0.0,0.00395,-0.017382,0.015546,-0.024176,-5e-06,0.00018
333580,0.004803,-0.016381,0.009807,0.0,-0.0,-0.0,3.0,0.3261,0.325395,0.3261,0.326804,-0.0,-2966.511515,-0.0,-0.0,-13.687809,-0.0,0.004071,-0.017383,0.015549,-0.04839,-1.7e-05,0.00018
333600,0.005047,-0.016383,0.009809,0.0,-0.0,-0.0,3.0,0.3261,0.328307,0.3261,0.323873,-0.0,-2966.786571,-0.0,-0.0,-13.868544,-0.0,0.004068,-0.017383,0.015553,-0.047905,-2.9e-05,0.000179
333620,0.004924,-0.016504,0.009808,0.0,-0.0,-0.0,3.0,0.3261,0.323451,0.3261,0.328721,-0.0,-2967.065477,-0.0,-0.0,-14.077607,-0.0,0.003704,-0.017384,0.015556,0.049012,-4.2e-05,0.000167
333640,0.004802,-0.016503,0.009807,0.0,-0.0,-0.0,3.0,0.3261,0.317061,0.3261,0.334812,0.0,-2967.348685,-0.0,0.0,-14.299175,-0.0,0.003096,-0.017385,0.01556,0.121349,-4.1e-05,0.000179
333660,0.00468,-0.016625,0.009807,0.0,-0.0,-0.0,3.0,0.3261,0.315151,0.3261,0.336572,0.0,-2967.636314,-0.0,-0.0,-14.515715,-0.0,0.002854,-0.017385,0.015563,0.072322,-2.9e-05,0.000178
333680,0.004313,-0.016623,0.009803,0.0,-0.0,-0.0,3.0,0.3261,0.316229,0.3261,0.335582,-0.0,-2967.92813,-0.0,-0.0,-14.709306,-0.0,0.002729,-0.017386,0.015567,-0.048506,-2.9e-05,0.000165
333700,0.00407,-0.0165,0.009801,0.0,-0.0,-0.0,3.0,0.3261,0.319505,0.3261,0.332519,-0.0,-2968.223544,-0.0,-0.0,-14.863235,-0.0,0.002729,-0.017387,0.01557,-0.072921,-2.8e-05,0.000176
333720,0.003459,-0.016497,0.009796,0.0,-0.0,-0.0,3.0,0.3261,0.317612,0.3261,0.334299,-0.0,-2968.521655,-0.0,-0.0,-14.963722,-0.0,0.002486,-0.017387,0.015574,-0.049047,-5.3e-05,0.000176
333740,0.003336,-0.016741,0.009796,0.0,-0.0,-0.0,3.0,0.3261,0.320684,0.3261,0.331397,-0.0,-2968.821315,-0.0,-0.0,-15.001508,-0.0,0.002361,-0.017388,0.015577,-0.024213,-5.3e-05,0.000176
333760,0.003337,-0.016618,0.009795,0.0,-0.0,-0.0,3.0,0.3261,0.322932,0.3261,0.329227,-0.0,-2969.121235,-0.0,-0.0,-14.973013,-0.0,0.00236,-0.017389,0.015581,-0.024012,-5.2e-05,0.000175
333780,0.003336,-0.016741,0.009796,0.0,-0.0,-0.0,3.0,0.3261,0.323836,0.3261,0.328343,-0.0,-2969.420099,-0.0,-0.0,-14.880826,-0.0,0.002362,-0.01739,0.015585,-0.024557,-5.2e-05,0.000187
333800,0.003337,-0.016618,0.009795,0.0,-0.0,-0.0,3.0,0.3261,0.321687,0.3261,0.330434,-0.0,-2969.716687,-0.0,-0.0,-14.733406,-0.0,0.002118,-0.017391,0.015588,0.024092,-4e-05,0.000187
333820,0.00358,-0.01662,0.00992,0.0,-0.0,-0.0,3.0,0.3261,0.322683,0.3261,0.329469,-0.0,-2970.009988,-0.0,-0.0,-14.544058,-0.0,0.002119,-0.017391,0.015592,0.024197,-1.6e-05,0.000186
333840,0.003336,-0.016497,0.009917,0.0,-0.0,-0.0,3.0,0.3261,0.321208,0.3261,0.330894,-0.0,-2970.299284,-0.0,-0.0,-14.32938,-0.0,0.002118,-0.017392,0.015595,0.000341,-3e-06,0.000174
333860,0.003458,-0.016497,0.009918,0.0,-0.0,-0.0,3.0,0.3261,0.321313,0.3261,0.330794,0.0,-2970.584205,-0.0,0.0,-14.107491,-0.0,0.001996,-0.017393,0.015599,0.024654,-1.5e-05,0.000173
333880,0.003337,-0.016375,0.009917,0.0,-0.0,-0.0,3.0,0.3261,0.318849,0.3261,0.333139,0.0,-2970.864741,-0.0,0.0,-13.896323,-0.0,0.001874,-0.017393,0.015602,0.024453,-2.8e-05,0.000173
333900,0.003337,-0.016375,0.009917,0.0,-0.0,-0.0,3.0,0.3261,0.320193,0.3261,0.331866,-0.0,-2971.141232,-0.0,-0.0,-13.71218,-0.0,0.001872,-0.017394,0.015606,0.024434,-4e-05,0.000185
333920,0.003215,-0.016374,0.009916,0.0,-0.0,-0.0,3.0,0.3261,0.318678,0.3261,0.333299,-0.0,-2971.414327,-0.0,-0.0,-13.56866,-0.0,0.001751,-0.017395,0.01561,2e-05,-4e-05,0.000184
333940,0.003092,-0.016495,0.009915,0.0,-0.0,-0.0,3.0,0.3261,0.317988,0.3261,0.333948,-0.0,-2971.68492,-0.0,-0.0,-13.475948,-0.0,0.001629,-0.017395,0.015613,-0.000202,-5.2e-05,0.000184
333960,0.002725,-0.016616,0.009912,0.0,-0.0,-0.0,3.0,0.3261,0.318555,0.3261,0.333416,-0.0,-2971.95408,-0.0,-0.0,-13.440408,-0.0,0.001508,-0.017396,0.015617,-0.048969,-5.1e-05,0.000183
333980,0.002481,-0.016737,0.009911,0.0,-0.0,-0.0,3.0,0.3261,0.320436,0.3261,0.331634,-0.0,-2972.222975,-0.0,-0.0,-13.464398,-0.0,0.001385,-0.017397,0.015621,-0.048869,-5.1e-05,0.000183
334000,0.001992,-0.016734,0.009907,0.0,-0.0,-0.0,3.0,0.3261,0.320136,0.3261,0.33192,-0.0,-2972.492789,-0.0,-0.0,-13.546229,-0.0,0.001141,-0.017397,0.015624,-0.024235,-2.7e-05,0.000182
334020,0.00187,-0.016733,0.009905,0.0,-0.0,-0.0,3.0,0.3261,0.319139,0.3261,0.332866,-0.0,-2972.764644,-0.0,-0.0,-13.680243,-0.0,0.000775,-0.017398,0.015628,0.02409,-2.7e-05,0.000194
334040,0.001747,-0.016733,0.010027,0.0,-0.0,-0.0,3.0,0.3261,0.317735,0.3261,0.334183,-0.0,-2973.039517,-0.0,-0.0,-13.857012,-0.0,0.000409,-0.017399,0.015632,-9.9e-05,-1.4e-05,0.000193
334060,0.001504,-0.016488,0.010024,0.0,-0.0,-0.0,3.0,0.3261,0.320691,0.3261,0.33139,-0.0,-2973.318172,-0.0,-0.0,-14.063713,-0.0,0.000285,-0.017399,0.015636,-0.048301,-2e-06,0.000192
334080,0.001139,-0.016364,0.010021,0.0,-0.0,-0.0,3.0,0.3261,0.317758,0.3261,0.334162,0.0,-2973.601095,-0.0,-0.0,-14.284751,-0.0,-0.000203,-0.0174,0.01564,0.000246,-1e-06,0.000192
334100,0.000774,-0.016118,0.010018,0.0,-0.0,-0.0,3.0,0.3261,0.315963,0.3261,0.335827,-0.0,-2973.888443,-0.0,-0.0,-14.502699,-0.0,-0.000568,-0.0174,0.015643,0.024601,1.1e-05,0.000191
334120,0.00053,-0.016117,0.010016,0.0,-0.0,-0.0,3.0,0.3261,0.315567,0.3261,0.33619,-0.0,-2974.180021,-0.0,-0.0,-14.699578,-0.0,-0.000811,-0.0174,0.015647,0.024054,-1.3e-05,0.000191
334140,0.000286,-0.016115,0.010014,0.0,-0.0,-0.0,3.0,0.3261,0.317637,0.3261,0.334275,-0.0,-2974.475275,-0.0,-0.0,-14.858446,-0.0,-0.000935,-0.017401,0.015651,-0.024172,-1.3e-05,0.00019
334160,-8.1e-05,-0.016236,0.010011,0.0,-0.0,-0.0,3.0,0.3261,0.318419,0.3261,0.333543,-0.0,-2974.773335,-0.0,-0.0,-14.965112,-0.0,-0.00118,-0.017401,0.015655,-0.024436,-5e-05,0.000189
334180,-0.000326,-0.016356,0.010009,0.0,-0.0,-0.0,3.0,0.3261,0.31951,0.3261,0.332515,-0.0,-2975.073074,-0.0,-0.0,-15.009764,-0.0,-0.001423,-0.017401,0.015659,-0.024578,-4.9e-05,0.000189
334200,-0.000571,-0.016721,0.009885,0.0,-0.0,-0.0,3.0,0.3261,0.316386,0.3261,0.335436,-0.0,-2975.373211,-0.0,-0.0,-14.988183,-0.0,-0.001911,-0.017401,0.015663,-0.00039,-4.9e-05,0.000188
334220,-0.000694,-0.016721,0.010006,0.0,-0.0,-0.0,3.0,0.3261,0.3159,0.3261,0.335884,-0.0,-2975.672427,-0.0,-0.0,-14.902315,-0.0,-0.002276,-0.017402,0.015666,0.023923,-3.7e-05,0.000187
334240,-0.000938,-0.01672,0.010004,0.0,-0.0,-0.0,3.0,0.3261,0.315517,0.3261,0.336236,-0.0,-2975.969485,-0.0,-0.0,-14.760057,-0.0,-0.00252,-0.017402,0.01567,-0.000468,-2.4e-05,0.000199
334260,-0.001304,-0.016596,0.010001,0.0,-0.0,-0.0,3.0,0.3261,0.314862,0.3261,0.336835,-0.0,-2976.263349,-0.0,-0.0,-14.574292,-0.0,-0.00264,-0.017402,0.015674,-0.025053,0.0,0.000198
334280,-0.001547,-0.01635,0.009999,0.0,-0.0,-0.0,3.0,0.3261,0.315713,0.3261,0.336056,-0.0,-2976.553267,-0.0,-0.0,-14.361381,-0.0,-0.002763,-0.017403,0.015678,-0.024493,2.5e-05,0.000186
334300,-0.001791,-0.016227,0.010119,0.0,-0.0,-0.0,3.0,0.3261,0.3176,0.3261,0.33431,0.0,-2976.838829,-0.0,-0.0,-14.139391,-0.0,-0.002764,-0.017403,0.015681,-0.048586,2.5e-05,0.000185
334320,-0.001912,-0.015982,0.010119,0.0,-0.0,-0.0,3.0,0.3261,0.322379,0.3261,0.329764,0.0,-2977.119992,-0.0,-0.0,-13.92637,-0.0,-0.002644,-0.017403,0.015685,-0.072376,2.5e-05,0.000185
334340,-0.002035,-0.016104,0.010118,0.0,-0.0,-0.0,3.0,0.3261,0.323577,0.3261,0.328597,-0.0,-2977.397061,-0.0,-0.0,-13.738862,-0.0,-0.002767,-0.017403,0.015689,-0.048301,0.0,0.000197
334360,-0.001913,-0.016226,0.010118,0.0,-0.0,-0.0,3.0,0.3261,0.321952,0.3261,0.330178,-0.0,-2977.670657,-0.0,-0.0,-13.590795,-0.0,-0.003135,-0.017403,0.015693,0.024838,-1.2e-05,0.000196
334380,-0.002159,-0.016469,0.010116,0.0,-0.0,-0.0,3.0,0.3261,0.315961,0.3261,0.335828,-0.0,-2977.941653,-0.0,-0.0,-13.49273,-0.0,-0.003621,-0.017403,0.015697,0.097255,-2.4e-05,0.000196
334400,-0.001914,-0.016348,0.010118,0.0,-0.0,-0.0,3.0,0.3261,0.314204,0.3261,0.337434,-0.0,-2978.211106,-0.0,-0.0,-13.451432,-0.0,-0.003864,-0.017403,0.015701,0.121367,-1.2e-05,0.000195
334420,-0.002159,-0.016469,0.010116,0.0,-0.0,-0.0,3.0,0.3261,0.312061,0.3261,0.339363,-0.0,-2978.480178,-0.0,-0.0,-13.469656,-0.0,-0.003986,-0.017404,0.015705,0.024014,-1.1e-05,0.000194
334440,-0.002523,-0.016223,0.009991,0.0,-0.0,-0.0,3.0,0.3261,0.314484,0.3261,0.33718,-0.0,-2978.750057,-0.0,-0.0,-13.546103,-0.0,-0.003986,-0.017404,0.015708,-0.048583,1e-06,0.000182
334460,-0.00301,-0.016099,0.009988,0.0,-0.0,-0.0,3.0,0.3261,0.315473,0.3261,0.336277,-0.0,-2979.021872,-0.0,-0.0,-13.675482,-0.0,-0.004108,-0.017404,0.015712,-0.07302,-1.1e-05,0.000181
334480,-0.003132,-0.016098,0.009987,0.0,-0.0,-0.0,3.0,0.3261,0.316932,0.3261,0.334931,-0.0,-2979.296621,-0.0,-0.0,-13.848698,-0.0,-0.004229,-0.017404,0.015716,-0.024515,-1.1e-05,0.000181
334500,-0.003133,-0.01622,0.009986,0.0,-0.0,-0.0,3.0,0.3261,0.32031,0.3261,0.331754,-0.0,-2979.575092,-0.0,-0.0,-14.05321,-0.0,-0.00411,-0.017404,0.015719,-0.072766,-2.3e-05,0.00018
334520,-0.003256,-0.016464,0.009985,0.0,-0.0,-0.0,3.0,0.3261,0.321249,0.3261,0.330856,-0.0,-2979.857797,-0.0,-0.0,-14.273626,-0.0,-0.004232,-0.017404,0.015723,-0.048494,-3.5e-05,0.00018
334540,-0.003257,-0.016586,0.009985,0.0,-0.0,-0.0,3.0,0.3261,0.318989,0.3261,0.333007,0.0,-2980.144929,-0.0,-0.0,-14.492618,-0.0,-0.004475,-0.017404,0.015727,0.048359,-3.6e-05,0.000192
334560,-0.003136,-0.016708,0.010108,0.0,-0.0,-0.0,3.0,0.3261,0.316527,0.3261,0.335306,-0.0,-2980.436322,-0.0,-0.0,-14.692171,-0.0,-0.004595,-0.017405,0.01573,0.048281,1e-06,0.000191
334580,-0.003014,-0.016587,0.010109,0.0,-0.0,-0.0,3.0,0.3261,0.317081,0.3261,0.334793,-0.0,-2980.731457,-0.0,-0.0,-14.855156,-0.0,-0.004473,-0.017405,0.015734,-0.000296,1e-06,0.000191
334600,-0.003012,-0.016343,0.010109,0.0,-0.0,-0.0,3.0,0.3261,0.319756,0.3261,0.332281,-0.0,-2981.029489,-0.0,-0.0,-14.967042,-0.0,-0.004229,-0.017405,0.015738,-0.048597,2.6e-05,0.000191
334620,-0.003011,-0.016099,0.01011,0.0,-0.0,-0.0,3.0,0.3261,0.321122,0.3261,0.330977,-0.0,-2981.32931,-0.0,-0.0,-15.017548,-0.0,-0.004109,-0.017406,0.015742,-0.024064,1.3e-05,0.00019
334640,-0.003133,-0.015976,0.010109,0.0,-0.0,-0.0,3.0,0.3261,0.319116,0.3261,0.332887,-0.0,-2981.629647,-0.0,-0.0,-15.001912,-0.0,-0.004231,-0.017406,0.015745,0.000586,2.6e-05,0.000178
334660,-0.003011,-0.015977,0.01011,0.0,-0.0,-0.0,3.0,0.3261,0.31808,0.3261,0.333861,-0.0,-2981.92918,-0.0,-0.0,-14.921526,-0.0,-0.004353,-0.017406,0.015749,0.04899,1e-06,0.000178
334680,-0.002766,-0.0161,0.00999,0.0,-0.0,-0.0,3.0,0.3261,0.317599,0.3261,0.334311,-0.0,-2982.226658,-0.0,-0.0,-14.783795,-0.0,-0.004354,-0.017406,0.015753,0.048867,-2.3e-05,0.000177
334700,-0.002767,-0.016222,0.009989,0.0,-0.0,-0.0,3.0,0.3261,0.316048,0.3261,0.335748,-0.0,-2982.521023,-0.0,-0.0,-14.601231,-0.0,-0.004353,-0.017406,0.015756,0.048526,-3.5e-05,0.000177
334720,-0.002646,-0.016467,0.00999,0.0,-0.0,-0.0,3.0,0.3261,0.315891,0.3261,0.335893,-0.0,-2982.811495,-0.0,-0.0,-14.389978,-0.0,-0.004353,-0.017406,0.01576,0.024092,-4.8e-05,0.000176
334740,-0.002646,-0.016467,0.00999,0.0,-0.0,-0.0,3.0,0.3261,0.316461,0.3261,0.335367,0.0,-2983.097632,-0.0,-0.0,-14.16805,-0.0,-0.00423,-0.017407,0.015763,-0.000342,-4.8e-05,0.000176
334760,-0.002646,-0.016589,0.00999,0.0,-0.0,-0.0,3.0,0.3261,0.316289,0.3261,0.335527,-0.0,-2983.379359,-0.0,-0.0,-13.953582,-0.0,-0.004231,-0.017407,0.015767,-0.000265,-4.7e-05,0.000176
334780,-0.002768,-0.016466,0.009989,0.0,-0.0,-0.0,3.0,0.3261,0.317044,0.3261,0.334827,-0.0,-2983.656954,-0.0,-0.0,-13.763321,-0.0,-0.004108,-0.017408,0.015771,-0.024459,-2.3e-05,0.000175
334800,-0.002646,-0.016589,0.00999,0.0,-0.0,-0.0,3.0,0.3261,0.317274,0.3261,0.334613,-0.0,-2983.931012,-0.0,-0.0,-13.611471,-0.0,-0.004107,-0.017408,0.015774,-0.024659,-1.1e-05,0.000187
334820,-0.002769,-0.016588,0.009989,0.0,-0.0,-0.0,3.0,0.3261,0.319219,0.3261,0.33279,-0.0,-2984.202389,-0.0,-0.0,-13.508914,-0.0,-0.003864,-0.017408,0.015778,-0.048627,1e-06,0.000187
334840,-0.002769,-0.016466,0.010111,0.0,-0.0,-0.0,3.0,0.3261,0.317685,0.3261,0.334231,-0.0,-2984.472129,-0.0,-0.0,-13.462753,-0.0,-0.003986,-0.017408,0.015782,-0.000298,1e-06,0.000199
334860,-0.002891,-0.016465,0.01011,0.0,-0.0,-0.0,3.0,0.3261,0.319091,0.3261,0.332911,-0.0,-2984.741391,-0.0,-0.0,-13.476085,-0.0,-0.003865,-0.017409,0.015785,-0.024268,1e-06,0.000186
334880,-0.002646,-0.016345,0.010112,0.0,-0.0,-0.0,3.0,0.3261,0.322318,0.3261,0.329823,-0.0,-2985.011363,-0.0,-0.0,-13.547942,-0.0,-0.003745,-0.017409,0.015789,-0.048283,-1.1e-05,0.000186
334900,-0.002647,-0.016467,0.010112,0.0,-0.0,-0.0,3.0,0.3261,0.322372,0.3261,0.329772,-0.0,-2985.283184,-0.0,-0.0,-13.673343,-0.0,-0.003623,-0.01741,0.015792,-0.048084,-2.3e-05,0.000173
334920,-0.002645,-0.016345,0.00999,0.0,-0.0,-0.0,3.0,0.3261,0.32061,0.3261,0.331468,-0.0,-2985.557866,-0.0,-0.0,-13.843476,-0.0,-0.003745,-0.017411,0.015796,0.024836,-3.5e-05,0.000161
334940,-0.002524,-0.016467,0.009991,0.0,-0.0,-0.0,3.0,0.3261,0.317336,0.3261,0.334556,-0.0,-2985.836215,-0.0,-0.0,-14.046039,-0.0,-0.003987,-0.017411,0.015799,0.097455,-3.5e-05,0.000161
334960,-0.002157,-0.016592,0.009872,0.0,-0.0,-0.0,3.0,0.3261,0.316865,0.3261,0.334993,-0.0,-2986.11877,-0.0,0.0,-14.265816,-0.0,-0.003987,-0.017412,0.015803,0.073022,-4.7e-05,0.00016
334980,-0.002035,-0.016592,0.009873,0.0,-0.0,-0.0,3.0,0.3261,0.315064,0.3261,0.336651,0.0,-2986.405749,-0.0,-0.0,-14.485563,-0.0,-0.003986,-0.017412,0.015806,0.048608,-3.5e-05,0.00016
335000,-0.002035,-0.016592,0.009873,0.0,-0.0,-0.0,3.0,0.3261,0.315524,0.3261,0.33623,-0.0,-2986.697015,-0.0,-0.0,-14.687246,-0.0,-0.003864,-0.017413,0.015809,0.024094,-3.5e-05,0.000172
335020,-0.002036,-0.016592,0.009995,0.0,-0.0,-0.0,3.0,0.3261,0.314554,0.3261,0.337116,-0.0,-2986.992075,-0.0,-0.0,-14.853582,-0.0,-0.003741,-0.017413,0.015813,-0.024735,-3.5e-05,0.000171
335040,-0.002158,-0.016591,0.009994,0.0,-0.0,-0.0,3.0,0.3261,0.317651,0.3261,0.334262,-0.0,-2987.290106,-0.0,-0.0,-14.969766,-0.0,-0.003377,-0.017414,0.015816,-0.048626,-4.7e-05,0.000159
335060,-0.002157,-0.016469,0.009872,0.0,-0.0,-0.0,3.0,0.3261,0.321131,0.3261,0.330968,-0.0,-2987.590018,-0.0,-0.0,-15.02513,-0.0,-0.003011,-0.017415,0.015819,-0.072742,-3.5e-05,0.000159
335080,-0.001913,-0.016593,0.009874,0.0,-0.0,-0.0,3.0,0.3261,0.323586,0.3261,0.328589,-0.0,-2987.890544,-0.0,-0.0,-15.014459,-0.0,-0.002767,-0.017416,0.015823,-0.024235,-4.7e-05,0.000159
335100,-0.001547,-0.016595,0.009877,0.0,-0.0,-0.0,3.0,0.3261,0.323453,0.3261,0.328718,-0.0,-2988.190363,-0.0,-0.0,-14.938683,-0.0,-0.002644,-0.017416,0.015826,0.00018,-3.5e-05,0.000159
335120,-0.000937,-0.016598,0.009882,0.087266,-0.0,-0.0,3.0,0.3261,0.281519,0.3261,0.363614,0.000254,-2988.488215,-0.0,0.100591,-14.804791,5.5e-05,-0.0024,-0.017417,0.015829,0.073022,-2.3e-05,0.000171
335140,-0.000448,-0.0166,0.009886,0.087266,-0.0,-0.0,3.0,0.3261,0.276409,0.3261,0.367145,0.003922,-2988.783022,0.000707,0.206751,-14.624979,0.000721,-0.002277,-0.017417,0.015832,0.073142,-1.1e-05,0.000159
335160,0.000162,-0.016481,0.010013,0.087266,-0.0,-0.0,3.0,0.3261,0.275348,0.3261,0.36786,0.014759,-2989.073974,0.007734,0.190419,-14.415199,0.001601,-0.00191,-0.017418,0.015835,0.04853,-1.1e-05,0.000171
335180,0.001504,-0.016488,0.010024,0.087266,-0.0,-0.0,3.0,0.3261,0.280288,0.3261,0.364478,-0.033681,-2989.353232,-0.044933,-0.015495,-14.193415,-0.004477,-0.000936,-0.017418,0.015839,0.073382,-1.2e-05,0.000159
335200,0.003702,-0.016377,0.010042,0.087266,-0.0,-0.0,3.0,0.3261,0.286781,0.3261,0.359833,-0.00536,-2989.635405,-0.016967,0.142374,-13.977462,-0.004314,0.001016,-0.017419,0.015842,0.073621,-1.3e-05,0.000161
335220,0.007121,-0.016515,0.009826,0.087266,-0.0,-0.0,3.0,0.3261,0.297918,0.3261,0.351306,-9.7e-05,-2989.913456,-0.01514,0.217037,-13.78421,-0.003571,0.004065,-0.01742,0.015845,0.171256,-5.1e-05,0.000151
335240,0.012006,-0.016538,0.009746,0.087266,-0.0,-0.0,3.0,0.3261,0.312029,0.3261,0.339391,0.00376,-2990.187901,-0.015757,0.200463,-13.628138,-0.00271,0.008459,-0.017421,0.015848,0.220283,-6.5e-05,0.000143
335260,0.018234,-0.016686,0.009431,0.087266,-0.0,-0.0,3.0,0.3261,0.323823,0.3261,0.328356,0.006851,-2990.45957,-0.017345,0.182168,-13.520476,-0.001942,0.013952,-0.017422,0.015851,0.293685,-8e-05,0.000111
335280,0.025562,-0.016958,0.009007,0.087266,-0.0,-0.0,3.0,0.3261,0.33105,0.3261,0.321046,0.009938,-2990.729491,-0.019598,0.177631,-13.468709,-0.001228,0.020423,-0.017423,0.015853,0.415416,-8.2e-05,8e-05
335300,0.033745,-0.017107,0.008589,0.087266,-0.0,-0.0,3.0,0.3261,0.335349,0.3261,0.316481,0.013599,-2990.998811,-0.022658,0.174959,-13.476326,-0.000527,0.027754,-0.017425,0.015854,0.512433,-8.5e-05,3.7e-05
335320,0.042416,-0.017253,0.008176,0.087266,-0.0,-0.0,3.0,0.3261,0.340478,0.3261,0.310805,0.01839,-2991.268715,-0.027009,0.168847,-13.542743,0.000159,0.03606,-0.017426,0.015855,0.512678,-8.7e-05,-4e-06
335340,0.051335,-0.017273,0.007763,0.087266,-0.0,-0.0,3.0,0.3261,0.346427,0.3261,0.303886,0.02543,-2991.540336,-0.03379,0.158561,-13.663355,0.00082,0.044979,-0.017428,0.015854,0.46365,-8.9e-05,-5.8e-05
335360,0.060133,-0.017285,0.007227,0.087266,-0.0,-0.0,3.0,0.3261,0.352323,0.3261,0.29664,0.037884,-2991.814668,-0.046205,0.140998,-13.829696,0.001437,0.054141,-0.017431,0.015853,0.390781,-0.000102,-9.9e-05
335380,0.068442,-0.017172,0.006805,0.087266,-0.0,-0.0,3.0,0.3261,0.355417,0.3261,0.292667,0.069307,-2992.092409,-0.077922,0.10335,-14.029767,0.001966,0.06306,-0.017433,0.015851,0.390623,-0.000127,-0.000139
335400,0.076383,-0.017424,0.006514,0.087266,-0.0,-0.0,3.0,0.3261,0.358203,0.3261,0.288985,0.373415,-2992.372594,-0.382918,-0.037944,-14.248599,0.001755,0.071488,-0.017435,0.015848,0.367258,-0.000141,-0.000168
335420,0.083718,-0.01755,0.006216,0.087266,-0.0,-0.0,3.0,0.3261,0.358647,0.3261,0.288388,-6.304564,-2992.505565,6.300143,0.822273,-14.471142,-0.057268,0.07919,-0.017438,0.015844,0.317555,-0.000165,-0.000197
335440,0.08995,-0.017919,0.006041,0.087266,-0.0,-0.0,3.0,0.3261,0.356404,0.3261,0.291374,-6.272452,-2992.796632,6.293695,2.01207,-14.689915,-0.1258,0.085791,-0.017441,0.01584,0.268628,-0.000153,-0.000216
335460,0.095083,-0.017925,0.005964,0.087266,-0.0,-0.0,3.0,0.3261,0.350361,0.3261,0.299096,-6.239367,-2993.091829,6.311805,3.078335,-14.891884,-0.189288,0.091171,-0.017443,0.015835,0.268198,-0.000141,-0.000224
335480,0.098991,-0.017811,0.005992,0.087266,-0.0,-0.0,3.0,0.3261,0.343424,0.3261,0.307426,-6.190351,-2993.390171,6.341855,4.02717,-15.063685,-0.248146,0.09557,-0.017446,0.015831,0.220443,-0.000117,-0.000233
335500,0.101802,-0.017573,0.006003,0.087266,-0.0,-0.0,3.0,0.3261,0.338359,0.3261,0.313181,-6.121797,-2993.689749,6.386588,4.863128,-15.194216,-0.302817,0.098998,-0.017449,0.015826,0.14618,-0.000104,-0.000243
335520,0.10376,-0.017333,0.006008,0.087266,-0.0,-0.0,3.0,0.3261,0.33482,0.3261,0.317052,-6.027229,-2993.98724,6.452507,5.590929,-15.27663,-0.353784,0.101442,-0.017451,0.015821,0.073313,-9.3e-05,-0.000229
335540,0.104741,-0.01722,0.006132,0.087266,-0.0,-0.0,3.0,0.3261,0.331419,0.3261,0.320661,-5.893842,-2994.276828,6.552321,6.216946,-15.309892,-0.401556,0.103033,-0.017453,0.015817,0.000292,-8.2e-05,-0.000216
335560,0.105228,-0.017106,0.006251,0.087266,-0.0,-0.0,3.0,0.3261,0.32876,0.3261,0.323411,-5.696014,-2994.547514,6.711184,6.750287,-15.299533,-0.446642,0.103763,-0.017455,0.015813,0.000374,-8.2e-05,-0.000203
335580,0.105106,-0.017106,0.00625,0.087266,-0.0,-0.0,3.0,0.3261,0.323644,0.3261,0.328532,-5.384223,-2994.776126,6.977593,7.203209,-15.257358,-0.489516,0.103887,-0.017457,0.015809,0.024052,-8.3e-05,-0.00019
335600,0.105105,-0.017112,0.006372,0.087266,-0.0,-0.0,3.0,0.3261,0.323074,0.3261,0.329089,-4.89425,-2994.913101,7.414104,7.590591,-15.200108,-0.530576,0.103886,-0.017459,0.015805,-0.024293,-9.5e-05,-0.000189
335620,0.104861,-0.017233,0.006377,0.087266,-0.0,-0.0,3.0,0.3261,0.323373,0.3261,0.328797,-4.29421,-2994.889088,7.950438,7.928372,-15.147754,-0.570119,0.103764,-0.017461,0.015801,-0.048651,-0.000107,-0.000188
335640,0.104984,-0.017227,0.006256,0.087266,-0.0,-0.0,3.0,0.3261,0.326273,0.3261,0.325928,-3.831323,-2994.708338,8.336302,8.232473,-15.122622,-0.608319,0.103764,-0.017463,0.015797,-0.024082,-9.4e-05,-0.0002
335660,0.105105,-0.017349,0.006263,0.087266,-0.0,-0.0,3.0,0.3261,0.325296,0.3261,0.326902,-3.539823,-2994.447991,8.534548,8.250291,-15.14447,-0.627287,0.103765,-0.017464,0.015793,1.6e-05,-9.4e-05,-0.0002
335680,0.105716,-0.017222,0.00614,0.087266,-0.0,-0.0,3.0,0.3261,0.328013,0.3261,0.324172,-3.339286,-2994.156428,8.62566,8.012289,-15.219136,-0.627428,0.104131,-0.017466,0.015789,0.072871,-9.3e-05,-0.000211
335700,0.10682,-0.017225,0.00615,0.087266,-0.0,-0.0,3.0,0.3261,0.32866,0.3261,0.323513,-3.17682,-2993.852561,8.654748,7.747541,-15.351763,-0.623103,0.10474,-0.017468,0.015785,0.073036,-8.1e-05,-0.000211
335720,0.108161,-0.016984,0.006147,0.087266,-0.0,-0.0,3.0,0.3261,0.330691,0.3261,0.32142,-3.018431,-2993.544834,8.634399,7.513778,-15.5458,-0.617988,0.105722,-0.01747,0.015781,0.097593,-5.6e-05,-0.000211
335740,0.109265,-0.016987,0.006156,0.087266,-0.0,-0.0,3.0,0.3261,0.330073,0.3261,0.32206,-2.828083,-2993.240483,8.551597,7.284024,-15.797694,-0.610457,0.106942,-0.017471,0.015777,0.073019,-6.9e-05,-0.000209
335760,0.110729,-0.01686,0.006039,0.087266,-0.0,-0.0,3.0,0.3261,0.332013,0.3261,0.320038,-2.534649,-2992.954514,8.347393,6.986646,-16.095055,-0.596076,0.108412,-0.017473,0.015772,0.072998,-6.8e-05,-0.000219
335780,0.112198,-0.017108,0.006065,0.087266,-0.0,-0.0,3.0,0.3261,0.335705,0.3261,0.316095,-1.943506,-2992.737733,7.833658,6.423361,-16.41637,-0.567576,0.110247,-0.017474,0.015768,0.024373,-9.3e-05,-0.000216
335800,0.11379,-0.017104,0.005957,0.087266,-0.0,-0.0,3.0,0.3261,0.340228,0.3261,0.311088,-0.948625,-2992.748059,6.902785,5.15451,-16.731742,-0.562859,0.112082,-0.017476,0.015763,0.00032,-9.2e-05,-0.000227
335820,0.115374,-0.017228,0.005976,0.087266,-0.0,-0.0,3.0,0.3261,0.344116,0.3261,0.306618,-0.425295,-2993.008367,6.422529,3.56653,-17.01198,-0.592014,0.113908,-0.017477,0.015759,0.000529,-0.000105,-0.000224
335840,0.117088,-0.017225,0.005869,0.087266,-0.0,-0.0,3.0,0.3261,0.342497,0.3261,0.308499,-0.248578,-2993.333667,6.266533,2.410023,-17.230732,-0.60493,0.115258,-0.017479,0.015754,0.097603,-8e-05,-0.000236
335860,0.118557,-0.01735,0.005888,0.087266,-0.0,-0.0,3.0,0.3261,0.339984,0.3261,0.311363,-0.172278,-2993.673955,6.195584,1.833771,-17.373184,-0.596182,0.116483,-0.017481,0.01575,0.146138,-8e-05,-0.000234
335880,0.119784,-0.017224,0.00577,0.087266,-0.0,-0.0,3.0,0.3261,0.335712,0.3261,0.316088,-0.130722,-2994.019645,6.152905,1.692855,-17.436015,-0.592129,0.11746,-0.017482,0.015745,0.146039,-7.9e-05,-0.000245
335900,0.120516,-0.017103,0.005768,0.087266,-0.0,-0.0,3.0,0.3261,0.331385,0.3261,0.320696,-0.103677,-2994.367274,6.122214,1.619405,-17.420372,-0.593081,0.118194,-0.017484,0.01574,0.074157,-7.9e-05,-0.000244
335920,0.120881,-0.017225,0.005778,0.087266,-0.0,-0.0,3.0,0.3261,0.332708,0.3261,0.319306,-0.085183,-2994.714654,6.096671,1.561024,-17.332529,-0.595602,0.119054,-0.017486,0.015735,-0.024369,-7.9e-05,-0.000243
335940,0.12076,-0.016981,0.005763,0.087266,-0.0,-0.0,3.0,0.3261,0.332333,0.3261,0.319701,-0.074848,-2995.060127,6.070595,1.514137,-17.186983,-0.599393,0.119541,-0.017488,0.01573,-0.048576,-6.7e-05,-0.000243
335960,0.120516,-0.017103,0.005768,0.087266,-0.0,-0.0,3.0,0.3261,0.333716,0.3261,0.318235,-0.092991,-2995.402457,6.020166,1.48616,-17.004971,-0.604863,0.119784,-0.017489,0.015726,-0.072829,-7.9e-05,-0.000242
335980,0.120394,-0.017103,0.005767,0.087266,-0.0,-0.0,3.0,0.3261,0.336237,0.3261,0.315516,0.028266,-2995.730762,6.111008,1.557902,-16.812504,-0.617522,0.119783,-0.017491,0.015721,-0.048257,-9.1e-05,-0.000241
336000,0.120393,-0.017232,0.005897,0.087266,-0.0,-0.0,3.0,0.3261,0.335922,0.3261,0.315859,0.005472,-2996.06543,6.055459,1.415292,-16.633141,-0.615894,0.119538,-0.017493,0.015716,-0.024187,-0.000103,-0.000227
336020,0.120393,-0.01711,0.005889,0.087266,-0.0,-0.0,3.0,0.3261,0.335077,0.3261,0.316775,0.014371,-2996.396819,6.031283,1.344273,-16.487796,-0.618836,0.119171,-0.017495,0.015711,0.024671,-0.000103,-0.000227
336040,0.120391,-0.017361,0.006026,0.087266,-0.0,-0.0,3.0,0.3261,0.3308,0.3261,0.321307,0.029196,-2996.725484,6.008983,1.307697,-16.39614,-0.623902,0.118686,-0.017496,0.015707,0.07283,-9.1e-05,-0.000227
336060,0.120391,-0.017361,0.006026,0.087266,-0.0,-0.0,3.0,0.3261,0.325878,0.3261,0.326322,0.049512,-2997.052431,5.983833,1.278727,-16.370884,-0.629299,0.118322,-0.017498,0.015702,0.096512,-9.1e-05,-0.000215
336080,0.120391,-0.017361,0.006026,0.087266,-0.0,-0.0,3.0,0.3261,0.328694,0.3261,0.323478,0.078169,-2997.378747,5.95147,1.243759,-16.417186,-0.634107,0.118566,-0.017499,0.015698,-0.000385,-6.7e-05,-0.000216
336100,0.120391,-0.017239,0.006018,0.087266,-0.0,-0.0,3.0,0.3261,0.331924,0.3261,0.320132,0.12273,-2997.705223,5.903596,1.192422,-16.532518,-0.637648,0.118931,-0.017501,0.015694,-0.048742,-6.7e-05,-0.000216
336120,0.120514,-0.017232,0.005897,0.087266,-0.0,-0.0,3.0,0.3261,0.335981,0.3261,0.315795,0.205616,-2998.031448,5.817296,1.106869,-16.706811,-0.638773,0.119417,-0.017503,0.015689,-0.048456,-7.8e-05,-0.000226
336140,0.120637,-0.01711,0.005891,0.087266,-0.0,-0.0,3.0,0.3261,0.336184,0.3261,0.315574,0.426666,-2998.351381,5.592361,0.915867,-16.922852,-0.635053,0.11966,-0.017505,0.015685,0.000384,-8.9e-05,-0.000237
336160,0.121125,-0.017225,0.00578,0.087266,-0.0,-0.0,3.0,0.3261,0.339222,0.3261,0.312218,2.025115,-2998.587181,3.988469,0.127166,-17.154812,-0.647348,0.120025,-0.017507,0.01568,0.000383,-0.000113,-0.000235
336180,0.121742,-0.01722,0.005664,0.087266,-0.0,-0.0,3.0,0.3261,0.338581,0.3261,0.312934,3.101431,-2998.28813,2.900591,-1.529942,-17.363075,-0.723901,0.120147,-0.017509,0.015676,0.02623,-0.000113,-0.000246
336200,0.121987,-0.017335,0.005552,0.087266,-0.0,-0.0,3.0,0.3261,0.334361,0.3261,0.317545,3.06405,-2997.939362,2.894417,-3.106775,-17.507449,-0.808819,0.12015,-0.017511,0.015671,0.074137,-0.000125,-0.000245
336220,0.122108,-0.017457,0.00556,0.087266,-0.0,-0.0,3.0,0.3261,0.331758,0.3261,0.320306,3.005666,-2997.588732,2.871406,-4.473475,-17.55747,-0.892972,0.120274,-0.017513,0.015666,0.074132,-8.7e-05,-0.000258
336240,0.12223,-0.017457,0.005561,0.087266,-0.0,-0.0,3.0,0.3261,0.331055,0.3261,0.321042,2.925389,-2997.239662,2.829021,-5.111827,-17.502233,-0.938552,0.120405,-0.017514,0.01566,0.023676,-7.6e-05,-0.000247
336260,0.122108,-0.017098,0.00566,0.087266,-0.0,-0.0,3.0,0.3261,0.334324,0.3261,0.317584,2.823289,-2996.897049,2.759881,-5.140666,-17.354719,-0.965363,0.12077,-0.017516,0.015655,-0.048557,-5e-05,-0.00026
336280,0.122109,-0.016977,0.005652,0.087266,-0.0,-0.0,3.0,0.3261,0.335226,0.3261,0.316613,2.687247,-2996.567567,2.648597,-4.91069,-17.13204,-0.996567,0.12089,-0.017518,0.01565,-0.048475,-5.1e-05,-0.000247
336300,0.121987,-0.016855,0.005644,0.087266,-0.0,-0.0,3.0,0.3261,0.336508,0.3261,0.315221,2.476472,-2996.263108,2.456837,-4.631049,-16.84872,-1.030438,0.121011,-0.017519,0.015645,-0.048375,-6.3e-05,-0.000246
336320,0.122108,-0.016862,0.005767,0.087266,-0.0,-0.0,3.0,0.3261,0.338171,0.3261,0.31339,2.088746,-2996.013871,2.084562,-4.232186,-16.524568,-1.072159,0.121008,-0.017521,0.015641,0.000367,-7.6e-05,-0.000232
336340,0.121986,-0.016984,0.005773,0.087266,-0.0,-0.0,3.0,0.3261,0.334896,0.3261,0.31697,1.367661,-2995.905607,1.374504,-3.518494,-16.18637,-1.135802,0.120765,-0.017522,0.015636,0.04875,-8.8e-05,-0.000231
336360,0.122229,-0.017106,0.005783,0.087266,-0.0,-0.0,3.0,0.3261,0.336926,0.3261,0.314763,0.66867,-2996.035192,0.675999,-2.486477,-15.868999,-1.223234,0.120887,-0.017523,0.015631,0.024282,-8.8e-05,-0.000218
336380,0.122349,-0.017236,0.005913,0.087266,-0.0,-0.0,3.0,0.3261,0.336269,0.3261,0.315482,0.363093,-2996.292998,0.356059,-1.559242,-15.60408,-1.307124,0.120888,-0.017525,0.015627,-0.000279,-8.8e-05,-0.000218
336400,0.12235,-0.017114,0.005905,0.087266,-0.0,-0.0,3.0,0.3261,0.337632,0.3261,0.313986,0.239,-2996.580553,0.20016,-0.773805,-15.41224,-1.384859,0.12101,-0.017526,0.015622,0.000202,-6.3e-05,-0.000231
336420,0.122351,-0.017228,0.005791,0.087266,-0.0,-0.0,3.0,0.3261,0.33475,0.3261,0.317127,0.188397,-2996.874617,0.098568,-0.326953,-15.302465,-1.442831,0.120889,-0.017528,0.015618,0.048355,-7.5e-05,-0.00023
336440,0.122595,-0.017107,0.005785,0.087266,-0.0,-0.0,3.0,0.3261,0.335447,0.3261,0.316374,0.17549,-2997.170039,0.014078,-0.141137,-15.270503,-1.485351,0.121011,-0.017529,0.015613,0.048438,-7.5e-05,-0.000229
