time_ms,roll,pitch,yaw,roll_rate,pitch_rate,yaw_rate,reference_roll,reference_pitch,reference_yaw,reference_throttle,throttle_1,throttle_2,throttle_3,throttle_4,roll_predicted,pitch_predicted,yaw_predicted,roll_rate_predicted,pitch_rate_predicted,yaw_rate_predicted
32443,-5.1e-05,-0.026125,-0.014778,-0.001036,-0.001064,-0.001065,-0.0,-0.0,-0.0,3.0,0.3261,0.329956,0.3261,0.322182,-0.0,-107.518512,0.0,-0.0,-5.385665,0.0
32463,-0.000174,-0.026004,-0.01478,2.8e-05,-0.0,-0.001065,1.3e-05,-0.0,-0.0,3.0,0.3261,0.329911,0.3261,0.322228,0.0,-107.738442,0.0,8e-06,-5.700177,0.0
32483,-0.000539,-0.026007,-0.014906,0.0,0.0,0.0,0.000944,-0.0,-0.0,3.0,0.3261,0.32843,0.3261,0.323748,3e-06,-107.971926,-0.0,0.000586,-6.076732,0.0
32503,-0.000416,-0.026128,-0.014905,0.0,0.0,0.0,0.00186,-0.0,-0.0,3.0,0.3261,0.326972,0.3261,0.325226,5.8e-05,-108.221212,-1.6e-05,0.001862,-6.498398,4e-06
32523,-0.000416,-0.026128,-0.014905,2.8e-05,-0.0,-0.001065,0.00241,-0.0,-0.0,3.0,0.3261,0.327982,0.3261,0.324203,-0.000547,-108.487773,0.000682,0.003002,-6.941644,1.3e-05
32543,-0.000293,-0.026005,-0.015025,-0.001064,0.0,0.0,0.003453,-0.0,-0.0,3.0,0.3261,0.328869,0.3261,0.323299,4.7e-05,-108.772037,0.000232,0.004922,-7.376089,2.9e-05
32563,-0.00017,-0.026126,-0.015024,-0.001064,-0.001064,0.0,0.004479,-0.0,-0.0,3.0,0.3261,0.328421,0.3261,0.323757,0.000214,-109.073126,0.000295,0.00673,-7.765867,5.3e-05
32583,7.4e-05,-0.026124,-0.015021,-0.001036,-0.001064,-0.001065,0.005402,-0.0,-0.0,3.0,0.3261,0.328101,0.3261,0.324083,0.000424,-109.388686,0.000417,0.008493,-8.073229,8.7e-05
32603,-4.9e-05,-0.026003,-0.015022,2.8e-05,-0.001064,-0.001065,0.006317,-0.0,-0.0,3.0,0.3261,0.327688,0.3261,0.324502,0.000709,-109.714889,0.000602,0.010114,-8.264318,0.000131
32623,-0.000171,-0.026004,-0.015024,-0.0,-0.001064,0.0,0.007242,-0.0,-0.0,3.0,0.3261,0.326154,0.3261,0.326046,0.001104,-110.046693,0.00088,0.011573,-8.315933,0.000182
32643,-0.000292,-0.025883,-0.015147,-0.0,-0.001064,0.0,0.008121,-0.0,-0.0,3.0,0.3261,0.325703,0.3261,0.326497,0.001682,-110.378357,0.001317,0.012795,-8.221071,0.000241
32663,-0.00017,-0.025882,-0.015146,0.0,0.0,0.0,0.009052,-0.0,-0.0,3.0,0.3261,0.325369,0.3261,0.326829,0.002607,-110.704136,0.002073,0.013685,-7.990956,0.000304
32683,-0.00017,-0.025882,-0.015146,2.8e-05,0.001064,-0.001065,0.009964,-0.0,-0.0,3.0,0.3261,0.326179,0.3261,0.326022,0.004366,-111.018981,0.003634,0.01395,-7.652573,0.000368
32703,7.4e-05,-0.02588,-0.015143,-0.001037,0.0,-0.001065,0.01043,-0.0,-0.0,3.0,0.3261,0.325898,0.3261,0.326302,0.00941,-111.319093,0.008463,0.012146,-7.242719,0.000427
32723,0.000197,-0.026001,-0.015141,-0.001037,0.0,-0.001065,0.011338,-0.0,-0.0,3.0,0.3261,0.325475,0.3261,0.326723,-0.392387,-111.602134,-0.393534,-0.004814,-6.800944,0.000466
32743,0.000198,-0.026123,-0.015141,2.8e-05,-0.001064,-0.001065,0.011822,-0.0,-0.0,3.0,0.3261,0.325213,0.3261,0.326984,-0.010657,-111.862267,-0.013766,0.108949,-6.363326,0.000233
32763,0.000199,-0.026123,-0.015263,2.8e-05,-0.001064,-0.001065,0.013087,-0.0,-0.0,3.0,0.3261,0.323445,0.3261,0.328726,-0.002679,-112.110591,-0.009214,0.074568,-5.959483,0.000579
32783,0.000199,-0.026123,-0.015263,-0.001064,-0.002128,-0.0,0.014025,-0.0,-0.0,3.0,0.3261,0.322959,0.3261,0.329201,0.000465,-112.343551,-0.008627,0.056614,-5.611812,0.000808
32803,7.7e-05,-0.026124,-0.015265,-0.001064,-0.001064,-0.0,0.014933,-0.0,-0.0,3.0,0.3261,0.322438,0.3261,0.329708,0.002408,-112.56364,-0.008923,0.048566,-5.335625,0.00098
32823,-4.6e-05,-0.026003,-0.015266,-0.001064,-0.001064,0.0,0.015837,-0.0,-0.0,3.0,0.3261,0.323153,0.3261,0.329012,0.004008,-112.773874,-0.009581,0.045496,-5.140539,0.001125
32843,-4.7e-05,-0.025881,-0.015266,-0.001064,0.0,0.0,0.016356,-0.0,-0.0,3.0,0.3261,0.322815,0.3261,0.329341,0.005588,-112.977589,-0.010497,0.044487,-5.031945,0.00126
32863,7.4e-05,-0.025758,-0.015265,2.7e-05,0.001064,-0.001064,0.017624,-0.0,-0.0,3.0,0.3261,0.322112,0.3261,0.330024,0.007314,-113.178288,-0.011695,0.044535,-5.012209,0.001391
32883,0.000197,-0.025757,-0.015263,2.7e-05,0.001064,-0.001064,0.018555,-0.0,-0.0,3.0,0.3261,0.320396,0.3261,0.331672,0.009353,-113.379532,-0.013281,0.044933,-5.081401,0.001523
32903,0.000198,-0.025757,-0.015385,2.7e-05,0.0,-0.001065,0.019,-0.0,-0.0,3.0,0.3261,0.320086,0.3261,0.331968,0.011927,-113.584853,-0.015474,0.044523,-5.237519,0.001659
32923,0.000199,-0.025879,-0.015385,2.8e-05,0.0,-0.001065,0.019899,-0.0,-0.0,3.0,0.3261,0.319619,0.3261,0.332411,0.015452,-113.797668,-0.018733,0.042923,-5.476177,0.001796
32943,0.000566,-0.025998,-0.015381,-0.001064,-0.001064,-1e-06,0.021014,-0.0,-0.0,3.0,0.3261,0.320213,0.3261,0.331847,0.02098,-114.021169,-0.024155,0.039523,-5.78982,0.001933
32963,0.000689,-0.026119,-0.015379,-0.001064,-0.001064,-1e-06,0.02193,-0.0,-0.0,3.0,0.3261,0.319587,0.3261,0.332441,0.031907,-114.25817,-0.035215,0.031667,-6.166551,0.002063
32983,0.000567,-0.02612,-0.01538,-0.001064,-0.001064,-1e-06,0.022382,-0.0,-0.0,3.0,0.3261,0.319193,0.3261,0.332815,0.068049,-114.510837,-0.071921,0.009679,-6.588791,0.002157
33003,0.000444,-0.025999,-0.015382,-0.001064,-0.001064,-0.0,0.02328,-0.0,-0.0,3.0,0.3261,0.318601,0.3261,0.333373,-0.329848,-114.766855,0.325275,-0.205383,-7.032221,-0.000289
33023,0.00069,-0.025997,-0.015501,0.001064,-0.001064,-1e-06,0.024162,-0.0,-0.0,3.0,0.3261,0.316773,0.3261,0.335079,-0.03168,-115.050397,0.021734,0.054009,-7.467205,-0.000888
33043,0.000812,-0.025996,-0.015499,0.001064,-0.001064,-1e-06,0.025235,-0.0,-0.0,3.0,0.3261,0.316096,0.3261,0.335704,-0.014471,-115.355054,0.005658,0.089782,-7.857695,-0.000564
33063,0.001056,-0.025994,-0.015496,0.001092,1e-06,-0.001065,0.026167,-0.0,-0.0,3.0,0.3261,0.315657,0.3261,0.336108,-0.00715,-115.674268,0.000515,0.093476,-8.164996,-0.000132
33083,0.001422,-0.025992,-0.015491,2.8e-05,2e-06,-0.001065,0.026608,-0.0,-0.0,3.0,0.3261,0.315337,0.3261,0.336402,-0.002577,-116.00412,-0.001453,0.089529,-8.354557,0.000316
33103,0.002035,-0.026109,-0.015606,2.8e-05,2e-06,-0.001065,0.027474,-0.0,-0.0,3.0,0.3261,0.317358,0.3261,0.334536,0.001,-116.339489,-0.001881,0.084186,-8.402907,0.000747
33123,0.002888,-0.02598,-0.015594,-0.001037,0.001067,-0.001062,0.02835,-0.0,-0.0,3.0,0.3261,0.318081,0.3261,0.33386,0.004489,-116.674565,-0.001123,0.079073,-8.303332,0.001152
33143,0.003377,-0.025976,-0.015588,-0.001037,4e-06,-0.001065,0.029425,-0.0,-0.0,3.0,0.3261,0.318773,0.3261,0.333211,0.008838,-117.003549,0.001185,0.073996,-8.067854,0.001525
33163,0.003988,-0.025849,-0.015702,0.001092,4e-06,-0.001065,0.029885,-0.0,-0.0,3.0,0.3261,0.317166,0.3261,0.334714,0.016173,-117.321375,0.006873,0.067188,-7.724558,0.00186
33183,0.004842,-0.025842,-0.015691,0.002156,5e-06,-0.001065,0.030768,-0.0,-0.0,3.0,0.3261,0.315595,0.3261,0.336165,0.037187,-117.624241,0.026539,0.053713,-7.311359,0.002141
33203,0.005698,-0.025835,-0.015802,0.00322,6e-06,-0.001065,0.031633,-0.0,-0.0,3.0,0.3261,0.315323,0.3261,0.336414,-0.302854,-117.907769,-0.314719,-0.044376,-6.868705,0.002306
33223,0.006801,-0.025949,-0.016035,0.004257,-0.002128,-1.4e-05,0.032485,-0.0,-0.0,3.0,0.3261,0.313803,0.3261,0.337798,-0.028949,-118.172321,-0.04096,0.135547,-6.433151,0.002546
33243,0.008269,-0.026181,-0.016137,0.003165,-0.002137,0.001047,0.032924,-0.0,-0.0,3.0,0.3261,0.315131,0.3261,0.33659,-0.011598,-118.423452,-0.027927,0.136927,-6.034633,0.003057
33263,0.00986,-0.026411,-0.016236,0.002101,-0.002139,0.001044,0.034069,-0.0,-0.0,3.0,0.3261,0.316191,0.3261,0.335616,-0.003661,-118.659529,-0.024583,0.128233,-5.695653,0.003521
33283,0.011694,-0.026395,-0.016456,0.002101,-0.002141,0.00104,0.034926,-0.0,-0.0,3.0,0.3261,0.318625,0.3261,0.333349,0.001759,-118.88314,-0.023948,0.121697,-5.431485,0.003934
33303,0.013648,-0.026377,-0.016552,0.003165,-0.001079,0.00105,0.035768,-0.0,-0.0,3.0,0.3261,0.319719,0.3261,0.332316,0.006318,-119.097427,-0.024582,0.117729,-5.251617,0.004312
33323,0.015724,-0.026113,-0.01677,0.004256,0.001064,1.7e-05,0.036598,-0.0,-0.0,3.0,0.3261,0.319794,0.3261,0.332245,0.010693,-119.305846,-0.026092,0.115353,-5.161235,0.004669
33343,0.017556,-0.025851,-0.016992,0.004283,0.002147,-0.001027,0.037016,-0.0,-0.0,3.0,0.3261,0.31888,0.3261,0.333109,0.015297,-119.512012,-0.028458,0.113271,-5.162388,0.005017
33363,0.020123,-0.025703,-0.017325,0.00532,0.002128,4.3e-05,0.038112,-0.0,-0.0,3.0,0.3261,0.319076,0.3261,0.332925,0.020525,-119.719583,-0.031906,0.110889,-5.254644,0.00536
33383,0.02306,-0.025918,-0.017653,0.00532,0.001064,2.5e-05,0.039012,-0.0,-0.0,3.0,0.3261,0.320654,0.3261,0.331425,0.02701,-119.932157,-0.037005,0.107347,-5.435195,0.005703
33403,0.026119,-0.026128,-0.017974,0.005321,0.0,0.0,0.039834,-0.0,-0.0,3.0,0.3261,0.322422,0.3261,0.329723,0.036029,-120.153173,-0.045051,0.100862,-5.698407,0.006045
33423,0.029177,-0.026214,-0.018419,0.006359,-0.002159,0.001002,0.040645,-0.0,-0.0,3.0,0.3261,0.32297,0.3261,0.329191,0.05093,-120.38576,-0.0595,0.08845,-6.03488,0.006376
33443,0.032725,-0.026419,-0.018736,0.007423,-0.002162,0.000994,0.04106,-0.0,-0.0,3.0,0.3261,0.324888,0.3261,0.327306,0.08444,-120.632477,-0.093305,0.061767,-6.430173,0.006667
33463,0.036271,-0.026621,-0.019048,0.008516,-0.002127,-7.7e-05,0.041609,-0.0,-0.0,3.0,0.3261,0.325736,0.3261,0.326464,0.262447,-120.894057,-0.272914,-0.019843,-6.863502,0.00682
33483,0.03994,-0.026578,-0.019366,0.009579,-0.001063,-4.3e-05,0.042821,-0.0,-0.0,3.0,0.3261,0.326412,0.3261,0.325788,-17.950037,-120.91136,17.941607,1.068371,-7.308687,-0.066088
33503,0.043728,-0.026287,-0.019687,0.009551,-0.00111,0.001017,0.043627,-0.0,-0.0,3.0,0.3261,0.326298,0.3261,0.325902,-28.238442,-120.813496,28.308997,3.360545,-7.77002,-0.205421
33523,0.047759,-0.026235,-0.019995,0.00955,-5.1e-05,0.001063,0.044422,-0.0,-0.0,3.0,0.3261,0.328568,0.3261,0.323607,-28.177424,-120.496253,28.415418,5.244546,-8.266231,-0.334228
33543,0.052283,-0.0263,-0.020297,0.009578,0.0,0.0,0.044827,-0.0,-0.0,3.0,0.3261,0.331123,0.3261,0.32097,-28.039895,-120.163929,28.5312,6.751455,-8.777989,-0.453164
33563,0.057051,-0.026242,-0.020479,0.008512,0.001062,6.1e-05,0.045862,-0.0,-0.0,3.0,0.3261,0.333395,0.3261,0.318577,-27.846868,-119.828017,28.689675,7.895333,-9.274224,-0.563138
33583,0.061697,-0.026302,-0.020777,0.00745,0.0,0.0,0.04668,-0.0,-0.0,3.0,0.3261,0.335832,0.3261,0.315958,-27.586534,-119.512829,28.909689,8.695341,-9.728586,-0.66545
33603,0.066095,-0.026122,-0.020964,0.008514,0.0,0.0,0.047071,-0.0,-0.0,3.0,0.3261,0.337258,0.3261,0.314399,-27.237863,-119.262307,29.215414,9.193645,-10.13624,-0.761692
33623,0.070619,-0.026428,-0.021132,0.008514,0.0,0.0,0.04784,-0.0,-0.0,3.0,0.3261,0.337426,0.3261,0.314214,-26.79493,-119.142926,29.613628,9.461836,-10.525323,-0.853408
33643,0.075024,-0.026491,-0.021312,0.009578,0.0,0.0,0.0486,-0.0,-0.0,3.0,0.3261,0.337708,0.3261,0.313903,-26.317785,-119.216205,30.043036,9.591104,-10.957023,-0.94163
33663,0.079059,-0.026804,-0.021362,0.008516,-0.001061,-8.4e-05,0.049131,-0.0,-0.0,3.0,0.3261,0.339133,0.3261,0.312318,-25.902922,-119.480701,30.402444,9.670682,-11.512463,-1.026526
33683,0.082968,-0.026753,-0.021427,0.00745,0.0,0.0,0.050003,-0.0,-0.0,3.0,0.3261,0.339397,0.3261,0.312023,-25.572468,-119.882164,30.656601,9.759133,-12.264736,-1.107331
33703,0.086755,-0.026829,-0.021366,0.006383,0.00106,9.2e-05,0.050757,-0.0,-0.0,3.0,0.3261,0.340792,0.3261,0.310449,-25.270534,-120.372964,30.806603,9.861675,-13.243392,-1.182644
33723,0.090181,-0.026911,-0.021314,0.005319,0.00106,9.6e-05,0.051501,-0.0,-0.0,3.0,0.3261,0.340912,0.3261,0.310313,-24.560789,-120.913234,30.486263,9.922626,-14.406044,-1.251129
33743,0.093233,-0.02688,-0.021148,0.006414,9.9e-05,-0.00106,0.052241,-0.0,-0.0,3.0,0.3261,0.34089,0.3261,0.310338,-21.915833,-120.578869,28.238827,9.831269,-15.642976,-1.312554
33763,0.095679,-0.026973,-0.021107,0.005352,-0.000958,-0.001161,0.052747,-0.0,-0.0,3.0,0.3261,0.340921,0.3261,0.310303,-21.731151,-119.949128,28.491735,9.564884,-16.822033,-1.368299
33783,0.097638,-0.027194,-0.021067,0.004263,-0.002118,-0.000208,0.053616,-0.0,-0.0,3.0,0.3261,0.339649,0.3261,0.31174,-21.44897,-119.325434,28.803029,9.084897,-17.786689,-1.42119
33803,0.099347,-0.027417,-0.021027,0.002131,-0.001059,-0.000106,0.054355,-0.0,-0.0,3.0,0.3261,0.340482,0.3261,0.310801,-20.943527,-118.817379,29.339667,8.422751,-18.475366,-1.475214
33823,0.100573,-0.027525,-0.021005,0.0,0.0,0.0,0.05508,-0.0,-0.0,3.0,0.3261,0.341204,0.3261,0.309981,-20.066827,-118.722013,30.248558,7.68061,-18.974682,-1.533786
33843,0.101306,-0.027637,-0.020987,-0.001064,0.0,0.0,0.055789,-0.0,-0.0,3.0,0.3261,0.341721,0.3261,0.30939,-19.434056,-119.217127,30.914201,6.966865,-19.487096,-1.598351
33863,0.101183,-0.027517,-0.020995,-0.002128,0.0,0.0,0.056242,-0.0,-0.0,3.0,0.3261,0.340983,0.3261,0.310233,-19.186344,-119.947509,31.221896,6.325833,-20.218869,-1.668346
33883,0.100818,-0.027644,-0.020995,-0.002099,0.000107,-0.001059,0.057042,-0.0,-0.0,3.0,0.3261,0.340144,0.3261,0.311182,-19.180142,-120.752703,31.529192,5.717415,-21.200602,-1.7426
33903,0.100332,-0.027644,-0.021125,-0.001064,0.0,0.0,0.057744,-0.0,-0.0,3.0,0.3261,0.337976,0.3261,0.313606,-6.283441,-121.559395,18.848079,5.084755,-22.245191,-1.820956
33923,0.099721,-0.027529,-0.021141,-0.001032,-0.000953,-0.001165,0.058439,-0.0,-0.0,3.0,0.3261,0.338131,0.3261,0.313434,-6.167555,-122.458517,18.986196,4.306986,-23.058662,-1.905184
33943,0.099109,-0.027651,-0.021263,-0.001032,-0.000954,-0.001165,0.059119,-0.0,-0.0,3.0,0.3261,0.337172,0.3261,0.314493,-5.917567,-123.355519,19.259697,3.389497,-23.426034,-1.998942
33963,0.098623,-0.027652,-0.021393,-0.002126,-0.001059,-0.000105,0.059614,-0.0,-0.0,3.0,0.3261,0.338498,0.3261,0.313026,-3.642803,-123.953447,21.539242,2.421844,-23.420025,-2.105262
33983,0.09838,-0.027777,-0.021391,-0.002126,-0.001059,-0.000105,0.060307,-0.0,-0.0,3.0,0.3261,0.339738,0.3261,0.31164,-3.136073,-123.046777,21.937388,1.546829,-23.318515,-2.224497
34003,0.098013,-0.027659,-0.021403,-0.002126,-0.001059,-0.000104,0.060987,-0.0,-0.0,3.0,0.3261,0.340995,0.3261,0.310219,-3.105161,-122.114668,21.829848,0.632525,-23.415864,-2.355941
34023,0.098015,-0.027653,-0.021525,-0.001061,-0.001059,-0.000104,0.061639,-0.0,-0.0,3.0,0.3261,0.341129,0.3261,0.310067,-2.883006,-121.185212,21.548688,-0.352349,-23.751831,-2.500231
34043,0.097645,-0.02742,-0.021421,-0.001035,0.000104,-0.00106,0.061968,-0.0,-0.0,3.0,0.3261,0.341435,0.3261,0.309717,13.765041,-121.226017,4.859763,-1.476963,-24.068575,-2.658986
34063,0.097522,-0.0273,-0.021429,2.3e-05,0.002222,-0.000852,0.062766,-0.0,-0.0,3.0,0.3261,0.340463,0.3261,0.310822,12.476434,-121.988766,6.136917,-2.753302,-24.115685,-2.834859
34083,0.0974,-0.027301,-0.021431,0.00109,0.001163,-0.000956,0.063413,-0.0,-0.0,3.0,0.3261,0.340686,0.3261,0.310569,12.341422,-122.954139,6.121925,-3.988372,-23.597737,-3.028264
34103,0.097525,-0.027416,-0.021545,0.001093,0.000104,-0.00106,0.064039,-0.0,-0.0,3.0,0.3261,0.340941,0.3261,0.31028,11.914832,-123.870626,5.808595,-5.153785,-22.425927,-3.236719
34123,0.097525,-0.027666,-0.021411,3e-06,-0.001059,-0.000104,0.064659,-0.0,-0.0,3.0,0.3261,0.341257,0.3261,0.309921,2.42687,-123.939752,-3.479007,-6.23637,-20.818322,-3.456289
34143,0.097773,-0.028028,-0.021389,-0.001058,-0.002118,-0.000208,0.064968,-0.0,-0.0,3.0,0.3261,0.341555,0.3261,0.30958,2.833032,-123.154998,-2.79807,-7.15422,-18.952822,-3.682359
34163,0.097772,-0.027906,-0.021395,-0.002126,-0.001059,-0.000104,0.065723,-0.0,-0.0,3.0,0.3261,0.342798,0.3261,0.308151,2.580039,-122.42489,-2.647511,-7.896066,-17.034926,-3.910173
34183,0.09777,-0.027912,-0.021273,-0.001061,-0.001059,-0.000104,0.066357,-0.0,-0.0,3.0,0.3261,0.342879,0.3261,0.308057,2.138121,-121.825672,-2.323393,-8.420983,-15.137032,-4.13605
34203,0.097398,-0.027435,-0.021181,-0.001035,0.000103,-0.00106,0.066952,-0.0,-0.0,3.0,0.3261,0.342969,0.3261,0.307954,1.208441,-121.513339,-1.549782,-8.610972,-13.203763,-4.356341
34223,0.096903,-0.027318,-0.021191,2.9e-05,0.000103,-0.00106,0.067245,-0.0,-0.0,3.0,0.3261,0.342093,0.3261,0.308964,0.190516,-121.729306,-0.732288,-8.329566,-11.181192,-4.56699
34243,0.096902,-0.027068,-0.021325,0.0,0.0,0.0,0.06783,-0.0,-0.0,3.0,0.3261,0.341227,0.3261,0.309955,-0.280835,-122.143297,-0.495054,-7.497885,-9.088664,-4.764391
34263,0.096902,-0.027068,-0.021325,0.0,0.0,0.0,0.068537,-0.0,-0.0,3.0,0.3261,0.342442,0.3261,0.308562,-0.576546,-122.524355,-0.442158,-6.14427,-7.051701,-4.946901
34283,0.097146,-0.027065,-0.021321,-0.001064,0.0,0.0,0.06887,-0.0,-0.0,3.0,0.3261,0.343862,0.3261,0.306916,-0.79731,-122.848236,-0.440161,-4.385863,-5.257444,-5.115657
34303,0.097148,-0.027309,-0.021309,-0.001061,-0.001059,-0.000103,0.069439,-0.0,-0.0,3.0,0.3261,0.343985,0.3261,0.306772,-0.946518,-123.128193,-0.447769,-2.402271,-3.881963,-5.273911
34323,0.097151,-0.027553,-0.021297,-0.001059,-0.002118,-0.000207,0.069998,-0.0,-0.0,3.0,0.3261,0.344142,0.3261,0.306589,-1.009693,-123.383922,-0.44419,-0.399733,-3.04397,-5.425424
34343,0.097159,-0.027798,-0.021289,-0.001061,-0.001059,-0.000103,0.07055,-0.0,-0.0,3.0,0.3261,0.344224,0.3261,0.306492,-0.967735,-123.631167,-0.408248,1.417207,-2.787507,-5.572954
34363,0.096907,-0.027556,-0.021301,-0.001032,-0.000956,-0.001163,0.071102,-0.0,-0.0,3.0,0.3261,0.344338,0.3261,0.306359,-0.750957,-123.878667,-0.262629,2.86733,-3.081553,-5.717604
34383,0.096784,-0.027435,-0.021309,-0.001038,0.001162,-0.000957,0.071562,-0.0,-0.0,3.0,0.3261,0.343435,0.3261,0.307413,1.63433,-124.088386,1.999324,3.818635,-3.828424,-5.859192
34403,0.096416,-0.027196,-0.021327,-0.001038,0.001162,-0.000957,0.072092,-0.0,-0.0,3.0,0.3261,0.343512,0.3261,0.307323,8.569854,-123.830883,8.77201,4.233004,-4.883131,-5.997242
34423,0.096172,-0.027199,-0.021331,-0.001035,0.000102,-0.00106,0.072604,-0.0,-0.0,3.0,0.3261,0.343576,0.3261,0.307249,8.702301,-123.508731,8.73309,4.054454,-6.075045,-6.132076
34443,0.096172,-0.027199,-0.021331,-0.001061,-0.001059,-0.000102,0.073116,-0.0,-0.0,3.0,0.3261,0.343656,0.3261,0.307156,8.821204,-123.150609,8.687293,3.353477,-7.230697,-6.265456
34463,0.09605,-0.027201,-0.021333,-0.002123,-0.002119,-0.000204,0.073366,-0.0,-0.0,3.0,0.3261,0.343778,0.3261,0.307014,8.914073,-122.758027,8.630732,2.257761,-8.204506,-6.400233
34483,0.095685,-0.027327,-0.021333,-0.002126,-0.001059,-0.000102,0.074035,-0.0,-0.0,3.0,0.3261,0.343733,0.3261,0.307066,8.979824,-122.337477,8.559516,0.927025,-8.887709,-6.539459
34503,0.095318,-0.027338,-0.021217,-0.001032,-0.000958,-0.001161,0.074522,-0.0,-0.0,3.0,0.3261,0.343667,0.3261,0.307143,9.03032,-121.899356,8.461585,-0.465573,-9.204743,-6.685363
34523,0.094831,-0.027216,-0.021353,-0.001033,-0.000959,-0.001161,0.074999,-0.0,-0.0,3.0,0.3261,0.343659,0.3261,0.307152,9.11788,-121.458863,8.287251,-1.742353,-9.109483,-6.838579
34543,0.094582,-0.02734,-0.021347,-0.001061,-0.001059,-0.000101,0.075234,-0.0,-0.0,3.0,0.3261,0.343751,0.3261,0.307045,9.717211,-121.057848,7.569146,-2.732252,-8.593699,-6.997852
34563,0.094338,-0.027343,-0.021351,-0.001064,0.0,0.0,0.075694,-0.0,-0.0,3.0,0.3261,0.343838,0.3261,0.306944,11.760517,-121.179049,5.400536,-3.33169,-7.707145,-7.160424
34583,0.094095,-0.027346,-0.021355,-0.001067,0.00106,0.0001,0.076317,-0.0,-0.0,3.0,0.3261,0.343798,0.3261,0.306991,11.680542,-121.589271,5.34091,-3.386036,-6.57134,-7.323021
34603,0.094093,-0.027224,-0.021361,-0.001035,0.0001,-0.00106,0.076561,-0.0,-0.0,3.0,0.3261,0.343835,0.3261,0.306947,11.570344,-121.972614,5.314202,-2.855631,-5.383112,-7.482699
34623,0.093973,-0.02722,-0.021485,3.2e-05,-0.00096,-0.00116,0.076998,-0.0,-0.0,3.0,0.3261,0.343872,0.3261,0.306904,11.477493,-122.333909,5.29598,-1.848138,-4.370276,-7.638114
34643,0.093728,-0.027101,-0.021494,5e-06,-0.002119,-0.000199,0.077427,-0.0,-0.0,3.0,0.3261,0.34394,0.3261,0.306824,11.420884,-122.682311,5.285055,-0.821676,-3.700854,-7.772738
34663,0.093485,-0.027226,-0.021493,3.4e-05,-0.00202,-0.001259,0.077846,-0.0,-0.0,3.0,0.3261,0.342856,0.3261,0.308084,11.397911,-123.025352,5.281295,-0.191254,-3.302816,-7.872023
34683,0.093486,-0.027098,-0.02162,-0.001062,-0.00106,-9.9e-05,0.078065,-0.0,-0.0,3.0,0.3261,0.342981,0.3261,0.30794,11.399833,-123.3661,5.289063,0.042566,-3.003955,-7.942575
34703,0.093365,-0.027094,-0.021744,-0.001064,0.0,0.0,0.078628,-0.0,-0.0,3.0,0.3261,0.343997,0.3261,0.306758,11.436947,-123.704012,5.331492,-0.03645,-2.654456,-7.990547
34723,0.093,-0.027099,-0.02175,-0.0021,9.9e-05,-0.00106,0.079029,-0.0,-0.0,3.0,0.3261,0.343971,0.3261,0.306788,11.752035,-124.031877,5.659594,-0.333118,-2.159888,-8.018257
34743,0.092514,-0.027099,-0.02188,-0.002128,0.0,0.0,0.079419,-0.0,-0.0,3.0,0.3261,0.343911,0.3261,0.306858,4.937729,-124.241467,-1.136097,0.163874,-1.483905,-8.094751
34763,0.09202,-0.027104,-0.021884,-0.001064,0.0,0.0,0.079802,-0.0,-0.0,3.0,0.3261,0.343805,0.3261,0.306982,4.920356,-124.572107,-1.187779,1.836988,-1.47869,-8.242102
34783,0.091654,-0.027109,-0.02189,-0.001038,0.001157,-0.000963,0.080075,-0.0,-0.0,3.0,0.3261,0.342578,0.3261,0.308406,4.999317,-124.911159,-1.204102,2.956873,-2.324004,-8.387716
34803,0.091288,-0.026864,-0.022029,2.8e-05,9.7e-05,-0.00106,0.08046,-0.0,-0.0,3.0,0.3261,0.342489,0.3261,0.308508,5.122164,-125.267466,-1.208249,3.248255,-3.734186,-8.530501
34823,0.090801,-0.026992,-0.022031,-0.001033,-0.000963,-0.001157,0.080815,-0.0,-0.0,3.0,0.3261,0.342511,0.3261,0.308482,5.246434,-125.652191,-1.205105,2.652979,-5.293157,-8.670695
34843,0.090437,-0.027119,-0.022031,-0.001059,-0.00212,-0.000192,0.081162,-0.0,-0.0,3.0,0.3261,0.342414,0.3261,0.308594,5.333625,-126.071507,-1.198273,1.345627,-6.567647,-8.811253
34863,0.090315,-0.027121,-0.022033,-0.002126,-0.00106,-9.6e-05,0.081328,-0.0,-0.0,3.0,0.3261,0.343471,0.3261,0.307371,5.355654,-126.520019,-1.185317,-0.313897,-7.216154,-8.956366
34883,0.090071,-0.027251,-0.02191,-0.002128,0.0,0.0,0.081665,-0.0,-0.0,3.0,0.3261,0.34333,0.3261,0.307535,5.272958,-126.981404,-1.133358,-1.866408,-7.069467,-9.108306
34903,0.089457,-0.026893,-0.021936,-0.002128,0.0,0.0,0.081957,-0.0,-0.0,3.0,0.3261,0.344268,0.3261,0.306441,5.100456,-127.323898,-1.054509,-2.863585,-6.182009,-9.265461
34923,0.08884,-0.026905,-0.02182,-0.001036,9.4e-05,-0.00106,0.08227,-0.0,-0.0,3.0,0.3261,0.342976,0.3261,0.307945,5.195407,-127.758926,-1.269542,-3.038702,-4.846382,-9.423532
34943,0.088351,-0.026789,-0.021833,2.8e-05,9.4e-05,-0.00106,0.082571,-0.0,-0.0,3.0,0.3261,0.341734,0.3261,0.309376,5.077533,-128.17602,-1.263365,-2.300001,-3.50144,-9.578785
34963,0.087987,-0.026916,-0.021833,2.9e-05,9.4e-05,-0.00106,0.082864,-0.0,-0.0,3.0,0.3261,0.341606,0.3261,0.309522,5.001231,-128.581173,-1.254463,-0.895552,-2.607783,-9.730182
34983,0.087744,-0.027041,-0.021832,0.0,0.0,0.0,0.083007,-0.0,-0.0,3.0,0.3261,0.341587,0.3261,0.309543,4.988704,-128.984917,-1.242386,0.689731,-2.460556,-9.87865
35003,0.087621,-0.027048,-0.021712,-0.001062,-0.00106,-9.3e-05,0.083391,-0.0,-0.0,3.0,0.3261,0.342571,0.3261,0.308413,5.041062,-129.395833,-1.228287,1.868112,-3.063237,-10.022467
35023,0.0875,-0.027171,-0.021709,-0.002126,-0.00106,-9.3e-05,0.083673,-0.0,-0.0,3.0,0.3261,0.343603,0.3261,0.307217,5.135009,-129.821076,-1.207613,1.959671,-4.024828,-10.141951
35043,0.087377,-0.027051,-0.021716,-0.002123,-0.00212,-0.000186,0.08393,-0.0,-0.0,3.0,0.3261,0.343492,0.3261,0.307346,5.293906,-130.26254,-1.111581,1.143745,-4.709058,-10.248979
35063,0.087011,-0.027055,-0.021722,-0.001062,-0.00106,-9.3e-05,0.084177,-0.0,-0.0,3.0,0.3261,0.343273,0.3261,0.307601,24.277737,-130.52912,17.866133,-2.364141,-4.523234,-10.375247
35083,0.086636,-0.02682,-0.021612,-0.001038,0.001152,-0.000968,0.084297,-0.0,-0.0,3.0,0.3261,0.343233,0.3261,0.307647,23.801752,-130.964567,17.551395,-6.865579,-1.31319,-10.531537
35103,0.086269,-0.026703,-0.021623,-0.001038,0.001152,-0.000969,0.08463,-0.0,-0.0,3.0,0.3261,0.34198,0.3261,0.309094,23.4225,-131.387119,17.450473,-8.208646,4.121858,-10.676256
35123,0.086147,-0.026704,-0.021625,2.6e-05,0.001152,-0.000969,0.084739,-0.0,-0.0,3.0,0.3261,0.341969,0.3261,0.309106,23.071547,-131.871723,17.322692,-5.829089,9.412105,-10.797008
35143,0.086151,-0.026943,-0.021737,3.1e-05,-0.000969,-0.001152,0.084957,-0.0,-0.0,3.0,0.3261,0.341919,0.3261,0.309163,22.927171,-132.46813,17.191656,-0.816842,12.130035,-10.920066
35163,0.086275,-0.027185,-0.021724,-0.001059,-0.002121,-0.000183,0.085163,-0.0,-0.0,3.0,0.3261,0.341859,0.3261,0.309232,23.138244,-133.100416,16.966756,4.476726,10.958559,-11.076754
35183,0.086155,-0.027309,-0.021721,-0.002123,-0.002121,-0.000183,0.085359,-0.0,-0.0,3.0,0.3261,0.342927,0.3261,0.308003,28.777172,-133.509532,11.533406,7.540992,6.397505,-11.256777
35203,0.086155,-0.027309,-0.021721,-0.002126,-0.00106,-9.2e-05,0.085584,-0.0,-0.0,3.0,0.3261,0.342795,0.3261,0.308155,-5.437605,-133.377221,46.050276,7.926813,0.560874,-11.414292
35223,0.08603,-0.027066,-0.021733,-0.001033,-0.000969,-0.001152,0.085736,-0.0,-0.0,3.0,0.3261,0.342577,0.3261,0.308406,-4.394514,-132.93877,45.323818,7.879159,-5.867566,-11.539472
35243,0.085663,-0.026822,-0.021871,2.8e-05,9.1e-05,-0.001061,0.085905,-0.0,-0.0,3.0,0.3261,0.341408,0.3261,0.309748,-4.053304,-132.378736,45.212938,3.661677,-10.931353,-11.642615
35263,0.085297,-0.026577,-0.02201,0.0,0.0,0.0,0.086061,-0.0,-0.0,3.0,0.3261,0.340237,0.3261,0.311078,-3.983865,-131.718348,45.158374,-2.327675,-12.078457,-11.781098
35283,0.085298,-0.026699,-0.022004,-0.001038,0.001151,-0.00097,0.086137,-0.0,-0.0,3.0,0.3261,0.341371,0.3261,0.30979,-4.185949,-131.07022,45.098588,-7.091406,-8.638003,-11.956771
35303,0.085421,-0.02682,-0.021997,-0.001067,0.00106,9.1e-05,0.086282,-0.0,-0.0,3.0,0.3261,0.341279,0.3261,0.309895,-4.613144,-130.524884,44.968574,-7.936199,-2.357283,-12.133588
35323,0.085423,-0.026814,-0.022119,-0.001064,0.0,0.0,0.086392,-0.0,-0.0,3.0,0.3261,0.342319,0.3261,0.308704,-4.881013,-130.058115,44.975612,-4.244715,3.353267,-12.28261
35343,0.085181,-0.027061,-0.022113,-0.001059,-0.002121,-0.000181,0.086525,-0.0,-0.0,3.0,0.3261,0.341136,0.3261,0.310058,-5.04855,-129.534701,44.875605,2.010632,5.262811,-12.426194
35363,0.085064,-0.027302,-0.022226,-0.001059,-0.002121,-0.000181,0.08664,-0.0,-0.0,3.0,0.3261,0.340942,0.3261,0.310279,-4.896903,-129.004088,44.8472,7.203333,2.185967,-12.584595
35383,0.084817,-0.027061,-0.022241,2e-06,-0.00106,-9e-05,0.086745,-0.0,-0.0,3.0,0.3261,0.340846,0.3261,0.310388,-4.581945,-128.495709,44.885629,8.111238,-4.14523,-12.731861
35403,0.084572,-0.026942,-0.02225,2.9e-05,9e-05,-0.001061,0.086842,-0.0,-0.0,3.0,0.3261,0.34076,0.3261,0.310486,-4.392225,-127.935979,45.050419,3.985079,-9.916714,-12.854429
35423,0.084448,-0.026573,-0.022389,2.6e-05,0.00115,-0.000971,0.086918,-0.0,-0.0,3.0,0.3261,0.340683,0.3261,0.310573,-5.165957,-127.346111,45.952676,-2.805782,-11.516774,-12.993552
35443,0.08457,-0.026571,-0.022387,-0.001038,0.00115,-0.000971,0.086998,-0.0,-0.0,3.0,0.3261,0.340667,0.3261,0.310591,-7.499512,-127.597662,48.069299,-8.082214,-7.783739,-13.172021
35463,0.084693,-0.026564,-0.022507,-0.001064,0.0,0.0,0.087065,-0.0,-0.0,3.0,0.3261,0.340682,0.3261,0.310574,-7.741262,-128.169329,47.954515,-8.323061,-0.940278,-13.346694
35483,0.084693,-0.026691,-0.02238,2e-06,-0.00106,-9e-05,0.087122,-0.0,-0.0,3.0,0.3261,0.340599,0.3261,0.310668,-8.029003,-128.70976,48.009204,-3.016659,4.512698,-13.490521
35503,0.084572,-0.026815,-0.022377,2e-06,-0.00106,-9e-05,0.087148,-0.0,-0.0,3.0,0.3261,0.340523,0.3261,0.310755,-8.024307,-129.281303,48.101554,4.499894,4.706214,-13.638369
35523,0.084572,-0.026815,-0.022377,3.1e-05,-0.000971,-0.001151,0.087206,-0.0,-0.0,3.0,0.3261,0.340444,0.3261,0.310844,-7.689205,-129.838689,48.211752,9.105789,-0.747359,-13.796949
35543,0.084452,-0.026938,-0.022374,3.1e-05,-0.000971,-0.001151,0.087235,-0.0,-0.0,3.0,0.3261,0.340403,0.3261,0.31089,-7.077024,-130.413767,48.474481,7.32854,-8.158211,-13.92634
35563,0.084572,-0.026815,-0.022377,2e-06,-0.00106,-9e-05,0.087246,-0.0,-0.0,3.0,0.3261,0.340404,0.3261,0.310889,-7.186373,-131.044118,48.188708,0.131806,-12.035504,-14.046811
35583,0.084819,-0.026928,-0.02249,-0.001062,-0.00106,-9e-05,0.087261,-0.0,-0.0,3.0,0.3261,0.341491,0.3261,0.309653,-7.286198,-131.772136,48.213907,-7.413319,-9.184964,-14.213814
35603,0.084816,-0.026812,-0.022373,-0.001064,0.0,0.0,0.087266,-0.0,-0.0,3.0,0.3261,0.341528,0.3261,0.309611,-7.634633,-132.403098,48.195738,-9.654041,-1.270707,-14.394103
35623,0.084693,-0.026691,-0.02238,-0.001067,0.00106,9e-05,0.087258,-0.0,-0.0,3.0,0.3261,0.341502,0.3261,0.309641,-7.842712,-132.975237,48.014826,-4.451325,5.939107,-14.535195
35643,0.084568,-0.026449,-0.022392,-0.001036,9e-05,-0.001061,0.087249,-0.0,-0.0,3.0,0.3261,0.34137,0.3261,0.309791,-6.113333,-133.462185,46.185709,4.580898,6.526663,-14.679492
35663,0.084446,-0.026451,-0.022394,2.8e-05,9e-05,-0.001061,0.087226,-0.0,-0.0,3.0,0.3261,0.340182,0.3261,0.31114,-4.736018,-133.05204,45.109186,10.241576,-0.639438,-14.843985
35683,0.084326,-0.026574,-0.022391,3.3e-05,-0.002031,-0.00124,0.087193,-0.0,-0.0,3.0,0.3261,0.340157,0.3261,0.311168,-4.254889,-132.426559,44.995666,7.468793,-10.272772,-14.967225
35703,0.084205,-0.026698,-0.022388,-0.001059,-0.002121,-0.000179,0.08715,-0.0,-0.0,3.0,0.3261,0.340133,0.3261,0.311195,-4.06659,-131.65076,44.891972,-2.117458,-14.284741,-15.086897
35723,0.084208,-0.026942,-0.022377,-0.001062,-0.00106,-9e-05,0.087117,-0.0,-0.0,3.0,0.3261,0.340138,0.3261,0.311189,-4.376923,-130.861644,44.758785,-10.691148,-8.516738,-15.276601
35743,0.08433,-0.02694,-0.022375,-0.002128,0.0,0.0,0.08703,-0.0,-0.0,3.0,0.3261,0.341183,0.3261,0.310004,532.109265,-130.233402,581.687306,-10.371825,2.966672,-15.45305
35763,0.084209,-0.027064,-0.022372,-0.002126,-0.00106,-9e-05,0.086995,-0.0,-0.0,3.0,0.3261,0.341087,0.3261,0.310114,538.12117,-130.727285,588.079906,-4.91107,12.221761,-15.567097
35783,0.083842,-0.026946,-0.022383,-0.002126,-0.00106,-8.9e-05,0.086917,-0.0,-0.0,3.0,0.3261,0.341036,0.3261,0.310171,538.080881,-131.554297,588.07637,5.877519,13.475768,-15.70899
35803,0.083842,-0.026946,-0.022383,-0.001064,0.0,0.0,0.08683,-0.0,-0.0,3.0,0.3261,0.340923,0.3261,0.3103,538.439556,-132.322261,588.075581,12.296558,4.553727,-15.911244
35823,0.083713,-0.026824,-0.022386,2.6e-05,0.001149,-0.000972,0.08673,-0.0,-0.0,3.0,0.3261,0.339831,0.3261,0.311536,538.789234,-132.961836,588.236737,7.419702,-7.159645,-16.060639
35843,0.083717,-0.026704,-0.022395,0.001093,8.9e-05,-0.001061,0.086635,-0.0,-0.0,3.0,0.3261,0.339862,0.3261,0.311501,536.137858,-133.455614,591.066123,-5.465846,-10.422085,-16.195975
35863,0.083961,-0.026701,-0.022391,0.001095,-0.000971,-0.00115,0.086514,-0.0,-0.0,3.0,0.3261,0.339904,0.3261,0.311454,535.824824,-132.734281,591.002883,-14.494924,-0.92131,-16.38395
35883,0.084087,-0.027065,-0.022374,3.1e-05,-0.000971,-0.00115,0.086388,-0.0,-0.0,3.0,0.3261,0.340014,0.3261,0.31133,535.192791,-132.047564,591.160803,-9.776803,13.250253,-16.49629
35903,0.084334,-0.027179,-0.022487,-0.001059,-0.002121,-0.000179,0.086253,-0.0,-0.0,3.0,0.3261,0.341149,0.3261,0.310043,535.068719,-131.141884,591.369108,5.689107,17.853736,-16.607584
35923,0.084334,-0.027179,-0.022487,-0.001062,-0.00106,-9e-05,0.086182,-0.0,-0.0,3.0,0.3261,0.341109,0.3261,0.310089,537.240468,-130.347257,593.169452,17.222653,6.691474,-16.845157
35943,0.084209,-0.027064,-0.022372,-0.001036,9e-05,-0.001061,0.085985,-0.0,-0.0,3.0,0.3261,0.34111,0.3261,0.310087,532.79915,-130.6309,588.037353,11.90407,-10.667544,-16.995127
35963,0.084083,-0.026699,-0.02239,2.6e-05,0.00115,-0.000971,0.085819,-0.0,-0.0,3.0,0.3261,0.339991,0.3261,0.311356,533.242879,-131.512327,588.284754,-7.156758,-15.887647,-17.106261
35983,0.083963,-0.026696,-0.022513,2.6e-05,0.00115,-0.000972,0.085648,-0.0,-0.0,3.0,0.3261,0.340064,0.3261,0.311273,532.702537,-132.353038,588.2806,-20.899558,-1.12319,-17.338393
36003,0.083841,-0.026697,-0.022515,2.8e-05,8.9e-05,-0.001061,0.085466,-0.0,-0.0,3.0,0.3261,0.339004,0.3261,0.312463,532.151076,-133.101713,587.940842,-12.696989,20.195874,-17.406738
36023,0.083964,-0.026818,-0.022508,2e-06,-0.00106,-8.9e-05,0.085374,-0.0,-0.0,3.0,0.3261,0.340071,0.3261,0.311265,515.876784,-133.393077,604.021378,11.605758,24.095939,-17.507523
36043,0.083842,-0.026819,-0.02251,-0.001062,-0.00106,-8.9e-05,0.085267,-0.0,-0.0,3.0,0.3261,0.340113,0.3261,0.311217,516.550225,-132.382745,604.107876,26.040673,2.758545,-17.835944
36063,0.08372,-0.026821,-0.022512,-0.002126,-0.00106,-8.9e-05,0.084983,-0.0,-0.0,3.0,0.3261,0.340144,0.3261,0.311182,517.477662,-131.572885,603.917101,11.218583,-23.023794,-17.891893
36083,0.083842,-0.026819,-0.02251,-0.001062,-0.00106,-8.9e-05,0.08477,-0.0,-0.0,3.0,0.3261,0.341213,0.3261,0.30997,516.903713,-130.367066,603.255214,-20.293208,-21.991367,-18.054552
36103,0.083594,-0.026943,-0.022505,3.1e-05,-0.000972,-0.00115,0.084548,-0.0,-0.0,3.0,0.3261,0.341188,0.3261,0.309999,534.945209,-130.444985,622.380608,-31.950057,10.09787,-18.366546
36123,0.083473,-0.026817,-0.022634,2e-06,-0.001061,-8.9e-05,0.084316,-0.0,-0.0,3.0,0.3261,0.341291,0.3261,0.309881,534.372549,-129.368562,622.773374,-4.128581,38.406911,-18.224413
36143,0.083351,-0.026692,-0.022763,0.0,0.0,0.0,0.084192,-0.0,-0.0,3.0,0.3261,0.340275,0.3261,0.311034,534.878481,-127.719945,622.926889,34.722538,24.972329,-18.611618
36163,0.083474,-0.026812,-0.022756,2.6e-05,0.001149,-0.000972,0.083837,-0.0,-0.0,3.0,0.3261,0.340417,0.3261,0.310874,535.323887,-127.153103,624.025178,35.53342,-22.239789,-18.931087
36183,0.083722,-0.026689,-0.022761,2.8e-05,8.9e-05,-0.001061,0.08357,-0.0,-0.0,3.0,0.3261,0.341581,0.3261,0.30955,541.718973,-126.838349,618.4633,-12.74659,-46.167293,-18.731111
36203,0.083969,-0.026929,-0.022747,-0.001033,-0.000971,-0.00115,0.083301,-0.0,-0.0,3.0,0.3261,0.341732,0.3261,0.309378,541.984813,-125.639303,616.6672,-54.493245,-8.254043,-19.496786
36223,0.083971,-0.027173,-0.022737,-0.001059,-0.002121,-0.000179,0.083025,-0.0,-0.0,3.0,0.3261,0.341854,0.3261,0.309238,539.743296,-124.493432,616.263909,-28.05932,54.347847,-19.193163
36243,0.084216,-0.027292,-0.022728,5e-06,-0.002121,-0.000179,0.082812,-0.0,-0.0,3.0,0.3261,0.34189,0.3261,0.309196,531.603795,-125.852419,608.070077,44.707525,56.051912,-19.345789
36263,0.084094,-0.027294,-0.02273,2.9e-05,8.9e-05,-0.001061,0.082467,-0.0,-0.0,3.0,0.3261,0.342014,0.3261,0.309054,535.47072,-126.778662,606.272556,71.101874,-22.432664,-20.495209
36283,0.084093,-0.027172,-0.022735,-0.001035,8.9e-05,-0.001061,0.082162,-0.0,-0.0,3.0,0.3261,0.341018,0.3261,0.310192,537.926566,-124.882996,606.462769,-6.241421,-84.363253,-19.370797
36303,0.083847,-0.026931,-0.022749,-0.001038,0.00115,-0.000972,0.082007,-0.0,-0.0,3.0,0.3261,0.341092,0.3261,0.310109,538.321186,-124.666677,609.12122,-94.611229,-28.191691,-21.236894
36323,0.083848,-0.026926,-0.022871,-0.001036,8.9e-05,-0.001061,0.081688,-0.0,-0.0,3.0,0.3261,0.34125,0.3261,0.309928,535.864205,-125.570749,611.094251,-53.904881,98.07997,-20.338052
36343,0.08397,-0.026924,-0.022869,-0.001064,0.0,0.0,0.081357,-0.0,-0.0,3.0,0.3261,0.341376,0.3261,0.309784,538.936146,-124.856798,617.036198,86.103612,100.945531,-20.540352
36363,0.08397,-0.026924,-0.022869,2e-06,-0.00106,-8.9e-05,0.081061,-0.0,-0.0,3.0,0.3261,0.342611,0.3261,0.308368,541.647771,-125.40661,613.848169,129.753888,-68.868669,-23.548866
36383,0.083971,-0.027046,-0.022864,2e-06,-0.00106,-8.9e-05,0.080719,-0.0,-0.0,3.0,0.3261,0.341629,0.3261,0.309495,544.546074,-123.145285,611.769768,-53.173962,-168.133787,-19.535215
36403,0.083973,-0.027168,-0.022859,3.1e-05,-0.000971,-0.00115,0.080365,-0.0,-0.0,3.0,0.3261,0.34171,0.3261,0.309403,543.022262,-121.422301,606.010398,-208.860637,15.183279,-27.672475
36423,0.083851,-0.02717,-0.022861,3.1e-05,-0.000971,-0.00115,0.080003,-0.0,-0.0,3.0,0.3261,0.341901,0.3261,0.309184,530.454753,-121.947493,612.181039,17.30096,263.857166,-18.089254
36443,0.083851,-0.02717,-0.022861,2e-06,-0.00106,-8.9e-05,0.079821,-0.0,-0.0,3.0,0.3261,0.341967,0.3261,0.309108,539.356239,-123.669646,614.781333,308.796485,67.037503,-34.20904
36463,0.083973,-0.027168,-0.022859,0.0,0.0,0.0,0.079242,-0.0,-0.0,3.0,0.3261,0.343309,0.3261,0.307559,547.062113,-128.013205,609.085916,-52.517577,-459.869496,-15.187765
36483,0.083973,-0.027168,-0.022859,-0.001067,0.00106,8.9e-05,0.078838,-0.0,-0.0,3.0,0.3261,0.343556,0.3261,0.307272,540.477605,-129.600089,620.459707,-647.913745,80.769217,-64.892398
36503,0.083971,-0.027046,-0.022864,-0.001067,0.00106,8.9e-05,0.07844,-0.0,-0.0,3.0,0.3261,0.343779,0.3261,0.307013,541.540849,-110.204179,603.254164,648.755582,1182.609737,-48.799387
36523,0.08397,-0.026924,-0.022869,-0.001036,8.9e-05,-0.001061,0.078236,-0.0,-0.0,3.0,0.3261,0.342692,0.3261,0.308274,61.99905,-153.244615,59.496804,371223.464598,-278457.620807,-36907.995093
36543,0.083728,-0.027049,-0.022868,3.1e-05,-0.000971,-0.00115,0.077823,-0.0,-0.0,3.0,0.3261,0.342847,0.3261,0.308094,-4.164458087373327e+22,2.3814023759397548e+22,3.6907070789142807e+22,2.0585571407192693e+46,-1.5388094385047153e+46,-2.0471912749324376e+45
36563,0.083606,-0.027051,-0.02287,3.4e-05,-0.002032,-0.001239,0.077559,-0.0,-0.0,3.0,0.3261,0.34298,0.3261,0.30794,,,,,,
36583,0.083235,-0.027054,-0.022872,-0.001062,-0.001061,-8.9e-05,0.076943,-0.0,-0.0,3.0,0.3261,0.342015,0.3261,0.309053,,,,,,
36603,0.083111,-0.026934,-0.022879,-0.001062,-0.001061,-8.8e-05,0.076498,-0.0,-0.0,3.0,0.3261,0.342192,0.3261,0.30885,,,,,,
36623,0.082867,-0.026937,-0.022883,-0.002126,-0.001061,-8.8e-05,0.076049,-0.0,-0.0,3.0,0.3261,0.342335,0.3261,0.308686,,,,,,
36643,0.082625,-0.026935,-0.023008,-0.002126,-0.001061,-8.8e-05,0.075591,-0.0,-0.0,3.0,0.3261,0.343595,0.3261,0.307227,,,,,,
36663,0.08238,-0.026816,-0.023017,-0.002128,0.0,0.0,0.075358,-0.0,-0.0,3.0,0.3261,0.343702,0.3261,0.307102,,,,,,
36683,0.081893,-0.026945,-0.02302,-0.001067,0.001061,8.7e-05,0.074973,-0.0,-0.0,3.0,0.3261,0.343759,0.3261,0.307035,,,,,,
36703,0.081528,-0.02695,-0.023026,-0.001038,0.001147,-0.000974,0.074442,-0.0,-0.0,3.0,0.3261,0.343899,0.3261,0.306873,,,,,,
36723,0.08104,-0.026956,-0.023034,2.9e-05,8.6e-05,-0.001061,0.073947,-0.0,-0.0,3.0,0.3261,0.34288,0.3261,0.308057,,,,,,
36743,0.080677,-0.027078,-0.023156,-0.001033,-0.000975,-0.001147,0.073454,-0.0,-0.0,3.0,0.3261,0.342978,0.3261,0.307943,,,,,,
36763,0.080185,-0.027332,-0.023028,-0.002124,-0.002122,-0.000171,0.072925,-0.0,-0.0,3.0,0.3261,0.34196,0.3261,0.309116,,,,,,
36783,0.079697,-0.027338,-0.023036,-0.00319,-0.001061,-8.5e-05,0.072454,-0.0,-0.0,3.0,0.3261,0.34204,0.3261,0.309024,,,,,,
36803,0.079085,-0.027229,-0.022929,-0.00319,-0.001061,-8.4e-05,0.071903,-0.0,-0.0,3.0,0.3261,0.343254,0.3261,0.307623,,,,,,
36823,0.078227,-0.027001,-0.02283,-0.003164,8.3e-05,-0.001061,0.071379,-0.0,-0.0,3.0,0.3261,0.343238,0.3261,0.307642,,,,,,
36843,0.077123,-0.027018,-0.022721,-0.0021,8.2e-05,-0.001061,0.070844,-0.0,-0.0,3.0,0.3261,0.344261,0.3261,0.306449,,,,,,
36863,0.07627,-0.027151,-0.02273,-0.0021,8.1e-05,-0.001062,0.070575,-0.0,-0.0,3.0,0.3261,0.34305,0.3261,0.307859,,,,,,
36883,0.075291,-0.027047,-0.022628,-0.0021,8e-05,-0.001062,0.070279,-0.0,-0.0,3.0,0.3261,0.3418,0.3261,0.3093,,,,,,
36903,0.074439,-0.027306,-0.02251,-0.003164,7.9e-05,-0.001062,0.069476,-0.0,-0.0,3.0,0.3261,0.34185,0.3261,0.309243,,,,,,
36923,0.073214,-0.02732,-0.022525,-0.004226,-0.000984,-0.00114,0.068888,-0.0,-0.0,3.0,0.3261,0.340595,0.3261,0.310673,,,,,,
36943,0.071993,-0.02734,-0.022422,-0.005317,-0.002123,-0.000153,0.068311,-0.0,-0.0,3.0,0.3261,0.341543,0.3261,0.309594,,,,,,
36963,0.070647,-0.027356,-0.02244,-0.004253,-0.002123,-0.00015,0.067736,-0.0,-0.0,3.0,0.3261,0.34138,0.3261,0.309781,,,,,,
36983,0.069059,-0.027132,-0.022473,-0.004226,-0.000988,-0.001136,0.067431,-0.0,-0.0,3.0,0.3261,0.341018,0.3261,0.310192,,,,,,
37003,0.06722,-0.026914,-0.022383,-0.003164,7.1e-05,-0.001062,0.066581,-0.0,-0.0,3.0,0.3261,0.340738,0.3261,0.31051,,,,,,
37023,0.065512,-0.026687,-0.022539,-0.003166,0.001132,-0.000993,0.065975,-0.0,-0.0,3.0,0.3261,0.340415,0.3261,0.310876,,,,,,
37043,0.063801,-0.026829,-0.022557,-0.003164,6.8e-05,-0.001062,0.065673,-0.0,-0.0,3.0,0.3261,0.338824,0.3261,0.312664,,,,,,
37063,0.062215,-0.026849,-0.022582,-0.003191,-0.001062,-6.6e-05,0.06506,-0.0,-0.0,3.0,0.3261,0.33737,0.3261,0.314274,,,,,,
37083,0.06051,-0.027114,-0.0226,-0.004253,-0.002125,-0.000129,0.064428,-0.0,-0.0,3.0,0.3261,0.337004,0.3261,0.314678,,,,,,
37103,0.058797,-0.027012,-0.022626,-0.005319,-0.001062,-6.3e-05,0.063863,-0.0,-0.0,3.0,0.3261,0.337769,0.3261,0.313835,,,,,,
37123,0.057331,-0.026908,-0.022651,-0.004255,-0.001062,-6.1e-05,0.063209,-0.0,-0.0,3.0,0.3261,0.337456,0.3261,0.31418,,,,,,
37143,0.055738,-0.026686,-0.022556,-0.004229,5.9e-05,-0.001063,0.062567,-0.0,-0.0,3.0,0.3261,0.338227,0.3261,0.313328,,,,,,
37163,0.053909,-0.026831,-0.02258,-0.003164,5.7e-05,-0.001063,0.061929,-0.0,-0.0,3.0,0.3261,0.337747,0.3261,0.313859,,,,,,
37183,0.052198,-0.026608,-0.022612,-0.003193,0.0,0.0,0.061269,-0.0,-0.0,3.0,0.3261,0.337358,0.3261,0.314288,,,,,,
37203,0.050729,-0.026627,-0.022507,-0.003164,5.4e-05,-0.001063,0.060674,-0.0,-0.0,3.0,0.3261,0.335837,0.3261,0.315952,,,,,,
37223,0.049263,-0.026648,-0.022407,-0.00423,0.001115,-0.001011,0.059989,-0.0,-0.0,3.0,0.3261,0.334327,0.3261,0.317582,,,,,,
37243,0.047918,-0.026546,-0.022308,-0.004229,5.1e-05,-0.001063,0.059315,-0.0,-0.0,3.0,0.3261,0.333988,0.3261,0.317945,,,,,,
37263,0.046329,-0.026688,-0.022202,-0.004227,-0.001014,-0.001113,0.058975,-0.0,-0.0,3.0,0.3261,0.334607,0.3261,0.317281,,,,,,
37283,0.044497,-0.026713,-0.022107,-0.004226,-0.002079,-0.001158,0.058293,-0.0,-0.0,3.0,0.3261,0.33406,0.3261,0.317867,,,,,,
37303,0.042907,-0.026613,-0.02201,-0.004254,-0.002126,-9.1e-05,0.05795,-0.0,-0.0,3.0,0.3261,0.333526,0.3261,0.318438,,,,,,
37323,0.041193,-0.026512,-0.021911,-0.004256,-0.001063,-4.4e-05,0.056882,-0.0,-0.0,3.0,0.3261,0.333137,0.3261,0.318851,,,,,,
37343,0.039361,-0.026536,-0.021816,-0.005293,4.2e-05,-0.001064,0.056167,-0.0,-0.0,3.0,0.3261,0.332592,0.3261,0.319428,,,,,,
37363,0.037528,-0.026313,-0.021846,-0.005294,0.001103,-0.001024,0.055461,-0.0,-0.0,3.0,0.3261,0.332029,0.3261,0.320021,,,,,,
37383,0.03582,-0.026333,-0.021871,-0.00423,0.001102,-0.001026,0.054748,-0.0,-0.0,3.0,0.3261,0.331493,0.3261,0.320584,,,,,,
37403,0.033863,-0.026356,-0.021772,-0.004229,3.6e-05,-0.001064,0.054249,-0.0,-0.0,3.0,0.3261,0.330764,0.3261,0.321344,,,,,,
37423,0.032034,-0.026499,-0.021796,-0.004228,-0.00103,-0.001098,0.053371,-0.0,-0.0,3.0,0.3261,0.330208,0.3261,0.32192,,,,,,
37443,0.03008,-0.0264,-0.021825,-0.003191,-0.002127,-6.4e-05,0.052626,-0.0,-0.0,3.0,0.3261,0.329556,0.3261,0.322594,,,,,,
37463,0.028373,-0.026541,-0.021848,-0.004255,-0.002128,-6e-05,0.05226,-0.0,-0.0,3.0,0.3261,0.327693,0.3261,0.324497,,,,,,
37483,0.026538,-0.026317,-0.021873,-0.004229,2.8e-05,-0.001064,0.051516,-0.0,-0.0,3.0,0.3261,0.32704,0.3261,0.325157,,,,,,
37503,0.025194,-0.02621,-0.021893,-0.005293,2.7e-05,-0.001064,0.050754,-0.0,-0.0,3.0,0.3261,0.326535,0.3261,0.325665,,,,,,
37523,0.023605,-0.026108,-0.021794,-0.005294,0.001089,-0.001039,0.050074,-0.0,-0.0,3.0,0.3261,0.327104,0.3261,0.325092,,,,,,
37543,0.021895,-0.026005,-0.021819,-0.004229,2.3e-05,-0.001064,0.049259,-0.0,-0.0,3.0,0.3261,0.327667,0.3261,0.324523,,,,,,
37563,0.020308,-0.026146,-0.021717,-0.003165,2.2e-05,-0.001064,0.048497,-0.0,-0.0,3.0,0.3261,0.32821,0.3261,0.323971,,,,,,
37583,0.019086,-0.026161,-0.021611,-0.0021,-0.001044,-0.001085,0.047734,-0.0,-0.0,3.0,0.3261,0.32774,0.3261,0.324449,,,,,,
37603,0.017619,-0.026179,-0.021509,-0.001063,-0.002128,-3.8e-05,0.047353,-0.0,-0.0,3.0,0.3261,0.325834,0.3261,0.326366,,,,,,
37623,0.016517,-0.026068,-0.021399,-0.0021,-0.001047,-0.001082,0.046253,-0.0,-0.0,3.0,0.3261,0.32426,0.3261,0.327926,,,,,,
37643,0.01554,-0.026202,-0.021289,-0.003165,1.7e-05,-0.001064,0.04545,-0.0,-0.0,3.0,0.3261,0.323793,0.3261,0.328385,,,,,,
37663,0.014929,-0.026087,-0.021298,-0.00423,0.00108,-0.001049,0.044665,-0.0,-0.0,3.0,0.3261,0.323465,0.3261,0.328707,,,,,,
37683,0.014073,-0.026097,-0.021188,-0.004257,0.0,0.0,0.044266,-0.0,-0.0,3.0,0.3261,0.325364,0.3261,0.326834,,,,,,
37703,0.013094,-0.025863,-0.021202,-0.003193,0.0,0.0,0.04347,-0.0,-0.0,3.0,0.3261,0.326111,0.3261,0.326089,,,,,,
37723,0.012483,-0.025993,-0.021088,-0.002101,1.3e-05,-0.001065,0.043035,-0.0,-0.0,3.0,0.3261,0.326827,0.3261,0.325371,,,,,,
37743,0.01175,-0.025879,-0.021098,-0.001037,1.3e-05,-0.001065,0.041922,-0.0,-0.0,3.0,0.3261,0.326566,0.3261,0.325634,,,,,,
37763,0.011263,-0.026006,-0.021104,0.0,-0.001064,-1.2e-05,0.041109,-0.0,-0.0,3.0,0.3261,0.325096,0.3261,0.3271,,,,,,
37783,0.010776,-0.02601,-0.021232,1e-06,-0.002128,-2.3e-05,0.040296,-0.0,-0.0,3.0,0.3261,0.323653,0.3261,0.328523,,,,,,
37803,0.010532,-0.026013,-0.021236,-0.001064,-0.001064,-1.1e-05,0.039478,-0.0,-0.0,3.0,0.3261,0.323465,0.3261,0.328707,,,,,,
37823,0.010409,-0.026137,-0.021115,-0.002128,0.0,0.0,0.038833,-0.0,-0.0,3.0,0.3261,0.323266,0.3261,0.328902,,,,,,
37843,0.010286,-0.026016,-0.021117,-0.002101,1.1e-05,-0.001065,0.037838,-0.0,-0.0,3.0,0.3261,0.323186,0.3261,0.328979,,,,,,
37863,0.010039,-0.025775,-0.021121,-0.002101,1.1e-05,-0.001065,0.037002,-0.0,-0.0,3.0,0.3261,0.324229,0.3261,0.327957,,,,,,
37883,0.009671,-0.025535,-0.021127,-0.001037,1e-05,-0.001065,0.036168,-0.0,-0.0,3.0,0.3261,0.325236,0.3261,0.326962,,,,,,
37903,0.00955,-0.025658,-0.021128,-0.001037,1e-05,-0.001065,0.035751,-0.0,-0.0,3.0,0.3261,0.326158,0.3261,0.326042,,,,,,
37923,0.009307,-0.025783,-0.021131,2.7e-05,1e-05,-0.001065,0.034709,-0.0,-0.0,3.0,0.3261,0.324894,0.3261,0.327301,,,,,,
37943,0.009432,-0.025903,-0.021251,0.001064,-0.001064,-1e-05,0.034147,-0.0,-0.0,3.0,0.3261,0.324795,0.3261,0.327398,,,,,,
37963,0.009554,-0.026024,-0.021127,-2.7e-05,-0.002139,0.001044,0.033302,-0.0,-0.0,3.0,0.3261,0.323627,0.3261,0.328548,,,,,,
37983,0.009799,-0.026144,-0.021123,-2.7e-05,-0.002139,0.001044,0.032445,-0.0,-0.0,3.0,0.3261,0.323686,0.3261,0.328491,,,,,,
38003,0.00992,-0.026143,-0.020999,-0.001036,-0.001054,-0.001075,0.031591,-0.0,-0.0,3.0,0.3261,0.323716,0.3261,0.328461,,,,,,
38023,0.01004,-0.02602,-0.020998,-0.001037,0.001075,-0.001054,0.030654,-0.0,-0.0,3.0,0.3261,0.323785,0.3261,0.328393,,,,,,
38043,0.010038,-0.025653,-0.021122,-0.001037,0.001075,-0.001054,0.029843,-0.0,-0.0,3.0,0.3261,0.324989,0.3261,0.327207,,,,,,
38063,0.009793,-0.025533,-0.021126,-0.001037,0.001075,-0.001054,0.028927,-0.0,-0.0,3.0,0.3261,0.324959,0.3261,0.327236,,,,,,
38083,0.010038,-0.025653,-0.021122,2.7e-05,0.001075,-0.001054,0.028058,-0.0,-0.0,3.0,0.3261,0.325052,0.3261,0.327144,,,,,,
38103,0.010039,-0.025775,-0.021121,2.8e-05,-0.001053,-0.001075,0.027622,-0.0,-0.0,3.0,0.3261,0.324934,0.3261,0.32726,,,,,,
38123,0.010163,-0.025896,-0.021119,1e-06,-0.003193,-3.2e-05,0.02675,-0.0,-0.0,3.0,0.3261,0.325068,0.3261,0.327128,,,,,,
38143,0.010042,-0.026019,-0.02112,1e-06,-0.003193,-3.2e-05,0.026207,-0.0,-0.0,3.0,0.3261,0.325026,0.3261,0.32717,,,,,,
38163,0.010164,-0.026018,-0.021118,1e-06,-0.002128,-2.2e-05,0.024885,-0.0,-0.0,3.0,0.3261,0.324094,0.3261,0.32809,,,,,,
38183,0.010038,-0.025776,-0.020999,2.8e-05,-0.001053,-0.001075,0.023997,-0.0,-0.0,3.0,0.3261,0.324158,0.3261,0.328027,,,,,,
38203,0.009793,-0.025656,-0.021003,-0.001037,0.001075,-0.001054,0.023111,-0.0,-0.0,3.0,0.3261,0.324192,0.3261,0.327994,,,,,,
38223,0.010034,-0.025409,-0.021001,-0.002102,0.002139,-0.001043,0.022226,-0.0,-0.0,3.0,0.3261,0.324395,0.3261,0.327793,,,,,,
38243,0.010035,-0.025531,-0.021,-0.002102,0.002139,-0.001043,0.021727,-0.0,-0.0,3.0,0.3261,0.324405,0.3261,0.327784,,,,,,
38263,0.010037,-0.025653,-0.021,-0.001037,0.001075,-0.001054,0.020936,-0.0,-0.0,3.0,0.3261,0.325683,0.3261,0.326517,,,,,,
38283,0.010039,-0.025898,-0.020999,-0.001037,1.1e-05,-0.001065,0.019972,-0.0,-0.0,3.0,0.3261,0.327053,0.3261,0.325144,,,,,,
38303,0.01004,-0.02602,-0.020998,1e-06,-0.002128,-2.1e-05,0.019066,-0.0,-0.0,3.0,0.3261,0.327222,0.3261,0.324973,,,,,,
38323,0.009798,-0.026144,-0.021001,0.001065,-0.003193,-3.1e-05,0.018168,-0.0,-0.0,3.0,0.3261,0.326135,0.3261,0.326066,,,,,,
38343,0.009798,-0.026144,-0.021001,1e-06,-0.003193,-3.1e-05,0.017244,-0.0,-0.0,3.0,0.3261,0.32517,0.3261,0.327026,,,,,,
38363,0.009798,-0.026144,-0.021001,-0.001064,-0.001064,-1e-05,0.01643,-0.0,-0.0,3.0,0.3261,0.324146,0.3261,0.328039,,,,,,
38383,0.009795,-0.0259,-0.021002,-0.002101,0.001075,-0.001054,0.015488,-0.0,-0.0,3.0,0.3261,0.324342,0.3261,0.327846,,,,,,
38403,0.009793,-0.025656,-0.021003,-0.002102,0.002139,-0.001044,0.014581,-0.0,-0.0,3.0,0.3261,0.325796,0.3261,0.326404,,,,,,
38423,0.009547,-0.025537,-0.021007,-0.002102,0.001074,-0.001054,0.013677,-0.0,-0.0,3.0,0.3261,0.327144,0.3261,0.325052,,,,,,
38443,0.009426,-0.02566,-0.021008,-0.001037,0.001074,-0.001054,0.013222,-0.0,-0.0,3.0,0.3261,0.327201,0.3261,0.324994,,,,,,
38463,0.009306,-0.025783,-0.021009,2.7e-05,1e-05,-0.001065,0.012724,-0.0,-0.0,3.0,0.3261,0.327246,0.3261,0.324949,,,,,,
38483,0.009063,-0.025908,-0.021012,2.8e-05,-0.002119,-0.001084,0.011879,-0.0,-0.0,3.0,0.3261,0.327402,0.3261,0.324792,,,,,,
38503,0.008945,-0.026153,-0.021134,1e-06,-0.003193,-2.9e-05,0.010577,-0.0,-0.0,3.0,0.3261,0.326568,0.3261,0.325631,,,,,,
38523,0.008944,-0.026275,-0.021012,-0.001092,-0.002138,0.001046,0.00967,-0.0,-0.0,3.0,0.3261,0.325686,0.3261,0.326514,,,,,,
38543,0.008821,-0.026155,-0.021014,-0.001064,-0.001064,-9e-06,0.008755,-0.0,-0.0,3.0,0.3261,0.325937,0.3261,0.326264,,,,,,
38563,0.008696,-0.026035,-0.020894,-0.002101,9e-06,-0.001065,0.007695,-0.0,-0.0,3.0,0.3261,0.327435,0.3261,0.324758,,,,,,
38583,0.008447,-0.025549,-0.020899,-0.002102,0.002137,-0.001047,0.006781,-0.0,-0.0,3.0,0.3261,0.328847,0.3261,0.323322,,,,,,
38603,0.00808,-0.025431,-0.020904,-0.001038,0.002137,-0.001047,0.006321,-0.0,-0.0,3.0,0.3261,0.3289,0.3261,0.323267,,,,,,
38623,0.007591,-0.025436,-0.020911,2.7e-05,0.001072,-0.001056,0.005382,-0.0,-0.0,3.0,0.3261,0.329074,0.3261,0.32309,,,,,,
38643,0.007351,-0.025805,-0.020912,2.7e-05,8e-06,-0.001065,0.004458,-0.0,-0.0,3.0,0.3261,0.328117,0.3261,0.324067,,,,,,
38663,0.006986,-0.026053,-0.020794,-0.001064,-0.002128,-1.5e-05,0.003543,-0.0,-0.0,3.0,0.3261,0.32712,0.3261,0.325077,,,,,,
38683,0.006501,-0.026424,-0.0208,-0.002128,-0.003193,-2.1e-05,0.002321,-0.0,-0.0,3.0,0.3261,0.327437,0.3261,0.324756,,,,,,
38703,0.006135,-0.026551,-0.020682,-0.002128,-0.002128,-1.3e-05,0.001801,-0.0,-0.0,3.0,0.3261,0.327572,0.3261,0.324619,,,,,,
38723,0.005766,-0.026433,-0.020565,-0.0021,-0.001058,-0.001071,0.000866,-0.0,-0.0,3.0,0.3261,0.327842,0.3261,0.324346,,,,,,
38743,0.00515,-0.026196,-0.02033,-0.002073,0.001075,-0.002124,-5.4e-05,-0.0,-0.0,3.0,0.3261,0.329155,0.3261,0.323006,,,,,,
38763,0.00429,-0.025839,-0.02022,-0.001009,0.002138,-0.00212,-0.000974,-0.0,-0.0,3.0,0.3261,0.329244,0.3261,0.322915,,,,,,
38783,0.003677,-0.025723,-0.020106,-0.00101,0.001072,-0.002125,-0.000974,-0.0,-0.0,3.0,0.3261,0.329117,0.3261,0.323045,,,,,,
38803,0.003068,-0.025851,-0.020114,-0.001037,3e-06,-0.001065,-0.002111,-0.0,-0.0,3.0,0.3261,0.328142,0.3261,0.32404,,,,,,
38823,0.002457,-0.02598,-0.019999,-0.002128,-0.001064,-3e-06,-0.003494,-0.0,-0.0,3.0,0.3261,0.32728,0.3261,0.324915,,,,,,
38843,0.001849,-0.026352,-0.019885,-0.003193,-0.003193,-6e-06,-0.004422,-0.0,-0.0,3.0,0.3261,0.327494,0.3261,0.324698,,,,,,
38863,0.000871,-0.026484,-0.019653,-0.003193,-0.002128,-2e-06,-0.005341,-0.0,-0.0,3.0,0.3261,0.327558,0.3261,0.324633,,,,,,
38883,1.3e-05,-0.026492,-0.019421,-0.003164,-0.001064,-0.001065,-0.006259,-0.0,-0.0,3.0,0.3261,0.327691,0.3261,0.324499,,,,,,
38903,-0.00109,-0.026259,-0.019313,-0.003137,-2e-06,-0.002129,-0.006933,-0.0,-0.0,3.0,0.3261,0.328786,0.3261,0.323384,,,,,,
38923,-0.002192,-0.026025,-0.019205,-0.003165,0.001062,-0.001067,-0.008031,-0.0,-0.0,3.0,0.3261,0.328864,0.3261,0.323304,,,,,,
38943,-0.003417,-0.025914,-0.018976,-0.003165,0.001061,-0.001068,-0.00854,-0.0,-0.0,3.0,0.3261,0.327528,0.3261,0.324664,,,,,,
38963,-0.004516,-0.026047,-0.018869,-0.003165,0.001059,-0.001069,-0.009453,-0.0,-0.0,3.0,0.3261,0.327508,0.3261,0.324684,,,,,,
38983,-0.005984,-0.02606,-0.018643,-0.003165,-0.001071,-0.001058,-0.010368,-0.0,-0.0,3.0,0.3261,0.327396,0.3261,0.324797,,,,,,
39003,-0.007571,-0.026196,-0.018542,-0.004257,-0.002128,1.6e-05,-0.011497,-0.0,-0.0,3.0,0.3261,0.326151,0.3261,0.326049,,,,,,
39023,-0.009285,-0.02621,-0.018198,-0.004257,-0.002128,2e-05,-0.012473,-0.0,-0.0,3.0,0.3261,0.325997,0.3261,0.326203,,,,,,
39043,-0.011241,-0.026347,-0.017858,-0.004229,-0.001076,-0.001053,-0.012965,-0.0,-0.0,3.0,0.3261,0.324366,0.3261,0.327822,,,,,,
39063,-0.013442,-0.026365,-0.017642,-0.005265,-2.9e-05,-0.002129,-0.013872,-0.0,-0.0,3.0,0.3261,0.322763,0.3261,0.329392,,,,,,
39083,-0.015523,-0.026257,-0.017301,-0.006329,0.001031,-0.002145,-0.014778,-0.0,-0.0,3.0,0.3261,0.322352,0.3261,0.329791,,,,,,
39103,-0.017968,-0.026154,-0.017087,-0.007393,0.001026,-0.002148,-0.015229,-0.0,-0.0,3.0,0.3261,0.321684,0.3261,0.330437,,,,,,
39123,-0.020657,-0.026051,-0.016876,-0.007422,-2.2e-05,-0.001064,-0.016498,-0.0,-0.0,3.0,0.3261,0.322396,0.3261,0.329749,,,,,,
39143,-0.023227,-0.026069,-0.016545,-0.006358,-0.001089,-0.00104,-0.017452,-0.0,-0.0,3.0,0.3261,0.321811,0.3261,0.330314,,,,,,
39163,-0.026161,-0.026087,-0.016215,-0.005294,-0.001092,-0.001036,-0.01835,-0.0,-0.0,3.0,0.3261,0.321063,0.3261,0.331034,,,,,,
39183,-0.028974,-0.025981,-0.015882,-0.005295,-0.002158,-0.001002,-0.019249,-0.0,-0.0,3.0,0.3261,0.319105,0.3261,0.332897,,,,,,
39203,-0.032152,-0.025876,-0.015553,-0.00636,-0.002162,-0.000996,-0.019697,-0.0,-0.0,3.0,0.3261,0.316861,0.3261,0.334997,,,,,,
39223,-0.034967,-0.02577,-0.015222,-0.007423,-0.001101,-0.001027,-0.020975,-0.0,-0.0,3.0,0.3261,0.313682,0.3261,0.337907,,,,,,
39243,-0.03778,-0.02578,-0.014768,-0.008459,-8e-05,-0.002128,-0.021435,-0.0,-0.0,3.0,0.3261,0.312687,0.3261,0.338803,,,,,,
39263,-0.040594,-0.025793,-0.014439,-0.009522,0.000977,-0.002171,-0.022348,-0.0,-0.0,3.0,0.3261,0.314302,0.3261,0.337346,,,,,,
39283,-0.043528,-0.025803,-0.014109,-0.008458,0.000971,-0.002173,-0.023241,-0.0,-0.0,3.0,0.3261,0.315894,0.3261,0.33589,,,,,,
39303,-0.046341,-0.025817,-0.013901,-0.007393,0.000964,-0.002176,-0.024125,-0.0,-0.0,3.0,0.3261,0.316181,0.3261,0.335626,,,,,,
39323,-0.049276,-0.025823,-0.013448,-0.005265,0.000958,-0.002179,-0.024616,-0.0,-0.0,3.0,0.3261,0.315053,0.3261,0.336661,,,,,,
39343,-0.052091,-0.025709,-0.013115,-0.004231,-0.001118,-0.001008,-0.025845,-0.0,-0.0,3.0,0.3261,0.314186,0.3261,0.337451,,,,,,
39363,-0.054414,-0.025712,-0.012777,-0.004233,-0.002183,-0.000947,-0.026744,-0.0,-0.0,3.0,0.3261,0.31209,0.3261,0.339337,,,,,,
39383,-0.056618,-0.025715,-0.01244,-0.004233,-0.002185,-0.000942,-0.027619,-0.0,-0.0,3.0,0.3261,0.309984,0.3261,0.341201,,,,,,
39403,-0.058698,-0.025833,-0.01198,-0.005297,-0.002187,-0.000938,-0.028488,-0.0,-0.0,3.0,0.3261,0.309169,0.3261,0.341914,,,,,,
39423,-0.060537,-0.025832,-0.011638,-0.005297,-0.002189,-0.000934,-0.028922,-0.0,-0.0,3.0,0.3261,0.309549,0.3261,0.341583,,,,,,
39443,-0.062371,-0.025951,-0.011298,-0.004231,-0.001128,-0.000996,-0.030146,-0.0,-0.0,3.0,0.3261,0.310184,0.3261,0.341025,,,,,,
39463,-0.064086,-0.025821,-0.010826,-0.004229,-6.8e-05,-0.001062,-0.031014,-0.0,-0.0,3.0,0.3261,0.310727,0.3261,0.340547,,,,,,
39483,-0.065681,-0.025696,-0.010477,-0.003164,0.000992,-0.001132,-0.031444,-0.0,-0.0,3.0,0.3261,0.309903,0.3261,0.341272,,,,,,
39503,-0.066904,-0.025814,-0.010252,-0.002099,0.000991,-0.001133,-0.032299,-0.0,-0.0,3.0,0.3261,0.309313,0.3261,0.341789,,,,,,
39523,-0.067641,-0.025805,-0.009895,-0.002101,-7.2e-05,-0.001062,-0.033205,-0.0,-0.0,3.0,0.3261,0.308868,0.3261,0.342177,,,,,,
39543,-0.06801,-0.025798,-0.009655,-0.002103,-0.001134,-0.00099,-0.033916,-0.0,-0.0,3.0,0.3261,0.308514,0.3261,0.342484,,,,,,
39563,-0.068385,-0.025788,-0.009295,-0.002103,-0.001134,-0.000989,-0.03484,-0.0,-0.0,3.0,0.3261,0.308238,0.3261,0.342723,,,,,,
39583,-0.068634,-0.025654,-0.008928,-0.003165,-7.3e-05,-0.001062,-0.035679,-0.0,-0.0,3.0,0.3261,0.310548,0.3261,0.340705,,,,,,
39603,-0.06876,-0.025524,-0.008681,-0.002101,-7.3e-05,-0.001062,-0.036516,-0.0,-0.0,3.0,0.3261,0.31038,0.3261,0.340853,,,,,,
39623,-0.068764,-0.025634,-0.008319,-0.001008,0.000915,-0.002197,-0.037373,-0.0,-0.0,3.0,0.3261,0.311476,0.3261,0.339884,,,,,,
39643,-0.068889,-0.025626,-0.008077,-0.001006,0.001977,-0.002271,-0.038058,-0.0,-0.0,3.0,0.3261,0.312511,0.3261,0.338961,,,,,,
39663,-0.068768,-0.025743,-0.007957,-0.001008,0.000915,-0.002197,-0.038575,-0.0,-0.0,3.0,0.3261,0.312313,0.3261,0.339138,,,,,,
39683,-0.068648,-0.025979,-0.00772,2.9e-05,0.000989,-0.001135,-0.039424,-0.0,-0.0,3.0,0.3261,0.310936,0.3261,0.340362,,,,,,
39703,-0.068771,-0.026097,-0.007604,2.6e-05,-0.001135,-0.000989,-0.04024,-0.0,-0.0,3.0,0.3261,0.310779,0.3261,0.340501,,,,,,
39723,-0.068774,-0.02621,-0.007364,-4e-06,-0.002123,0.000146,-0.041053,-0.0,-0.0,3.0,0.3261,0.310709,0.3261,0.340563,,,,,,
39743,-0.068777,-0.026324,-0.007124,2.2e-05,-0.003258,-0.000843,-0.041488,-0.0,-0.0,3.0,0.3261,0.310481,0.3261,0.340764,,,,,,
39763,-0.068779,-0.026198,-0.006998,0.001088,-0.002197,-0.000916,-0.042626,-0.0,-0.0,3.0,0.3261,0.310477,0.3261,0.340767,,,,,,
39783,-0.068661,-0.026067,-0.006748,0.001088,-0.002196,-0.000916,-0.043428,-0.0,-0.0,3.0,0.3261,0.309199,0.3261,0.341888,,,,,,
39803,-0.068663,-0.026303,-0.006512,2.6e-05,-0.001135,-0.000989,-0.044223,-0.0,-0.0,3.0,0.3261,0.309101,0.3261,0.341974,,,,,,
39823,-0.068789,-0.026173,-0.006266,2.6e-05,-0.001135,-0.000989,-0.04501,-0.0,-0.0,3.0,0.3261,0.309034,0.3261,0.342032,,,,,,
39843,-0.068792,-0.026286,-0.006026,-2e-06,-0.001062,7.3e-05,-0.045397,-0.0,-0.0,3.0,0.3261,0.308844,0.3261,0.342197,,,,,,
39863,-0.068795,-0.026278,-0.005782,2.6e-05,-0.001135,-0.000989,-0.046524,-0.0,-0.0,3.0,0.3261,0.310205,0.3261,0.341007,,,,,,
39883,-0.068798,-0.026269,-0.005538,2.6e-05,-0.001135,-0.000989,-0.046916,-0.0,-0.0,3.0,0.3261,0.308791,0.3261,0.342244,,,,,,
39903,-0.068924,-0.026139,-0.005291,2.6e-05,-0.001135,-0.000989,-0.047697,-0.0,-0.0,3.0,0.3261,0.308691,0.3261,0.34233,,,,,,
39923,-0.069048,-0.026013,-0.005166,2.6e-05,-0.001135,-0.000989,-0.048464,-0.0,-0.0,3.0,0.3261,0.307341,0.3261,0.343497,,,,,,
39943,-0.068807,-0.026004,-0.004919,-0.001064,0.0,0.0,-0.049248,-0.0,-0.0,3.0,0.3261,0.307422,0.3261,0.343427,,,,,,
39963,-0.06844,-0.025994,-0.004669,-0.001037,-7.3e-05,-0.001062,-0.049854,-0.0,-0.0,3.0,0.3261,0.306199,0.3261,0.344474,,,,,,
39983,-0.068321,-0.025986,-0.004424,-0.002099,0.000989,-0.001135,-0.050702,-0.0,-0.0,3.0,0.3261,0.307581,0.3261,0.343291,,,,,,
40003,-0.068325,-0.025855,-0.004175,-0.003163,0.000989,-0.001135,-0.05145,-0.0,-0.0,3.0,0.3261,0.310169,0.3261,0.341038,,,,,,
40023,-0.068576,-0.025971,-0.003939,-0.00207,0.001978,-0.00227,-0.052187,-0.0,-0.0,3.0,0.3261,0.31138,0.3261,0.339969,,,,,,
40043,-0.068701,-0.026084,-0.003701,-0.001007,0.000916,-0.002197,-0.052934,-0.0,-0.0,3.0,0.3261,0.31137,0.3261,0.339978,,,,,,
40063,-0.06858,-0.025958,-0.003573,2.9e-05,0.000989,-0.001135,-0.053556,-0.0,-0.0,3.0,0.3261,0.31014,0.3261,0.341064,,,,,,
40083,-0.068826,-0.025954,-0.003454,2.8e-05,-7.3e-05,-0.001062,-0.05436,-0.0,-0.0,3.0,0.3261,0.310099,0.3261,0.3411,,,,,,
40103,-0.068705,-0.026072,-0.003335,-0.001038,-0.001135,-0.000989,-0.054721,-0.0,-0.0,3.0,0.3261,0.310071,0.3261,0.341125,,,,,,
40123,-0.068585,-0.026189,-0.003216,-0.001066,-0.001062,7.3e-05,-0.055441,-0.0,-0.0,3.0,0.3261,0.308894,0.3261,0.342153,,,,,,
40143,-0.068464,-0.026307,-0.003096,-0.001066,-0.001062,7.3e-05,-0.056145,-0.0,-0.0,3.0,0.3261,0.310286,0.3261,0.340936,,,,,,
40163,-0.068339,-0.026423,-0.002976,-0.001066,-0.001062,7.3e-05,-0.056536,-0.0,-0.0,3.0,0.3261,0.311604,0.3261,0.33977,,,,,,
40183,-0.068467,-0.026543,-0.00286,2.6e-05,-0.001135,-0.000989,-0.057487,-0.0,-0.0,3.0,0.3261,0.311731,0.3261,0.339657,,,,,,
40203,-0.068712,-0.026539,-0.002742,0.00109,-0.001135,-0.000989,-0.058191,-0.0,-0.0,3.0,0.3261,0.311709,0.3261,0.339677,,,,,,
40223,-0.068834,-0.026661,-0.002747,0.001091,-0.001135,-0.000989,-0.058873,-0.0,-0.0,3.0,0.3261,0.310494,0.3261,0.340753,,,,,,
40243,-0.068834,-0.026905,-0.002756,0.00106,-0.002123,0.000146,-0.059551,-0.0,-0.0,3.0,0.3261,0.30932,0.3261,0.341782,,,,,,
40263,-0.06908,-0.026779,-0.002633,0.00106,-0.002123,0.000147,-0.059914,-0.0,-0.0,3.0,0.3261,0.307952,0.3261,0.342971,,,,,,
40283,-0.068835,-0.026901,-0.002634,-4e-06,-0.002123,0.000146,-0.059914,-0.0,-0.0,3.0,0.3261,0.307949,0.3261,0.342973,,,,,,
40303,-0.068593,-0.026896,-0.002508,-0.001066,-0.001062,7.3e-05,-0.061267,-0.0,-0.0,3.0,0.3261,0.30968,0.3261,0.341467,,,,,,
40323,-0.068471,-0.026896,-0.002507,-0.001066,-0.001062,7.3e-05,-0.061919,-0.0,-0.0,3.0,0.3261,0.309854,0.3261,0.341315,,,,,,
