time_ms,roll,pitch,yaw,roll_rate,pitch_rate,yaw_rate,reference_roll,reference_pitch,reference_yaw,reference_throttle,throttle_1,throttle_2,throttle_3,throttle_4,roll_predicted,pitch_predicted,yaw_predicted,roll_rate_predicted,pitch_rate_predicted,yaw_rate_predicted
43180,-0.000858,0.005737,-0.001218,0.0,-0.001064,-0.001064,-0.0,-0.0,-0.0,2.0,0.282024,0.284078,0.282024,0.279948,-0.0,-161.823032,-0.0,0.0,-7.493657,0.0
43200,-0.000736,0.005737,-0.001219,0.0,-0.001064,-0.001064,0.001851,-0.0,-0.0,2.0,0.282024,0.283378,0.282024,0.280661,6e-06,-162.11613,0.0,0.001131,-7.054256,1e-06
43220,-0.000614,0.005859,-0.001097,0.0,-0.001064,-0.001064,0.005514,-0.0,-0.0,2.0,0.282024,0.281925,0.282024,0.282123,7.4e-05,-162.392082,-1.4e-05,0.004795,-6.650413,9e-06
43240,-0.000492,0.005982,-0.001097,-0.001064,-0.001064,0.0,0.007351,-0.0,-0.0,2.0,0.282024,0.281141,0.282024,0.282904,0.00029,-162.652763,-7e-05,0.009372,-6.310353,3.3e-05
43260,-0.000491,0.005982,-0.000975,-0.001064,0.0,-0.001064,0.010341,-0.0,-0.0,2.0,0.282024,0.277955,0.282024,0.286011,0.000657,-162.901042,-0.000193,0.014151,-6.053596,7.3e-05
43280,-0.000613,0.005981,-0.000975,-0.001064,0.0,-0.001064,0.015654,-0.0,-0.0,2.0,0.282024,0.275596,0.282024,0.288248,0.001227,-163.140455,-0.000407,0.02101,-5.892292,0.00013
43300,-0.000735,0.005981,-0.000852,-0.001064,-0.001064,-0.001064,0.019252,-0.0,-0.0,2.0,0.282024,0.273787,0.282024,0.289929,0.002133,-163.374931,-0.000765,0.028866,-5.832823,0.000212
43320,-0.000735,0.005859,-0.00073,0.0,0.0,-0.001064,0.022852,-0.0,-0.0,2.0,0.282024,0.273813,0.282024,0.289905,0.003455,-163.608584,-0.001366,0.036187,-5.877033,0.00032
43340,-0.000613,0.005859,-0.000731,0.0,0.0,-0.001064,0.026372,-0.0,-0.0,2.0,0.282024,0.271999,0.282024,0.291561,0.005341,-163.84554,-0.002388,0.042936,-6.022815,0.000454
43360,-0.000246,0.00586,-0.00061,0.0,-0.001064,0.0,0.028434,-0.0,-0.0,2.0,0.282024,0.270782,0.282024,0.292656,0.008143,-164.089781,-0.004215,0.047895,-6.263956,0.000615
43380,-2e-06,0.005982,-0.00061,0.0,-0.001064,-0.001064,0.031501,-0.0,-0.0,2.0,0.282024,0.269149,0.282024,0.294105,0.01281,-164.344967,-0.007876,0.050627,-6.589297,0.000799
43400,0.000243,0.005982,-0.000489,-0.001064,0.0,-0.001064,0.035036,-0.0,-0.0,2.0,0.282024,0.267147,0.282024,0.29585,0.02332,-164.614212,-0.0174,0.049715,-6.981426,0.000999
43420,0.000365,0.006104,-0.000489,0.0,0.0,0.0,0.038337,-0.0,-0.0,2.0,0.282024,0.265168,0.282024,0.297542,0.08818,-164.899698,-0.081393,0.031306,-7.415334,0.00119
43440,0.000365,0.006104,-0.000367,-0.001064,-0.001064,0.0,0.041628,-0.0,-0.0,2.0,0.282024,0.261084,0.282024,0.300935,-0.046762,-165.197308,0.052266,0.068931,-7.857953,0.000333
43460,0.000244,0.005982,-0.000123,-0.001064,0.0,-0.001064,0.043221,-0.0,-0.0,2.0,0.282024,0.261636,0.282024,0.300484,-0.014793,-165.517799,0.022455,0.123129,-8.269525,0.000795
43480,0.000365,0.006104,-0.000245,0.0,0.0,-0.001064,0.047532,-0.0,-0.0,2.0,0.282024,0.258993,0.282024,0.302621,-0.005233,-165.85391,0.016641,0.128852,-8.606071,0.001418
43500,0.000488,0.005982,-0.000124,0.0,-0.001064,-0.001064,0.050667,-0.0,-0.0,2.0,0.282024,0.256828,0.282024,0.304333,0.000604,-166.201876,0.015356,0.127757,-8.826622,0.002075
43520,0.000855,0.006104,-3e-06,0.001064,-0.001064,0.0,0.05362,-0.0,-0.0,2.0,0.282024,0.254612,0.282024,0.306049,0.005584,-166.556548,0.016151,0.125308,-8.901514,0.002736
43540,0.001343,0.006226,0.000118,0.001064,-0.001064,-0.001064,0.056464,-0.0,-0.0,2.0,0.282024,0.252539,0.282024,0.307622,0.011087,-166.911858,0.018785,0.122332,-8.819714,0.003384
43560,0.002198,0.006226,0.000115,0.001064,-0.001064,-0.001064,0.05785,-0.0,-0.0,2.0,0.282024,0.253356,0.282024,0.307006,0.018818,-167.261618,0.024291,0.117093,-8.592066,0.004005
43580,0.003419,0.00647,0.000233,0.002128,0.0,0.0,0.061468,-0.0,-0.0,2.0,0.282024,0.253228,0.282024,0.307103,0.033318,-167.600361,0.036944,0.107906,-8.248811,0.004572
43600,0.004885,0.006591,0.000472,0.004257,-0.001064,-0.001064,0.063989,-0.0,-0.0,2.0,0.282024,0.253794,0.282024,0.306674,0.082792,-167.923879,0.084825,0.083555,-7.832448,0.005053
43620,0.006838,0.00659,0.000588,0.004257,-0.001064,-0.001064,0.066435,-0.0,-0.0,2.0,0.282024,0.254599,0.282024,0.306059,-6.189892,-168.20605,-6.190824,0.652168,-7.388933,-0.034331
43640,0.009402,0.006711,0.000701,0.005321,0.0,-0.001064,0.06875,-0.0,-0.0,2.0,0.282024,0.255675,0.282024,0.30523,-6.227246,-168.494428,-6.293486,3.025933,-6.968709,-0.18602
43660,0.012454,0.006709,0.000813,0.006385,0.0,0.0,0.069873,-0.0,-0.0,2.0,0.282024,0.25746,0.282024,0.303837,-6.131769,-168.765932,-6.359027,5.008304,-6.642713,-0.32913
43680,0.015995,0.006705,0.001045,0.008514,-0.001064,-0.001064,0.072791,-0.0,-0.0,2.0,0.282024,0.258718,0.282024,0.302841,-5.972621,-169.019499,-6.455286,6.694093,-6.466092,-0.465637
43700,0.020024,0.006701,0.001153,0.009578,-0.001064,-0.001064,0.073874,-0.0,-0.0,2.0,0.282024,0.26102,0.282024,0.300986,-5.750909,-169.250103,-6.590922,8.138773,-6.474877,-0.594869
43720,0.024664,0.006697,0.00126,0.010642,-0.001064,-0.001064,0.075805,-0.0,-0.0,2.0,0.282024,0.263289,0.282024,0.299119,-5.465774,-169.444853,-6.775274,9.155327,-6.67865,-0.699925
43740,0.030035,0.006569,0.001366,0.011706,0.0,0.0,0.077572,-0.0,-0.0,2.0,0.282024,0.267888,0.282024,0.295207,-5.122632,-169.580378,-7.014353,9.802369,-7.049289,-0.780776
43760,0.036018,0.00644,0.00147,0.012771,0.0,0.0,0.079184,-0.0,-0.0,2.0,0.282024,0.270723,0.282024,0.292709,-4.735915,-169.624918,-7.300285,10.145859,-7.53591,-0.840879
43780,0.042245,0.00631,0.001575,0.013835,0.0,-0.001064,0.080215,-0.0,-0.0,2.0,0.282024,0.274078,0.282024,0.289661,-4.33986,-169.551783,-7.601189,10.214375,-8.069532,-0.883732
43800,0.049085,0.00606,0.001559,0.015963,-0.001064,-0.001064,0.08178,-0.0,-0.0,2.0,0.282024,0.275508,0.282024,0.28833,-3.9753,-169.358901,-7.87347,10.041593,-8.573286,-0.914472
43820,0.05641,0.005931,0.00154,0.015963,-0.001064,-0.001064,0.08298,-0.0,-0.0,2.0,0.282024,0.279319,0.282024,0.284692,-3.658569,-169.071013,-8.088628,9.684984,-8.98217,-0.939516
43840,0.064105,0.005802,0.001521,0.015963,0.0,0.0,0.084029,-0.0,-0.0,2.0,0.282024,0.285113,0.282024,0.278886,-3.366963,-168.722939,-8.229858,9.217177,-9.264373,-0.964559
43860,0.072287,0.005672,0.001501,0.018092,0.0,-0.001064,0.084952,-0.0,-0.0,2.0,0.282024,0.289278,0.282024,0.274491,-2.986281,-168.349277,-8.211855,8.696453,-9.431366,-0.991999
43880,0.080596,0.005664,0.001477,0.019156,-0.001064,-0.001064,0.085498,-0.0,-0.0,2.0,0.282024,0.292059,0.282024,0.271447,2.055668,-168.092621,-3.497399,7.950401,-9.526486,-1.005864
43900,0.08927,0.005544,0.001213,0.019156,0.0,-0.001064,0.086073,-0.0,-0.0,2.0,0.282024,0.295001,0.282024,0.268126,-3.240602,-167.831483,-9.081453,7.294593,-9.554079,-1.079862
43920,0.098311,0.005537,0.001187,0.019156,0.0,0.0,0.086672,-0.0,-0.0,2.0,0.282024,0.29978,0.282024,0.262492,-3.031108,-167.448391,-9.176707,7.503842,-9.660183,-1.155119
43940,0.107357,0.005651,0.001155,0.019156,-0.001064,0.0,0.087024,-0.0,-0.0,2.0,0.282024,0.30302,0.282024,0.258493,-2.847076,-167.073893,-9.342549,7.60192,-9.902974,-1.222922
43960,0.116282,0.005643,0.001129,0.019156,0.0,-0.001064,0.087221,-0.0,-0.0,2.0,0.282024,0.306388,0.282024,0.254169,-2.629647,-166.718567,-9.555045,7.648235,-10.315076,-1.284308
43980,0.125214,0.005635,0.001103,0.018092,-0.001064,-0.001064,0.087254,-0.0,-0.0,2.0,0.282024,0.309886,0.282024,0.249484,-2.347521,-166.405058,-9.841037,7.633929,-10.903078,-1.337449
44000,0.133895,0.005627,0.001078,0.018092,0.0,-0.001064,0.087198,-0.0,-0.0,2.0,0.282024,0.311856,0.282024,0.246751,-1.965356,-166.182706,-10.23829,7.508292,-11.63626,-1.3795
44020,0.14234,0.00561,0.001175,0.017028,-0.001064,0.0,0.086853,-0.0,-0.0,2.0,0.282024,0.315472,0.282024,0.241547,-1.491619,-166.134012,-10.744646,7.204147,-12.441184,-1.40802
44040,0.150055,0.005706,0.001387,0.015963,-0.001064,-0.001064,0.086656,-0.0,-0.0,2.0,0.282024,0.315882,0.282024,0.24094,-1.052137,-166.315996,-11.245673,6.700836,-13.207481,-1.424595
44060,0.157771,0.005688,0.001486,0.014899,-0.001064,-0.001064,0.086144,-0.0,-0.0,2.0,0.282024,0.319469,0.282024,0.235482,-0.766003,-166.682034,-11.644396,6.073806,-13.817399,-1.437338
44080,0.164747,0.005781,0.001698,0.013835,-0.001064,-0.001064,0.085483,-0.0,-0.0,2.0,0.282024,0.321405,0.282024,0.232415,-0.64799,-167.144032,-11.986835,5.439006,-14.19764,-1.455999
44100,0.171125,0.00573,0.002165,0.012771,-0.001064,-0.001064,0.085089,-0.0,-0.0,2.0,0.282024,0.321699,0.282024,0.231941,-0.78827,-167.62834,-12.456652,4.909364,-14.357022,-1.488611
44120,0.176884,0.005932,0.00249,0.010642,-0.001064,-0.002128,0.083777,-0.0,-0.0,2.0,0.282024,0.323662,0.282024,0.228723,-2.467176,-167.907392,-14.393506,4.755522,-14.388892,-1.553749
44140,0.181782,0.006011,0.002828,0.009578,-0.001064,-0.001064,0.082644,-0.0,-0.0,2.0,0.282024,0.323898,0.282024,0.228329,-3.081213,-167.377141,-15.229599,5.195316,-14.472354,-1.670238
44160,0.18595,0.006189,0.003399,0.00745,-0.001064,-0.001064,0.081388,-0.0,-0.0,2.0,0.282024,0.325559,0.282024,0.225516,-2.964854,-166.804335,-15.38945,5.470284,-14.7764,-1.783099
44180,0.18939,0.006488,0.00396,0.005321,-0.001064,-0.002128,0.079997,-0.0,-0.0,2.0,0.282024,0.325514,0.282024,0.225594,-2.757418,-166.241805,-15.608724,5.631367,-15.374647,-1.892639
44200,0.191967,0.006545,0.004547,0.003193,-0.001064,-0.002128,0.079179,-0.0,-0.0,2.0,0.282024,0.325071,0.282024,0.226351,-2.328615,-165.737906,-16.040081,5.670926,-16.259259,-1.99878
44220,0.193439,0.006591,0.005258,0.001064,-0.001064,-0.002128,0.076839,-0.0,-0.0,2.0,0.282024,0.324848,0.282024,0.226729,-1.325409,-165.541046,-17.036673,5.407373,-17.323898,-2.093188
44240,0.19394,0.006507,0.006108,-0.001064,-0.001064,-0.002128,0.075012,-0.0,-0.0,2.0,0.282024,0.32423,0.282024,0.227773,-0.523587,-166.007896,-17.826449,4.472623,-18.329165,-2.155747
44260,0.193565,0.006182,0.006982,-0.003193,0.0,-0.002128,0.074048,-0.0,-0.0,2.0,0.282024,0.324541,0.282024,0.227249,-0.295739,-166.721981,-18.061568,3.369158,-18.987202,-2.222045
44280,0.192474,0.006105,0.007838,-0.004257,-0.001064,-0.002128,0.072041,-0.0,-0.0,2.0,0.282024,0.32342,0.282024,0.229125,-0.237133,-167.482867,-18.192318,2.383663,-19.201491,-2.311404
44300,0.190752,0.006031,0.008695,-0.005321,-0.001064,-0.003193,0.069326,-0.0,-0.0,2.0,0.282024,0.323851,0.282024,0.228407,-3.442788,-168.242655,-21.496216,1.601494,-19.092283,-2.428552
44320,0.188434,0.006084,0.009545,-0.006385,-0.001064,-0.002128,0.066863,-0.0,-0.0,2.0,0.282024,0.324011,0.282024,0.228141,-5.705475,-168.168587,-23.827743,1.046518,-18.868727,-2.571268
44340,0.185728,0.00602,0.010405,-0.00745,-0.001064,-0.002128,0.065674,-0.0,-0.0,2.0,0.282024,0.323634,0.282024,0.22877,-6.470702,-168.843925,-24.608789,0.389535,-18.587059,-2.720675
44360,0.182427,0.005939,0.011513,-0.008514,-0.001064,-0.003193,0.063164,-0.0,-0.0,2.0,0.282024,0.323475,0.282024,0.229034,-6.451546,-169.591977,-24.584285,-0.32681,-18.391565,-2.877649
44380,0.178748,0.005754,0.012511,-0.009578,-0.001064,-0.003193,0.060587,-0.0,-0.0,2.0,0.282024,0.323206,0.282024,0.22948,-6.4797,-170.336088,-24.570925,-1.102529,-18.374774,-3.042614
44400,0.174583,0.005576,0.013511,-0.010642,-0.001064,-0.002128,0.057843,-0.0,-0.0,2.0,0.282024,0.322818,0.282024,0.230119,-6.632097,-171.080983,-24.462609,-1.937582,-18.457155,-3.216246
44420,0.169809,0.005274,0.014647,-0.011706,-0.001064,-0.003193,0.055396,-0.0,-0.0,2.0,0.282024,0.322153,0.282024,0.231205,-6.344133,-171.684075,-24.811879,-2.834074,-18.424844,-3.399182
44440,0.164791,0.00498,0.015783,-0.012771,0.0,-0.003193,0.052397,-0.0,-0.0,2.0,0.282024,0.321441,0.282024,0.232357,-6.527917,-172.428257,-24.747164,-3.700965,-18.05199,-3.591623
44460,0.159034,0.00482,0.016909,-0.013835,0.0,-0.003193,0.049416,-0.0,-0.0,2.0,0.282024,0.320569,0.282024,0.23375,-6.686835,-173.150045,-24.816847,-4.452439,-17.166024,-3.79168
44480,0.152791,0.004661,0.018159,-0.014899,0.0,-0.003193,0.046331,-0.0,-0.0,2.0,0.282024,0.319493,0.282024,0.235445,-7.025581,-173.807553,-25.059888,-5.016306,-15.772049,-3.995906
44500,0.146059,0.004392,0.019419,-0.015963,0.0,-0.003193,0.044747,-0.0,-0.0,2.0,0.282024,0.316149,0.282024,0.240544,-8.785629,-174.195368,-26.68701,-5.368286,-14.03356,-4.200209
44520,0.138718,0.00413,0.020803,-0.017028,0.0,-0.003193,0.040321,-0.0,-0.0,2.0,0.282024,0.31507,0.282024,0.242139,-9.823406,-173.696506,-27.520141,-5.532547,-12.149702,-4.401244
44540,0.131013,0.004012,0.022057,-0.018092,-0.001064,-0.003193,0.036885,-0.0,-0.0,2.0,0.282024,0.313399,0.282024,0.244561,-10.006265,-173.207112,-27.460153,-5.449272,-10.302695,-4.596776
44560,0.122698,0.003902,0.023435,-0.019156,-0.001064,-0.003193,0.033507,-0.0,-0.0,2.0,0.282024,0.311512,0.282024,0.247234,-10.198445,-172.786722,-27.371729,-5.113204,-8.619857,-4.785488
44580,0.113887,0.003695,0.024694,-0.02022,-0.001064,-0.003193,0.03181,-0.0,-0.0,2.0,0.282024,0.308737,0.282024,0.251046,-10.412014,-172.428134,-27.255936,-4.535644,-7.179457,-4.967167
44600,0.104596,0.003498,0.026078,-0.021285,-0.001064,-0.003193,0.028338,-0.0,-0.0,2.0,0.282024,0.307867,0.282024,0.252212,-10.656452,-172.123013,-27.096421,-3.741341,-6.035789,-5.142379
44620,0.094821,0.003199,0.027471,-0.022349,0.0,-0.003193,0.023662,-0.0,-0.0,2.0,0.282024,0.30563,0.282024,0.255157,-10.962005,-171.868001,-26.852756,-2.780281,-5.231902,-5.312144
44640,0.084674,0.002917,0.028855,-0.023413,0.0,-0.003193,0.02157,-0.0,-0.0,2.0,0.282024,0.302148,0.282024,0.259584,-11.411878,-171.679155,-26.43278,-1.731858,-4.797172,-5.477597
44660,0.074044,0.002662,0.030119,-0.024477,0.0,-0.003193,0.017968,-0.0,-0.0,2.0,0.282024,0.298913,0.282024,0.263536,-12.087867,-171.620436,-25.749622,-0.698277,-4.736379,-5.639684
44680,0.063168,0.002296,0.031502,-0.024477,0.0,-0.003193,0.01437,-0.0,-0.0,2.0,0.282024,0.295437,0.282024,0.267624,-12.66504,-171.753286,-25.12791,0.213015,-5.016785,-5.798989
44700,0.051806,0.002075,0.032875,-0.025541,0.0,-0.003193,0.010692,-0.0,-0.0,2.0,0.282024,0.293373,0.282024,0.269977,-12.908563,-172.005023,-24.805597,0.902068,-5.559312,-5.955809
44720,0.0402,0.001752,0.034249,-0.026606,0.0,-0.003193,0.008858,-0.0,-0.0,2.0,0.282024,0.288571,0.282024,0.275251,-12.977675,-172.309505,-24.627206,1.291404,-6.242378,-6.110472
44740,0.028233,0.001572,0.035619,-0.026606,0.001064,-0.003193,0.003464,-0.0,-0.0,2.0,0.282024,0.28486,0.282024,0.279147,-12.96969,-172.646667,-24.496592,1.349767,-6.916289,-6.263691
44760,0.016141,0.001289,0.03698,-0.026606,0.0,-0.003193,-0.000291,-0.0,-0.0,2.0,0.282024,0.282006,0.282024,0.282042,-12.919107,-173.006078,-24.369412,1.102549,-7.428443,-6.416681
44780,0.003802,0.000904,0.038337,-0.02767,0.0,-0.003193,-0.004011,-0.0,-0.0,2.0,0.282024,0.27695,0.282024,0.28697,-12.823707,-173.373924,-24.207393,0.630395,-7.65629,-6.570868
44800,-0.008654,0.000782,0.039682,-0.02767,0.0,-0.004257,-0.005843,-0.0,-0.0,2.0,0.282024,0.272739,0.282024,0.290889,-12.624369,-173.724716,-23.93491,0.05443,-7.537551,-6.727335
44820,-0.021115,0.000434,0.041143,-0.02767,0.0,-0.003193,-0.009538,-0.0,-0.0,2.0,0.282024,0.269052,0.282024,0.29419,-12.09075,-173.989803,-23.317217,-0.488741,-7.08518,-6.886352
44840,-0.033696,0.000228,0.042469,-0.02767,0.001064,-0.003193,-0.012886,-0.0,-0.0,2.0,0.282024,0.264987,0.282024,0.297695,-11.088638,-173.961316,-22.224283,-0.878935,-6.381397,-7.047299
44860,-0.046164,-0.000206,0.043915,-0.026606,0.001064,-0.004257,-0.016749,-0.0,-0.0,2.0,0.282024,0.26084,0.282024,0.301133,-10.711348,-173.658605,-21.755733,-1.05232,-5.561584,-7.209074
44880,-0.058512,-0.000628,0.045222,-0.026606,0.0,-0.003193,-0.020355,-0.0,-0.0,2.0,0.282024,0.256427,0.282024,0.304646,-10.648405,-173.316929,-21.603725,-0.998481,-4.781188,-7.370666
44900,-0.070622,-0.001278,0.046628,-0.026606,0.001064,-0.004257,-0.023952,-0.0,-0.0,2.0,0.282024,0.253989,0.282024,0.306525,-10.654567,-172.975672,-21.527456,-0.752598,-4.178189,-7.531469
44920,-0.082365,-0.001674,0.048034,-0.025541,0.001064,-0.003193,-0.025693,-0.0,-0.0,2.0,0.282024,0.250529,0.282024,0.309119,-10.675966,-172.635935,-21.474051,-0.390531,-3.854099,-7.691294
44940,-0.094117,-0.002175,0.049428,-0.024477,0.001064,-0.004257,-0.030456,-0.0,-0.0,2.0,0.282024,0.246281,0.282024,0.31219,-10.700764,-172.293915,-21.420612,-0.014616,-3.856475,-7.850194
44960,-0.105388,-0.002908,0.050918,-0.024477,0.001064,-0.004257,-0.033903,-0.0,-0.0,2.0,0.282024,0.243408,0.282024,0.314199,-10.744256,-171.946126,-21.340514,0.268933,-4.166748,-8.008296
44980,-0.116292,-0.003517,0.052276,-0.023413,0.001064,-0.004257,-0.037269,-0.0,-0.0,2.0,0.282024,0.240585,0.282024,0.316121,-10.89205,-171.594361,-21.149023,0.376766,-4.698666,-8.165804
45000,-0.126705,-0.004009,0.053508,-0.022349,0.001064,-0.003193,-0.040572,-0.0,-0.0,2.0,0.282024,0.237647,0.282024,0.318068,-12.024509,-171.297566,-19.976157,0.273526,-5.311648,-8.323123
45020,-0.136765,-0.004602,0.054972,-0.021285,0.001064,-0.004257,-0.042178,-0.0,-0.0,2.0,0.282024,0.233857,0.282024,0.320502,-13.562608,-171.597721,-18.426725,-0.011128,-5.843836,-8.480897
45040,-0.146332,-0.004948,0.056445,-0.02022,0.001064,-0.004257,-0.04647,-0.0,-0.0,2.0,0.282024,0.229022,0.282024,0.323482,-13.548,-172.014577,-18.450648,-0.398646,-6.141794,-8.639783
45060,-0.155295,-0.005428,0.057781,-0.019156,0.0,-0.004257,-0.049683,-0.0,-0.0,2.0,0.282024,0.226212,0.282024,0.325152,-13.560734,-172.440654,-18.466233,-0.766427,-6.09827,-8.800096
45080,-0.163764,-0.005665,0.059132,-0.018092,0.001064,-0.003193,-0.051188,-0.0,-0.0,2.0,0.282024,0.225103,0.282024,0.325799,-13.592883,-172.867969,-18.478363,-0.977503,-5.698692,-8.961467
45100,-0.171752,-0.006016,0.060591,-0.017028,0.001064,-0.003193,-0.05412,-0.0,-0.0,2.0,0.282024,0.222312,0.282024,0.327397,-13.633528,-173.28989,-18.485057,-0.933559,-5.035294,-9.122972
45120,-0.179117,-0.006241,0.062171,-0.015963,0.001064,-0.004257,-0.056956,-0.0,-0.0,2.0,0.282024,0.21964,0.282024,0.328887,-13.661644,-173.70351,-18.477408,-0.615656,-4.28248,-9.283658
45140,-0.185765,-0.006499,0.063523,-0.013835,0.001064,-0.004257,-0.060563,-0.0,-0.0,2.0,0.282024,0.217553,0.282024,0.330024,-13.615128,-174.109285,-18.406439,-0.099529,-3.640447,-9.443042
45160,-0.191791,-0.006635,0.065001,-0.012771,0.0,-0.003193,-0.061963,-0.0,-0.0,2.0,0.282024,0.21736,0.282024,0.330128,-14.795064,-174.441825,-19.588368,0.471176,-3.269389,-9.601161
45180,-0.197217,-0.007025,0.066461,-0.010642,0.0,-0.004257,-0.064542,-0.0,-0.0,2.0,0.282024,0.215392,0.282024,0.331177,-13.795552,-174.803738,-18.612771,0.943525,-3.240631,-9.758242
45200,-0.201775,-0.007194,0.067944,-0.008514,0.0,-0.004257,-0.066968,-0.0,-0.0,2.0,0.282024,0.213593,0.282024,0.332119,-13.768896,-175.218206,-18.630612,1.109636,-3.51524,-9.914561
45220,-0.205349,-0.007391,0.069431,-0.00745,0.0,-0.004257,-0.069256,-0.0,-0.0,2.0,0.282024,0.214888,0.282024,0.331443,-13.734102,-175.643161,-18.645033,0.897658,-3.948373,-10.07062
45240,-0.208442,-0.007708,0.071034,-0.005321,0.0,-0.003193,-0.069256,-0.0,-0.0,2.0,0.282024,0.215271,0.282024,0.331241,-13.706995,-176.080233,-18.657924,0.365191,-4.351598,-10.227239
45260,-0.210677,-0.007823,0.072558,-0.004257,0.001064,-0.004257,-0.072042,-0.0,-0.0,2.0,0.282024,0.214942,0.282024,0.331414,-13.698523,-176.528387,-18.670651,-0.316891,-4.562226,-10.385297
45280,-0.212172,-0.00795,0.074206,-0.003193,0.001064,-0.004257,-0.075097,-0.0,-0.0,2.0,0.282024,0.21811,0.282024,0.329723,-13.709999,-176.984161,-18.686124,-0.917356,-4.502326,-10.545136
45300,-0.212684,-0.008114,0.075863,-0.001064,0.002128,-0.004257,-0.076933,-0.0,-0.0,2.0,0.282024,0.220955,0.282024,0.328159,-13.705807,-177.443361,-18.734905,-1.223549,-4.208874,-10.706228
45320,-0.212451,-0.00821,0.077295,0.001064,0.001064,-0.004257,-0.078599,-0.0,-0.0,2.0,0.282024,0.221468,0.282024,0.327872,-13.837942,-177.900107,-18.65376,-1.123631,-3.821294,-10.867486
45340,-0.211849,-0.008189,0.07887,0.001064,0.001064,-0.004257,-0.080125,-0.0,-0.0,2.0,0.282024,0.222291,0.282024,0.327409,-13.852426,-178.361334,-18.682198,-0.659487,-3.52357,-11.027951
45360,-0.210762,-0.008188,0.080457,0.002128,0.0,-0.004257,-0.080887,-0.0,-0.0,2.0,0.282024,0.222863,0.282024,0.327085,-13.862517,-178.826003,-18.695539,-0.021832,-3.453429,-11.187165
45380,-0.209536,-0.008061,0.082167,0.002128,0.0,-0.004257,-0.082637,-0.0,-0.0,2.0,0.282024,0.221634,0.282024,0.327779,-13.853684,-179.297022,-18.707589,0.526066,-3.626401,-11.345092
45400,-0.208189,-0.007966,0.083638,0.003193,-0.001064,-0.004257,-0.083772,-0.0,-0.0,2.0,0.282024,0.220241,0.282024,0.328555,-13.833244,-179.776857,-18.721107,0.764775,-3.915949,-11.502015
45420,-0.206616,-0.007993,0.085238,0.003193,-0.001064,-0.003193,-0.084265,-0.0,-0.0,2.0,0.282024,0.221116,0.282024,0.328069,-13.817706,-180.266129,-18.739117,0.622527,-4.111648,-11.658619
45440,-0.205026,-0.007902,0.086836,0.003193,-0.001064,-0.003193,-0.085145,-0.0,-0.0,2.0,0.282024,0.21704,0.282024,0.3303,-15.065185,-180.762646,-20.006773,0.210476,-4.033035,-11.8158
45460,-0.203309,-0.007721,0.088207,0.003193,-0.001064,-0.003193,-0.086023,-0.0,-0.0,2.0,0.282024,0.218484,0.282024,0.32952,-13.84839,-181.171578,-18.780395,-0.205711,-3.636918,-11.974033
45480,-0.201592,-0.00758,0.089216,0.003193,-0.001064,-0.002128,-0.086357,-0.0,-0.0,2.0,0.282024,0.216951,0.282024,0.330348,-13.863706,-181.67208,-18.785143,-0.426591,-3.069719,-12.132995
45500,-0.199742,-0.007241,0.089888,0.003193,0.0,-0.002128,-0.086814,-0.0,-0.0,2.0,0.282024,0.215531,0.282024,0.331104,-13.886419,-182.172898,-18.802818,-0.358089,-2.592611,-12.292055
45520,-0.197749,-0.006725,0.089967,0.003193,-0.001064,-0.001064,-0.087111,-0.0,-0.0,2.0,0.282024,0.217038,0.282024,0.330301,-13.89321,-182.676509,-18.82658,-0.07975,-2.453752,-12.450789
45540,-0.19564,-0.006385,0.089551,0.004257,-0.001064,0.0,-0.087253,-0.0,-0.0,2.0,0.282024,0.215753,0.282024,0.330986,-13.871712,-183.186439,-18.859325,0.194308,-2.748449,-12.609081
45560,-0.193416,-0.006193,0.088883,0.005321,-0.001064,0.001064,-0.087266,-0.0,-0.0,2.0,0.282024,0.214445,0.282024,0.331675,-13.772038,-183.705919,-18.955493,0.245646,-3.342988,-12.767011
45580,-0.19095,-0.006035,0.087978,0.005321,-0.001064,0.002128,-0.087057,-0.0,-0.0,2.0,0.282024,0.216044,0.282024,0.330832,-13.923741,-184.219864,-18.803964,-0.004096,-3.920717,-12.924997
45600,-0.188235,-0.006006,0.087049,0.006385,-0.002128,0.002128,-0.086689,-0.0,-0.0,2.0,0.282024,0.214968,0.282024,0.331401,-13.877944,-184.762732,-18.866882,-0.41342,-4.14646,-13.083717
45620,-0.185288,-0.005986,0.08614,0.006385,-0.002128,0.002128,-0.086457,-0.0,-0.0,2.0,0.282024,0.214106,0.282024,0.331852,-13.889222,-185.312697,-18.893276,-0.689747,-3.865092,-13.243352
45640,-0.182088,-0.005973,0.08522,0.00745,-0.002128,0.002128,-0.085876,-0.0,-0.0,2.0,0.282024,0.216084,0.282024,0.330811,-13.918979,-185.864173,-18.910063,-0.582031,-3.219121,-13.403163
45660,-0.178639,-0.005836,0.084435,0.00745,-0.002128,0.002128,-0.085148,-0.0,-0.0,2.0,0.282024,0.21808,0.282024,0.329739,-13.938376,-186.41559,-18.915218,-0.072225,-2.578083,-13.562246
45680,-0.174709,-0.005837,0.083647,0.00745,-0.001064,0.001064,-0.084263,-0.0,-0.0,2.0,0.282024,0.217608,0.282024,0.329994,-13.805298,-186.968707,-18.787117,0.567761,-2.307314,-13.720351
45700,-0.170769,-0.005593,0.082877,0.008514,0.0,0.001064,-0.0834,-0.0,-0.0,2.0,0.282024,0.219986,0.282024,0.328696,-13.985857,-187.516886,-18.990111,0.925235,-2.521983,-13.877669
45720,-0.166343,-0.005598,0.082199,0.008514,0.0,0.001064,-0.082119,-0.0,-0.0,2.0,0.282024,0.222365,0.282024,0.327368,-13.937897,-188.084589,-18.973515,0.71679,-3.001845,-14.034598
45740,-0.161563,-0.005625,0.08142,0.009578,0.0,0.001064,-0.080809,-0.0,-0.0,2.0,0.282024,0.224884,0.282024,0.325926,-13.917399,-188.662269,-18.966999,0.017988,-3.342261,-14.192063
45760,-0.156656,-0.005522,0.08077,0.010642,0.0,0.001064,-0.079355,-0.0,-0.0,2.0,0.282024,0.225073,0.282024,0.325817,-13.932205,-189.247776,-18.958333,-0.741701,-3.252331,-14.350964
45780,-0.151258,-0.005557,0.0801,0.011706,-0.001064,0.0,-0.078571,-0.0,-0.0,2.0,0.282024,0.228383,0.282024,0.323866,-13.993913,-189.837205,-18.928735,-1.048236,-2.791542,-14.510954
45800,-0.145621,-0.005719,0.079423,0.012771,-0.001064,0.001064,-0.075946,-0.0,-0.0,2.0,0.282024,0.228297,0.282024,0.323917,-13.896688,-190.419879,-19.059933,-0.675671,-2.35224,-14.670773
45820,-0.139741,-0.005643,0.078777,0.012771,-0.002128,0.001064,-0.075004,-0.0,-0.0,2.0,0.282024,0.229524,0.282024,0.323179,-13.966415,-191.015548,-18.999197,0.111159,-2.357317,-14.829652
45840,-0.133496,-0.005812,0.078223,0.013835,-0.002128,0.001064,-0.073059,-0.0,-0.0,2.0,0.282024,0.232832,0.282024,0.321145,-13.953318,-191.619599,-18.995529,0.722046,-2.881643,-14.98742
45860,-0.126993,-0.00563,0.07757,0.013835,-0.001064,0.001064,-0.070985,-0.0,-0.0,2.0,0.282024,0.236212,0.282024,0.319,-13.924487,-192.23438,-19.002278,0.681982,-3.514228,-15.144352
45880,-0.120377,-0.005441,0.077048,0.013835,-0.001064,0.001064,-0.068797,-0.0,-0.0,2.0,0.282024,0.237388,0.282024,0.318237,-13.91678,-192.859453,-19.017243,0.046832,-3.642498,-15.301696
45900,-0.113388,-0.005261,0.076509,0.014899,0.0,0.001064,-0.066723,-0.0,-0.0,2.0,0.282024,0.241087,0.282024,0.315783,-13.91742,-193.488827,-19.008827,-0.601731,-2.989641,-15.460476
45920,-0.106041,-0.005097,0.075861,0.014899,0.0,0.001064,-0.064,-0.0,-0.0,2.0,0.282024,0.244653,0.282024,0.313335,-13.979042,-194.118161,-19.047924,-0.638271,-1.946268,-15.619849
45940,-0.098688,-0.004921,0.075312,0.015963,0.0,0.001064,-0.061416,-0.0,-0.0,2.0,0.282024,0.246129,0.282024,0.312297,-14.007417,-194.748378,-19.075548,0.017459,-1.340816,-15.778632
45960,-0.091106,-0.004999,0.07464,0.015963,-0.001064,0.001064,-0.058774,-0.0,-0.0,2.0,0.282024,0.247769,0.282024,0.311128,-13.988594,-195.3838,-19.104622,0.752425,-1.752232,-15.936699
45980,-0.083271,-0.004837,0.073973,0.017028,-0.002128,0.001064,-0.056,-0.0,-0.0,2.0,0.282024,0.249486,0.282024,0.309884,-13.929373,-196.029202,-19.139053,0.767836,-2.922192,-16.093973
46000,-0.07532,-0.004795,0.073295,0.017028,-0.002128,0.001064,-0.05434,-0.0,-0.0,2.0,0.282024,0.251919,0.282024,0.308087,-14.211255,-196.585364,-18.852171,-0.134608,-3.853062,-16.251402
46020,-0.067242,-0.004508,0.072631,0.017028,-0.001064,0.001064,-0.05166,-0.0,-0.0,2.0,0.282024,0.256077,0.282024,0.304919,-13.957214,-197.246794,-19.144955,-1.224722,-3.646503,-16.411064
46040,-0.059164,-0.004336,0.07194,0.017028,-0.001064,0.001064,-0.048374,-0.0,-0.0,2.0,0.282024,0.257994,0.282024,0.303416,-14.002344,-197.918014,-19.166173,-1.338507,-2.397566,-16.572003
46060,-0.051086,-0.004033,0.071379,0.017028,0.0,0.001064,-0.045264,-0.0,-0.0,2.0,0.282024,0.259999,0.282024,0.301814,-14.039384,-198.587792,-19.164073,-0.125834,-1.27832,-16.731496
46080,-0.042772,-0.003858,0.070698,0.018092,-0.001064,0.001064,-0.042084,-0.0,-0.0,2.0,0.282024,0.26209,0.282024,0.300111,-13.981324,-199.26076,-19.118396,1.416246,-1.450432,-16.889489
46100,-0.034698,-0.003669,0.069994,0.018092,-0.001064,0.0,-0.03839,-0.0,-0.0,2.0,0.282024,0.261997,0.282024,0.300187,-14.065036,-199.919734,-19.2658,1.735267,-2.803111,-17.045917
46120,-0.026506,-0.003476,0.069417,0.017028,-0.001064,0.001064,-0.03549,-0.0,-0.0,2.0,0.282024,0.266347,0.282024,0.296537,-13.949991,-200.615269,-19.189595,0.300256,-3.874034,-17.201796
46140,-0.018191,-0.003283,0.068709,0.017028,-0.001064,0.001064,-0.032025,-0.0,-0.0,2.0,0.282024,0.268495,0.282024,0.294679,-13.963949,-201.322019,-19.169404,-1.604219,-3.292257,-17.36114
46160,-0.009994,-0.002957,0.068115,0.017028,-0.001064,0.001064,-0.030311,-0.0,-0.0,2.0,0.282024,0.271385,0.282024,0.292115,-14.040562,-202.027012,-19.167151,-1.956771,-1.408594,-17.522384
46180,-0.001921,-0.002622,0.067523,0.017028,-0.001064,0.001064,-0.026846,-0.0,-0.0,2.0,0.282024,0.273607,0.282024,0.290095,-13.898788,-202.730609,-19.368727,-0.165844,-0.257492,-17.681521
46200,0.006031,-0.002279,0.067044,0.017028,-0.002128,0.0,-0.023316,-0.0,-0.0,2.0,0.282024,0.2759,0.282024,0.287963,-14.11256,-203.432523,-19.135184,1.948987,-1.464736,-17.839553
46220,0.014104,-0.001933,0.066312,0.017028,-0.001064,0.001064,-0.018608,-0.0,-0.0,2.0,0.282024,0.277709,0.282024,0.286247,-14.000131,-204.154051,-19.19152,1.867542,-4.098772,-17.994768
46240,0.022063,-0.001336,0.06569,0.015963,-0.001064,0.001064,-0.016849,-0.0,-0.0,2.0,0.282024,0.280696,0.282024,0.283344,-13.978321,-204.897113,-19.269313,-0.665853,-5.171307,-18.150397
46260,0.029889,-0.001097,0.065197,0.015963,-0.001064,0.001064,-0.013141,-0.0,-0.0,2.0,0.282024,0.282913,0.282024,0.281131,-14.245903,-205.640309,-19.502789,-2.810508,-2.919071,-18.312952
46280,0.037601,-0.000604,0.06457,0.015963,-0.002128,0.0,-0.009493,-0.0,-0.0,2.0,0.282024,0.283339,0.282024,0.2807,-14.145285,-206.053649,-19.326285,-1.538529,0.589357,-18.473821
46300,0.045309,-0.000229,0.063937,0.015963,-0.001064,0.001064,-0.00584,-0.0,-0.0,2.0,0.282024,0.285629,0.282024,0.278352,-14.184254,-206.796341,-19.364075,2.266558,1.13052,-18.63226
46320,0.05265,0.00016,0.063418,0.014899,-0.001064,0.001064,-0.003928,-0.0,-0.0,2.0,0.282024,0.288532,0.282024,0.275292,-14.055593,-207.544858,-19.358667,3.950957,-2.581074,-18.790212
46340,0.059758,0.000807,0.062776,0.014899,-0.002128,0.001064,0.001122,-0.0,-0.0,2.0,0.282024,0.288378,0.282024,0.275458,-13.980555,-208.315399,-19.270742,0.612176,-6.412251,-18.941453
46360,0.066497,0.001343,0.062252,0.013835,-0.002128,0.0,0.004872,-0.0,-0.0,2.0,0.282024,0.28871,0.282024,0.275102,-21.50977,-209.059379,-11.770767,-4.445626,-5.125261,-19.105036
46380,0.073105,0.001765,0.061714,0.012771,-0.001064,0.0,0.008523,-0.0,-0.0,2.0,0.282024,0.290746,0.282024,0.272896,-20.40065,-209.68363,-13.09468,-4.649098,0.613391,-19.272365
46400,0.079477,0.002324,0.061057,0.012771,-0.002128,0.001064,0.012168,-0.0,-0.0,2.0,0.282024,0.290974,0.282024,0.272645,-20.533911,-210.461716,-13.035651,1.600975,3.593211,-19.428247
46420,0.085479,0.002765,0.060644,0.011706,-0.001064,0.0,0.014057,-0.0,-0.0,2.0,0.282024,0.293511,0.282024,0.269821,-20.362929,-211.247151,-12.995863,6.954002,-1.308555,-19.59105
46440,0.09112,0.003341,0.060222,0.011706,-0.001064,0.0,0.019151,-0.0,-0.0,2.0,0.282024,0.293108,0.282024,0.270275,-20.309122,-212.053619,-13.208481,3.345888,-8.837652,-19.733834
46460,0.09663,0.003685,0.059687,0.010642,-0.001064,0.0,0.022771,-0.0,-0.0,2.0,0.282024,0.294855,0.282024,0.268292,-38.866786,-212.676238,-31.791647,-6.045001,-8.170684,-19.893562
46480,0.10189,0.003795,0.059161,0.010642,0.0,0.001064,0.026251,-0.0,-0.0,2.0,0.282024,0.294914,0.282024,0.268225,-39.213214,-213.501715,-31.848682,-8.494064,2.112943,-20.072141
46500,0.106784,0.003912,0.058758,0.009578,0.0,0.0,0.028009,-0.0,-0.0,2.0,0.282024,0.297166,0.282024,0.265611,-39.386288,-214.321843,-32.039494,1.744028,8.876421,-20.216252
46520,0.111305,0.003798,0.05837,0.009578,0.0,0.0,0.031591,-0.0,-0.0,2.0,0.282024,0.296987,0.282024,0.265821,-38.419401,-215.112416,-32.839768,12.057798,0.312848,-20.396881
46540,0.115457,0.003574,0.057991,0.00745,0.0,0.0,0.034302,-0.0,-0.0,2.0,0.282024,0.297006,0.282024,0.265798,-39.037138,-215.51589,-31.777909,5.559221,-14.537044,-20.52093
46560,0.11937,0.003481,0.057607,0.00745,0.0,0.001064,0.03795,-0.0,-0.0,2.0,0.282024,0.296569,0.282024,0.26631,-38.734133,-216.5374,-32.16478,-12.334158,-13.30863,-20.691978
46580,0.122787,0.003396,0.057339,0.006385,0.0,0.0,0.041229,-0.0,-0.0,2.0,0.282024,0.296139,0.282024,0.266812,-39.335211,-217.429399,-32.126115,-15.278524,7.11242,-20.902862
46600,0.125847,0.003323,0.057084,0.005321,-0.001064,0.0,0.044448,-0.0,-0.0,2.0,0.282024,0.297294,0.282024,0.265461,-38.540363,-218.318847,-30.892208,6.862175,18.368316,-21.009717
46620,0.128538,0.00339,0.056693,0.005321,0.0,0.0,0.048114,-0.0,-0.0,2.0,0.282024,0.296452,0.282024,0.266447,-32.1714,-218.321777,-25.15319,24.645934,-1.908646,-21.270855
46640,0.130859,0.003331,0.056557,0.003193,-0.001064,0.0,0.050669,-0.0,-0.0,2.0,0.282024,0.295872,0.282024,0.267121,-25.77802,-218.983673,-19.573377,5.591705,-29.043301,-21.284625
46660,0.132697,0.003408,0.056417,0.003193,-0.001064,0.0,0.052529,-0.0,-0.0,2.0,0.282024,0.295367,0.282024,0.267704,-26.123983,-220.410347,-19.558126,-29.591135,-17.281816,-21.577993
46680,0.134292,0.003501,0.056158,0.002128,-0.001064,0.0,0.055461,-0.0,-0.0,2.0,0.282024,0.294323,0.282024,0.2689,-27.222994,-221.396231,-19.74574,-23.687608,26.456058,-21.753865
46700,0.135277,0.003603,0.056028,0.001064,-0.001064,0.0,0.05825,-0.0,-0.0,2.0,0.282024,0.29489,0.282024,0.268252,-27.562514,-222.55869,-19.569675,27.820596,33.613453,-21.836795
46720,0.136255,0.003705,0.055887,0.001064,-0.001064,0.0,0.060935,-0.0,-0.0,2.0,0.282024,0.293618,0.282024,0.2697,-25.953707,-223.744097,-19.385465,46.233832,-23.293262,-22.299265
46740,0.136623,0.003825,0.055753,0.0,-0.001064,0.0,0.06223,-0.0,-0.0,2.0,0.282024,0.292746,0.282024,0.270681,-22.38933,-224.377097,-16.890033,-16.749447,-60.94649,-21.883352
46760,0.136748,0.003951,0.055622,-0.001064,0.0,-0.001064,0.065868,-0.0,-0.0,2.0,0.282024,0.292519,0.282024,0.270935,-24.02327,-222.398218,-16.402722,-71.811175,0.708194,-23.051618
46780,0.13663,0.004085,0.055493,-0.001064,0.0,0.0,0.068258,-0.0,-0.0,2.0,0.282024,0.290882,0.282024,0.272747,-36.428791,-222.137388,-6.086453,-5.982082,82.85513,-22.168364
46800,0.13638,0.003856,0.055391,-0.001064,0.0,0.0,0.070506,-0.0,-0.0,2.0,0.282024,0.291001,0.282024,0.272616,-30.529507,-220.588203,-10.755438,98.528335,27.980683,-23.831203
46820,0.136136,0.003863,0.055394,-0.001064,0.0,-0.001064,0.072607,-0.0,-0.0,2.0,0.282024,0.291047,0.282024,0.272565,-26.373052,-218.935408,-9.732313,41.733351,-115.829546,-22.540043
46840,0.135889,0.003757,0.055283,-0.001064,-0.001064,0.0,0.07371,-0.0,-0.0,2.0,0.282024,0.291484,0.282024,0.272084,-29.196111,-222.701501,-6.31826,-126.535866,-82.542779,-24.378769
46860,0.135889,0.003765,0.055162,0.0,-0.001064,0.0,0.076336,-0.0,-0.0,2.0,0.282024,0.291413,0.282024,0.272162,-35.820803,-223.093058,-5.228382,-95.36055,154.304577,-24.163906
46880,0.136015,0.003892,0.05503,0.0,-0.001064,0.0,0.077243,-0.0,-0.0,2.0,0.282024,0.293734,0.282024,0.269569,-35.780274,-218.496973,-7.186383,168.872745,152.179758,-25.291374
46900,0.136383,0.004003,0.055018,0.0,-0.001064,0.0,0.078886,-0.0,-0.0,2.0,0.282024,0.294077,0.282024,0.26918,-19.723559,-218.937881,-0.134766,155.91161,-263.622821,-26.247905
46920,0.136627,0.004005,0.054894,0.0,-0.001064,-0.001064,0.080388,-0.0,-0.0,2.0,0.282024,0.29445,0.282024,0.268755,-38.879482,-215.39622,31.972267,-268.238725,-265.444474,-29.520784
46940,0.13687,0.004006,0.054769,0.0,0.0,0.0,0.081753,-0.0,-0.0,2.0,0.282024,0.294856,0.282024,0.268291,-39.975248,-214.693596,26.066609,-53.304844,680.738687,-17.645184
46960,0.136988,0.003881,0.054776,0.0,0.0,0.0,0.082845,-0.0,-0.0,2.0,0.282024,0.295347,0.282024,0.267727,7.509423,-208.37165,47.495533,1002.182384,87.378545,-98.465306
46980,0.136985,0.003759,0.054785,-0.001064,-0.001064,-0.001064,0.083949,-0.0,-0.0,2.0,0.282024,0.294012,0.282024,0.269254,53.48541,-184.715971,174.255865,-61957.119697,-60977.585622,4424.849644
47000,0.136863,0.003771,0.054664,-0.001064,-0.001064,-0.001064,0.08488,-0.0,-0.0,2.0,0.282024,0.2944,0.282024,0.268813,4.089306403037166e+16,1.2182899039271986e+16,-2.730449214492485e+16,-5.536836679286067e+33,-5.300315884255343e+33,3.930568313712729e+32
47020,0.13662,0.003778,0.054667,-0.001064,-0.001064,0.0,0.085664,-0.0,-0.0,2.0,0.282024,0.29497,0.282024,0.26816,,,,,,
47040,0.13662,0.003778,0.054667,-0.001064,-0.001064,0.0,0.086303,-0.0,-0.0,2.0,0.282024,0.295478,0.282024,0.267577,,,,,,
47060,0.136623,0.0039,0.054659,0.0,-0.001064,-0.001064,0.086735,-0.0,-0.0,2.0,0.282024,0.297751,0.282024,0.264921,,,,,,
47080,0.136623,0.0039,0.054659,0.0,0.0,-0.001064,0.086926,-0.0,-0.0,2.0,0.282024,0.298403,0.282024,0.264146,,,,,,
47100,0.136745,0.003896,0.054657,0.0,0.0,0.0,0.087179,-0.0,-0.0,2.0,0.282024,0.299073,0.282024,0.263345,,,,,,
47120,0.136863,0.003771,0.054664,0.0,-0.001064,0.0,0.087266,-0.0,-0.0,2.0,0.282024,0.299798,0.282024,0.26247,,,,,,
47140,0.136738,0.003644,0.054796,-0.001064,0.0,-0.001064,0.087197,-0.0,-0.0,2.0,0.282024,0.298815,0.282024,0.263654,,,,,,
47160,0.13662,0.003778,0.054667,-0.001064,0.0,-0.001064,0.087105,-0.0,-0.0,2.0,0.282024,0.299522,0.282024,0.262804,,,,,,
47180,0.136495,0.003659,0.054677,-0.001064,0.0,0.0,0.086635,-0.0,-0.0,2.0,0.282024,0.300362,0.282024,0.261784,,,,,,
47200,0.136376,0.003785,0.05467,-0.001064,0.0,0.0,0.086109,-0.0,-0.0,2.0,0.282024,0.301227,0.282024,0.260725,,,,,,
47220,0.13613,0.003661,0.054802,-0.001064,-0.001064,-0.001064,0.08543,-0.0,-0.0,2.0,0.282024,0.302104,0.282024,0.259638,,,,,,
47240,0.135889,0.00379,0.054797,-0.001064,-0.001064,-0.001064,0.084606,-0.0,-0.0,2.0,0.282024,0.303039,0.282024,0.258469,,,,,,
47260,0.135768,0.003802,0.054677,-0.001064,0.0,0.0,0.084137,-0.0,-0.0,2.0,0.282024,0.303891,0.282024,0.257391,,,,,,
47280,0.135516,0.003808,0.05467,-0.001064,-0.001064,0.0,0.082509,-0.0,-0.0,2.0,0.282024,0.305118,0.282024,0.25582,,,,,,
47300,0.135151,0.00381,0.054795,-0.001064,-0.001064,-0.001064,0.081771,-0.0,-0.0,2.0,0.282024,0.305996,0.282024,0.254681,,,,,,
47320,0.135026,0.0037,0.054683,-0.001064,-0.001064,-0.001064,0.080409,-0.0,-0.0,2.0,0.282024,0.307186,0.282024,0.253118,,,,,,
47340,0.134779,0.003585,0.054694,-0.001064,0.0,-0.001064,0.078909,-0.0,-0.0,2.0,0.282024,0.308393,0.282024,0.251509,,,,,,
47360,0.13466,0.003711,0.054687,-0.001064,0.0,0.0,0.077012,-0.0,-0.0,2.0,0.282024,0.309796,0.282024,0.249607,,,,,,
47380,0.134295,0.003721,0.054691,-0.001064,0.0,0.0,0.075351,-0.0,-0.0,2.0,0.282024,0.311045,0.282024,0.247885,,,,,,
47400,0.133678,0.00373,0.05481,-0.002128,-0.001064,-0.001064,0.073362,-0.0,-0.0,2.0,0.282024,0.312333,0.282024,0.24608,,,,,,
47420,0.133069,0.003747,0.054816,-0.002128,-0.001064,-0.001064,0.072351,-0.0,-0.0,2.0,0.282024,0.311714,0.282024,0.246951,,,,,,
47440,0.132217,0.003771,0.054826,-0.003193,-0.001064,0.0,0.070229,-0.0,-0.0,2.0,0.282024,0.312988,0.282024,0.245149,,,,,,
47460,0.131116,0.003915,0.054941,-0.003193,-0.001064,-0.001064,0.06797,-0.0,-0.0,2.0,0.282024,0.31266,0.282024,0.245615,,,,,,
47480,0.129769,0.003945,0.055068,-0.004257,0.0,-0.001064,0.066424,-0.0,-0.0,2.0,0.282024,0.312014,0.282024,0.24653,,,,,,
47500,0.128186,0.003989,0.055085,-0.004257,0.0,-0.001064,0.062989,-0.0,-0.0,2.0,0.282024,0.313527,0.282024,0.244377,,,,,,
47520,0.126223,0.003793,0.055233,-0.005321,0.0,-0.001064,0.060378,-0.0,-0.0,2.0,0.282024,0.31307,0.282024,0.245031,,,,,,
47540,0.124016,0.003855,0.055236,-0.005321,0.0,-0.001064,0.057657,-0.0,-0.0,2.0,0.282024,0.312576,0.282024,0.245735,,,,,,
47560,0.121565,0.003665,0.055509,-0.006385,0.0,-0.001064,0.05486,-0.0,-0.0,2.0,0.282024,0.313608,0.282024,0.244261,,,,,,
47580,0.118635,0.003748,0.055529,-0.00745,0.0,-0.001064,0.053264,-0.0,-0.0,2.0,0.282024,0.31406,0.282024,0.24361,,,,,,
47600,0.115331,0.003827,0.055785,-0.008514,0.0,-0.001064,0.049102,-0.0,-0.0,2.0,0.282024,0.313687,0.282024,0.244147,,,,,,
47620,0.111788,0.003798,0.055938,-0.009578,-0.001064,-0.001064,0.047499,-0.0,-0.0,2.0,0.282024,0.312349,0.282024,0.246057,,,,,,
47640,0.107872,0.003774,0.056206,-0.009578,-0.001064,-0.001064,0.044342,-0.0,-0.0,2.0,0.282024,0.311393,0.282024,0.2474,,,,,,
47660,0.103351,0.003897,0.056349,-0.010642,-0.001064,-0.001064,0.041159,-0.0,-0.0,2.0,0.282024,0.310222,0.282024,0.249023,,,,,,
47680,0.098579,0.003777,0.056627,-0.011706,-0.001064,-0.001064,0.037526,-0.0,-0.0,2.0,0.282024,0.309097,0.282024,0.250558,,,,,,
47700,0.093323,0.003794,0.056901,-0.012771,-0.001064,0.0,0.034446,-0.0,-0.0,2.0,0.282024,0.309193,0.282024,0.250428,,,,,,
47720,0.087579,0.003826,0.057177,-0.013835,-0.001064,-0.001064,0.030871,-0.0,-0.0,2.0,0.282024,0.306035,0.282024,0.254631,,,,,,
47740,0.081588,0.003745,0.057458,-0.013835,-0.001064,-0.001064,0.027392,-0.0,-0.0,2.0,0.282024,0.305955,0.282024,0.254735,,,,,,
47760,0.074991,0.003805,0.057734,-0.014899,-0.001064,-0.001064,0.023887,-0.0,-0.0,2.0,0.282024,0.303997,0.282024,0.257256,,,,,,
47780,0.068028,0.003878,0.05801,-0.017028,-0.001064,-0.001064,0.022111,-0.0,-0.0,2.0,0.282024,0.301211,0.282024,0.260744,,,,,,
47800,0.0607,0.003958,0.058407,-0.017028,-0.001064,-0.001064,0.019882,-0.0,-0.0,2.0,0.282024,0.298348,0.282024,0.264212,,,,,,
47820,0.052883,0.004059,0.05868,-0.018092,0.0,-0.001064,0.014859,-0.0,-0.0,2.0,0.282024,0.296243,0.282024,0.26669,,,,,,
47840,0.044586,0.004299,0.05896,-0.019156,-0.001064,-0.001064,0.011142,-0.0,-0.0,2.0,0.282024,0.293398,0.282024,0.269949,,,,,,
47860,0.035916,0.004427,0.059351,-0.02022,0.0,-0.001064,0.007485,-0.0,-0.0,2.0,0.282024,0.290279,0.282024,0.273406,,,,,,
47880,0.026879,0.004448,0.059628,-0.02022,-0.001064,-0.001064,0.003832,-0.0,-0.0,2.0,0.282024,0.288665,0.282024,0.275151,,,,,,
47900,0.017359,0.004609,0.059911,-0.021285,-0.001064,-0.001064,0.001986,-0.0,-0.0,2.0,0.282024,0.284256,0.282024,0.279766,,,,,,
47920,0.007594,0.004779,0.060176,-0.022349,-0.001064,-0.001064,-0.003496,-0.0,-0.0,2.0,0.282024,0.281009,0.282024,0.283034,,,,,,
47940,-0.002297,0.004832,0.060445,-0.022349,-0.001064,0.0,-0.007178,-0.0,-0.0,2.0,0.282024,0.278707,0.282024,0.285286,,,,,,
47960,-0.012667,0.005147,0.060709,-0.023413,-0.001064,-0.001064,-0.009014,-0.0,-0.0,2.0,0.282024,0.273408,0.282024,0.290277,,,,,,
47980,-0.023168,0.005224,0.060974,-0.023413,-0.001064,-0.001064,-0.012709,-0.0,-0.0,2.0,0.282024,0.270515,0.282024,0.292894,,,,,,
48000,-0.033911,0.005432,0.061122,-0.023413,-0.001064,-0.001064,-0.016488,-0.0,-0.0,2.0,0.282024,0.267392,0.282024,0.295638,,,,,,
48020,-0.044655,0.005523,0.06149,-0.023413,-0.001064,-0.001064,-0.019878,-0.0,-0.0,2.0,0.282024,0.263921,0.282024,0.298592,,,,,,
48040,-0.055645,0.005745,0.061753,-0.024477,-0.001064,-0.002128,-0.02356,-0.0,-0.0,2.0,0.282024,0.258209,0.282024,0.303245,,,,,,
48060,-0.066262,0.006075,0.061879,-0.023413,-0.001064,-0.001064,-0.027082,-0.0,-0.0,2.0,0.282024,0.256515,0.282024,0.304578,,,,,,
48080,-0.077138,0.006181,0.062253,-0.023413,-0.001064,-0.001064,-0.030516,-0.0,-0.0,2.0,0.282024,0.252375,0.282024,0.307745,,,,,,
48100,-0.08764,0.006394,0.062491,-0.023413,-0.001064,-0.001064,-0.032226,-0.0,-0.0,2.0,0.282024,0.247325,0.282024,0.311447,,,,,,
48120,-0.098139,0.006861,0.062866,-0.022349,-0.001064,-0.002128,-0.03704,-0.0,-0.0,2.0,0.282024,0.243508,0.282024,0.31413,,,,,,
48140,-0.108287,0.007063,0.062992,-0.022349,-0.001064,-0.001064,-0.039017,-0.0,-0.0,2.0,0.282024,0.240526,0.282024,0.316161,,,,,,
48160,-0.118422,0.007409,0.06347,-0.021285,-0.001064,-0.001064,-0.04233,-0.0,-0.0,2.0,0.282024,0.238022,0.282024,0.317823,,,,,,
48180,-0.127961,0.007603,0.063706,-0.02022,-0.001064,-0.001064,-0.045528,-0.0,-0.0,2.0,0.282024,0.233176,0.282024,0.32093,,,,,,
48200,-0.137263,0.007801,0.06407,-0.02022,-0.001064,-0.001064,-0.048617,-0.0,-0.0,2.0,0.282024,0.230592,0.282024,0.322529,,,,,,
48220,-0.146192,0.00799,0.064418,-0.019156,0.0,-0.001064,-0.050126,-0.0,-0.0,2.0,0.282024,0.227148,0.282024,0.324601,,,,,,
48240,-0.154518,0.008031,0.064634,-0.018092,0.0,-0.001064,-0.054484,-0.0,-0.0,2.0,0.282024,0.22542,0.282024,0.325615,,,,,,
48260,-0.162594,0.008198,0.064977,-0.017028,0.0,-0.001064,-0.057345,-0.0,-0.0,2.0,0.282024,0.22286,0.282024,0.327087,,,,,,
48280,-0.170312,0.008479,0.06534,-0.015963,-0.001064,-0.002128,-0.060059,-0.0,-0.0,2.0,0.282024,0.220255,0.282024,0.328547,,,,,,
48300,-0.177299,0.008494,0.065673,-0.014899,-0.001064,-0.001064,-0.062705,-0.0,-0.0,2.0,0.282024,0.217876,0.282024,0.32985,,,,,,
48320,-0.183553,0.008599,0.065899,-0.013835,-0.001064,-0.001064,-0.064006,-0.0,-0.0,2.0,0.282024,0.214966,0.282024,0.331402,,,,,,
48340,-0.189421,0.008959,0.066379,-0.011706,-0.001064,-0.001064,-0.066123,-0.0,-0.0,2.0,0.282024,0.212617,0.282024,0.332622,,,,,,
48360,-0.194682,0.009289,0.066742,-0.010642,-0.001064,-0.001064,-0.068674,-0.0,-0.0,2.0,0.282024,0.210789,0.282024,0.333553,,,,,,
48380,-0.199224,0.009355,0.067089,-0.009578,0.0,-0.002128,-0.070883,-0.0,-0.0,2.0,0.282024,0.211978,0.282024,0.33295,,,,,,
48400,-0.202899,0.009514,0.067445,-0.008514,0.001064,-0.001064,-0.07295,-0.0,-0.0,2.0,0.282024,0.210701,0.282024,0.333597,,,,,,
48420,-0.205851,0.009517,0.067675,-0.006385,0.001064,-0.001064,-0.073962,-0.0,-0.0,2.0,0.282024,0.212022,0.282024,0.332927,,,,,,
48440,-0.208184,0.009499,0.067899,-0.004257,0.0,-0.001064,-0.076744,-0.0,-0.0,2.0,0.282024,0.214756,0.282024,0.331512,,,,,,
48460,-0.20978,0.009335,0.068108,-0.002128,0.0,-0.001064,-0.078492,-0.0,-0.0,2.0,0.282024,0.214504,0.282024,0.331644,,,,,,
48480,-0.210523,0.009265,0.06834,-0.001064,-0.001064,-0.001064,-0.080025,-0.0,-0.0,2.0,0.282024,0.217392,0.282024,0.330111,,,,,,
48500,-0.210521,0.00929,0.068582,0.001064,-0.001064,-0.001064,-0.080752,-0.0,-0.0,2.0,0.282024,0.217499,0.282024,0.330053,,,,,,
48520,-0.210039,0.009166,0.068696,0.002128,-0.001064,-0.001064,-0.082085,-0.0,-0.0,2.0,0.282024,0.218272,0.282024,0.329635,,,,,,
48540,-0.20918,0.00904,0.068925,0.002128,-0.001064,-0.001064,-0.083647,-0.0,-0.0,2.0,0.282024,0.21944,0.282024,0.328997,,,,,,
48560,-0.207831,0.009007,0.069051,0.002128,-0.001064,0.0,-0.084185,-0.0,-0.0,2.0,0.282024,0.217644,0.282024,0.329975,,,,,,
48580,-0.206478,0.009094,0.06919,0.002128,-0.001064,-0.001064,-0.08508,-0.0,-0.0,2.0,0.282024,0.216086,0.282024,0.33081,,,,,,
48600,-0.205003,0.00919,0.069452,0.003193,0.0,-0.001064,-0.085822,-0.0,-0.0,2.0,0.282024,0.217299,0.282024,0.330161,,,,,,
48620,-0.203279,0.009143,0.06957,0.003193,0.001064,-0.001064,-0.086417,-0.0,-0.0,2.0,0.282024,0.215884,0.282024,0.330917,,,,,,
48640,-0.201324,0.009075,0.069583,0.003193,0.001064,-0.001064,-0.086686,-0.0,-0.0,2.0,0.282024,0.217203,0.282024,0.330212,,,,,,
48660,-0.199361,0.008898,0.069692,0.004257,0.001064,-0.001064,-0.087131,-0.0,-0.0,2.0,0.282024,0.215946,0.282024,0.330884,,,,,,
48680,-0.197147,0.008955,0.069828,0.004257,0.0,-0.001064,-0.087258,-0.0,-0.0,2.0,0.282024,0.214692,0.282024,0.331546,,,,,,
48700,-0.194699,0.008748,0.069821,0.005321,0.0,-0.001064,-0.087231,-0.0,-0.0,2.0,0.282024,0.216304,0.282024,0.330693,,,,,,
48720,-0.192009,0.008533,0.069818,0.006385,-0.001064,0.0,-0.087048,-0.0,-0.0,2.0,0.282024,0.215264,0.282024,0.331245,,,,,,
48740,-0.189071,0.008431,0.069829,0.006385,-0.001064,0.0,-0.086865,-0.0,-0.0,2.0,0.282024,0.217183,0.282024,0.330223,,,,,,
48760,-0.185878,0.008331,0.069951,0.006385,-0.001064,0.0,-0.086497,-0.0,-0.0,2.0,0.282024,0.216463,0.282024,0.330609,,,,,,
48780,-0.182328,0.00833,0.069979,0.00745,-0.001064,0.0,-0.085905,-0.0,-0.0,2.0,0.282024,0.215882,0.282024,0.330918,,,,,,
48800,-0.178646,0.008323,0.069994,0.008514,-0.001064,0.0,-0.085185,-0.0,-0.0,2.0,0.282024,0.218109,0.282024,0.329724,,,,,,
48820,-0.1746,0.008293,0.069891,0.008514,0.0,0.0,-0.084307,-0.0,-0.0,2.0,0.282024,0.217797,0.282024,0.329892,,,,,,
48840,-0.17031,0.008265,0.06991,0.008514,0.001064,-0.001064,-0.083812,-0.0,-0.0,2.0,0.282024,0.220617,0.282024,0.328347,,,,,,
48860,-0.165774,0.008341,0.069818,0.009578,0.001064,-0.001064,-0.082258,-0.0,-0.0,2.0,0.282024,0.222994,0.282024,0.327011,,,,,,
48880,-0.161,0.008278,0.069595,0.010642,0.0,0.0,-0.08093,-0.0,-0.0,2.0,0.282024,0.225657,0.282024,0.325477,,,,,,
48900,-0.155855,0.00808,0.069352,0.011706,0.0,0.0,-0.079479,-0.0,-0.0,2.0,0.282024,0.228479,0.282024,0.323808,,,,,,
48920,-0.150477,0.007877,0.069121,0.011706,-0.001064,0.0,-0.077894,-0.0,-0.0,2.0,0.282024,0.228895,0.282024,0.323559,,,,,,
48940,-0.144838,0.0079,0.068774,0.012771,-0.001064,0.0,-0.077054,-0.0,-0.0,2.0,0.282024,0.229942,0.282024,0.322925,,,,,,
48960,-0.138973,0.007674,0.06842,0.012771,-0.001064,0.0,-0.074439,-0.0,-0.0,2.0,0.282024,0.232695,0.282024,0.32123,,,,,,
48980,-0.132974,0.007567,0.068061,0.012771,-0.001064,0.001064,-0.073253,-0.0,-0.0,2.0,0.282024,0.233888,0.282024,0.320482,,,,,,
49000,-0.126736,0.007569,0.067599,0.012771,-0.001064,0.001064,-0.070465,-0.0,-0.0,2.0,0.282024,0.234444,0.282024,0.320131,,,,,,
49020,-0.120373,0.007447,0.067113,0.013835,0.0,0.0,-0.069306,-0.0,-0.0,2.0,0.282024,0.238363,0.282024,0.317599,,,,,,
49040,-0.11377,0.007436,0.066523,0.013835,0.0,0.001064,-0.066924,-0.0,-0.0,2.0,0.282024,0.239471,0.282024,0.316866,,,,,,
49060,-0.107044,0.007431,0.066051,0.014899,0.0,0.001064,-0.065345,-0.0,-0.0,2.0,0.282024,0.243419,0.282024,0.314191,,,,,,
49080,-0.100076,0.00741,0.065331,0.014899,0.0,0.001064,-0.061472,-0.0,-0.0,2.0,0.282024,0.244109,0.282024,0.313714,,,,,,
49100,-0.092986,0.00739,0.064607,0.014899,-0.001064,0.001064,-0.060112,-0.0,-0.0,2.0,0.282024,0.246163,0.282024,0.312274,,,,,,
49120,-0.085778,0.007248,0.063873,0.015963,-0.001064,0.001064,-0.057388,-0.0,-0.0,2.0,0.282024,0.24769,0.282024,0.311185,,,,,,
49140,-0.078566,0.007235,0.063139,0.014899,-0.001064,0.001064,-0.054573,-0.0,-0.0,2.0,0.282024,0.249244,0.282024,0.310061,,,,,,
49160,-0.071238,0.007218,0.06229,0.014899,0.0,0.001064,-0.051458,-0.0,-0.0,2.0,0.282024,0.250777,0.282024,0.308936,,,,,,
49180,-0.06391,0.007208,0.061435,0.014899,0.0,0.001064,-0.048703,-0.0,-0.0,2.0,0.282024,0.254681,0.282024,0.305996,,,,,,
49200,-0.056459,0.007197,0.060454,0.015963,0.0,0.001064,-0.045241,-0.0,-0.0,2.0,0.282024,0.256217,0.282024,0.30481,,,,,,
49220,-0.049132,0.007193,0.059345,0.015963,-0.001064,0.001064,-0.042056,-0.0,-0.0,2.0,0.282024,0.257884,0.282024,0.303503,,,,,,
49240,-0.041682,0.007197,0.058353,0.015963,-0.001064,0.002128,-0.038809,-0.0,-0.0,2.0,0.282024,0.259635,0.282024,0.302107,,,,,,
49260,-0.034109,0.007326,0.057368,0.015963,-0.001064,0.002128,-0.037149,-0.0,-0.0,2.0,0.282024,0.262212,0.282024,0.300011,,,,,,
49280,-0.026416,0.007336,0.056243,0.014899,-0.001064,0.002128,-0.032492,-0.0,-0.0,2.0,0.282024,0.263572,0.282024,0.298883,,,,,,
49300,-0.018845,0.00748,0.055135,0.015963,-0.001064,0.002128,-0.03047,-0.0,-0.0,2.0,0.282024,0.268061,0.282024,0.295057,,,,,,
49320,-0.011277,0.007509,0.05401,0.015963,-0.001064,0.002128,-0.027005,-0.0,-0.0,2.0,0.282024,0.268028,0.282024,0.295086,,,,,,
49340,-0.003587,0.007544,0.052757,0.015963,-0.001064,0.002128,-0.023464,-0.0,-0.0,2.0,0.282024,0.270039,0.282024,0.293318,,,,,,
49360,0.004104,0.007587,0.051631,0.015963,0.0,0.002128,-0.019907,-0.0,-0.0,2.0,0.282024,0.272091,0.282024,0.291478,,,,,,
49380,0.011915,0.007637,0.050378,0.015963,0.0,0.002128,-0.018117,-0.0,-0.0,2.0,0.282024,0.274979,0.282024,0.288825,,,,,,
49400,0.019483,0.0077,0.049243,0.015963,0.0,0.002128,-0.012571,-0.0,-0.0,2.0,0.282024,0.276264,0.282024,0.28762,,,,,,
49420,0.027171,0.007649,0.047991,0.015963,-0.001064,0.002128,-0.008879,-0.0,-0.0,2.0,0.282024,0.278387,0.282024,0.285595,,,,,,
49440,0.034737,0.007612,0.046614,0.015963,-0.001064,0.002128,-0.005215,-0.0,-0.0,2.0,0.282024,0.280513,0.282024,0.283524,,,,,,
49460,0.042306,0.007707,0.045231,0.014899,0.0,0.002128,-0.00338,-0.0,-0.0,2.0,0.282024,0.283412,0.282024,0.280626,,,,,,
49480,0.04975,0.00769,0.04397,0.014899,0.0,0.002128,0.000415,-0.0,-0.0,2.0,0.282024,0.285532,0.282024,0.278452,,,,,,
49500,0.057072,0.007683,0.042706,0.015963,-0.001064,0.002128,0.003349,-0.0,-0.0,2.0,0.282024,0.286197,0.282024,0.277761,,,,,,
49520,0.064275,0.007693,0.041326,0.014899,0.0,0.002128,0.007445,-0.0,-0.0,2.0,0.282024,0.2882,0.282024,0.275647,,,,,,
49540,0.071474,0.007712,0.039936,0.014899,0.0,0.003193,0.011132,-0.0,-0.0,2.0,0.282024,0.290387,0.282024,0.273288,,,,,,
49560,0.078431,0.007618,0.038679,0.014899,0.0,0.003193,0.014757,-0.0,-0.0,2.0,0.282024,0.292535,0.282024,0.270917,,,,,,
49580,0.085023,0.00754,0.037424,0.013835,0.0,0.001064,0.018689,-0.0,-0.0,2.0,0.282024,0.292733,0.282024,0.270695,,,,,,
49600,0.091741,0.007479,0.035929,0.013835,0.0,0.002128,0.021904,-0.0,-0.0,2.0,0.282024,0.295013,0.282024,0.268111,,,,,,
49620,0.098086,0.007306,0.034557,0.012771,0.0,0.003193,0.025522,-0.0,-0.0,2.0,0.282024,0.295326,0.282024,0.267752,,,,,,
49640,0.104191,0.007255,0.033425,0.012771,0.0,0.002128,0.029013,-0.0,-0.0,2.0,0.282024,0.297338,0.282024,0.265409,,,,,,
49660,0.110059,0.00735,0.032049,0.011706,0.0,0.002128,0.030772,-0.0,-0.0,2.0,0.282024,0.298245,0.282024,0.264335,,,,,,
49680,0.115675,0.007335,0.030674,0.010642,0.0,0.002128,0.034176,-0.0,-0.0,2.0,0.282024,0.298503,0.282024,0.264028,,,,,,
49700,0.120925,0.007325,0.029425,0.010642,0.0,0.002128,0.038151,-0.0,-0.0,2.0,0.282024,0.300123,0.282024,0.262075,,,,,,
49720,0.125696,0.007329,0.028184,0.009578,0.0,0.002128,0.041059,-0.0,-0.0,2.0,0.282024,0.300304,0.282024,0.261855,,,,,,
49740,0.130215,0.007334,0.027061,0.008514,0.0,0.002128,0.044232,-0.0,-0.0,2.0,0.282024,0.300322,0.282024,0.261833,,,,,,
49760,0.134124,0.007239,0.02583,0.00745,0.0,0.002128,0.047393,-0.0,-0.0,2.0,0.282024,0.300141,0.282024,0.262054,,,,,,
49780,0.137667,0.007153,0.024601,0.006385,0.0,0.002128,0.050427,-0.0,-0.0,2.0,0.282024,0.301552,0.282024,0.260323,,,,,,
49800,0.140839,0.007189,0.023485,0.005321,0.0,0.002128,0.051923,-0.0,-0.0,2.0,0.282024,0.300069,0.282024,0.262141,,,,,,
49820,0.143533,0.007356,0.022369,0.004257,0.0,0.002128,0.056068,-0.0,-0.0,2.0,0.282024,0.300795,0.282024,0.261255,,,,,,
49840,0.145849,0.007165,0.021277,0.004257,0.0,0.002128,0.057572,-0.0,-0.0,2.0,0.282024,0.300669,0.282024,0.261409,,,,,,
49860,0.147925,0.007223,0.02017,0.003193,0.0,0.002128,0.060285,-0.0,-0.0,2.0,0.282024,0.300019,0.282024,0.262202,,,,,,
49880,0.14939,0.007168,0.019076,0.002128,0.0,0.002128,0.062886,-0.0,-0.0,2.0,0.282024,0.299176,0.282024,0.263221,,,,,,
49900,0.150492,0.007221,0.01822,0.001064,0.0,0.001064,0.065524,-0.0,-0.0,2.0,0.282024,0.299847,0.282024,0.262411,,,,,,
49920,0.151218,0.007184,0.017007,0.001064,0.0,0.001064,0.067727,-0.0,-0.0,2.0,0.282024,0.298842,0.282024,0.263622,,,,,,
49940,0.151458,0.007134,0.016041,0.0,0.0,0.002128,0.070008,-0.0,-0.0,2.0,0.282024,0.297603,0.282024,0.265096,,,,,,
49960,0.151575,0.006954,0.015206,-0.001064,0.0,0.002128,0.072139,-0.0,-0.0,2.0,0.282024,0.296338,0.282024,0.26658,,,,,,
49980,0.151329,0.00703,0.014234,-0.001064,0.0,0.001064,0.074182,-0.0,-0.0,2.0,0.282024,0.296638,0.282024,0.26623,,,,,,
50000,0.15096,0.006985,0.013272,-0.001064,0.0,0.001064,0.076128,-0.0,-0.0,2.0,0.282024,0.296896,0.282024,0.265928,,,,,,
50020,0.150703,0.006947,0.012184,-0.001064,0.0,0.002128,0.077523,-0.0,-0.0,2.0,0.282024,0.297368,0.282024,0.265374,,,,,,
50040,0.150334,0.006892,0.011344,-0.001064,-0.001064,0.002128,0.079314,-0.0,-0.0,2.0,0.282024,0.297624,0.282024,0.265071,,,,,,
50060,0.15021,0.006966,0.010371,-0.001064,0.0,0.001064,0.080063,-0.0,-0.0,2.0,0.282024,0.298329,0.282024,0.264235,,,,,,
50080,0.149963,0.007041,0.009398,-0.001064,0.0,0.001064,0.081455,-0.0,-0.0,2.0,0.282024,0.298735,0.282024,0.26375,,,,,,
50100,0.14996,0.006993,0.008433,0.0,0.0,0.001064,0.082715,-0.0,-0.0,2.0,0.282024,0.299254,0.282024,0.263127,,,,,,
50120,0.150078,0.006934,0.00759,0.0,0.0,0.002128,0.08342,-0.0,-0.0,2.0,0.282024,0.300004,0.282024,0.26222,,,,,,
50140,0.150075,0.006877,0.006747,0.0,0.0,0.002128,0.084784,-0.0,-0.0,2.0,0.282024,0.302119,0.282024,0.25962,,,,,,
50160,0.150193,0.006828,0.005781,0.0,0.0,0.001064,0.085576,-0.0,-0.0,2.0,0.282024,0.302799,0.282024,0.25877,,,,,,
50180,0.15019,0.006901,0.004807,0.0,0.0,0.001064,0.08622,-0.0,-0.0,2.0,0.282024,0.303479,0.282024,0.257913,,,,,,
50200,0.150308,0.006721,0.003973,-0.001064,0.0,0.002128,0.086712,-0.0,-0.0,2.0,0.282024,0.3026,0.282024,0.25902,,,,,,
50220,0.150305,0.006664,0.00313,-0.001064,0.0,0.002128,0.086919,-0.0,-0.0,2.0,0.282024,0.303424,0.282024,0.257984,,,,,,
50240,0.149937,0.006729,0.002279,-0.001064,0.0,0.001064,0.087227,-0.0,-0.0,2.0,0.282024,0.304075,0.282024,0.257157,,,,,,
50260,0.149691,0.006671,0.001437,-0.001064,0.0,0.001064,0.087263,-0.0,-0.0,2.0,0.282024,0.304857,0.282024,0.256156,,,,,,
50280,0.149313,0.006744,0.000464,-0.001064,0.0,0.001064,0.087219,-0.0,-0.0,2.0,0.282024,0.305615,0.282024,0.255177,,,,,,
50300,0.148945,0.006686,-0.000378,-0.002128,0.0,0.002128,0.087022,-0.0,-0.0,2.0,0.282024,0.304794,0.282024,0.256238,,,,,,
50320,0.148334,0.006619,-0.001097,-0.002128,0.0,0.001064,0.086648,-0.0,-0.0,2.0,0.282024,0.307205,0.282024,0.253093,,,,,,
50340,0.147713,0.006691,-0.002069,-0.002128,-0.001064,0.001064,0.086234,-0.0,-0.0,2.0,0.282024,0.306372,0.282024,0.25419,,,,,,
50360,0.14698,0.006632,-0.00291,-0.002128,0.0,0.001064,0.085512,-0.0,-0.0,2.0,0.282024,0.307228,0.282024,0.253062,,,,,,
50380,0.146116,0.006571,-0.003751,-0.003193,0.0,0.001064,0.0847,-0.0,-0.0,2.0,0.282024,0.308067,0.282024,0.251945,,,,,,
50400,0.145261,0.006745,-0.004488,-0.003193,0.0,0.001064,0.083727,-0.0,-0.0,2.0,0.282024,0.307352,0.282024,0.252898,,,,,,
50420,0.144276,0.006683,-0.005328,-0.003193,0.0,0.001064,0.083192,-0.0,-0.0,2.0,0.282024,0.30805,0.282024,0.251968,,,,,,
50440,0.143056,0.006498,-0.00616,-0.003193,0.0,0.001064,0.081521,-0.0,-0.0,2.0,0.282024,0.309062,0.282024,0.250606,,,,,,
50460,0.141705,0.006425,-0.006878,-0.003193,0.0,0.001064,0.080699,-0.0,-0.0,2.0,0.282024,0.309729,0.282024,0.249699,,,,,,
50480,0.140233,0.006358,-0.007718,-0.004257,0.0,0.001064,0.079213,-0.0,-0.0,2.0,0.282024,0.308978,0.282024,0.250719,,,,,,
50500,0.138517,0.006403,-0.008444,-0.004257,0.0,0.001064,0.077594,-0.0,-0.0,2.0,0.282024,0.309793,0.282024,0.24961,,,,,,
50520,0.136681,0.006203,-0.009153,-0.005321,0.0,0.001064,0.075888,-0.0,-0.0,2.0,0.282024,0.308993,0.282024,0.250699,,,,,,
50540,0.1346,0.006121,-0.009871,-0.006385,0.0,0.001064,0.074949,-0.0,-0.0,2.0,0.282024,0.309437,0.282024,0.250097,,,,,,
50560,0.132398,0.006038,-0.010589,-0.006385,0.0,0.001064,0.072094,-0.0,-0.0,2.0,0.282024,0.308897,0.282024,0.250829,,,,,,
50580,0.1297,0.00595,-0.011304,-0.006385,0.0,0.0,0.069847,-0.0,-0.0,2.0,0.282024,0.309582,0.282024,0.249898,,,,,,
50600,0.126889,0.005738,-0.012014,-0.00745,0.0,0.001064,0.067613,-0.0,-0.0,2.0,0.282024,0.308613,0.282024,0.251212,,,,,,
50620,0.123828,0.005515,-0.012601,-0.00745,0.0,0.001064,0.065218,-0.0,-0.0,2.0,0.282024,0.30921,0.282024,0.250405,,,,,,
50640,0.120409,0.005287,-0.01319,-0.008514,0.0,0.001064,0.063879,-0.0,-0.0,2.0,0.282024,0.307688,0.282024,0.252451,,,,,,
50660,0.116737,0.005178,-0.013785,-0.009578,0.0,0.001064,0.061726,-0.0,-0.0,2.0,0.282024,0.307949,0.282024,0.252103,,,,,,
50680,0.112702,0.00482,-0.014366,-0.009578,0.0,0.001064,0.058714,-0.0,-0.0,2.0,0.282024,0.306751,0.282024,0.253692,,,,,,
50700,0.108422,0.004701,-0.014962,-0.010642,0.0,0.001064,0.055902,-0.0,-0.0,2.0,0.282024,0.305372,0.282024,0.255492,,,,,,
50720,0.103777,0.004455,-0.015552,-0.011706,0.0,0.001064,0.053042,-0.0,-0.0,2.0,0.282024,0.305488,0.282024,0.255342,,,,,,
50740,0.098645,0.004196,-0.01602,-0.011706,0.0,0.001064,0.049981,-0.0,-0.0,2.0,0.282024,0.303841,0.282024,0.257455,,,,,,
50760,0.093391,0.004056,-0.016495,-0.012771,0.0,0.0,0.047246,-0.0,-0.0,2.0,0.282024,0.301989,0.282024,0.259782,,,,,,
50780,0.087771,0.003793,-0.017087,-0.012771,0.0,0.0,0.044051,-0.0,-0.0,2.0,0.282024,0.300122,0.282024,0.262077,,,,,,
50800,0.081785,0.003519,-0.017559,-0.013835,0.0,0.0,0.040843,-0.0,-0.0,2.0,0.282024,0.299755,0.282024,0.262523,,,,,,
50820,0.075554,0.003484,-0.01804,-0.013835,0.0,0.0,0.037553,-0.0,-0.0,2.0,0.282024,0.297603,0.282024,0.265096,,,,,,
50840,0.069081,0.003199,-0.018512,-0.014899,0.0,0.001064,0.035897,-0.0,-0.0,2.0,0.282024,0.296384,0.282024,0.266526,,,,,,
50860,0.062241,0.003025,-0.018867,-0.015963,0.0,0.001064,0.031192,-0.0,-0.0,2.0,0.282024,0.296104,0.282024,0.266852,,,,,,
50880,0.055161,0.002851,-0.019348,-0.015963,0.0,0.0,0.027596,-0.0,-0.0,2.0,0.282024,0.293565,0.282024,0.269761,,,,,,
50900,0.047712,0.002666,-0.019702,-0.017028,0.0,0.0,0.025661,-0.0,-0.0,2.0,0.282024,0.290159,0.282024,0.273537,,,,,,
50920,0.040143,0.002477,-0.020061,-0.018092,0.0,0.0,0.02214,-0.0,-0.0,2.0,0.282024,0.288961,0.282024,0.274833,,,,,,
50940,0.03233,0.002283,-0.020419,-0.018092,0.0,0.0,0.018558,-0.0,-0.0,2.0,0.282024,0.285839,0.282024,0.278133,,,,,,
50960,0.024274,0.002083,-0.020776,-0.018092,0.0,0.0,0.01659,-0.0,-0.0,2.0,0.282024,0.283673,0.282024,0.280361,,,,,,
50980,0.015973,0.001877,-0.021012,-0.018092,0.0,0.0,0.011066,-0.0,-0.0,2.0,0.282024,0.282727,0.282024,0.281319,,,,,,
51000,0.007675,0.001547,-0.02125,-0.019156,0.0,0.0,0.007333,-0.0,-0.0,2.0,0.282024,0.279155,0.282024,0.284851,,,,,,
51020,-0.000869,0.001333,-0.021606,-0.019156,0.0,0.0,0.003659,-0.0,-0.0,2.0,0.282024,0.277206,0.282024,0.286727,,,,,,
51040,-0.009535,0.001117,-0.021726,-0.019156,0.0,0.0,-1e-05,-0.0,-0.0,2.0,0.282024,0.275104,0.282024,0.288708,,,,,,
51060,-0.018201,0.001022,-0.02184,-0.019156,0.0,-0.001064,-0.002178,-0.0,-0.0,2.0,0.282024,0.27226,0.282024,0.291325,,,,,,
51080,-0.026866,0.00068,-0.022082,-0.019156,0.0,0.0,-0.005446,-0.0,-0.0,2.0,0.282024,0.269738,0.282024,0.293585,,,,,,
51100,-0.035531,0.000338,-0.022202,-0.019156,0.0,0.0,-0.009173,-0.0,-0.0,2.0,0.282024,0.26729,0.282024,0.295727,,,,,,
