time_ms,roll,pitch,yaw,reference_roll,reference_pitch,reference_yaw,reference_throttle,throttle_1,throttle_2,throttle_3,throttle_4,roll_predicted,pitch_predicted,yaw_predicted,roll_rate_predicted,pitch_rate_predicted,yaw_rate_predicted,value1,value2,value3,value4,value5,value6
323585,0.004927,-0.002368,-0.131087,0.0,-0.0,-0.0,3.0,0.330605,0.322862,0.32151,0.329296,0.0,-0.0,-0.051508,-0.0,0.0,-0.000334,0.001316,-0.002489,-0.119637,0.025896,-0.000113,-0.000282
323605,0.005528,-0.002206,-0.131207,0.0,-0.0,-0.0,3.0,0.33106,0.32303,0.321036,0.329132,0.0,-0.0,-0.051515,-0.0,0.0,-0.000334,0.001841,-0.002491,-0.119643,0.027046,-0.000109,-0.000281
323625,0.005779,-0.002312,-0.131206,0.0,-0.0,-0.0,3.0,0.331939,0.323024,0.320116,0.329138,0.0,-0.0,-0.051522,-0.0,0.0,-0.000334,0.002354,-0.002493,-0.119649,0.026806,-0.000117,-0.000292
323645,0.00651,-0.002264,-0.131205,0.0,-0.0,-0.0,3.0,0.33115,0.322986,0.320942,0.329175,0.0,-0.0,-0.051528,-0.0,0.0,-0.000334,0.002831,-0.002496,-0.119655,0.026948,-0.000114,-0.000304
323665,0.007127,-0.002345,-0.131324,0.0,-0.0,-0.0,3.0,0.332038,0.323227,0.320012,0.328939,0.0,-0.0,-0.051535,-0.0,0.0,-0.000334,0.003341,-0.002498,-0.119661,0.025076,-0.000123,-0.000303
323685,0.007493,-0.002321,-0.131444,0.0,-0.0,-0.0,3.0,0.330793,0.323421,0.321314,0.32875,0.0,-0.0,-0.051542,-0.0,0.0,-0.000334,0.003857,-0.002501,-0.119667,0.023027,-0.000121,-0.000314
323705,0.007729,-0.002183,-0.131444,0.0,-0.0,-0.0,3.0,0.330704,0.323572,0.321406,0.328602,0.0,-0.0,-0.051548,-0.0,0.0,-0.000334,0.004359,-0.002503,-0.119673,0.022821,-0.000117,-0.000326
323725,0.008224,-0.002272,-0.131563,0.0,-0.0,-0.0,3.0,0.331886,0.323757,0.320172,0.328421,0.0,-0.0,-0.051555,-0.0,0.0,-0.000334,0.004851,-0.002506,-0.11968,0.024534,-0.000125,-0.000325
323745,0.008581,-0.002126,-0.131562,0.0,-0.0,-0.0,3.0,0.33346,0.323845,0.318508,0.328335,0.0,-0.0,-0.051562,-0.0,0.0,-0.000334,0.00534,-0.002508,-0.119686,0.022849,-0.000122,-0.000324
323765,0.009191,-0.002085,-0.131682,0.0,-0.0,-0.0,3.0,0.334698,0.323896,0.317183,0.328285,0.0,-0.0,-0.051569,0.0,0.0,-0.000334,0.00579,-0.00251,-0.119692,0.023362,-0.000119,-0.000323
323785,0.009426,-0.001948,-0.131561,0.0,-0.0,-0.0,3.0,0.33136,0.323976,0.320723,0.328206,0.0,-0.0,-0.051575,0.0,0.0,-0.000334,0.006238,-0.002511,-0.119699,0.023459,-6.7e-05,-0.000323
323805,0.009783,-0.001802,-0.13156,0.0,-0.0,-0.0,3.0,0.330854,0.323777,0.321251,0.328401,0.0,-0.0,-0.051582,0.0,0.0,-0.000334,0.006636,-0.002513,-0.119705,0.021128,-4.1e-05,-0.000322
323825,0.009995,-0.001299,-0.131562,0.0,-0.0,-0.0,3.0,0.327347,0.323689,0.324847,0.328488,0.0,-0.0,-0.051589,-0.0,0.0,-0.000334,0.007,-0.002513,-0.119712,0.017377,9e-06,-0.000322
323845,0.010223,-0.001039,-0.131563,0.0,-0.0,-0.0,3.0,0.328395,0.323637,0.323783,0.328538,0.0,-0.0,-0.051595,-0.0,0.0,-0.000334,0.007331,-0.002513,-0.119719,0.012749,2.1e-05,-0.000321
323865,0.010206,-0.000796,-0.131564,0.0,-0.0,-0.0,3.0,0.326828,0.323602,0.325371,0.328573,0.0,-0.0,-0.051602,-0.0,0.0,-0.000334,0.007619,-0.002513,-0.119725,0.010379,3.4e-05,-0.000333
323885,0.01032,-0.000665,-0.131685,0.0,-0.0,-0.0,3.0,0.328991,0.323672,0.323174,0.328504,0.0,-0.0,-0.051609,-0.0,0.0,-0.000334,0.007872,-0.002513,-0.119732,0.012022,2.4e-05,-0.000332
323905,0.010336,-0.000909,-0.131684,0.0,-0.0,-0.0,3.0,0.333297,0.323612,0.318681,0.328563,0.0,-0.0,-0.051615,-0.0,0.0,-0.000334,0.008106,-0.002513,-0.119738,0.009153,-1.2e-05,-0.000331
323925,0.010474,-0.001144,-0.131682,0.0,-0.0,-0.0,3.0,0.334688,0.323574,0.317193,0.3286,0.0,-0.0,-0.051622,-0.0,0.0,-0.000334,0.008293,-0.002513,-0.119745,0.010041,-2.3e-05,-0.00033
323945,0.010498,-0.00151,-0.131681,0.0,-0.0,-0.0,3.0,0.337863,0.323464,0.313731,0.328708,0.0,-0.0,-0.051629,-0.0,0.0,-0.000334,0.008455,-0.002513,-0.119751,0.008048,-4.7e-05,-0.000329
323965,0.01075,-0.001616,-0.131679,0.0,-0.0,-0.0,3.0,0.3354,0.323364,0.316425,0.328806,0.0,-0.0,-0.051635,-0.0,0.0,-0.000334,0.00858,-0.002513,-0.119758,0.006231,-3.5e-05,-0.000317
323985,0.01075,-0.001616,-0.131559,0.0,-0.0,-0.0,3.0,0.332392,0.323341,0.319639,0.328828,0.0,-0.0,-0.051642,-0.0,0.0,-0.000334,0.008697,-0.002513,-0.119764,0.004415,-1.1e-05,-0.000304
324005,0.01062,-0.001503,-0.131439,0.0,-0.0,-0.0,3.0,0.330427,0.32319,0.321694,0.328976,0.0,-0.0,-0.051649,-0.0,0.0,-0.000334,0.008777,-0.002514,-0.11977,0.001552,1e-06,-0.000304
324025,0.010604,-0.001259,-0.13144,0.0,-0.0,-0.0,3.0,0.327324,0.323282,0.32487,0.328885,0.0,-0.0,-0.051655,0.0,0.0,-0.000334,0.00884,-0.002514,-0.119777,0.002245,1.4e-05,-0.000303
324045,0.010466,-0.001024,-0.131441,0.0,-0.0,-0.0,3.0,0.325635,0.323193,0.326564,0.328973,0.0,-0.0,-0.051662,0.0,0.0,-0.000334,0.008885,-0.002515,-0.119783,-0.001814,2.4e-05,-0.000303
324065,0.010458,-0.000902,-0.131442,0.0,-0.0,-0.0,3.0,0.329622,0.323185,0.322526,0.32898,0.0,-0.0,-0.051669,0.0,0.0,-0.000334,0.008889,-0.002515,-0.119789,2e-05,1e-06,-0.000314
324085,0.010336,-0.000909,-0.131563,0.0,-0.0,-0.0,3.0,0.331744,0.323188,0.32032,0.328978,0.0,-0.0,-0.051676,0.0,0.0,-0.000334,0.008889,-0.002515,-0.119795,0.001785,-1.1e-05,-0.000313
324105,0.010352,-0.001152,-0.131683,0.0,-0.0,-0.0,3.0,0.333096,0.323022,0.318894,0.329139,0.0,-0.0,-0.051682,0.0,0.0,-0.000334,0.008864,-0.002514,-0.119801,0.000473,-1.1e-05,-0.000325
324125,0.010596,-0.001136,-0.131803,0.0,-0.0,-0.0,3.0,0.333646,0.323088,0.31831,0.329075,0.0,-0.0,-0.051689,-0.0,0.0,-0.000334,0.008839,-0.002514,-0.119808,-0.000848,-1.2e-05,-0.000324
324145,0.01049,-0.001387,-0.131802,0.0,-0.0,-0.0,3.0,0.335621,0.323182,0.316186,0.328983,0.0,-0.0,-0.051696,-0.0,0.0,-0.000334,0.008835,-0.002514,-0.119814,-0.002354,-2.5e-05,-0.000323
324165,0.010482,-0.001266,-0.131803,0.0,-0.0,-0.0,3.0,0.333214,0.323318,0.318769,0.32885,0.0,-0.0,-0.051702,-0.0,0.0,-0.000334,0.008828,-0.002515,-0.119821,0.000956,-1.1e-05,-0.000335
324185,0.01049,-0.001387,-0.131802,0.0,-0.0,-0.0,3.0,0.332499,0.32354,0.319527,0.328633,0.0,-0.0,-0.051709,-0.0,0.0,-0.000334,0.008868,-0.002515,-0.119828,0.000411,-1.1e-05,-0.000334
324205,0.010612,-0.001379,-0.131922,0.0,-0.0,-0.0,3.0,0.331629,0.323677,0.320441,0.328499,0.0,-0.0,-0.051716,-0.0,0.0,-0.000334,0.008908,-0.002515,-0.119834,-0.000135,-1.1e-05,-0.000345
324225,0.010604,-0.001257,-0.131923,0.0,-0.0,-0.0,3.0,0.331065,0.323809,0.321031,0.32837,0.0,-0.0,-0.051722,-0.0,0.0,-0.000334,0.008947,-0.002515,-0.119841,0.002666,-1e-05,-0.000345
324245,0.01049,-0.001386,-0.132043,0.0,-0.0,-0.0,3.0,0.331934,0.323768,0.320122,0.32841,0.0,-0.0,-0.051729,-0.0,0.0,-0.000334,0.008981,-0.002516,-0.119848,0.002309,-2.2e-05,-0.000356
324265,0.010482,-0.001264,-0.132044,0.0,-0.0,-0.0,3.0,0.329668,0.323611,0.322478,0.328564,0.0,-0.0,-0.051736,-0.0,0.0,-0.000334,0.008977,-0.002516,-0.119856,0.002268,-9e-06,-0.000358
324285,0.010613,-0.001377,-0.132188,0.0,-0.0,-0.0,3.0,0.330315,0.323591,0.32181,0.328583,0.0,-0.0,-0.051742,-0.0,0.0,-0.000334,0.008964,-0.002516,-0.119863,0.000775,-1e-05,-0.000369
324305,0.010483,-0.001264,-0.132189,0.0,-0.0,-0.0,3.0,0.33104,0.323474,0.321056,0.328698,0.0,-0.0,-0.051749,-0.0,0.0,-0.000334,0.00894,-0.002517,-0.11987,-0.002108,-2.4e-05,-0.000368
324325,0.010369,-0.001393,-0.132309,0.0,-0.0,-0.0,3.0,0.332608,0.323498,0.319411,0.328675,0.0,-0.0,-0.051756,-0.0,0.0,-0.000334,0.008901,-0.002517,-0.119877,-0.003127,-3.7e-05,-0.00038
324345,0.010256,-0.001522,-0.13243,0.0,-0.0,-0.0,3.0,0.332765,0.323483,0.319245,0.328689,0.0,-0.0,-0.051762,0.0,0.0,-0.000334,0.008851,-0.002518,-0.119885,-0.004,-5e-05,-0.000391
324365,0.009898,-0.001668,-0.13243,0.0,-0.0,-0.0,3.0,0.334287,0.323505,0.317624,0.328667,0.0,-0.0,-0.051769,0.0,0.0,-0.000334,0.008792,-0.002519,-0.119893,-0.004751,-6.3e-05,-0.00039
324385,0.009793,-0.001919,-0.13255,0.0,-0.0,-0.0,3.0,0.334334,0.323417,0.317574,0.328754,0.0,-0.0,-0.051776,0.0,0.0,-0.000334,0.008697,-0.00252,-0.119901,-0.005109,-6.3e-05,-0.000402
324405,0.009549,-0.001935,-0.132671,0.0,-0.0,-0.0,3.0,0.332206,0.323281,0.319836,0.328887,0.0,-0.0,-0.051783,0.0,0.0,-0.000334,0.00858,-0.002521,-0.119909,-0.006953,-5.3e-05,-0.000401
324425,0.009298,-0.001829,-0.132793,0.0,-0.0,-0.0,3.0,0.330454,0.323021,0.321666,0.32914,0.0,-0.0,-0.051789,0.0,0.0,-0.000334,0.008416,-0.002522,-0.119917,-0.009814,-4.3e-05,-0.000412
324445,0.009038,-0.001601,-0.132795,0.0,-0.0,-0.0,3.0,0.328704,0.323048,0.323468,0.329114,0.0,-0.0,-0.051796,0.0,0.0,-0.000334,0.008234,-0.002523,-0.119926,-0.007434,-3e-05,-0.000436
324465,0.008672,-0.001625,-0.132916,0.0,-0.0,-0.0,3.0,0.328107,0.32285,0.324076,0.329307,0.0,-0.0,-0.051803,-0.0,0.0,-0.000334,0.00804,-0.002524,-0.119934,-0.009778,-3.2e-05,-0.000447
324485,0.008656,-0.001381,-0.133038,0.0,-0.0,-0.0,3.0,0.329585,0.322837,0.322564,0.329319,0.0,-0.0,-0.051809,-0.0,0.0,-0.000334,0.007829,-0.002526,-0.119943,-0.010104,-4.6e-05,-0.000458
324505,0.008291,-0.001404,-0.13328,0.0,-0.0,-0.0,3.0,0.333551,0.322712,0.31841,0.329441,0.0,-0.0,-0.051816,-0.0,0.0,-0.000334,0.007605,-0.002526,-0.119952,-0.011929,-6.1e-05,-0.000457
324525,0.007917,-0.001307,-0.133282,0.0,-0.0,-0.0,3.0,0.332103,0.322481,0.319943,0.329666,0.0,-0.0,-0.051823,-0.0,0.0,-0.000334,0.007345,-0.002527,-0.119961,-0.013592,-3.9e-05,-0.000468
324545,0.007552,-0.001331,-0.133403,0.0,-0.0,-0.0,3.0,0.334244,0.322391,0.317671,0.329753,0.0,-0.0,-0.051829,-0.0,0.0,-0.000334,0.007071,-0.002527,-0.119971,-0.013275,-2.8e-05,-0.00048
324565,0.007057,-0.001241,-0.133404,0.0,-0.0,-0.0,3.0,0.332204,0.322051,0.319837,0.330082,0.0,-0.0,-0.051836,-0.0,0.0,-0.000334,0.006762,-0.002527,-0.11998,-0.019372,4e-06,-0.000479
324585,0.006667,-0.0009,-0.133527,0.0,-0.0,-0.0,3.0,0.329897,0.321912,0.322243,0.330216,0.0,-0.0,-0.051843,-0.0,0.0,-0.000334,0.00641,-0.002527,-0.11999,-0.021546,3.7e-05,-0.00049
324605,0.00592,-0.000705,-0.133529,0.0,-0.0,-0.0,3.0,0.328933,0.321953,0.323234,0.330177,0.0,-0.0,-0.051849,-0.0,0.0,-0.000334,0.00606,-0.002526,-0.12,-0.020315,6e-05,-0.000489
324625,0.005408,-0.000372,-0.13353,0.0,-0.0,-0.0,3.0,0.327499,0.321746,0.324693,0.330377,0.0,-0.0,-0.051856,-0.0,0.0,-0.000334,0.005664,-0.002525,-0.12001,-0.018463,8.2e-05,-0.000489
324645,0.005156,-0.000267,-0.133531,0.0,-0.0,-0.0,3.0,0.328728,0.321617,0.323443,0.330501,0.0,-0.0,-0.051863,-0.0,0.0,-0.000334,0.005263,-0.002524,-0.120019,-0.019754,9.1e-05,-0.000488
324665,0.004905,-0.000161,-0.133531,0.0,-0.0,-0.0,3.0,0.330819,0.321494,0.321287,0.330619,0.0,-0.0,-0.05187,-0.0,0.0,-0.000334,0.004846,-0.002522,-0.120029,-0.017277,7.7e-05,-0.000487
324685,0.004783,-0.00017,-0.133411,0.0,-0.0,-0.0,3.0,0.332977,0.321429,0.31902,0.330683,0.0,-0.0,-0.051876,-0.0,0.0,-0.000334,0.004446,-0.00252,-0.120039,-0.015133,7.5e-05,-0.000474
324705,0.004434,-0.000438,-0.133411,0.0,-0.0,-0.0,3.0,0.333151,0.321404,0.318836,0.330707,0.0,-0.0,-0.051883,0.0,0.0,-0.000334,0.004082,-0.002519,-0.120048,-0.015156,7.3e-05,-0.000473
324725,0.00419,-0.000454,-0.13329,0.0,-0.0,-0.0,3.0,0.332701,0.321339,0.319313,0.330769,0.0,-0.0,-0.05189,0.0,0.0,-0.000334,0.003735,-0.002517,-0.120058,-0.018731,6.8e-05,-0.000472
324745,0.003833,-0.000601,-0.133169,0.0,-0.0,-0.0,3.0,0.331816,0.321406,0.320246,0.330705,0.0,-0.0,-0.051896,0.0,0.0,-0.000334,0.003402,-0.002516,-0.120067,-0.020844,6.5e-05,-0.000459
324765,0.003346,-0.000633,-0.13317,0.0,-0.0,-0.0,3.0,0.331993,0.321518,0.320059,0.330596,0.0,-0.0,-0.051903,0.0,0.0,-0.000334,0.003081,-0.002515,-0.120076,-0.019672,5.1e-05,-0.000446
324785,0.00311,-0.000772,-0.133049,0.0,-0.0,-0.0,3.0,0.333561,0.321739,0.3184,0.330383,0.0,-0.0,-0.05191,0.0,0.0,-0.000334,0.002783,-0.002514,-0.120085,-0.015376,2.7e-05,-0.000433
324805,0.002875,-0.00091,-0.132928,0.0,-0.0,-0.0,3.0,0.332291,0.321892,0.319745,0.330236,0.0,-0.0,-0.051916,0.0,0.0,-0.000334,0.002521,-0.002513,-0.120093,-0.01181,2.6e-05,-0.00042
324825,0.002777,-0.001284,-0.132807,0.0,-0.0,-0.0,3.0,0.334176,0.321913,0.317743,0.330215,0.0,-0.0,-0.051923,0.0,0.0,-0.000334,0.002279,-0.002513,-0.120102,-0.009943,1e-06,-0.000395
324845,0.002777,-0.001284,-0.132566,0.0,-0.0,-0.0,3.0,0.332529,0.32179,0.319494,0.330335,0.0,-0.0,-0.05193,0.0,0.0,-0.000334,0.00203,-0.002513,-0.12011,-0.008204,0.0,-0.000382
324865,0.002671,-0.001536,-0.132421,0.0,-0.0,-0.0,3.0,0.332859,0.321772,0.319145,0.330352,0.0,-0.0,-0.051936,-0.0,0.0,-0.000334,0.001804,-0.002513,-0.120117,-0.008342,-1.3e-05,-0.000367
324885,0.002427,-0.001552,-0.13218,0.0,-0.0,-0.0,3.0,0.331356,0.321602,0.320726,0.330516,0.0,-0.0,-0.051943,-0.0,0.0,-0.000334,0.001576,-0.002513,-0.120124,-0.010113,-2.8e-05,-0.000342
324905,0.002313,-0.001682,-0.131938,0.0,-0.0,-0.0,3.0,0.329684,0.321599,0.322462,0.330518,0.0,-0.0,-0.05195,-0.0,0.0,-0.000334,0.001355,-0.002514,-0.120131,-0.010424,-3e-05,-0.000329
324925,0.002191,-0.00169,-0.131817,0.0,-0.0,-0.0,3.0,0.33147,0.32176,0.320608,0.330364,0.0,-0.0,-0.051956,-0.0,0.0,-0.000334,0.001171,-0.002515,-0.120138,-0.010901,-6.8e-05,-0.000317
324945,0.001948,-0.001707,-0.131697,0.0,-0.0,-0.0,3.0,0.331258,0.321924,0.320829,0.330205,0.0,-0.0,-0.051963,-0.0,0.0,-0.000334,0.001014,-0.002517,-0.120144,-0.01198,-8.1e-05,-0.000292
324965,0.00172,-0.001966,-0.131576,0.0,-0.0,-0.0,3.0,0.33425,0.322007,0.317664,0.330125,0.0,-0.0,-0.05197,-0.0,0.0,-0.000334,0.000852,-0.002518,-0.12015,-0.009555,-0.000105,-0.000279
324985,0.001484,-0.002104,-0.131456,0.0,-0.0,-0.0,3.0,0.334636,0.321916,0.31725,0.330213,0.0,-0.0,-0.051977,-0.0,0.0,-0.000334,0.000686,-0.00252,-0.120155,-0.007171,-0.000117,-0.000279
325005,0.001622,-0.00234,-0.131455,0.0,-0.0,-0.0,3.0,0.336666,0.322042,0.315048,0.330091,0.0,-0.0,-0.051983,-0.0,0.0,-0.000334,0.000538,-0.002522,-0.12016,-0.003381,-0.000129,-0.000266
325025,0.001882,-0.002567,-0.131576,0.0,-0.0,-0.0,3.0,0.335316,0.322205,0.316517,0.329933,0.0,-0.0,-0.05199,-0.0,0.0,-0.000334,0.000442,-0.002524,-0.120166,-0.003847,-0.000117,-0.000266
325045,0.001744,-0.002332,-0.131576,0.0,-0.0,-0.0,3.0,0.331443,0.322331,0.320635,0.329811,0.0,-0.0,-0.051997,-0.0,0.0,-0.000334,0.000379,-0.002526,-0.120171,-0.003209,-9.2e-05,-0.000265
325065,0.001736,-0.00221,-0.131576,0.0,-0.0,-0.0,3.0,0.330269,0.322313,0.321857,0.329829,0.0,-0.0,-0.052003,-0.0,0.0,-0.000334,0.000314,-0.002528,-0.120177,-0.000763,-7.9e-05,-0.000277
325085,0.00159,-0.001853,-0.131697,0.0,-0.0,-0.0,3.0,0.328105,0.322351,0.324079,0.329792,0.0,-0.0,-0.05201,-0.0,0.0,-0.000334,0.000272,-0.00253,-0.120182,-0.001956,-6.8e-05,-0.000288
325105,0.001712,-0.001845,-0.131697,0.0,-0.0,-0.0,3.0,0.330237,0.322387,0.321891,0.329757,0.0,-0.0,-0.052017,-0.0,0.0,-0.000334,0.000223,-0.002532,-0.120188,-0.002953,-6.8e-05,-0.0003
325125,0.001704,-0.001723,-0.131697,0.0,-0.0,-0.0,3.0,0.329914,0.322484,0.322225,0.329663,0.0,-0.0,-0.052023,-0.0,0.0,-0.000334,0.000187,-0.002533,-0.120194,-0.000797,-6.7e-05,-0.000299
325145,0.001598,-0.001974,-0.131818,0.0,-0.0,-0.0,3.0,0.333332,0.322462,0.318643,0.329684,0.0,-0.0,-0.05203,-0.0,0.0,-0.000334,0.000157,-0.002535,-0.1202,-0.00017,-9.2e-05,-0.000298
325165,0.001598,-0.001974,-0.131818,0.0,-0.0,-0.0,3.0,0.333262,0.322397,0.318719,0.329747,0.0,-0.0,-0.052037,-0.0,0.0,-0.000334,0.000122,-0.002537,-0.120206,-0.001244,-0.000104,-0.000298
325185,0.001728,-0.002088,-0.131697,0.0,-0.0,-0.0,3.0,0.333919,0.322465,0.318018,0.329681,0.0,-0.0,-0.052043,0.0,0.0,-0.000334,9.7e-05,-0.002538,-0.120212,-0.002566,-0.000105,-0.000297
325205,0.001501,-0.002348,-0.131697,0.0,-0.0,-0.0,3.0,0.335189,0.322445,0.316654,0.329701,0.0,-0.0,-0.05205,0.0,0.0,-0.000334,7.1e-05,-0.00254,-0.120217,-0.0021,-0.000117,-0.000285
325225,0.001371,-0.002234,-0.131697,0.0,-0.0,-0.0,3.0,0.332266,0.3224,0.319771,0.329744,0.0,-0.0,-0.052057,0.0,0.0,-0.000334,3.1e-05,-0.002542,-0.120223,-0.003334,-0.000105,-0.000284
325245,0.001379,-0.002356,-0.131697,0.0,-0.0,-0.0,3.0,0.333487,0.322422,0.318479,0.329723,0.0,-0.0,-0.052063,0.0,0.0,-0.000334,-1.5e-05,-0.002544,-0.120229,-0.002712,-0.000105,-0.000271
325265,0.001265,-0.002486,-0.131697,0.0,-0.0,-0.0,3.0,0.33371,0.322382,0.318241,0.329762,0.0,-0.0,-0.05207,0.0,0.0,-0.000334,-6.3e-05,-0.002546,-0.120234,-0.001941,-0.000117,-0.000271
325285,0.001379,-0.002356,-0.131697,0.0,-0.0,-0.0,3.0,0.331797,0.322447,0.320265,0.329699,0.0,-0.0,-0.052077,0.0,0.0,-0.000334,-0.000106,-0.002549,-0.12024,0.000199,-0.000104,-0.000282
325305,0.001257,-0.002364,-0.131697,0.0,-0.0,-0.0,3.0,0.329997,0.322351,0.322139,0.329792,0.0,-0.0,-0.052084,0.0,0.0,-0.000334,-0.000141,-0.002551,-0.120245,-0.002762,-9.3e-05,-0.000282
325325,0.001127,-0.00225,-0.131818,0.0,-0.0,-0.0,3.0,0.329051,0.322193,0.323113,0.329945,0.0,-0.0,-0.05209,0.0,0.0,-0.000334,-0.000211,-0.002553,-0.120251,-0.00513,-9.5e-05,-0.000293
325345,0.000876,-0.002144,-0.13194,0.0,-0.0,-0.0,3.0,0.331348,0.322211,0.320736,0.329928,0.0,-0.0,-0.052097,0.0,0.0,-0.000334,-0.000285,-0.002556,-0.120257,-0.003899,-0.000119,-0.000305
325365,0.000762,-0.002274,-0.13206,0.0,-0.0,-0.0,3.0,0.331349,0.322145,0.320734,0.329991,0.0,-0.0,-0.052104,0.0,0.0,-0.000334,-0.000369,-0.002558,-0.120263,-0.004294,-0.000131,-0.000316
325385,0.000778,-0.002518,-0.13206,0.0,-0.0,-0.0,3.0,0.334367,0.322222,0.317539,0.329917,0.0,-0.0,-0.05211,0.0,0.0,-0.000334,-0.000446,-0.002561,-0.12027,-0.004689,-0.000156,-0.000316
325405,0.000786,-0.002639,-0.132181,0.0,-0.0,-0.0,3.0,0.336633,0.322178,0.315084,0.329959,0.0,-0.0,-0.052117,0.0,0.0,-0.000334,-0.000533,-0.002563,-0.120276,-0.003288,-0.00018,-0.000315
325425,0.000567,-0.003021,-0.132181,0.0,-0.0,-0.0,3.0,0.337901,0.32211,0.313688,0.330025,0.0,-0.0,-0.052124,-0.0,0.0,-0.000334,-0.000615,-0.002566,-0.120282,-0.002167,-0.00018,-0.000314
325445,0.000567,-0.003021,-0.132061,0.0,-0.0,-0.0,3.0,0.334921,0.321973,0.316943,0.330158,0.0,-0.0,-0.05213,-0.0,0.0,-0.000334,-0.000712,-0.002569,-0.120289,-0.002606,-0.000168,-0.000314
325465,0.000567,-0.003021,-0.132061,0.0,-0.0,-0.0,3.0,0.332144,0.32198,0.3199,0.330151,0.0,-0.0,-0.052137,-0.0,0.0,-0.000334,-0.000794,-0.002572,-0.120295,-0.005146,-0.000133,-0.000301
325485,0.000437,-0.002907,-0.13194,0.0,-0.0,-0.0,3.0,0.329061,0.321852,0.323102,0.330275,0.0,-0.0,-0.052144,-0.0,0.0,-0.000334,-0.000892,-0.002576,-0.120301,-0.008903,-0.000123,-0.000301
325505,0.000169,-0.002558,-0.13182,0.0,-0.0,-0.0,3.0,0.326506,0.321958,0.325694,0.330172,0.0,-0.0,-0.05215,-0.0,0.0,-0.000334,-0.000994,-0.002579,-0.120307,-0.005967,-0.00011,-0.0003
325525,-8.3e-05,-0.002452,-0.13182,0.0,-0.0,-0.0,3.0,0.327205,0.322013,0.32499,0.330119,0.0,-0.0,-0.052157,-0.0,0.0,-0.000334,-0.001079,-0.002582,-0.120313,-0.006364,-0.000122,-0.000287
325545,-9.1e-05,-0.00233,-0.13182,0.0,-0.0,-0.0,3.0,0.328894,0.322005,0.323273,0.330127,0.0,-0.0,-0.052164,-0.0,0.0,-0.000334,-0.00118,-0.002585,-0.120319,-0.003203,-0.000134,-0.000287
325565,-9.1e-05,-0.00233,-0.13182,0.0,-0.0,-0.0,3.0,0.332256,0.322056,0.319783,0.330077,0.0,-0.0,-0.05217,-0.0,0.0,-0.000334,-0.00126,-0.002587,-0.120324,-0.002001,-0.000145,-0.000298
325585,-9.1e-05,-0.00233,-0.13182,0.0,-0.0,-0.0,3.0,0.333663,0.321898,0.318291,0.33023,0.0,-0.0,-0.052177,-0.0,0.0,-0.000334,-0.001354,-0.00259,-0.12033,-0.002389,-0.000146,-0.000298
325605,-9.1e-05,-0.00233,-0.131941,0.0,-0.0,-0.0,3.0,0.334203,0.321831,0.317715,0.330294,0.0,-0.0,-0.052184,-0.0,0.0,-0.000334,-0.001441,-0.002592,-0.120336,-0.004638,-0.000135,-0.000285
325625,-8.3e-05,-0.002452,-0.131941,0.0,-0.0,-0.0,3.0,0.33544,0.321761,0.316382,0.330362,0.0,-0.0,-0.052191,-0.0,0.0,-0.000334,-0.001538,-0.002594,-0.120342,-0.005075,-0.000124,-0.000297
325645,-0.000326,-0.002468,-0.131941,0.0,-0.0,-0.0,3.0,0.333069,0.32178,0.318923,0.330344,0.0,-0.0,-0.052197,-0.0,0.0,-0.000334,-0.001618,-0.002597,-0.120348,-0.005757,-0.000112,-0.000296
325665,-0.000448,-0.002476,-0.131941,0.0,-0.0,-0.0,3.0,0.33276,0.321735,0.31925,0.330388,0.0,-0.0,-0.052204,-0.0,0.0,-0.000334,-0.001708,-0.002599,-0.120353,-0.006197,-0.000113,-0.000295
325685,-0.00057,-0.002484,-0.131941,0.0,-0.0,-0.0,3.0,0.332909,0.321906,0.319093,0.330222,0.0,-0.0,-0.052211,-0.0,0.0,-0.000334,-0.001773,-0.002601,-0.120359,-0.006977,-0.000113,-0.000283
325705,-0.000684,-0.002614,-0.131821,0.0,-0.0,-0.0,3.0,0.332508,0.321888,0.319517,0.33024,0.0,-0.0,-0.052217,-0.0,0.0,-0.000334,-0.001857,-0.002603,-0.120365,-0.005715,-0.000125,-0.000282
325725,-0.000806,-0.002622,-0.131821,0.0,-0.0,-0.0,3.0,0.331492,0.321913,0.320584,0.330215,0.0,-0.0,-0.052224,-0.0,0.0,-0.000334,-0.001943,-0.002606,-0.120371,-0.001222,-0.000123,-0.000282
325745,-0.000806,-0.002622,-0.1317,0.0,-0.0,-0.0,3.0,0.331791,0.321917,0.320271,0.330212,0.0,-0.0,-0.052231,-0.0,0.0,-0.000334,-0.002008,-0.002609,-0.120376,-0.000219,-0.000135,-0.000281
325765,-0.000814,-0.0025,-0.1317,0.0,-0.0,-0.0,3.0,0.330211,0.321717,0.321918,0.330405,0.0,-0.0,-0.052237,-0.0,0.0,-0.000334,-0.002089,-0.002612,-0.120382,-0.002548,-0.000124,-0.00028
325785,-0.000814,-0.0025,-0.131821,0.0,-0.0,-0.0,3.0,0.330478,0.321646,0.321641,0.330473,0.0,-0.0,-0.052244,-0.0,0.0,-0.000334,-0.002181,-0.002614,-0.120387,-0.002962,-0.000125,-0.00028
325805,-0.000944,-0.002387,-0.131821,0.0,-0.0,-0.0,3.0,0.329898,0.321616,0.322241,0.330502,0.0,-0.0,-0.052251,0.0,0.0,-0.000334,-0.002258,-0.002617,-0.120393,-0.005342,-0.000114,-0.000279
325825,-0.001057,-0.002517,-0.131942,0.0,-0.0,-0.0,3.0,0.332797,0.321548,0.319212,0.330568,0.0,-0.0,-0.052257,0.0,0.0,-0.000334,-0.002354,-0.002619,-0.120399,-0.005475,-0.000139,-0.000291
325845,-0.001057,-0.002517,-0.132063,0.0,-0.0,-0.0,3.0,0.334582,0.321613,0.317307,0.330505,0.0,-0.0,-0.052264,0.0,0.0,-0.000334,-0.002439,-0.002622,-0.120404,-0.0042,-0.000151,-0.00029
325865,-0.001163,-0.002768,-0.132063,0.0,-0.0,-0.0,3.0,0.336665,0.321685,0.315048,0.330436,0.0,-0.0,-0.052271,0.0,0.0,-0.000334,-0.002503,-0.002624,-0.12041,-0.003209,-0.000163,-0.000302
325885,-0.001155,-0.00289,-0.132063,0.0,-0.0,-0.0,3.0,0.335179,0.32171,0.316665,0.330412,0.0,-0.0,-0.052278,0.0,0.0,-0.000334,-0.002564,-0.002627,-0.120416,-0.002376,-0.000163,-0.000301
325905,-0.001154,-0.00289,-0.132184,0.0,-0.0,-0.0,3.0,0.330956,0.32185,0.321144,0.330276,0.0,-0.0,-0.052284,0.0,0.0,-0.000334,-0.002594,-0.00263,-0.120422,-0.002303,-0.000126,-0.000301
325925,-0.001268,-0.00302,-0.132184,0.0,-0.0,-0.0,3.0,0.332717,0.321863,0.319296,0.330264,0.0,-0.0,-0.052291,0.0,0.0,-0.000334,-0.002624,-0.002633,-0.120429,-0.001676,-0.00015,-0.000312
325945,-0.001284,-0.002776,-0.132184,0.0,-0.0,-0.0,3.0,0.329585,0.321842,0.322564,0.330284,0.0,-0.0,-0.052298,0.0,0.0,-0.000334,-0.002659,-0.002636,-0.120435,0.000361,-0.000136,-0.000311
325965,-0.001292,-0.002655,-0.132184,0.0,-0.0,-0.0,3.0,0.328648,0.321912,0.323525,0.330217,0.0,-0.0,-0.052304,0.0,0.0,-0.000334,-0.002671,-0.00264,-0.120441,-0.001138,-0.000137,-0.000311
325985,-0.001171,-0.002647,-0.132183,0.0,-0.0,-0.0,3.0,0.330553,0.321863,0.321563,0.330264,0.0,-0.0,-0.052311,0.0,0.0,-0.000334,-0.002703,-0.002643,-0.120447,-0.000585,-0.000149,-0.000322
326005,-0.001057,-0.002517,-0.132183,0.0,-0.0,-0.0,3.0,0.33136,0.321908,0.320723,0.330221,0.0,-0.0,-0.052318,0.0,0.0,-0.000334,-0.002722,-0.002646,-0.120454,0.002987,-0.000147,-0.00031
326025,-0.001049,-0.002638,-0.132063,0.0,-0.0,-0.0,3.0,0.334131,0.321887,0.317792,0.330241,0.0,-0.0,-0.052324,0.0,0.0,-0.000334,-0.002717,-0.002648,-0.12046,0.00303,-0.000159,-0.000297
326045,-0.000692,-0.002493,-0.132062,0.0,-0.0,-0.0,3.0,0.331464,0.32186,0.320614,0.330267,0.0,-0.0,-0.052331,0.0,0.0,-0.000334,-0.002706,-0.002651,-0.120466,0.000892,-0.000123,-0.000296
326065,-0.000684,-0.002614,-0.131941,0.0,-0.0,-0.0,3.0,0.332662,0.322076,0.319355,0.330058,0.0,-0.0,-0.052338,0.0,0.0,-0.000334,-0.002653,-0.002653,-0.120472,-0.0015,-0.000123,-0.000284
326085,-0.000822,-0.002379,-0.131941,0.0,-0.0,-0.0,3.0,0.331437,0.322191,0.320642,0.329946,0.0,-0.0,-0.052344,0.0,0.0,-0.000334,-0.002595,-0.002656,-0.120477,-0.000734,-0.00011,-0.000283
326105,-0.00083,-0.002257,-0.131941,0.0,-0.0,-0.0,3.0,0.330665,0.322284,0.321447,0.329857,0.0,-0.0,-0.052351,0.0,0.0,-0.000334,-0.002538,-0.002658,-0.120483,0.001702,-9.6e-05,-0.000282
326125,-0.000716,-0.002127,-0.131941,0.0,-0.0,-0.0,3.0,0.332097,0.322422,0.319949,0.329723,0.0,-0.0,-0.052358,0.0,0.0,-0.000334,-0.002459,-0.00266,-0.120489,0.002288,-9.5e-05,-0.000282
326145,-0.000594,-0.002119,-0.132062,0.0,-0.0,-0.0,3.0,0.333335,0.322526,0.318641,0.329623,0.0,-0.0,-0.052364,0.0,0.0,-0.000334,-0.002378,-0.002662,-0.120494,0.004511,-9.3e-05,-0.000281
326165,-0.00035,-0.002103,-0.132062,0.0,-0.0,-0.0,3.0,0.332151,0.322523,0.319894,0.329625,0.0,-0.0,-0.052371,-0.0,0.0,-0.000334,-0.002297,-0.002663,-0.1205,0.006621,-7.9e-05,-0.000281
326185,-0.000237,-0.001973,-0.132061,0.0,-0.0,-0.0,3.0,0.330987,0.322542,0.321112,0.329606,0.0,-0.0,-0.052378,-0.0,0.0,-0.000334,-0.002203,-0.002665,-0.120506,0.008436,-5.3e-05,-0.000292
326205,-0.000107,-0.002087,-0.132061,0.0,-0.0,-0.0,3.0,0.332651,0.322373,0.319365,0.329771,0.0,-0.0,-0.052385,-0.0,0.0,-0.000334,-0.00212,-0.002666,-0.120512,0.005752,-6.6e-05,-0.000292
326225,-9e-06,-0.001713,-0.132061,0.0,-0.0,-0.0,3.0,0.32914,0.322356,0.323022,0.329787,0.0,-0.0,-0.052391,-0.0,0.0,-0.000334,-0.00204,-0.002667,-0.120517,0.004443,-4.2e-05,-0.000303
326245,-0.000123,-0.001843,-0.132061,0.0,-0.0,-0.0,3.0,0.331076,0.322295,0.321019,0.329846,0.0,-0.0,-0.052398,-0.0,0.0,-0.000334,-0.001967,-0.002668,-0.120523,0.001896,-5.5e-05,-0.000302
326265,-0.000139,-0.0016,-0.132182,0.0,-0.0,-0.0,3.0,0.328831,0.322355,0.323338,0.329788,0.0,-0.0,-0.052405,-0.0,0.0,-0.000334,-0.0019,-0.00267,-0.120529,-0.000789,-4.3e-05,-0.000302
326285,-0.000139,-0.0016,-0.132182,0.0,-0.0,-0.0,3.0,0.334276,0.322416,0.317636,0.329729,0.0,-0.0,-0.052411,-0.0,0.0,-0.000334,-0.001844,-0.00267,-0.120535,0.000326,-6.7e-05,-0.000301
326305,-0.000131,-0.001721,-0.132061,0.0,-0.0,-0.0,3.0,0.335475,0.322527,0.316344,0.329621,0.0,-0.0,-0.052418,-0.0,0.0,-0.000334,-0.001786,-0.002671,-0.120541,0.004629,-7.6e-05,-0.000301
326325,0.000113,-0.001705,-0.132061,0.0,-0.0,-0.0,3.0,0.33285,0.322589,0.319155,0.32956,0.0,-0.0,-0.052425,-0.0,0.0,-0.000334,-0.001715,-0.002672,-0.120547,0.006652,-3.8e-05,-0.000288
326345,0.000372,-0.001933,-0.132061,0.0,-0.0,-0.0,3.0,0.332546,0.322738,0.319477,0.329416,0.0,-0.0,-0.052431,-0.0,0.0,-0.000334,-0.001611,-0.002673,-0.120553,0.006783,-2.5e-05,-0.000275
326365,0.0006,-0.001673,-0.132061,0.0,-0.0,-0.0,3.0,0.331278,0.322674,0.320808,0.329479,0.0,-0.0,-0.052438,-0.0,0.0,-0.000334,-0.001511,-0.002673,-0.120558,0.005308,-1.3e-05,-0.000275
326385,0.000584,-0.00143,-0.13194,0.0,-0.0,-0.0,3.0,0.329881,0.32269,0.322259,0.329462,0.0,-0.0,-0.052445,-0.0,0.0,-0.000334,-0.001406,-0.002674,-0.120564,0.005435,0.0,-0.000274
326405,0.000568,-0.001186,-0.13194,0.0,-0.0,-0.0,3.0,0.328118,0.322728,0.324066,0.329425,0.0,-0.0,-0.052451,-0.0,0.0,-0.000334,-0.001306,-0.002674,-0.12057,0.005614,1.3e-05,-0.000274
326425,0.00069,-0.001178,-0.13194,0.0,-0.0,-0.0,3.0,0.329386,0.322609,0.322769,0.329542,0.0,-0.0,-0.052458,-0.0,0.0,-0.000334,-0.001225,-0.002674,-0.120575,0.002858,1.3e-05,-0.000285
326445,0.00056,-0.001064,-0.132061,0.0,-0.0,-0.0,3.0,0.330272,0.322618,0.321854,0.329533,0.0,-0.0,-0.052465,-0.0,0.0,-0.000334,-0.001156,-0.002674,-0.120581,0.002016,0.0,-0.000285
326465,0.000446,-0.001194,-0.132182,0.0,-0.0,-0.0,3.0,0.333093,0.322377,0.318898,0.329766,0.0,-0.0,-0.052471,-0.0,0.0,-0.000334,-0.001136,-0.002674,-0.120587,0.001862,-1.2e-05,-0.000296
326485,0.000576,-0.001308,-0.132302,0.0,-0.0,-0.0,3.0,0.33373,0.322333,0.31822,0.32981,0.0,-0.0,-0.052478,-0.0,0.0,-0.000334,-0.001121,-0.002674,-0.120592,-1.2e-05,-1.3e-05,-0.000308
326505,0.000576,-0.001308,-0.132302,0.0,-0.0,-0.0,3.0,0.334655,0.322324,0.31723,0.329818,0.0,-0.0,-0.052485,-0.0,0.0,-0.000334,-0.001109,-0.002674,-0.120598,-0.00017,-1.3e-05,-0.000307
326525,0.000462,-0.001437,-0.132302,0.0,-0.0,-0.0,3.0,0.333103,0.322297,0.318887,0.329844,0.0,-0.0,-0.052493,-0.0,0.0,-0.000334,-0.001101,-0.002674,-0.120606,-0.000277,-1.3e-05,-0.000306
326545,0.000454,-0.001316,-0.132423,0.0,-0.0,-0.0,3.0,0.332291,0.322398,0.319746,0.329746,0.0,-0.0,-0.052498,-0.0,0.0,-0.000334,-0.001091,-0.002674,-0.120611,0.001132,0.0,-0.000306
326565,0.000454,-0.001316,-0.132423,0.0,-0.0,-0.0,3.0,0.33296,0.322492,0.319039,0.329655,0.0,-0.0,-0.052505,-0.0,0.0,-0.000334,-0.001063,-0.002674,-0.120617,0.000747,0.0,-0.000305
326585,0.000576,-0.001308,-0.132423,0.0,-0.0,-0.0,3.0,0.331157,0.322446,0.320935,0.3297,0.0,-0.0,-0.052512,-0.0,0.0,-0.000334,-0.001048,-0.002674,-0.120623,0.000445,1.3e-05,-0.000305
326605,0.000568,-0.001186,-0.132423,0.0,-0.0,-0.0,3.0,0.330645,0.322495,0.321467,0.329652,0.0,-0.0,-0.052518,-0.0,0.0,-0.000334,-0.001032,-0.002673,-0.120629,0.003439,2.6e-05,-0.000316
326625,0.000698,-0.001299,-0.132423,0.0,-0.0,-0.0,3.0,0.33185,0.322461,0.320209,0.329685,0.0,-0.0,-0.052525,-0.0,0.0,-0.000334,-0.001007,-0.002673,-0.120636,0.001541,1.3e-05,-0.000327
326645,0.000812,-0.00117,-0.132544,0.0,-0.0,-0.0,3.0,0.328702,0.32236,0.32347,0.329783,0.0,-0.0,-0.052532,-0.0,0.0,-0.000334,-0.000993,-0.002673,-0.120642,-0.00042,2.5e-05,-0.000329
326665,0.00069,-0.001178,-0.132568,0.0,-0.0,-0.0,3.0,0.330658,0.322452,0.321455,0.329693,0.0,-0.0,-0.052538,-0.0,0.0,-0.000334,-0.000975,-0.002673,-0.120649,0.001111,1.3e-05,-0.000328
326685,0.000446,-0.001194,-0.132568,0.0,-0.0,-0.0,3.0,0.330304,0.322311,0.321822,0.32983,0.0,-0.0,-0.052545,-0.0,0.0,-0.000334,-0.000969,-0.002673,-0.120655,-0.000524,0.0,-0.00034
326705,0.000568,-0.001186,-0.132689,0.0,-0.0,-0.0,3.0,0.329665,0.322346,0.321648,0.329797,0.0,-0.0,-0.052552,-0.0,0.0,-0.000334,-0.000977,-0.002673,-0.120662,-0.00041,0.0,-0.000339
326725,0.000454,-0.001316,-0.132689,0.0,-0.0,-0.0,3.0,0.330414,0.322166,0.321708,0.329971,0.0,-0.0,-0.05256,-0.0,0.0,-0.000334,-0.00101,-0.002673,-0.12067,-0.001628,-1e-06,-0.000338
326745,0.000463,-0.001437,-0.132689,0.0,-0.0,-0.0,3.0,0.331954,0.322244,0.320101,0.329896,0.0,-0.0,-0.052567,-0.0,0.0,-0.000334,-0.001038,-0.002673,-0.120675,-0.001098,-2.5e-05,-0.000326
326765,0.000365,-0.001811,-0.132568,0.0,-0.0,-0.0,3.0,0.335281,0.322172,0.316555,0.329965,0.0,-0.0,-0.052572,-0.0,0.0,-0.000334,-0.001072,-0.002673,-0.120682,0.001104,-2.4e-05,-0.000323
326785,0.000487,-0.001803,-0.132544,0.0,-0.0,-0.0,3.0,0.336622,0.322227,0.315095,0.329912,0.0,-0.0,-0.05258,0.0,0.0,-0.000334,-0.001102,-0.002673,-0.12069,6.9e-05,-4.9e-05,-0.000322
326805,0.000478,-0.001681,-0.132423,0.0,-0.0,-0.0,3.0,0.329921,0.32218,0.322217,0.329958,0.0,-0.0,-0.052585,0.0,0.0,-0.000334,-0.00112,-0.002674,-0.120695,-0.001793,-1e-06,-0.000309
326825,0.000341,-0.001445,-0.132423,0.0,-0.0,-0.0,3.0,0.326584,0.322251,0.325615,0.329889,0.0,-0.0,-0.052592,0.0,0.0,-0.000334,-0.001132,-0.002674,-0.120701,-0.003406,1e-05,-0.000309
326845,0.000211,-0.001332,-0.132303,0.0,-0.0,-0.0,3.0,0.326916,0.322229,0.325282,0.32991,0.0,-0.0,-0.052599,0.0,0.0,-0.000334,-0.001155,-0.002675,-0.120707,-0.002972,-2e-06,-0.00032
326865,0.000324,-0.001202,-0.132302,0.0,-0.0,-0.0,3.0,0.32975,0.32237,0.322395,0.329773,0.0,-0.0,-0.052605,0.0,0.0,-0.000334,-0.001173,-0.002675,-0.120714,0.000808,-2.5e-05,-0.000308
326885,0.000194,-0.001088,-0.132423,0.0,-0.0,-0.0,3.0,0.32581,0.322334,0.32639,0.329808,0.0,-0.0,-0.052614,0.0,0.0,-0.000334,-0.001162,-0.002676,-0.120721,-0.003096,2.3e-05,-0.000307
326905,0.000454,-0.001316,-0.132423,0.0,-0.0,-0.0,3.0,0.329227,0.322342,0.322932,0.329801,0.0,-0.0,-0.05262,0.0,0.0,-0.000334,-0.001189,-0.002676,-0.120727,0.000814,-0.0,-0.000306
326925,0.000576,-0.001308,-0.132302,0.0,-0.0,-0.0,3.0,0.331171,0.322394,0.32092,0.329751,0.0,-0.0,-0.052627,0.0,0.0,-0.000334,-0.00119,-0.002676,-0.120733,0.002485,1e-06,-0.000294
326945,0.000454,-0.001316,-0.132423,0.0,-0.0,-0.0,3.0,0.334596,0.32226,0.317293,0.32988,0.0,-0.0,-0.052632,0.0,0.0,-0.000334,-0.001191,-0.002675,-0.120737,-0.000929,1.1e-05,-0.000293
326965,0.000446,-0.001194,-0.132423,0.0,-0.0,-0.0,3.0,0.332412,0.322202,0.319618,0.329937,0.0,-0.0,-0.052639,0.0,0.0,-0.000334,-0.001204,-0.002675,-0.120743,-0.000974,3.5e-05,-0.000293
326985,0.000308,-0.000958,-0.132423,0.0,-0.0,-0.0,3.0,0.334088,0.32227,0.317838,0.329871,0.0,-0.0,-0.052647,0.0,0.0,-0.000334,-0.001199,-0.002674,-0.120751,-0.001047,3.5e-05,-0.000304
327005,0.000308,-0.000958,-0.132544,0.0,-0.0,-0.0,3.0,0.329618,0.322335,0.322531,0.329807,0.0,-0.0,-0.052652,0.0,0.0,-0.000334,-0.00119,-0.002673,-0.120756,-0.003054,5.9e-05,-0.000303
327025,0.000178,-0.000845,-0.132544,0.0,-0.0,-0.0,3.0,0.328817,0.32235,0.323353,0.329793,0.0,-0.0,-0.052659,0.0,0.0,-0.000334,-0.001201,-0.002673,-0.120762,-0.002895,5.9e-05,-0.000317
327045,0.000178,-0.000845,-0.132568,0.0,-0.0,-0.0,3.0,0.330606,0.322357,0.321508,0.329786,0.0,-0.0,-0.052667,0.0,0.0,-0.000334,-0.001214,-0.002672,-0.12077,-0.002614,4.6e-05,-0.000316
327065,0.000308,-0.000958,-0.132568,0.0,-0.0,-0.0,3.0,0.332116,0.322335,0.31993,0.329808,0.0,-0.0,-0.052672,0.0,0.0,-0.000334,-0.001232,-0.002671,-0.120775,0.002847,2.4e-05,-0.000328
327085,0.000552,-0.000942,-0.132568,0.0,-0.0,-0.0,3.0,0.331181,0.322467,0.320909,0.329679,0.0,-0.0,-0.05268,0.0,0.0,-0.000334,-0.001222,-0.00267,-0.120783,0.002599,3.7e-05,-0.000315
327105,0.000552,-0.000942,-0.132544,0.0,-0.0,-0.0,3.0,0.331548,0.322405,0.320526,0.32974,0.0,-0.0,-0.052687,0.0,0.0,-0.000334,-0.001221,-0.00267,-0.120789,0.002579,3.6e-05,-0.000312
327125,0.000422,-0.000828,-0.132423,0.0,-0.0,-0.0,3.0,0.330561,0.322203,0.321555,0.329935,0.0,-0.0,-0.052692,0.0,0.0,-0.000334,-0.001233,-0.002669,-0.120794,-0.000685,4.7e-05,-0.000312
327145,0.000422,-0.000828,-0.132423,0.0,-0.0,-0.0,3.0,0.330468,0.3223,0.321652,0.329841,0.0,-0.0,-0.052701,0.0,0.0,-0.000334,-0.001241,-0.002668,-0.120801,0.001082,4.8e-05,-0.000299
327165,0.000422,-0.000828,-0.132423,0.0,-0.0,-0.0,3.0,0.331139,0.322276,0.320954,0.329865,0.0,-0.0,-0.052707,0.0,0.0,-0.000334,-0.001239,-0.002667,-0.120807,0.001049,4.8e-05,-0.000298
327185,0.000308,-0.000958,-0.132303,0.0,-0.0,-0.0,3.0,0.331329,0.322273,0.320755,0.329867,0.0,-0.0,-0.052714,0.0,0.0,-0.000334,-0.001235,-0.002666,-0.120813,-0.000557,3.5e-05,-0.000286
327205,0.000316,-0.00108,-0.132303,0.0,-0.0,-0.0,3.0,0.33381,0.322442,0.318135,0.329703,0.0,-0.0,-0.052721,0.0,0.0,-0.000334,-0.001208,-0.002665,-0.120819,-0.000818,2.2e-05,-0.000285
327225,0.000332,-0.001324,-0.132423,0.0,-0.0,-0.0,3.0,0.335449,0.322442,0.316372,0.329704,0.0,-0.0,-0.052727,0.0,0.0,-0.000334,-0.001185,-0.002665,-0.120824,-0.000904,-2e-06,-0.000296
327245,0.000316,-0.00108,-0.132423,0.0,-0.0,-0.0,3.0,0.331344,0.322374,0.320739,0.32977,0.0,-0.0,-0.052734,0.0,0.0,-0.000334,-0.001188,-0.002665,-0.12083,-0.001092,2.2e-05,-0.000296
327265,0.000438,-0.001072,-0.132423,0.0,-0.0,-0.0,3.0,0.333312,0.322392,0.318665,0.329752,0.0,-0.0,-0.052741,0.0,0.0,-0.000334,-0.001192,-0.002664,-0.120836,0.000636,2.3e-05,-0.000295
327285,0.000316,-0.00108,-0.132544,0.0,-0.0,-0.0,3.0,0.330307,0.322357,0.321819,0.329786,0.0,-0.0,-0.052747,0.0,0.0,-0.000334,-0.001193,-0.002664,-0.120842,-0.001019,2.2e-05,-0.000307
327305,0.000552,-0.000942,-0.132568,0.0,-0.0,-0.0,3.0,0.329199,0.32248,0.322961,0.329667,0.0,-0.0,-0.052754,0.0,0.0,-0.000334,-0.001193,-0.002664,-0.120849,0.0022,3.6e-05,-0.000309
327325,0.00056,-0.001064,-0.132689,0.0,-0.0,-0.0,3.0,0.32952,0.322442,0.322631,0.329704,0.0,-0.0,-0.052761,0.0,0.0,-0.000334,-0.001181,-0.002663,-0.120855,0.002142,2.4e-05,-0.00032
327345,0.000804,-0.001048,-0.132689,0.0,-0.0,-0.0,3.0,0.329594,0.322585,0.322554,0.329565,0.0,-0.0,-0.052767,0.0,0.0,-0.000334,-0.001155,-0.002663,-0.120861,0.005123,2.5e-05,-0.000319
327365,0.00082,-0.001291,-0.132689,0.0,-0.0,-0.0,3.0,0.333337,0.322634,0.318639,0.329518,0.0,-0.0,-0.052774,0.0,0.0,-0.000334,-0.001095,-0.002663,-0.120868,0.004518,1e-06,-0.000319
327385,0.00069,-0.001178,-0.132689,0.0,-0.0,-0.0,3.0,0.332092,0.322644,0.319955,0.329508,0.0,-0.0,-0.052779,0.0,0.0,-0.000334,-0.001043,-0.002662,-0.120872,0.000258,2.4e-05,-0.000318
327405,0.000682,-0.001056,-0.132568,0.0,-0.0,-0.0,3.0,0.333314,0.322615,0.318663,0.329536,0.0,-0.0,-0.052788,0.0,0.0,-0.000334,-0.000994,-0.002662,-0.12088,0.001252,2.4e-05,-0.000305
327425,0.000552,-0.000942,-0.132544,0.0,-0.0,-0.0,3.0,0.332322,0.322555,0.319713,0.329594,0.0,-0.0,-0.052794,0.0,0.0,-0.000334,-0.000951,-0.002661,-0.120886,-0.001111,3.6e-05,-0.000302
327445,0.000666,-0.000812,-0.132544,0.0,-0.0,-0.0,3.0,0.330923,0.322631,0.321179,0.32952,0.0,-0.0,-0.052801,-0.0,0.0,-0.000334,-0.000916,-0.00266,-0.120892,-2.5e-05,4.9e-05,-0.000302
327465,0.000552,-0.000942,-0.132544,0.0,-0.0,-0.0,3.0,0.331988,0.322496,0.320064,0.329651,0.0,-0.0,-0.052808,-0.0,0.0,-0.000334,-0.000907,-0.002659,-0.120898,-0.001705,3.5e-05,-0.000301
327485,0.000544,-0.00082,-0.132544,0.0,-0.0,-0.0,3.0,0.330092,0.322579,0.322041,0.329571,0.0,-0.0,-0.052814,-0.0,0.0,-0.000334,-0.000904,-0.002659,-0.120904,-0.001856,4.8e-05,-0.000301
327505,0.000682,-0.001056,-0.132544,0.0,-0.0,-0.0,3.0,0.33258,0.322543,0.319441,0.329605,0.0,-0.0,-0.052821,-0.0,0.0,-0.000334,-0.000918,-0.002658,-0.12091,0.000221,2.4e-05,-0.0003
327525,0.000909,-0.000796,-0.132568,0.0,-0.0,-0.0,3.0,0.329738,0.32254,0.322406,0.329609,0.0,-0.0,-0.052828,-0.0,0.0,-0.000334,-0.00093,-0.002657,-0.120916,0.003483,5e-05,-0.000302
327545,0.000804,-0.001048,-0.132689,0.0,-0.0,-0.0,3.0,0.333021,0.322322,0.318974,0.32982,0.0,-0.0,-0.052834,-0.0,0.0,-0.000334,-0.000951,-0.002657,-0.120923,0.002335,2.5e-05,-0.000313
327565,0.000666,-0.000812,-0.132689,0.0,-0.0,-0.0,3.0,0.329964,0.322228,0.322173,0.329911,0.0,-0.0,-0.052841,-0.0,0.0,-0.000334,-0.000981,-0.002656,-0.120929,0.000853,4.8e-05,-0.000313
327585,0.000422,-0.000828,-0.132689,0.0,-0.0,-0.0,3.0,0.330417,0.322311,0.321704,0.329831,0.0,-0.0,-0.052848,-0.0,0.0,-0.000334,-0.000981,-0.002655,-0.120935,-0.002469,4.6e-05,-0.000312
327605,0.0003,-0.000836,-0.132689,0.0,-0.0,-0.0,3.0,0.32838,0.322333,0.323799,0.329809,0.0,-0.0,-0.052854,-0.0,0.0,-0.000334,-0.000985,-0.002655,-0.120941,-0.004081,4.6e-05,-0.000311
327625,0.000552,-0.000942,-0.132689,0.0,-0.0,-0.0,3.0,0.331276,0.322577,0.320811,0.329573,0.0,-0.0,-0.052861,-0.0,0.0,-0.000334,-0.000971,-0.002654,-0.120947,-0.000827,3.5e-05,-0.000311
327645,0.000568,-0.001186,-0.132689,0.0,-0.0,-0.0,3.0,0.334257,0.322643,0.317657,0.329508,0.0,-0.0,-0.052868,-0.0,0.0,-0.000334,-0.000946,-0.002653,-0.120953,-0.000947,1e-05,-0.00031
327665,0.000804,-0.001048,-0.132568,0.0,-0.0,-0.0,3.0,0.333842,0.322676,0.3181,0.329477,0.0,-0.0,-0.052874,-0.0,0.0,-0.000334,-0.000942,-0.002653,-0.120959,0.002216,2.4e-05,-0.000297
327685,0.000795,-0.000926,-0.132544,0.0,-0.0,-0.0,3.0,0.333592,0.322611,0.318367,0.32954,0.0,-0.0,-0.052881,-0.0,0.0,-0.000334,-0.000929,-0.002652,-0.120965,0.001918,3.6e-05,-0.000294
327705,0.000909,-0.000796,-0.132423,0.0,-0.0,-0.0,3.0,0.333244,0.322588,0.318737,0.329561,-0.0,-0.0,-0.052888,-0.0,0.0,-0.000334,-0.000927,-0.002651,-0.120971,0.003443,4.9e-05,-0.000282
327725,0.000901,-0.000674,-0.132423,0.0,-0.0,-0.0,3.0,0.332512,0.322603,0.319513,0.329547,-0.0,-0.0,-0.052895,-0.0,0.0,-0.000334,-0.000905,-0.002649,-0.120977,0.003037,6.1e-05,-0.000281
327745,0.000893,-0.000552,-0.132423,0.0,-0.0,-0.0,3.0,0.328697,0.322641,0.323475,0.32951,-0.0,-0.0,-0.052901,-0.0,0.0,-0.000334,-0.000872,-0.002648,-0.120983,0.002469,7.3e-05,-0.000281
327765,0.000885,-0.000431,-0.132544,0.0,-0.0,-0.0,3.0,0.32773,0.322644,0.324459,0.329508,-0.0,-0.0,-0.052908,-0.0,0.0,-0.000334,-0.000826,-0.002647,-0.120988,0.001732,8.5e-05,-0.000292
327785,0.000779,-0.000682,-0.132568,0.0,-0.0,-0.0,3.0,0.328611,0.322654,0.323563,0.329498,-0.0,-0.0,-0.052915,-0.0,0.0,-0.000334,-0.000789,-0.002646,-0.120994,-0.000214,6e-05,-0.000294
327805,0.000666,-0.000812,-0.132568,0.0,-0.0,-0.0,3.0,0.330792,0.322632,0.321315,0.329519,-0.0,-0.0,-0.052921,-0.0,0.0,-0.000334,-0.000768,-0.002645,-0.121,-0.002055,4.7e-05,-0.000293
327825,0.000682,-0.001056,-0.132689,0.0,-0.0,-0.0,3.0,0.333581,0.322513,0.318379,0.329635,-0.0,-0.0,-0.052928,-0.0,0.0,-0.000334,-0.000781,-0.002644,-0.121006,-0.001647,2.3e-05,-0.000305
327845,0.000925,-0.00104,-0.132689,0.0,-0.0,-0.0,3.0,0.334147,0.322661,0.317775,0.329491,-0.0,-0.0,-0.052935,-0.0,0.0,-0.000334,-0.000782,-0.002644,-0.121012,0.001694,2.4e-05,-0.000304
327865,0.000682,-0.001056,-0.132689,0.0,-0.0,-0.0,3.0,0.335,0.322455,0.316858,0.329691,-0.0,-0.0,-0.052941,-0.0,0.0,-0.000334,-0.000787,-0.002643,-0.121018,-0.001567,2.2e-05,-0.000304
327885,0.000796,-0.000926,-0.132568,0.0,-0.0,-0.0,3.0,0.333139,0.322508,0.318849,0.32964,-0.0,-0.0,-0.052948,-0.0,0.0,-0.000334,-0.000809,-0.002642,-0.121024,0.000287,3.5e-05,-0.000291
327905,0.000779,-0.000682,-0.132544,0.0,-0.0,-0.0,3.0,0.331223,0.322574,0.320865,0.329575,-0.0,-0.0,-0.052955,-0.0,0.0,-0.000334,-0.000799,-0.002641,-0.12103,-8.1e-05,6e-05,-0.000288
327925,0.000779,-0.000682,-0.132423,0.0,-0.0,-0.0,3.0,0.32924,0.322497,0.322919,0.32965,-0.0,-0.0,-0.052961,-0.0,0.0,-0.000334,-0.000812,-0.00264,-0.121036,0.000102,6e-05,-0.000275
327945,0.000658,-0.00069,-0.132544,0.0,-0.0,-0.0,3.0,0.330042,0.322621,0.322093,0.32953,-0.0,-0.0,-0.052968,-0.0,0.0,-0.000334,-0.0008,-0.002639,-0.121041,-0.001727,5.9e-05,-0.000287
327965,0.000674,-0.000934,-0.132568,0.0,-0.0,-0.0,3.0,0.330231,0.322505,0.321897,0.329642,-0.0,-0.0,-0.052975,-0.0,0.0,-0.000334,-0.000826,-0.002639,-0.121047,-0.001152,3.4e-05,-0.000289
327985,0.000917,-0.000918,-0.132689,0.0,-0.0,-0.0,3.0,0.330425,0.322608,0.321696,0.329542,-0.0,-0.0,-0.052981,-0.0,0.0,-0.000334,-0.000837,-0.002638,-0.121053,0.00233,3.6e-05,-0.0003
328005,0.000812,-0.00117,-0.132689,0.0,-0.0,-0.0,3.0,0.332864,0.322469,0.31914,0.329677,-0.0,-0.0,-0.052988,-0.0,0.0,-0.000334,-0.000849,-0.002638,-0.121059,0.001048,1.1e-05,-0.0003
328025,0.000568,-0.001186,-0.132689,0.0,-0.0,-0.0,3.0,0.332459,0.322387,0.319569,0.329757,-0.0,-0.0,-0.052995,-0.0,0.0,-0.000334,-0.00087,-0.002637,-0.121065,-0.001985,9e-06,-0.000299
328045,0.000446,-0.001194,-0.13281,0.0,-0.0,-0.0,3.0,0.333041,0.322373,0.318953,0.32977,-0.0,-0.0,-0.053002,-0.0,0.0,-0.000334,-0.000901,-0.002637,-0.121071,-0.00323,8e-06,-0.00031
328065,0.000446,-0.001194,-0.132689,0.0,-0.0,-0.0,3.0,0.333185,0.322323,0.3188,0.329819,-0.0,-0.0,-0.053008,-0.0,0.0,-0.000334,-0.000946,-0.002637,-0.121077,-0.002618,8e-06,-0.000298
328085,0.000333,-0.001324,-0.132689,0.0,-0.0,-0.0,3.0,0.335098,0.322332,0.316752,0.32981,-0.0,-0.0,-0.053015,-0.0,0.0,-0.000334,-0.00098,-0.002636,-0.121083,-0.003702,-5e-06,-0.000297
328105,0.000333,-0.001324,-0.132568,0.0,-0.0,-0.0,3.0,0.33183,0.322316,0.32023,0.329825,-0.0,-0.0,-0.05302,-0.0,0.0,-0.000334,-0.001025,-0.002636,-0.121087,-0.001541,8e-06,-0.000297
328125,0.000203,-0.00121,-0.132568,0.0,-0.0,-0.0,3.0,0.332381,0.32224,0.31965,0.3299,-0.0,-0.0,-0.053028,-0.0,0.0,-0.000334,-0.001088,-0.002636,-0.121095,-0.004004,6e-06,-0.000284
328145,0.000211,-0.001332,-0.132544,0.0,-0.0,-0.0,3.0,0.33262,0.322187,0.319398,0.32995,-0.0,-0.0,-0.053035,-0.0,0.0,-0.000334,-0.001159,-0.002636,-0.121101,-0.002928,-6e-06,-0.000281
328165,8.1e-05,-0.001218,-0.132544,0.0,-0.0,-0.0,3.0,0.329468,0.322225,0.322684,0.329914,-0.0,-0.0,-0.053042,-0.0,0.0,-0.000334,-0.001209,-0.002636,-0.121106,-0.004007,6e-06,-0.00028
328185,8.9e-05,-0.00134,-0.132568,0.0,-0.0,-0.0,3.0,0.33013,0.322185,0.322002,0.329953,-0.0,-0.0,-0.053048,-0.0,0.0,-0.000334,-0.001271,-0.002637,-0.121112,-0.003058,-7e-06,-0.000282
328205,9.7e-05,-0.001462,-0.132689,0.0,-0.0,-0.0,3.0,0.329788,0.322171,0.322354,0.329967,-0.0,-0.0,-0.053055,-0.0,0.0,-0.000334,-0.001331,-0.002637,-0.121118,-0.00213,-1.9e-05,-0.000294
328225,-1.7e-05,-0.001592,-0.13281,0.0,-0.0,-0.0,3.0,0.330968,0.322187,0.321132,0.329951,-0.0,-0.0,-0.053062,-0.0,0.0,-0.000334,-0.001383,-0.002638,-0.121123,-0.002967,-3.2e-05,-0.000305
328245,-0.000122,-0.001843,-0.13281,0.0,-0.0,-0.0,3.0,0.333519,0.322221,0.318444,0.329918,-0.0,-0.0,-0.053068,-0.0,0.0,-0.000334,-0.001436,-0.002638,-0.121129,-0.003688,-5.7e-05,-0.000305
328265,0.000121,-0.001827,-0.13281,0.0,-0.0,-0.0,3.0,0.334908,0.322347,0.316957,0.329796,-0.0,-0.0,-0.053075,-0.0,0.0,-0.000334,-0.001474,-0.002639,-0.121135,0.000164,-5.5e-05,-0.000304
328285,0.00013,-0.001949,-0.13281,0.0,-0.0,-0.0,3.0,0.337431,0.322259,0.314207,0.329881,-0.0,-0.0,-0.053082,-0.0,0.0,-0.000334,-0.0015,-0.00264,-0.121141,0.000631,-6.7e-05,-0.000303
328305,0.000113,-0.001705,-0.13281,0.0,-0.0,-0.0,3.0,0.333631,0.322266,0.318326,0.329874,-0.0,-0.0,-0.053088,-0.0,0.0,-0.000334,-0.001525,-0.002641,-0.121147,0.000744,-4.3e-05,-0.000303
328325,-1.7e-05,-0.001592,-0.13281,0.0,-0.0,-0.0,3.0,0.326689,0.322521,0.32551,0.329627,-0.0,-0.0,-0.053093,-0.0,0.0,-0.000334,-0.001506,-0.002641,-0.121152,4.7e-05,6e-06,-0.000314
328345,-0.000146,-0.001478,-0.13281,0.0,-0.0,-0.0,3.0,0.329847,0.322336,0.322294,0.329806,-0.0,-0.0,-0.053102,-0.0,0.0,-0.000334,-0.001512,-0.002642,-0.12116,-0.002982,-2e-05,-0.000302
328365,8.1e-05,-0.001218,-0.132931,0.0,-0.0,-0.0,3.0,0.326168,0.322559,0.326032,0.32959,-0.0,-0.0,-0.053109,-0.0,0.0,-0.000334,-0.001499,-0.002643,-0.121166,-5.2e-05,6e-06,-0.000313
328385,-2.4e-05,-0.00147,-0.133051,0.0,-0.0,-0.0,3.0,0.328836,0.322501,0.323333,0.329647,-0.0,-0.0,-0.053115,-0.0,0.0,-0.000334,-0.001492,-0.002644,-0.121172,-0.001581,-1.9e-05,-0.000324
328405,0.000227,-0.001575,-0.133051,0.0,-0.0,-0.0,3.0,0.329849,0.322475,0.322292,0.329671,-0.0,-0.0,-0.053122,-0.0,0.0,-0.000334,-0.001509,-0.002644,-0.121179,0.00208,-2.9e-05,-0.000324
328425,0.000235,-0.001697,-0.133051,0.0,-0.0,-0.0,3.0,0.332943,0.322382,0.319057,0.329761,-0.0,-0.0,-0.053129,-0.0,0.0,-0.000334,-0.001526,-0.002645,-0.121185,0.002425,-4.1e-05,-0.000323
328445,-8e-06,-0.001713,-0.133051,0.0,-0.0,-0.0,3.0,0.333588,0.322203,0.318371,0.329936,-0.0,-0.0,-0.053135,-0.0,0.0,-0.000334,-0.001563,-0.002645,-0.121191,-0.000398,-4.3e-05,-0.000323
328465,-0.000146,-0.001478,-0.133051,0.0,-0.0,-0.0,3.0,0.332407,0.322202,0.319624,0.329936,-0.0,-0.0,-0.053142,-0.0,0.0,-0.000334,-0.001591,-0.002646,-0.121198,-0.001901,-1.9e-05,-0.000322
328485,-0.000138,-0.0016,-0.133051,0.0,-0.0,-0.0,3.0,0.334776,0.322118,0.317099,0.330017,-0.0,-0.0,-0.053149,-0.0,0.0,-0.000334,-0.001629,-0.002646,-0.121204,-0.00127,-3.2e-05,-0.000321
328505,-0.000276,-0.001364,-0.133052,0.0,-0.0,-0.0,3.0,0.328894,0.322289,0.323273,0.329852,-0.0,-0.0,-0.053154,-0.0,0.0,-0.000334,-0.001631,-0.002646,-0.121209,-0.004898,3e-06,-0.000309
328525,-0.000406,-0.001251,-0.133052,0.0,-0.0,-0.0,3.0,0.329729,0.322388,0.322416,0.329756,-0.0,-0.0,-0.05316,-0.0,0.0,-0.000334,-0.001663,-0.002646,-0.121215,-0.001254,1.7e-05,-0.00032
328545,-0.000528,-0.001259,-0.133052,0.0,-0.0,-0.0,3.0,0.331648,0.322235,0.320421,0.329904,-0.0,-0.0,-0.053169,-0.0,0.0,-0.000334,-0.001707,-0.002646,-0.121223,-0.005524,2e-06,-0.000319
328565,-0.000301,-0.000999,-0.133051,0.0,-0.0,-0.0,3.0,0.330766,0.322298,0.321342,0.329843,-0.0,-0.0,-0.053175,-0.0,0.0,-0.000334,-0.001752,-0.002646,-0.12123,-0.001802,2.8e-05,-0.000319
328585,-0.000162,-0.001234,-0.133051,0.0,-0.0,-0.0,3.0,0.333443,0.322201,0.318526,0.329937,-0.0,-0.0,-0.053182,-0.0,0.0,-0.000334,-0.001806,-0.002646,-0.121236,0.000815,5e-06,-0.000318
328605,-0.000187,-0.000869,-0.133051,0.087266,-0.0,-0.0,3.0,0.32939,0.299515,0.322765,0.350023,0.000757,-0.0,-0.053189,0.143057,-0.0,-0.000334,-0.001839,-0.002645,-0.121242,0.000931,4.1e-05,-0.000317
328625,-0.000309,-0.000877,-0.133051,0.087266,-0.0,-0.0,3.0,0.332502,0.299063,0.319523,0.350388,0.003328,-0.0,-0.053194,0.207268,-2e-06,-0.000334,-0.001858,-0.002645,-0.121247,-0.000353,2.8e-05,-0.000317
328645,-8.1e-05,-0.000617,-0.133051,0.087266,-0.0,-0.0,3.0,0.330526,0.298711,0.321591,0.350671,0.007475,-0.0,-0.053201,0.19598,-4e-06,-0.000334,-0.001866,-0.002644,-0.121254,-0.000363,4e-05,-0.000316
328665,0.000528,-0.000577,-0.133051,0.087266,-0.0,-0.0,3.0,0.333796,0.298815,0.318149,0.350588,0.011193,-0.0,-0.053207,0.172464,-5e-06,-0.000334,-0.001798,-0.002643,-0.12126,0.003587,5.5e-05,-0.000316
328685,0.00138,-0.00052,-0.133172,0.087266,-0.0,-0.0,3.0,0.332367,0.299318,0.319666,0.350182,0.014567,-0.0,-0.053214,0.16486,-7e-06,-0.000334,-0.001602,-0.002641,-0.121266,0.015763,7.4e-05,-0.000327
328705,0.002834,-0.0003,-0.133292,0.087266,-0.0,-0.0,3.0,0.332114,0.300238,0.319932,0.349437,0.017843,-0.0,-0.053221,0.161969,-8e-06,-0.000334,-0.001185,-0.002639,-0.121273,0.02981,0.000108,-0.000338
328725,0.004897,-4e-05,-0.133532,0.087266,-0.0,-0.0,3.0,0.331582,0.301565,0.320491,0.348351,0.021053,-0.0,-0.053227,0.157617,-9e-06,-0.000334,-0.000489,-0.002637,-0.12128,0.046797,0.000133,-0.000362
328745,0.007803,0.000401,-0.133892,0.087266,-0.0,-0.0,3.0,0.328172,0.303491,0.324011,0.346757,0.024166,-0.0,-0.053234,0.152443,-1e-05,-0.000334,0.00057,-0.002634,-0.121287,0.068588,0.000187,-0.000385
328765,0.011092,0.000623,-0.134274,0.087266,-0.0,-0.0,3.0,0.328727,0.30584,0.323444,0.34478,0.027177,-0.0,-0.053241,0.147484,-1.1e-05,-0.000334,0.00208,-0.00263,-0.121295,0.089539,0.000208,-0.000423
328785,0.015111,0.000897,-0.13475,0.087266,-0.0,-0.0,3.0,0.327652,0.308584,0.324538,0.342423,0.030092,-0.0,-0.053247,0.14282,-1.2e-05,-0.000334,0.004064,-0.002626,-0.121304,0.115657,0.000234,-0.000469
328805,0.01974,0.001216,-0.135366,0.087266,-0.0,-0.0,3.0,0.328835,0.311628,0.323334,0.339749,0.032914,-0.0,-0.053254,0.138301,-1.3e-05,-0.000334,0.006575,-0.002622,-0.121314,0.141351,0.000251,-0.000518
328825,0.024985,0.001458,-0.136098,0.087266,-0.0,-0.0,3.0,0.330179,0.315034,0.321951,0.336678,0.035647,-0.0,-0.053261,0.133888,-1.4e-05,-0.000334,0.009637,-0.002617,-0.121325,0.171256,0.000263,-0.000588
328845,0.030604,0.001606,-0.1367,0.087266,-0.0,-0.0,3.0,0.329349,0.318357,0.322807,0.333602,0.038292,-0.0,-0.053267,0.129592,-1.5e-05,-0.000334,0.013252,-0.002611,-0.121337,0.198383,0.000301,-0.000659
328865,0.036954,0.001809,-0.137414,0.087266,-0.0,-0.0,3.0,0.329275,0.321816,0.322883,0.33031,0.040853,-0.0,-0.053274,0.12542,-1.5e-05,-0.000334,0.0174,-0.002605,-0.121351,0.226797,0.00032,-0.000732
328885,0.043662,0.002165,-0.138145,0.087266,-0.0,-0.0,3.0,0.326251,0.325262,0.325949,0.326935,0.04333,-1e-06,-0.053281,0.121366,-1.6e-05,-0.000334,0.022092,-0.002598,-0.121366,0.249187,0.000364,-0.000802
328905,0.050489,0.002533,-0.138844,0.087266,-0.0,-0.0,3.0,0.325275,0.328441,0.326923,0.323737,0.045728,-1e-06,-0.053288,0.117426,-1.7e-05,-0.000334,0.027238,-0.002592,-0.121382,0.270625,0.000387,-0.000872
328925,0.057293,0.003276,-0.139691,0.087266,-0.0,-0.0,3.0,0.325526,0.331495,0.326673,0.320581,0.048048,-1e-06,-0.053294,0.113597,-1.8e-05,-0.000334,0.0328,-0.002584,-0.1214,0.289599,0.000425,-0.000942
328945,0.064357,0.00379,-0.140282,0.087266,-0.0,-0.0,3.0,0.325115,0.334366,0.327082,0.317539,0.050292,-1e-06,-0.053301,0.109876,-1.8e-05,-0.000334,0.03871,-0.002575,-0.12142,0.305354,0.000476,-0.001012
328965,0.071277,0.00467,-0.141026,0.087266,-0.0,-0.0,3.0,0.32348,0.336794,0.328692,0.314908,0.052462,-1e-06,-0.053308,0.106261,-1.9e-05,-0.000334,0.044887,-0.002565,-0.12144,0.313902,0.000549,-0.001081
328985,0.078079,0.005423,-0.141736,0.087266,-0.0,-0.0,3.0,0.326961,0.338953,0.325237,0.312519,0.05456,-1e-06,-0.053314,0.102748,-1.9e-05,-0.000334,0.051231,-0.002554,-0.121462,0.321998,0.000612,-0.001152
329005,0.084633,0.006287,-0.142475,0.087266,-0.0,-0.0,3.0,0.327194,0.34078,0.325001,0.310462,0.05659,-1e-06,-0.053321,0.099335,-2e-05,-0.000334,0.057686,-0.00254,-0.121486,0.32496,0.000697,-0.001209
329025,0.090945,0.007132,-0.143093,0.087266,-0.0,-0.0,3.0,0.325146,0.342163,0.327051,0.308883,0.058551,-1e-06,-0.053328,0.096019,-2e-05,-0.000334,0.064154,-0.002525,-0.121511,0.322584,0.000805,-0.001269
329045,0.096651,0.007809,-0.143563,0.087266,-0.0,-0.0,3.0,0.326145,0.343293,0.326056,0.307578,0.060447,-1e-06,-0.053334,0.092797,-2.1e-05,-0.000334,0.070573,-0.002508,-0.121537,0.314455,0.000885,-0.001341
329065,0.101849,0.008825,-0.144202,0.087266,-0.0,-0.0,3.0,0.323768,0.34381,0.32841,0.306976,0.06228,-1e-06,-0.053341,0.089668,-2.2e-05,-0.000334,0.076797,-0.00249,-0.121564,0.302033,0.000985,-0.001387
329085,0.106443,0.009671,-0.144695,0.087266,-0.0,-0.0,3.0,0.323495,0.343847,0.328678,0.306933,0.06405,-1e-06,-0.053348,0.086628,-2.2e-05,-0.000334,0.082737,-0.00247,-0.121592,0.286978,0.001069,-0.001434
329105,0.110298,0.010582,-0.145085,0.087266,-0.0,-0.0,3.0,0.319515,0.343507,0.33251,0.30733,0.06576,-1e-06,-0.053355,0.083675,-2.2e-05,-0.000334,0.088326,-0.002448,-0.121621,0.268242,0.001173,-0.001484
329125,0.113553,0.011335,-0.145597,0.087266,-0.0,-0.0,3.0,0.322391,0.342518,0.329753,0.308475,0.067412,-1e-06,-0.053361,0.080807,-2.3e-05,-0.000334,0.093468,-0.002424,-0.12165,0.240989,0.00122,-0.001517
329145,0.115951,0.012019,-0.145975,0.087266,-0.0,-0.0,3.0,0.324087,0.341337,0.328096,0.309829,0.069007,-1e-06,-0.053368,0.078022,-2.3e-05,-0.000334,0.098107,-0.0024,-0.121681,0.210619,0.001274,-0.001554
329165,0.117657,0.012158,-0.146216,0.087266,-0.0,-0.0,3.0,0.326697,0.339869,0.325502,0.311493,0.070547,-1e-06,-0.053375,0.075317,-2.4e-05,-0.000334,0.102173,-0.002374,-0.121712,0.183235,0.001301,-0.001587
329185,0.118651,0.012009,-0.146574,0.087266,-0.0,-0.0,3.0,0.329364,0.338162,0.322792,0.3134,0.072034,-1e-06,-0.053381,0.07269,-2.4e-05,-0.000334,0.105661,-0.002347,-0.121744,0.155708,0.001299,-0.001619
329205,0.119142,0.011944,-0.146919,0.087266,-0.0,-0.0,3.0,0.331337,0.336028,0.320747,0.315744,0.073469,-1e-06,-0.053388,0.070139,-2.5e-05,-0.000334,0.108526,-0.002321,-0.121777,0.126762,0.001279,-0.001637
329225,0.119176,0.011472,-0.147131,0.087266,-0.0,-0.0,3.0,0.330212,0.333747,0.321917,0.318201,0.074853,-1e-06,-0.053395,0.067662,-2.5e-05,-0.000334,0.110773,-0.002295,-0.12181,0.097916,0.001267,-0.001672
329245,0.119301,0.011504,-0.147516,0.087266,-0.0,-0.0,3.0,0.326772,0.331566,0.325426,0.320507,0.076188,-1e-06,-0.053401,0.065257,-2.5e-05,-0.000334,0.112446,-0.00227,-0.121843,0.071727,0.001264,-0.001693
329265,0.118916,0.011735,-0.147777,0.087266,-0.0,-0.0,3.0,0.326221,0.329803,0.325979,0.32234,0.077475,-1e-06,-0.053408,0.062922,-2.6e-05,-0.000334,0.113667,-0.002245,-0.121877,0.046501,0.001271,-0.001713
329285,0.118392,0.012077,-0.14802,0.087266,-0.0,-0.0,3.0,0.324808,0.328423,0.327386,0.323755,0.078717,-1e-06,-0.053415,0.060655,-2.6e-05,-0.000334,0.114497,-0.00222,-0.121912,0.029921,0.001291,-0.001735
329305,0.118008,0.0123,-0.148161,0.087266,-0.0,-0.0,3.0,0.325257,0.327569,0.32694,0.324622,0.079913,-1e-06,-0.053422,0.058455,-2.7e-05,-0.000334,0.115058,-0.002194,-0.121947,0.018653,0.001313,-0.001758
329325,0.118125,0.012446,-0.148433,0.087266,-0.0,-0.0,3.0,0.324846,0.327114,0.327348,0.325082,0.081066,-1e-06,-0.053428,0.056319,-2.7e-05,-0.000334,0.115429,-0.002168,-0.121982,0.013549,0.001323,-0.00177
329345,0.118367,0.012471,-0.148549,0.087266,-0.0,-0.0,3.0,0.326109,0.327187,0.326092,0.325008,0.082177,-1e-06,-0.053435,0.054247,-2.7e-05,-0.000334,0.115738,-0.002141,-0.122018,0.014267,0.001325,-0.001789
329365,0.119103,0.012418,-0.148771,0.087266,-0.0,-0.0,3.0,0.329016,0.32758,0.323148,0.324611,0.083247,-1e-06,-0.053442,0.052235,-2.8e-05,-0.000334,0.116055,-0.002115,-0.122054,0.021896,0.001293,-0.001806
329385,0.119987,0.012125,-0.148883,0.087266,-0.0,-0.0,3.0,0.329436,0.328224,0.322718,0.323957,0.084276,-1e-06,-0.053448,0.050282,-2.8e-05,-0.000334,0.116468,-0.002089,-0.12209,0.028203,0.001274,-0.001815
329405,0.121357,0.011868,-0.148986,0.087266,-0.0,-0.0,3.0,0.32968,0.328933,0.322466,0.323234,0.085268,-1e-06,-0.053455,0.048388,-2.8e-05,-0.000334,0.116985,-0.002064,-0.122126,0.032979,0.001254,-0.00182
329425,0.12257,0.011965,-0.149086,0.087266,-0.0,-0.0,3.0,0.329853,0.329931,0.322287,0.322207,0.086222,-1e-06,-0.053462,0.04655,-2.8e-05,-0.000334,0.117658,-0.002039,-0.122162,0.038932,0.001248,-0.001829
329445,0.123661,0.012176,-0.149222,0.087266,-0.0,-0.0,3.0,0.32723,0.330821,0.324966,0.321285,0.087139,-1e-06,-0.053469,0.044766,-2.9e-05,-0.000334,0.118458,-0.002013,-0.122199,0.041112,0.001278,-0.00184
329465,0.124985,0.012527,-0.149361,0.087266,-0.0,-0.0,3.0,0.324932,0.331852,0.327263,0.320207,0.088021,-1e-06,-0.053475,0.043036,-2.9e-05,-0.000334,0.11937,-0.001987,-0.122236,0.046513,0.001322,-0.001848
329485,0.126171,0.01299,-0.149483,0.087266,-0.0,-0.0,3.0,0.323822,0.332917,0.328357,0.319084,0.08887,-1e-06,-0.053482,0.041357,-2.9e-05,-0.000334,0.120408,-0.001961,-0.122273,0.052078,0.001356,-0.001858
329505,0.127495,0.013341,-0.149623,0.087266,-0.0,-0.0,3.0,0.323319,0.333811,0.32885,0.318133,0.089684,-1e-06,-0.053489,0.039729,-3e-05,-0.000334,0.121525,-0.001934,-0.12231,0.058347,0.001378,-0.001867
329525,0.128959,0.013458,-0.149745,0.087266,-0.0,-0.0,3.0,0.323725,0.334604,0.328452,0.317284,0.090467,-1e-06,-0.053495,0.03815,-3e-05,-0.000334,0.122715,-0.001906,-0.122347,0.061956,0.001399,-0.001876
329545,0.130431,0.013462,-0.149979,0.087266,-0.0,-0.0,3.0,0.32638,0.335153,0.32582,0.316693,0.091218,-1e-06,-0.053502,0.036618,-3e-05,-0.000334,0.123932,-0.001878,-0.122385,0.063896,0.001384,-0.001895
329565,0.131547,0.013318,-0.150211,0.087266,-0.0,-0.0,3.0,0.32768,0.335473,0.32451,0.316346,0.09194,-1e-06,-0.053509,0.035133,-3e-05,-0.000334,0.125156,-0.001851,-0.122423,0.060564,0.001377,-0.001901
329585,0.132535,0.013164,-0.150417,0.087266,-0.0,-0.0,3.0,0.329394,0.335672,0.32276,0.316131,0.092631,-1e-06,-0.053516,0.033693,-3e-05,-0.000334,0.126328,-0.001823,-0.122461,0.058153,0.001359,-0.00192
329605,0.133278,0.013114,-0.150663,0.087266,-0.0,-0.0,3.0,0.327919,0.335931,0.324267,0.31585,0.093295,-1e-06,-0.053522,0.032297,-3.1e-05,-0.000334,0.12747,-0.001796,-0.1225,0.052587,0.001363,-0.001942
329625,0.133761,0.013167,-0.150894,0.087266,-0.0,-0.0,3.0,0.326048,0.335967,0.326152,0.31581,0.09393,-1e-06,-0.053529,0.030943,-3.1e-05,-0.000334,0.12852,-0.001768,-0.122539,0.044718,0.001378,-0.001962
329645,0.133878,0.013315,-0.151167,0.087266,-0.0,-0.0,3.0,0.326222,0.335758,0.325978,0.316037,0.094539,-1e-06,-0.053536,0.029631,-3.1e-05,-0.000334,0.129424,-0.001741,-0.122578,0.037432,0.001367,-0.001981
329665,0.133978,0.013583,-0.151421,0.087266,-0.0,-0.0,3.0,0.322827,0.335421,0.32933,0.316403,0.095122,-1e-06,-0.053542,0.028359,-3.1e-05,-0.000334,0.130157,-0.001714,-0.122618,0.033854,0.001395,-0.002016
329685,0.134095,0.013616,-0.151779,0.087266,-0.0,-0.0,3.0,0.324905,0.335111,0.32729,0.316738,0.09568,-1e-06,-0.053549,0.027126,-3.1e-05,-0.000334,0.130756,-0.001686,-0.122658,0.027418,0.001383,-0.002035
329705,0.134223,0.01352,-0.152009,0.087266,-0.0,-0.0,3.0,0.326143,0.334744,0.326057,0.317134,0.096214,-1e-06,-0.053556,0.025931,-3.2e-05,-0.000334,0.131214,-0.001659,-0.122699,0.019602,0.001368,-0.002054
329725,0.133987,0.013397,-0.152246,0.087266,-0.0,-0.0,3.0,0.330576,0.334298,0.321539,0.317613,0.096724,-1e-06,-0.053563,0.024774,-3.2e-05,-0.000334,0.131526,-0.001631,-0.122741,0.012227,0.001342,-0.002085
329745,0.133758,0.01316,-0.152594,0.087266,-0.0,-0.0,3.0,0.32992,0.334033,0.322219,0.317896,0.097211,-1e-06,-0.053569,0.023652,-3.2e-05,-0.000334,0.131718,-0.001604,-0.122782,0.00791,0.00134,-0.002105
329765,0.133904,0.012944,-0.152843,0.087266,-0.0,-0.0,3.0,0.329913,0.333912,0.322226,0.318025,0.097676,-1e-06,-0.053576,0.022566,-3.2e-05,-0.000334,0.131826,-0.001577,-0.122825,0.004742,0.001338,-0.002125
329785,0.134013,0.01309,-0.153089,0.087266,-0.0,-0.0,3.0,0.326602,0.334224,0.325598,0.317691,0.098119,-1e-06,-0.053583,0.021513,-3.2e-05,-0.000334,0.131935,-0.00155,-0.122868,0.004826,0.001351,-0.00216
329805,0.13412,0.013245,-0.153455,0.087266,-0.0,-0.0,3.0,0.324074,0.334393,0.328109,0.317511,0.098541,-0.0,-0.053589,0.020494,-3.2e-05,-0.000334,0.132031,-0.001523,-0.122911,0.005,0.001363,-0.00218
329825,0.134351,0.013402,-0.153699,0.087266,-0.0,-0.0,3.0,0.323144,0.334778,0.329021,0.317097,0.098944,-0.0,-0.053596,0.019507,-3.2e-05,-0.000334,0.132149,-0.001497,-0.122955,0.006667,0.001364,-0.0022
329845,0.134589,0.013559,-0.15397,0.087266,-0.0,-0.0,3.0,0.323984,0.335227,0.328198,0.316612,0.099327,-0.0,-0.053603,0.018551,-3.3e-05,-0.000334,0.132304,-0.00147,-0.122999,0.007935,0.001365,-0.002221
329865,0.134709,0.013577,-0.154088,0.087266,-0.0,-0.0,3.0,0.32647,0.335611,0.32573,0.316197,0.099691,-0.0,-0.05361,0.017626,-3.3e-05,-0.000334,0.132488,-0.001443,-0.123043,0.008836,0.001353,-0.00224
329885,0.134959,0.01349,-0.154315,0.087266,-0.0,-0.0,3.0,0.327983,0.335934,0.324202,0.315847,0.100037,-0.0,-0.053616,0.01673,-3.3e-05,-0.000334,0.132679,-0.001415,-0.123088,0.009657,0.001341,-0.002246
329905,0.135098,0.013265,-0.154416,0.087266,-0.0,-0.0,3.0,0.329584,0.336199,0.322565,0.315558,0.100365,-0.0,-0.053623,0.015863,-3.3e-05,-0.000334,0.132875,-0.001388,-0.123133,0.008725,0.001329,-0.002264
