time_ms,roll,pitch,yaw,reference_roll,reference_pitch,reference_yaw,reference_throttle,throttle_1,throttle_2,throttle_3,throttle_4,roll_predicted,pitch_predicted,yaw_predicted,roll_rate_predicted,pitch_rate_predicted,yaw_rate_predicted,value1,value2,value3,value4,value5,value6
102283,0.000198,0.000987,-0.093056,-0.0,-0.0,-0.0,3.0,0.3261,0.321493,0.3261,0.330621,-0.0,-483.544916,-0.0,0.0,-6.88018,-0.0,-0.000281,-0.002643,-0.080113,-0.096161,3e-06,-0.000512
102303,7.7e-05,0.000981,-0.093056,2.4e-05,-0.0,-0.0,3.0,0.3261,0.324409,0.3261,0.327779,0.0,-483.682127,-0.0,2.8e-05,-6.834047,0.0,-0.000299,-0.002644,-0.080123,-0.06697,-2.1e-05,-0.000511
102323,8.2e-05,0.000859,-0.093056,0.002166,-0.0,-0.0,3.0,0.3261,0.320638,0.3261,0.331441,7e-06,-483.81864,-0.0,0.002527,-6.818056,1e-06,-0.000529,-0.002644,-0.080133,0.025116,-3.2e-05,-0.000522
102343,-2.8e-05,0.00061,-0.093177,0.00315,-0.0,-0.0,3.0,0.3261,0.315466,0.3261,0.336283,8.7e-05,-483.955062,-4e-06,0.006276,-6.832403,9e-06,-0.000885,-0.002645,-0.080144,0.047827,-4.5e-05,-0.000533
102363,9.4e-05,0.000615,-0.093177,0.005506,-0.0,-0.0,3.0,0.3261,0.310101,0.3261,0.341098,0.000235,-484.091996,-2.3e-05,0.009909,-6.87685,2.3e-05,-0.001358,-0.002646,-0.080154,0.092914,-5.8e-05,-0.000532
102383,-0.00015,0.000604,-0.093299,0.007143,-0.0,-0.0,3.0,0.3261,0.30693,0.3261,0.34385,0.000478,-484.230042,-6.9e-05,0.013955,-6.950724,4.6e-05,-0.001602,-0.002647,-0.080165,0.068507,-4.8e-05,-0.000531
102403,-0.0004,0.000715,-0.09342,0.008228,-0.0,-0.0,3.0,0.3261,0.304502,0.3261,0.34591,0.000819,-484.36978,-0.000163,0.016395,-7.052896,7.7e-05,-0.001837,-0.002648,-0.080175,0.01979,-5e-05,-0.000542
102423,-0.000655,0.000947,-0.09342,0.010758,-0.0,-0.0,3.0,0.3261,0.305249,0.3261,0.345281,0.001258,-484.511764,-0.000331,0.01949,-7.18175,0.000112,-0.001843,-0.002649,-0.080186,-0.028204,-2.6e-05,-0.000541
102443,-0.000899,0.000936,-0.09342,0.012651,-0.0,-0.0,3.0,0.3261,0.309317,0.3261,0.341785,0.001878,-484.656513,-0.000624,0.023531,-7.335136,0.000157,-0.001735,-0.002649,-0.080197,-0.072329,-2.7e-05,-0.00054
102463,-0.000899,0.000936,-0.093298,0.014461,-0.0,-0.0,3.0,0.3261,0.310742,0.3261,0.340534,0.002783,-484.804498,-0.00115,0.02629,-7.510327,0.00021,-0.001614,-0.00265,-0.080208,-0.047663,-3.8e-05,-0.000538
102483,-0.000766,0.000697,-0.093298,0.015352,-0.0,-0.0,3.0,0.3261,0.312232,0.3261,0.33921,0.004199,-484.95613,-0.00216,0.02688,-7.703969,0.00027,-0.001507,-0.00265,-0.080218,-0.04369,-5e-05,-0.000525
102503,-0.000505,0.000343,-0.09342,0.017231,-0.0,-0.0,3.0,0.3261,0.313095,0.3261,0.338437,0.006853,-485.111749,-0.004427,0.02594,-7.912049,0.00033,-0.001388,-0.002651,-0.080229,-0.017392,-7.3e-05,-0.000524
102523,-0.000255,0.000232,-0.09342,0.01859,-0.0,-0.0,3.0,0.3261,0.310988,0.3261,0.340317,0.014954,-485.271605,-0.012177,0.02081,-8.129884,0.000388,-0.001267,-0.002652,-0.080239,0.053089,-7e-05,-0.000523
102543,0.000238,0.000133,-0.09342,0.020826,-0.0,-0.0,3.0,0.3261,0.306978,0.3261,0.343809,-0.121084,-485.43564,0.124051,-0.049292,-8.352145,0.000415,-0.001015,-0.002653,-0.08025,0.0738,-5.6e-05,-0.000522
102563,0.000958,0.000411,-0.09342,0.021898,-0.0,-0.0,3.0,0.3261,0.309573,0.3261,0.341561,-0.011075,-485.603998,0.014255,0.096897,-8.572943,-0.000419,-0.000408,-0.002654,-0.08026,0.000794,-1.8e-05,-0.000521
102583,0.001313,0.000672,-0.09342,0.023728,-0.0,-0.0,3.0,0.3261,0.31007,0.3261,0.341126,-0.00426,-485.777065,0.009187,0.084591,-8.785939,-0.000173,0.000197,-0.002655,-0.080271,-0.047471,8e-06,-0.000532
102603,0.001667,0.000933,-0.093542,0.026292,-0.0,-0.0,3.0,0.3261,0.310625,0.3261,0.340637,-0.001642,-485.954301,0.007921,0.062074,-8.984537,2e-05,0.000806,-0.002655,-0.080282,-0.02285,-1e-06,-0.000531
102623,0.002277,0.000962,-0.093542,0.028039,-0.0,-0.0,3.0,0.3261,0.309258,0.3261,0.341836,-0.000168,-486.135361,0.007593,0.06101,-9.162157,0.000181,0.00131,-0.002656,-0.080292,0.021091,2e-06,-0.000542
102643,0.003014,0.000875,-0.093681,0.02891,-0.0,-0.0,3.0,0.3261,0.3116,0.3261,0.339773,0.001039,-486.319779,0.007657,0.064265,-9.312547,0.00035,0.001916,-0.002656,-0.080303,0.023876,-1.9e-05,-0.000555
102663,0.003874,0.000793,-0.093802,0.030629,-0.0,-0.0,3.0,0.3261,0.314182,0.3261,0.337455,0.002168,-486.506967,0.007969,0.065527,-9.430129,0.000528,0.002761,-0.002657,-0.080314,0.003302,-2.8e-05,-0.000554
102683,0.004855,0.000717,-0.093801,0.032419,-0.0,-0.0,3.0,0.3261,0.309641,0.3261,0.341502,0.003303,-486.696232,0.008482,0.066967,-9.510352,0.000711,0.003253,-0.002658,-0.080326,0.120924,-3.5e-05,-0.000565
102703,0.005952,0.000769,-0.093923,0.034227,-0.0,-0.0,3.0,0.3261,0.306893,0.3261,0.343881,0.004527,-486.8868,0.009193,0.068642,-9.549997,0.0009,0.004115,-0.002658,-0.080337,0.141457,-1.8e-05,-0.000576
102723,0.007055,0.000698,-0.093922,0.035897,-0.0,-0.0,3.0,0.3261,0.305089,0.3261,0.345416,0.005922,-487.077845,0.010137,0.069921,-9.54742,0.001094,0.005096,-0.002659,-0.080349,0.094738,-2.6e-05,-0.000587
102743,0.008147,0.000872,-0.094043,0.036813,-0.0,-0.0,3.0,0.3261,0.308567,0.3261,0.342438,0.007575,-487.268519,0.011385,0.069658,-9.502681,0.00129,0.006317,-0.00266,-0.08036,0.047392,-2.2e-05,-0.000598
102763,0.009372,0.000809,-0.094285,0.039138,-0.0,-0.0,3.0,0.3261,0.309434,0.3261,0.341683,0.009607,-487.457989,0.013063,0.069417,-9.417546,0.001482,0.007668,-0.00266,-0.080372,0.071174,-3.9e-05,-0.000608
102783,0.010969,0.00064,-0.094403,0.040741,-0.0,-0.0,3.0,0.3261,0.308796,0.3261,0.342239,0.012287,-487.645468,0.015403,0.069154,-9.295364,0.001673,0.009025,-0.002661,-0.080385,0.093779,-5.6e-05,-0.000619
102803,0.01256,0.000595,-0.094644,0.042376,-0.0,-0.0,3.0,0.3261,0.311188,0.3261,0.340139,0.016072,-487.830246,0.018871,0.066344,-9.140836,0.001858,0.010739,-0.002662,-0.080397,0.071305,-7.3e-05,-0.00063
102823,0.014272,0.000555,-0.094762,0.043182,-0.0,-0.0,3.0,0.3261,0.311457,0.3261,0.339901,0.02197,-488.011711,0.024517,0.059265,-8.959695,0.002029,0.01233,-0.002664,-0.08041,0.09476,-7.7e-05,-0.00064
102843,0.016114,0.000398,-0.094896,0.044763,-0.0,-0.0,3.0,0.3261,0.315048,0.3261,0.336665,0.032856,-488.189365,0.035298,0.045575,-8.758358,0.002172,0.014272,-0.002665,-0.080423,0.052944,-0.000105,-0.000663
102863,0.017838,0.000116,-0.095133,0.046387,-0.0,-0.0,3.0,0.3261,0.315354,0.3261,0.336386,0.061606,-488.362789,0.06423,0.014745,-8.543561,0.002265,0.016113,-0.002667,-0.080436,0.052992,-0.000121,-0.000675
102883,0.019673,8.2e-05,-0.095249,0.047577,-0.0,-0.0,3.0,0.3261,0.316698,0.3261,0.335148,0.428342,-488.530931,0.43195,-0.118743,-8.322035,0.001731,0.017937,-0.002669,-0.08045,0.053851,-0.000112,-0.000685
102903,0.021507,4.9e-05,-0.095365,0.049275,-0.0,-0.0,3.0,0.3261,0.314986,0.3261,0.336723,-0.080955,-488.675562,-0.075388,0.271811,-8.100006,-0.02794,0.019643,-0.00267,-0.080464,0.10094,-0.000102,-0.000707
102923,0.023464,2.1e-05,-0.095479,0.050238,-0.0,-0.0,3.0,0.3261,0.314389,0.3261,0.337266,-0.031724,-488.835676,-0.031562,0.298959,-7.883082,-0.027443,0.021477,-0.002672,-0.080478,0.123419,-9.2e-05,-0.000718
102943,0.025544,-1e-06,-0.095489,0.051692,-0.0,-0.0,3.0,0.3261,0.31361,0.3261,0.337972,-0.017736,-488.99173,-0.021894,0.173867,-7.676419,-0.026873,0.023301,-0.002673,-0.080492,0.123343,-7.1e-05,-0.000716
102963,0.027257,-4.2e-05,-0.095482,0.053876,-0.0,-0.0,3.0,0.3261,0.313407,0.3261,0.338155,-0.011603,-489.143784,-0.018339,0.135705,-7.484731,-0.026531,0.02527,-0.002675,-0.080506,0.074215,-7.5e-05,-0.000715
102983,0.02897,-8.2e-05,-0.095475,0.055348,-0.0,-0.0,3.0,0.3261,0.313167,0.3261,0.338372,-0.007645,-489.292149,-0.016793,0.142804,-7.312113,-0.026231,0.02711,-0.002677,-0.080521,0.096775,-7.8e-05,-0.000713
103003,0.030926,-0.000111,-0.095466,0.056071,-0.0,-0.0,3.0,0.3261,0.316912,0.3261,0.33495,-0.00437,-489.437228,-0.016237,0.14566,-7.161919,-0.025923,0.029327,-0.002679,-0.080535,0.071262,-9.2e-05,-0.000699
103023,0.033121,-4e-06,-0.095579,0.057463,-0.0,-0.0,3.0,0.3261,0.321705,0.3261,0.330417,-0.001511,-489.579488,-0.016294,0.142442,-7.036816,-0.025621,0.031635,-0.002681,-0.080549,0.027057,-9.4e-05,-0.000708
103043,0.035323,-2.1e-05,-0.095585,0.058856,-0.0,-0.0,3.0,0.3261,0.325519,0.3261,0.32668,0.001106,-489.719446,-0.016779,0.140352,-6.938871,-0.02533,0.033819,-0.002683,-0.080564,0.054061,-9.5e-05,-0.00072
103063,0.037645,-2.9e-05,-0.095694,0.059997,-0.0,-0.0,3.0,0.3261,0.324347,0.3261,0.327841,0.003647,-489.857657,-0.017609,0.139319,-6.8696,-0.025046,0.035781,-0.002685,-0.080578,0.147818,-0.000107,-0.000729
103083,0.040329,0.000104,-0.095942,0.061746,-0.0,-0.0,3.0,0.3261,0.321534,0.3261,0.330581,0.006223,-489.994701,-0.018758,0.138766,-6.830014,-0.024766,0.037857,-0.002687,-0.080593,0.241343,-9.4e-05,-0.000752
103103,0.042895,0.000108,-0.096048,0.062901,-0.0,-0.0,3.0,0.3261,0.319669,0.3261,0.332364,0.008932,-490.131177,-0.020239,0.137941,-6.820654,-0.024488,0.040187,-0.002689,-0.080608,0.19306,-9.6e-05,-0.000762
103123,0.045336,0.000228,-0.096175,0.06359,-0.0,-0.0,3.0,0.3261,0.317201,0.3261,0.334681,0.011852,-490.267688,-0.022103,0.135397,-6.841623,-0.024213,0.042396,-0.002691,-0.080623,0.166006,-7.3e-05,-0.000773
103143,0.047536,0.000215,-0.096281,0.065322,-0.0,-0.0,3.0,0.3261,0.315076,0.3261,0.33664,0.015073,-490.404838,-0.024438,0.132809,-6.892587,-0.023942,0.044734,-0.002693,-0.080639,0.141644,-9.9e-05,-0.000782
103163,0.049617,0.000196,-0.096405,0.066535,-0.0,-0.0,3.0,0.3261,0.31628,0.3261,0.335535,0.018778,-490.54322,-0.02739,0.13016,-6.972776,-0.023674,0.047188,-0.002695,-0.080654,0.116298,-9.9e-05,-0.000791
103183,0.051816,0.000183,-0.09651,0.06713,-0.0,-0.0,3.0,0.3261,0.322209,0.3261,0.329929,0.023208,-490.683406,-0.031207,0.124848,-7.080956,-0.023409,0.049874,-0.002697,-0.08067,0.047913,-0.000112,-0.000801
103203,0.054031,-7.3e-05,-0.096626,0.068303,-0.0,-0.0,3.0,0.3261,0.326967,0.3261,0.32523,0.028742,-490.825937,-0.036313,0.117243,-7.215396,-0.023154,0.052429,-0.002699,-0.080686,0.029437,-0.000136,-0.000811
103223,0.056237,-0.000207,-0.096726,0.06959,-0.0,-0.0,3.0,0.3261,0.327165,0.3261,0.32503,0.036141,-490.971311,-0.043492,0.107411,-7.37382,-0.02291,0.054618,-0.002701,-0.080702,0.055959,-0.000149,-0.000819
103243,0.058452,-0.000463,-0.096839,0.070504,-0.0,-0.0,3.0,0.3261,0.329095,0.3261,0.323067,0.046995,-491.119967,-0.054384,0.091915,-7.553365,-0.022687,0.056812,-0.002704,-0.080719,0.081186,-0.000149,-0.000829
103263,0.060645,-0.000349,-0.097065,0.071361,-0.0,-0.0,3.0,0.3261,0.325832,0.3261,0.326368,0.06524,-491.272248,-0.073052,0.065136,-7.750527,-0.022501,0.05864,-0.002706,-0.080735,0.125822,-0.000114,-0.000839
103283,0.062489,-0.0005,-0.097182,0.071938,-0.0,-0.0,3.0,0.3261,0.32122,0.3261,0.330883,0.104275,-491.428313,-0.113159,0.012801,-7.961136,-0.022389,0.060364,-0.002709,-0.080752,0.146558,-0.000105,-0.00085
103303,0.064433,-0.000283,-0.097171,0.073536,-0.0,-0.0,3.0,0.3261,0.317625,0.3261,0.334286,0.25599,-491.587435,-0.267276,-0.127793,-8.180338,-0.022491,0.06197,-0.002711,-0.080769,0.141249,-8.4e-05,-0.000859
103323,0.065887,3.6e-05,-0.097306,0.07432,-0.0,-0.0,3.0,0.3261,0.319152,0.3261,0.332853,-6.234689,-491.699072,6.217652,-0.205247,-8.402543,-0.059166,0.063929,-0.002713,-0.080787,0.046333,-7.6e-05,-0.00087
103343,0.0671,0.000218,-0.0973,0.075312,-0.0,-0.0,3.0,0.3261,0.319642,0.3261,0.33239,-6.288593,-491.868733,6.277321,1.076649,-8.62483,-0.132458,0.065531,-0.002716,-0.080804,0.020747,-8.1e-05,-0.000867
103363,0.068195,0.000393,-0.097314,0.076228,-0.0,-0.0,3.0,0.3261,0.319054,0.3261,0.332946,-6.269374,-492.042891,6.289036,2.241771,-8.846772,-0.202563,0.066881,-0.002718,-0.080822,0.067629,-8.5e-05,-0.000878
103383,0.069547,0.000219,-0.097415,0.077114,-0.0,-0.0,3.0,0.3261,0.321411,0.3261,0.3307,-6.235052,-492.221292,6.309772,3.296463,-9.066203,-0.26962,0.068228,-0.00272,-0.080839,0.069876,-0.000115,-0.000874
103403,0.071137,0.000175,-0.097398,0.078027,-0.0,-0.0,3.0,0.3261,0.322264,0.3261,0.329876,-6.186057,-492.403435,6.33988,4.245289,-9.279941,-0.333778,0.069551,-0.002722,-0.080856,0.050769,-0.000121,-0.00087
103423,0.072505,-0.000247,-0.097386,0.078704,-0.0,-0.0,3.0,0.3261,0.32174,0.3261,0.330382,-6.122304,-492.588351,6.380358,5.091532,-9.484266,-0.395206,0.070764,-0.002724,-0.080874,0.05614,-0.000151,-0.000868
103443,0.073729,-0.000305,-0.097492,0.078704,-0.0,-0.0,3.0,0.3261,0.319205,0.3261,0.332803,-6.042941,-492.77445,6.432862,5.83788,-9.675471,-0.454092,0.071986,-0.002726,-0.080891,0.101297,-0.000132,-0.000865
103463,0.07497,-0.00061,-0.097485,0.080102,-0.0,-0.0,3.0,0.3261,0.317768,0.3261,0.334153,-5.946147,-492.959311,6.499869,6.487167,-9.850481,-0.510653,0.07322,-0.002728,-0.080908,0.099011,-0.000125,-0.000876
103483,0.076414,-0.000169,-0.097606,0.080731,-0.0,-0.0,3.0,0.3261,0.321982,0.3261,0.330149,-5.828904,-493.139396,6.584893,7.043075,-10.00746,-0.565123,0.074794,-0.00273,-0.080926,0.027217,-8.2e-05,-0.000887
103503,0.077637,-0.000104,-0.097734,0.081144,-0.0,-0.0,3.0,0.3261,0.323774,0.3261,0.328404,-5.686836,-493.30964,6.692646,7.510722,-10.146367,-0.617752,0.076257,-0.002732,-0.080944,0.003558,-7.5e-05,-0.000884
103523,0.078965,0.00021,-0.097852,0.082085,-0.0,-0.0,3.0,0.3261,0.32363,0.3261,0.328545,-5.514412,-493.462901,6.828821,7.89704,-10.269348,-0.668791,0.077492,-0.002734,-0.080962,0.071573,-6.7e-05,-0.000895
103543,0.080432,0.000287,-0.097977,0.082697,-0.0,-0.0,3.0,0.3261,0.323987,0.3261,0.328195,-5.306261,-493.589442,6.998777,8.210858,-10.380923,-0.718477,0.078843,-0.002736,-0.08098,0.093984,-7.1e-05,-0.000903
103563,0.081772,0.000353,-0.097964,0.083264,-0.0,-0.0,3.0,0.3261,0.323653,0.3261,0.328523,-5.060767,-493.677063,7.20394,8.462673,-10.487926,-0.767017,0.080188,-0.002738,-0.080998,0.071713,-7.6e-05,-0.000914
103583,0.083123,0.000302,-0.098085,0.083534,-0.0,-0.0,3.0,0.3261,0.323418,0.3261,0.328753,-4.785801,-493.71316,7.436046,8.664175,-10.599236,-0.814576,0.081412,-0.00274,-0.081016,0.072835,-9.4e-05,-0.000922
103603,0.084608,-0.000108,-0.098171,0.084222,-0.0,-0.0,3.0,0.3261,0.322801,0.3261,0.329355,-4.501374,-493.689417,7.674406,8.827623,-10.725342,-0.861259,0.082777,-0.002741,-0.081035,0.095759,-0.000123,-0.000931
103623,0.085965,-0.00028,-0.098285,0.084582,-0.0,-0.0,3.0,0.3261,0.322367,0.3261,0.329777,-4.23167,-493.606283,7.893734,8.965123,-10.87772,-0.907112,0.08413,-0.002744,-0.081053,0.072205,-0.00014,-0.000939
103643,0.087189,-0.000336,-0.098388,0.084836,-0.0,-0.0,3.0,0.3261,0.323773,0.3261,0.328405,-3.991713,-493.472287,8.077287,9.062625,-11.067931,-0.950437,0.08547,-0.002746,-0.081072,0.074236,-0.000145,-0.000949
103663,0.088418,-0.000392,-0.098509,0.0854,-0.0,-0.0,3.0,0.3261,0.322086,0.3261,0.330048,-3.784852,-493.299019,8.221003,8.944417,-11.301836,-0.978516,0.086697,-0.002749,-0.081091,0.073591,-0.00015,-0.000957
103683,0.089636,-0.000326,-0.098616,0.085696,-0.0,-0.0,3.0,0.3261,0.322201,0.3261,0.329937,-3.60765,-493.097123,8.328394,8.709036,-11.57796,-0.996737,0.087909,-0.002751,-0.08111,0.050113,-0.00012,-0.000969
103703,0.090482,-0.000157,-0.098733,0.086047,-0.0,-0.0,3.0,0.3261,0.32252,0.3261,0.329628,-3.45094,-492.874534,8.404,8.461403,-11.89735,-1.011572,0.089,-0.002754,-0.08113,0.002947,-0.000103,-0.000967
103723,0.091219,-0.000115,-0.098864,0.086336,-0.0,-0.0,3.0,0.3261,0.324268,0.3261,0.327919,-3.302064,-492.636706,8.4487,8.232079,-12.260859,-1.025025,0.090096,-0.002756,-0.081149,0.002958,-8.5e-05,-0.000978
103743,0.09184,-0.000328,-0.098846,0.086585,-0.0,-0.0,3.0,0.3261,0.320938,0.3261,0.331153,-3.141765,-492.387939,8.454106,8.00982,-12.665803,-1.03658,0.090732,-0.002758,-0.081169,0.0235,-0.000105,-0.000974
103763,0.092942,-0.000395,-0.098828,0.086798,-0.0,-0.0,3.0,0.3261,0.327551,0.3261,0.324641,-2.925665,-492.134008,8.383971,7.75504,-13.104167,-1.043987,0.091827,-0.00276,-0.081189,0.001339,-0.000111,-0.000995
103783,0.093684,-0.000475,-0.098953,0.086919,-0.0,-0.0,3.0,0.3261,0.327722,0.3261,0.324468,-2.474851,-491.89322,8.065329,7.360655,-13.561115,-1.040561,0.092698,-0.002763,-0.081208,-0.021092,-0.000144,-0.000992
103803,0.094658,-0.000421,-0.099063,0.086919,-0.0,-0.0,3.0,0.3261,0.326404,0.3261,0.325796,-0.850498,-491.802804,6.562127,6.196086,-14.009508,-1.028105,0.093324,-0.002767,-0.081228,0.09623,-0.000173,-0.000999
103823,0.095766,-0.000482,-0.099183,0.087164,-0.0,-0.0,3.0,0.3261,0.323477,0.3261,0.328695,-0.166978,-492.058223,5.975728,3.999237,-14.40229,-1.079798,0.094058,-0.00277,-0.081248,0.142351,-0.000155,-0.00101
103843,0.096989,-0.000537,-0.099284,0.087224,-0.0,-0.0,3.0,0.3261,0.322744,0.3261,0.32941,-0.07241,-492.349083,5.943956,2.345504,-14.709999,-1.111446,0.094916,-0.002773,-0.081268,0.095575,-0.000164,-0.001019
103863,0.097957,-0.000238,-0.099423,0.087251,-0.0,-0.0,3.0,0.3261,0.322135,0.3261,0.330001,-0.036845,-492.645856,5.950991,1.657166,-14.934804,-1.106606,0.095883,-0.002776,-0.081289,0.071177,-0.000135,-0.001017
103883,0.098578,-0.000451,-0.099403,0.087257,-0.0,-0.0,3.0,0.3261,0.321208,0.3261,0.330895,-0.012258,-492.946313,5.966643,1.483247,-15.090761,-1.116843,0.096866,-0.002778,-0.081309,0.02486,-0.000142,-0.001027
103903,0.099309,-0.000409,-0.099515,0.087209,-0.0,-0.0,3.0,0.3261,0.322524,0.3261,0.329624,0.013214,-493.24896,5.988569,1.402521,-15.17969,-1.134211,0.097845,-0.002781,-0.08133,0.023975,-0.000137,-0.001036
103923,0.100063,-0.000731,-0.099627,0.087171,-0.0,-0.0,3.0,0.3261,0.327352,0.3261,0.324842,0.045021,-493.552152,6.01922,1.328893,-15.199777,-1.153123,0.099071,-0.002783,-0.08135,-0.046737,-0.000144,-0.001032
103943,0.101049,-0.00092,-0.099724,0.087066,-0.0,-0.0,3.0,0.3261,0.33289,0.3261,0.319113,0.090872,-493.853912,6.065468,1.241831,-15.153584,-1.172156,0.100172,-0.002787,-0.081371,-0.019688,-0.000174,-0.001041
103963,0.102035,-0.001108,-0.09982,0.086986,-0.0,-0.0,3.0,0.3261,0.334737,0.3261,0.317141,0.169527,-494.151434,6.1458,1.127118,-15.049232,-1.190208,0.101155,-0.00279,-0.081392,0.029005,-0.000191,-0.00105
103983,0.103271,-0.001284,-0.09993,0.086683,-0.0,-0.0,3.0,0.3261,0.334328,0.3261,0.31758,0.347637,-494.438402,6.326856,0.94586,-14.899099,-1.204399,0.102026,-0.002795,-0.081413,0.099199,-0.00022,-0.001069
104003,0.10461,-0.001075,-0.1003,0.08657,-0.0,-0.0,3.0,0.3261,0.331117,0.3261,0.320977,1.076998,-494.680485,7.0607,0.468612,-14.715924,-1.205696,0.102761,-0.002799,-0.081435,0.145005,-0.0002,-0.001104
104023,0.105827,-0.000994,-0.100647,0.086199,-0.0,-0.0,3.0,0.3261,0.326833,0.3261,0.325365,2.940458,-494.567801,8.936505,-1.18689,-14.491565,-1.263106,0.103631,-0.002803,-0.081457,0.165965,-0.000205,-0.001136
104043,0.106928,-0.000912,-0.101135,0.085977,-0.0,-0.0,3.0,0.3261,0.323956,0.3261,0.328225,2.97991,-494.279926,9.017248,-2.976979,-14.206011,-1.345004,0.104618,-0.002807,-0.08148,0.093078,-0.000188,-0.00116
104063,0.107798,-0.001092,-0.101491,0.085606,-0.0,-0.0,3.0,0.3261,0.328123,0.3261,0.32406,2.938646,-493.997765,9.054453,-4.350005,-13.87168,-1.412478,0.105964,-0.002811,-0.081503,-0.000924,-0.000193,-0.001204
104083,0.108419,-0.001285,-0.101833,0.085422,-0.0,-0.0,3.0,0.3261,0.333177,0.3261,0.318809,2.872663,-493.723591,9.097485,-4.88735,-13.527939,-1.43768,0.107318,-0.002815,-0.081528,-0.069327,-0.000222,-0.001248
104103,0.109052,-0.001592,-0.102307,0.085022,-0.0,-0.0,3.0,0.3261,0.335018,0.3261,0.316839,2.795596,-493.458751,9.152541,-4.866074,-13.21987,-1.464165,0.108316,-0.002819,-0.081553,-0.02231,-0.000249,-0.00128
104123,0.11005,-0.002002,-0.102751,0.08459,-0.0,-0.0,3.0,0.3261,0.338131,0.3261,0.313435,2.707875,-493.204018,9.222596,-4.766479,-12.966007,-1.496932,0.109298,-0.002825,-0.081579,0.026347,-0.000277,-0.00131
104143,0.111042,-0.002174,-0.103104,0.08432,-0.0,-0.0,3.0,0.3261,0.338073,0.3261,0.313499,2.602163,-492.960765,9.313626,-4.655487,-12.767519,-1.531764,0.109912,-0.00283,-0.081606,0.053571,-0.000306,-0.001355
104163,0.112034,-0.002339,-0.103579,0.083928,-0.0,-0.0,3.0,0.3261,0.33544,0.3261,0.316383,2.466426,-492.732187,9.436885,-4.519761,-12.62078,-1.569599,0.11041,-0.002836,-0.081633,0.100511,-0.000324,-0.001398
104183,0.112873,-0.002024,-0.104064,0.083344,-0.0,-0.0,3.0,0.3261,0.332364,0.3261,0.319668,2.280912,-492.525214,9.612159,-4.329036,-12.519835,-1.612468,0.111032,-0.002843,-0.081661,0.143375,-0.000291,-0.001445
104203,0.113494,-0.002093,-0.104429,0.082782,-0.0,-0.0,3.0,0.3261,0.327503,0.3261,0.324689,2.014674,-492.354243,9.871221,-4.041141,-12.457852,-1.663227,0.111536,-0.002848,-0.081691,0.091829,-0.000275,-0.001479
104223,0.113974,-0.001924,-0.104792,0.081872,-0.0,-0.0,3.0,0.3261,0.330442,0.3261,0.321678,1.637343,-492.24643,10.246323,-3.59984,-12.428856,-1.725788,0.112395,-0.002854,-0.08172,-0.001921,-0.00027,-0.001526
104243,0.114223,-0.002019,-0.105023,0.081175,-0.0,-0.0,3.0,0.3261,0.333353,0.3261,0.318621,1.185571,-492.236867,10.704128,-2.966252,-12.429383,-1.803117,0.113126,-0.002859,-0.081751,-0.049006,-0.000266,-0.001546
104263,0.114594,-0.002108,-0.105252,0.08083,-0.0,-0.0,3.0,0.3261,0.337727,0.3261,0.313881,0.797589,-492.332878,11.110172,-2.270369,-12.456499,-1.887002,0.113865,-0.002865,-0.081782,-0.070468,-0.000298,-0.001552
104283,0.1151,-0.002311,-0.105492,0.080112,-0.0,-0.0,3.0,0.3261,0.33932,0.3261,0.31211,0.54534,-492.499854,11.393743,-1.647294,-12.49939,-1.968463,0.11436,-0.002871,-0.081813,0.001909,-0.000315,-0.001572
104303,0.1156,-0.002521,-0.105591,0.079366,-0.0,-0.0,3.0,0.3261,0.340057,0.3261,0.311281,0.398581,-492.702693,11.586264,-1.099893,-12.544879,-2.047244,0.114742,-0.002878,-0.081845,0.002437,-0.000349,-0.001579
104323,0.116202,-0.00236,-0.105709,0.078588,-0.0,-0.0,3.0,0.3261,0.339346,0.3261,0.31208,0.31775,-492.922561,11.728913,-0.730022,-12.579034,-2.11643,0.114979,-0.002885,-0.081876,0.050446,-0.000344,-0.001599
104343,0.116458,-0.002461,-0.105838,0.077773,-0.0,-0.0,3.0,0.3261,0.33591,0.3261,0.315873,0.278499,-493.150299,11.847459,-0.530981,-12.584684,-2.176047,0.115109,-0.002892,-0.081909,0.050007,-0.000342,-0.001609
104363,0.11658,-0.002448,-0.105957,0.076927,-0.0,-0.0,3.0,0.3261,0.333422,0.3261,0.318548,0.269359,-493.380646,11.957787,-0.444943,-12.549222,-2.229557,0.115233,-0.002898,-0.081941,0.071804,-0.000327,-0.001619
104383,0.116702,-0.002441,-0.105955,0.076271,-0.0,-0.0,3.0,0.3261,0.333617,0.3261,0.318341,0.287622,-493.609573,12.072304,-0.434078,-12.466244,-2.279169,0.115487,-0.002904,-0.081973,0.021589,-0.000313,-0.001628
104403,0.116593,-0.002684,-0.106064,0.075597,-0.0,-0.0,3.0,0.3261,0.334684,0.3261,0.317198,0.33827,-493.832863,12.20485,-0.483019,-12.334398,-2.325626,0.115598,-0.002911,-0.082006,0.00155,-0.000325,-0.001624
104423,0.116708,-0.002556,-0.106069,0.074179,-0.0,-0.0,3.0,0.3261,0.338083,0.3261,0.313488,0.436913,-494.044602,12.37672,-0.596402,-12.155678,-2.368303,0.115723,-0.002917,-0.082038,0.000805,-0.000324,-0.001621
104443,0.116836,-0.002678,-0.105939,0.073256,-0.0,-0.0,3.0,0.3261,0.338279,0.3261,0.313271,0.618903,-494.234061,12.62747,-0.801413,-11.933297,-2.404977,0.115862,-0.002924,-0.08207,-0.001268,-0.000335,-0.001605
104463,0.11683,-0.002556,-0.105946,0.072752,-0.0,-0.0,3.0,0.3261,0.336133,0.3261,0.31563,0.951849,-494.378057,13.028644,-1.162518,-11.668798,-2.430742,0.115752,-0.002931,-0.082102,-0.002194,-0.000347,-0.001601
104483,0.116836,-0.002685,-0.105818,0.071264,-0.0,-0.0,3.0,0.3261,0.338961,0.3261,0.312511,1.474789,-494.430739,13.624416,-1.819896,-11.357843,-2.439556,0.115875,-0.002938,-0.082134,-0.001194,-0.000359,-0.001585
104503,0.116824,-0.002449,-0.105711,0.070186,-0.0,-0.0,3.0,0.3261,0.338407,0.3261,0.313128,1.96146,-494.360065,14.197722,-2.895207,-10.981214,-2.451835,0.115867,-0.002945,-0.082166,-0.000835,-0.000347,-0.00157
104523,0.11683,-0.002578,-0.105583,0.069634,-0.0,-0.0,3.0,0.3261,0.341786,0.3261,0.309315,2.209564,-494.213708,14.552758,-3.843922,-10.531488,-2.466062,0.116088,-0.002952,-0.082197,-0.068017,-0.000335,-0.001568
104543,0.116696,-0.002348,-0.105478,0.068513,-0.0,-0.0,3.0,0.3261,0.342289,0.3261,0.308738,2.301104,-494.045126,14.768847,-4.301796,-10.039081,-2.479709,0.115956,-0.002958,-0.082229,-0.021597,-0.00031,-0.001554
104563,0.11658,-0.002605,-0.105326,0.067372,-0.0,-0.0,3.0,0.3261,0.34033,0.3261,0.310972,2.318527,-493.875438,14.922536,-4.497672,-9.543549,-2.50277,0.115716,-0.002964,-0.08226,0.04802,-0.000309,-0.001538
104583,0.116709,-0.002598,-0.105343,0.066422,-0.0,-0.0,3.0,0.3261,0.338896,0.3261,0.312583,2.296829,-493.711865,15.047503,-4.574234,-9.062147,-2.531872,0.115476,-0.002971,-0.08229,0.071893,-0.000321,-0.001535
104603,0.11658,-0.002605,-0.105326,0.064935,-0.0,-0.0,3.0,0.3261,0.338898,0.3261,0.312581,2.251098,-493.557352,15.159034,-4.573714,-8.603961,-2.564581,0.115368,-0.002978,-0.082321,0.021216,-0.000323,-0.001518
104623,0.116209,-0.00251,-0.105218,0.064229,-0.0,-0.0,3.0,0.3261,0.338721,0.3261,0.312778,2.188492,-493.41332,15.265043,-4.519447,-8.174187,-2.599596,0.115118,-0.002984,-0.082351,-0.002222,-0.000313,-0.001505
104643,0.115716,-0.002421,-0.105112,0.062344,-0.0,-0.0,3.0,0.3261,0.338742,0.3261,0.312755,2.112639,-493.280594,15.370209,-4.425715,-7.775522,-2.636137,0.114884,-0.002991,-0.082381,-0.027395,-0.000315,-0.00149
104663,0.115338,-0.002204,-0.105011,0.061135,-0.0,-0.0,3.0,0.3261,0.34096,0.3261,0.310258,2.025446,-493.159777,15.477626,-4.300617,-7.408934,-2.673774,0.114623,-0.002997,-0.082411,-0.026431,-0.000292,-0.001477
104683,0.114954,-0.001987,-0.10489,0.060389,-0.0,-0.0,3.0,0.3261,0.341985,0.3261,0.309087,1.928009,-493.051423,15.589491,-4.147601,-7.07441,-2.712353,0.114386,-0.003003,-0.08244,-0.052238,-0.000282,-0.001463
104703,0.114589,-0.002014,-0.104775,0.059046,-0.0,-0.0,3.0,0.3261,0.346932,0.3261,0.303281,1.821125,-492.956113,15.707359,-3.969402,-6.771391,-2.751754,0.114233,-0.003009,-0.082469,-0.094289,-0.000284,-0.001447
104723,0.113987,-0.002175,-0.104657,0.057682,-0.0,-0.0,3.0,0.3261,0.347405,0.3261,0.302712,1.705614,-492.87447,15.832193,-3.768215,-6.498972,-2.791887,0.113742,-0.003014,-0.082498,-0.042847,-0.000322,-0.00143
104743,0.113628,-0.00233,-0.104414,0.056253,-0.0,-0.0,3.0,0.3261,0.344911,0.3261,0.305686,1.582625,-492.807126,15.964282,-3.545784,-6.256107,-2.832698,0.113015,-0.00302,-0.082527,0.025612,-0.000312,-0.001416
104763,0.113263,-0.002478,-0.104273,0.054778,-0.0,-0.0,3.0,0.3261,0.341813,0.3261,0.309285,1.45386,-492.754645,16.103132,-3.304585,-6.041693,-2.874095,0.112281,-0.003026,-0.082555,0.024958,-0.000317,-0.001389
104783,0.112527,-0.002408,-0.104049,0.053405,-0.0,-0.0,3.0,0.3261,0.339936,0.3261,0.311417,1.321697,-492.717403,16.247399,-3.04816,-5.854562,-2.915931,0.11155,-0.003032,-0.082582,-0.001955,-0.000285,-0.001365
104803,0.111656,-0.002223,-0.103815,0.051765,-0.0,-0.0,3.0,0.3261,0.338092,0.3261,0.313477,1.189137,-492.695468,16.394963,-2.781595,-5.693401,-2.957964,0.110695,-0.003038,-0.082609,-0.0272,-0.000279,-0.001338
104823,0.110663,-0.001923,-0.103608,0.050908,-0.0,-0.0,3.0,0.3261,0.33992,0.3261,0.311436,1.059534,-492.688495,16.543198,-2.510781,-5.55662,-2.999905,0.10996,-0.003044,-0.082636,-0.098941,-0.000261,-0.001315
104843,0.109305,-0.001763,-0.10338,0.0489,-0.0,-0.0,3.0,0.3261,0.340766,0.3261,0.310479,0.936187,-492.695701,16.689391,-2.243071,-5.442291,-3.041366,0.109106,-0.003049,-0.082662,-0.100979,-0.000254,-0.001288
104863,0.108083,-0.001725,-0.103042,0.048123,-0.0,-0.0,3.0,0.3261,0.342614,0.3261,0.308364,0.821873,-492.715912,16.831177,-1.985381,-5.347938,-3.081973,0.108241,-0.003054,-0.082688,-0.09954,-0.000247,-0.001263
104883,0.106975,-0.00168,-0.102682,0.046567,-0.0,-0.0,3.0,0.3261,0.346302,0.3261,0.304035,0.718583,-492.74768,16.966862,-1.743638,-5.270691,-3.121405,0.10723,-0.003059,-0.082713,-0.093562,-0.000254,-0.001224
104903,0.105995,-0.001743,-0.102436,0.045004,-0.0,-0.0,3.0,0.3261,0.34479,0.3261,0.305827,0.627405,-492.789418,17.095537,-1.523133,-5.207215,-3.159363,0.105759,-0.003064,-0.082737,-0.044721,-0.000261,-0.001199
104923,0.10465,-0.001703,-0.102219,0.043142,-0.0,-0.0,3.0,0.3261,0.342239,0.3261,0.308796,0.548634,-492.839529,17.217011,-1.326857,-5.153884,-3.195678,0.104291,-0.003069,-0.082761,-0.023491,-0.000245,-0.001162
104943,0.103183,-0.001798,-0.101857,0.041726,-0.0,-0.0,3.0,0.3261,0.33606,0.3261,0.315709,0.481982,-492.896483,17.331651,-1.155799,-5.106951,-3.230297,0.102459,-0.003073,-0.082784,0.04668,-0.000254,-0.001135
104963,0.101704,-0.001642,-0.101629,0.040255,-0.0,-0.0,3.0,0.3261,0.33306,0.3261,0.318933,0.426813,-492.958863,17.440196,-1.009595,-5.062775,-3.263241,0.100873,-0.003078,-0.082806,-0.006555,-0.000203,-0.001113
104983,0.100097,-0.00137,-0.101408,0.038772,-0.0,-0.0,3.0,0.3261,0.336098,0.3261,0.315668,0.382324,-493.025374,17.543598,-0.887354,-5.017913,-3.294549,0.099512,-0.003082,-0.082828,-0.124175,-0.000178,-0.001077
105003,0.098124,-0.001123,-0.10107,0.03776,-0.0,-0.0,3.0,0.3261,0.338164,0.3261,0.313398,0.347683,-493.094834,17.642908,-0.78728,-4.969226,-3.324311,0.098154,-0.003086,-0.08285,-0.147611,-0.00015,-0.001054
105023,0.096279,-0.000856,-0.10099,0.035408,-0.0,-0.0,3.0,0.3261,0.339729,0.3261,0.31165,0.322119,-493.166152,17.739203,-0.70823,-4.913971,-3.35256,0.096571,-0.00309,-0.082871,-0.12402,-0.00017,-0.001027
105043,0.094691,-0.000949,-0.100749,0.033715,-0.0,-0.0,3.0,0.3261,0.342972,0.3261,0.307951,0.304948,-493.23831,17.83354,-0.648597,-4.849706,-3.379343,0.095089,-0.003093,-0.082891,-0.120998,-0.000178,-0.001013
105063,0.092987,-0.001163,-0.100625,0.03201,-0.0,-0.0,3.0,0.3261,0.342809,0.3261,0.308139,0.295617,-493.310341,17.926935,-0.60602,-4.774472,-3.404749,0.093253,-0.003096,-0.082911,-0.11909,-0.0002,-0.000987
105083,0.091288,-0.001376,-0.100519,0.030283,-0.0,-0.0,3.0,0.3261,0.343113,0.3261,0.307786,0.293703,-493.381306,18.020346,-0.579081,-4.686758,-3.428794,0.091398,-0.0031,-0.082931,-0.066832,-0.000208,-0.000975
105103,0.089455,-0.001469,-0.100522,0.029262,-0.0,-0.0,3.0,0.3261,0.338062,0.3261,0.31351,0.298881,-493.450289,18.114667,-0.566216,-4.585436,-3.451493,0.08921,-0.003104,-0.08295,-0.023059,-0.000205,-0.000974
105123,0.087617,-0.00144,-0.100531,0.027966,-0.0,-0.0,3.0,0.3261,0.332722,0.3261,0.319291,0.310904,-493.516381,18.210701,-0.566435,-4.469785,-3.472815,0.08702,-0.003108,-0.08297,-0.004564,-0.000179,-0.000974
105143,0.085644,-0.001168,-0.100672,0.025835,-0.0,-0.0,3.0,0.3261,0.332118,0.3261,0.319927,0.329538,-493.578681,18.30914,-0.579835,-4.339344,-3.492644,0.085075,-0.003111,-0.082989,-0.079054,-0.000166,-0.000986
105163,0.083317,-0.001042,-0.100708,0.024835,-0.0,-0.0,3.0,0.3261,0.333328,0.3261,0.318648,0.354496,-493.636301,18.410515,-0.605317,-4.19383,-3.510932,0.083236,-0.003115,-0.083009,-0.126066,-0.000151,-0.000999
105183,0.080998,-0.001154,-0.100836,0.023091,-0.0,-0.0,3.0,0.3261,0.334753,0.3261,0.317124,0.385404,-493.688378,18.515146,-0.641866,-4.0333,-3.527618,0.081282,-0.003118,-0.083029,-0.148272,-0.000173,-0.000997
105203,0.078672,-0.001154,-0.100726,0.020536,-0.0,-0.0,3.0,0.3261,0.338163,0.3261,0.313399,0.421694,-493.7341,18.62308,-0.689579,-3.857956,-3.542561,0.079316,-0.003122,-0.083049,-0.194146,-0.000172,-0.000984
105223,0.076475,-0.00127,-0.100609,0.018755,-0.0,-0.0,3.0,0.3261,0.339976,0.3261,0.311372,0.462533,-493.772741,18.734025,-0.746887,-3.668113,-3.555719,0.07711,-0.003125,-0.083068,-0.144522,-0.000182,-0.000972
105243,0.074276,-0.001268,-0.100393,0.01695,-0.0,-0.0,3.0,0.3261,0.336421,0.3261,0.315315,0.506815,-493.803704,18.847316,-0.811498,-3.464391,-3.567104,0.074552,-0.003129,-0.083087,-0.075167,-0.000193,-0.000959
105263,0.072072,-0.001262,-0.10028,0.015145,-0.0,-0.0,3.0,0.3261,0.335882,0.3261,0.315903,0.55315,-493.826567,18.961921,-0.881436,-3.247653,-3.576708,0.072226,-0.003133,-0.083106,-0.073988,-0.000206,-0.000933
105283,0.069747,-0.001261,-0.100167,0.013948,-0.0,-0.0,3.0,0.3261,0.335696,0.3261,0.316105,0.599928,-493.841126,19.076506,-0.953854,-3.019005,-3.584591,0.069895,-0.003137,-0.083125,-0.096281,-0.000206,-0.00092
105303,0.067184,-0.001394,-0.100051,0.012105,-0.0,-0.0,3.0,0.3261,0.334143,0.3261,0.317778,0.645449,-493.847408,19.189558,-1.026029,-2.779873,-3.590821,0.067446,-0.003141,-0.083144,-0.119827,-0.000194,-0.000921
105323,0.064857,-0.00127,-0.099958,0.010186,-0.0,-0.0,3.0,0.3261,0.333032,0.3261,0.318963,0.688077,-493.845671,19.299557,-1.095337,-2.531905,-3.595474,0.064996,-0.003144,-0.083162,-0.098181,-0.000169,-0.000897
105343,0.062398,-0.001031,-0.099851,0.008642,-0.0,-0.0,3.0,0.3261,0.332029,0.3261,0.320021,0.726407,-493.836369,19.405138,-1.158398,-2.277022,-3.5987,0.062543,-0.003148,-0.08318,-0.099413,-0.000145,-0.000884
105363,0.059823,-0.000919,-0.099739,0.007555,-0.0,-0.0,3.0,0.3261,0.33148,0.3261,0.320597,0.759402,-493.820097,19.505226,-1.212082,-2.017456,-3.600659,0.05998,-0.003151,-0.083197,-0.125017,-0.000134,-0.000871
105383,0.057123,-0.000691,-0.099649,0.004938,-0.0,-0.0,3.0,0.3261,0.331151,0.3261,0.320941,0.786439,-493.797526,19.599109,-1.257458,-1.755643,-3.60155,0.057415,-0.003154,-0.083215,-0.148586,-0.000136,-0.00086
105403,0.054189,-0.000722,-0.099413,0.00311,-0.0,-0.0,3.0,0.3261,0.329045,0.3261,0.323119,0.807157,-493.769342,19.686442,-1.30169,-1.49332,-3.602171,0.054607,-0.003156,-0.083232,-0.148254,-0.00015,-0.000834
105423,0.051255,-0.00075,-0.099297,0.001263,-0.0,-0.0,3.0,0.3261,0.327531,0.3261,0.324661,0.821499,-493.736192,19.767202,-1.335207,-1.232068,-3.60271,0.051801,-0.003159,-0.083248,-0.149456,-0.000152,-0.000821
105443,0.048199,-0.000782,-0.099181,0.000337,-0.0,-0.0,3.0,0.3261,0.33012,0.3261,0.322012,0.829833,-493.698664,19.841619,-1.352713,-0.974418,-3.603158,0.049084,-0.003162,-0.083265,-0.191903,-0.000142,-0.00081
105463,0.04514,-0.000696,-0.098962,-0.001524,-0.0,-0.0,3.0,0.3261,0.332112,0.3261,0.319934,0.832749,-493.657276,19.910112,-1.357207,-0.723124,-3.603509,0.046131,-0.003164,-0.083281,-0.21273,-0.000133,-0.000785
105483,0.042078,-0.000606,-0.098846,-0.002987,-0.0,-0.0,3.0,0.3261,0.330578,0.3261,0.321538,0.830843,-493.612474,19.973222,-1.351852,-0.480353,-3.603761,0.042938,-0.003167,-0.083296,-0.119608,-9.8e-05,-0.000772
105503,0.03914,-0.000511,-0.098623,-0.005393,-0.0,-0.0,3.0,0.3261,0.325128,0.3261,0.327068,0.824725,-493.564644,20.03156,-1.338039,-0.248059,-3.603916,0.03953,-0.003169,-0.083312,-0.052596,-8.8e-05,-0.00076
105523,0.036316,-0.000289,-0.098383,-0.00712,-0.0,-0.0,3.0,0.3261,0.321959,0.3261,0.330171,0.814966,-493.514117,20.085765,-1.316549,-0.027888,-3.603981,0.036241,-0.003171,-0.083327,-0.055774,-8.1e-05,-0.000735
105543,0.033256,-0.000197,-0.09828,-0.008117,-0.0,-0.0,3.0,0.3261,0.319991,0.3261,0.332058,0.802115,-493.461191,20.136484,-1.286657,0.178518,-3.603961,0.033186,-0.003172,-0.083341,-0.125903,-8.6e-05,-0.000711
105563,0.029951,-0.000119,-0.098036,-0.010656,-0.0,-0.0,3.0,0.3261,0.318891,0.3261,0.3331,0.786664,-493.406142,20.184356,-1.252058,0.36962,-3.603867,0.03014,-0.003174,-0.083355,-0.151103,-8.9e-05,-0.000685
105583,0.026532,-0.000169,-0.097685,-0.012493,-0.0,-0.0,3.0,0.3261,0.319417,0.3261,0.332603,0.768952,-493.349235,20.230002,-1.214254,0.544483,-3.603709,0.027194,-0.003176,-0.083369,-0.196553,-8.1e-05,-0.000649
105603,0.023348,-8.4e-05,-0.097438,-0.014317,-0.0,-0.0,3.0,0.3261,0.326218,0.3261,0.325983,0.749268,-493.290735,20.274024,-1.171858,0.70214,-3.603496,0.024492,-0.003177,-0.083382,-0.266659,-5.9e-05,-0.000623
105623,0.020039,0.000118,-0.097086,-0.015237,-0.0,-0.0,3.0,0.3261,0.328685,0.3261,0.323488,0.727828,-493.230915,20.317009,-1.12495,0.841695,-3.603239,0.021528,-0.003178,-0.083394,-0.262832,-3.7e-05,-0.000586
105643,0.01685,0.000328,-0.096836,-0.017036,-0.0,-0.0,3.0,0.3261,0.32701,0.3261,0.325187,0.704776,-493.170067,20.359531,-1.075242,0.962342,-3.60295,0.018093,-0.003179,-0.083406,-0.16727,-2.7e-05,-0.00056
105663,0.013906,0.000549,-0.096479,-0.018385,-0.0,-0.0,3.0,0.3261,0.326065,0.3261,0.326136,0.68012,-493.108504,20.402158,-1.023676,1.063692,-3.602639,0.014772,-0.003179,-0.083417,-0.095892,7e-06,-0.000535
105683,0.010974,0.000528,-0.096241,-0.020892,-0.0,-0.0,3.0,0.3261,0.32061,0.3261,0.331468,0.653801,-493.046566,20.445459,-0.970413,1.145416,-3.602316,0.011245,-0.003179,-0.083427,-0.07538,3e-06,-0.000511
105703,0.008036,0.00063,-0.096002,-0.021769,-0.0,-0.0,3.0,0.3261,0.315203,0.3261,0.336524,0.625658,-492.984621,20.490016,-0.913766,1.207431,-3.601989,0.00784,-0.003179,-0.083437,-0.054653,-1e-06,-0.000486
105723,0.00486,0.0006,-0.095865,-0.024351,-0.0,-0.0,3.0,0.3261,0.311924,0.3261,0.339485,0.595516,-492.923074,20.536424,-0.853844,1.24942,-3.601668,0.004671,-0.003179,-0.083446,-0.104241,7e-06,-0.000459
105743,0.001684,0.000569,-0.095623,-0.025848,-0.0,-0.0,3.0,0.3261,0.314286,0.3261,0.33736,0.563064,-492.86237,20.585304,-0.791039,1.271506,-3.60136,0.001866,-0.003179,-0.083455,-0.19794,-9e-06,-0.000434
105763,-0.001376,0.000667,-0.095622,-0.027622,-0.0,-0.0,3.0,0.3261,0.318924,0.3261,0.333069,0.527966,-492.803,20.637299,-0.723012,1.273676,-3.601074,-0.000711,-0.003179,-0.083464,-0.242734,-1e-05,-0.000421
105783,-0.004303,0.000528,-0.095499,-0.029359,-0.0,-0.0,3.0,0.3261,0.322826,0.3261,0.329331,0.489836,-492.745505,20.693077,-0.649939,1.255977,-3.600814,-0.003287,-0.003179,-0.083472,-0.216299,-2.2e-05,-0.00042
105803,-0.006997,0.000643,-0.095495,-0.031104,-0.0,-0.0,3.0,0.3261,0.325325,0.3261,0.326873,0.448246,-492.690483,20.753312,-0.570932,1.218544,-3.600587,-0.005875,-0.003179,-0.083481,-0.191063,3e-06,-0.000419
105823,-0.009192,0.000538,-0.095493,-0.03232,-0.0,-0.0,3.0,0.3261,0.328402,0.3261,0.323776,0.402777,-492.638595,20.818662,-0.484378,1.161511,-3.600397,-0.008459,-0.003179,-0.083489,-0.14057,4e-06,-0.000406
105843,-0.011508,0.000428,-0.095368,-0.033612,-0.0,-0.0,3.0,0.3261,0.326285,0.3261,0.325915,0.353084,-492.590563,20.889717,-0.389446,1.084922,-3.600247,-0.011031,-0.003178,-0.083497,-0.117275,1.7e-05,-0.000404
105863,-0.013826,0.000318,-0.095381,-0.035651,-0.0,-0.0,3.0,0.3261,0.318891,0.3261,0.3331,0.298938,-492.547171,20.966929,-0.287067,0.988905,-3.600138,-0.014071,-0.003178,-0.083505,-0.026168,1.7e-05,-0.000391
105883,-0.016282,0.000568,-0.095252,-0.036749,-0.0,-0.0,3.0,0.3261,0.315411,0.3261,0.336334,0.240312,-492.509248,21.050518,-0.175883,0.87376,-3.600069,-0.016618,-0.003178,-0.083513,-0.032354,4.1e-05,-0.000391
105903,-0.018982,0.000809,-0.095,-0.038279,-0.0,-0.0,3.0,0.3261,0.313383,0.3261,0.338177,0.177563,-492.477636,21.140348,-0.055512,0.739597,-3.600037,-0.019174,-0.003178,-0.083521,-0.129271,5.1e-05,-0.000377
105923,-0.021931,0.001158,-0.094865,-0.040598,-0.0,-0.0,3.0,0.3261,0.315581,0.3261,0.336178,0.11147,-492.453155,21.235819,0.070775,0.586758,-3.600035,-0.021619,-0.003178,-0.083529,-0.17608,5.1e-05,-0.000363
105943,-0.024753,0.001393,-0.09473,-0.041593,-0.0,-0.0,3.0,0.3261,0.316548,0.3261,0.335287,0.043286,-492.436532,21.335794,0.202553,0.41596,-3.600053,-0.024186,-0.003177,-0.083536,-0.151373,3.9e-05,-0.00035
105963,-0.027557,0.001263,-0.094476,-0.043218,-0.0,-0.0,3.0,0.3261,0.318538,0.3261,0.333431,-0.025211,-492.428337,21.438613,0.337167,0.227913,-3.600078,-0.026768,-0.003176,-0.083542,-0.170668,2.7e-05,-0.000324
105983,-0.029998,0.001149,-0.094363,-0.044806,-0.0,-0.0,3.0,0.3261,0.323429,0.3261,0.328742,-0.091959,-492.428919,21.542233,0.468721,0.023933,-3.600095,-0.029231,-0.003175,-0.083549,-0.189729,1.5e-05,-0.0003
106003,-0.03243,0.000916,-0.094111,-0.04654,-0.0,-0.0,3.0,0.3261,0.31999,0.3261,0.332058,-0.154853,-492.438372,21.64447,0.592946,-0.194086,-3.600086,-0.032055,-0.003174,-0.083554,-0.13906,3e-06,-0.000274
106023,-0.034753,0.000933,-0.093856,-0.047441,-0.0,-0.0,3.0,0.3261,0.318193,0.3261,0.333755,-0.212015,-492.456531,21.743297,0.706659,-0.423752,-3.600033,-0.034627,-0.003173,-0.08356,-0.069734,3e-05,-0.000248
106043,-0.037064,0.000707,-0.093605,-0.049218,-0.0,-0.0,3.0,0.3261,0.315511,0.3261,0.336242,-0.262019,-492.483013,21.837094,0.805538,-0.662353,-3.59992,-0.037068,-0.003172,-0.083564,-0.072663,5.5e-05,-0.000221
106063,-0.039034,0.000983,-0.093485,-0.050738,-0.0,-0.0,3.0,0.3261,0.318049,0.3261,0.33389,-0.304079,-492.517287,21.924798,0.886393,-0.906587,-3.599734,-0.03915,-0.003171,-0.083569,-0.097474,8.2e-05,-0.000195
106083,-0.041002,0.00126,-0.093346,-0.052466,-0.0,-0.0,3.0,0.3261,0.320507,0.3261,0.331567,-0.33798,-492.558732,22.005919,0.949173,-1.152999,-3.599465,-0.040997,-0.003169,-0.083573,-0.121163,0.000109,-0.000182
106103,-0.042848,0.001543,-0.093206,-0.05382,-0.0,-0.0,3.0,0.3261,0.320349,0.3261,0.331717,-0.363982,-492.606706,22.080464,0.994542,-1.39812,-3.599111,-0.042954,-0.003167,-0.083577,-0.076479,0.000138,-0.00018
106123,-0.044444,0.001716,-0.09307,-0.054734,-0.0,-0.0,3.0,0.3261,0.322827,0.3261,0.32933,-0.382651,-492.660578,22.148811,1.024359,-1.63864,-3.59867,-0.044538,-0.003165,-0.08358,-0.101058,0.000142,-0.000166
106143,-0.04617,0.002004,-0.092947,-0.056159,-0.0,-0.0,3.0,0.3261,0.322291,0.3261,0.32985,-0.394732,-492.719753,22.211582,1.037989,-1.871427,-3.598235,-0.046253,-0.003163,-0.083583,-0.077605,0.000147,-0.000166
106163,-0.047888,0.002169,-0.09293,-0.057578,-0.0,-0.0,3.0,0.3261,0.321316,0.3261,0.330791,-0.401093,-492.783673,22.269536,1.034391,-2.093177,-3.598067,-0.047956,-0.003161,-0.083587,-0.077322,0.000126,-0.000165
106183,-0.049485,0.002342,-0.092792,-0.058946,-0.0,-0.0,3.0,0.3261,0.322018,0.3261,0.330114,-0.402584,-492.851811,22.323494,1.017447,-2.300801,-3.598333,-0.049558,-0.003158,-0.08359,-0.076157,0.000143,-0.000151
106203,-0.051316,0.002256,-0.092797,-0.058946,-0.0,-0.0,3.0,0.3261,0.321218,0.3261,0.330885,-0.399921,-492.923656,22.374283,0.991155,-2.491731,-3.599211,-0.05127,-0.003155,-0.083593,-0.121581,0.000122,-0.000151
106223,-0.053389,0.002163,-0.09266,-0.061129,-0.0,-0.0,3.0,0.3261,0.32201,0.3261,0.330122,-0.393661,-492.998711,22.422716,0.956899,-2.663932,-3.600709,-0.053128,-0.003152,-0.083595,-0.093478,0.000126,-0.000137
106243,-0.055455,0.001948,-0.092527,-0.062329,-0.0,-0.0,3.0,0.3261,0.318029,0.3261,0.333909,-0.384246,-493.076473,22.469578,0.915674,-2.815514,-3.6028,-0.055319,-0.003149,-0.083598,-0.06968,0.000104,-0.000112
106263,-0.057409,0.001861,-0.092408,-0.063892,-0.0,-0.0,3.0,0.3261,0.315816,0.3261,0.335962,-0.371955,-493.156429,22.515629,0.869466,-2.945001,-3.60552,-0.057523,-0.003146,-0.0836,-0.071741,0.000131,-9.9e-05
106283,-0.059847,0.001752,-0.092268,-0.064906,-0.0,-0.0,3.0,0.3261,0.313009,0.3261,0.338514,-0.356916,-493.238047,22.561622,0.819328,-3.051255,-3.608839,-0.059849,-0.003143,-0.083602,-0.118782,0.000144,-7.1e-05
106303,-0.062427,0.002006,-0.092011,-0.065638,-0.0,-0.0,3.0,0.3261,0.31289,0.3261,0.338621,-0.339098,-493.320768,22.608311,0.766203,-3.133502,-3.612717,-0.062174,-0.00314,-0.083603,-0.144411,0.000169,-5.8e-05
106323,-0.065379,0.002363,-0.091866,-0.067304,-0.0,-0.0,3.0,0.3261,0.308342,0.3261,0.342633,-0.318321,-493.403999,22.656481,0.709616,-3.191269,-3.617012,-0.064853,-0.003137,-0.083604,-0.149256,0.000206,-3e-05
106343,-0.067944,0.002375,-0.091597,-0.068469,-0.0,-0.0,3.0,0.3261,0.311941,0.3261,0.33947,-0.294277,-493.487111,22.706958,0.64923,-3.22424,-3.621584,-0.06731,-0.003133,-0.083605,-0.171883,0.000219,-1.6e-05
106363,-0.070657,0.002869,-0.091325,-0.069595,-0.0,-0.0,3.0,0.3261,0.314535,0.3261,0.337133,-0.266498,-493.56942,22.760643,0.585098,-3.232378,-3.626309,-0.069771,-0.003129,-0.083605,-0.21825,0.000243,-2e-06
106383,-0.073348,0.002872,-0.09119,-0.070696,-0.0,-0.0,3.0,0.3261,0.31554,0.3261,0.336215,-0.234359,-493.650184,22.818522,0.516456,-3.215868,-3.631,-0.072462,-0.003125,-0.083605,-0.168356,0.000219,1.2e-05
106403,-0.076046,0.003119,-0.091028,-0.071296,-0.0,-0.0,3.0,0.3261,0.311391,0.3261,0.339959,-0.197087,-493.728586,22.88169,0.442466,-3.175037,-3.635456,-0.075398,-0.00312,-0.083605,-0.098987,0.000232,2.6e-05
106423,-0.078488,0.003012,-0.090898,-0.072115,-0.0,-0.0,3.0,0.3261,0.306946,0.3261,0.343836,-0.153771,-493.803717,22.951342,0.361712,-3.110339,-3.639427,-0.078329,-0.003116,-0.083604,-0.051709,0.00022,3.9e-05
106443,-0.080935,0.003027,-0.090763,-0.073444,-0.0,-0.0,3.0,0.3261,0.300977,0.3261,0.348834,-0.103419,-493.874562,23.028744,0.271937,-3.022216,-3.642587,-0.08125,-0.003111,-0.083603,-0.032011,0.000231,5.3e-05
106463,-0.083627,0.003027,-0.090746,-0.07432,-0.0,-0.0,3.0,0.3261,0.296418,0.3261,0.352498,-0.045063,-493.93998,23.115147,0.171416,-2.911013,-3.644632,-0.084059,-0.003107,-0.083602,-0.05523,0.000218,6.7e-05
106483,-0.086069,0.00292,-0.090614,-0.075498,-0.0,-0.0,3.0,0.3261,0.299193,0.3261,0.350283,0.022081,-493.99871,23.211615,0.05854,-2.777046,-3.645246,-0.08638,-0.003102,-0.0836,-0.103022,0.000218,6.8e-05
106503,-0.088522,0.003053,-0.090592,-0.076048,-0.0,-0.0,3.0,0.3261,0.301425,0.3261,0.348467,0.098253,-494.049392,23.318754,-0.083599,-2.620081,-3.645239,-0.088451,-0.003098,-0.083599,-0.174341,0.000219,8.4e-05
106523,-0.09072,0.003074,-0.090561,-0.07693,-0.0,-0.0,3.0,0.3261,0.306628,0.3261,0.344108,0.182553,-494.090634,23.436339,-0.255888,-2.438102,-3.645348,-0.090431,-0.003093,-0.083597,-0.169476,0.00021,8.4e-05
106543,-0.092808,0.003223,-0.090542,-0.077781,-0.0,-0.0,3.0,0.3261,0.311826,0.3261,0.339573,0.273004,-494.121142,23.562867,-0.442983,-2.230143,-3.645573,-0.092162,-0.003089,-0.083595,-0.166703,0.000214,8.5e-05
106563,-0.094397,0.003151,-0.090539,-0.0786,-0.0,-0.0,3.0,0.3261,0.312815,0.3261,0.338689,0.366378,-494.139918,23.695321,-0.637139,-1.996654,-3.645897,-0.094137,-0.003084,-0.083594,-0.114853,0.000205,8.7e-05
106583,-0.095742,0.003211,-0.090517,-0.078993,-0.0,-0.0,3.0,0.3261,0.314822,0.3261,0.336872,0.458274,-494.146473,23.829369,-0.831067,-1.738832,-3.646293,-0.095741,-0.003079,-0.083592,-0.09072,0.000223,8.8e-05
106603,-0.097088,0.003156,-0.090395,-0.080205,-0.0,-0.0,3.0,0.3261,0.309211,0.3261,0.341878,0.543872,-494.140947,23.960084,-1.015961,-1.458789,-3.646726,-0.097576,-0.003074,-0.08359,-0.022137,0.00024,0.000101
106623,-0.098312,0.003228,-0.090252,-0.080588,-0.0,-0.0,3.0,0.3261,0.307621,0.3261,0.343256,0.618957,-494.124081,24.082974,-1.181151,-1.15957,-3.647153,-0.099044,-0.003068,-0.083587,-0.023096,0.000259,0.000128
106643,-0.099658,0.003179,-0.090009,-0.080982,-0.0,-0.0,3.0,0.3261,0.306817,0.3261,0.343947,0.680808,-494.097038,24.194819,-1.317702,-0.845451,-3.64753,-0.100274,-0.003063,-0.083585,-0.094394,0.000276,0.000142
106663,-0.101125,0.003247,-0.089742,-0.081665,-0.0,-0.0,3.0,0.3261,0.308537,0.3261,0.342463,0.72842,-494.061157,24.293998,-1.423029,-0.521356,-3.647819,-0.101497,-0.003057,-0.083582,-0.118992,0.000295,0.000168
106683,-0.102847,0.003419,-0.089602,-0.08256,-0.0,-0.0,3.0,0.3261,0.307067,0.3261,0.343732,0.76221,-494.017731,24.380305,-1.49755,-0.192299,-3.647989,-0.102822,-0.003051,-0.083579,-0.121926,0.000277,0.00018
106703,-0.104553,0.003348,-0.089458,-0.083142,-0.0,-0.0,3.0,0.3261,0.308723,0.3261,0.342302,0.783535,-493.967877,24.454518,-1.543007,0.136877,-3.648019,-0.104179,-0.003046,-0.083575,-0.119759,0.000283,0.000194
106723,-0.106015,0.00316,-0.089461,-0.083686,-0.0,-0.0,3.0,0.3261,0.309546,0.3261,0.341584,0.794223,-493.912488,24.517949,-1.56296,0.461607,-3.647901,-0.105767,-0.00304,-0.083571,-0.118937,0.000263,0.000193
106743,-0.107494,0.003337,-0.089445,-0.084187,-0.0,-0.0,3.0,0.3261,0.310877,0.3261,0.340415,0.796192,-493.852246,24.572123,-1.562261,0.777846,-3.647633,-0.10738,-0.003035,-0.083567,-0.090856,0.000268,0.000208
106763,-0.10896,0.0034,-0.089297,-0.084441,-0.0,-0.0,3.0,0.3261,0.307056,0.3261,0.343741,0.791236,-493.787669,24.618566,-1.545057,1.082103,-3.647225,-0.109087,-0.003029,-0.083563,-0.023467,0.000286,0.000209
106783,-0.110185,0.003344,-0.089296,-0.084777,-0.0,-0.0,3.0,0.3261,0.303709,0.3261,0.346575,0.780933,-493.719153,24.658703,-1.515238,1.371356,-3.646687,-0.110679,-0.003024,-0.083559,-0.001819,0.000303,0.00021
106803,-0.111286,0.003417,-0.089274,-0.085369,-0.0,-0.0,3.0,0.3261,0.305048,0.3261,0.34545,0.766589,-493.647022,24.693816,-1.476634,1.643066,-3.646036,-0.1119,-0.003018,-0.083555,-0.048919,0.000308,0.000212
106823,-0.112394,0.003489,-0.089268,-0.085554,-0.0,-0.0,3.0,0.3261,0.305584,0.3261,0.344997,0.749239,-493.571565,24.725033,-1.431324,1.895137,-3.645289,-0.113003,-0.003012,-0.08355,-0.049928,0.000315,0.000213
106843,-0.113252,0.003572,-0.089249,-0.086024,-0.0,-0.0,3.0,0.3261,0.306393,0.3261,0.344309,0.729695,-493.493057,24.753344,-1.381259,2.125716,-3.644465,-0.113972,-0.003006,-0.083546,-0.049911,0.000299,0.000225
106863,-0.114106,0.003419,-0.089138,-0.086293,-0.0,-0.0,3.0,0.3261,0.309381,0.3261,0.341729,0.708533,-493.411788,24.779624,-1.328288,2.333326,-3.643582,-0.114587,-0.003001,-0.083542,-0.050046,0.000295,0.000224
106883,-0.114598,0.003518,-0.089124,-0.086547,-0.0,-0.0,3.0,0.3261,0.309458,0.3261,0.341661,0.686137,-493.328065,24.804656,-1.273191,2.516754,-3.642658,-0.115313,-0.002996,-0.083538,-0.027558,0.000292,0.000224
106903,-0.114964,0.003502,-0.089119,-0.086764,-0.0,-0.0,3.0,0.3261,0.310982,0.3261,0.340322,0.662712,-493.242227,24.829162,-1.21677,2.675055,-3.641709,-0.115678,-0.00299,-0.083533,-0.026481,0.000278,0.000224
106923,-0.115334,0.003614,-0.088985,-0.086941,-0.0,-0.0,3.0,0.3261,0.313462,0.3261,0.338106,0.638296,-493.154647,24.853832,-1.15917,2.807552,-3.640762,-0.115931,-0.002985,-0.083529,-0.049114,0.000288,0.000225
106943,-0.115462,0.00373,-0.088977,-0.087018,-0.0,-0.0,3.0,0.3261,0.315011,0.3261,0.3367,0.6128,-493.065732,24.879357,-1.096077,2.913654,-3.640146,-0.116185,-0.002979,-0.083524,-0.02374,0.000286,0.000224
106963,-0.115705,0.003719,-0.088973,-0.087105,-0.0,-0.0,3.0,0.3261,0.31257,0.3261,0.338908,0.586041,-492.97593,24.906465,-1.028155,2.992629,-3.64008,-0.116551,-0.002974,-0.08352,0.022176,0.000298,0.000225
106983,-0.115956,0.003708,-0.088986,-0.087221,-0.0,-0.0,3.0,0.3261,0.311515,0.3261,0.339849,0.557608,-492.885734,24.93596,-0.9582,3.04428,-3.640621,-0.116797,-0.002968,-0.083515,0.047166,0.000284,0.000224
107003,-0.116199,0.00369,-0.089103,-0.087259,-0.0,-0.0,3.0,0.3261,0.307458,0.3261,0.343396,0.526842,-492.795688,24.96877,-0.887021,3.068914,-3.641694,-0.117269,-0.002962,-0.083511,0.042997,0.000281,0.000222
107023,-0.116564,0.003674,-0.089098,-0.087266,-0.0,-0.0,3.0,0.3261,0.306496,0.3261,0.344221,0.492825,-492.706393,25.006004,-0.813989,3.067122,-3.643129,-0.11776,-0.002957,-0.083506,-0.026482,0.000277,0.000223
107043,-0.117416,0.003635,-0.089085,-0.087224,-0.0,-0.0,3.0,0.3261,0.303605,0.3261,0.346662,0.454345,-492.618528,25.049028,-0.737601,3.039634,-3.644686,-0.118365,-0.002951,-0.083502,-0.027231,0.000274,0.000224
107063,-0.118281,0.003718,-0.089081,-0.087146,-0.0,-0.0,3.0,0.3261,0.300409,0.3261,0.349297,0.409829,-492.532874,25.099557,-0.655633,2.987199,-3.646066,-0.119084,-0.002946,-0.083497,-0.007477,0.00027,0.000223
107083,-0.119012,0.003685,-0.08907,-0.08703,-0.0,-0.0,3.0,0.3261,0.302779,0.3261,0.347349,0.357264,-492.450361,25.159756,-0.565141,2.910477,-3.646904,-0.119582,-0.002941,-0.083493,-0.051211,0.000254,0.000222
107103,-0.119864,0.003654,-0.088936,-0.086876,-0.0,-0.0,3.0,0.3261,0.30718,0.3261,0.343635,0.29412,-492.372123,25.23234,-0.461515,2.809917,-3.646812,-0.120082,-0.002935,-0.083488,-0.118922,0.00025,0.000223
107123,-0.120596,0.003492,-0.08907,-0.086779,-0.0,-0.0,3.0,0.3261,0.308151,0.3261,0.342798,0.217461,-492.299583,25.320607,-0.32397,2.684963,-3.646476,-0.120822,-0.00293,-0.083484,-0.069405,0.000223,0.00022
107143,-0.121083,0.00347,-0.089063,-0.086625,-0.0,-0.0,3.0,0.3261,0.307938,0.3261,0.342983,0.124286,-492.234553,25.428261,-0.147837,2.533078,-3.646274,-0.121569,-0.002925,-0.083479,-0.019358,0.00022,0.000221
107163,-0.121437,0.003202,-0.089193,-0.086321,-0.0,-0.0,3.0,0.3261,0.304428,0.3261,0.345972,0.011898,-492.179307,25.558676,0.065447,2.351824,-3.646221,-0.122291,-0.00292,-0.083475,0.025808,0.000217,0.000209
107183,-0.121553,0.003075,-0.089199,-0.086153,-0.0,-0.0,3.0,0.3261,0.305431,0.3261,0.345127,-0.120432,-492.136515,25.713266,0.319481,2.138636,-3.646325,-0.122666,-0.002914,-0.08347,0.003192,0.000227,0.000222
107203,-0.12167,0.002955,-0.089083,-0.085874,-0.0,-0.0,3.0,0.3261,0.303435,0.3261,0.346804,-0.268869,-492.108894,25.888927,0.613111,1.89064,-3.646581,-0.123026,-0.00291,-0.083466,0.002159,0.000226,0.000234
107223,-0.121797,0.003079,-0.088952,-0.085278,-0.0,-0.0,3.0,0.3261,0.304558,0.3261,0.345863,-0.423131,-492.098454,26.075989,0.932588,1.605528,-3.646963,-0.123033,-0.002905,-0.083461,-0.022412,0.000237,0.000233
107243,-0.12193,0.003317,-0.088936,-0.085077,-0.0,-0.0,3.0,0.3261,0.303545,0.3261,0.346712,-0.5682,-492.105621,26.259647,1.248587,1.283172,-3.647422,-0.123022,-0.0029,-0.083456,-0.049979,0.00026,0.000234
107263,-0.122064,0.003426,-0.089064,-0.084649,-0.0,-0.0,3.0,0.3261,0.307682,0.3261,0.343203,-0.690253,-492.128922,26.425633,1.526254,0.927164,-3.647879,-0.122783,-0.002895,-0.083452,-0.072508,0.000259,0.000222
107283,-0.122191,0.003534,-0.089176,-0.084183,-0.0,-0.0,3.0,0.3261,0.309191,0.3261,0.341895,-0.782048,-492.165634,26.565622,1.740607,0.54469,-3.64825,-0.122671,-0.002889,-0.083447,-0.070556,0.000259,0.000221
107303,-0.122186,0.003413,-0.089183,-0.083659,-0.0,-0.0,3.0,0.3261,0.310521,0.3261,0.340729,-0.84352,-492.212839,26.678106,1.883946,0.145035,-3.648458,-0.122686,-0.002884,-0.083443,-0.067709,0.000258,0.000208
107323,-0.122059,0.003297,-0.089193,-0.083298,-0.0,-0.0,3.0,0.3261,0.311304,0.3261,0.340036,-0.878911,-492.268149,26.765871,1.963132,-0.262375,-3.648453,-0.122691,-0.002879,-0.083439,-0.018518,0.000259,0.000209
107343,-0.122169,0.00304,-0.089327,-0.082528,-0.0,-0.0,3.0,0.3261,0.303361,0.3261,0.346865,-0.893808,-492.329905,26.833271,1.99185,-0.669258,-3.648211,-0.123176,-0.002873,-0.083434,0.07583,0.000246,0.000208
107363,-0.122048,0.003046,-0.089329,-0.082161,-0.0,-0.0,3.0,0.3261,0.301016,0.3261,0.348802,-0.893481,-492.397077,26.884659,1.983098,-1.068955,-3.647731,-0.123414,-0.002868,-0.08343,0.095766,0.000257,0.000207
107383,-0.122048,0.003046,-0.089329,-0.081564,-0.0,-0.0,3.0,0.3261,0.299693,0.3261,0.349879,-0.882328,-492.469067,26.923784,1.947494,-1.456108,-3.647026,-0.123404,-0.002863,-0.083426,0.022515,0.000267,0.000208
107403,-0.122059,0.003289,-0.089314,-0.080607,-0.0,-0.0,3.0,0.3261,0.302502,0.3261,0.347579,-0.86378,-492.545539,26.953676,1.894416,-1.826507,-3.646121,-0.123165,-0.002858,-0.083422,-0.024501,0.000279,0.000208
107423,-0.122435,0.003516,-0.089293,-0.080194,-0.0,-0.0,3.0,0.3261,0.302898,0.3261,0.347251,-0.840421,-492.62629,26.976724,1.829512,-2.17685,-3.645044,-0.123044,-0.002853,-0.083419,-0.04892,0.00029,0.000196
107443,-0.122562,0.003632,-0.089284,-0.079441,-0.0,-0.0,3.0,0.3261,0.30383,0.3261,0.346474,-0.814172,-492.711163,26.994793,1.757375,-2.504327,-3.643824,-0.123044,-0.002848,-0.083415,-0.003039,0.000302,0.000196
107463,-0.122318,0.003643,-0.089288,-0.078667,-0.0,-0.0,3.0,0.3261,0.307853,0.3261,0.343056,-0.786398,-492.799995,27.009339,1.680457,-2.806688,-3.642613,-0.122809,-0.002842,-0.083411,-0.070512,0.000289,0.000195
107483,-0.122197,0.003641,-0.089411,-0.077832,-0.0,-0.0,3.0,0.3261,0.308842,0.3261,0.342199,-0.758133,-492.892591,27.021514,1.593216,-3.081564,-3.642125,-0.122828,-0.002837,-0.083407,-0.043445,0.000289,0.000195
107503,-0.12218,0.003276,-0.089433,-0.076883,-0.0,-0.0,3.0,0.3261,0.305151,0.3261,0.345363,-0.730156,-492.988699,27.032248,1.500758,-3.326493,-3.642781,-0.122935,-0.002831,-0.083403,0.003729,0.000253,0.000192
107523,-0.122053,0.00316,-0.089443,-0.07603,-0.0,-0.0,3.0,0.3261,0.298655,0.3261,0.350716,-0.70288,-493.088008,27.042308,1.408474,-3.539872,-3.644825,-0.123286,-0.002826,-0.0834,0.070122,0.000264,0.000192
107543,-0.12168,0.003177,-0.089432,-0.075449,-0.0,-0.0,3.0,0.3261,0.300164,0.3261,0.349497,-0.676427,-493.190144,27.052354,1.318988,-3.720805,-3.648332,-0.123032,-0.002822,-0.083396,0.045676,0.000251,0.000179
107563,-0.121569,0.003418,-0.08954,-0.074567,-0.0,-0.0,3.0,0.3261,0.300092,0.3261,0.349555,-0.650698,-493.294684,27.062992,1.233602,-3.868887,-3.653286,-0.122798,-0.002817,-0.083393,-0.001381,0.000275,0.000168
107583,-0.121569,0.003411,-0.089661,-0.073811,-0.0,-0.0,3.0,0.3261,0.299002,0.3261,0.350437,-0.625395,-493.401158,27.074826,1.152699,-3.984161,-3.659614,-0.122666,-0.002812,-0.08339,0.021181,0.000263,0.000167
107603,-0.121331,0.003544,-0.089658,-0.072646,-0.0,-0.0,3.0,0.3261,0.299558,0.3261,0.349988,-0.600034,-493.509062,27.08851,1.076055,-4.067022,-3.667196,-0.122416,-0.002807,-0.083386,0.020198,0.000275,0.000156
107623,-0.120966,0.00356,-0.089663,-0.07161,-0.0,-0.0,3.0,0.3261,0.30184,0.3261,0.348125,-0.573918,-493.617855,27.104819,1.002893,-4.118225,-3.67587,-0.122055,-0.002802,-0.083383,-0.002446,0.000276,0.000155
107643,-0.120723,0.003564,-0.089788,-0.070546,-0.0,-0.0,3.0,0.3261,0.29993,0.3261,0.349687,-0.546089,-493.726962,27.124736,0.931736,-4.138786,-3.685422,-0.121807,-0.002797,-0.08338,0.021191,0.000264,0.000142
107663,-0.120357,0.00358,-0.089794,-0.069389,-0.0,-0.0,3.0,0.3261,0.301505,0.3261,0.348401,-0.515225,-493.835762,27.149579,0.860797,-4.129926,-3.695608,-0.121456,-0.002792,-0.083378,0.001623,0.000252,0.00014
107683,-0.119987,0.003475,-0.089807,-0.068414,-0.0,-0.0,3.0,0.3261,0.299669,0.3261,0.349898,-0.479464,-493.943568,27.181205,0.787461,-4.092992,-3.706116,-0.121208,-0.002787,-0.083375,0.047576,0.000254,0.000139
107703,-0.119621,0.003485,-0.089934,-0.068414,-0.0,-0.0,3.0,0.3261,0.299475,0.3261,0.350055,-0.436107,-494.049577,27.222332,0.707517,-4.029281,-3.716509,-0.120848,-0.002782,-0.083372,0.047535,0.000267,0.000139
107723,-0.119005,0.003513,-0.089927,-0.066246,-0.0,-0.0,3.0,0.3261,0.298457,0.3261,0.350875,-0.381101,-494.152786,27.277096,0.616892,-3.939806,-3.726332,-0.120483,-0.002777,-0.08337,0.095771,0.000269,0.000128
107743,-0.118524,0.003649,-0.090048,-0.065123,-0.0,-0.0,3.0,0.3261,0.296463,0.3261,0.352462,-0.308076,-494.251823,27.352009,0.508367,-3.825295,-3.734889,-0.119984,-0.002772,-0.083367,0.068969,0.000282,0.000115
107763,-0.117788,0.003554,-0.090187,-0.064453,-0.0,-0.0,3.0,0.3261,0.299146,0.3261,0.350321,-0.206866,-494.344631,27.457553,0.368661,-3.685419,-3.741019,-0.119379,-0.002766,-0.083365,0.047374,0.000271,0.000114
107783,-0.117185,0.003703,-0.090189,-0.062654,-0.0,-0.0,3.0,0.3261,0.297272,0.3261,0.351821,-0.061356,-494.427845,27.61044,0.17935,-3.518134,-3.743117,-0.118771,-0.002761,-0.083363,0.046413,0.000286,0.000113
107803,-0.116453,0.003866,-0.090056,-0.061349,-0.0,-0.0,3.0,0.3261,0.296273,0.3261,0.352612,0.150876,-494.495746,27.834389,-0.149315,-3.317173,-3.743043,-0.118019,-0.002756,-0.083361,0.067142,0.000289,0.000113
107823,-0.115601,0.003905,-0.090068,-0.060031,-0.0,-0.0,3.0,0.3261,0.297425,0.3261,0.3517,0.445254,-494.539205,28.148177,-0.679693,-3.064129,-3.743664,-0.117045,-0.002751,-0.083359,0.043722,0.000292,0.000112
107843,-0.114747,0.004065,-0.090058,-0.05865,-0.0,-0.0,3.0,0.3261,0.301391,0.3261,0.348495,0.788603,-494.54815,28.521828,-1.301715,-2.741349,-3.750594,-0.115958,-0.002745,-0.083357,-0.023765,0.000282,9.8e-05
107863,-0.113894,0.004097,-0.090192,-0.057547,-0.0,-0.0,3.0,0.3261,0.304724,0.3261,0.345723,1.084113,-494.521258,28.859522,-1.935765,-2.343764,-3.763699,-0.114996,-0.002739,-0.083355,0.00337,0.000287,9.8e-05
107883,-0.113164,0.004131,-0.090203,-0.057547,-0.0,-0.0,3.0,0.3261,0.300886,0.3261,0.348908,1.269562,-494.469551,29.098388,-2.478289,-1.875595,-3.776352,-0.114384,-0.002734,-0.083353,0.096279,0.000291,9.6e-05
107903,-0.11205,0.003938,-0.090216,-0.055043,-0.0,-0.0,3.0,0.3261,0.298294,0.3261,0.351006,1.358446,-494.405349,29.249177,-2.844514,-1.353651,-3.782538,-0.113647,-0.002728,-0.083351,0.14336,0.000295,9.6e-05
107923,-0.111076,0.003975,-0.090352,-0.053583,-0.0,-0.0,3.0,0.3261,0.294471,0.3261,0.354024,1.384235,-494.335749,29.341332,-2.989957,-0.80264,-3.783532,-0.112906,-0.002722,-0.083349,0.094449,0.000296,8.3e-05
107943,-0.110217,0.004008,-0.090469,-0.052854,-0.0,-0.0,3.0,0.3261,0.295271,0.3261,0.3534,1.373188,-494.263639,29.396425,-2.951187,-0.250851,-3.784054,-0.112063,-0.002716,-0.083347,0.048411,0.00031,7e-05
107963,-0.109492,0.004156,-0.090594,-0.050742,-0.0,-0.0,3.0,0.3261,0.2914,0.3261,0.356385,1.341267,-494.189772,29.427635,-2.853404,0.284836,-3.784097,-0.111307,-0.00271,-0.083346,0.068126,0.000312,5.9e-05
107983,-0.108639,0.004189,-0.090727,-0.04925,-0.0,-0.0,3.0,0.3261,0.292553,0.3261,0.355505,1.297393,-494.114002,29.44297,-2.737517,0.798511,-3.783702,-0.110207,-0.002704,-0.083345,0.042793,0.000328,4.6e-05
108003,-0.107537,0.004233,-0.090848,-0.047703,-0.0,-0.0,3.0,0.3261,0.298331,0.3261,0.350976,1.247054,-494.035843,29.447521,-2.608839,1.287052,-3.782925,-0.10887,-0.002698,-0.083344,0.022358,0.00032,3.3e-05
108023,-0.106325,0.004404,-0.09098,-0.046906,-0.0,-0.0,3.0,0.3261,0.30177,0.3261,0.348183,1.19395,-493.954736,29.444704,-2.472172,1.747651,-3.781826,-0.107534,-0.002692,-0.083344,0.024012,0.000313,1.8e-05
