time_ms,roll,pitch,yaw,reference_roll,reference_pitch,reference_yaw,reference_throttle,throttle_1,throttle_2,throttle_3,throttle_4,roll_predicted,pitch_predicted,yaw_predicted,roll_rate_predicted,pitch_rate_predicted,yaw_rate_predicted,value1,value2,value3,value4,value5,value6
452837,0.000792,-0.018048,-0.318082,0.0,-0.0,-0.0,2.0,0.282024,0.283018,0.282024,0.281025,,,,,,,0.001523,-0.013174,-0.219685,0.0,3.5e-05,-2.7e-05
452857,0.000792,-0.018048,-0.318082,0.0,-0.0,-0.0,2.0,0.282024,0.282959,0.282024,0.281085,,,,,,,0.001523,-0.013173,-0.219686,-0.024008,3.3e-05,-2.7e-05
452877,0.000792,-0.018048,-0.318082,0.0,-0.0,-0.0,2.0,0.282024,0.283474,0.282024,0.280564,,,,,,,0.001523,-0.013172,-0.219686,-0.0,3.5e-05,-2.7e-05
452897,0.000792,-0.018048,-0.318082,0.0,-0.0,-0.0,2.0,0.282024,0.283068,0.282024,0.280975,,,,,,,0.001523,-0.013171,-0.219687,0.0,3.5e-05,-2.7e-05
452917,0.000792,-0.018048,-0.318082,0.0,-0.0,-0.0,2.0,0.282024,0.28305,0.282024,0.280992,,,,,,,0.001523,-0.013171,-0.219688,-0.0,3.5e-05,-2.6e-05
452937,0.000812,-0.018168,-0.318083,0.0,-0.0,-0.0,2.0,0.282024,0.283352,0.282024,0.280688,,,,,,,0.001542,-0.01317,-0.219688,-0.0,2.3e-05,-2.6e-05
452957,0.000812,-0.018168,-0.318083,0.0,-0.0,-0.0,2.0,0.282024,0.28125,0.282024,0.282796,,,,,,,0.001421,-0.01317,-0.219689,1e-06,2.1e-05,-2.6e-05
452977,0.000691,-0.018187,-0.318083,0.0,-0.0,-0.0,2.0,0.282024,0.280262,0.282024,0.28377,,,,,,,0.001422,-0.013169,-0.219689,-9.9e-05,2.1e-05,-2.6e-05
452997,0.000691,-0.018187,-0.318083,0.0,-0.0,-0.0,2.0,0.282024,0.282854,0.282024,0.281191,,,,,,,0.001421,-0.013169,-0.21969,-0.0,2.1e-05,-2.6e-05
453017,0.000691,-0.018187,-0.318083,0.0,-0.0,-0.0,2.0,0.282024,0.283023,0.282024,0.28102,,,,,,,0.001421,-0.013168,-0.21969,0.0,2.1e-05,-2.6e-05
453037,0.000691,-0.018187,-0.318083,0.0,-0.0,-0.0,2.0,0.282024,0.283041,0.282024,0.281002,,,,,,,0.001421,-0.013168,-0.219691,0.0,2.1e-05,-2.6e-05
453057,0.000812,-0.018168,-0.318083,0.0,-0.0,-0.0,2.0,0.282024,0.284887,0.282024,0.279119,,,,,,,0.001542,-0.013168,-0.219691,0.003849,1.1e-05,-2.6e-05
453077,0.000831,-0.018289,-0.318083,0.0,-0.0,-0.0,2.0,0.282024,0.283735,0.282024,0.280298,,,,,,,0.001561,-0.013167,-0.219692,1.6e-05,1.1e-05,-2.6e-05
453097,0.00071,-0.018308,-0.318084,0.0,-0.0,-0.0,2.0,0.282024,0.282616,0.282024,0.28143,,,,,,,0.001542,-0.013167,-0.219692,0.003834,1.1e-05,-2.6e-05
453117,0.00071,-0.018308,-0.318084,0.0,-0.0,-0.0,2.0,0.282024,0.284007,0.282024,0.280021,,,,,,,0.001561,-0.013167,-0.219693,-0.024008,9e-06,-2.6e-05
453137,0.00071,-0.018308,-0.318084,0.0,-0.0,-0.0,2.0,0.282024,0.282708,0.282024,0.281337,,,,,,,0.001441,-0.013167,-0.219693,0.0,9e-06,-2.6e-05
453157,0.00059,-0.018327,-0.318085,0.0,-0.0,-0.0,2.0,0.282024,0.280663,0.282024,0.283376,,,,,,,0.001301,-0.013166,-0.219694,0.003834,7e-06,-2.6e-05
453177,0.00059,-0.018327,-0.318085,0.0,-0.0,-0.0,2.0,0.282024,0.282966,0.282024,0.281078,,,,,,,0.00132,-0.013166,-0.219694,-0.0,7e-06,-2.6e-05
453197,0.00059,-0.018327,-0.318085,0.0,-0.0,-0.0,2.0,0.282024,0.283044,0.282024,0.280999,,,,,,,0.00132,-0.013166,-0.219695,-0.0,7e-06,-2.6e-05
453217,0.00059,-0.018327,-0.318085,0.0,-0.0,-0.0,2.0,0.282024,0.283055,0.282024,0.280988,,,,,,,0.00132,-0.013166,-0.219695,-0.0,7e-06,-2.6e-05
453237,0.00059,-0.018327,-0.318085,0.0,-0.0,-0.0,2.0,0.282024,0.281312,0.282024,0.282734,,,,,,,0.001321,-0.013166,-0.219696,-0.0001,7e-06,-2.6e-05
453257,0.000591,-0.018327,-0.318199,0.0,-0.0,-0.0,2.0,0.282024,0.283022,0.282024,0.281021,,,,,,,0.00132,-0.013166,-0.219696,0.024226,9e-06,-3.7e-05
453277,0.00059,-0.018327,-0.318085,0.0,-0.0,-0.0,2.0,0.282024,0.282596,0.282024,0.28145,,,,,,,0.00132,-0.013166,-0.219697,-1e-06,7e-06,-2.6e-05
453297,0.00059,-0.018327,-0.318085,0.0,-0.0,-0.0,2.0,0.282024,0.283068,0.282024,0.280975,,,,,,,0.001321,-0.013165,-0.219698,-0.0,7e-06,-3.7e-05
453317,0.00047,-0.018346,-0.3182,0.0,-0.0,-0.0,2.0,0.282024,0.283079,0.282024,0.280964,,,,,,,0.00132,-0.013165,-0.219698,0.000219,7e-06,-3.7e-05
453337,0.000609,-0.018448,-0.318085,0.0,-0.0,-0.0,2.0,0.282024,0.282423,0.282024,0.281624,,,,,,,0.001219,-0.013165,-0.219699,-0.0,-7e-06,-2.6e-05
453357,0.000489,-0.018467,-0.318086,0.0,-0.0,-0.0,2.0,0.282024,0.280377,0.282024,0.283657,,,,,,,0.001221,-0.013165,-0.2197,-9.9e-05,-7e-06,-3.7e-05
453377,0.00049,-0.018467,-0.3182,0.0,-0.0,-0.0,2.0,0.282024,0.286376,0.282024,0.277574,,,,,,,0.00134,-0.013166,-0.2197,-0.023908,-7e-06,-3.7e-05
453397,0.00061,-0.018448,-0.318199,0.0,-0.0,-0.0,2.0,0.282024,0.286374,0.282024,0.277575,,,,,,,0.00134,-0.013166,-0.219701,9.9e-05,-5e-06,-3.7e-05
453417,0.00061,-0.018448,-0.318199,0.0,-0.0,-0.0,2.0,0.282024,0.283334,0.282024,0.280706,,,,,,,0.001341,-0.013166,-0.219702,0.0,-5e-06,-3.7e-05
453437,0.00061,-0.018448,-0.318199,0.0,-0.0,-0.0,2.0,0.282024,0.283157,0.282024,0.280885,,,,,,,0.001341,-0.013166,-0.219702,0.003851,-1.7e-05,-3.7e-05
453457,0.00063,-0.018568,-0.318199,0.0,-0.0,-0.0,2.0,0.282024,0.283643,0.282024,0.280392,,,,,,,0.00136,-0.013166,-0.219703,1.6e-05,-1.7e-05,-3.7e-05
453477,0.000509,-0.018587,-0.3182,0.0,-0.0,-0.0,2.0,0.282024,0.281345,0.282024,0.282701,,,,,,,0.001239,-0.013166,-0.219704,1e-06,-1.9e-05,-3.7e-05
453497,0.000509,-0.018587,-0.3182,0.0,-0.0,-0.0,2.0,0.282024,0.282989,0.282024,0.281054,,,,,,,0.001239,-0.013167,-0.219705,-0.0,-1.9e-05,-3.7e-05
453517,0.000509,-0.018587,-0.3182,0.0,-0.0,-0.0,2.0,0.282024,0.283096,0.282024,0.280946,,,,,,,0.001239,-0.013167,-0.219705,0.0,-1.9e-05,-3.6e-05
453537,0.000509,-0.018587,-0.3182,0.0,-0.0,-0.0,2.0,0.282024,0.284778,0.282024,0.279231,,,,,,,0.001239,-0.013168,-0.219706,-0.023907,-2.1e-05,-3.7e-05
453557,0.000528,-0.018708,-0.3182,0.0,-0.0,-0.0,2.0,0.282024,0.284173,0.282024,0.279852,,,,,,,0.001259,-0.013168,-0.219707,-0.023991,-3.3e-05,-3.6e-05
453577,0.000528,-0.018708,-0.3182,0.0,-0.0,-0.0,2.0,0.282024,0.283641,0.282024,0.280394,,,,,,,0.001259,-0.013169,-0.219708,-0.0,-3.1e-05,-3.6e-05
453597,0.000528,-0.018708,-0.3182,0.0,-0.0,-0.0,2.0,0.282024,0.283167,0.282024,0.280875,,,,,,,0.001259,-0.013169,-0.219708,-0.0,-3.1e-05,-3.6e-05
453617,0.000528,-0.018708,-0.3182,0.0,-0.0,-0.0,2.0,0.282024,0.283705,0.282024,0.280329,,,,,,,0.001278,-0.01317,-0.219709,-0.003835,-3.1e-05,-3.6e-05
453637,0.000408,-0.018727,-0.318201,0.0,-0.0,-0.0,2.0,0.282024,0.283111,0.282024,0.280931,,,,,,,0.001259,-0.013171,-0.21971,0.0,-3.1e-05,-3.6e-05
453657,0.000528,-0.018708,-0.3182,0.0,-0.0,-0.0,2.0,0.282024,0.282197,0.282024,0.281851,,,,,,,0.001138,-0.013171,-0.21971,0.0,-3.3e-05,-3.6e-05
453677,0.000408,-0.018727,-0.318201,0.0,-0.0,-0.0,2.0,0.282024,0.280391,0.282024,0.283644,,,,,,,0.001139,-0.013172,-0.219711,-9.9e-05,-3.3e-05,-3.6e-05
453697,0.000408,-0.018727,-0.318201,0.0,-0.0,-0.0,2.0,0.282024,0.286411,0.282024,0.277537,,,,,,,0.001258,-0.013173,-0.219712,-0.023908,-3.3e-05,-3.6e-05
453717,0.000408,-0.018727,-0.318201,0.0,-0.0,-0.0,2.0,0.282024,0.282868,0.282024,0.281176,,,,,,,0.001138,-0.013173,-0.219713,0.0,-3.3e-05,-3.6e-05
453737,0.000427,-0.018848,-0.318202,0.0,-0.0,-0.0,2.0,0.282024,0.283653,0.282024,0.280382,,,,,,,0.001158,-0.013174,-0.219713,-0.003835,-3.2e-05,-3.6e-05
453757,0.000427,-0.018848,-0.318202,0.0,-0.0,-0.0,2.0,0.282024,0.283225,0.282024,0.280816,,,,,,,0.001158,-0.013175,-0.219714,-0.0,-4.4e-05,-3.6e-05
453777,0.000427,-0.018848,-0.318202,0.0,-0.0,-0.0,2.0,0.282024,0.282567,0.282024,0.28148,,,,,,,0.001138,-0.013176,-0.219715,0.003835,-4.4e-05,-3.6e-05
453797,0.000408,-0.018727,-0.318201,0.0,-0.0,-0.0,2.0,0.282024,0.28287,0.282024,0.281174,,,,,,,0.001138,-0.013176,-0.219716,0.0,-3.2e-05,-3.6e-05
453817,0.000408,-0.018727,-0.318201,0.0,-0.0,-0.0,2.0,0.282024,0.283107,0.282024,0.280935,,,,,,,0.001138,-0.013177,-0.219716,-0.0,-3.2e-05,-3.6e-05
453837,0.000409,-0.018727,-0.318316,0.0,-0.0,-0.0,2.0,0.282024,0.283126,0.282024,0.280916,,,,,,,0.001138,-0.013178,-0.219717,0.0,-3.2e-05,-3.5e-05
453857,0.000287,-0.018747,-0.318202,0.0,-0.0,-0.0,2.0,0.282024,0.283042,0.282024,0.281001,,,,,,,0.001138,-0.013178,-0.219718,-0.024008,-3.4e-05,-3.5e-05
453877,0.000287,-0.018747,-0.318202,0.0,-0.0,-0.0,2.0,0.282024,0.280906,0.282024,0.283136,,,,,,,0.001019,-0.013179,-0.219719,-9.9e-05,-3.4e-05,-4.7e-05
453897,0.000308,-0.018867,-0.318317,0.0,-0.0,-0.0,2.0,0.282024,0.282683,0.282024,0.281364,,,,,,,0.001019,-0.01318,-0.219719,-1.5e-05,-3.4e-05,-4.7e-05
453917,0.000168,-0.018766,-0.318318,0.0,-0.0,-0.0,2.0,0.282024,0.281064,0.282024,0.282979,,,,,,,0.000898,-0.01318,-0.21972,1e-06,-3.6e-05,-4.7e-05
453937,0.000167,-0.018766,-0.318203,0.0,-0.0,-0.0,2.0,0.282024,0.282893,0.282024,0.281152,,,,,,,0.000898,-0.013181,-0.219721,-0.0,-3.6e-05,-4.7e-05
453957,0.000168,-0.018766,-0.318318,0.0,-0.0,-0.0,2.0,0.282024,0.284767,0.282024,0.279243,,,,,,,0.000898,-0.013182,-0.219722,0.000101,-3.6e-05,-4.7e-05
453977,4.7e-05,-0.018785,-0.318319,0.0,-0.0,-0.0,2.0,0.282024,0.281284,0.282024,0.282761,,,,,,,0.000778,-0.013183,-0.219723,-0.000225,-3.7e-05,-3.5e-05
453997,4.6e-05,-0.018785,-0.318204,0.0,-0.0,-0.0,2.0,0.282024,0.282853,0.282024,0.281192,,,,,,,0.000778,-0.013183,-0.219724,-0.0,-3.7e-05,-4.6e-05
454017,-7.3e-05,-0.018804,-0.31832,0.0,-0.0,-0.0,2.0,0.282024,0.284706,0.282024,0.279305,,,,,,,0.000777,-0.013184,-0.219725,0.000101,-3.7e-05,-4.6e-05
454037,-7.3e-05,-0.018804,-0.31832,0.0,-0.0,-0.0,2.0,0.282024,0.282078,0.282024,0.281971,,,,,,,0.000656,-0.013185,-0.219726,-1e-06,-3.9e-05,-3.5e-05
454057,-0.000335,-0.018723,-0.318207,0.0,-0.0,-0.0,2.0,0.282024,0.279218,0.282024,0.28479,,,,,,,0.000537,-0.013186,-0.219726,-0.004177,-2.9e-05,-3.5e-05
454077,-0.000454,-0.018742,-0.318322,0.0,-0.0,-0.0,2.0,0.282024,0.281305,0.282024,0.282741,,,,,,,0.000397,-0.013186,-0.219727,-1.5e-05,-3.1e-05,-4.6e-05
454097,-0.000454,-0.018742,-0.318322,0.0,-0.0,-0.0,2.0,0.282024,0.278628,0.282024,0.285362,,,,,,,0.000174,-0.013187,-0.219728,-8.3e-05,-4.7e-05,-3.5e-05
454117,-0.000696,-0.018781,-0.31821,0.0,-0.0,-0.0,2.0,0.282024,0.277685,0.282024,0.286269,,,,,,,3.6e-05,-0.013188,-0.219729,-0.000325,-3.6e-05,-3.5e-05
454137,-0.000816,-0.0188,-0.318325,0.0,-0.0,-0.0,2.0,0.282024,0.282193,0.282024,0.281855,,,,,,,3.5e-05,-0.013189,-0.21973,-0.024006,-3.8e-05,-4.7e-05
454157,-0.000936,-0.018819,-0.318326,0.0,-0.0,-0.0,2.0,0.282024,0.278347,0.282024,0.285634,,,,,,,-0.000206,-0.013189,-0.21973,-9.9e-05,-4e-05,-3.5e-05
454177,-0.001058,-0.018839,-0.318213,0.0,-0.0,-0.0,2.0,0.282024,0.28025,0.282024,0.283783,,,,,,,-0.000327,-0.01319,-0.219731,-0.0,-4.2e-05,-3.5e-05
454197,-0.001198,-0.018738,-0.318213,0.0,-0.0,-0.0,2.0,0.282024,0.282144,0.282024,0.281904,,,,,,,-0.000326,-0.013191,-0.219732,-0.024234,-4.4e-05,-3.5e-05
454217,-0.001317,-0.018757,-0.318329,0.0,-0.0,-0.0,2.0,0.282024,0.279759,0.282024,0.284264,,,,,,,-0.000588,-0.013192,-0.219733,1e-06,-3.4e-05,-3.5e-05
454237,-0.001439,-0.018776,-0.318215,0.0,-0.0,-0.0,2.0,0.282024,0.279551,0.282024,0.284467,,,,,,,-0.000728,-0.013192,-0.219733,0.003836,-3.6e-05,-3.5e-05
454257,-0.001579,-0.018675,-0.318216,0.0,-0.0,-0.0,2.0,0.282024,0.281624,0.282024,0.282423,,,,,,,-0.000727,-0.013193,-0.219734,-0.024234,-2.5e-05,-3.5e-05
454277,-0.001698,-0.018694,-0.318331,0.0,-0.0,-0.0,2.0,0.282024,0.281491,0.282024,0.282556,,,,,,,-0.000848,-0.013193,-0.219735,0.000227,-2.5e-05,-4.7e-05
454297,-0.00182,-0.018714,-0.318217,0.0,-0.0,-0.0,2.0,0.282024,0.279364,0.282024,0.284649,,,,,,,-0.001089,-0.013194,-0.219736,1.7e-05,-2.9e-05,-3.5e-05
454317,-0.00194,-0.018733,-0.318218,0.0,-0.0,-0.0,2.0,0.282024,0.281576,0.282024,0.282471,,,,,,,-0.001089,-0.013194,-0.219736,-0.024007,-3.1e-05,-3.5e-05
454337,-0.002061,-0.018752,-0.318219,0.0,-0.0,-0.0,2.0,0.282024,0.281252,0.282024,0.282794,,,,,,,-0.00121,-0.013195,-0.219737,0.0,-3.1e-05,-3.5e-05
454357,-0.00208,-0.018632,-0.318219,0.0,-0.0,-0.0,2.0,0.282024,0.28097,0.282024,0.283073,,,,,,,-0.00133,-0.013196,-0.219738,-0.003836,-2.1e-05,-3.5e-05
454377,-0.002321,-0.018671,-0.318221,0.0,-0.0,-0.0,2.0,0.282024,0.279332,0.282024,0.28468,,,,,,,-0.00147,-0.013196,-0.219739,-1.5e-05,-2.3e-05,-3.5e-05
454397,-0.002442,-0.01869,-0.318221,0.0,-0.0,-0.0,2.0,0.282024,0.2804,0.282024,0.283635,,,,,,,-0.001591,-0.013197,-0.219739,0.0,-2.5e-05,-3.5e-05
454417,-0.002442,-0.01869,-0.318221,0.0,-0.0,-0.0,2.0,0.282024,0.280381,0.282024,0.283654,,,,,,,-0.001711,-0.013197,-0.21974,0.0,-2.6e-05,-3.5e-05
454437,-0.002683,-0.018729,-0.318223,0.0,-0.0,-0.0,2.0,0.282024,0.279392,0.282024,0.284621,,,,,,,-0.001832,-0.013198,-0.219741,1e-06,-2.8e-05,-3.5e-05
454457,-0.002683,-0.018729,-0.318223,0.0,-0.0,-0.0,2.0,0.282024,0.278366,0.282024,0.285615,,,,,,,-0.001952,-0.013198,-0.219741,-0.0001,-3e-05,-3.5e-05
454477,-0.002803,-0.018748,-0.318224,0.0,-0.0,-0.0,2.0,0.282024,0.282982,0.282024,0.281061,,,,,,,-0.001953,-0.013199,-0.219742,0.000116,-3e-05,-3.5e-05
454497,-0.002943,-0.018647,-0.318224,0.0,-0.0,-0.0,2.0,0.282024,0.277802,0.282024,0.286157,,,,,,,-0.002213,-0.013199,-0.219743,0.003837,-3.4e-05,-3.5e-05
454517,-0.003064,-0.018666,-0.318225,0.0,-0.0,-0.0,2.0,0.282024,0.279401,0.282024,0.284612,,,,,,,-0.002193,-0.0132,-0.219744,-0.024091,-3.6e-05,-3.5e-05
454537,-0.003165,-0.018806,-0.318226,0.0,-0.0,-0.0,2.0,0.282024,0.278331,0.282024,0.285649,,,,,,,-0.002454,-0.013201,-0.219744,0.024007,-2.4e-05,-3.5e-05
454557,-0.003305,-0.018705,-0.318227,0.0,-0.0,-0.0,2.0,0.282024,0.279642,0.282024,0.284378,,,,,,,-0.002454,-0.013201,-0.219745,-0.024022,-2.7e-05,-3.5e-05
454577,-0.003546,-0.018743,-0.318228,0.0,-0.0,-0.0,2.0,0.282024,0.276407,0.282024,0.287485,,,,,,,-0.002695,-0.013202,-0.219746,-0.0001,-2.9e-05,-2.4e-05
454597,-0.003788,-0.018782,-0.318116,0.0,-0.0,-0.0,2.0,0.282024,0.279242,0.282024,0.284767,,,,,,,-0.002815,-0.013202,-0.219746,-0.027858,-2.1e-05,-3.5e-05
454617,-0.003806,-0.018661,-0.31823,0.0,-0.0,-0.0,2.0,0.282024,0.278553,0.282024,0.285435,,,,,,,-0.003077,-0.013203,-0.219747,-0.024007,-2.5e-05,-2.4e-05
454637,-0.004048,-0.0187,-0.318117,0.0,-0.0,-0.0,2.0,0.282024,0.275002,0.282024,0.288804,,,,,,,-0.003317,-0.013203,-0.219747,-9.9e-05,-2.7e-05,-2.4e-05
454657,-0.004289,-0.018739,-0.318118,0.0,-0.0,-0.0,2.0,0.282024,0.280887,0.282024,0.283155,,,,,,,-0.003336,-0.013204,-0.219748,-0.024153,-1.7e-05,-2.4e-05
454677,-0.004307,-0.018618,-0.318232,0.0,-0.0,-0.0,2.0,0.282024,0.280127,0.282024,0.283903,,,,,,,-0.003579,-0.013204,-0.219748,-0.023675,-2e-05,-3.5e-05
454697,-0.00455,-0.018657,-0.318119,0.0,-0.0,-0.0,2.0,0.282024,0.274702,0.282024,0.289083,,,,,,,-0.003819,-0.013205,-0.219749,-9.9e-05,-2.2e-05,-2.4e-05
454717,-0.00469,-0.018556,-0.31812,0.0,-0.0,-0.0,2.0,0.282024,0.278973,0.282024,0.285028,,,,,,,-0.003838,-0.013205,-0.219749,-0.024238,-1.2e-05,-2.4e-05
454737,-0.00469,-0.018556,-0.31812,0.0,-0.0,-0.0,2.0,0.282024,0.279013,0.282024,0.28499,,,,,,,-0.003959,-0.013205,-0.21975,0.000232,-1.2e-05,-3.5e-05
454757,-0.00481,-0.018575,-0.31812,0.0,-0.0,-0.0,2.0,0.282024,0.277184,0.282024,0.286748,,,,,,,-0.00408,-0.013206,-0.21975,-0.024023,-1.6e-05,-2.4e-05
454777,-0.005051,-0.018614,-0.318122,0.0,-0.0,-0.0,2.0,0.282024,0.275976,0.282024,0.287892,,,,,,,-0.0042,-0.013206,-0.219751,-9.9e-05,-1.6e-05,-2.4e-05
454797,-0.005172,-0.018633,-0.318123,0.0,-0.0,-0.0,2.0,0.282024,0.278034,0.282024,0.285935,,,,,,,-0.004321,-0.013206,-0.219751,0.0,-1.8e-05,-2.4e-05
454817,-0.005172,-0.018633,-0.318123,0.0,-0.0,-0.0,2.0,0.282024,0.278048,0.282024,0.285921,,,,,,,-0.004441,-0.013207,-0.219752,0.0,-2e-05,-2.4e-05
454837,-0.005292,-0.018652,-0.318123,0.0,-0.0,-0.0,2.0,0.282024,0.275802,0.282024,0.288054,,,,,,,-0.004542,-0.013207,-0.219752,-0.003934,-2.2e-05,-2.4e-05
454857,-0.005413,-0.018672,-0.318124,0.0,-0.0,-0.0,2.0,0.282024,0.27851,0.282024,0.285476,,,,,,,-0.004562,-0.013208,-0.219753,-0.024007,-2.4e-05,-2.4e-05
454877,-0.005432,-0.018551,-0.318123,0.0,-0.0,-0.0,2.0,0.282024,0.278237,0.282024,0.28574,,,,,,,-0.004682,-0.013208,-0.219753,-0.003851,-1.1e-05,-2.4e-05
454897,-0.005533,-0.018691,-0.318125,0.0,-0.0,-0.0,2.0,0.282024,0.275155,0.282024,0.28866,,,,,,,-0.004802,-0.013208,-0.219754,-9.9e-05,-2.5e-05,-2.4e-05
454917,-0.005654,-0.01871,-0.318125,0.0,-0.0,-0.0,2.0,0.282024,0.27825,0.282024,0.285727,,,,,,,-0.004803,-0.013209,-0.219754,-0.024007,-2.7e-05,-2.4e-05
454937,-0.005654,-0.01871,-0.318125,0.0,-0.0,-0.0,2.0,0.282024,0.279745,0.282024,0.284277,,,,,,,-0.004803,-0.013209,-0.219755,-0.024008,-2.7e-05,-2.4e-05
454957,-0.005673,-0.01859,-0.318125,0.0,-0.0,-0.0,2.0,0.282024,0.277961,0.282024,0.286005,,,,,,,-0.004923,-0.01321,-0.219755,-0.003851,-1.5e-05,-2.4e-05
454977,-0.005774,-0.01873,-0.318126,0.0,-0.0,-0.0,2.0,0.282024,0.278408,0.282024,0.285575,,,,,,,-0.004923,-0.01321,-0.219756,-0.024007,-2.9e-05,-2.4e-05
454997,-0.005774,-0.01873,-0.318126,0.0,-0.0,-0.0,2.0,0.282024,0.277126,0.282024,0.286803,,,,,,,-0.005063,-0.013211,-0.219756,0.003835,-2.9e-05,-2.4e-05
455017,-0.005794,-0.018609,-0.318125,0.0,-0.0,-0.0,2.0,0.282024,0.27815,0.282024,0.285824,,,,,,,-0.005044,-0.013211,-0.219757,0.020156,-1.5e-05,-2.4e-05
455037,-0.005794,-0.018609,-0.318125,0.0,-0.0,-0.0,2.0,0.282024,0.277787,0.282024,0.286172,,,,,,,-0.005044,-0.013212,-0.219757,-0.0,-2.9e-05,-2.4e-05
455057,-0.005774,-0.01873,-0.318126,0.0,-0.0,-0.0,2.0,0.282024,0.276583,0.282024,0.287318,,,,,,,-0.005044,-0.013212,-0.219758,-8.4e-05,-2.9e-05,-2.4e-05
455077,-0.005794,-0.018609,-0.318125,0.0,-0.0,-0.0,2.0,0.282024,0.277217,0.282024,0.286716,,,,,,,-0.005063,-0.013213,-0.219758,-1.6e-05,-1.7e-05,-2.4e-05
455097,-0.005794,-0.018609,-0.318125,0.0,-0.0,-0.0,2.0,0.282024,0.277491,0.282024,0.286455,,,,,,,-0.005063,-0.013213,-0.219759,-1.6e-05,-1.7e-05,-2.4e-05
455117,-0.005794,-0.018609,-0.318125,0.0,-0.0,-0.0,2.0,0.282024,0.277736,0.282024,0.286221,,,,,,,-0.005063,-0.013214,-0.219759,-0.0,-1.7e-05,-2.4e-05
455137,-0.005914,-0.018628,-0.318126,0.0,-0.0,-0.0,2.0,0.282024,0.277044,0.282024,0.28688,,,,,,,-0.005083,-0.013214,-0.21976,-0.020172,-1.9e-05,-2.4e-05
455157,-0.005794,-0.018609,-0.318125,0.0,-0.0,-0.0,2.0,0.282024,0.277208,0.282024,0.286725,,,,,,,-0.005184,-0.013214,-0.21976,0.024007,-1.7e-05,-2.4e-05
455177,-0.005914,-0.018628,-0.318126,0.0,-0.0,-0.0,2.0,0.282024,0.276165,0.282024,0.287713,,,,,,,-0.005184,-0.013215,-0.21976,0.024008,-1.7e-05,-2.4e-05
455197,-0.005914,-0.018628,-0.318126,0.0,-0.0,-0.0,2.0,0.282024,0.278708,0.282024,0.285285,,,,,,,-0.005063,-0.013215,-0.219761,-0.024008,-1.8e-05,-2.4e-05
455217,-0.005914,-0.018628,-0.318126,0.0,-0.0,-0.0,2.0,0.282024,0.275185,0.282024,0.288633,,,,,,,-0.005183,-0.013215,-0.219761,-0.0001,-1.8e-05,-2.3e-05
455237,-0.005914,-0.018628,-0.318126,0.0,-0.0,-0.0,2.0,0.282024,0.277164,0.282024,0.286767,,,,,,,-0.005184,-0.013216,-0.219762,-0.0,-1.8e-05,-2.3e-05
455257,-0.005914,-0.018628,-0.318126,0.0,-0.0,-0.0,2.0,0.282024,0.277227,0.282024,0.286706,,,,,,,-0.005184,-0.013216,-0.219762,0.0,-1.8e-05,-2.3e-05
455277,-0.005914,-0.018628,-0.318126,0.0,-0.0,-0.0,2.0,0.282024,0.27717,0.282024,0.286761,,,,,,,-0.005184,-0.013216,-0.219763,0.0,-1.8e-05,-2.3e-05
455297,-0.005913,-0.018628,-0.318241,0.0,-0.0,-0.0,2.0,0.282024,0.277105,0.282024,0.286823,,,,,,,-0.005184,-0.013217,-0.219763,0.0,-1.8e-05,-2.3e-05
455317,-0.005914,-0.018628,-0.318126,0.0,-0.0,-0.0,2.0,0.282024,0.273372,0.282024,0.29031,,,,,,,-0.005304,-0.013217,-0.219764,0.023908,-1.8e-05,-2.3e-05
455337,-0.006035,-0.018648,-0.318127,0.0,-0.0,-0.0,2.0,0.282024,0.277173,0.282024,0.286758,,,,,,,-0.005184,-0.013217,-0.219764,-0.003852,-6e-06,-2.3e-05
455357,-0.006035,-0.018648,-0.318127,0.0,-0.0,-0.0,2.0,0.282024,0.277942,0.282024,0.286023,,,,,,,-0.005183,-0.013218,-0.219765,0.0,-1.8e-05,-3.5e-05
455377,-0.005913,-0.018628,-0.318241,0.0,-0.0,-0.0,2.0,0.282024,0.274099,0.282024,0.289641,,,,,,,-0.005304,-0.013218,-0.219765,-0.0001,-2e-05,-2.3e-05
455397,-0.006054,-0.018527,-0.318126,0.0,-0.0,-0.0,2.0,0.282024,0.275585,0.282024,0.288258,,,,,,,-0.005304,-0.013219,-0.219766,-0.003852,-8e-06,-2.3e-05
455417,-0.005914,-0.018628,-0.318126,0.0,-0.0,-0.0,2.0,0.282024,0.278424,0.282024,0.28556,,,,,,,-0.005202,-0.013219,-0.219766,0.003618,-1.8e-05,-2.3e-05
455437,-0.005792,-0.018609,-0.31824,0.0,-0.0,-0.0,2.0,0.282024,0.272915,0.282024,0.290729,,,,,,,-0.005323,-0.013219,-0.219767,0.047915,-4e-06,-2.3e-05
455457,-0.005914,-0.018628,-0.318126,0.0,-0.0,-0.0,2.0,0.282024,0.275561,0.282024,0.288281,,,,,,,-0.005184,-0.013219,-0.219767,1e-06,-1.8e-05,-2.3e-05
455477,-0.005914,-0.018628,-0.318126,0.0,-0.0,-0.0,2.0,0.282024,0.278542,0.282024,0.285446,,,,,,,-0.005063,-0.01322,-0.219768,-0.023993,-1.8e-05,-2.3e-05
455497,-0.005794,-0.018609,-0.318125,0.0,-0.0,-0.0,2.0,0.282024,0.274063,0.282024,0.289674,,,,,,,-0.005203,-0.01322,-0.219768,0.024141,-4e-06,-3.4e-05
455517,-0.005812,-0.018489,-0.318239,0.0,-0.0,-0.0,2.0,0.282024,0.274392,0.282024,0.28937,,,,,,,-0.005203,-0.01322,-0.219769,-1.5e-05,-6e-06,-2.3e-05
455537,-0.005934,-0.018508,-0.318126,0.0,-0.0,-0.0,2.0,0.282024,0.274017,0.282024,0.289717,,,,,,,-0.005183,-0.01322,-0.219769,-8.4e-05,-1.8e-05,-2.3e-05
455557,-0.005934,-0.018508,-0.318126,0.0,-0.0,-0.0,2.0,0.282024,0.279594,0.282024,0.284425,,,,,,,-0.005082,-0.01322,-0.21977,-0.02414,-6e-06,-2.3e-05
455577,-0.005952,-0.018387,-0.31824,0.0,-0.0,-0.0,2.0,0.282024,0.275329,0.282024,0.288498,,,,,,,-0.005222,-0.01322,-0.21977,-1.6e-05,6e-06,-2.2e-05
455597,-0.005934,-0.018508,-0.318126,0.0,-0.0,-0.0,2.0,0.282024,0.276342,0.282024,0.287546,,,,,,,-0.005203,-0.01322,-0.219771,-0.0,-6e-06,-2.2e-05
455617,-0.005813,-0.018488,-0.318125,0.0,-0.0,-0.0,2.0,0.282024,0.27819,0.282024,0.285785,,,,,,,-0.005082,-0.01322,-0.219771,-0.024225,-6e-06,-2.2e-05
455637,-0.005832,-0.018368,-0.318125,0.0,-0.0,-0.0,2.0,0.282024,0.27633,0.282024,0.287557,,,,,,,-0.005102,-0.01322,-0.219772,0.000232,8e-06,-3.4e-05
455657,-0.005831,-0.018368,-0.318239,0.0,-0.0,-0.0,2.0,0.282024,0.275694,0.282024,0.288156,,,,,,,-0.005102,-0.01322,-0.219772,0.000216,8e-06,-3.4e-05
455677,-0.005831,-0.018368,-0.318239,0.0,-0.0,-0.0,2.0,0.282024,0.2758,0.282024,0.288056,,,,,,,-0.005102,-0.01322,-0.219773,-0.020157,-6e-06,-2.2e-05
455697,-0.005953,-0.018387,-0.318125,0.0,-0.0,-0.0,2.0,0.282024,0.278026,0.282024,0.285942,,,,,,,-0.005101,-0.01322,-0.219774,-0.000132,8e-06,-2.2e-05
455717,-0.005972,-0.018267,-0.318125,0.0,-0.0,-0.0,2.0,0.282024,0.274921,0.282024,0.288879,,,,,,,-0.005222,-0.01322,-0.219774,0.000232,6e-06,-3.4e-05
455737,-0.005953,-0.018387,-0.318125,0.0,-0.0,-0.0,2.0,0.282024,0.275957,0.282024,0.287909,,,,,,,-0.005223,-0.01322,-0.219775,-0.023991,4e-06,-2.2e-05
455757,-0.005952,-0.018387,-0.31824,0.0,-0.0,-0.0,2.0,0.282024,0.276039,0.282024,0.287832,,,,,,,-0.005222,-0.01322,-0.219775,-1e-06,6e-06,-2.2e-05
455777,-0.005953,-0.018387,-0.318125,0.0,-0.0,-0.0,2.0,0.282024,0.279246,0.282024,0.284763,,,,,,,-0.005101,-0.013219,-0.219776,0.0001,8e-06,-3.3e-05
455797,-0.005831,-0.018368,-0.318239,0.0,-0.0,-0.0,2.0,0.282024,0.273003,0.282024,0.290648,,,,,,,-0.005221,-0.013219,-0.219776,0.023907,8e-06,-3.3e-05
455817,-0.005831,-0.018368,-0.318239,0.0,-0.0,-0.0,2.0,0.282024,0.27515,0.282024,0.288666,,,,,,,-0.00512,-0.013219,-0.219777,-1.6e-05,2e-05,-3.3e-05
455837,-0.005852,-0.018247,-0.318124,0.0,-0.0,-0.0,2.0,0.282024,0.277038,0.282024,0.286887,,,,,,,-0.005,-0.013219,-0.219778,-0.024007,2e-05,-3.3e-05
455857,-0.005851,-0.018248,-0.318238,0.0,-0.0,-0.0,2.0,0.282024,0.271256,0.282024,0.292231,,,,,,,-0.00524,-0.013218,-0.219778,0.023908,2e-05,-3.3e-05
455877,-0.006092,-0.018286,-0.31824,0.0,-0.0,-0.0,2.0,0.282024,0.273544,0.282024,0.290152,,,,,,,-0.005241,-0.013218,-0.219779,2e-06,1.8e-05,-3.3e-05
455897,-0.005952,-0.018387,-0.31824,0.0,-0.0,-0.0,2.0,0.282024,0.275855,0.282024,0.288005,,,,,,,-0.005241,-0.013218,-0.219779,-0.024238,1.6e-05,-2.2e-05
455917,-0.005953,-0.018387,-0.318125,0.0,-0.0,-0.0,2.0,0.282024,0.275711,0.282024,0.288141,,,,,,,-0.005221,-0.013217,-0.21978,-0.0,6e-06,-3.3e-05
455937,-0.005831,-0.018368,-0.318239,0.0,-0.0,-0.0,2.0,0.282024,0.275048,0.282024,0.288761,,,,,,,-0.005221,-0.013217,-0.219781,1e-06,6e-06,-3.3e-05
455957,-0.005711,-0.018349,-0.318238,0.0,-0.0,-0.0,2.0,0.282024,0.275888,0.282024,0.287974,,,,,,,-0.005102,-0.013217,-0.219781,-0.0,8e-06,-2.1e-05
455977,-0.005712,-0.018349,-0.318124,0.0,-0.0,-0.0,2.0,0.282024,0.27597,0.282024,0.287896,,,,,,,-0.00498,-0.013217,-0.219782,-0.000231,1e-05,-2.1e-05
455997,-0.005852,-0.018247,-0.318124,0.0,-0.0,-0.0,2.0,0.282024,0.275014,0.282024,0.288793,,,,,,,-0.00498,-0.013217,-0.219782,1e-06,1e-05,-3.3e-05
456017,-0.005831,-0.018368,-0.318239,0.0,-0.0,-0.0,2.0,0.282024,0.274289,0.282024,0.289466,,,,,,,-0.005102,-0.013216,-0.219783,-0.003835,2e-05,-2.1e-05
456037,-0.006073,-0.018407,-0.318126,0.0,-0.0,-0.0,2.0,0.282024,0.270967,0.282024,0.29249,,,,,,,-0.005222,-0.013216,-0.219783,-0.0001,6e-06,-2.1e-05
456057,-0.006073,-0.018407,-0.318126,0.0,-0.0,-0.0,2.0,0.282024,0.277019,0.282024,0.286905,,,,,,,-0.005223,-0.013216,-0.219784,-0.023908,4e-06,-2.1e-05
456077,-0.006073,-0.018407,-0.318126,0.0,-0.0,-0.0,2.0,0.282024,0.275963,0.282024,0.287904,,,,,,,-0.005344,-0.013216,-0.219784,0.0001,4e-06,-2.1e-05
456097,-0.005953,-0.018387,-0.318125,0.0,-0.0,-0.0,2.0,0.282024,0.27448,0.282024,0.289289,,,,,,,-0.005343,-0.013216,-0.219785,0.0,4e-06,-2.1e-05
456117,-0.005972,-0.018267,-0.318125,0.0,-0.0,-0.0,2.0,0.282024,0.275671,0.282024,0.288178,,,,,,,-0.005223,-0.013216,-0.219785,0.024023,8e-06,-2.1e-05
456137,-0.005832,-0.018368,-0.318125,0.0,-0.0,-0.0,2.0,0.282024,0.281135,0.282024,0.28291,,,,,,,-0.005002,-0.013216,-0.219785,0.000198,2.2e-05,-2.1e-05
456157,-0.005731,-0.018228,-0.318123,0.0,-0.0,-0.0,2.0,0.282024,0.273662,0.282024,0.290044,,,,,,,-0.005121,-0.013215,-0.219786,0.0,2e-05,-2.1e-05
456177,-0.005972,-0.018267,-0.318125,0.0,-0.0,-0.0,2.0,0.282024,0.270086,0.282024,0.293276,,,,,,,-0.005222,-0.013215,-0.219786,-8.3e-05,6e-06,-2.1e-05
456197,-0.006073,-0.018407,-0.318126,0.0,-0.0,-0.0,2.0,0.282024,0.273421,0.282024,0.290265,,,,,,,-0.005242,-0.013215,-0.219787,0.003835,6e-06,-2.1e-05
456217,-0.006073,-0.018407,-0.318126,0.0,-0.0,-0.0,2.0,0.282024,0.273084,0.282024,0.290574,,,,,,,-0.005343,-0.013215,-0.219787,0.0,4e-06,-2.1e-05
456237,-0.006073,-0.018407,-0.318126,0.0,-0.0,-0.0,2.0,0.282024,0.270138,0.282024,0.29323,,,,,,,-0.005463,-0.013214,-0.219787,0.023908,4e-06,-2.1e-05
456257,-0.006073,-0.018407,-0.318126,0.0,-0.0,-0.0,2.0,0.282024,0.275999,0.282024,0.287869,,,,,,,-0.005222,-0.013214,-0.219788,0.003617,-6e-06,-9e-06
456277,-0.005712,-0.018349,-0.318124,0.0,-0.0,-0.0,2.0,0.282024,0.278532,0.282024,0.285455,,,,,,,-0.005102,-0.013214,-0.219788,9.9e-05,8e-06,-2.1e-05
456297,-0.005712,-0.018349,-0.318124,0.0,-0.0,-0.0,2.0,0.282024,0.272989,0.282024,0.290661,,,,,,,-0.005102,-0.013214,-0.219789,0.023992,9e-06,-2.1e-05
456317,-0.005712,-0.018349,-0.318124,0.0,-0.0,-0.0,2.0,0.282024,0.274271,0.282024,0.289482,,,,,,,-0.004981,-0.013214,-0.219789,0.003851,-3e-06,-2.1e-05
456337,-0.005813,-0.018488,-0.318125,0.0,-0.0,-0.0,2.0,0.282024,0.273741,0.282024,0.289971,,,,,,,-0.004981,-0.013214,-0.219789,0.0,9e-06,-2e-05
456357,-0.005953,-0.018387,-0.318125,0.0,-0.0,-0.0,2.0,0.282024,0.272277,0.282024,0.29131,,,,,,,-0.005102,-0.013214,-0.21979,-1.6e-05,7e-06,-2e-05
456377,-0.005953,-0.018387,-0.318125,0.0,-0.0,-0.0,2.0,0.282024,0.273126,0.282024,0.290536,,,,,,,-0.005203,-0.013214,-0.21979,1.7e-05,-7e-06,-2.1e-05
456397,-0.005953,-0.018387,-0.318125,0.0,-0.0,-0.0,2.0,0.282024,0.273244,0.282024,0.290427,,,,,,,-0.005224,-0.013214,-0.219791,-1e-06,6e-06,-9e-06
456417,-0.005833,-0.018368,-0.31801,0.0,-0.0,-0.0,2.0,0.282024,0.277108,0.282024,0.28682,,,,,,,-0.005102,-0.013214,-0.219791,-0.000133,7e-06,-9e-06
456437,-0.005591,-0.018329,-0.318123,0.0,-0.0,-0.0,2.0,0.282024,0.275622,0.282024,0.288224,,,,,,,-0.004981,-0.013213,-0.219791,0.024007,1.1e-05,-2e-05
456457,-0.005591,-0.018329,-0.318123,0.0,-0.0,-0.0,2.0,0.282024,0.274078,0.282024,0.289661,,,,,,,-0.004861,-0.013213,-0.219792,1e-06,1.1e-05,-2e-05
456477,-0.005572,-0.01845,-0.318124,0.0,-0.0,-0.0,2.0,0.282024,0.271599,0.282024,0.291922,,,,,,,-0.00486,-0.013213,-0.219792,-0.00033,1.1e-05,-9e-06
456497,-0.005694,-0.018469,-0.31801,0.0,-0.0,-0.0,2.0,0.282024,0.269589,0.282024,0.293717,,,,,,,-0.004962,-0.013213,-0.219792,-9.9e-05,-3e-06,-2e-05
456517,-0.005832,-0.018368,-0.318125,0.0,-0.0,-0.0,2.0,0.282024,0.270438,0.282024,0.292963,,,,,,,-0.005102,-0.013213,-0.219793,-1.5e-05,7e-06,-2e-05
456537,-0.005953,-0.018387,-0.318125,0.0,-0.0,-0.0,2.0,0.282024,0.270852,0.282024,0.292593,,,,,,,-0.005224,-0.013213,-0.219793,-0.023775,3e-06,-2e-05
456557,-0.005954,-0.018387,-0.318011,0.0,-0.0,-0.0,2.0,0.282024,0.273575,0.282024,0.290124,,,,,,,-0.005203,-0.013213,-0.219793,-0.003851,5e-06,-2e-05
456577,-0.005692,-0.018469,-0.318124,0.0,-0.0,-0.0,2.0,0.282024,0.276655,0.282024,0.28725,,,,,,,-0.005102,-0.013213,-0.219794,0.027957,-3e-06,-2e-05
456597,-0.005471,-0.01831,-0.318122,0.0,-0.0,-0.0,2.0,0.282024,0.276849,0.282024,0.287066,,,,,,,-0.004861,-0.013213,-0.219794,8.3e-05,1.1e-05,-2e-05
456617,-0.005451,-0.01843,-0.318123,0.0,-0.0,-0.0,2.0,0.282024,0.276405,0.282024,0.287486,,,,,,,-0.004601,-0.013213,-0.219795,-1e-06,3e-06,-2e-05
456637,-0.005432,-0.018551,-0.318123,0.0,-0.0,-0.0,2.0,0.282024,0.274115,0.282024,0.289627,,,,,,,-0.004601,-0.013213,-0.219795,-0.020157,-1.1e-05,-2e-05
456657,-0.005572,-0.01845,-0.318124,0.0,-0.0,-0.0,2.0,0.282024,0.268835,0.282024,0.29438,,,,,,,-0.004822,-0.013213,-0.219795,0.020057,1e-06,-2e-05
456677,-0.005813,-0.018488,-0.318125,0.0,-0.0,-0.0,2.0,0.282024,0.270254,0.282024,0.293126,,,,,,,-0.004943,-0.013213,-0.219796,-0.027858,-5e-06,-2e-05
456697,-0.005934,-0.018508,-0.318126,0.0,-0.0,-0.0,2.0,0.282024,0.27182,0.282024,0.291723,,,,,,,-0.005083,-0.013213,-0.219796,-0.020156,-1.9e-05,-2e-05
456717,-0.005813,-0.018488,-0.318125,0.0,-0.0,-0.0,2.0,0.282024,0.275602,0.282024,0.288242,,,,,,,-0.005083,-0.013213,-0.219797,9.9e-05,-5e-06,-2e-05
456737,-0.005572,-0.01845,-0.318124,0.0,-0.0,-0.0,2.0,0.282024,0.276374,0.282024,0.287516,,,,,,,-0.004963,-0.013213,-0.219797,9.9e-05,-3e-06,-2e-05
456757,-0.005312,-0.018532,-0.318123,0.0,-0.0,-0.0,2.0,0.282024,0.276202,0.282024,0.287679,,,,,,,-0.004702,-0.013213,-0.219797,1.5e-05,-1.1e-05,-2e-05
456777,-0.005172,-0.018633,-0.318123,0.0,-0.0,-0.0,2.0,0.282024,0.277542,0.282024,0.286406,,,,,,,-0.004461,-0.013214,-0.219798,0.024106,-5e-06,-1.9e-05
456797,-0.005172,-0.018633,-0.318123,0.0,-0.0,-0.0,2.0,0.282024,0.276317,0.282024,0.28757,,,,,,,-0.00432,-0.013214,-0.219798,-0.02414,-1.9e-05,-1.9e-05
456817,-0.00519,-0.018513,-0.318237,0.0,-0.0,-0.0,2.0,0.282024,0.272256,0.282024,0.291328,,,,,,,-0.004441,-0.013214,-0.219799,-0.024007,-2.1e-05,-1.9e-05
456837,-0.005553,-0.01857,-0.318124,0.0,-0.0,-0.0,2.0,0.282024,0.266983,0.282024,0.295991,,,,,,,-0.004701,-0.013214,-0.219799,-9.9e-05,-1.1e-05,-1.9e-05
456857,-0.005673,-0.01859,-0.318125,0.0,-0.0,-0.0,2.0,0.282024,0.270879,0.282024,0.292569,,,,,,,-0.004822,-0.013215,-0.219799,-0.024007,-1.5e-05,-2e-05
456877,-0.005572,-0.01845,-0.318124,0.0,-0.0,-0.0,2.0,0.282024,0.271296,0.282024,0.292195,,,,,,,-0.004962,-0.013215,-0.2198,0.024007,-1e-06,-1.9e-05
456897,-0.00547,-0.01831,-0.318237,0.0,-0.0,-0.0,2.0,0.282024,0.272556,0.282024,0.291056,,,,,,,-0.004842,-0.013215,-0.2198,0.020156,1.3e-05,-1.9e-05
456917,-0.005209,-0.018392,-0.318236,0.0,-0.0,-0.0,2.0,0.282024,0.275001,0.282024,0.288805,,,,,,,-0.004601,-0.013215,-0.219801,1.4e-05,3e-06,-1.9e-05
456937,-0.00495,-0.018474,-0.318121,0.0,-0.0,-0.0,2.0,0.282024,0.27528,0.282024,0.288544,,,,,,,-0.004358,-0.013215,-0.219801,0.024006,9e-06,-3e-05
456957,-0.004949,-0.018474,-0.318235,0.0,-0.0,-0.0,2.0,0.282024,0.272468,0.282024,0.291136,,,,,,,-0.004238,-0.013215,-0.219802,-1.6e-05,9e-06,-3e-05
456977,-0.004968,-0.018353,-0.318235,0.0,-0.0,-0.0,2.0,0.282024,0.270203,0.282024,0.293172,,,,,,,-0.004237,-0.013214,-0.219802,-0.0001,9e-06,-3e-05
456997,-0.005209,-0.018392,-0.318236,0.0,-0.0,-0.0,2.0,0.282024,0.268112,0.282024,0.295012,,,,,,,-0.004358,-0.013214,-0.219803,-0.024106,5e-06,-3e-05
457017,-0.00533,-0.018411,-0.318237,0.0,-0.0,-0.0,2.0,0.282024,0.271159,0.282024,0.292318,,,,,,,-0.004479,-0.013214,-0.219804,-0.024007,3e-06,-3e-05
457037,-0.005209,-0.018392,-0.318236,0.0,-0.0,-0.0,2.0,0.282024,0.271297,0.282024,0.292194,,,,,,,-0.004599,-0.013214,-0.219804,0.0,3e-06,-3e-05
457057,-0.005209,-0.018392,-0.318236,0.0,-0.0,-0.0,2.0,0.282024,0.270164,0.282024,0.293207,,,,,,,-0.004619,-0.013214,-0.219805,-1.5e-05,1.5e-05,-3e-05
457077,-0.004949,-0.018474,-0.318235,0.0,-0.0,-0.0,2.0,0.282024,0.274676,0.282024,0.289106,,,,,,,-0.004358,-0.013214,-0.219805,-1e-06,7e-06,-3e-05
457097,-0.004688,-0.018556,-0.318234,0.0,-0.0,-0.0,2.0,0.282024,0.276914,0.282024,0.287005,,,,,,,-0.004098,-0.013214,-0.219806,0.024106,1e-06,-3e-05
457117,-0.004466,-0.018397,-0.318347,0.0,-0.0,-0.0,2.0,0.282024,0.272578,0.282024,0.291035,,,,,,,-0.003977,-0.013214,-0.219807,0.003852,-1.1e-05,-3e-05
457137,-0.004586,-0.018416,-0.318347,0.0,-0.0,-0.0,2.0,0.282024,0.270368,0.282024,0.293026,,,,,,,-0.003837,-0.013214,-0.219807,-9.9e-05,-9e-06,-3e-05
457157,-0.004708,-0.018435,-0.318234,0.0,-0.0,-0.0,2.0,0.282024,0.27159,0.282024,0.291931,,,,,,,-0.003856,-0.013214,-0.219808,-0.024006,1e-06,-4.1e-05
457177,-0.004726,-0.018315,-0.318348,0.0,-0.0,-0.0,2.0,0.282024,0.268722,0.282024,0.29448,,,,,,,-0.004116,-0.013214,-0.219809,-1.5e-05,1.1e-05,-4.1e-05
457197,-0.004846,-0.018334,-0.318348,0.0,-0.0,-0.0,2.0,0.282024,0.270516,0.282024,0.292893,,,,,,,-0.004116,-0.013214,-0.21981,1e-06,1.1e-05,-4.1e-05
457217,-0.004848,-0.018334,-0.318234,0.0,-0.0,-0.0,2.0,0.282024,0.271711,0.282024,0.291822,,,,,,,-0.004117,-0.013213,-0.21981,-0.023992,9e-06,-2.9e-05
457237,-0.004727,-0.018315,-0.318233,0.0,-0.0,-0.0,2.0,0.282024,0.272102,0.282024,0.291468,,,,,,,-0.004116,-0.013213,-0.219811,0.024006,1.3e-05,-4.1e-05
457257,-0.004586,-0.018416,-0.318347,0.0,-0.0,-0.0,2.0,0.282024,0.27183,0.282024,0.291714,,,,,,,-0.003995,-0.013213,-0.219812,0.02399,1.5e-05,-4.1e-05
457277,-0.004466,-0.018397,-0.318347,0.0,-0.0,-0.0,2.0,0.282024,0.27589,0.282024,0.287973,,,,,,,-0.003736,-0.013213,-0.219813,-0.023907,3e-06,-4e-05
457297,-0.004466,-0.018397,-0.318347,0.0,-0.0,-0.0,2.0,0.282024,0.270486,0.282024,0.29292,,,,,,,-0.003735,-0.013213,-0.219813,-0.0001,4e-06,-4e-05
457317,-0.004605,-0.018295,-0.318347,0.0,-0.0,-0.0,2.0,0.282024,0.273234,0.282024,0.290437,,,,,,,-0.003736,-0.013213,-0.219814,-0.02776,1.5e-05,-4e-05
457337,-0.004726,-0.018315,-0.318348,0.0,-0.0,-0.0,2.0,0.282024,0.269011,0.282024,0.294226,,,,,,,-0.003996,-0.013212,-0.219815,1e-06,1.3e-05,-4e-05
457357,-0.004967,-0.018353,-0.318349,0.0,-0.0,-0.0,2.0,0.282024,0.269108,0.282024,0.294141,,,,,,,-0.004116,-0.013212,-0.219816,-0.024006,9e-06,-4e-05
457377,-0.004827,-0.018455,-0.318349,0.0,-0.0,-0.0,2.0,0.282024,0.273914,0.282024,0.289812,,,,,,,-0.004117,-0.013212,-0.219817,-0.024153,9e-06,-2.9e-05
457397,-0.004726,-0.018315,-0.318348,0.0,-0.0,-0.0,2.0,0.282024,0.272286,0.282024,0.291301,,,,,,,-0.004097,-0.013212,-0.219817,0.024022,1e-06,-4e-05
457417,-0.004466,-0.018397,-0.318347,0.0,-0.0,-0.0,2.0,0.282024,0.275595,0.282024,0.288249,,,,,,,-0.003856,-0.013212,-0.219818,0.0001,2e-06,-4e-05
457437,-0.004345,-0.018377,-0.318346,0.0,-0.0,-0.0,2.0,0.282024,0.27618,0.282024,0.287699,,,,,,,-0.003615,-0.013212,-0.219819,9.9e-05,6e-06,-4e-05
457457,-0.004244,-0.018237,-0.318345,0.0,-0.0,-0.0,2.0,0.282024,0.273489,0.282024,0.290203,,,,,,,-0.003494,-0.013212,-0.21982,-1e-06,8e-06,-4e-05
457477,-0.004244,-0.018237,-0.318345,0.0,-0.0,-0.0,2.0,0.282024,0.271303,0.282024,0.292188,,,,,,,-0.003513,-0.013211,-0.219821,0.024233,2.2e-05,-5.1e-05
457497,-0.004364,-0.018257,-0.318346,0.0,-0.0,-0.0,2.0,0.282024,0.268754,0.282024,0.294452,,,,,,,-0.003634,-0.013211,-0.219821,1e-06,1.8e-05,-3.9e-05
457517,-0.004485,-0.018276,-0.318346,0.0,-0.0,-0.0,2.0,0.282024,0.267092,0.282024,0.295897,,,,,,,-0.003754,-0.013211,-0.219822,0.003755,4e-06,-3.9e-05
457537,-0.004586,-0.018416,-0.318347,0.0,-0.0,-0.0,2.0,0.282024,0.27242,0.282024,0.291179,,,,,,,-0.003755,-0.01321,-0.219823,-0.023907,1.4e-05,-3.9e-05
457557,-0.004364,-0.018257,-0.318346,0.0,-0.0,-0.0,2.0,0.282024,0.270082,0.282024,0.29328,,,,,,,-0.003875,-0.01321,-0.219824,0.02399,1.6e-05,-3.9e-05
457577,-0.004364,-0.018257,-0.318346,0.0,-0.0,-0.0,2.0,0.282024,0.274707,0.282024,0.289078,,,,,,,-0.003615,-0.01321,-0.219825,-0.003738,1.8e-05,-3.9e-05
457597,-0.004123,-0.018218,-0.318344,0.0,-0.0,-0.0,2.0,0.282024,0.272986,0.282024,0.290664,,,,,,,-0.003513,-0.013209,-0.219825,-1e-06,2e-05,-3.9e-05
457617,-0.004003,-0.018199,-0.318343,0.0,-0.0,-0.0,2.0,0.282024,0.275776,0.282024,0.28808,,,,,,,-0.003273,-0.013209,-0.219826,-0.003755,3.6e-05,-3.9e-05
457637,-0.004022,-0.018078,-0.318343,0.0,-0.0,-0.0,2.0,0.282024,0.266971,0.282024,0.296001,,,,,,,-0.003412,-0.013208,-0.219827,0.023892,3.6e-05,-3.9e-05
457657,-0.004143,-0.018098,-0.318344,0.0,-0.0,-0.0,2.0,0.282024,0.269806,0.282024,0.293524,,,,,,,-0.003393,-0.013208,-0.219828,1.6e-05,2.2e-05,-3.9e-05
457677,-0.004244,-0.018237,-0.318345,0.0,-0.0,-0.0,2.0,0.282024,0.267364,0.282024,0.295662,,,,,,,-0.003513,-0.013207,-0.219828,-8.3e-05,2e-05,-3.9e-05
457697,-0.004345,-0.018377,-0.318346,0.0,-0.0,-0.0,2.0,0.282024,0.272348,0.282024,0.291245,,,,,,,-0.003514,-0.013207,-0.219829,0.0001,2e-05,-3.9e-05
457717,-0.004224,-0.018358,-0.318345,0.0,-0.0,-0.0,2.0,0.282024,0.269912,0.282024,0.293431,,,,,,,-0.003615,-0.013207,-0.21983,0.0,6e-06,-3.9e-05
457737,-0.004224,-0.018358,-0.318345,0.0,-0.0,-0.0,2.0,0.282024,0.271521,0.282024,0.291992,,,,,,,-0.003494,-0.013207,-0.219831,-0.0,8e-06,-3.8e-05
457757,-0.003983,-0.018319,-0.318344,0.0,-0.0,-0.0,2.0,0.282024,0.271971,0.282024,0.291586,,,,,,,-0.003393,-0.013206,-0.219831,-1.6e-05,2.2e-05,-3.8e-05
457777,-0.003902,-0.018059,-0.318342,0.0,-0.0,-0.0,2.0,0.282024,0.271598,0.282024,0.291923,,,,,,,-0.003272,-0.013206,-0.219832,0.024006,2.6e-05,-3.8e-05
457797,-0.003881,-0.018179,-0.318457,0.0,-0.0,-0.0,2.0,0.282024,0.271357,0.282024,0.292141,,,,,,,-0.003152,-0.013205,-0.219833,-0.0,2.5e-05,-3.8e-05
457817,-0.004003,-0.018199,-0.318343,0.0,-0.0,-0.0,2.0,0.282024,0.270295,0.282024,0.29309,,,,,,,-0.003171,-0.013205,-0.219834,-0.020153,2.3e-05,-3.8e-05
457837,-0.004123,-0.018218,-0.318344,0.0,-0.0,-0.0,2.0,0.282024,0.270123,0.282024,0.293243,,,,,,,-0.003271,-0.013204,-0.219835,-0.000226,2.3e-05,-3.8e-05
457857,-0.004104,-0.018339,-0.318345,0.087266,-0.0,-0.0,2.0,0.282024,0.208539,0.282024,0.334674,,,,,,,-0.003393,-0.013204,-0.219835,0.004082,9e-06,-4.9e-05
457877,-0.004104,-0.018339,-0.318345,0.087266,-0.0,-0.0,2.0,0.282024,0.203127,0.282024,0.33727,,,,,,,-0.003494,-0.013204,-0.219836,0.023923,9e-06,-3.8e-05
457897,-0.003724,-0.018401,-0.318228,0.087266,-0.0,-0.0,2.0,0.282024,0.205014,0.282024,0.336381,,,,,,,-0.003355,-0.013203,-0.219837,0.047913,1e-06,-2.6e-05
457917,-0.002501,-0.018328,-0.318106,0.087266,-0.0,-0.0,2.0,0.282024,0.227542,0.282024,0.324367,,,,,,,-0.002392,-0.013203,-0.219837,0.075843,6e-06,-1.4e-05
457937,-5.1e-05,-0.018183,-0.318089,0.087266,-0.0,-0.0,2.0,0.282024,0.245411,0.282024,0.312804,,,,,,,-0.000668,-0.013203,-0.219838,0.148525,1.5e-05,-2.4e-05
457957,0.003402,-0.018123,-0.318176,0.087266,-0.0,-0.0,2.0,0.282024,0.26323,0.282024,0.299169,,,,,,,0.002181,-0.013203,-0.219838,0.192681,2.7e-05,-2.2e-05
457977,0.008101,-0.018111,-0.31853,0.087266,-0.0,-0.0,2.0,0.282024,0.286621,0.282024,0.277317,,,,,,,0.006395,-0.013202,-0.219839,0.241306,2.5e-05,-4.6e-05
457997,0.013926,-0.018161,-0.318973,0.087266,-0.0,-0.0,2.0,0.282024,0.300783,0.282024,0.26127,,,,,,,0.011577,-0.013202,-0.21984,0.296993,1.4e-05,-8.5e-05
458017,0.020151,-0.018391,-0.319393,0.087266,-0.0,-0.0,2.0,0.282024,0.313875,0.282024,0.243877,,,,,,,0.017661,-0.013202,-0.219842,0.349319,-8e-06,-0.000133
458037,0.026898,-0.018777,-0.320012,0.087266,-0.0,-0.0,2.0,0.282024,0.328059,0.282024,0.221133,,,,,,,0.024509,-0.013202,-0.219845,0.301278,-3.6e-05,-0.000184
458057,0.033505,-0.019062,-0.320441,0.087266,-0.0,-0.0,2.0,0.282024,0.32597,0.282024,0.224808,,,,,,,0.030975,-0.013202,-0.219849,0.329158,-6.5e-05,-0.000233
458077,0.039247,-0.019362,-0.320698,0.087266,-0.0,-0.0,2.0,0.282024,0.319332,0.282024,0.235696,,,,,,,0.037103,-0.013204,-0.219854,0.29686,-7.9e-05,-0.000264
458097,0.043767,-0.019735,-0.32103,0.087266,-0.0,-0.0,2.0,0.282024,0.309505,0.282024,0.250004,,,,,,,0.042364,-0.013206,-0.21986,0.220921,-0.000109,-0.000301
458117,0.047002,-0.019822,-0.321222,0.087266,-0.0,-0.0,2.0,0.282024,0.295772,0.282024,0.267237,,,,,,,0.046341,-0.013208,-0.219866,0.176583,-0.000134,-0.000318
458137,0.04897,-0.019743,-0.321393,0.087266,-0.0,-0.0,2.0,0.282024,0.278531,0.282024,0.285456,,,,,,,0.048954,-0.013211,-0.219872,0.076376,-0.000137,-0.000329
458157,0.049552,-0.019524,-0.321379,0.087266,-0.0,-0.0,2.0,0.282024,0.251562,0.282024,0.308353,,,,,,,0.050041,-0.013213,-0.219879,0.024076,-0.00011,-0.000337
458177,0.049293,-0.01944,-0.321503,0.087266,-0.0,-0.0,2.0,0.282024,0.23696,0.282024,0.318516,,,,,,,0.050264,-0.013216,-0.219886,-0.024011,-9.8e-05,-0.000348
458197,0.048792,-0.019395,-0.321633,0.087266,-0.0,-0.0,2.0,0.282024,0.224648,0.282024,0.326063,,,,,,,0.049763,-0.013217,-0.219893,-0.023955,-9.3e-05,-0.000361
458217,0.04855,-0.019437,-0.321525,0.087266,-0.0,-0.0,2.0,0.282024,0.22343,0.282024,0.326762,,,,,,,0.049281,-0.013219,-0.2199,-9.8e-05,-9.9e-05,-0.000349
458237,0.049211,-0.019704,-0.321386,0.087266,-0.0,-0.0,2.0,0.282024,0.239632,0.282024,0.316759,,,,,,,0.049541,-0.013221,-0.219907,0.027839,-0.000117,-0.000336
458257,0.050955,-0.019794,-0.321217,0.087266,-0.0,-0.0,2.0,0.282024,0.257796,0.282024,0.303572,,,,,,,0.050701,-0.013224,-0.219913,0.09616,-0.00013,-0.000319
458277,0.053806,-0.019828,-0.321068,0.087266,-0.0,-0.0,2.0,0.282024,0.278137,0.282024,0.285835,,,,,,,0.053049,-0.013227,-0.21992,0.144569,-0.000125,-0.000316
458297,0.057862,-0.019663,-0.320993,0.087266,-0.0,-0.0,2.0,0.282024,0.296991,0.282024,0.265816,,,,,,,0.056479,-0.013229,-0.219926,0.201319,-0.000126,-0.000297
458317,0.062802,-0.019597,-0.320991,0.087266,-0.0,-0.0,2.0,0.282024,0.306806,0.282024,0.253619,,,,,,,0.060795,-0.013231,-0.219932,0.297321,-0.00011,-0.000286
458337,0.068347,-0.019433,-0.321015,0.087266,-0.0,-0.0,2.0,0.282024,0.32183,0.282024,0.231729,,,,,,,0.066259,-0.013234,-0.219938,0.264984,-9.6e-05,-0.000295
458357,0.074293,-0.019449,-0.321003,0.087266,-0.0,-0.0,2.0,0.282024,0.332245,0.282024,0.213348,,,,,,,0.072184,-0.013236,-0.219944,0.272838,-0.00011,-0.000293
458377,0.079917,-0.019759,-0.321095,0.087266,-0.0,-0.0,2.0,0.282024,0.330958,0.282024,0.215806,,,,,,,0.07789,-0.013238,-0.219949,0.29776,-0.000113,-0.000308
458397,0.084899,-0.01993,-0.321091,0.087266,-0.0,-0.0,2.0,0.282024,0.328248,0.282024,0.220794,,,,,,,0.083234,-0.01324,-0.219955,0.252556,-0.00014,-0.000289
458417,0.088773,-0.020162,-0.320956,0.087266,-0.0,-0.0,2.0,0.282024,0.314973,0.282024,0.24228,,,,,,,0.087616,-0.013243,-0.219961,0.176255,-0.000161,-0.00028
458437,0.091264,-0.020249,-0.320888,0.087266,-0.0,-0.0,2.0,0.282024,0.305293,0.282024,0.255594,,,,,,,0.09099,-0.013247,-0.219967,0.100463,-0.000173,-0.000293
458457,0.092634,-0.020262,-0.321104,0.087266,-0.0,-0.0,2.0,0.282024,0.287573,0.282024,0.276313,,,,,,,0.092881,-0.01325,-0.219973,0.048269,-0.000183,-0.00029
458477,0.092615,-0.020136,-0.321224,0.087266,-0.0,-0.0,2.0,0.282024,0.268077,0.282024,0.295043,,,,,,,0.093484,-0.013254,-0.219979,9.9e-05,-0.000176,-0.000299
458497,0.091974,-0.019988,-0.321375,0.087266,-0.0,-0.0,2.0,0.282024,0.249536,0.282024,0.309848,,,,,,,0.093086,-0.013257,-0.219985,-0.048163,-0.00016,-0.000325
458517,0.091113,-0.019989,-0.321761,0.087266,-0.0,-0.0,2.0,0.282024,0.24242,0.282024,0.314878,,,,,,,0.092205,-0.01326,-0.219992,-0.02419,-0.000147,-0.000351
458537,0.090511,-0.020082,-0.321902,0.087266,-0.0,-0.0,2.0,0.282024,0.246254,0.282024,0.312209,,,,,,,0.091483,-0.013263,-0.219999,-0.024007,-0.000157,-0.000377
458557,0.090898,-0.020132,-0.322167,0.087266,-0.0,-0.0,2.0,0.282024,0.258143,0.282024,0.303297,,,,,,,0.091362,-0.013266,-0.220007,0.027869,-0.000166,-0.000386
458577,0.092281,-0.020276,-0.322093,0.087266,-0.0,-0.0,2.0,0.282024,0.27247,0.282024,0.291134,,,,,,,0.092129,-0.01327,-0.220015,0.076016,-0.000174,-0.000397
458597,0.094652,-0.020375,-0.32214,0.087266,-0.0,-0.0,2.0,0.282024,0.288926,0.282024,0.274871,,,,,,,0.093998,-0.013273,-0.220023,0.128051,-0.000187,-0.000402
458617,0.097992,-0.020316,-0.322196,0.087266,-0.0,-0.0,2.0,0.282024,0.304915,0.282024,0.256082,,,,,,,0.096888,-0.013277,-0.220031,0.172314,-0.000197,-0.000402
458637,0.101993,-0.020512,-0.322316,0.087266,-0.0,-0.0,2.0,0.282024,0.319398,0.282024,0.235592,,,,,,,0.100728,-0.013281,-0.220039,0.196469,-0.000193,-0.000403
458657,0.106835,-0.020575,-0.32227,0.087266,-0.0,-0.0,2.0,0.282024,0.329471,0.282024,0.218574,,,,,,,0.10505,-0.013285,-0.220047,0.252353,-0.000203,-0.000399
458677,0.111538,-0.020543,-0.322112,0.087266,-0.0,-0.0,2.0,0.282024,0.331981,0.282024,0.213859,,,,,,,0.109792,-0.013289,-0.220055,0.249696,-0.00021,-0.0004
458697,0.115798,-0.02083,-0.321957,0.087266,-0.0,-0.0,2.0,0.282024,0.334162,0.282024,0.209573,,,,,,,0.114514,-0.013293,-0.220063,0.201824,-0.000222,-0.000394
458717,0.119519,-0.020836,-0.32184,0.087266,-0.0,-0.0,2.0,0.282024,0.330573,0.282024,0.21653,,,,,,,0.118616,-0.013297,-0.22007,0.153795,-0.000233,-0.000369
458737,0.12213,-0.020907,-0.321613,0.087266,-0.0,-0.0,2.0,0.282024,0.317714,0.282024,0.238188,,,,,,,0.121636,-0.013302,-0.220078,0.14426,-0.000233,-0.000344
458757,0.1235,-0.020929,-0.321581,0.087266,-0.0,-0.0,2.0,0.282024,0.305221,0.282024,0.255687,,,,,,,0.123728,-0.013307,-0.220084,0.072162,-0.000229,-0.000338
458777,0.12362,-0.020909,-0.321574,0.087266,-0.0,-0.0,2.0,0.282024,0.287498,0.282024,0.276393,,,,,,,0.124471,-0.013312,-0.220091,-1e-06,-0.000236,-0.000323
458797,0.122739,-0.020808,-0.321636,0.087266,-0.0,-0.0,2.0,0.282024,0.271706,0.282024,0.291826,,,,,,,0.124091,-0.013316,-0.220098,-0.048123,-0.000232,-0.000338
458817,0.12137,-0.020771,-0.321896,0.087266,-0.0,-0.0,2.0,0.282024,0.263852,0.282024,0.29865,,,,,,,0.122982,-0.013321,-0.220105,-0.075945,-0.000226,-0.000363
458837,0.119907,-0.020874,-0.322213,0.087266,-0.0,-0.0,2.0,0.282024,0.255482,0.282024,0.305379,,,,,,,0.12138,-0.013325,-0.220112,-0.076057,-0.000227,-0.000384
458857,0.118798,-0.020925,-0.322337,0.087266,-0.0,-0.0,2.0,0.282024,0.2572,0.282024,0.304042,,,,,,,0.120018,-0.01333,-0.22012,-0.048222,-0.000233,-0.000413
458877,0.118565,-0.02095,-0.322636,0.087266,-0.0,-0.0,2.0,0.282024,0.268914,0.282024,0.294311,,,,,,,0.119276,-0.013335,-0.220128,0.003796,-0.000239,-0.000438
458897,0.119326,-0.021057,-0.322811,0.087266,-0.0,-0.0,2.0,0.282024,0.284921,0.282024,0.279083,,,,,,,0.119555,-0.013339,-0.220137,0.048043,-0.000241,-0.000456
458917,0.120936,-0.021031,-0.322881,0.087266,-0.0,-0.0,2.0,0.282024,0.299626,0.282024,0.262678,,,,,,,0.120803,-0.013344,-0.220146,0.072171,-0.000242,-0.000464
458937,0.123435,-0.021098,-0.32306,0.087266,-0.0,-0.0,2.0,0.282024,0.313539,0.282024,0.244361,,,,,,,0.122913,-0.013349,-0.220156,0.124171,-0.000251,-0.000464
458957,0.126554,-0.021184,-0.323193,0.087266,-0.0,-0.0,2.0,0.282024,0.325067,0.282024,0.226357,,,,,,,0.125772,-0.013354,-0.220165,0.148315,-0.000249,-0.000478
458977,0.129895,-0.021118,-0.3232,0.087266,-0.0,-0.0,2.0,0.282024,0.32864,0.282024,0.220089,,,,,,,0.128891,-0.013359,-0.220175,0.17225,-0.000256,-0.000478
458997,0.133015,-0.021219,-0.323094,0.087266,-0.0,-0.0,2.0,0.282024,0.331942,0.282024,0.213933,,,,,,,0.132251,-0.013365,-0.220185,0.148302,-0.000262,-0.000477
459017,0.135645,-0.0214,-0.322957,0.087266,-0.0,-0.0,2.0,0.282024,0.328844,0.282024,0.219719,,,,,,,0.135224,-0.01337,-0.220194,0.101924,-0.000265,-0.00048
459037,0.137496,-0.02134,-0.322886,0.087266,-0.0,-0.0,2.0,0.282024,0.319748,0.282024,0.235044,,,,,,,0.137363,-0.013375,-0.220203,0.076127,-0.000282,-0.000458
459057,0.138136,-0.021481,-0.322832,0.087266,-0.0,-0.0,2.0,0.282024,0.306423,0.282024,0.254122,,,,,,,0.138626,-0.013381,-0.220212,0.02402,-0.000289,-0.00045
459077,0.137896,-0.021529,-0.322733,0.087266,-0.0,-0.0,2.0,0.282024,0.2957,0.282024,0.26732,,,,,,,0.138867,-0.013387,-0.220221,-0.023928,-0.00029,-0.000426
459097,0.136766,-0.021477,-0.322645,0.087266,-0.0,-0.0,2.0,0.282024,0.281872,0.282024,0.282176,,,,,,,0.138127,-0.013393,-0.22023,-0.073703,-0.000294,-0.000426
459117,0.135137,-0.021377,-0.322709,0.087266,-0.0,-0.0,2.0,0.282024,0.269526,0.282024,0.293772,,,,,,,0.136638,-0.013398,-0.220238,-0.076129,-0.000281,-0.000437
459137,0.133415,-0.021408,-0.322943,0.087266,-0.0,-0.0,2.0,0.282024,0.268472,0.282024,0.294699,,,,,,,0.134988,-0.013404,-0.220247,-0.09608,-0.000271,-0.000454
459157,0.132045,-0.021387,-0.322982,0.087266,-0.0,-0.0,2.0,0.282024,0.269713,0.282024,0.293607,,,,,,,0.133378,-0.013409,-0.220256,-0.068235,-0.000283,-0.000457
459177,0.131315,-0.021507,-0.322969,0.087266,-0.0,-0.0,2.0,0.282024,0.277701,0.282024,0.286254,,,,,,,0.132295,-0.013415,-0.220266,-0.024137,-0.000284,-0.000462
459197,0.131343,-0.021619,-0.323133,0.087266,-0.0,-0.0,2.0,0.282024,0.290948,0.282024,0.272674,,,,,,,0.132054,-0.01342,-0.220275,0.003912,-0.000297,-0.000473
459217,0.132224,-0.021719,-0.323067,0.087266,-0.0,-0.0,2.0,0.282024,0.302452,0.282024,0.259204,,,,,,,0.132453,-0.013426,-0.220284,0.0481,-0.000298,-0.000467
459237,0.133733,-0.02184,-0.323013,0.087266,-0.0,-0.0,2.0,0.282024,0.309759,0.282024,0.249658,,,,,,,0.133582,-0.013433,-0.220294,0.099885,-0.000312,-0.000462
459257,0.135704,-0.02176,-0.322935,0.087266,-0.0,-0.0,2.0,0.282024,0.32079,0.282024,0.233399,,,,,,,0.135451,-0.013439,-0.220303,0.100092,-0.000317,-0.000453
459277,0.137695,-0.021801,-0.322847,0.087266,-0.0,-0.0,2.0,0.282024,0.323085,0.282024,0.229679,,,,,,,0.137422,-0.013445,-0.220312,0.100073,-0.000309,-0.000444
459297,0.139425,-0.021761,-0.322781,0.087266,-0.0,-0.0,2.0,0.282024,0.321865,0.282024,0.231673,,,,,,,0.139293,-0.013451,-0.220321,0.09607,-0.000302,-0.000436
459317,0.140775,-0.021661,-0.322745,0.087266,-0.0,-0.0,2.0,0.282024,0.31906,0.282024,0.236119,,,,,,,0.140904,-0.013457,-0.220329,0.052002,-0.000315,-0.00043
459337,0.141415,-0.02181,-0.322576,0.087266,-0.0,-0.0,2.0,0.282024,0.314318,0.282024,0.243235,,,,,,,0.141904,-0.013463,-0.220338,0.048088,-0.000312,-0.000411
459357,0.141175,-0.02185,-0.322592,0.087266,-0.0,-0.0,2.0,0.282024,0.300105,0.282024,0.262098,,,,,,,0.142026,-0.01347,-0.220346,-0.024055,-0.000316,-0.0004
459377,0.140185,-0.021899,-0.322491,0.087266,-0.0,-0.0,2.0,0.282024,0.292861,0.282024,0.270553,,,,,,,0.141526,-0.013476,-0.220354,-0.073753,-0.000315,-0.000399
459397,0.138695,-0.021898,-0.322542,0.087266,-0.0,-0.0,2.0,0.282024,0.285705,0.282024,0.278273,,,,,,,0.140277,-0.013482,-0.220362,-0.07204,-0.000311,-0.000408
459417,0.137074,-0.021798,-0.322665,0.087266,-0.0,-0.0,2.0,0.282024,0.279913,0.282024,0.284113,,,,,,,0.138667,-0.013489,-0.22037,-0.072129,-0.000312,-0.000413
459437,0.135584,-0.021797,-0.322714,0.087266,-0.0,-0.0,2.0,0.282024,0.279004,0.282024,0.284999,,,,,,,0.137037,-0.013495,-0.220379,-0.072132,-0.000301,-0.000418
459457,0.134214,-0.021777,-0.322754,0.087266,-0.0,-0.0,2.0,0.282024,0.282136,0.282024,0.281912,,,,,,,0.135566,-0.013501,-0.220387,-0.048076,-0.000311,-0.000421
459477,0.133594,-0.021748,-0.322913,0.087266,-0.0,-0.0,2.0,0.282024,0.288324,0.282024,0.275515,,,,,,,0.134585,-0.013507,-0.220395,-0.02414,-0.000312,-0.000426
459497,0.133493,-0.021896,-0.322799,0.087266,-0.0,-0.0,2.0,0.282024,0.298071,0.282024,0.264542,,,,,,,0.134223,-0.013513,-0.220404,-0.003911,-0.000303,-0.000427
459517,0.133994,-0.021937,-0.322762,0.087266,-0.0,-0.0,2.0,0.282024,0.30683,0.282024,0.253588,,,,,,,0.134463,-0.013519,-0.220413,0.027947,-0.000321,-0.000423
459537,0.134975,-0.021897,-0.322694,0.087266,-0.0,-0.0,2.0,0.282024,0.310909,0.282024,0.248073,,,,,,,0.135084,-0.013526,-0.220421,0.075828,-0.000318,-0.000416
459557,0.135984,-0.021986,-0.322562,0.087266,-0.0,-0.0,2.0,0.282024,0.315546,0.282024,0.241438,,,,,,,0.136084,-0.013532,-0.220429,0.073702,-0.000314,-0.000402
459577,0.136845,-0.021966,-0.322501,0.087266,-0.0,-0.0,2.0,0.282024,0.317792,0.282024,0.238069,,,,,,,0.137194,-0.013538,-0.220437,0.05198,-0.000322,-0.000394
459597,0.137474,-0.021986,-0.322512,0.087266,-0.0,-0.0,2.0,0.282024,0.314389,0.282024,0.243133,,,,,,,0.137935,-0.013545,-0.220445,0.025727,-0.000311,-0.000395
459617,0.137594,-0.021966,-0.322505,0.087266,-0.0,-0.0,2.0,0.282024,0.309829,0.282024,0.249562,,,,,,,0.138325,-0.013551,-0.220453,-1e-06,-0.000319,-0.000392
459637,0.137205,-0.021906,-0.322478,0.087266,-0.0,-0.0,2.0,0.282024,0.303882,0.282024,0.257402,,,,,,,0.138205,-0.013557,-0.220461,-9.9e-05,-0.00032,-0.000392
459657,0.136345,-0.021926,-0.322539,0.087266,-0.0,-0.0,2.0,0.282024,0.296664,0.282024,0.2662,,,,,,,0.137576,-0.013564,-0.220469,-0.028059,-0.000307,-0.000392
459677,0.135115,-0.022014,-0.322451,0.087266,-0.0,-0.0,2.0,0.282024,0.290192,0.282024,0.273501,,,,,,,0.136475,-0.01357,-0.220477,-0.053747,-0.000315,-0.000382
459697,0.133745,-0.021993,-0.322491,0.087266,-0.0,-0.0,2.0,0.282024,0.288839,0.282024,0.274963,,,,,,,0.135226,-0.013576,-0.220484,-0.076031,-0.000312,-0.000402
459717,0.132503,-0.021952,-0.32258,0.087266,-0.0,-0.0,2.0,0.282024,0.287863,0.282024,0.276006,,,,,,,0.133856,-0.013583,-0.220492,-0.05211,-0.000308,-0.000393
459737,0.131494,-0.021872,-0.322597,0.087266,-0.0,-0.0,2.0,0.282024,0.287794,0.282024,0.276079,,,,,,,0.132587,-0.013589,-0.2205,-0.020352,-0.000313,-0.000394
459757,0.130614,-0.021771,-0.322663,0.087266,-0.0,-0.0,2.0,0.282024,0.29333,0.282024,0.270026,,,,,,,0.131745,-0.013595,-0.220508,-0.051992,-0.000305,-0.000401
459777,0.130245,-0.021839,-0.322513,0.087266,-0.0,-0.0,2.0,0.282024,0.29902,0.282024,0.263408,,,,,,,0.131096,-0.013601,-0.220516,-9.8e-05,-0.000298,-0.000397
459797,0.130245,-0.021839,-0.322513,0.087266,-0.0,-0.0,2.0,0.282024,0.305557,0.282024,0.255251,,,,,,,0.130975,-0.013607,-0.220524,-0.027849,-0.00029,-0.000387
459817,0.130485,-0.021807,-0.322384,0.087266,-0.0,-0.0,2.0,0.282024,0.310874,0.282024,0.248123,,,,,,,0.131095,-0.013613,-0.220531,0.024048,-0.000296,-0.000372
459837,0.130866,-0.021868,-0.322355,0.087266,-0.0,-0.0,2.0,0.282024,0.312981,0.282024,0.245159,,,,,,,0.131456,-0.013619,-0.220539,0.027928,-0.000302,-0.000369
459857,0.131254,-0.021928,-0.322383,0.087266,-0.0,-0.0,2.0,0.282024,0.314158,0.282024,0.243468,,,,,,,0.131836,-0.013625,-0.220546,0.005638,-0.000309,-0.000371
459877,0.131514,-0.022008,-0.322361,0.087266,-0.0,-0.0,2.0,0.282024,0.311843,0.282024,0.246769,,,,,,,0.132105,-0.013631,-0.220554,-1e-06,-0.000305,-0.000369
459897,0.131153,-0.02206,-0.322497,0.087266,-0.0,-0.0,2.0,0.282024,0.308957,0.282024,0.250747,,,,,,,0.132124,-0.013637,-0.220561,-0.027849,-0.000305,-0.000381
459917,0.130525,-0.022039,-0.322484,0.087266,-0.0,-0.0,2.0,0.282024,0.303031,0.282024,0.258479,,,,,,,0.131616,-0.013644,-0.220568,-0.024055,-0.000313,-0.000377
459937,0.129524,-0.021967,-0.322443,0.087266,-0.0,-0.0,2.0,0.282024,0.296581,0.282024,0.266297,,,,,,,0.130736,-0.01365,-0.220576,-0.024175,-0.000303,-0.000371
459957,0.128514,-0.021894,-0.322343,0.087266,-0.0,-0.0,2.0,0.282024,0.297443,0.282024,0.265285,,,,,,,0.129867,-0.013656,-0.220583,-0.072042,-0.000308,-0.000372
459977,0.127366,-0.021713,-0.322372,0.087266,-0.0,-0.0,2.0,0.282024,0.292724,0.282024,0.270706,,,,,,,0.128625,-0.013662,-0.220591,-0.053654,-0.00029,-0.000363
459997,0.126124,-0.021679,-0.322343,0.087266,-0.0,-0.0,2.0,0.282024,0.292609,0.282024,0.270834,,,,,,,0.127496,-0.013668,-0.220598,-0.048212,-0.000296,-0.000358
460017,0.125395,-0.021807,-0.322214,0.087266,-0.0,-0.0,2.0,0.282024,0.296756,0.282024,0.266091,,,,,,,0.126506,-0.013673,-0.220605,-0.051999,-0.000288,-0.000347
460037,0.124665,-0.021934,-0.322085,0.087266,-0.0,-0.0,2.0,0.282024,0.300318,0.282024,0.261839,,,,,,,0.125765,-0.013679,-0.220612,-0.051904,-0.000289,-0.00034
460057,0.124285,-0.021881,-0.321998,0.087266,-0.0,-0.0,2.0,0.282024,0.301388,0.282024,0.260526,,,,,,,0.125117,-0.013685,-0.220619,0.007664,-0.000307,-0.000323
460077,0.124165,-0.021908,-0.321891,0.087266,-0.0,-0.0,2.0,0.282024,0.308223,0.282024,0.251736,,,,,,,0.125015,-0.013691,-0.220625,-0.027869,-0.000287,-0.000314
460097,0.124145,-0.021788,-0.321898,0.087266,-0.0,-0.0,2.0,0.282024,0.309183,0.282024,0.250442,,,,,,,0.124875,-0.013697,-0.220631,0.0,-0.000286,-0.000314
460117,0.124366,-0.021628,-0.321891,0.087266,-0.0,-0.0,2.0,0.282024,0.311806,0.282024,0.246822,,,,,,,0.124996,-0.013703,-0.220638,0.023952,-0.000282,-0.0003
460137,0.124506,-0.021736,-0.321763,0.087266,-0.0,-0.0,2.0,0.282024,0.311552,0.282024,0.247177,,,,,,,0.125116,-0.013708,-0.220644,0.020074,-0.000268,-0.0003
460157,0.124265,-0.021776,-0.321777,0.087266,-0.0,-0.0,2.0,0.282024,0.309453,0.282024,0.250075,,,,,,,0.125096,-0.013714,-0.22065,0.00388,-0.000281,-0.000299
460177,0.123905,-0.021828,-0.321912,0.087266,-0.0,-0.0,2.0,0.282024,0.307017,0.282024,0.253342,,,,,,,0.124856,-0.013719,-0.220656,-0.020154,-0.000286,-0.000312
460197,0.123516,-0.021775,-0.321768,0.087266,-0.0,-0.0,2.0,0.282024,0.306555,0.282024,0.25395,,,,,,,0.124496,-0.013725,-0.220662,-0.053426,-0.000269,-0.00031
460217,0.122756,-0.021654,-0.321824,0.087266,-0.0,-0.0,2.0,0.282024,0.303511,0.282024,0.257873,,,,,,,0.123848,-0.01373,-0.220668,-0.044106,-0.000279,-0.000313
460237,0.121875,-0.021545,-0.322,0.087266,-0.0,-0.0,2.0,0.282024,0.301319,0.282024,0.260612,,,,,,,0.123126,-0.013736,-0.220674,-0.052,-0.000267,-0.000306
460257,0.121006,-0.021579,-0.321769,0.087266,-0.0,-0.0,2.0,0.282024,0.298143,0.282024,0.264456,,,,,,,0.122118,-0.013741,-0.22068,-0.028086,-0.000257,-0.000294
460277,0.119896,-0.021637,-0.321779,0.087266,-0.0,-0.0,2.0,0.282024,0.299971,0.282024,0.26226,,,,,,,0.121236,-0.013746,-0.220686,-0.077364,-0.00025,-0.000296
460297,0.118895,-0.021556,-0.321847,0.087266,-0.0,-0.0,2.0,0.282024,0.299314,0.282024,0.263054,,,,,,,0.120247,-0.013751,-0.220692,-0.052004,-0.000252,-0.0003
460317,0.118026,-0.021582,-0.321729,0.087266,-0.0,-0.0,2.0,0.282024,0.296473,0.282024,0.266423,,,,,,,0.119118,-0.013756,-0.220698,-0.024175,-0.000256,-0.000289
460337,0.117165,-0.021608,-0.321668,0.087266,-0.0,-0.0,2.0,0.282024,0.300925,0.282024,0.261096,,,,,,,0.118377,-0.013762,-0.220704,-0.048058,-0.000258,-0.000282
460357,0.116657,-0.021567,-0.321644,0.087266,-0.0,-0.0,2.0,0.282024,0.30312,0.282024,0.258367,,,,,,,0.117655,-0.013767,-0.22071,-0.053332,-0.000257,-0.00028
460377,0.116136,-0.021406,-0.321683,0.087266,-0.0,-0.0,2.0,0.282024,0.302498,0.282024,0.259147,,,,,,,0.117007,-0.013772,-0.220715,-0.000114,-0.000251,-0.000282
460397,0.115776,-0.021465,-0.321703,0.087266,-0.0,-0.0,2.0,0.282024,0.304882,0.282024,0.256124,,,,,,,0.116646,-0.013777,-0.220721,-0.003994,-0.000244,-0.000284
460417,0.115515,-0.021385,-0.321722,0.087266,-0.0,-0.0,2.0,0.282024,0.309676,0.282024,0.249771,,,,,,,0.116506,-0.013782,-0.220727,-0.027854,-0.000235,-0.000286
460437,0.115395,-0.021397,-0.321843,0.087266,-0.0,-0.0,2.0,0.282024,0.306167,0.282024,0.254458,,,,,,,0.116107,-0.013786,-0.220732,0.027737,-0.000237,-0.000286
460457,0.115174,-0.021565,-0.321736,0.087266,-0.0,-0.0,2.0,0.282024,0.308991,0.282024,0.250702,,,,,,,0.116005,-0.013791,-0.220738,-0.023958,-0.000242,-0.000287
460477,0.114914,-0.021484,-0.321755,0.087266,-0.0,-0.0,2.0,0.282024,0.310686,0.282024,0.248383,,,,,,,0.115885,-0.013796,-0.220744,-0.047953,-0.000246,-0.000288
460497,0.114546,-0.021543,-0.321717,0.087266,-0.0,-0.0,2.0,0.282024,0.307623,0.282024,0.252538,,,,,,,0.115525,-0.013801,-0.22075,-9.9e-05,-0.000247,-0.000288
460517,0.114166,-0.021483,-0.321743,0.087266,-0.0,-0.0,2.0,0.282024,0.303446,0.282024,0.257955,,,,,,,0.115037,-0.013806,-0.220756,-0.00409,-0.000243,-0.000285
460537,0.113424,-0.021481,-0.321789,0.087266,-0.0,-0.0,2.0,0.282024,0.303836,0.282024,0.257461,,,,,,,0.114536,-0.013811,-0.220761,-0.051913,-0.000242,-0.000289
460557,0.112536,-0.02138,-0.321789,0.087266,-0.0,-0.0,2.0,0.282024,0.300912,0.282024,0.261111,,,,,,,0.113775,-0.013816,-0.220767,-0.024176,-0.00024,-0.000292
460577,0.111554,-0.021418,-0.321847,0.087266,-0.0,-0.0,2.0,0.282024,0.297505,0.282024,0.265211,,,,,,,0.112767,-0.013821,-0.220773,-0.024174,-0.000231,-0.000292
460597,0.110426,-0.021356,-0.321859,0.087266,-0.0,-0.0,2.0,0.282024,0.297645,0.282024,0.265047,,,,,,,0.111785,-0.013825,-0.220779,-0.07207,-0.000238,-0.000299
460617,0.109304,-0.021294,-0.321928,0.087266,-0.0,-0.0,2.0,0.282024,0.294139,0.282024,0.26911,,,,,,,0.110556,-0.01383,-0.220785,-0.052098,-0.000232,-0.000299
