time_ms,roll,pitch,yaw,roll_rate,pitch_rate,yaw_rate,reference_roll,reference_pitch,reference_yaw,reference_throttle,throttle_1,throttle_2,throttle_3,throttle_4,roll_predicted,pitch_predicted,yaw_predicted,roll_rate_predicted,pitch_rate_predicted,yaw_rate_predicted
205718,0.002522,0.012479,-0.105056,-1.3e-05,3e-06,-0.001064,0.0,-0.0,-0.0,2.0,0.282024,0.290029,0.282024,0.273678,,,,,,
205738,0.002522,0.012479,-0.105056,-0.001078,-0.001062,-0.001067,6.7e-05,-0.0,-0.0,2.0,0.282024,0.29128,0.282024,0.272309,,,,,,
205758,0.002644,0.012485,-0.105056,-0.0,-0.001064,-3e-06,0.003769,-0.0,-0.0,2.0,0.282024,0.29012,0.282024,0.273579,,,,,,
205778,0.002651,0.012363,-0.105056,-1.3e-05,3e-06,-0.001064,0.007429,-0.0,-0.0,2.0,0.282024,0.28888,0.282024,0.274919,,,,,,
205798,0.002651,0.012363,-0.105056,-0.001064,-0.001064,-3e-06,0.009761,-0.0,-0.0,2.0,0.282024,0.286758,0.282024,0.277173,,,,,,
205818,0.002644,0.012485,-0.105056,-0.0,-0.001064,-3e-06,0.012608,-0.0,-0.0,2.0,0.282024,0.286987,0.282024,0.276933,,,,,,
205838,0.002644,0.012485,-0.105056,-1.3e-05,3e-06,-0.001064,0.016195,-0.0,-0.0,2.0,0.282024,0.285677,0.282024,0.278302,,,,,,
205858,0.002765,0.012493,-0.105197,-0.0,-0.001064,-3e-06,0.021355,-0.0,-0.0,2.0,0.282024,0.283808,0.282024,0.280224,,,,,,
205878,0.002887,0.012499,-0.105198,-0.0,-0.001064,-3e-06,0.024464,-0.0,-0.0,2.0,0.282024,0.282569,0.282024,0.281478,,,,,,
205898,0.003009,0.012505,-0.105199,-1.3e-05,3e-06,-0.001064,0.028274,-0.0,-0.0,2.0,0.282024,0.281066,0.282024,0.282977,,,,,,
205918,0.003251,0.012519,-0.105443,-0.0,-0.001064,-3e-06,0.03001,-0.0,-0.0,2.0,0.282024,0.280306,0.282024,0.283728,,,,,,
205938,0.00338,0.012403,-0.105443,-0.0,-0.001064,-4e-06,0.033514,-0.0,-0.0,2.0,0.282024,0.278845,0.282024,0.285152,,,,,,
205958,0.003501,0.01241,-0.105565,0.0,0.0,0.0,0.036949,-0.0,-0.0,2.0,0.282024,0.277345,0.282024,0.286594,,,,,,
205978,0.003616,0.012538,-0.105687,-0.0,-0.001064,-4e-06,0.040892,-0.0,-0.0,2.0,0.282024,0.275647,0.282024,0.2882,,,,,,
205998,0.003737,0.012545,-0.105809,-0.0,-0.001064,-4e-06,0.040892,-0.0,-0.0,2.0,0.282024,0.275313,0.282024,0.288513,,,,,,
206018,0.003858,0.012551,-0.105931,0.0,0.0,0.0,0.046561,-0.0,-0.0,2.0,0.282024,0.271538,0.282024,0.291977,,,,,,
206038,0.003857,0.012552,-0.106052,0.0,0.0,0.0,0.049208,-0.0,-0.0,2.0,0.282024,0.271493,0.282024,0.292018,,,,,,
206058,0.0041,0.012565,-0.106175,-0.0,-0.001064,-4e-06,0.05157,-0.0,-0.0,2.0,0.282024,0.270232,0.282024,0.293146,,,,,,
206078,0.004228,0.01245,-0.106297,0.0,0.0,0.0,0.054639,-0.0,-0.0,2.0,0.282024,0.268636,0.282024,0.294555,,,,,,
206098,0.004348,0.012456,-0.10654,0.0,0.0,0.0,0.057526,-0.0,-0.0,2.0,0.282024,0.267061,0.282024,0.295924,,,,,,
206118,0.004591,0.01247,-0.106662,-0.0,-0.001064,-5e-06,0.060232,-0.0,-0.0,2.0,0.282024,0.265559,0.282024,0.29721,,,,,,
206138,0.00484,0.012361,-0.106906,-0.0,-0.001064,-5e-06,0.063081,-0.0,-0.0,2.0,0.282024,0.263964,0.282024,0.298556,,,,,,
206158,0.005083,0.012375,-0.107028,-1.3e-05,5e-06,-0.001064,0.06447,-0.0,-0.0,2.0,0.282024,0.262888,0.282024,0.299452,,,,,,
206178,0.005569,0.012401,-0.107273,0.001064,0.0,0.0,0.067347,-0.0,-0.0,2.0,0.282024,0.261305,0.282024,0.300754,,,,,,
206198,0.006055,0.012429,-0.107538,0.001064,0.0,0.0,0.069114,-0.0,-0.0,2.0,0.282024,0.2616,0.282024,0.300513,,,,,,
206218,0.006908,0.012475,-0.107664,0.002128,-0.001064,-7e-06,0.071901,-0.0,-0.0,2.0,0.282024,0.260111,0.282024,0.301724,,,,,,
206238,0.00801,0.012413,-0.107911,0.002115,-0.001056,-0.001073,0.073103,-0.0,-0.0,2.0,0.282024,0.260835,0.282024,0.301137,,,,,,
206258,0.009354,0.012366,-0.108402,0.002128,0.0,0.0,0.075055,-0.0,-0.0,2.0,0.282024,0.259893,0.282024,0.301899,,,,,,
206278,0.011059,0.012459,-0.108652,0.003206,-1.2e-05,0.001064,0.076851,-0.0,-0.0,2.0,0.282024,0.262034,0.282024,0.300157,,,,,,
206298,0.012892,0.012439,-0.109023,0.005321,-0.001064,-1.4e-05,0.078514,-0.0,-0.0,2.0,0.282024,0.261375,0.282024,0.300697,,,,,,
206318,0.015219,0.012325,-0.109415,0.005321,-0.001064,-1.6e-05,0.0795,-0.0,-0.0,2.0,0.282024,0.261173,0.282024,0.300862,,,,,,
206338,0.018032,0.012239,-0.110029,0.005334,-1.9e-05,0.001064,0.080715,-0.0,-0.0,2.0,0.282024,0.262554,0.282024,0.299729,,,,,,
206358,0.021084,0.012289,-0.110422,0.007463,-2.2e-05,0.001064,0.082822,-0.0,-0.0,2.0,0.282024,0.265106,0.282024,0.297594,,,,,,
206378,0.024507,0.012239,-0.110913,0.008527,-0.00109,0.001038,0.083381,-0.0,-0.0,2.0,0.282024,0.266929,0.282024,0.296037,,,,,,
206398,0.028533,0.012349,-0.111547,0.009578,-0.001064,-3e-05,0.084238,-0.0,-0.0,2.0,0.282024,0.26749,0.282024,0.295553,,,,,,
206418,0.033058,0.012249,-0.112417,0.010655,-3.5e-05,0.001064,0.085253,-0.0,-0.0,2.0,0.282024,0.269626,0.282024,0.293683,,,,,,
206438,0.038309,0.012313,-0.113165,0.011733,-8.2e-05,0.002127,0.085979,-0.0,-0.0,2.0,0.282024,0.273497,0.282024,0.290195,,,,,,
206458,0.044177,0.012291,-0.113785,0.013848,-4.7e-05,0.001063,0.086576,-0.0,-0.0,2.0,0.282024,0.276261,0.282024,0.287623,,,,,,
206478,0.050532,0.012307,-0.114661,0.014912,-5.4e-05,0.001063,0.086932,-0.0,-0.0,2.0,0.282024,0.280597,0.282024,0.283441,,,,,,
206498,0.057753,0.01214,-0.115763,0.015976,-6.1e-05,0.001063,0.086932,-0.0,-0.0,2.0,0.282024,0.282781,0.282024,0.281265,,,,,,
206518,0.065587,0.012018,-0.116873,0.017053,-0.000139,0.002124,0.087266,-0.0,-0.0,2.0,0.282024,0.286352,0.282024,0.277599,,,,,,
206538,0.073653,0.012039,-0.117953,0.018117,-0.000157,0.002123,0.087239,-0.0,-0.0,2.0,0.282024,0.291377,0.282024,0.272202,,,,,,
206558,0.082215,0.0121,-0.119061,0.019169,-8.7e-05,0.001061,0.087136,-0.0,-0.0,2.0,0.282024,0.294088,0.282024,0.269168,,,,,,
206578,0.091277,0.011971,-0.120504,0.019169,-9.7e-05,0.00106,0.086879,-0.0,-0.0,2.0,0.282024,0.298304,0.282024,0.264264,,,,,,
206598,0.100582,0.011865,-0.121806,0.020258,-0.000321,0.003177,0.086328,-0.0,-0.0,2.0,0.282024,0.302662,0.282024,0.258943,,,,,,
206618,0.11013,0.011908,-0.123117,0.020258,-0.000351,0.003174,0.085715,-0.0,-0.0,2.0,0.282024,0.305939,0.282024,0.254755,,,,,,
206638,0.119685,0.011842,-0.124403,0.020233,-0.000127,0.001057,0.084923,-0.0,-0.0,2.0,0.282024,0.309327,0.282024,0.250246,,,,,,
206658,0.129351,0.012057,-0.125947,0.020246,-0.000275,0.002111,0.083992,-0.0,-0.0,2.0,0.282024,0.312828,0.282024,0.245378,,,,,,
206678,0.13892,0.011906,-0.12733,0.020258,-0.000442,0.003162,0.083459,-0.0,-0.0,2.0,0.282024,0.31623,0.282024,0.240423,,,,,,
206698,0.148248,0.011745,-0.128576,0.019193,-0.000472,0.003158,0.081975,-0.0,-0.0,2.0,0.282024,0.318753,0.282024,0.236594,,,,,,
206718,0.157331,0.01159,-0.129927,0.01918,-0.000333,0.002102,0.081176,-0.0,-0.0,2.0,0.282024,0.322164,0.282024,0.231187,,,,,,
206738,0.165939,0.011408,-0.131173,0.018104,-0.000176,0.00105,0.079017,-0.0,-0.0,2.0,0.282024,0.324804,0.282024,0.226804,,,,,,
206758,0.174295,0.01122,-0.132382,0.017051,-0.000369,0.002096,0.077947,-0.0,-0.0,2.0,0.282024,0.327111,0.282024,0.222817,,,,,,
206778,0.182058,0.010983,-0.133373,0.015988,0.000661,0.002286,0.076017,-0.0,-0.0,2.0,0.282024,0.32848,0.282024,0.220377,,,,,,
206798,0.189082,0.010571,-0.134188,0.013848,0.000845,0.001245,0.074145,-0.0,-0.0,2.0,0.282024,0.330743,0.282024,0.21621,,,,,,
206818,0.195754,0.01013,-0.134903,0.012773,0.001044,0.000207,0.072076,-0.0,-0.0,2.0,0.282024,0.333024,0.282024,0.211832,,,,,,
206838,0.201457,0.009483,-0.135357,0.010654,0.00083,0.001256,0.07102,-0.0,-0.0,2.0,0.282024,0.333779,0.282024,0.21034,,,,,,
206858,0.20631,0.008648,-0.135669,0.008525,0.000824,0.00126,0.069725,-0.0,-0.0,2.0,0.282024,0.334407,0.282024,0.20908,,,,,,
206878,0.210291,0.008107,-0.135918,0.006387,0.001041,0.000222,0.066628,-0.0,-0.0,2.0,0.282024,0.33535,0.282024,0.207159,,,,,,
206898,0.213179,0.007372,-0.136159,0.004259,0.00104,0.000225,0.065062,-0.0,-0.0,2.0,0.282024,0.336648,0.282024,0.204452,,,,,,
206918,0.214935,0.006789,-0.13629,0.00213,0.00104,0.000227,0.061645,-0.0,-0.0,2.0,0.282024,0.336134,0.282024,0.205532,,,,,,
206938,0.215714,0.006261,-0.136465,-0.001064,0.0,0.0,0.059029,-0.0,-0.0,2.0,0.282024,0.336198,0.282024,0.205398,,,,,,
206958,0.215495,0.005907,-0.136674,-0.002128,0.0,0.0,0.056059,-0.0,-0.0,2.0,0.282024,0.336111,0.282024,0.205582,,,,,,
206978,0.214269,0.005848,-0.136931,-0.004258,-0.00104,-0.000226,0.053083,-0.0,-0.0,2.0,0.282024,0.335773,0.282024,0.206285,,,,,,
206998,0.212165,0.005971,-0.137217,-0.006387,-0.00104,-0.000224,0.050115,-0.0,-0.0,2.0,0.282024,0.335207,0.282024,0.207453,,,,,,
207018,0.209336,0.00603,-0.137405,-0.007451,-0.001041,-0.000221,0.048604,-0.0,-0.0,2.0,0.282024,0.335075,0.282024,0.207723,,,,,,
207038,0.205638,0.00615,-0.137608,-0.009579,-0.001042,-0.000217,0.048604,-0.0,-0.0,2.0,0.282024,0.333246,0.282024,0.211394,,,,,,
207058,0.201062,0.006452,-0.137833,-0.011715,-0.00083,-0.001255,0.043908,-0.0,-0.0,2.0,0.282024,0.332445,0.282024,0.212961,,,,,,
207078,0.19589,0.006591,-0.13806,-0.013843,-0.000837,-0.001251,0.040751,-0.0,-0.0,2.0,0.282024,0.332087,0.282024,0.213653,,,,,,
207098,0.189729,0.006758,-0.138055,-0.014901,-0.001045,-0.000201,0.034912,-0.0,-0.0,2.0,0.282024,0.331135,0.282024,0.215471,,,,,,
207118,0.182583,0.00709,-0.137971,-0.017036,-0.000853,-0.00124,0.033063,-0.0,-0.0,2.0,0.282024,0.328788,0.282024,0.21982,,,,,,
207138,0.174952,0.007248,-0.137611,-0.019173,-0.000677,-0.002281,0.028177,-0.0,-0.0,2.0,0.282024,0.327091,0.282024,0.222852,,,,,,
207158,0.166217,0.007343,-0.13736,-0.020237,-0.000697,-0.002275,0.026329,-0.0,-0.0,2.0,0.282024,0.325265,0.282024,0.22602,,,,,,
207178,0.156639,0.007477,-0.136785,-0.022366,-0.000719,-0.002268,0.022809,-0.0,-0.0,2.0,0.282024,0.322513,0.282024,0.230618,,,,,,
207198,0.146433,0.007707,-0.136307,-0.024495,-0.000742,-0.002261,0.019093,-0.0,-0.0,2.0,0.282024,0.320654,0.282024,0.233615,,,,,,
207218,0.135145,0.007739,-0.135696,-0.025559,-0.000768,-0.002252,0.015366,-0.0,-0.0,2.0,0.282024,0.318413,0.282024,0.237118,,,,,,
207238,0.12311,0.007981,-0.135206,-0.027688,-0.000795,-0.002243,0.012559,-0.0,-0.0,2.0,0.282024,0.313357,0.282024,0.244622,,,,,,
207258,0.110476,0.008184,-0.134596,-0.029817,-0.000823,-0.002233,0.009024,-0.0,-0.0,2.0,0.282024,0.309296,0.282024,0.250289,,,,,,
207278,0.096981,0.008467,-0.134088,-0.030872,-0.000956,-0.001162,0.006072,-0.0,-0.0,2.0,0.282024,0.306955,0.282024,0.253423,,,,,,
207298,0.082741,0.008948,-0.133435,-0.031947,-0.000885,-0.002209,0.001419,-0.0,-0.0,2.0,0.282024,0.302443,0.282024,0.259216,,,,,,
207318,0.067907,0.009279,-0.132759,-0.033011,-0.000917,-0.002196,-0.0026,-0.0,-0.0,2.0,0.282024,0.298564,0.282024,0.263954,,,,,,
207338,0.052702,0.009722,-0.132183,-0.034076,-0.000951,-0.002182,-0.004529,-0.0,-0.0,2.0,0.282024,0.293703,0.282024,0.269605,,,,,,
207358,0.036901,0.01001,-0.131457,-0.035141,-0.000985,-0.002166,-0.00832,-0.0,-0.0,2.0,0.282024,0.289037,0.282024,0.274751,,,,,,
207378,0.020744,0.010163,-0.130554,-0.036195,-0.001042,-0.001086,-0.012008,-0.0,-0.0,2.0,0.282024,0.283949,0.282024,0.28008,,,,,,
207398,0.00433,0.010557,-0.129646,-0.036206,-0.001055,-0.002133,-0.014109,-0.0,-0.0,2.0,0.282024,0.279317,0.282024,0.284694,,,,,,
207418,-0.012433,0.010697,-0.1287,-0.037271,-0.001091,-0.002115,-0.0183,-0.0,-0.0,2.0,0.282024,0.273703,0.282024,0.290006,,,,,,
207438,-0.029204,0.010974,-0.1276,-0.037271,-0.001126,-0.002097,-0.02213,-0.0,-0.0,2.0,0.282024,0.268996,0.282024,0.294239,,,,,,
207458,-0.046107,0.011378,-0.126582,-0.037272,-0.001161,-0.002077,-0.025668,-0.0,-0.0,2.0,0.282024,0.263914,0.282024,0.298597,,,,,,
207478,-0.06324,0.011539,-0.125409,-0.037284,-0.001264,-0.003119,-0.028424,-0.0,-0.0,2.0,0.282024,0.258132,0.282024,0.303306,,,,,,
207498,-0.08003,0.011982,-0.124223,-0.037272,-0.001231,-0.002037,-0.032325,-0.0,-0.0,2.0,0.282024,0.252538,0.282024,0.307623,,,,,,
207518,-0.096683,0.012203,-0.122992,-0.036208,-0.001265,-0.002016,-0.035877,-0.0,-0.0,2.0,0.282024,0.248143,0.282024,0.310859,,,,,,
207538,-0.113233,0.012575,-0.121628,-0.036222,-0.001418,-0.003052,-0.039214,-0.0,-0.0,2.0,0.282024,0.241745,0.282024,0.315338,,,,,,
207558,-0.12941,0.012742,-0.120256,-0.035145,-0.00133,-0.001973,-0.042527,-0.0,-0.0,2.0,0.282024,0.236809,0.282024,0.318614,,,,,,
207578,-0.145344,0.012938,-0.118843,-0.034094,-0.001515,-0.003005,-0.042527,-0.0,-0.0,2.0,0.282024,0.228251,0.282024,0.323945,,,,,,
207598,-0.160793,0.013058,-0.11743,-0.034096,-0.000511,-0.003152,-0.048445,-0.0,-0.0,2.0,0.282024,0.224091,0.282024,0.326384,,,,,,
207618,-0.175773,0.013353,-0.115881,-0.031955,-0.000372,-0.002096,-0.049951,-0.0,-0.0,2.0,0.282024,0.217578,0.282024,0.33001,,,,,,
207638,-0.190387,0.013686,-0.114304,-0.030891,-0.000403,-0.00209,-0.052725,-0.0,-0.0,2.0,0.282024,0.213431,0.282024,0.332203,,,,,,
207658,-0.204514,0.013833,-0.112631,-0.029853,-0.001907,-0.003952,-0.05688,-0.0,-0.0,2.0,0.282024,0.208002,0.282024,0.334939,,,,,,
207678,-0.217671,0.01404,-0.111082,-0.02771,-0.001729,-0.002888,-0.058267,-0.0,-0.0,2.0,0.282024,0.201014,0.282024,0.338244,,,,,,
207698,-0.230221,0.01431,-0.109407,-0.026632,-0.001522,-0.00183,-0.060954,-0.0,-0.0,2.0,0.282024,0.194545,0.282024,0.341096,,,,,,
207718,-0.242179,0.014887,-0.107581,-0.025584,-0.001799,-0.002845,-0.063618,-0.0,-0.0,2.0,0.282024,0.19033,0.282024,0.34285,,,,,,
207738,-0.253267,0.015406,-0.105761,-0.023461,-0.0008,-0.003091,-0.066316,-0.0,-0.0,2.0,0.282024,0.183837,0.282024,0.345394,,,,,,
207758,-0.263374,0.015737,-0.104113,-0.021333,-0.000831,-0.003083,-0.066316,-0.0,-0.0,2.0,0.282024,0.180977,0.282024,0.346456,,,,,,
207778,-0.272399,0.016295,-0.102239,-0.020287,-0.001145,-0.0041,-0.07032,-0.0,-0.0,2.0,0.282024,0.175989,0.282024,0.348222,,,,,,
207798,-0.280424,0.016901,-0.100478,-0.018161,-0.001178,-0.004091,-0.072136,-0.0,-0.0,2.0,0.282024,0.175468,0.282024,0.3484,,,,,,
207818,-0.287483,0.017572,-0.098749,-0.014971,-0.001207,-0.004083,-0.074682,-0.0,-0.0,2.0,0.282024,0.173306,0.282024,0.349128,,,,,,
207838,-0.293527,0.018063,-0.097056,-0.012844,-0.001232,-0.004075,-0.075987,-0.0,-0.0,2.0,0.282024,0.170758,0.282024,0.34996,,,,,,
207858,-0.298214,0.018392,-0.095437,-0.009634,-0.000938,-0.003052,-0.077778,-0.0,-0.0,2.0,0.282024,0.172528,0.282024,0.349385,,,,,,
207878,-0.302287,0.018537,-0.093759,-0.007512,6.5e-05,-0.003365,-0.07942,-0.0,-0.0,2.0,0.282024,0.171631,0.282024,0.349678,,,,,,
207898,-0.304972,0.018619,-0.092229,-0.00432,5.6e-05,-0.003365,-0.08089,-0.0,-0.0,2.0,0.282024,0.171591,0.282024,0.349691,,,,,,
207918,-0.306436,0.018387,-0.09093,-0.002184,-0.000963,-0.003044,-0.081656,-0.0,-0.0,2.0,0.282024,0.174957,0.282024,0.348574,,,,,,
207938,-0.307024,0.01832,-0.089618,-5.6e-05,-0.000965,-0.003044,-0.082696,-0.0,-0.0,2.0,0.282024,0.17619,0.282024,0.348152,,,,,,
207958,-0.306515,0.018411,-0.088441,0.002072,-0.000963,-0.003044,-0.084101,-0.0,-0.0,2.0,0.282024,0.178502,0.282024,0.347345,,,,,,
207978,-0.305125,0.018543,-0.087269,0.003136,-0.000959,-0.003046,-0.084629,-0.0,-0.0,2.0,0.282024,0.180792,0.282024,0.346523,,,,,,
207998,-0.30303,0.018691,-0.086263,0.005264,-0.000953,-0.003048,-0.085779,-0.0,-0.0,2.0,0.282024,0.181348,0.282024,0.34632,,,,,,
208018,-0.300421,0.01898,-0.085229,0.006327,-0.000945,-0.00305,-0.086318,-0.0,-0.0,2.0,0.282024,0.18191,0.282024,0.346113,,,,,,
208038,-0.297199,0.019036,-0.084375,0.007391,-0.000935,-0.003053,-0.086779,-0.0,-0.0,2.0,0.282024,0.182876,0.282024,0.345755,,,,,,
208058,-0.293347,0.018858,-0.083684,0.00954,-0.000615,-0.002038,-0.087092,-0.0,-0.0,2.0,0.282024,0.184301,0.282024,0.345218,,,,,,
208078,-0.288994,0.018682,-0.083115,0.010604,-0.000607,-0.002041,-0.087248,-0.0,-0.0,2.0,0.282024,0.185976,0.282024,0.344577,,,,,,
208098,-0.283912,0.018415,-0.082588,0.010605,-0.000596,-0.002044,-0.087266,-0.0,-0.0,2.0,0.282024,0.1881,0.282024,0.343745,,,,,,
208118,-0.278447,0.018023,-0.082192,0.012734,-0.000585,-0.002047,-0.087184,-0.0,-0.0,2.0,0.282024,0.190502,0.282024,0.34278,,,,,,
208138,-0.272525,0.017874,-0.081909,0.013798,-0.000573,-0.00205,-0.086968,-0.0,-0.0,2.0,0.282024,0.193108,0.282024,0.341703,,,,,,
208158,-0.265962,0.017612,-0.08175,0.014881,-0.00028,-0.001027,-0.086795,-0.0,-0.0,2.0,0.282024,0.196176,0.282024,0.340396,,,,,,
208178,-0.259058,0.017468,-0.081715,0.015945,-0.000273,-0.001029,-0.085891,-0.0,-0.0,2.0,0.282024,0.201272,0.282024,0.338127,,,,,,
208198,-0.251649,0.017222,-0.081691,0.01701,-0.000265,-0.001031,-0.08545,-0.0,-0.0,2.0,0.282024,0.202485,0.282024,0.337568,,,,,,
208218,-0.243646,0.017228,-0.081769,0.018078,-0.00129,-0.000776,-0.084617,-0.0,-0.0,2.0,0.282024,0.206063,0.282024,0.33588,,,,,,
208238,-0.235139,0.017104,-0.082096,0.019143,-0.001283,-0.000787,-0.083646,-0.0,-0.0,2.0,0.282024,0.211933,0.282024,0.332972,,,,,,
208258,-0.226047,0.017129,-0.082434,0.020224,-0.001037,0.000239,-0.082527,-0.0,-0.0,2.0,0.282024,0.21387,0.282024,0.331975,,,,,,
208278,-0.216451,0.017054,-0.082775,0.021288,-0.001039,0.000229,-0.081704,-0.0,-0.0,2.0,0.282024,0.218296,0.282024,0.329622,,,,,,
208298,-0.206499,0.016862,-0.083263,0.022352,-0.001042,0.000218,-0.081704,-0.0,-0.0,2.0,0.282024,0.223322,0.282024,0.326824,,,,,,
208318,-0.195934,0.016796,-0.08397,0.023413,0.0,0.0,-0.078973,-0.0,-0.0,2.0,0.282024,0.225417,0.282024,0.325617,,,,,,
208338,-0.184896,0.016755,-0.084692,0.024477,0.0,0.0,-0.077998,-0.0,-0.0,2.0,0.282024,0.232237,0.282024,0.321515,,,,,,
208358,-0.173726,0.01647,-0.085544,0.024474,0.001048,-0.000184,-0.075006,-0.0,-0.0,2.0,0.282024,0.236287,0.282024,0.318951,,,,,,
208378,-0.161706,0.01622,-0.086521,0.024491,0.001222,0.000879,-0.07371,-0.0,-0.0,2.0,0.282024,0.239831,0.282024,0.316626,,,,,,
208398,-0.149687,0.015967,-0.087598,0.025556,0.001211,0.000894,-0.071447,-0.0,-0.0,2.0,0.282024,0.246251,0.282024,0.312211,,,,,,
208418,-0.137301,0.015497,-0.088696,0.026606,0.0,0.0,-0.069258,-0.0,-0.0,2.0,0.282024,0.251152,0.282024,0.308658,,,,,,
208438,-0.1242,0.015176,-0.090035,0.028768,-0.000792,0.002244,-0.066964,-0.0,-0.0,2.0,0.282024,0.254781,0.282024,0.305919,,,,,,
208458,-0.111219,0.014862,-0.091346,0.028769,-0.001879,0.002352,-0.065766,-0.0,-0.0,2.0,0.282024,0.260291,0.282024,0.301578,,,,,,
208478,-0.09788,0.014579,-0.092655,0.028768,-0.00191,0.002327,-0.063819,-0.0,-0.0,2.0,0.282024,0.264162,0.282024,0.29839,,,,,,
208498,-0.084435,0.014679,-0.093924,0.027704,-0.001941,0.002301,-0.060899,-0.0,-0.0,2.0,0.282024,0.26637,0.282024,0.296518,,,,,,
208518,-0.071988,0.015116,-0.095037,0.024496,-0.002046,0.001215,-0.059371,-0.0,-0.0,2.0,0.282024,0.267377,0.282024,0.295651,,,,,,
208538,-0.060808,0.016366,-0.095882,0.021287,-0.002125,0.000129,-0.05483,-0.0,-0.0,2.0,0.282024,0.264028,0.282024,0.298502,,,,,,
208558,-0.051325,0.017431,-0.096216,0.01701,-0.001117,-0.001008,-0.051903,-0.0,-0.0,2.0,0.282024,0.262139,0.282024,0.300071,,,,,,
208578,-0.043894,0.018039,-0.096162,0.012752,-4.7e-05,-0.001063,-0.050221,-0.0,-0.0,2.0,0.282024,0.258485,0.282024,0.303026,,,,,,
208598,-0.037895,0.017842,-0.096236,0.010642,0.001063,-4e-05,-0.045604,-0.0,-0.0,2.0,0.282024,0.254621,0.282024,0.306042,,,,,,
208618,-0.033091,0.016968,-0.096802,0.008531,0.002162,0.000993,-0.044023,-0.0,-0.0,2.0,0.282024,0.254511,0.282024,0.306127,,,,,,
208638,-0.029014,0.015929,-0.097821,0.007482,0.002189,0.002066,-0.040041,-0.0,-0.0,2.0,0.282024,0.253132,0.282024,0.307175,,,,,,
208658,-0.02554,0.014618,-0.09923,0.006416,0.001118,0.002101,-0.036906,-0.0,-0.0,2.0,0.282024,0.250323,0.282024,0.309271,,,,,,
208678,-0.022682,0.013526,-0.100364,0.005335,0.001088,0.00104,-0.033791,-0.0,-0.0,2.0,0.282024,0.248769,0.282024,0.310406,,,,,,
208698,-0.019846,0.012927,-0.101247,0.005335,2.1e-05,0.001064,-0.031199,-0.0,-0.0,2.0,0.282024,0.248969,0.282024,0.310261,,,,,,
208718,-0.017148,0.012695,-0.101637,0.005321,0.0,0.0,-0.026743,-0.0,-0.0,2.0,0.282024,0.248328,0.282024,0.310725,,,,,,
208738,-0.014586,0.012825,-0.101519,0.005308,-0.00108,-0.001049,-0.024733,-0.0,-0.0,2.0,0.282024,0.248643,0.282024,0.310497,,,,,,
208758,-0.01203,0.01308,-0.101175,0.005308,-0.002141,-0.001039,-0.021034,-0.0,-0.0,2.0,0.282024,0.249837,0.282024,0.309628,,,,,,
208778,-0.009485,0.013578,-0.100708,0.006357,-0.003213,-0.002098,-0.017273,-0.0,-0.0,2.0,0.282024,0.247854,0.282024,0.311067,,,,,,
208798,-0.006606,0.014703,-0.100364,0.005306,-0.0032,-0.001043,-0.013564,-0.0,-0.0,2.0,0.282024,0.245995,0.282024,0.312392,,,,,,
208818,-0.003983,0.016057,-0.10014,0.00424,-0.002133,-0.001056,-0.011338,-0.0,-0.0,2.0,0.282024,0.247822,0.282024,0.31109,,,,,,
208838,-0.001692,0.016783,-0.099656,0.004221,-4e-06,-0.002129,-0.008304,-0.0,-0.0,2.0,0.282024,0.245965,0.282024,0.312413,,,,,,
208858,0.000377,0.017008,-0.099309,0.004221,0.001065,-0.002128,-0.002754,-0.0,-0.0,2.0,0.282024,0.244534,0.282024,0.313418,,,,,,
208878,0.001995,0.016477,-0.098957,0.003158,0.001068,-0.002127,0.000471,-0.0,-0.0,2.0,0.282024,0.242268,0.282024,0.314982,,,,,,
208898,0.003272,0.015439,-0.0986,0.002112,3e-06,-0.001064,0.0027,-0.0,-0.0,2.0,0.282024,0.240215,0.282024,0.316369,,,,,,
208918,0.004284,0.014756,-0.098484,0.001064,0.0,0.0,0.007781,-0.0,-0.0,2.0,0.282024,0.235004,0.282024,0.319774,,,,,,
208938,0.004662,0.01453,-0.098486,-1.5e-05,5e-06,-0.001064,0.009642,-0.0,-0.0,2.0,0.282024,0.236011,0.282024,0.319129,,,,,,
208958,0.005265,0.014682,-0.098612,0.001064,-0.001064,-6e-06,0.013288,-0.0,-0.0,2.0,0.282024,0.234543,0.282024,0.320068,,,,,,
208978,0.006355,0.014858,-0.098741,0.003177,-0.001057,-0.001071,0.016904,-0.0,-0.0,2.0,0.282024,0.234986,0.282024,0.319786,,,,,,
208998,0.007703,0.014802,-0.098628,0.004241,-0.001056,-0.001073,0.01924,-0.0,-0.0,2.0,0.282024,0.2361,0.282024,0.319072,,,,,,
209018,0.009663,0.014775,-0.098275,0.005305,-0.001054,-0.001075,0.023265,-0.0,-0.0,2.0,0.282024,0.236675,0.282024,0.318701,,,,,,
209038,0.012124,0.014525,-0.097681,0.00529,-0.001038,-0.002141,0.026551,-0.0,-0.0,2.0,0.282024,0.236087,0.282024,0.31908,,,,,,
209058,0.015061,0.014541,-0.096968,0.00529,-0.001032,-0.002144,0.031378,-0.0,-0.0,2.0,0.282024,0.236726,0.282024,0.318668,,,,,,
209078,0.018481,0.014699,-0.096257,0.007418,-0.001025,-0.002148,0.033192,-0.0,-0.0,2.0,0.282024,0.240576,0.282024,0.316128,,,,,,
209098,0.022132,0.015112,-0.095671,0.008482,4.7e-05,-0.002128,0.037931,-0.0,-0.0,2.0,0.282024,0.24154,0.282024,0.315476,,,,,,
209118,0.026286,0.015183,-0.095324,0.009546,5.6e-05,-0.002128,0.039574,-0.0,-0.0,2.0,0.282024,0.244057,0.282024,0.31375,,,,,,
209138,0.031061,0.015037,-0.094974,0.010626,-0.001031,-0.001097,0.04283,-0.0,-0.0,2.0,0.282024,0.246162,0.282024,0.312275,,,,,,
209158,0.03607,0.015147,-0.094764,0.010625,-0.002089,-0.00114,0.04607,-0.0,-0.0,2.0,0.282024,0.246755,0.282024,0.311854,,,,,,
209178,0.040822,0.015491,-0.094676,0.009577,-0.002127,-8.7e-05,0.049798,-0.0,-0.0,2.0,0.282024,0.245457,0.282024,0.312772,,,,,,
209198,0.045335,0.015704,-0.094705,0.008512,-0.002126,-9.6e-05,0.049798,-0.0,-0.0,2.0,0.282024,0.247287,0.282024,0.311473,,,,,,
209218,0.04971,0.016159,-0.094964,0.007449,-0.001063,-5.3e-05,0.053033,-0.0,-0.0,2.0,0.282024,0.24611,0.282024,0.312311,,,,,,
209238,0.053727,0.016478,-0.095235,0.00745,0.0,0.0,0.057528,-0.0,-0.0,2.0,0.282024,0.245847,0.282024,0.312497,,,,,,
209258,0.057528,0.016179,-0.095608,0.008514,0.0,0.0,0.060331,-0.0,-0.0,2.0,0.282024,0.24624,0.282024,0.312219,,,,,,
209278,0.0616,0.015411,-0.096102,0.01066,0.000997,0.001128,0.062991,-0.0,-0.0,2.0,0.282024,0.24835,0.282024,0.310709,,,,,,
209298,0.066801,0.013965,-0.096547,0.011722,0.000991,0.001133,0.065483,-0.0,-0.0,2.0,0.282024,0.252553,0.282024,0.307611,,,,,,
209318,0.072848,0.012803,-0.096884,0.012772,0.001061,7.7e-05,0.066687,-0.0,-0.0,2.0,0.282024,0.257555,0.282024,0.303762,,,,,,
209338,0.079481,0.01216,-0.097226,0.0149,0.001061,8.5e-05,0.069039,-0.0,-0.0,2.0,0.282024,0.25928,0.282024,0.302392,,,,,,
209358,0.086464,0.011892,-0.097329,0.015963,0.0,0.0,0.071822,-0.0,-0.0,2.0,0.282024,0.263918,0.282024,0.298595,,,,,,
209378,0.09417,0.011904,-0.097448,0.018078,-0.000959,-0.00116,0.071822,-0.0,-0.0,2.0,0.282024,0.269796,0.282024,0.293533,,,,,,
209398,0.102711,0.012446,-0.097595,0.019153,-0.002117,-0.000218,0.074364,-0.0,-0.0,2.0,0.282024,0.272222,0.282024,0.291359,,,,,,
209418,0.111608,0.013237,-0.097506,0.019139,-0.001997,-0.001295,0.076897,-0.0,-0.0,2.0,0.282024,0.276158,0.282024,0.28772,,,,,,
209438,0.120728,0.014416,-0.097674,0.019151,-0.003169,-0.000385,0.078219,-0.0,-0.0,2.0,0.282024,0.279249,0.282024,0.284761,,,,,,
209458,0.129846,0.015727,-0.097987,0.019152,-0.002111,-0.000276,0.080006,-0.0,-0.0,2.0,0.282024,0.282239,0.282024,0.281809,,,,,,
209478,0.138752,0.016419,-0.09826,0.018089,-0.001054,-0.000147,0.081413,-0.0,-0.0,2.0,0.282024,0.284012,0.282024,0.280016,,,,,,
209498,0.14708,0.016475,-0.098487,0.015963,0.0,0.0,0.082693,-0.0,-0.0,2.0,0.282024,0.28569,0.282024,0.278289,,,,,,
209518,0.154586,0.015894,-0.098788,0.013838,0.001052,0.000164,0.083262,-0.0,-0.0,2.0,0.282024,0.286112,0.282024,0.277849,,,,,,
209538,0.161111,0.015267,-0.09907,0.011709,0.00105,0.000171,0.083952,-0.0,-0.0,2.0,0.282024,0.286223,0.282024,0.277733,,,,,,
209558,0.166786,0.014591,-0.099232,0.010658,-0.000177,0.00105,0.085491,-0.0,-0.0,2.0,0.282024,0.285791,0.282024,0.278184,,,,,,
209578,0.171604,0.014007,-0.099529,0.009578,0.0,0.0,0.086062,-0.0,-0.0,2.0,0.282024,0.286768,0.282024,0.277163,,,,,,
209598,0.175898,0.013907,-0.100093,0.008528,-0.000186,0.001048,0.086384,-0.0,-0.0,2.0,0.282024,0.287655,0.282024,0.276226,,,,,,
209618,0.18006,0.014036,-0.100557,0.008526,-0.001238,0.000857,0.086942,-0.0,-0.0,2.0,0.282024,0.289709,0.282024,0.274026,,,,,,
209638,0.184104,0.014127,-0.100658,0.008496,-0.000851,-0.001241,0.087099,-0.0,-0.0,2.0,0.282024,0.291855,0.282024,0.271674,,,,,,
209658,0.188151,0.01412,-0.100986,0.008514,0.0,0.0,0.087252,-0.0,-0.0,2.0,0.282024,0.292806,0.282024,0.270614,,,,,,
209678,0.192098,0.013965,-0.10108,0.008514,0.0,0.0,0.087239,-0.0,-0.0,2.0,0.282024,0.296254,0.282024,0.266678,,,,,,
209698,0.196407,0.013683,-0.100891,0.008514,0.0,0.0,0.087116,-0.0,-0.0,2.0,0.282024,0.298616,0.282024,0.263892,,,,,,
209718,0.200839,0.013565,-0.10109,0.009578,0.0,0.0,0.086765,-0.0,-0.0,2.0,0.282024,0.301136,0.282024,0.260836,,,,,,
209738,0.204889,0.013537,-0.101165,0.008511,-0.001042,-0.000217,0.086336,-0.0,-0.0,2.0,0.282024,0.303556,0.282024,0.257816,,,,,,
209758,0.209049,0.013919,-0.101653,0.007458,-0.002303,0.000599,0.085829,-0.0,-0.0,2.0,0.282024,0.304901,0.282024,0.256099,,,,,,
209778,0.21245,0.014629,-0.102175,0.006394,-0.002305,0.000592,0.084855,-0.0,-0.0,2.0,0.282024,0.30617,0.282024,0.254453,,,,,,
209798,0.214994,0.015188,-0.102803,0.004269,-0.001267,0.000813,0.084265,-0.0,-0.0,2.0,0.282024,0.305932,0.282024,0.254764,,,,,,
209818,0.217064,0.015739,-0.10358,0.002141,-0.001268,0.00081,0.083128,-0.0,-0.0,2.0,0.282024,0.30575,0.282024,0.255002,,,,,,
209838,0.218411,0.015658,-0.104389,0.001084,0.000808,0.00127,0.08188,-0.0,-0.0,2.0,0.282024,0.307742,0.282024,0.25238,,,,,,
209858,0.218925,0.01528,-0.105068,1.9e-05,0.000808,0.00127,0.080526,-0.0,-0.0,2.0,0.282024,0.307182,0.282024,0.253123,,,,,,
209878,0.218969,0.01439,-0.105684,-0.001046,0.000808,0.00127,0.079628,-0.0,-0.0,2.0,0.282024,0.307504,0.282024,0.252696,,,,,,
209898,0.218407,0.013468,-0.106315,-0.002111,0.000808,0.00127,0.078288,-0.0,-0.0,2.0,0.282024,0.307817,0.282024,0.252279,,,,,,
209918,0.217822,0.012936,-0.107226,-0.001037,-0.00046,0.002078,0.076885,-0.0,-0.0,2.0,0.282024,0.309281,0.282024,0.250308,,,,,,
209938,0.217332,0.012895,-0.108188,-0.001037,-0.000459,0.002079,0.074366,-0.0,-0.0,2.0,0.282024,0.311124,0.282024,0.247774,,,,,,
209958,0.216955,0.012994,-0.109281,-0.00104,-0.001497,0.00185,0.072953,-0.0,-0.0,2.0,0.282024,0.313779,0.282024,0.244015,,,,,,
209978,0.216686,0.013329,-0.110276,-0.00104,-0.001497,0.00185,0.070623,-0.0,-0.0,2.0,0.282024,0.315596,0.282024,0.241364,,,,,,
209998,0.216305,0.013522,-0.111141,-0.002114,-0.000228,0.00104,0.06835,-0.0,-0.0,2.0,0.282024,0.317394,0.282024,0.238674,,,,,,
210018,0.215923,0.013715,-0.112005,-0.002114,-0.000228,0.00104,0.066011,-0.0,-0.0,2.0,0.282024,0.318088,0.282024,0.237617,,,,,,
210038,0.215076,0.013599,-0.112494,-0.002114,-0.000227,0.00104,0.064777,-0.0,-0.0,2.0,0.282024,0.319428,0.282024,0.235546,,,,,,
210058,0.213982,0.013333,-0.112835,-0.00319,0.00104,0.000226,0.061011,-0.0,-0.0,2.0,0.282024,0.320359,0.282024,0.234083,,,,,,
210078,0.212889,0.013055,-0.113055,-0.003193,0.0,0.0,0.061011,-0.0,-0.0,2.0,0.282024,0.321295,0.282024,0.232591,,,,,,
210098,0.211442,0.012621,-0.113151,-0.003193,0.0,0.0,0.057133,-0.0,-0.0,2.0,0.282024,0.323245,0.282024,0.229415,,,,,,
210118,0.209868,0.012289,-0.113142,-0.00427,0.000222,-0.001041,0.054545,-0.0,-0.0,2.0,0.282024,0.3237,0.282024,0.22866,,,,,,
210138,0.208267,0.012198,-0.113138,-0.00427,0.00022,-0.001041,0.050773,-0.0,-0.0,2.0,0.282024,0.326646,0.282024,0.223633,,,,,,
210158,0.206687,0.011975,-0.113022,-0.004272,-0.000823,-0.00126,0.047671,-0.0,-0.0,2.0,0.282024,0.328337,0.282024,0.220635,,,,,,
210178,0.204847,0.011845,-0.112782,-0.004269,0.000216,-0.001042,0.044546,-0.0,-0.0,2.0,0.282024,0.328912,0.282024,0.219594,,,,,,
210198,0.203001,0.011825,-0.112434,-0.005333,0.000215,-0.001042,0.041296,-0.0,-0.0,2.0,0.282024,0.329528,0.282024,0.218469,,,,,,
210218,0.200802,0.011799,-0.112234,-0.005336,-0.000831,-0.001255,0.039171,-0.0,-0.0,2.0,0.282024,0.330787,0.282024,0.216128,,,,,,
210238,0.198088,0.011853,-0.111895,-0.0064,-0.000834,-0.001253,0.03653,-0.0,-0.0,2.0,0.282024,0.331,0.282024,0.215727,,,,,,
210258,0.195258,0.012025,-0.111589,-0.007465,-0.000838,-0.001251,0.032501,-0.0,-0.0,2.0,0.282024,0.331569,0.282024,0.214648,,,,,,
210278,0.19181,0.012162,-0.111273,-0.008529,-0.000842,-0.001248,0.029567,-0.0,-0.0,2.0,0.282024,0.331667,0.282024,0.214459,,,,,,
210298,0.18786,0.012383,-0.110835,-0.010658,-0.000847,-0.001244,0.026016,-0.0,-0.0,2.0,0.282024,0.331783,0.282024,0.214238,,,,,,
210318,0.183314,0.012574,-0.110425,-0.011735,-0.000658,-0.002287,0.022759,-0.0,-0.0,2.0,0.282024,0.331674,0.282024,0.214446,,,,,,
210338,0.178152,0.012723,-0.109881,-0.0128,-0.00067,-0.002284,0.019085,-0.0,-0.0,2.0,0.282024,0.331489,0.282024,0.2148,,,,,,
210358,0.172127,0.012838,-0.109447,-0.014928,-0.000684,-0.002279,0.015485,-0.0,-0.0,2.0,0.282024,0.329972,0.282024,0.21765,,,,,,
210378,0.165627,0.012788,-0.108761,-0.015992,-0.000699,-0.002275,0.011721,-0.0,-0.0,2.0,0.282024,0.328355,0.282024,0.220602,,,,,,
210398,0.158284,0.012576,-0.108072,-0.018118,0.000335,-0.002102,0.009674,-0.0,-0.0,2.0,0.282024,0.327038,0.282024,0.222946,,,,,,
210418,0.14996,0.012448,-0.107519,-0.019182,0.000318,-0.002105,0.005683,-0.0,-0.0,2.0,0.282024,0.324881,0.282024,0.226674,,,,,,
210438,0.141013,0.012405,-0.10683,-0.021311,0.000299,-0.002107,0.002464,-0.0,-0.0,2.0,0.282024,0.322265,0.282024,0.231023,,,,,,
210458,0.131338,0.012323,-0.106016,-0.022376,-0.000776,-0.00225,0.000463,-0.0,-0.0,2.0,0.282024,0.320098,0.282024,0.234494,,,,,,
210478,0.120683,0.012326,-0.105324,-0.024505,-0.0008,-0.002241,-0.00519,-0.0,-0.0,2.0,0.282024,0.317539,0.282024,0.238453,,,,,,
210498,0.109421,0.012422,-0.104524,-0.026633,-0.000825,-0.002232,-0.008617,-0.0,-0.0,2.0,0.282024,0.31406,0.282024,0.24361,,,,,,
210518,0.097415,0.012617,-0.103814,-0.027698,-0.000852,-0.002222,-0.012368,-0.0,-0.0,2.0,0.282024,0.31147,0.282024,0.247293,,,,,,
210538,0.084684,0.012783,-0.103101,-0.026633,0.00018,-0.002121,-0.016019,-0.0,-0.0,2.0,0.282024,0.309672,0.282024,0.249776,,,,,,
210558,0.073356,0.011927,-0.102214,-0.021306,0.004401,-0.001811,-0.019621,-0.0,-0.0,2.0,0.282024,0.312743,0.282024,0.245499,,,,,,
210578,0.063845,0.009083,-0.1009,-0.019181,0.007638,-0.002711,-0.022192,-0.0,-0.0,2.0,0.282024,0.314839,0.282024,0.242476,,,,,,
210598,0.055238,0.005194,-0.099565,-0.01917,0.007614,-0.002777,-0.022192,-0.0,-0.0,2.0,0.282024,0.314131,0.282024,0.243506,,,,,,
210618,0.046751,0.001325,-0.098391,-0.020224,0.007591,-0.002841,-0.028405,-0.0,-0.0,2.0,0.282024,0.313013,0.282024,0.245113,,,,,,
210638,0.037155,-0.002467,-0.097247,-0.022344,0.00646,-0.00189,-0.030266,-0.0,-0.0,2.0,0.282024,0.309065,0.282024,0.250602,,,,,,
210658,0.026558,-0.005804,-0.096503,-0.02553,0.005376,-0.001986,-0.035588,-0.0,-0.0,2.0,0.282024,0.305744,0.282024,0.255009,,,,,,
210678,0.015078,-0.008562,-0.096169,-0.027661,0.005337,-0.000984,-0.037734,-0.0,-0.0,2.0,0.282024,0.301027,0.282024,0.260971,,,,,,
210698,0.002728,-0.010991,-0.096113,-0.026606,0.005321,1.5e-05,-0.04102,-0.0,-0.0,2.0,0.282024,0.298633,0.282024,0.263872,,,,,,
210718,-0.009219,-0.014132,-0.096309,-0.024461,0.007439,-0.001133,-0.044179,-0.0,-0.0,2.0,0.282024,0.297416,0.282024,0.265317,,,,,,
210738,-0.020015,-0.018319,-0.096545,-0.022326,0.008491,-0.001235,-0.047397,-0.0,-0.0,2.0,0.282024,0.297727,0.282024,0.264949,,,,,,
210758,-0.029623,-0.021834,-0.096548,-0.020194,0.005287,-0.001222,-0.049387,-0.0,-0.0,2.0,0.282024,0.299179,0.282024,0.263217,,,,,,
210778,-0.038104,-0.023456,-0.096283,-0.014848,0.000982,-0.002168,-0.051951,-0.0,-0.0,2.0,0.282024,0.301096,0.282024,0.260886,,,,,,
210798,-0.044224,-0.023485,-0.095487,-0.01057,-0.002268,-0.003096,-0.054778,-0.0,-0.0,2.0,0.282024,0.306071,0.282024,0.254583,,,,,,
210818,-0.048445,-0.022426,-0.094026,-0.006295,-0.004458,-0.004047,-0.058533,-0.0,-0.0,2.0,0.282024,0.311812,0.282024,0.246813,,,,,,
210838,-0.050525,-0.020155,-0.092156,-0.003092,-0.006646,-0.004993,-0.060556,-0.0,-0.0,2.0,0.282024,0.31527,0.282024,0.241844,,,,,,
210858,-0.051304,-0.016838,-0.089992,-0.000981,-0.007713,-0.004933,-0.063556,-0.0,-0.0,2.0,0.282024,0.317113,0.282024,0.239098,,,,,,
210878,-0.051838,-0.013386,-0.087823,-0.002062,-0.006652,-0.004984,-0.066103,-0.0,-0.0,2.0,0.282024,0.318897,0.282024,0.236371,,,,,,
210898,-0.052699,-0.010678,-0.085551,-0.002074,-0.004531,-0.00509,-0.068497,-0.0,-0.0,2.0,0.282024,0.318357,0.282024,0.237205,,,,,,
210918,-0.053871,-0.009203,-0.083324,-0.004199,-0.002469,-0.006262,-0.069625,-0.0,-0.0,2.0,0.282024,0.317368,0.282024,0.238713,,,,,,
210938,-0.055497,-0.008469,-0.080856,-0.004212,-0.000295,-0.005313,-0.071155,-0.0,-0.0,2.0,0.282024,0.316374,0.282024,0.240208,,,,,,
210958,-0.057328,-0.008724,-0.078673,-0.004209,0.00182,-0.005435,-0.074588,-0.0,-0.0,2.0,0.282024,0.316979,0.282024,0.2393,,,,,,
210978,-0.059119,-0.009964,-0.077005,-0.004223,0.002998,-0.003376,-0.075956,-0.0,-0.0,2.0,0.282024,0.316999,0.282024,0.23927,,,,,,
210998,-0.060754,-0.012065,-0.075851,-0.004227,0.005182,-0.002448,-0.077255,-0.0,-0.0,2.0,0.282024,0.317042,0.282024,0.239206,,,,,,
211018,-0.062491,-0.014671,-0.075202,-0.004221,0.005178,-0.002457,-0.079386,-0.0,-0.0,2.0,0.282024,0.317296,0.282024,0.238822,,,,,,
211038,-0.064233,-0.017175,-0.075176,-0.005299,0.003118,-0.001267,-0.08046,-0.0,-0.0,2.0,0.282024,0.31723,0.282024,0.238922,,,,,,
211058,-0.066257,-0.018597,-0.075361,-0.004257,0.0,0.0,-0.081938,-0.0,-0.0,2.0,0.282024,0.317188,0.282024,0.238986,,,,,,
211078,-0.068327,-0.018682,-0.07561,-0.00426,-0.002123,0.000145,-0.083183,-0.0,-0.0,2.0,0.282024,0.317077,0.282024,0.239153,,,,,,
211098,-0.069713,-0.01764,-0.075711,-0.002132,-0.003185,0.000222,-0.084258,-0.0,-0.0,2.0,0.282024,0.31931,0.282024,0.23573,,,,,,
211118,-0.070369,-0.016443,-0.075669,1.4e-05,-0.00326,-0.000837,-0.084718,-0.0,-0.0,2.0,0.282024,0.320466,0.282024,0.233913,,,,,,
211138,-0.070044,-0.015442,-0.075269,1.4e-05,-0.002198,-0.000913,-0.085286,-0.0,-0.0,2.0,0.282024,0.321949,0.282024,0.231537,,,,,,
211158,-0.069703,-0.014792,-0.074504,3e-05,-0.00121,-0.002049,-0.085878,-0.0,-0.0,2.0,0.282024,0.32236,0.282024,0.230868,,,,,,
211178,-0.069959,-0.01465,-0.073649,-0.002083,-0.001285,-0.003111,-0.086679,-0.0,-0.0,2.0,0.282024,0.321567,0.282024,0.232154,,,,,,
211198,-0.070823,-0.014533,-0.072916,-0.004226,-0.000151,-0.002123,-0.086965,-0.0,-0.0,2.0,0.282024,0.319356,0.282024,0.235658,,,,,,
211218,-0.072295,-0.014446,-0.072426,-0.004242,-7.7e-05,-0.001062,-0.087224,-0.0,-0.0,2.0,0.282024,0.318022,0.282024,0.237717,,,,,,
211238,-0.073882,-0.014616,-0.072202,-0.003177,-7.9e-05,-0.001061,-0.087261,-0.0,-0.0,2.0,0.282024,0.318792,0.282024,0.236533,,,,,,
211258,-0.075322,-0.015277,-0.072225,-0.002127,0.001061,-8e-05,-0.087134,-0.0,-0.0,2.0,0.282024,0.318429,0.282024,0.237094,,,,,,
211278,-0.076269,-0.016176,-0.072515,-0.002127,0.001061,-8.1e-05,-0.087012,-0.0,-0.0,2.0,0.282024,0.319312,0.282024,0.235727,,,,,,
211298,-0.076858,-0.016694,-0.072778,-0.001064,0.0,0.0,-0.086583,-0.0,-0.0,2.0,0.282024,0.3191,0.282024,0.236056,,,,,,
211318,-0.077223,-0.016604,-0.07326,-0.001083,-0.000979,0.001143,-0.086583,-0.0,-0.0,2.0,0.282024,0.319072,0.282024,0.2361,,,,,,
211338,-0.077598,-0.01627,-0.073733,-0.001067,-0.002122,0.000165,-0.085544,-0.0,-0.0,2.0,0.282024,0.319828,0.282024,0.234919,,,,,,
211358,-0.077869,-0.015567,-0.074204,-0.001067,-0.002122,0.000166,-0.084455,-0.0,-0.0,2.0,0.282024,0.319477,0.282024,0.23547,,,,,,
211378,-0.07801,-0.014981,-0.074667,-0.001065,-0.001061,8.3e-05,-0.083673,-0.0,-0.0,2.0,0.282024,0.319261,0.282024,0.235805,,,,,,
211398,-0.078264,-0.014639,-0.075017,-0.001064,0.0,0.0,-0.083035,-0.0,-0.0,2.0,0.282024,0.319062,0.282024,0.236115,,,,,,
211418,-0.078746,-0.014783,-0.075143,-0.002128,0.0,0.0,-0.081709,-0.0,-0.0,2.0,0.282024,0.317469,0.282024,0.238559,,,,,,
211438,-0.079467,-0.015059,-0.075274,-0.003193,0.0,0.0,-0.080299,-0.0,-0.0,2.0,0.282024,0.315753,0.282024,0.241132,,,,,,
211458,-0.080689,-0.01511,-0.07541,-0.003193,0.0,0.0,-0.078757,-0.0,-0.0,2.0,0.282024,0.314935,0.282024,0.242336,,,,,,
211478,-0.082027,-0.015174,-0.075774,-0.003193,0.0,0.0,-0.076758,-0.0,-0.0,2.0,0.282024,0.31392,0.282024,0.243812,,,,,,
211498,-0.083239,-0.015474,-0.076041,-0.003193,0.0,0.0,-0.076758,-0.0,-0.0,2.0,0.282024,0.313513,0.282024,0.244397,,,,,,
211518,-0.08432,-0.015886,-0.076178,-0.002128,0.0,0.0,-0.073211,-0.0,-0.0,2.0,0.282024,0.313187,0.282024,0.244865,,,,,,
211538,-0.08493,-0.016032,-0.076197,-0.002111,-9e-05,-0.001061,-0.07207,-0.0,-0.0,2.0,0.282024,0.312583,0.282024,0.245726,,,,,,
211558,-0.085422,-0.015928,-0.076191,-0.001066,-0.00106,9.1e-05,-0.069371,-0.0,-0.0,2.0,0.282024,0.312616,0.282024,0.245678,,,,,,
211578,-0.085678,-0.015582,-0.076419,-0.001066,-0.00106,9.1e-05,-0.067003,-0.0,-0.0,2.0,0.282024,0.311684,0.282024,0.246993,,,,,,
211598,-0.086062,-0.015108,-0.076398,-0.00105,-0.001152,-0.000969,-0.065768,-0.0,-0.0,2.0,0.282024,0.311048,0.282024,0.247881,,,,,,
211618,-0.086318,-0.014863,-0.076144,-0.00105,-0.001152,-0.000969,-0.063272,-0.0,-0.0,2.0,0.282024,0.310034,0.282024,0.24928,,,,,,
211638,-0.086451,-0.014613,-0.07589,-0.001049,-9.2e-05,-0.00106,-0.060399,-0.0,-0.0,2.0,0.282024,0.308912,0.282024,0.25081,,,,,,
211658,-0.086697,-0.014612,-0.075647,-0.00105,-0.001152,-0.000968,-0.058908,-0.0,-0.0,2.0,0.282024,0.308152,0.282024,0.251831,,,,,,
211678,-0.087185,-0.01463,-0.075646,-0.002113,-9.3e-05,-0.00106,-0.055623,-0.0,-0.0,2.0,0.282024,0.305581,0.282024,0.255221,,,,,,
211698,-0.0878,-0.014525,-0.075519,-0.002113,-9.3e-05,-0.00106,-0.054197,-0.0,-0.0,2.0,0.282024,0.305832,0.282024,0.254895,,,,,,
211718,-0.088402,-0.014781,-0.075286,-0.001049,-9.4e-05,-0.00106,-0.049351,-0.0,-0.0,2.0,0.282024,0.303828,0.282024,0.257472,,,,,,
211738,-0.088765,-0.015034,-0.075189,-0.001048,-9.4e-05,-0.00106,-0.047358,-0.0,-0.0,2.0,0.282024,0.302738,0.282024,0.258847,,,,,,
211758,-0.089131,-0.015042,-0.075067,-0.00105,-0.001155,-0.000965,-0.04393,-0.0,-0.0,2.0,0.282024,0.301161,0.282024,0.260805,,,,,,
211778,-0.089633,-0.014694,-0.07505,-0.00105,-0.001155,-0.000965,-0.040723,-0.0,-0.0,2.0,0.282024,0.298368,0.282024,0.264189,,,,,,
211798,-0.090262,-0.014223,-0.074906,-0.002115,-0.001156,-0.000964,-0.037373,-0.0,-0.0,2.0,0.282024,0.296632,0.282024,0.266236,,,,,,
211818,-0.090759,-0.013992,-0.074772,-0.001049,-9.6e-05,-0.00106,-0.035444,-0.0,-0.0,2.0,0.282024,0.296573,0.282024,0.266305,,,,,,
211838,-0.091004,-0.013995,-0.07465,-0.001049,-9.7e-05,-0.00106,-0.030918,-0.0,-0.0,2.0,0.282024,0.294503,0.282024,0.268695,,,,,,
211858,-0.090999,-0.014117,-0.074656,-0.001049,-9.7e-05,-0.00106,-0.029132,-0.0,-0.0,2.0,0.282024,0.293358,0.282024,0.269994,,,,,,
211878,-0.091125,-0.014005,-0.074772,-0.001066,-0.00106,9.7e-05,-0.024567,-0.0,-0.0,2.0,0.282024,0.291202,0.282024,0.272395,,,,,,
211898,-0.091493,-0.013908,-0.075009,-0.001066,-0.00106,9.7e-05,-0.021934,-0.0,-0.0,2.0,0.282024,0.289568,0.282024,0.274178,,,,,,
211918,-0.091745,-0.013807,-0.075259,-0.001066,-0.00106,9.8e-05,-0.017611,-0.0,-0.0,2.0,0.282024,0.287357,0.282024,0.276543,,,,,,
211938,-0.091869,-0.013701,-0.075497,-0.001066,-0.00106,9.8e-05,-0.0139,-0.0,-0.0,2.0,0.282024,0.28533,0.282024,0.278661,,,,,,
211958,-0.091994,-0.013595,-0.075734,-0.001066,-0.00106,9.8e-05,-0.010272,-0.0,-0.0,2.0,0.282024,0.283275,0.282024,0.280766,,,,,,
211978,-0.092238,-0.013504,-0.076214,-0.001066,-0.00106,9.8e-05,-0.008442,-0.0,-0.0,2.0,0.282024,0.281733,0.282024,0.282314,,,,,,
211998,-0.092113,-0.013516,-0.076578,-1.4e-05,9.8e-05,0.00106,-0.003731,-0.0,-0.0,2.0,0.282024,0.280622,0.282024,0.283416,,,,,,
212018,-0.091984,-0.013645,-0.076827,0.0,0.0,0.0,-0.003731,-0.0,-0.0,2.0,0.282024,0.279792,0.282024,0.284231,,,,,,
212038,-0.091978,-0.013772,-0.076954,-1e-06,-0.00106,9.8e-05,0.00275,-0.0,-0.0,2.0,0.282024,0.276593,0.282024,0.287309,,,,,,
212058,-0.091987,-0.013534,-0.077065,-1e-06,-0.00106,9.8e-05,0.006134,-0.0,-0.0,2.0,0.282024,0.27304,0.282024,0.290615,,,,,,
212078,-0.09199,-0.013418,-0.077181,1.3e-05,-0.001157,-0.000962,0.01091,-0.0,-0.0,2.0,0.282024,0.271637,0.282024,0.291888,,,,,,
212098,-0.092002,-0.013163,-0.076926,1.4e-05,-9.8e-05,-0.00106,0.012824,-0.0,-0.0,2.0,0.282024,0.269869,0.282024,0.293469,,,,,,
212118,-0.092004,-0.013152,-0.076683,1.3e-05,-0.001157,-0.000962,0.016532,-0.0,-0.0,2.0,0.282024,0.267369,0.282024,0.295657,,,,,,
212138,-0.091879,-0.013264,-0.076568,1.3e-05,-0.001157,-0.000962,0.020206,-0.0,-0.0,2.0,0.282024,0.264838,0.282024,0.297821,,,,,,
212158,-0.091644,-0.013011,-0.076557,0.0,0.0,0.0,0.024264,-0.0,-0.0,2.0,0.282024,0.262143,0.282024,0.300067,,,,,,
212178,-0.091653,-0.012773,-0.076667,0.0,0.0,0.0,0.026868,-0.0,-0.0,2.0,0.282024,0.259852,0.282024,0.301933,,,,,,
212198,-0.091517,-0.013134,-0.076684,1.3e-05,-0.001157,-0.000963,0.026868,-0.0,-0.0,2.0,0.282024,0.258611,0.282024,0.302926,,,,,,
212218,-0.091146,-0.013242,-0.076691,1.4e-05,-9.7e-05,-0.00106,0.032847,-0.0,-0.0,2.0,0.282024,0.255019,0.282024,0.305737,,,,,,
212238,-0.090907,-0.013111,-0.076686,0.0,0.0,0.0,0.03587,-0.0,-0.0,2.0,0.282024,0.252477,0.282024,0.307669,,,,,,
212258,-0.090788,-0.013095,-0.076443,1.3e-05,-0.001156,-0.000963,0.040297,-0.0,-0.0,2.0,0.282024,0.249206,0.282024,0.310088,,,,,,
212278,-0.090661,-0.013084,-0.076308,1.3e-05,-0.001156,-0.000964,0.043524,-0.0,-0.0,2.0,0.282024,0.246343,0.282024,0.312146,,,,,,
212298,-0.090298,-0.013059,-0.076066,0.001077,-0.001156,-0.000964,0.046676,-0.0,-0.0,2.0,0.282024,0.243514,0.282024,0.314126,,,,,,
212318,-0.089448,-0.013011,-0.075703,0.001078,-9.5e-05,-0.00106,0.049736,-0.0,-0.0,2.0,0.282024,0.242494,0.282024,0.314827,,,,,,
212338,-0.088474,-0.012841,-0.075442,0.002142,-9.4e-05,-0.00106,0.051444,-0.0,-0.0,2.0,0.282024,0.242087,0.282024,0.315105,,,,,,
212358,-0.087252,-0.012913,-0.075328,0.004271,-9.3e-05,-0.00106,0.051444,-0.0,-0.0,2.0,0.282024,0.242534,0.282024,0.3148,,,,,,
212378,-0.085407,-0.013098,-0.075571,0.004256,-0.00106,9.1e-05,0.056935,-0.0,-0.0,2.0,0.282024,0.239183,0.282024,0.317057,,,,,,
212398,-0.082967,-0.013023,-0.07594,0.004242,-0.000972,0.001149,0.060595,-0.0,-0.0,2.0,0.282024,0.238497,0.282024,0.31751,,,,,,
212418,-0.080278,-0.012932,-0.076172,0.005306,-0.000975,0.001146,0.062584,-0.0,-0.0,2.0,0.282024,0.238688,0.282024,0.317384,,,,,,
212438,-0.077602,-0.012483,-0.076633,0.00532,-0.001061,8.3e-05,0.064235,-0.0,-0.0,2.0,0.282024,0.23901,0.282024,0.317172,,,,,,
212458,-0.074796,-0.012268,-0.076982,0.00532,-0.001061,8e-05,0.066681,-0.0,-0.0,2.0,0.282024,0.237368,0.282024,0.31825,,,,,,
212478,-0.071873,-0.012049,-0.077346,0.006384,-0.002123,0.000153,0.069044,-0.0,-0.0,2.0,0.282024,0.235802,0.282024,0.319263,,,,,,
212498,-0.069076,-0.011588,-0.077686,0.006371,-0.00205,0.001209,0.071236,-0.0,-0.0,2.0,0.282024,0.232495,0.282024,0.321355,,,,,,
212518,-0.066402,-0.01113,-0.078026,0.005307,-0.003115,0.001274,0.072327,-0.0,-0.0,2.0,0.282024,0.2314,0.282024,0.322033,,,,,,
212538,-0.063502,-0.010301,-0.078492,0.005309,-0.002057,0.001197,0.073992,-0.0,-0.0,2.0,0.282024,0.230131,0.282024,0.32281,,,,,,
212558,-0.06047,-0.009591,-0.07907,0.006384,-0.002125,0.000129,0.073992,-0.0,-0.0,2.0,0.282024,0.231476,0.282024,0.321987,,,,,,
212578,-0.057201,-0.008743,-0.079524,0.006384,-0.002125,0.000122,0.077766,-0.0,-0.0,2.0,0.282024,0.231203,0.282024,0.322155,,,,,,
212598,-0.053692,-0.007885,-0.079995,0.00744,-0.002068,0.001177,0.080088,-0.0,-0.0,2.0,0.282024,0.231735,0.282024,0.321827,,,,,,
212618,-0.050063,-0.006897,-0.08045,0.008513,-0.003189,0.00016,0.081154,-0.0,-0.0,2.0,0.282024,0.231147,0.282024,0.322189,,,,,,
212638,-0.046449,-0.005542,-0.080898,0.007448,-0.005315,0.000247,0.082601,-0.0,-0.0,2.0,0.282024,0.228648,0.282024,0.323707,,,,,,
212658,-0.042737,-0.00369,-0.081233,0.007445,-0.005271,0.001291,0.083744,-0.0,-0.0,2.0,0.282024,0.228128,0.282024,0.324018,,,,,,
212678,-0.039038,-0.001466,-0.081308,0.007449,-0.005317,0.000208,0.084267,-0.0,-0.0,2.0,0.282024,0.227935,0.282024,0.324133,,,,,,
212698,-0.034869,0.001145,-0.081401,0.008514,-0.005318,0.000186,0.085156,-0.0,-0.0,2.0,0.282024,0.229624,0.282024,0.323118,,,,,,
212718,-0.030083,0.003661,-0.08137,0.010639,-0.005351,-0.000904,0.086045,-0.0,-0.0,2.0,0.282024,0.233365,0.282024,0.320811,,,,,,
212738,-0.024688,0.006202,-0.081353,0.011701,-0.005346,-0.000933,0.086045,-0.0,-0.0,2.0,0.282024,0.237739,0.282024,0.318008,,,,,,
212758,-0.018698,0.009136,-0.081117,0.013826,-0.007468,-0.000925,0.086942,-0.0,-0.0,2.0,0.282024,0.240274,0.282024,0.31633,,,,,,
212778,-0.012218,0.01209,-0.080778,0.014875,-0.008539,-0.002024,0.087103,-0.0,-0.0,2.0,0.282024,0.243363,0.282024,0.31423,,,,,,
212798,-0.005379,0.0153,-0.080318,0.015948,-0.008519,-0.001019,0.08723,-0.0,-0.0,2.0,0.282024,0.245011,0.282024,0.313085,,,,,,
212818,0.001958,0.018282,-0.079771,0.014879,-0.006383,-0.001077,0.087247,-0.0,-0.0,2.0,0.282024,0.246998,0.282024,0.31168,,,,,,
212838,0.009462,0.020166,-0.079358,0.015941,-0.003182,-0.001095,0.087093,-0.0,-0.0,2.0,0.282024,0.250781,0.282024,0.308932,,,,,,
212858,0.016788,0.020333,-0.079192,0.014878,0.001082,-0.001046,0.086784,-0.0,-0.0,2.0,0.282024,0.251443,0.282024,0.308442,,,,,,
212878,0.02393,0.018904,-0.079229,0.013836,0.003192,7.6e-05,0.086293,-0.0,-0.0,2.0,0.282024,0.253785,0.282024,0.306681,,,,,,
212898,0.030491,0.016723,-0.079492,0.012772,0.003191,9.7e-05,0.085689,-0.0,-0.0,2.0,0.282024,0.25448,0.282024,0.30615,,,,,,
212918,0.036302,0.014887,-0.080105,0.010659,0.001025,0.001102,0.084969,-0.0,-0.0,2.0,0.282024,0.251939,0.282024,0.308072,,,,,,
212938,0.040845,0.014231,-0.080969,0.008528,-0.00217,0.000977,0.084297,-0.0,-0.0,2.0,0.282024,0.250424,0.282024,0.309196,,,,,,
212958,0.044737,0.014529,-0.081849,0.007478,-0.003285,0.001984,0.083699,-0.0,-0.0,2.0,0.282024,0.250219,0.282024,0.309347,,,,,,
212978,0.048483,0.015435,-0.082742,0.007464,-0.002178,0.00096,0.081999,-0.0,-0.0,2.0,0.282024,0.253548,0.282024,0.30686,,,,,,
212998,0.052591,0.016472,-0.083276,0.008514,0.0,0.0,0.080622,-0.0,-0.0,2.0,0.282024,0.255387,0.282024,0.305453,,,,,,
213018,0.057089,0.016919,-0.083917,0.009579,0.001062,6.1e-05,0.079131,-0.0,-0.0,2.0,0.282024,0.258928,0.282024,0.302673,,,,,,
213038,0.061758,0.016269,-0.084281,0.010643,0.001062,6.6e-05,0.07834,-0.0,-0.0,2.0,0.282024,0.262281,0.282024,0.299954,,,,,,
213058,0.066807,0.015394,-0.084646,0.010643,0.001062,7.1e-05,0.076564,-0.0,-0.0,2.0,0.282024,0.263288,0.282024,0.29912,,,,,,
213078,0.071958,0.01489,-0.085001,0.009594,-7.7e-05,0.001062,0.075139,-0.0,-0.0,2.0,0.282024,0.265694,0.282024,0.297095,,,,,,
213098,0.076605,0.014861,-0.085506,0.009591,-0.002204,0.000898,0.073142,-0.0,-0.0,2.0,0.282024,0.268183,0.282024,0.294951,,,,,,
213118,0.080858,0.015309,-0.086135,0.008527,-0.002207,0.000889,0.071143,-0.0,-0.0,2.0,0.282024,0.26913,0.282024,0.294121,,,,,,
213138,0.08474,0.015989,-0.086789,0.007464,-0.002211,0.00088,0.069943,-0.0,-0.0,2.0,0.282024,0.269747,0.282024,0.293576,,,,,,
213158,0.088384,0.01654,-0.087439,0.006384,-0.00106,-9.4e-05,0.066072,-0.0,-0.0,2.0,0.282024,0.271303,0.282024,0.292189,,,,,,
213178,0.091544,0.016831,-0.088184,0.005341,0.000962,0.001157,0.064622,-0.0,-0.0,2.0,0.282024,0.271855,0.282024,0.291691,,,,,,
213198,0.094365,0.016501,-0.088899,0.00534,0.000959,0.00116,0.061858,-0.0,-0.0,2.0,0.282024,0.274176,0.282024,0.28957,,,,,,
213218,0.096732,0.015548,-0.089723,0.004275,0.000956,0.001162,0.059141,-0.0,-0.0,2.0,0.282024,0.274993,0.282024,0.288811,,,,,,
213238,0.098715,0.014836,-0.090782,0.003224,-0.00021,0.002118,0.055959,-0.0,-0.0,2.0,0.282024,0.275891,0.282024,0.287972,,,,,,
213258,0.100071,0.014471,-0.091982,0.001095,-0.000213,0.002118,0.055959,-0.0,-0.0,2.0,0.282024,0.27548,0.282024,0.288357,,,,,,
213278,0.101039,0.014583,-0.093329,0.001111,-0.000322,0.003177,0.05289,-0.0,-0.0,2.0,0.282024,0.277375,0.282024,0.286566,,,,,,
213298,0.101755,0.014691,-0.094781,0.002174,-0.001383,0.003068,0.047696,-0.0,-0.0,2.0,0.282024,0.27996,0.282024,0.284066,,,,,,
213318,0.102611,0.014562,-0.096236,0.002159,-0.000218,0.002117,0.045682,-0.0,-0.0,2.0,0.282024,0.281505,0.282024,0.282541,,,,,,
213338,0.104081,0.014472,-0.097827,0.002159,-0.000221,0.002117,0.041481,-0.0,-0.0,2.0,0.282024,0.284057,0.282024,0.27997,,,,,,
213358,0.105191,0.014218,-0.09891,0.002159,-0.000223,0.002117,0.039854,-0.0,-0.0,2.0,0.282024,0.285582,0.282024,0.2784,,,,,,
213378,0.105923,0.014068,-0.099983,0.001094,-0.000225,0.002117,0.03647,-0.0,-0.0,2.0,0.282024,0.286325,0.282024,0.277627,,,,,,
213398,0.106542,0.013901,-0.100832,1.5e-05,-0.000113,0.001058,0.03307,-0.0,-0.0,2.0,0.282024,0.287108,0.282024,0.276805,,,,,,
213418,0.107149,0.013977,-0.101695,0.001079,-0.000114,0.001058,0.029242,-0.0,-0.0,2.0,0.282024,0.290548,0.282024,0.273113,,,,,,
213438,0.107764,0.013797,-0.102283,0.001079,-0.000114,0.001058,0.029242,-0.0,-0.0,2.0,0.282024,0.291482,0.282024,0.272086,,,,,,
213458,0.108394,0.01349,-0.102762,0.001064,0.0,0.0,0.022337,-0.0,-0.0,2.0,0.282024,0.294468,0.282024,0.268735,,,,,,
213478,0.109253,0.013323,-0.103348,0.001064,0.0,0.0,0.019579,-0.0,-0.0,2.0,0.282024,0.29668,0.282024,0.266181,,,,,,
213498,0.109999,0.013137,-0.103711,0.001078,-0.000117,0.001058,0.017453,-0.0,-0.0,2.0,0.282024,0.298424,0.282024,0.264121,,,,,,
213518,0.110484,0.013176,-0.10395,-2e-06,-0.001058,-0.000117,0.012331,-0.0,-0.0,2.0,0.282024,0.299848,0.282024,0.26241,,,,,,
213538,0.110596,0.013324,-0.104319,-2e-06,-0.001058,-0.000117,0.008546,-0.0,-0.0,2.0,0.282024,0.301971,0.282024,0.259804,,,,,,
213558,0.11046,0.013568,-0.104454,-0.001066,-0.001058,-0.000117,0.004891,-0.0,-0.0,2.0,0.282024,0.302814,0.282024,0.258751,,,,,,
213578,0.110215,0.013562,-0.104577,-0.001079,0.000117,-0.001058,0.003048,-0.0,-0.0,2.0,0.282024,0.304253,0.282024,0.25693,,,,,,
213598,0.109971,0.013556,-0.1047,-0.001064,0.0,0.0,-0.001141,-0.0,-0.0,2.0,0.282024,0.306225,0.282024,0.254381,,,,,,
213618,0.109482,0.013537,-0.104825,-0.002128,0.0,0.0,-0.004668,-0.0,-0.0,2.0,0.282024,0.307187,0.282024,0.253116,,,,,,
213638,0.108751,0.013506,-0.104951,-0.002128,0.0,0.0,-0.008069,-0.0,-0.0,2.0,0.282024,0.309002,0.282024,0.250687,,,,,,
213658,0.107763,0.013583,-0.105067,-0.003194,-0.001058,-0.000114,-0.010664,-0.0,-0.0,2.0,0.282024,0.309345,0.282024,0.250222,,,,,,
213678,0.106296,0.013629,-0.105084,-0.004273,-0.000945,-0.001171,-0.015315,-0.0,-0.0,2.0,0.282024,0.311355,0.282024,0.247453,,,,,,
213698,0.104703,0.013655,-0.104841,-0.004273,-0.000947,-0.00117,-0.019174,-0.0,-0.0,2.0,0.282024,0.310803,0.282024,0.24822,,,,,,
213718,0.102623,0.013656,-0.1046,-0.005336,0.000109,-0.001059,-0.020985,-0.0,-0.0,2.0,0.282024,0.311785,0.282024,0.246852,,,,,,
213738,0.100178,0.013639,-0.104361,-0.005336,0.000106,-0.001059,-0.024681,-0.0,-0.0,2.0,0.282024,0.313223,0.282024,0.244814,,,,,,
213758,0.097745,0.013379,-0.104108,-0.0064,0.000104,-0.001059,-0.028261,-0.0,-0.0,2.0,0.282024,0.313494,0.282024,0.244425,,,,,,
213778,0.095063,0.013106,-0.103838,-0.007463,0.000101,-0.00106,-0.030111,-0.0,-0.0,2.0,0.282024,0.31433,0.282024,0.243218,,,,,,
213798,0.092016,0.012938,-0.103595,-0.007465,-0.000962,-0.001158,-0.034876,-0.0,-0.0,2.0,0.282024,0.31479,0.282024,0.242547,,,,,,
213818,0.088602,0.012757,-0.103473,-0.008529,-0.000966,-0.001154,-0.039008,-0.0,-0.0,2.0,0.282024,0.314965,0.282024,0.242292,,,,,,
213838,0.084811,0.012673,-0.103216,-0.009593,-0.00097,-0.001151,-0.040868,-0.0,-0.0,2.0,0.282024,0.314352,0.282024,0.243186,,,,,,
213858,0.08066,0.012578,-0.1031,-0.010657,-0.000975,-0.001147,-0.044977,-0.0,-0.0,2.0,0.282024,0.315408,0.282024,0.241642,,,,,,
213878,0.075889,0.012568,-0.102848,-0.011721,-0.00098,-0.001142,-0.04684,-0.0,-0.0,2.0,0.282024,0.313367,0.282024,0.244608,,,,,,
213898,0.070506,0.012655,-0.102738,-0.012785,-0.000987,-0.001137,-0.049914,-0.0,-0.0,2.0,0.282024,0.312598,0.282024,0.245704,,,,,,
213918,0.064882,0.012608,-0.102601,-0.014913,-0.000993,-0.001131,-0.052858,-0.0,-0.0,2.0,0.282024,0.311694,0.282024,0.246978,,,,,,
213938,0.058399,0.012636,-0.102344,-0.014913,-0.001,-0.001125,-0.055837,-0.0,-0.0,2.0,0.282024,0.310515,0.282024,0.248619,,,,,,
213958,0.051175,0.012876,-0.102226,-0.017042,-0.001008,-0.001117,-0.055837,-0.0,-0.0,2.0,0.282024,0.307015,0.282024,0.253344,,,,,,
213978,0.043456,0.013211,-0.10196,-0.018106,-0.001017,-0.00111,-0.060948,-0.0,-0.0,2.0,0.282024,0.306001,0.282024,0.254675,,,,,,
213998,0.035141,0.013275,-0.101817,-0.019171,-0.001026,-0.001101,-0.062984,-0.0,-0.0,2.0,0.282024,0.30379,0.282024,0.25752,,,,,,
214018,0.025959,0.013539,-0.101524,-0.021299,-0.001036,-0.001092,-0.066152,-0.0,-0.0,2.0,0.282024,0.300415,0.282024,0.26172,,,,,,
214038,0.01642,0.013664,-0.101231,-0.022364,-0.001047,-0.001082,-0.067503,-0.0,-0.0,2.0,0.282024,0.297436,0.282024,0.265293,,,,,,
214058,0.00615,0.013756,-0.101059,-0.023428,7e-06,-0.001064,-0.069976,-0.0,-0.0,2.0,0.282024,0.294469,0.282024,0.268734,,,,,,
214078,-0.004602,0.013702,-0.100745,-0.024492,-5e-06,-0.001064,-0.072152,-0.0,-0.0,2.0,0.282024,0.291129,0.282024,0.272476,,,,,,
214098,-0.016086,0.013612,-0.10053,-0.025556,-1.7e-05,-0.001064,-0.074171,-0.0,-0.0,2.0,0.282024,0.28735,0.282024,0.276549,,,,,,
214118,-0.02793,0.013385,-0.10019,-0.026619,-0.001094,-0.001034,-0.075334,-0.0,-0.0,2.0,0.282024,0.282985,0.282024,0.281058,,,,,,
214138,-0.040397,0.013371,-0.09996,-0.027683,-0.001106,-0.00102,-0.076844,-0.0,-0.0,2.0,0.282024,0.278336,0.282024,0.285644,,,,,,
214158,-0.053474,0.01333,-0.099578,-0.029812,-0.00112,-0.001006,-0.078361,-0.0,-0.0,2.0,0.282024,0.273204,0.282024,0.290464,,,,,,
214178,-0.066688,0.013524,-0.0993,-0.029797,-0.001062,7.1e-05,-0.080513,-0.0,-0.0,2.0,0.282024,0.268014,0.282024,0.295098,,,,,,
214198,-0.080399,0.013696,-0.099022,-0.030876,-0.001146,-0.000975,-0.081374,-0.0,-0.0,2.0,0.282024,0.263321,0.282024,0.299092,,,,,,
214218,-0.094335,0.013616,-0.098582,-0.030876,-0.00116,-0.000959,-0.082904,-0.0,-0.0,2.0,0.282024,0.257008,0.282024,0.304192,,,,,,
214238,-0.108051,0.013789,-0.098263,-0.030876,-0.001173,-0.000943,-0.083983,-0.0,-0.0,2.0,0.282024,0.251801,0.282024,0.308175,,,,,,
214258,-0.122262,0.013944,-0.0978,-0.030875,-0.001186,-0.000927,-0.084926,-0.0,-0.0,2.0,0.282024,0.245983,0.282024,0.312401,,,,,,
214278,-0.136222,0.013992,-0.09732,-0.030861,-0.001054,0.000145,-0.085735,-0.0,-0.0,2.0,0.282024,0.239808,0.282024,0.316642,,,,,,
214298,-0.15033,0.014409,-0.096677,-0.030891,-0.001371,-0.001945,-0.086213,-0.0,-0.0,2.0,0.282024,0.233003,0.282024,0.321038,,,,,,
214318,-0.164077,0.014696,-0.0964,-0.03086,-0.00105,0.000174,-0.0866,-0.0,-0.0,2.0,0.282024,0.227629,0.282024,0.324316,,,,,,
214338,-0.177829,0.015134,-0.095718,-0.029795,-0.001047,0.000188,-0.087058,-0.0,-0.0,2.0,0.282024,0.219992,0.282024,0.328693,,,,,,
214358,-0.19122,0.015472,-0.095044,-0.028744,-0.002292,-0.00064,-0.087168,-0.0,-0.0,2.0,0.282024,0.213714,0.282024,0.332056,,,,,,
214378,-0.204133,0.015704,-0.094506,-0.027679,-0.0023,-0.000611,-0.087264,-0.0,-0.0,2.0,0.282024,0.20716,0.282024,0.33535,,,,,,
214398,-0.216663,0.015847,-0.09383,-0.026602,-0.001039,0.000229,-0.087146,-0.0,-0.0,2.0,0.282024,0.200106,0.282024,0.338657,,,,,,
214418,-0.228485,0.016164,-0.093038,-0.025554,-0.001278,-0.000796,-0.087028,-0.0,-0.0,2.0,0.282024,0.192781,0.282024,0.34184,,,,,,
214438,-0.239689,0.016287,-0.092154,-0.024511,-0.000505,-0.002068,-0.086672,-0.0,-0.0,2.0,0.282024,0.185026,0.282024,0.344942,,,,,,
214458,-0.250031,0.016443,-0.091388,-0.022387,0.000504,-0.002326,-0.086136,-0.0,-0.0,2.0,0.282024,0.179612,0.282024,0.34695,,,,,,
214478,-0.259505,0.016523,-0.090639,-0.020254,-0.000546,-0.002057,-0.085656,-0.0,-0.0,2.0,0.282024,0.177003,0.282024,0.347871,,,,,,
214498,-0.267885,0.016556,-0.089816,-0.018126,-0.000563,-0.002053,-0.084682,-0.0,-0.0,2.0,0.282024,0.168979,0.282024,0.350525,,,,,,
214518,-0.275292,0.0169,-0.088853,-0.014929,-0.001603,-0.001759,-0.083978,-0.0,-0.0,2.0,0.282024,0.167258,0.282024,0.351059,,,,,,
214538,-0.281601,0.017422,-0.087893,-0.012801,-0.001614,-0.001749,-0.08259,-0.0,-0.0,2.0,0.282024,0.162415,0.282024,0.352497,,,,,,
214558,-0.286794,0.01776,-0.086989,-0.010673,-0.001623,-0.001741,-0.081798,-0.0,-0.0,2.0,0.282024,0.162127,0.282024,0.35258,,,,,,
214578,-0.29062,0.018045,-0.086123,-0.007481,-0.001629,-0.001735,-0.08043,-0.0,-0.0,2.0,0.282024,0.15893,0.282024,0.353473,,,,,,
214598,-0.293341,0.018403,-0.085164,-0.004294,-0.000615,-0.002038,-0.078931,-0.0,-0.0,2.0,0.282024,0.156407,0.282024,0.354149,,,,,,
214618,-0.294689,0.018567,-0.084384,-0.002166,-0.000618,-0.002037,-0.077284,-0.0,-0.0,2.0,0.282024,0.158505,0.282024,0.353588,,,,,,
214638,-0.294682,0.018536,-0.0838,0.001026,-0.000618,-0.002037,-0.076215,-0.0,-0.0,2.0,0.282024,0.162198,0.282024,0.352559,,,,,,
214658,-0.293797,0.018183,-0.08329,0.003156,-0.000616,-0.002038,-0.074851,-0.0,-0.0,2.0,0.282024,0.162953,0.282024,0.352342,,,,,,
214678,-0.291922,0.018116,-0.082752,0.00422,-0.000613,-0.002039,-0.072111,-0.0,-0.0,2.0,0.282024,0.159963,0.282024,0.353189,,,,,,
214698,-0.289197,0.017949,-0.082385,0.007413,-0.000607,-0.00204,-0.069432,-0.0,-0.0,2.0,0.282024,0.161169,0.282024,0.352852,,,,,,
214718,-0.285851,0.017809,-0.082026,0.008477,-0.0006,-0.002042,-0.067987,-0.0,-0.0,2.0,0.282024,0.164075,0.282024,0.352015,,,,,,
214738,-0.281533,0.017935,-0.081772,0.009547,-0.001614,-0.001749,-0.064934,-0.0,-0.0,2.0,0.282024,0.163055,0.282024,0.352313,,,,,,
214758,-0.276473,0.018092,-0.08153,0.011669,-0.000581,-0.002048,-0.063635,-0.0,-0.0,2.0,0.282024,0.167464,0.282024,0.350996,,,,,,
214778,-0.270925,0.018133,-0.08144,0.013816,-0.000285,-0.001026,-0.061061,-0.0,-0.0,2.0,0.282024,0.17108,0.282024,0.349857,,,,,,
214798,-0.264247,0.017946,-0.08163,0.015945,-0.000278,-0.001027,-0.058344,-0.0,-0.0,2.0,0.282024,0.172474,0.282024,0.349402,,,,,,
214818,-0.256839,0.017671,-0.081854,0.017009,-0.00027,-0.001029,-0.055465,-0.0,-0.0,2.0,0.282024,0.174022,0.282024,0.348889,,,,,,
214838,-0.24858,0.017298,-0.082235,0.019156,0.0,0.0,-0.053176,-0.0,-0.0,2.0,0.282024,0.180203,0.282024,0.346737,,,,,,
214858,-0.239579,0.016942,-0.082734,0.021285,0.0,0.0,-0.050418,-0.0,-0.0,2.0,0.282024,0.185949,0.282024,0.344587,,,,,,
214878,-0.229721,0.01637,-0.083397,0.022349,0.0,0.0,-0.046299,-0.0,-0.0,2.0,0.282024,0.191163,0.282024,0.34251,,,,,,
214898,-0.21889,0.016058,-0.084273,0.024494,0.000231,0.001039,-0.044026,-0.0,-0.0,2.0,0.282024,0.198003,0.282024,0.339596,,,,,,
214918,-0.207332,0.015785,-0.085154,0.026606,0.0,0.0,-0.040609,-0.0,-0.0,2.0,0.282024,0.204315,0.282024,0.336713,,,,,,
214938,-0.194805,0.015527,-0.086407,0.02875,0.000206,0.001044,-0.037091,-0.0,-0.0,2.0,0.282024,0.210899,0.282024,0.333497,,,,,,
214958,-0.181306,0.015312,-0.087786,0.029817,-0.000855,0.001239,-0.035399,-0.0,-0.0,2.0,0.282024,0.216824,0.282024,0.330416,,,,,,
214978,-0.167079,0.015144,-0.08916,0.031945,-0.000872,0.001227,-0.031768,-0.0,-0.0,2.0,0.282024,0.223884,0.282024,0.326503,,,,,,
214998,-0.151769,0.015024,-0.090792,0.034089,-0.00073,0.002265,-0.029516,-0.0,-0.0,2.0,0.282024,0.231874,0.282024,0.321741,,,,,,
215018,-0.135845,0.014812,-0.092657,0.036235,-0.001676,0.003452,-0.025503,-0.0,-0.0,2.0,0.282024,0.237489,0.282024,0.318172,,,,,,
215038,-0.119201,0.014652,-0.094641,0.037296,-0.000677,0.003297,-0.02324,-0.0,-0.0,2.0,0.282024,0.244049,0.282024,0.313755,,,,,,
215058,-0.101578,0.014316,-0.096755,0.039439,-0.000627,0.004343,-0.018316,-0.0,-0.0,2.0,0.282024,0.251385,0.282024,0.308485,,,,,,
215078,-0.083351,0.014041,-0.09885,0.040485,0.000266,0.003182,-0.015619,-0.0,-0.0,2.0,0.282024,0.258217,0.282024,0.303239,,,,,,
