time_ms,roll,pitch,yaw,reference_roll,reference_pitch,reference_yaw,reference_throttle,throttle_1,throttle_2,throttle_3,throttle_4,roll_predicted,pitch_predicted,yaw_predicted,roll_rate_predicted,pitch_rate_predicted,yaw_rate_predicted,value1,value2,value3,value4,value5,value6
415697,0.002113,-0.017835,-0.317442,0.0,-0.0,-0.0,2.0,0.282024,0.274767,0.282024,0.289022,,,,,,,0.002843,-0.012992,-0.218939,0.0,3.8e-05,-3.7e-05
415717,0.002093,-0.017715,-0.317442,0.0,-0.0,-0.0,2.0,0.282024,0.274328,0.282024,0.28943,,,,,,,0.002843,-0.012991,-0.21894,-0.003826,5e-05,-3.7e-05
415737,0.001953,-0.017614,-0.317443,0.0,-0.0,-0.0,2.0,0.282024,0.274127,0.282024,0.289615,,,,,,,0.002804,-0.01299,-0.218941,-0.024024,6e-05,-3.7e-05
415757,0.001953,-0.017614,-0.317443,0.0,-0.0,-0.0,2.0,0.282024,0.273979,0.282024,0.289752,,,,,,,0.002684,-0.012989,-0.218941,-1.6e-05,6e-05,-3.7e-05
415777,0.001852,-0.017753,-0.317444,0.0,-0.0,-0.0,2.0,0.282024,0.273691,0.282024,0.290017,,,,,,,0.002582,-0.012988,-0.218942,1.6e-05,4.6e-05,-3.7e-05
415797,0.001833,-0.017633,-0.317444,0.0,-0.0,-0.0,2.0,0.282024,0.274724,0.282024,0.289062,,,,,,,0.002582,-0.012987,-0.218943,-0.003826,5.8e-05,-3.7e-05
415817,0.001953,-0.017614,-0.317443,0.0,-0.0,-0.0,2.0,0.282024,0.277161,0.282024,0.286769,,,,,,,0.002703,-0.012986,-0.218944,-0.003743,6e-05,-3.7e-05
415837,0.001973,-0.017734,-0.317443,0.0,-0.0,-0.0,2.0,0.282024,0.276736,0.282024,0.287173,,,,,,,0.002703,-0.012985,-0.218944,9.9e-05,4.8e-05,-3.7e-05
415857,0.001852,-0.017753,-0.317444,0.0,-0.0,-0.0,2.0,0.282024,0.272317,0.282024,0.291273,,,,,,,0.002582,-0.012984,-0.218945,0.00011,4.6e-05,-3.7e-05
415877,0.001851,-0.017754,-0.317329,0.0,-0.0,-0.0,2.0,0.282024,0.274762,0.282024,0.289027,,,,,,,0.002684,-0.012983,-0.218946,-0.020392,4.6e-05,-2.5e-05
415897,0.001833,-0.017633,-0.317444,0.0,-0.0,-0.0,2.0,0.282024,0.273007,0.282024,0.290644,,,,,,,0.002443,-0.012982,-0.218946,0.024009,5.8e-05,-3.7e-05
415917,0.001712,-0.017652,-0.317445,0.0,-0.0,-0.0,2.0,0.282024,0.274224,0.282024,0.289526,,,,,,,0.002442,-0.012981,-0.218947,0.000209,5.6e-05,-3.7e-05
415937,0.00161,-0.017792,-0.317331,0.0,-0.0,-0.0,2.0,0.282024,0.272296,0.282024,0.291292,,,,,,,0.002341,-0.01298,-0.218947,-0.0001,4.2e-05,-2.5e-05
415957,0.00161,-0.017792,-0.317331,0.0,-0.0,-0.0,2.0,0.282024,0.275714,0.282024,0.288137,,,,,,,0.002462,-0.012979,-0.218948,-0.02422,4.1e-05,-2.5e-05
415977,0.001732,-0.017773,-0.317445,0.0,-0.0,-0.0,2.0,0.282024,0.276729,0.282024,0.28718,,,,,,,0.002462,-0.012978,-0.218949,8.4e-05,4.3e-05,-3.7e-05
415997,0.001751,-0.017893,-0.317445,0.0,-0.0,-0.0,2.0,0.282024,0.274956,0.282024,0.288847,,,,,,,0.00248,-0.012977,-0.218949,0.000211,3.1e-05,-3.7e-05
416017,0.00175,-0.017893,-0.31733,0.0,-0.0,-0.0,2.0,0.282024,0.276197,0.282024,0.287683,,,,,,,0.002602,-0.012977,-0.21895,-0.024205,3.1e-05,-2.5e-05
416037,0.001852,-0.017753,-0.317444,0.0,-0.0,-0.0,2.0,0.282024,0.27696,0.282024,0.28696,,,,,,,0.002582,-0.012976,-0.218951,9.9e-05,4.5e-05,-3.6e-05
416057,0.001732,-0.017773,-0.317445,0.0,-0.0,-0.0,2.0,0.282024,0.274302,0.282024,0.289454,,,,,,,0.002461,-0.012975,-0.218951,0.00021,4.3e-05,-3.6e-05
416077,0.00175,-0.017893,-0.31733,0.0,-0.0,-0.0,2.0,0.282024,0.274251,0.282024,0.2895,,,,,,,0.00248,-0.012974,-0.218952,-0.0,3.1e-05,-2.5e-05
416097,0.00175,-0.017893,-0.31733,0.0,-0.0,-0.0,2.0,0.282024,0.274814,0.282024,0.288978,,,,,,,0.002481,-0.012974,-0.218952,-0.000211,3.1e-05,-2.5e-05
416117,0.001871,-0.017874,-0.317444,0.0,-0.0,-0.0,2.0,0.282024,0.274911,0.282024,0.288888,,,,,,,0.00248,-0.012973,-0.218953,0.024219,3.3e-05,-3.6e-05
416137,0.00175,-0.017893,-0.31733,0.0,-0.0,-0.0,2.0,0.282024,0.274237,0.282024,0.289514,,,,,,,0.002499,-0.012972,-0.218954,-0.003824,3.1e-05,-2.5e-05
416157,0.00175,-0.017893,-0.31733,0.0,-0.0,-0.0,2.0,0.282024,0.276049,0.282024,0.287823,,,,,,,0.002602,-0.012972,-0.218954,-0.02422,3.1e-05,-2.5e-05
416177,0.001871,-0.017874,-0.317444,0.0,-0.0,-0.0,2.0,0.282024,0.277172,0.282024,0.286759,,,,,,,0.0026,-0.012971,-0.218955,0.00031,3.3e-05,-3.6e-05
416197,0.00175,-0.017893,-0.31733,0.0,-0.0,-0.0,2.0,0.282024,0.274458,0.282024,0.289309,,,,,,,0.00248,-0.012971,-0.218955,0.0,3.1e-05,-2.5e-05
416217,0.00175,-0.017893,-0.31733,0.0,-0.0,-0.0,2.0,0.282024,0.274928,0.282024,0.288872,,,,,,,0.00248,-0.01297,-0.218956,-0.0,3e-05,-2.4e-05
416237,0.00175,-0.017893,-0.31733,0.0,-0.0,-0.0,2.0,0.282024,0.274976,0.282024,0.288828,,,,,,,0.00248,-0.012969,-0.218956,-0.0,3e-05,-2.4e-05
416257,0.00175,-0.017893,-0.31733,0.0,-0.0,-0.0,2.0,0.282024,0.276204,0.282024,0.287676,,,,,,,0.00248,-0.012969,-0.218957,0.0001,3e-05,-2.4e-05
416277,0.001769,-0.018014,-0.31733,0.0,-0.0,-0.0,2.0,0.282024,0.275203,0.282024,0.288616,,,,,,,0.002499,-0.012968,-0.218957,-0.0,1.8e-05,-2.4e-05
416297,0.001769,-0.018014,-0.31733,0.0,-0.0,-0.0,2.0,0.282024,0.275058,0.282024,0.288751,,,,,,,0.002499,-0.012968,-0.218958,-0.0,1.8e-05,-2.4e-05
416317,0.001769,-0.018014,-0.31733,0.0,-0.0,-0.0,2.0,0.282024,0.275068,0.282024,0.288742,,,,,,,0.002499,-0.012968,-0.218958,-0.0,1.8e-05,-2.4e-05
416337,0.001769,-0.018014,-0.31733,0.0,-0.0,-0.0,2.0,0.282024,0.27263,0.282024,0.290988,,,,,,,0.002379,-0.012967,-0.218959,0.02391,1.8e-05,-2.4e-05
416357,0.001649,-0.018033,-0.317331,0.0,-0.0,-0.0,2.0,0.282024,0.273958,0.282024,0.289771,,,,,,,0.002379,-0.012967,-0.218959,1e-06,1.6e-05,-2.4e-05
416377,0.001528,-0.018053,-0.317332,0.0,-0.0,-0.0,2.0,0.282024,0.274922,0.282024,0.288878,,,,,,,0.002379,-0.012967,-0.21896,-0.024009,1.4e-05,-2.4e-05
416397,0.001629,-0.017913,-0.317331,0.0,-0.0,-0.0,2.0,0.282024,0.27598,0.282024,0.287887,,,,,,,0.002379,-0.012966,-0.21896,-0.003841,2.8e-05,-2.4e-05
416417,0.001649,-0.018033,-0.317331,0.0,-0.0,-0.0,2.0,0.282024,0.2752,0.282024,0.288619,,,,,,,0.002379,-0.012966,-0.218961,-0.0,1.6e-05,-2.4e-05
416437,0.001668,-0.018154,-0.317332,0.0,-0.0,-0.0,2.0,0.282024,0.275129,0.282024,0.288685,,,,,,,0.002379,-0.012966,-0.218961,0.003841,4e-06,-2.4e-05
416457,0.001649,-0.018033,-0.317331,0.0,-0.0,-0.0,2.0,0.282024,0.274887,0.282024,0.28891,,,,,,,0.002379,-0.012965,-0.218962,-1.6e-05,1.6e-05,-2.4e-05
416477,0.001789,-0.018134,-0.317445,0.0,-0.0,-0.0,2.0,0.282024,0.276536,0.282024,0.287363,,,,,,,0.002519,-0.012965,-0.218962,0.000214,6e-06,-3.5e-05
416497,0.001668,-0.018154,-0.317332,0.0,-0.0,-0.0,2.0,0.282024,0.273,0.282024,0.290651,,,,,,,0.002399,-0.012965,-0.218963,-8.3e-05,4e-06,-2.4e-05
416517,0.001547,-0.018173,-0.317333,0.0,-0.0,-0.0,2.0,0.282024,0.272536,0.282024,0.291074,,,,,,,0.002278,-0.012965,-0.218963,-9.9e-05,2e-06,-2.4e-05
416537,0.001547,-0.018173,-0.317333,0.0,-0.0,-0.0,2.0,0.282024,0.277026,0.282024,0.286898,,,,,,,0.002379,-0.012965,-0.218964,-0.020085,2e-06,-2.4e-05
416557,0.001528,-0.018053,-0.317332,0.0,-0.0,-0.0,2.0,0.282024,0.274917,0.282024,0.288883,,,,,,,0.002258,-0.012965,-0.218964,0.0,1.4e-05,-2.4e-05
416577,0.001528,-0.018053,-0.317332,0.0,-0.0,-0.0,2.0,0.282024,0.275157,0.282024,0.288659,,,,,,,0.002258,-0.012964,-0.218965,-0.0,1.4e-05,-2.4e-05
416597,0.001547,-0.018173,-0.317333,0.0,-0.0,-0.0,2.0,0.282024,0.278007,0.282024,0.28596,,,,,,,0.002398,-0.012964,-0.218965,-0.023894,2e-06,-2.4e-05
416617,0.001668,-0.018154,-0.317332,0.0,-0.0,-0.0,2.0,0.282024,0.276382,0.282024,0.287509,,,,,,,0.002398,-0.012964,-0.218965,-1e-06,4e-06,-2.4e-05
416637,0.001668,-0.018154,-0.317332,0.0,-0.0,-0.0,2.0,0.282024,0.275372,0.282024,0.288457,,,,,,,0.002398,-0.012964,-0.218966,0.0,4e-06,-2.4e-05
416657,0.001547,-0.018173,-0.317333,0.0,-0.0,-0.0,2.0,0.282024,0.275259,0.282024,0.288563,,,,,,,0.002398,-0.012964,-0.218966,-0.024009,2e-06,-2.4e-05
416677,0.001547,-0.018173,-0.317333,0.0,-0.0,-0.0,2.0,0.282024,0.276881,0.282024,0.287036,,,,,,,0.002398,-0.012964,-0.218967,-0.023909,2e-06,-2.4e-05
416697,0.001547,-0.018173,-0.317333,0.0,-0.0,-0.0,2.0,0.282024,0.276291,0.282024,0.287594,,,,,,,0.002277,-0.012964,-0.218967,0.0001,2e-06,-2.4e-05
416717,0.001427,-0.018192,-0.317334,0.0,-0.0,-0.0,2.0,0.282024,0.272828,0.282024,0.290808,,,,,,,0.002157,-0.012964,-0.218968,0.000116,-0.0,-2.4e-05
416737,0.001547,-0.018173,-0.317333,0.0,-0.0,-0.0,2.0,0.282024,0.275789,0.282024,0.288067,,,,,,,0.002278,-0.012964,-0.218968,-0.0,2e-06,-2.3e-05
416757,0.001668,-0.018154,-0.317332,0.0,-0.0,-0.0,2.0,0.282024,0.277761,0.282024,0.286196,,,,,,,0.002398,-0.012964,-0.218969,9.9e-05,4e-06,-2.3e-05
416777,0.001668,-0.018154,-0.317332,0.0,-0.0,-0.0,2.0,0.282024,0.274961,0.282024,0.288842,,,,,,,0.002278,-0.012964,-0.218969,0.024009,4e-06,-2.3e-05
416797,0.001668,-0.018154,-0.317332,0.0,-0.0,-0.0,2.0,0.282024,0.276013,0.282024,0.287856,,,,,,,0.002398,-0.012963,-0.21897,1.6e-05,4e-06,-2.3e-05
416817,0.001528,-0.018053,-0.317332,0.0,-0.0,-0.0,2.0,0.282024,0.274706,0.282024,0.289078,,,,,,,0.002258,-0.012963,-0.21897,0.0,1.4e-05,-2.3e-05
416837,0.001509,-0.017932,-0.317332,0.0,-0.0,-0.0,2.0,0.282024,0.274115,0.282024,0.289627,,,,,,,0.002138,-0.012963,-0.218971,0.020169,2.6e-05,-2.3e-05
416857,0.001408,-0.018072,-0.317333,0.0,-0.0,-0.0,2.0,0.282024,0.275303,0.282024,0.288522,,,,,,,0.002138,-0.012963,-0.218971,1.6e-05,1.2e-05,-2.3e-05
416877,0.001388,-0.017951,-0.317333,0.0,-0.0,-0.0,2.0,0.282024,0.276479,0.282024,0.287417,,,,,,,0.002239,-0.012962,-0.218972,-0.02401,2.4e-05,-2.3e-05
416897,0.001509,-0.017932,-0.317332,0.0,-0.0,-0.0,2.0,0.282024,0.276449,0.282024,0.287446,,,,,,,0.00224,-0.012962,-0.218972,-0.000212,2.6e-05,-2.3e-05
416917,0.001629,-0.017913,-0.317331,0.0,-0.0,-0.0,2.0,0.282024,0.276807,0.282024,0.287106,,,,,,,0.00236,-0.012961,-0.218972,-1e-06,2.8e-05,-2.3e-05
416937,0.00161,-0.017792,-0.317331,0.0,-0.0,-0.0,2.0,0.282024,0.275709,0.282024,0.288142,,,,,,,0.00236,-0.01296,-0.218973,-0.003841,4e-05,-2.3e-05
416957,0.001509,-0.017932,-0.317332,0.0,-0.0,-0.0,2.0,0.282024,0.275776,0.282024,0.288079,,,,,,,0.00234,-0.01296,-0.218973,-0.020185,2.6e-05,-2.3e-05
416977,0.001489,-0.017812,-0.317332,0.0,-0.0,-0.0,2.0,0.282024,0.27506,0.282024,0.288749,,,,,,,0.00222,-0.012959,-0.218974,0.0,3.8e-05,-2.3e-05
416997,0.001369,-0.017831,-0.317333,0.0,-0.0,-0.0,2.0,0.282024,0.274187,0.282024,0.28956,,,,,,,0.002099,-0.012958,-0.218974,1e-06,3.6e-05,-2.3e-05
417017,0.001248,-0.01785,-0.317334,0.0,-0.0,-0.0,2.0,0.282024,0.275929,0.282024,0.287936,,,,,,,0.002099,-0.012958,-0.218975,-0.02401,3.4e-05,-2.3e-05
417037,0.00147,-0.017691,-0.317332,0.0,-0.0,-0.0,2.0,0.282024,0.275862,0.282024,0.287998,,,,,,,0.002099,-0.012957,-0.218975,0.020168,4.9e-05,-2.3e-05
417057,0.00147,-0.017691,-0.317332,0.0,-0.0,-0.0,2.0,0.282024,0.276837,0.282024,0.287078,,,,,,,0.0022,-0.012956,-0.218976,8.4e-05,4.9e-05,-2.3e-05
417077,0.001489,-0.017812,-0.317332,0.0,-0.0,-0.0,2.0,0.282024,0.276025,0.282024,0.287845,,,,,,,0.002219,-0.012955,-0.218976,0.000226,3.7e-05,-2.3e-05
417097,0.00147,-0.017691,-0.317332,0.0,-0.0,-0.0,2.0,0.282024,0.275904,0.282024,0.287959,,,,,,,0.00222,-0.012954,-0.218977,-0.003825,4.9e-05,-2.3e-05
417117,0.00147,-0.017691,-0.317332,0.0,-0.0,-0.0,2.0,0.282024,0.275382,0.282024,0.288449,,,,,,,0.002201,-0.012953,-0.218977,-1.6e-05,4.9e-05,-2.3e-05
417137,0.001248,-0.01785,-0.317334,0.0,-0.0,-0.0,2.0,0.282024,0.272301,0.282024,0.291287,,,,,,,0.00196,-0.012952,-0.218977,0.003742,3.3e-05,-2.3e-05
417157,0.001109,-0.017749,-0.317335,0.0,-0.0,-0.0,2.0,0.282024,0.272721,0.282024,0.290905,,,,,,,0.001839,-0.012952,-0.218978,-9.9e-05,4.3e-05,-2.3e-05
417177,0.001109,-0.017749,-0.317335,0.0,-0.0,-0.0,2.0,0.282024,0.277712,0.282024,0.286243,,,,,,,0.00196,-0.012951,-0.218978,-0.02412,4.3e-05,-2.3e-05
417197,0.001128,-0.017869,-0.317335,0.0,-0.0,-0.0,2.0,0.282024,0.275909,0.282024,0.287955,,,,,,,0.001839,-0.01295,-0.218979,0.00384,3.1e-05,-2.3e-05
417217,0.001229,-0.01773,-0.317334,0.0,-0.0,-0.0,2.0,0.282024,0.275284,0.282024,0.28854,,,,,,,0.001858,-0.012949,-0.218979,0.020185,4.5e-05,-2.2e-05
417237,0.001247,-0.01785,-0.31722,0.0,-0.0,-0.0,2.0,0.282024,0.278309,0.282024,0.28567,,,,,,,0.002099,-0.012948,-0.21898,-0.024122,3.3e-05,-1.1e-05
417257,0.001248,-0.01785,-0.317334,0.0,-0.0,-0.0,2.0,0.282024,0.275439,0.282024,0.288395,,,,,,,0.001979,-0.012948,-0.21898,-0.0,3.3e-05,-2.2e-05
417277,0.001248,-0.01785,-0.317334,0.0,-0.0,-0.0,2.0,0.282024,0.274343,0.282024,0.289416,,,,,,,0.001858,-0.012947,-0.218981,0.02401,3.3e-05,-2.2e-05
417297,0.001007,-0.017889,-0.317336,0.0,-0.0,-0.0,2.0,0.282024,0.27446,0.282024,0.289307,,,,,,,0.001858,-0.012947,-0.218981,-0.024008,2.9e-05,-2.3e-05
417317,0.001007,-0.017889,-0.317336,0.0,-0.0,-0.0,2.0,0.282024,0.275102,0.282024,0.28871,,,,,,,0.001738,-0.012946,-0.218982,0.0,2.9e-05,-2.2e-05
417337,0.001027,-0.018009,-0.317336,0.0,-0.0,-0.0,2.0,0.282024,0.275052,0.282024,0.288757,,,,,,,0.001636,-0.012946,-0.218982,0.024009,1.6e-05,-2.2e-05
417357,0.000906,-0.018028,-0.317337,0.0,-0.0,-0.0,2.0,0.282024,0.274485,0.282024,0.289284,,,,,,,0.001636,-0.012945,-0.218982,1e-06,1.5e-05,-2.2e-05
417377,0.001166,-0.01811,-0.317335,0.0,-0.0,-0.0,2.0,0.282024,0.277655,0.282024,0.286298,,,,,,,0.001897,-0.012945,-0.218983,1.5e-05,6e-06,-2.2e-05
417397,0.001268,-0.017971,-0.317334,0.0,-0.0,-0.0,2.0,0.282024,0.278209,0.282024,0.285766,,,,,,,0.002017,-0.012945,-0.218983,-0.003742,2e-05,-2.2e-05
417417,0.001147,-0.01799,-0.317335,0.0,-0.0,-0.0,2.0,0.282024,0.275206,0.282024,0.288613,,,,,,,0.001897,-0.012945,-0.218984,-0.003841,1.8e-05,-2.2e-05
417437,0.001147,-0.01799,-0.317335,0.0,-0.0,-0.0,2.0,0.282024,0.274934,0.282024,0.288867,,,,,,,0.001878,-0.012944,-0.218984,1e-06,1.8e-05,-2.2e-05
417457,0.001026,-0.018009,-0.317222,0.0,-0.0,-0.0,2.0,0.282024,0.274909,0.282024,0.28889,,,,,,,0.001757,-0.012944,-0.218985,-0.000214,1.6e-05,-1.1e-05
417477,0.001027,-0.018009,-0.317336,0.0,-0.0,-0.0,2.0,0.282024,0.272899,0.282024,0.290743,,,,,,,0.001637,-0.012944,-0.218985,0.023894,1.6e-05,-2.2e-05
417497,0.000924,-0.018149,-0.317223,0.0,-0.0,-0.0,2.0,0.282024,0.274826,0.282024,0.288967,,,,,,,0.001655,-0.012943,-0.218985,1.6e-05,2e-06,-1.1e-05
417517,0.001045,-0.01813,-0.317222,0.0,-0.0,-0.0,2.0,0.282024,0.276453,0.282024,0.287441,,,,,,,0.001775,-0.012943,-0.218986,1.5e-05,4e-06,-1.1e-05
417537,0.001268,-0.017971,-0.317334,0.0,-0.0,-0.0,2.0,0.282024,0.276418,0.282024,0.287475,,,,,,,0.001897,-0.012943,-0.218986,0.020168,2e-05,-2.2e-05
417557,0.001268,-0.017971,-0.317334,0.0,-0.0,-0.0,2.0,0.282024,0.276367,0.282024,0.287522,,,,,,,0.002017,-0.012943,-0.218986,-0.003824,2e-05,-2.2e-05
417577,0.001267,-0.017971,-0.31722,0.0,-0.0,-0.0,2.0,0.282024,0.273926,0.282024,0.289801,,,,,,,0.001997,-0.012942,-0.218987,-9.9e-05,2e-05,-1e-05
417597,0.001267,-0.017971,-0.31722,0.0,-0.0,-0.0,2.0,0.282024,0.275679,0.282024,0.28817,,,,,,,0.001998,-0.012942,-0.218987,-0.000213,2e-05,-1e-05
417617,0.001147,-0.01799,-0.317335,0.0,-0.0,-0.0,2.0,0.282024,0.275124,0.282024,0.28869,,,,,,,0.001878,-0.012942,-0.218987,0.0,1.8e-05,-2.2e-05
417637,0.001027,-0.018009,-0.317336,0.0,-0.0,-0.0,2.0,0.282024,0.274815,0.282024,0.288978,,,,,,,0.001776,-0.012941,-0.218988,-0.003823,1.6e-05,-2.2e-05
417657,0.001045,-0.01813,-0.317222,0.0,-0.0,-0.0,2.0,0.282024,0.275309,0.282024,0.288517,,,,,,,0.001757,-0.012941,-0.218988,0.003609,4e-06,-1e-05
417677,0.001166,-0.01811,-0.317335,0.0,-0.0,-0.0,2.0,0.282024,0.277032,0.282024,0.286892,,,,,,,0.001897,-0.012941,-0.218988,-1e-06,6e-06,-2.2e-05
417697,0.001268,-0.017971,-0.317334,0.0,-0.0,-0.0,2.0,0.282024,0.278648,0.282024,0.285343,,,,,,,0.002017,-0.012941,-0.218989,-0.003725,2e-05,-2.2e-05
417717,0.001287,-0.018091,-0.317334,0.0,-0.0,-0.0,2.0,0.282024,0.273866,0.282024,0.289856,,,,,,,0.001998,-0.012941,-0.218989,0.003938,8e-06,-2.2e-05
417737,0.001286,-0.018091,-0.31722,0.0,-0.0,-0.0,2.0,0.282024,0.277231,0.282024,0.286703,,,,,,,0.002138,-0.01294,-0.21899,-0.024208,8e-06,-1e-05
417757,0.001287,-0.018091,-0.317334,0.0,-0.0,-0.0,2.0,0.282024,0.275694,0.282024,0.288156,,,,,,,0.002017,-0.01294,-0.21899,-0.0,8e-06,-2.1e-05
417777,0.000925,-0.018149,-0.317337,0.0,-0.0,-0.0,2.0,0.282024,0.273747,0.282024,0.289966,,,,,,,0.001775,-0.01294,-0.21899,-0.023793,2e-06,-2.2e-05
417797,0.000823,-0.018289,-0.317224,0.0,-0.0,-0.0,2.0,0.282024,0.272541,0.282024,0.29107,,,,,,,0.001554,-0.01294,-0.218991,-8.4e-05,-1.2e-05,-1e-05
417817,0.000944,-0.01827,-0.317223,0.0,-0.0,-0.0,2.0,0.282024,0.277887,0.282024,0.286076,,,,,,,0.001655,-0.01294,-0.218991,0.003722,-1e-05,-1e-05
417837,0.001046,-0.01813,-0.317336,0.0,-0.0,-0.0,2.0,0.282024,0.275802,0.282024,0.288055,,,,,,,0.001655,-0.01294,-0.218991,0.024225,4e-06,-2.2e-05
417857,0.001165,-0.018111,-0.317221,0.0,-0.0,-0.0,2.0,0.282024,0.278986,0.282024,0.285016,,,,,,,0.001914,-0.01294,-0.218991,-0.003724,6e-06,-1e-05
417877,0.001286,-0.018091,-0.31722,0.0,-0.0,-0.0,2.0,0.282024,0.277353,0.282024,0.286586,,,,,,,0.002017,-0.01294,-0.218992,-0.000215,8e-06,-1e-05
417897,0.001166,-0.01811,-0.317335,0.0,-0.0,-0.0,2.0,0.282024,0.273562,0.282024,0.290136,,,,,,,0.001896,-0.01294,-0.218992,0.000116,6e-06,-2.1e-05
417917,0.000924,-0.018149,-0.317223,0.0,-0.0,-0.0,2.0,0.282024,0.274419,0.282024,0.289345,,,,,,,0.001775,-0.01294,-0.218992,-0.024009,2e-06,-1e-05
417937,0.000683,-0.018188,-0.317225,0.0,-0.0,-0.0,2.0,0.282024,0.27405,0.282024,0.289687,,,,,,,0.001534,-0.01294,-0.218992,-0.024009,-2e-06,-1e-05
417957,0.000683,-0.018188,-0.317225,0.0,-0.0,-0.0,2.0,0.282024,0.275275,0.282024,0.288548,,,,,,,0.001414,-0.01294,-0.218993,0.0,-2e-06,-1e-05
417977,0.000804,-0.018169,-0.317224,0.0,-0.0,-0.0,2.0,0.282024,0.275733,0.282024,0.28812,,,,,,,0.001414,-0.01294,-0.218993,0.024009,0.0,-1e-05
417997,0.001045,-0.01813,-0.317222,0.0,-0.0,-0.0,2.0,0.282024,0.277426,0.282024,0.286517,,,,,,,0.001655,-0.01294,-0.218993,0.024009,4e-06,-1e-05
418017,0.001165,-0.018111,-0.317221,0.0,-0.0,-0.0,2.0,0.282024,0.277215,0.282024,0.286718,,,,,,,0.001877,-0.01294,-0.218993,0.003823,6e-06,-1e-05
418037,0.001286,-0.018091,-0.31722,0.0,-0.0,-0.0,2.0,0.282024,0.276799,0.282024,0.287113,,,,,,,0.002016,-0.01294,-0.218993,-0.0,8e-06,-1e-05
418057,0.001165,-0.018111,-0.317221,0.0,-0.0,-0.0,2.0,0.282024,0.274827,0.282024,0.288966,,,,,,,0.001896,-0.012939,-0.218994,1e-06,6e-06,-1e-05
418077,0.000804,-0.018169,-0.317224,0.0,-0.0,-0.0,2.0,0.282024,0.272052,0.282024,0.291513,,,,,,,0.001655,-0.012939,-0.218994,-0.024108,-0.0,-1e-05
418097,0.000543,-0.018087,-0.317226,0.0,-0.0,-0.0,2.0,0.282024,0.272486,0.282024,0.291119,,,,,,,0.001395,-0.012939,-0.218994,-0.024108,8e-06,-1e-05
418117,0.000543,-0.018087,-0.317226,0.0,-0.0,-0.0,2.0,0.282024,0.273122,0.282024,0.290539,,,,,,,0.001173,-0.012939,-0.218994,0.020087,8e-06,-1e-05
418137,0.000683,-0.018188,-0.317225,0.0,-0.0,-0.0,2.0,0.282024,0.277999,0.282024,0.285969,,,,,,,0.001394,-0.012939,-0.218994,0.003923,-2e-06,-1e-05
418157,0.000924,-0.018149,-0.317223,0.0,-0.0,-0.0,2.0,0.282024,0.278221,0.282024,0.285755,,,,,,,0.001655,-0.012939,-0.218995,1.5e-05,2e-06,-1e-05
418177,0.001165,-0.018111,-0.317221,0.0,-0.0,-0.0,2.0,0.282024,0.279222,0.282024,0.284787,,,,,,,0.001895,-0.012939,-0.218995,9.9e-05,6e-06,-1e-05
418197,0.001146,-0.01799,-0.317221,0.0,-0.0,-0.0,2.0,0.282024,0.275877,0.282024,0.287985,,,,,,,0.001877,-0.012939,-0.218995,-1.6e-05,1.8e-05,-1e-05
418217,0.001026,-0.018009,-0.317222,0.0,-0.0,-0.0,2.0,0.282024,0.27538,0.282024,0.28845,,,,,,,0.001876,-0.012938,-0.218995,-0.024009,1.6e-05,-1e-05
418237,0.000765,-0.017927,-0.317224,0.0,-0.0,-0.0,2.0,0.282024,0.274612,0.282024,0.289166,,,,,,,0.001616,-0.012938,-0.218995,-0.024026,2.4e-05,-1e-05
418257,0.000524,-0.017966,-0.317225,0.0,-0.0,-0.0,2.0,0.282024,0.273412,0.282024,0.290274,,,,,,,0.001254,-0.012938,-0.218996,1e-06,2e-05,-1e-05
418277,0.000404,-0.017985,-0.317226,0.0,-0.0,-0.0,2.0,0.282024,0.27431,0.282024,0.289446,,,,,,,0.001134,-0.012937,-0.218996,1e-06,1.8e-05,-1e-05
418297,0.000524,-0.017966,-0.317225,0.0,-0.0,-0.0,2.0,0.282024,0.276896,0.282024,0.287021,,,,,,,0.001254,-0.012937,-0.218996,-1e-06,2e-05,-1e-05
418317,0.000905,-0.018029,-0.317223,0.0,-0.0,-0.0,2.0,0.282024,0.277781,0.282024,0.286178,,,,,,,0.001496,-0.012936,-0.218996,0.027848,1.4e-05,-1e-05
418337,0.001146,-0.01799,-0.317221,0.0,-0.0,-0.0,2.0,0.282024,0.279093,0.282024,0.284912,,,,,,,0.001755,-0.012936,-0.218996,0.024108,1.7e-05,-9e-06
418357,0.001026,-0.018009,-0.317222,0.0,-0.0,-0.0,2.0,0.282024,0.274125,0.282024,0.289617,,,,,,,0.001756,-0.012936,-0.218997,-9.9e-05,1.5e-05,-1e-05
418377,0.000784,-0.018048,-0.317224,0.0,-0.0,-0.0,2.0,0.282024,0.273277,0.282024,0.290397,,,,,,,0.001636,-0.012936,-0.218997,-0.024108,1.2e-05,-1e-05
418397,0.000524,-0.017966,-0.317225,0.0,-0.0,-0.0,2.0,0.282024,0.274719,0.282024,0.289067,,,,,,,0.001394,-0.012935,-0.218997,-0.027849,2e-05,-1e-05
418417,0.000143,-0.017903,-0.317228,0.0,-0.0,-0.0,2.0,0.282024,0.272097,0.282024,0.291472,,,,,,,0.001014,-0.012935,-0.218997,-0.027948,2.6e-05,-1e-05
418437,0.000143,-0.017903,-0.317228,0.0,-0.0,-0.0,2.0,0.282024,0.271946,0.282024,0.291609,,,,,,,0.000754,-0.012934,-0.218997,0.023911,2.6e-05,-1e-05
418457,0.000283,-0.018005,-0.317227,0.0,-0.0,-0.0,2.0,0.282024,0.279965,0.282024,0.284062,,,,,,,0.000993,-0.012934,-0.218998,0.004038,1.6e-05,-1e-05
418477,0.000384,-0.017865,-0.317226,0.0,-0.0,-0.0,2.0,0.282024,0.276292,0.282024,0.287594,,,,,,,0.000994,-0.012934,-0.218998,0.023993,3e-05,-1e-05
418497,0.000524,-0.017966,-0.317225,0.0,-0.0,-0.0,2.0,0.282024,0.275649,0.282024,0.288198,,,,,,,0.001134,-0.012933,-0.218998,0.02401,2e-05,-1e-05
418517,0.000524,-0.017966,-0.317225,0.0,-0.0,-0.0,2.0,0.282024,0.27773,0.282024,0.286226,,,,,,,0.001394,-0.012933,-0.218998,-0.027834,2e-05,-1e-05
418537,0.000524,-0.017966,-0.317225,0.0,-0.0,-0.0,2.0,0.282024,0.2756,0.282024,0.288245,,,,,,,0.001254,-0.012932,-0.218998,0.0,1.9e-05,-1e-05
418557,0.000162,-0.018024,-0.317228,0.0,-0.0,-0.0,2.0,0.282024,0.273491,0.282024,0.290201,,,,,,,0.001013,-0.012932,-0.218999,-0.024024,1.4e-05,-1e-05
418577,4.1e-05,-0.018043,-0.317115,0.0,-0.0,-0.0,2.0,0.282024,0.273048,0.282024,0.290607,,,,,,,0.000791,-0.012932,-0.218999,-0.003922,1.2e-05,1e-06
418597,4.2e-05,-0.018043,-0.317229,0.0,-0.0,-0.0,2.0,0.282024,0.275383,0.282024,0.288448,,,,,,,0.000772,-0.012932,-0.218999,1e-06,1.2e-05,-1e-05
418617,0.000162,-0.018024,-0.317228,0.0,-0.0,-0.0,2.0,0.282024,0.276751,0.282024,0.287159,,,,,,,0.000772,-0.012932,-0.218999,0.02411,1.4e-05,-1e-05
418637,0.000283,-0.018005,-0.317227,0.0,-0.0,-0.0,2.0,0.282024,0.276087,0.282024,0.287787,,,,,,,0.000893,-0.012931,-0.218999,0.024009,1.6e-05,-1e-05
418657,0.000404,-0.017985,-0.317226,0.0,-0.0,-0.0,2.0,0.282024,0.27733,0.282024,0.286608,,,,,,,0.001134,-0.012931,-0.218999,-1e-06,1.7e-05,-1e-05
418677,0.000524,-0.017966,-0.317225,0.0,-0.0,-0.0,2.0,0.282024,0.275238,0.282024,0.288583,,,,,,,0.001134,-0.012931,-0.218999,0.02401,1.9e-05,-1e-05
418697,0.000404,-0.017985,-0.317226,0.0,-0.0,-0.0,2.0,0.282024,0.275835,0.282024,0.288024,,,,,,,0.001153,-0.01293,-0.219,-0.003824,1.7e-05,-1e-05
418717,0.000162,-0.018024,-0.317228,0.0,-0.0,-0.0,2.0,0.282024,0.273165,0.282024,0.2905,,,,,,,0.001014,-0.01293,-0.219,-0.024108,1.3e-05,-1e-05
418737,4.2e-05,-0.018043,-0.317229,0.0,-0.0,-0.0,2.0,0.282024,0.273897,0.282024,0.289828,,,,,,,0.000772,-0.01293,-0.219,1e-06,1.2e-05,-1e-05
418757,4.2e-05,-0.018043,-0.317229,0.0,-0.0,-0.0,2.0,0.282024,0.27528,0.282024,0.288544,,,,,,,0.000671,-0.01293,-0.219,0.020187,1.2e-05,-1e-05
418777,6.1e-05,-0.018164,-0.317229,0.0,-0.0,-0.0,2.0,0.282024,0.276039,0.282024,0.287832,,,,,,,0.000792,-0.01293,-0.219,-0.0,-1e-06,-1e-05
418797,0.000302,-0.018125,-0.317228,0.0,-0.0,-0.0,2.0,0.282024,0.277405,0.282024,0.286537,,,,,,,0.001013,-0.012929,-0.219,0.003839,3e-06,-1e-05
418817,0.000423,-0.018106,-0.317227,0.0,-0.0,-0.0,2.0,0.282024,0.27838,0.282024,0.285602,,,,,,,0.001153,-0.012929,-0.219001,9.9e-05,5e-06,-1e-05
418837,0.000423,-0.018106,-0.317227,0.0,-0.0,-0.0,2.0,0.282024,0.27598,0.282024,0.287887,,,,,,,0.001153,-0.012929,-0.219001,0.0,5e-06,-1e-05
418857,0.000302,-0.018125,-0.317228,0.0,-0.0,-0.0,2.0,0.282024,0.273317,0.282024,0.290361,,,,,,,0.001033,-0.012929,-0.219001,-9.9e-05,3e-06,-1e-05
418877,6.1e-05,-0.018164,-0.317229,0.0,-0.0,-0.0,2.0,0.282024,0.274855,0.282024,0.28894,,,,,,,0.000912,-0.012929,-0.219001,-0.024009,-1e-06,-1e-05
418897,-5.9e-05,-0.018183,-0.31723,0.0,-0.0,-0.0,2.0,0.282024,0.274584,0.282024,0.289192,,,,,,,0.000671,-0.012929,-0.219001,0.0,-3e-06,-1e-05
418917,-0.00018,-0.018202,-0.317231,0.0,-0.0,-0.0,2.0,0.282024,0.274205,0.282024,0.289543,,,,,,,0.000551,-0.012929,-0.219002,1e-06,-4e-06,-1e-05
418937,-6e-05,-0.018183,-0.317116,0.0,-0.0,-0.0,2.0,0.282024,0.276085,0.282024,0.287788,,,,,,,0.000671,-0.012929,-0.219002,-0.000218,-3e-06,2e-06
418957,0.000302,-0.018125,-0.317228,0.0,-0.0,-0.0,2.0,0.282024,0.277621,0.282024,0.28633,,,,,,,0.000912,-0.012929,-0.219002,0.024009,3e-06,-1e-05
418977,0.000423,-0.018106,-0.317227,0.0,-0.0,-0.0,2.0,0.282024,0.27866,0.282024,0.285332,,,,,,,0.001153,-0.012929,-0.219002,9.9e-05,5e-06,-9e-06
418997,0.000423,-0.018106,-0.317227,0.0,-0.0,-0.0,2.0,0.282024,0.27601,0.282024,0.287859,,,,,,,0.001153,-0.012929,-0.219002,0.0,5e-06,-9e-06
419017,0.000182,-0.018144,-0.317228,0.0,-0.0,-0.0,2.0,0.282024,0.273884,0.282024,0.28984,,,,,,,0.001033,-0.012929,-0.219003,-0.024109,1e-06,-1e-05
419037,6.1e-05,-0.018164,-0.317229,0.0,-0.0,-0.0,2.0,0.282024,0.273587,0.282024,0.290113,,,,,,,0.000772,-0.012929,-0.219003,0.003824,-1e-06,-1e-05
419057,-0.00018,-0.018202,-0.317231,0.0,-0.0,-0.0,2.0,0.282024,0.27358,0.282024,0.290119,,,,,,,0.000551,-0.012929,-0.219003,1e-06,-4e-06,-1e-05
419077,-0.000199,-0.018082,-0.317231,0.0,-0.0,-0.0,2.0,0.282024,0.274133,0.282024,0.28961,,,,,,,0.00055,-0.012929,-0.219003,-0.003721,8e-06,-1e-05
419097,4.2e-05,-0.018043,-0.317229,0.0,-0.0,-0.0,2.0,0.282024,0.278417,0.282024,0.285566,,,,,,,0.000772,-0.012929,-0.219003,9.9e-05,1.1e-05,-1e-05
419117,0.000283,-0.018005,-0.317227,0.0,-0.0,-0.0,2.0,0.282024,0.27716,0.282024,0.286771,,,,,,,0.000893,-0.012929,-0.219003,0.024009,1.5e-05,-9e-06
419137,0.000505,-0.017845,-0.317225,0.0,-0.0,-0.0,2.0,0.282024,0.276888,0.282024,0.287029,,,,,,,0.001134,-0.012928,-0.219003,0.02017,3.1e-05,-9e-06
419157,0.000524,-0.017966,-0.317225,0.0,-0.0,-0.0,2.0,0.282024,0.276122,0.282024,0.287754,,,,,,,0.001235,-0.012928,-0.219004,0.00384,1.9e-05,-9e-06
419177,0.000384,-0.017865,-0.317226,0.0,-0.0,-0.0,2.0,0.282024,0.274562,0.282024,0.289212,,,,,,,0.001115,-0.012927,-0.219004,1e-06,2.9e-05,-9e-06
419197,0.000143,-0.017903,-0.317228,0.0,-0.0,-0.0,2.0,0.282024,0.273572,0.282024,0.290127,,,,,,,0.000874,-0.012927,-0.219004,-1.5e-05,2.5e-05,-9e-06
419217,-7.9e-05,-0.018062,-0.31723,0.0,-0.0,-0.0,2.0,0.282024,0.271729,0.282024,0.291805,,,,,,,0.000633,-0.012926,-0.219004,0.00374,9e-06,-1e-05
419237,-9.7e-05,-0.017942,-0.317345,0.0,-0.0,-0.0,2.0,0.282024,0.27789,0.282024,0.286073,,,,,,,0.000772,-0.012926,-0.219004,-0.027534,2.1e-05,-2.1e-05
419257,0.000162,-0.018024,-0.317228,0.0,-0.0,-0.0,2.0,0.282024,0.276816,0.282024,0.287097,,,,,,,0.000772,-0.012926,-0.219005,0.024009,1.3e-05,-9e-06
419277,0.000283,-0.018005,-0.317227,0.0,-0.0,-0.0,2.0,0.282024,0.276762,0.282024,0.287148,,,,,,,0.001013,-0.012926,-0.219005,-0.0,1.5e-05,-9e-06
419297,0.000524,-0.017966,-0.317225,0.0,-0.0,-0.0,2.0,0.282024,0.27909,0.282024,0.284915,,,,,,,0.001254,-0.012925,-0.219005,9.9e-05,1.9e-05,-9e-06
419317,0.000524,-0.017966,-0.317225,0.0,-0.0,-0.0,2.0,0.282024,0.276732,0.282024,0.287177,,,,,,,0.001254,-0.012925,-0.219005,-1e-06,1.9e-05,-9e-06
419337,0.000283,-0.018005,-0.317227,0.0,-0.0,-0.0,2.0,0.282024,0.274613,0.282024,0.289166,,,,,,,0.001134,-0.012924,-0.219005,-0.024009,1.5e-05,-9e-06
419357,0.000143,-0.017903,-0.317228,0.0,-0.0,-0.0,2.0,0.282024,0.272159,0.282024,0.291416,,,,,,,0.000874,-0.012924,-0.219006,-9.9e-05,2.5e-05,-9e-06
419377,-9.8e-05,-0.017942,-0.31723,0.0,-0.0,-0.0,2.0,0.282024,0.274354,0.282024,0.289405,,,,,,,0.000734,-0.012923,-0.219006,-0.020186,2.1e-05,-9e-06
419397,3e-06,-0.017802,-0.317229,0.0,-0.0,-0.0,2.0,0.282024,0.274918,0.282024,0.288881,,,,,,,0.000613,-0.012923,-0.219006,0.023994,3.5e-05,-9e-06
419417,0.000124,-0.017783,-0.317228,0.0,-0.0,-0.0,2.0,0.282024,0.278391,0.282024,0.285591,,,,,,,0.000854,-0.012922,-0.219006,0.0001,3.7e-05,-9e-06
419437,0.000384,-0.017865,-0.317226,0.0,-0.0,-0.0,2.0,0.282024,0.277851,0.282024,0.28611,,,,,,,0.001095,-0.012921,-0.219006,0.003839,2.9e-05,-9e-06
419457,0.000606,-0.017706,-0.317224,0.0,-0.0,-0.0,2.0,0.282024,0.278789,0.282024,0.285207,,,,,,,0.001336,-0.012921,-0.219006,8.3e-05,4.4e-05,-9e-06
419477,0.000606,-0.017706,-0.317224,0.0,-0.0,-0.0,2.0,0.282024,0.276362,0.282024,0.287527,,,,,,,0.001356,-0.01292,-0.219007,-0.00384,4.4e-05,-9e-06
419497,0.000365,-0.017744,-0.317226,0.0,-0.0,-0.0,2.0,0.282024,0.274008,0.282024,0.289725,,,,,,,0.001216,-0.012919,-0.219007,-0.024109,4e-05,-9e-06
419517,0.000124,-0.017783,-0.317228,0.0,-0.0,-0.0,2.0,0.282024,0.273681,0.282024,0.290027,,,,,,,0.000956,-0.012918,-0.219007,-0.020185,3.6e-05,-9e-06
419537,-1.6e-05,-0.017681,-0.317229,0.0,-0.0,-0.0,2.0,0.282024,0.274454,0.282024,0.289313,,,,,,,0.000714,-0.012917,-0.219007,0.0,4.6e-05,-9e-06
419557,-1.6e-05,-0.017681,-0.317229,0.0,-0.0,-0.0,2.0,0.282024,0.276781,0.282024,0.287131,,,,,,,0.000714,-0.012917,-0.219007,0.0001,4.6e-05,-9e-06
419577,0.000244,-0.017763,-0.317227,0.0,-0.0,-0.0,2.0,0.282024,0.276481,0.282024,0.287414,,,,,,,0.000835,-0.012916,-0.219008,0.027849,3.8e-05,-9e-06
419597,0.000606,-0.017706,-0.317224,0.0,-0.0,-0.0,2.0,0.282024,0.278225,0.282024,0.285751,,,,,,,0.001216,-0.012915,-0.219008,0.024009,4.4e-05,-9e-06
419617,0.000727,-0.017686,-0.317223,0.0,-0.0,-0.0,2.0,0.282024,0.27893,0.282024,0.28507,,,,,,,0.001457,-0.012914,-0.219008,9.9e-05,4.6e-05,-9e-06
419637,0.000727,-0.017686,-0.317223,0.0,-0.0,-0.0,2.0,0.282024,0.275654,0.282024,0.288193,,,,,,,0.001457,-0.012913,-0.219008,1e-06,4.6e-05,-9e-06
419657,0.000466,-0.017604,-0.317225,0.0,-0.0,-0.0,2.0,0.282024,0.274693,0.282024,0.289091,,,,,,,0.001336,-0.012912,-0.219008,-0.027848,5.4e-05,-9e-06
419677,0.000346,-0.017624,-0.317226,0.0,-0.0,-0.0,2.0,0.282024,0.273627,0.282024,0.290076,,,,,,,0.001077,-0.012911,-0.219008,-0.0001,5.2e-05,-9e-06
419697,8.5e-05,-0.017542,-0.317228,0.0,-0.0,-0.0,2.0,0.282024,0.272308,0.282024,0.291281,,,,,,,0.000815,-0.01291,-0.219008,0.000111,6e-05,-9e-06
419717,8.4e-05,-0.017542,-0.317113,0.0,-0.0,-0.0,2.0,0.282024,0.274897,0.282024,0.288902,,,,,,,0.000815,-0.012909,-0.219009,-0.0,6e-05,3e-06
419737,0.000346,-0.017624,-0.317226,0.0,-0.0,-0.0,2.0,0.282024,0.279471,0.282024,0.284544,,,,,,,0.001056,-0.012907,-0.219009,0.003938,5.1e-05,-9e-06
419757,0.000568,-0.017465,-0.317224,0.0,-0.0,-0.0,2.0,0.282024,0.277314,0.282024,0.286623,,,,,,,0.001176,-0.012906,-0.219009,0.024218,6.7e-05,-9e-06
419777,0.000688,-0.017445,-0.317223,0.0,-0.0,-0.0,2.0,0.282024,0.277267,0.282024,0.286669,,,,,,,0.001437,-0.012905,-0.219009,-0.003631,6.9e-05,-8e-06
419797,0.000828,-0.017547,-0.317222,0.0,-0.0,-0.0,2.0,0.282024,0.277427,0.282024,0.286516,,,,,,,0.001539,-0.012904,-0.219009,0.003839,5.9e-05,-8e-06
419817,0.000688,-0.017445,-0.317223,0.0,-0.0,-0.0,2.0,0.282024,0.275429,0.282024,0.288405,,,,,,,0.001418,-0.012902,-0.219009,0.0,6.9e-05,-8e-06
419837,0.000447,-0.017484,-0.317225,0.0,-0.0,-0.0,2.0,0.282024,0.273899,0.282024,0.289826,,,,,,,0.001177,-0.012901,-0.219009,-1.5e-05,6.5e-05,-9e-06
419857,0.000225,-0.017643,-0.317227,0.0,-0.0,-0.0,2.0,0.282024,0.272663,0.282024,0.290959,,,,,,,0.000937,-0.0129,-0.219009,0.00374,4.9e-05,-9e-06
419877,0.000225,-0.017643,-0.317227,0.0,-0.0,-0.0,2.0,0.282024,0.275616,0.282024,0.288229,,,,,,,0.000936,-0.012899,-0.21901,0.00384,4.8e-05,-9e-06
419897,0.000346,-0.017624,-0.317226,0.0,-0.0,-0.0,2.0,0.282024,0.278382,0.282024,0.2856,,,,,,,0.001076,-0.012898,-0.21901,9.9e-05,5e-05,-9e-06
419917,0.000587,-0.017585,-0.317224,0.0,-0.0,-0.0,2.0,0.282024,0.276839,0.282024,0.287075,,,,,,,0.001197,-0.012897,-0.21901,0.02401,5.4e-05,-8e-06
419937,0.000847,-0.017667,-0.317222,0.0,-0.0,-0.0,2.0,0.282024,0.279969,0.282024,0.284058,,,,,,,0.001577,-0.012896,-0.21901,0.000115,4.6e-05,-8e-06
419957,0.000828,-0.017547,-0.317222,0.0,-0.0,-0.0,2.0,0.282024,0.278871,0.282024,0.285127,,,,,,,0.001698,-0.012895,-0.21901,-0.02775,5.8e-05,-8e-06
419977,0.000707,-0.017566,-0.317223,0.0,-0.0,-0.0,2.0,0.282024,0.273929,0.282024,0.289798,,,,,,,0.001457,-0.012894,-0.21901,-0.003923,5.6e-05,-8e-06
419997,0.000466,-0.017604,-0.317225,0.0,-0.0,-0.0,2.0,0.282024,0.272159,0.282024,0.291416,,,,,,,0.001197,-0.012893,-0.219011,-9.9e-05,5.2e-05,-8e-06
420017,0.000365,-0.017744,-0.317226,0.0,-0.0,-0.0,2.0,0.282024,0.274517,0.282024,0.289254,,,,,,,0.001076,-0.012892,-0.219011,0.00384,3.8e-05,-9e-06
420037,0.000365,-0.017744,-0.317226,0.0,-0.0,-0.0,2.0,0.282024,0.275336,0.282024,0.288492,,,,,,,0.000975,-0.012891,-0.219011,0.024009,3.8e-05,-9e-06
420057,0.000486,-0.017725,-0.317225,0.0,-0.0,-0.0,2.0,0.282024,0.276328,0.282024,0.28756,,,,,,,0.001095,-0.01289,-0.219011,0.024009,3.9e-05,-8e-06
420077,0.000707,-0.017566,-0.317223,0.0,-0.0,-0.0,2.0,0.282024,0.279932,0.282024,0.284094,,,,,,,0.001437,-0.012889,-0.219011,9.9e-05,5.5e-05,-8e-06
420097,0.000929,-0.017407,-0.317221,0.0,-0.0,-0.0,2.0,0.282024,0.277778,0.282024,0.28618,,,,,,,0.001558,-0.012888,-0.219011,0.02017,7.1e-05,-8e-06
420117,0.000929,-0.017407,-0.317221,0.0,-0.0,-0.0,2.0,0.282024,0.27678,0.282024,0.287132,,,,,,,0.001679,-0.012887,-0.219012,-0.003839,7.1e-05,-8e-06
420137,0.000688,-0.017445,-0.317223,0.0,-0.0,-0.0,2.0,0.282024,0.273747,0.282024,0.289965,,,,,,,0.001539,-0.012885,-0.219012,-0.024109,6.7e-05,-8e-06
420157,0.000568,-0.017465,-0.317224,0.0,-0.0,-0.0,2.0,0.282024,0.273242,0.282024,0.29043,,,,,,,0.001298,-0.012884,-0.219012,-9.9e-05,6.5e-05,-8e-06
420177,0.000346,-0.017624,-0.317226,0.0,-0.0,-0.0,2.0,0.282024,0.274102,0.282024,0.289638,,,,,,,0.001076,-0.012883,-0.219012,1e-06,4.9e-05,-8e-06
420197,0.000225,-0.017643,-0.317227,0.0,-0.0,-0.0,2.0,0.282024,0.274813,0.282024,0.28898,,,,,,,0.000955,-0.012882,-0.219012,1.6e-05,4.7e-05,-8e-06
420217,0.000447,-0.017484,-0.317225,0.0,-0.0,-0.0,2.0,0.282024,0.278848,0.282024,0.28515,,,,,,,0.001177,-0.012881,-0.219012,9.9e-05,6.3e-05,-8e-06
420237,0.000809,-0.017426,-0.317222,0.0,-0.0,-0.0,2.0,0.282024,0.280087,0.282024,0.283942,,,,,,,0.001418,-0.01288,-0.219013,0.024108,6.8e-05,-8e-06
420257,0.000948,-0.017527,-0.317221,0.0,-0.0,-0.0,2.0,0.282024,0.27733,0.282024,0.286608,,,,,,,0.001558,-0.012878,-0.219013,0.024026,5.8e-05,-8e-06
420277,0.000809,-0.017426,-0.317222,0.0,-0.0,-0.0,2.0,0.282024,0.276784,0.282024,0.287128,,,,,,,0.001679,-0.012877,-0.219013,-0.027849,6.8e-05,-8e-06
420297,0.000828,-0.017547,-0.317222,0.0,-0.0,-0.0,2.0,0.282024,0.273898,0.282024,0.289827,,,,,,,0.00154,-0.012876,-0.219013,0.003725,5.6e-05,-8e-06
420317,0.000587,-0.017585,-0.317224,0.0,-0.0,-0.0,2.0,0.282024,0.273048,0.282024,0.290607,,,,,,,0.001318,-0.012875,-0.219013,-9.9e-05,5.2e-05,-8e-06
420337,0.000346,-0.017624,-0.317226,0.0,-0.0,-0.0,2.0,0.282024,0.272822,0.282024,0.290813,,,,,,,0.001077,-0.012874,-0.219013,-9.9e-05,4.8e-05,-8e-06
420357,0.000346,-0.017624,-0.317226,0.0,-0.0,-0.0,2.0,0.282024,0.275888,0.282024,0.287974,,,,,,,0.001076,-0.012873,-0.219014,-0.0,4.8e-05,-8e-06
420377,0.000486,-0.017725,-0.317225,0.0,-0.0,-0.0,2.0,0.282024,0.278572,0.282024,0.285416,,,,,,,0.001196,-0.012872,-0.219014,0.003939,3.8e-05,-8e-06
420397,0.000707,-0.017566,-0.317223,0.0,-0.0,-0.0,2.0,0.282024,0.280017,0.282024,0.284011,,,,,,,0.001437,-0.012871,-0.219014,9.9e-05,5.3e-05,-8e-06
420417,0.000948,-0.017527,-0.317221,0.0,-0.0,-0.0,2.0,0.282024,0.277099,0.282024,0.286829,,,,,,,0.001558,-0.01287,-0.219014,0.023994,5.7e-05,-8e-06
420437,0.000968,-0.017648,-0.317221,0.0,-0.0,-0.0,2.0,0.282024,0.276813,0.282024,0.287101,,,,,,,0.001679,-0.012869,-0.219014,0.003839,4.5e-05,-8e-06
420457,0.000828,-0.017547,-0.317222,0.0,-0.0,-0.0,2.0,0.282024,0.273212,0.282024,0.290457,,,,,,,0.001438,-0.012868,-0.219014,0.023911,5.5e-05,-8e-06
420477,0.000486,-0.017725,-0.317225,0.0,-0.0,-0.0,2.0,0.282024,0.271718,0.282024,0.291815,,,,,,,0.001197,-0.012867,-0.219014,0.003725,3.7e-05,-8e-06
420497,0.000243,-0.017764,-0.317112,0.0,-0.0,-0.0,2.0,0.282024,0.274918,0.282024,0.288882,,,,,,,0.001095,-0.012866,-0.219015,-0.024206,3.3e-05,3e-06
420517,0.000365,-0.017744,-0.317226,0.0,-0.0,-0.0,2.0,0.282024,0.27578,0.282024,0.288076,,,,,,,0.000975,-0.012865,-0.219015,0.024009,3.5e-05,-8e-06
420537,0.000486,-0.017725,-0.317225,0.0,-0.0,-0.0,2.0,0.282024,0.278041,0.282024,0.285928,,,,,,,0.001095,-0.012865,-0.219015,0.024094,3.7e-05,-8e-06
420557,0.000727,-0.017686,-0.317223,0.0,-0.0,-0.0,2.0,0.282024,0.277395,0.282024,0.286546,,,,,,,0.001336,-0.012864,-0.219015,0.024009,4.1e-05,-8e-06
420577,0.000847,-0.017667,-0.317222,0.0,-0.0,-0.0,2.0,0.282024,0.278027,0.282024,0.285941,,,,,,,0.001578,-0.012863,-0.219015,-1e-06,4.2e-05,-8e-06
420597,0.000968,-0.017648,-0.317221,0.0,-0.0,-0.0,2.0,0.282024,0.276624,0.282024,0.28728,,,,,,,0.001578,-0.012862,-0.219015,0.02401,4.4e-05,-8e-06
420617,0.000727,-0.017686,-0.317223,0.0,-0.0,-0.0,2.0,0.282024,0.273009,0.282024,0.290642,,,,,,,0.001456,-0.012861,-0.219015,0.000112,4e-05,-8e-06
420637,0.000364,-0.017744,-0.317112,0.0,-0.0,-0.0,2.0,0.282024,0.272925,0.282024,0.290719,,,,,,,0.001216,-0.012861,-0.219015,-0.024321,3.4e-05,3e-06
420657,0.000365,-0.017744,-0.317226,0.0,-0.0,-0.0,2.0,0.282024,0.276915,0.282024,0.287004,,,,,,,0.001095,-0.01286,-0.219015,0.0001,3.4e-05,-8e-06
420677,0.000243,-0.017764,-0.317112,0.0,-0.0,-0.0,2.0,0.282024,0.276765,0.282024,0.287146,,,,,,,0.000973,-0.012859,-0.219016,0.0001,3.2e-05,3e-06
420697,0.000364,-0.017744,-0.317112,0.0,-0.0,-0.0,2.0,0.282024,0.277356,0.282024,0.286584,,,,,,,0.001075,-0.012859,-0.219016,0.003837,3.4e-05,3e-06
420717,0.000586,-0.017585,-0.31711,0.087266,-0.0,-0.0,2.0,0.282024,0.222503,0.282024,0.327289,,,,,,,0.001317,-0.012858,-0.219016,-0.000111,5e-05,4e-06
420737,0.000968,-0.017648,-0.317221,0.087266,-0.0,-0.0,2.0,0.282024,0.219531,0.282024,0.328947,,,,,,,0.001457,-0.012857,-0.219016,0.048018,4.4e-05,-8e-06
420757,0.001227,-0.01773,-0.317105,0.087266,-0.0,-0.0,2.0,0.282024,0.221936,0.282024,0.327609,,,,,,,0.001836,-0.012856,-0.219016,0.024124,3.5e-05,4e-06
420777,0.002211,-0.017696,-0.317097,0.087266,-0.0,-0.0,2.0,0.282024,0.228379,0.282024,0.323868,,,,,,,0.002678,-0.012855,-0.219015,0.052335,3.9e-05,5e-06
420797,0.004197,-0.01775,-0.31708,0.087266,-0.0,-0.0,2.0,0.282024,0.239546,0.282024,0.316816,,,,,,,0.004284,-0.012854,-0.219015,0.128119,3.3e-05,7e-06
420817,0.007168,-0.017769,-0.317166,0.087266,-0.0,-0.0,2.0,0.282024,0.254861,0.282024,0.305858,,,,,,,0.007013,-0.012854,-0.219015,0.176449,3.1e-05,-2e-06
420837,0.011243,-0.017734,-0.317234,0.087266,-0.0,-0.0,2.0,0.282024,0.267339,0.282024,0.295684,,,,,,,0.010846,-0.012853,-0.219015,0.22466,3.5e-05,-9e-06
420857,0.016424,-0.017645,-0.317451,0.087266,-0.0,-0.0,2.0,0.282024,0.280832,0.282024,0.283209,,,,,,,0.015804,-0.012852,-0.219016,0.269034,4.4e-05,-3.1e-05
420877,0.022509,-0.017778,-0.317869,0.087266,-0.0,-0.0,2.0,0.282024,0.29129,0.282024,0.272298,,,,,,,0.021647,-0.012852,-0.219017,0.317167,3e-05,-7.2e-05
420897,0.029478,-0.018012,-0.318421,0.087266,-0.0,-0.0,2.0,0.282024,0.304076,0.282024,0.257155,,,,,,,0.028453,-0.012851,-0.219019,0.349704,7e-06,-0.000127
420917,0.036667,-0.018083,-0.318775,0.087266,-0.0,-0.0,2.0,0.282024,0.309279,0.282024,0.250311,,,,,,,0.035523,-0.012851,-0.219021,0.373282,-0.0,-0.000162
420937,0.043998,-0.018248,-0.319272,0.087266,-0.0,-0.0,2.0,0.282024,0.311662,0.282024,0.247024,,,,,,,0.042854,-0.012851,-0.219025,0.373283,-1.7e-05,-0.000212
420957,0.050966,-0.018474,-0.319524,0.087266,-0.0,-0.0,2.0,0.282024,0.312807,0.282024,0.245407,,,,,,,0.049944,-0.012851,-0.21903,0.348971,-3.9e-05,-0.000236
420977,0.057434,-0.01865,-0.319884,0.087266,-0.0,-0.0,2.0,0.282024,0.31173,0.282024,0.246928,,,,,,,0.056552,-0.012852,-0.219035,0.321113,-5.7e-05,-0.000272
420997,0.063158,-0.018828,-0.320023,0.087266,-0.0,-0.0,2.0,0.282024,0.307618,0.282024,0.252544,,,,,,,0.062519,-0.012854,-0.21904,0.272773,-7.5e-05,-0.000285
421017,0.068141,-0.019001,-0.320176,0.087266,-0.0,-0.0,2.0,0.282024,0.308876,0.282024,0.250857,,,,,,,0.067618,-0.012855,-0.219046,0.249597,-9.2e-05,-0.0003
421037,0.071876,-0.019131,-0.320196,0.087266,-0.0,-0.0,2.0,0.282024,0.296259,0.282024,0.266671,,,,,,,0.07172,-0.012857,-0.219052,0.17647,-0.000105,-0.000301
421057,0.074829,-0.019018,-0.320249,0.087266,-0.0,-0.0,2.0,0.282024,0.288461,0.282024,0.275369,,,,,,,0.074955,-0.012859,-0.219058,0.120544,-9.3e-05,-0.000306
421077,0.07706,-0.019026,-0.320212,0.087266,-0.0,-0.0,2.0,0.282024,0.28177,0.282024,0.282277,,,,,,,0.077307,-0.012861,-0.219064,0.096358,-9.4e-05,-0.000302
421097,0.078303,-0.019071,-0.320157,0.087266,-0.0,-0.0,2.0,0.282024,0.275548,0.282024,0.288293,,,,,,,0.078771,-0.012863,-0.21907,0.052213,-9.8e-05,-0.000296
421117,0.079285,-0.019039,-0.32,0.087266,-0.0,-0.0,2.0,0.282024,0.27006,0.282024,0.293299,,,,,,,0.079775,-0.012865,-0.219076,0.048064,-9.5e-05,-0.000279
421137,0.079806,-0.019206,-0.319858,0.087266,-0.0,-0.0,2.0,0.282024,0.26822,0.282024,0.294918,,,,,,,0.080535,-0.012867,-0.219081,0.000136,-0.000111,-0.000265
421157,0.080553,-0.019209,-0.319883,0.087266,-0.0,-0.0,2.0,0.282024,0.266752,0.282024,0.29619,,,,,,,0.081017,-0.012869,-0.219087,0.053038,-0.000111,-0.000267
421177,0.081053,-0.019256,-0.319745,0.087266,-0.0,-0.0,2.0,0.282024,0.26692,0.282024,0.296045,,,,,,,0.081663,-0.012871,-0.219092,0.024109,-0.000116,-0.000252
421197,0.082156,-0.0192,-0.319697,0.087266,-0.0,-0.0,2.0,0.282024,0.270404,0.282024,0.292993,,,,,,,0.082525,-0.012874,-0.219097,0.072049,-0.00011,-0.000247
421217,0.08364,-0.019206,-0.319629,0.087266,-0.0,-0.0,2.0,0.282024,0.277997,0.282024,0.28597,,,,,,,0.083988,-0.012876,-0.219102,0.076209,-0.00011,-0.00024
421237,0.085611,-0.019133,-0.319597,0.087266,-0.0,-0.0,2.0,0.282024,0.283228,0.282024,0.280813,,,,,,,0.085718,-0.012878,-0.219107,0.124173,-0.000103,-0.000236
421257,0.088102,-0.019223,-0.319533,0.087266,-0.0,-0.0,2.0,0.282024,0.288724,0.282024,0.275088,,,,,,,0.088208,-0.01288,-0.219111,0.124282,-0.000111,-0.000229
421277,0.091075,-0.019228,-0.31956,0.087266,-0.0,-0.0,2.0,0.282024,0.29447,0.282024,0.268733,,,,,,,0.09106,-0.012882,-0.219116,0.148347,-0.000112,-0.000231
421297,0.094574,-0.019396,-0.319608,0.087266,-0.0,-0.0,2.0,0.282024,0.301751,0.282024,0.260077,,,,,,,0.094413,-0.012885,-0.219121,0.177546,-0.000128,-0.000236
421317,0.098168,-0.019422,-0.319592,0.087266,-0.0,-0.0,2.0,0.282024,0.303309,0.282024,0.258128,,,,,,,0.097912,-0.012887,-0.219125,0.196371,-0.000131,-0.000234
421337,0.101807,-0.019689,-0.319616,0.087266,-0.0,-0.0,2.0,0.282024,0.3066,0.282024,0.25389,,,,,,,0.101652,-0.01289,-0.21913,0.176254,-0.000157,-0.000236
421357,0.105287,-0.019727,-0.319765,0.087266,-0.0,-0.0,2.0,0.282024,0.30906,0.282024,0.250609,,,,,,,0.105252,-0.012893,-0.219135,0.152372,-0.00016,-0.00025
421377,0.108627,-0.01967,-0.319807,0.087266,-0.0,-0.0,2.0,0.282024,0.307407,0.282024,0.252825,,,,,,,0.108485,-0.012897,-0.21914,0.173689,-0.000154,-0.000254
421397,0.111378,-0.019832,-0.319811,0.087266,-0.0,-0.0,2.0,0.282024,0.307892,0.282024,0.25218,,,,,,,0.111485,-0.0129,-0.219145,0.124226,-0.00017,-0.000254
421417,0.11371,-0.019684,-0.319964,0.087266,-0.0,-0.0,2.0,0.282024,0.304929,0.282024,0.256063,,,,,,,0.113957,-0.012903,-0.21915,0.096278,-0.000155,-0.000268
421437,0.11558,-0.019749,-0.319906,0.087266,-0.0,-0.0,2.0,0.282024,0.302316,0.282024,0.259374,,,,,,,0.115948,-0.012906,-0.219156,0.072277,-0.000161,-0.000262
421457,0.116969,-0.019893,-0.319872,0.087266,-0.0,-0.0,2.0,0.282024,0.296138,0.282024,0.266812,,,,,,,0.117438,-0.01291,-0.219161,0.052107,-0.000175,-0.000258
421477,0.117951,-0.019855,-0.319813,0.087266,-0.0,-0.0,2.0,0.282024,0.29468,0.282024,0.268493,,,,,,,0.118541,-0.012913,-0.219166,0.028026,-0.000171,-0.000252
421497,0.118439,-0.019777,-0.319844,0.087266,-0.0,-0.0,2.0,0.282024,0.288664,0.282024,0.275151,,,,,,,0.119049,-0.012916,-0.219171,0.024061,-0.000163,-0.000254
421517,0.11856,-0.019764,-0.319723,0.087266,-0.0,-0.0,2.0,0.282024,0.285477,0.282024,0.278509,,,,,,,0.119309,-0.01292,-0.219176,-0.003854,-0.000162,-0.000242
421537,0.118579,-0.019884,-0.319716,0.087266,-0.0,-0.0,2.0,0.282024,0.28411,0.282024,0.279915,,,,,,,0.11929,-0.012923,-0.219181,0.003854,-0.000173,-0.00024
421557,0.118331,-0.019931,-0.319558,0.087266,-0.0,-0.0,2.0,0.282024,0.282791,0.282024,0.281254,,,,,,,0.119162,-0.012926,-0.219186,-0.02012,-0.000178,-0.000224
421577,0.118312,-0.019804,-0.319679,0.087266,-0.0,-0.0,2.0,0.282024,0.284229,0.282024,0.279794,,,,,,,0.119042,-0.01293,-0.21919,0.0,-0.000164,-0.000236
421597,0.118312,-0.019804,-0.319679,0.087266,-0.0,-0.0,2.0,0.282024,0.286206,0.282024,0.277751,,,,,,,0.119042,-0.012933,-0.219195,9.9e-05,-0.000164,-0.000235
421617,0.11856,-0.019764,-0.319723,0.087266,-0.0,-0.0,2.0,0.282024,0.287111,0.282024,0.276802,,,,,,,0.11917,-0.012936,-0.2192,0.023984,-0.00016,-0.000239
421637,0.119041,-0.019685,-0.319696,0.087266,-0.0,-0.0,2.0,0.282024,0.291092,0.282024,0.272516,,,,,,,0.11965,-0.012939,-0.219205,0.024059,-0.000152,-0.000236
421657,0.119681,-0.019827,-0.31965,0.087266,-0.0,-0.0,2.0,0.282024,0.292616,0.282024,0.270826,,,,,,,0.120271,-0.012942,-0.219209,0.027922,-0.000166,-0.000231
421677,0.12055,-0.019802,-0.319768,0.087266,-0.0,-0.0,2.0,0.282024,0.294455,0.282024,0.26875,,,,,,,0.121039,-0.012946,-0.219214,0.048045,-0.000163,-0.000242
421697,0.121431,-0.019912,-0.319593,0.087266,-0.0,-0.0,2.0,0.282024,0.296227,0.282024,0.266709,,,,,,,0.1219,-0.012949,-0.219219,0.051987,-0.000173,-0.000224
421717,0.12242,-0.019867,-0.319703,0.087266,-0.0,-0.0,2.0,0.282024,0.298671,0.282024,0.263827,,,,,,,0.122909,-0.012952,-0.219223,0.048138,-0.000169,-0.000235
421737,0.123402,-0.019829,-0.319642,0.087266,-0.0,-0.0,2.0,0.282024,0.300343,0.282024,0.261808,,,,,,,0.123891,-0.012956,-0.219228,0.048107,-0.000164,-0.000228
421757,0.124271,-0.019811,-0.319644,0.087266,-0.0,-0.0,2.0,0.282024,0.300236,0.282024,0.261938,,,,,,,0.12476,-0.012959,-0.219233,0.048116,-0.000162,-0.000228
421777,0.125031,-0.019933,-0.319589,0.087266,-0.0,-0.0,2.0,0.282024,0.300957,0.282024,0.261057,,,,,,,0.125621,-0.012962,-0.219237,0.028038,-0.000174,-0.000222
421797,0.125633,-0.019835,-0.319554,0.087266,-0.0,-0.0,2.0,0.282024,0.2989,0.282024,0.263552,,,,,,,0.126242,-0.012966,-0.219241,0.024055,-0.000164,-0.000218
421817,0.12616,-0.019996,-0.319569,0.087266,-0.0,-0.0,2.0,0.282024,0.29831,0.282024,0.264257,,,,,,,0.126751,-0.012969,-0.219246,0.027904,-0.00018,-0.000219
421837,0.1263,-0.020097,-0.319555,0.087266,-0.0,-0.0,2.0,0.282024,0.295733,0.282024,0.267282,,,,,,,0.12703,-0.012973,-0.21925,1.5e-05,-0.000189,-0.000217
421857,0.12642,-0.020077,-0.319548,0.087266,-0.0,-0.0,2.0,0.282024,0.296408,0.282024,0.266498,,,,,,,0.12715,-0.012977,-0.219255,9.9e-05,-0.000187,-0.000216
421877,0.1263,-0.020097,-0.319555,0.087266,-0.0,-0.0,2.0,0.282024,0.294001,0.282024,0.269267,,,,,,,0.12703,-0.01298,-0.219259,0.0,-0.000189,-0.000217
421897,0.12616,-0.019996,-0.319569,0.087266,-0.0,-0.0,2.0,0.282024,0.292491,0.282024,0.270966,,,,,,,0.126911,-0.012984,-0.219263,-0.003966,-0.000178,-0.000218
421917,0.12606,-0.020128,-0.319683,0.087266,-0.0,-0.0,2.0,0.282024,0.2936,0.282024,0.269721,,,,,,,0.126771,-0.012988,-0.219268,0.003846,-0.000191,-0.000229
421937,0.125811,-0.020176,-0.319526,0.087266,-0.0,-0.0,2.0,0.282024,0.294845,0.282024,0.268305,,,,,,,0.126662,-0.012992,-0.219272,-0.023939,-0.000195,-0.000212
421957,0.125811,-0.020176,-0.319526,0.087266,-0.0,-0.0,2.0,0.282024,0.295424,0.282024,0.267639,,,,,,,0.126542,-0.012996,-0.219276,0.0,-0.000195,-0.000212
421977,0.125831,-0.020296,-0.319519,0.087266,-0.0,-0.0,2.0,0.282024,0.296289,0.282024,0.266637,,,,,,,0.126561,-0.013,-0.219281,-0.0,-0.000207,-0.000211
421997,0.125831,-0.020296,-0.319519,0.087266,-0.0,-0.0,2.0,0.282024,0.296669,0.282024,0.266194,,,,,,,0.126569,-0.013004,-0.219285,-0.001543,-0.000206,-0.00021
422017,0.126079,-0.020256,-0.319562,0.087266,-0.0,-0.0,2.0,0.282024,0.297954,0.282024,0.26468,,,,,,,0.126681,-0.013007,-0.219288,0.001549,-0.000204,-0.000215
422037,0.126219,-0.020357,-0.319548,0.087266,-0.0,-0.0,2.0,0.282024,0.297805,0.282024,0.264857,,,,,,,0.126809,-0.013012,-0.219293,0.027826,-0.000212,-0.000212
422057,0.12632,-0.020217,-0.319548,0.087266,-0.0,-0.0,2.0,0.282024,0.298724,0.282024,0.263763,,,,,,,0.12705,-0.013016,-0.219298,-0.0,-0.000197,-0.000212
422077,0.126459,-0.020317,-0.319534,0.087266,-0.0,-0.0,2.0,0.282024,0.299267,0.282024,0.263112,,,,,,,0.12717,-0.01302,-0.219302,0.003854,-0.000207,-0.00021
422097,0.126339,-0.020337,-0.319541,0.087266,-0.0,-0.0,2.0,0.282024,0.296816,0.282024,0.266021,,,,,,,0.12707,-0.013024,-0.219306,-8.3e-05,-0.000208,-0.00021
422117,0.126339,-0.020337,-0.319541,0.087266,-0.0,-0.0,2.0,0.282024,0.299074,0.282024,0.263343,,,,,,,0.127069,-0.013028,-0.21931,-0.0,-0.000208,-0.00021
422137,0.126098,-0.020377,-0.319555,0.087266,-0.0,-0.0,2.0,0.282024,0.296831,0.282024,0.266004,,,,,,,0.126809,-0.013032,-0.219314,0.003855,-0.000212,-0.000211
422157,0.12585,-0.020416,-0.319512,0.087266,-0.0,-0.0,2.0,0.282024,0.29625,0.282024,0.266682,,,,,,,0.126589,-0.013036,-0.219319,-0.001645,-0.000215,-0.000206
422177,0.12559,-0.020335,-0.319533,0.087266,-0.0,-0.0,2.0,0.282024,0.297647,0.282024,0.265044,,,,,,,0.12634,-0.013041,-0.219323,-0.00385,-0.000207,-0.000208
422197,0.12535,-0.020382,-0.319432,0.087266,-0.0,-0.0,2.0,0.282024,0.297249,0.282024,0.265513,,,,,,,0.12608,-0.013045,-0.219327,-9.9e-05,-0.000211,-0.000198
422217,0.12521,-0.020282,-0.319446,0.087266,-0.0,-0.0,2.0,0.282024,0.29811,0.282024,0.264496,,,,,,,0.12596,-0.013049,-0.219331,-0.003966,-0.0002,-0.000199
422237,0.12535,-0.020382,-0.319432,0.087266,-0.0,-0.0,2.0,0.282024,0.302667,0.282024,0.258936,,,,,,,0.12606,-0.013053,-0.219335,0.00395,-0.00021,-0.000197
422257,0.125369,-0.020503,-0.319425,0.087266,-0.0,-0.0,2.0,0.282024,0.301433,0.282024,0.260471,,,,,,,0.12608,-0.013057,-0.219339,0.003864,-0.000222,-0.000196
422277,0.125489,-0.020483,-0.319418,0.087266,-0.0,-0.0,2.0,0.282024,0.302301,0.282024,0.259393,,,,,,,0.12622,-0.013062,-0.219342,3e-06,-0.000219,-0.000195
422297,0.12561,-0.020471,-0.319297,0.087266,-0.0,-0.0,2.0,0.282024,0.304555,0.282024,0.256544,,,,,,,0.126339,-0.013066,-0.219346,0.000115,-0.000218,-0.000182
422317,0.125489,-0.020483,-0.319418,0.087266,-0.0,-0.0,2.0,0.282024,0.302613,0.282024,0.259004,,,,,,,0.12634,-0.01307,-0.21935,-0.023952,-0.000218,-0.000194
422337,0.125369,-0.020503,-0.319425,0.087266,-0.0,-0.0,2.0,0.282024,0.300206,0.282024,0.261974,,,,,,,0.1261,-0.013075,-0.219354,-0.000115,-0.00022,-0.000194
422357,0.125129,-0.020534,-0.319554,0.087266,-0.0,-0.0,2.0,0.282024,0.299649,0.282024,0.26265,,,,,,,0.125859,-0.013079,-0.219358,-8.9e-05,-0.000223,-0.000207
422377,0.124869,-0.020461,-0.31946,0.087266,-0.0,-0.0,2.0,0.282024,0.300298,0.282024,0.261863,,,,,,,0.125599,-0.013084,-0.219362,-9.9e-05,-0.000215,-0.000197
422397,0.124609,-0.020388,-0.319367,0.087266,-0.0,-0.0,2.0,0.282024,0.30011,0.282024,0.262091,,,,,,,0.125359,-0.013088,-0.219366,-0.00397,-0.000207,-0.000187
422417,0.12436,-0.02042,-0.319438,0.087266,-0.0,-0.0,2.0,0.282024,0.301799,0.282024,0.260017,,,,,,,0.125098,-0.013092,-0.21937,-0.001531,-0.00021,-0.000194
422437,0.12424,-0.02044,-0.319445,0.087266,-0.0,-0.0,2.0,0.282024,0.302842,0.282024,0.258716,,,,,,,0.12497,-0.013096,-0.219373,4e-06,-0.000211,-0.000194
422457,0.124019,-0.020607,-0.319337,0.087266,-0.0,-0.0,2.0,0.282024,0.301565,0.282024,0.260307,,,,,,,0.12473,-0.013101,-0.219377,0.003769,-0.000228,-0.000183
422477,0.123899,-0.020627,-0.319344,0.087266,-0.0,-0.0,2.0,0.282024,0.304383,0.282024,0.256765,,,,,,,0.12473,-0.013105,-0.219381,-0.020089,-0.000229,-0.000183
422497,0.123759,-0.020526,-0.319358,0.087266,-0.0,-0.0,2.0,0.282024,0.304475,0.282024,0.256646,,,,,,,0.12461,-0.013109,-0.219384,-0.023957,-0.000219,-0.000184
422517,0.123619,-0.020426,-0.319372,0.087266,-0.0,-0.0,2.0,0.282024,0.302763,0.282024,0.258816,,,,,,,0.124369,-0.013114,-0.219388,-0.003966,-0.000208,-0.000185
422537,0.123518,-0.020566,-0.319372,0.087266,-0.0,-0.0,2.0,0.282024,0.303338,0.282024,0.258092,,,,,,,0.124249,-0.013118,-0.219392,-9.9e-05,-0.000222,-0.000185
422557,0.123258,-0.020485,-0.319392,0.087266,-0.0,-0.0,2.0,0.282024,0.304327,0.282024,0.256836,,,,,,,0.124109,-0.013122,-0.219395,-0.023956,-0.000213,-0.000187
422577,0.123018,-0.020524,-0.319406,0.087266,-0.0,-0.0,2.0,0.282024,0.304513,0.282024,0.256598,,,,,,,0.123868,-0.013127,-0.219399,-0.023958,-0.000217,-0.000188
422597,0.12263,-0.020463,-0.319376,0.087266,-0.0,-0.0,2.0,0.282024,0.303342,0.282024,0.258087,,,,,,,0.123508,-0.013131,-0.219403,-0.029419,-0.00021,-0.000184
422617,0.122269,-0.020523,-0.319397,0.087266,-0.0,-0.0,2.0,0.282024,0.304691,0.282024,0.256369,,,,,,,0.12324,-0.013135,-0.219407,-0.047916,-0.000216,-0.000186
422637,0.122009,-0.020442,-0.319417,0.087266,-0.0,-0.0,2.0,0.282024,0.302312,0.282024,0.259379,,,,,,,0.12274,-0.01314,-0.21941,-0.000104,-0.000207,-0.000188
422657,0.121388,-0.02042,-0.319458,0.087266,-0.0,-0.0,2.0,0.282024,0.300566,0.282024,0.261536,,,,,,,0.12224,-0.013144,-0.219414,-0.024073,-0.000205,-0.000191
422677,0.120907,-0.020499,-0.319485,0.087266,-0.0,-0.0,2.0,0.282024,0.301706,0.282024,0.260133,,,,,,,0.121758,-0.013148,-0.219418,-0.024057,-0.000212,-0.000194
422697,0.120279,-0.020477,-0.319468,0.087266,-0.0,-0.0,2.0,0.282024,0.299404,0.282024,0.262946,,,,,,,0.12113,-0.013152,-0.219422,-0.024156,-0.00021,-0.000192
422717,0.119677,-0.020583,-0.319388,0.087266,-0.0,-0.0,2.0,0.282024,0.300764,0.282024,0.261293,,,,,,,0.120528,-0.013156,-0.219425,-0.024042,-0.00022,-0.000183
422737,0.118917,-0.020461,-0.319441,0.087266,-0.0,-0.0,2.0,0.282024,0.30027,0.282024,0.261896,,,,,,,0.119888,-0.01316,-0.219429,-0.048019,-0.000207,-0.000188
422757,0.118288,-0.020439,-0.319424,0.087266,-0.0,-0.0,2.0,0.282024,0.298605,0.282024,0.263905,,,,,,,0.119141,-0.013164,-0.219433,-0.024258,-0.000205,-0.000186
422777,0.117547,-0.020437,-0.31947,0.087266,-0.0,-0.0,2.0,0.282024,0.29899,0.282024,0.263444,,,,,,,0.118398,-0.013169,-0.219437,-0.024075,-0.000204,-0.00019
422797,0.116806,-0.020435,-0.319516,0.087266,-0.0,-0.0,2.0,0.282024,0.29805,0.282024,0.264566,,,,,,,0.117658,-0.013173,-0.21944,-0.024176,-0.000203,-0.000195
422817,0.116178,-0.020406,-0.319613,0.087266,-0.0,-0.0,2.0,0.282024,0.301183,0.282024,0.260779,,,,,,,0.117029,-0.013177,-0.219444,-0.02404,-0.0002,-0.000204
422837,0.115576,-0.020512,-0.319531,0.087266,-0.0,-0.0,2.0,0.282024,0.300491,0.282024,0.261628,,,,,,,0.116427,-0.013181,-0.219448,-0.024058,-0.00021,-0.000195
422857,0.115056,-0.020343,-0.319684,0.087266,-0.0,-0.0,2.0,0.282024,0.302003,0.282024,0.259765,,,,,,,0.115927,-0.013185,-0.219452,-0.027934,-0.000193,-0.00021
422877,0.114568,-0.020429,-0.319538,0.087266,-0.0,-0.0,2.0,0.282024,0.300442,0.282024,0.261687,,,,,,,0.115299,-0.013189,-0.219457,-0.000227,-0.000201,-0.000195
422897,0.114067,-0.020387,-0.31957,0.087266,-0.0,-0.0,2.0,0.282024,0.30169,0.282024,0.260153,,,,,,,0.114918,-0.013193,-0.219461,-0.02406,-0.000197,-0.000198
422917,0.113706,-0.020446,-0.31959,0.087266,-0.0,-0.0,2.0,0.282024,0.303881,0.282024,0.257403,,,,,,,0.114557,-0.013197,-0.219464,-0.023964,-0.000202,-0.000199
422937,0.113326,-0.020385,-0.319615,0.087266,-0.0,-0.0,2.0,0.282024,0.303912,0.282024,0.257364,,,,,,,0.114177,-0.013201,-0.219469,-0.023963,-0.000196,-0.000202
422957,0.112938,-0.020331,-0.319469,0.087266,-0.0,-0.0,2.0,0.282024,0.303797,0.282024,0.257511,,,,,,,0.113816,-0.013204,-0.219472,-0.029311,-0.00019,-0.000187
422977,0.112577,-0.02039,-0.319488,0.087266,-0.0,-0.0,2.0,0.282024,0.303098,0.282024,0.258394,,,,,,,0.113429,-0.013208,-0.219476,-0.024064,-0.000195,-0.000188
422997,0.112178,-0.020209,-0.31952,0.087266,-0.0,-0.0,2.0,0.282024,0.302903,0.282024,0.258639,,,,,,,0.113048,-0.013212,-0.21948,-0.027946,-0.000177,-0.000191
423017,0.111817,-0.020275,-0.319424,0.087266,-0.0,-0.0,2.0,0.282024,0.303613,0.282024,0.257744,,,,,,,0.112668,-0.013216,-0.219484,-0.024063,-0.000183,-0.000181
423037,0.111316,-0.020233,-0.319456,0.087266,-0.0,-0.0,2.0,0.282024,0.302191,0.282024,0.259531,,,,,,,0.112148,-0.013219,-0.219487,-0.020218,-0.000178,-0.000184
423057,0.110808,-0.020191,-0.31943,0.087266,-0.0,-0.0,2.0,0.282024,0.300815,0.282024,0.26123,,,,,,,0.11166,-0.013223,-0.219491,-0.024164,-0.000174,-0.000181
423077,0.110187,-0.020169,-0.319467,0.087266,-0.0,-0.0,2.0,0.282024,0.302357,0.282024,0.259323,,,,,,,0.111159,-0.013226,-0.219495,-0.048032,-0.000171,-0.000184
423097,0.109686,-0.020128,-0.319498,0.087266,-0.0,-0.0,2.0,0.282024,0.301543,0.282024,0.260334,,,,,,,0.110538,-0.013229,-0.219498,-0.024066,-0.000167,-0.000187
423117,0.109059,-0.020106,-0.319478,0.087266,-0.0,-0.0,2.0,0.282024,0.300872,0.282024,0.26116,,,,,,,0.109936,-0.013233,-0.219502,-0.029383,-0.000164,-0.000185
423137,0.108438,-0.020084,-0.319515,0.087266,-0.0,-0.0,2.0,0.282024,0.300944,0.282024,0.261073,,,,,,,0.109289,-0.013236,-0.219506,-0.024065,-0.000162,-0.000188
423157,0.107816,-0.020062,-0.319552,0.087266,-0.0,-0.0,2.0,0.282024,0.299872,0.282024,0.262381,,,,,,,0.108649,-0.013239,-0.21951,-0.020331,-0.000159,-0.000191
423177,0.107068,-0.02006,-0.319537,0.087266,-0.0,-0.0,2.0,0.282024,0.301354,0.282024,0.260568,,,,,,,0.108047,-0.013242,-0.219513,-0.049362,-0.000159,-0.000189
423197,0.106428,-0.019917,-0.319579,0.087266,-0.0,-0.0,2.0,0.282024,0.301094,0.282024,0.260888,,,,,,,0.107419,-0.013245,-0.219517,-0.051884,-0.000144,-0.000193
423217,0.105927,-0.019882,-0.319495,0.087266,-0.0,-0.0,2.0,0.282024,0.301192,0.282024,0.260767,,,,,,,0.106778,-0.013248,-0.219521,-0.024084,-0.000141,-0.000184
423237,0.105306,-0.01986,-0.319531,0.087266,-0.0,-0.0,2.0,0.282024,0.300657,0.282024,0.261425,,,,,,,0.106176,-0.013251,-0.219525,-0.027934,-0.000138,-0.000188
423257,0.104698,-0.019958,-0.319503,0.087266,-0.0,-0.0,2.0,0.282024,0.300058,0.282024,0.262155,,,,,,,0.105529,-0.013254,-0.219528,-0.020219,-0.000148,-0.000184
423277,0.104057,-0.019816,-0.319545,0.087266,-0.0,-0.0,2.0,0.282024,0.298235,0.282024,0.264346,,,,,,,0.104909,-0.013257,-0.219532,-0.024186,-0.000133,-0.000188
423297,0.103556,-0.019774,-0.319574,0.087266,-0.0,-0.0,2.0,0.282024,0.30016,0.282024,0.262031,,,,,,,0.104427,-0.013259,-0.219536,-0.027997,-0.000129,-0.000191
423317,0.103075,-0.01986,-0.319483,0.087266,-0.0,-0.0,2.0,0.282024,0.301053,0.282024,0.260939,,,,,,,0.103906,-0.013262,-0.219539,-0.020205,-0.000137,-0.000181
423337,0.102668,-0.019678,-0.319455,0.087266,-0.0,-0.0,2.0,0.282024,0.302118,0.282024,0.259621,,,,,,,0.10352,-0.013264,-0.219543,-0.02407,-0.000118,-0.000178
423357,0.102288,-0.019623,-0.319364,0.087266,-0.0,-0.0,2.0,0.282024,0.302395,0.282024,0.259275,,,,,,,0.103158,-0.013267,-0.219546,-0.027972,-0.000113,-0.000169
423377,0.101927,-0.019675,-0.319496,0.087266,-0.0,-0.0,2.0,0.282024,0.303054,0.282024,0.25845,,,,,,,0.102758,-0.013269,-0.21955,-0.020121,-0.000118,-0.000182
423397,0.101426,-0.019634,-0.319525,0.087266,-0.0,-0.0,2.0,0.282024,0.301743,0.282024,0.260087,,,,,,,0.102277,-0.013271,-0.219553,-0.024035,-0.000113,-0.000184
423417,0.101058,-0.019699,-0.319371,0.087266,-0.0,-0.0,2.0,0.282024,0.303428,0.282024,0.257979,,,,,,,0.101915,-0.013274,-0.219557,-0.025207,-0.00012,-0.000168
423437,0.100678,-0.019637,-0.319393,0.087266,-0.0,-0.0,2.0,0.282024,0.302162,0.282024,0.259567,,,,,,,0.101529,-0.013276,-0.21956,-0.024072,-0.000113,-0.00017
423457,0.100278,-0.019455,-0.319422,0.087266,-0.0,-0.0,2.0,0.282024,0.303087,0.282024,0.258408,,,,,,,0.101148,-0.013278,-0.219564,-0.027838,-9.5e-05,-0.000173
423477,0.099797,-0.019534,-0.319445,0.087266,-0.0,-0.0,2.0,0.282024,0.300863,0.282024,0.261171,,,,,,,0.100648,-0.01328,-0.219567,-0.024073,-0.000103,-0.000175
423497,0.099296,-0.019492,-0.319473,0.087266,-0.0,-0.0,2.0,0.282024,0.300561,0.282024,0.261542,,,,,,,0.100147,-0.013282,-0.219571,-0.024073,-9.8e-05,-0.000177
423517,0.098668,-0.01947,-0.31945,0.087266,-0.0,-0.0,2.0,0.282024,0.298458,0.282024,0.264081,,,,,,,0.09952,-0.013284,-0.219574,-0.024193,-9.6e-05,-0.000174
423537,0.098047,-0.019454,-0.319369,0.087266,-0.0,-0.0,2.0,0.282024,0.297149,0.282024,0.265631,,,,,,,0.098899,-0.013286,-0.219578,-0.024189,-9.4e-05,-0.000166
423557,0.097305,-0.019451,-0.319408,0.087266,-0.0,-0.0,2.0,0.282024,0.296068,0.282024,0.266894,,,,,,,0.098177,-0.013288,-0.219581,-0.028084,-9.3e-05,-0.00017
423577,0.096684,-0.019423,-0.319556,0.087266,-0.0,-0.0,2.0,0.282024,0.298139,0.282024,0.264461,,,,,,,0.097535,-0.01329,-0.219585,-0.024045,-9e-05,-0.000184
