time_ms,roll,pitch,yaw,reference_roll,reference_pitch,reference_yaw,reference_throttle,throttle_1,throttle_2,throttle_3,throttle_4,roll_predicted,pitch_predicted,yaw_predicted,roll_rate_predicted,pitch_rate_predicted,yaw_rate_predicted,value1,value2,value3,value4,value5,value6
561580,-0.010268,-0.015703,0.03264,0.0,-0.0,-0.0,3.0,0.3261,0.318629,0.3261,0.333346,,,,,,,-0.011497,-0.017695,0.038537,0.001576,5.7e-05,0.000152
561600,-0.010148,-0.015827,0.032641,0.087266,-0.0,-0.0,3.0,0.3261,0.285193,0.3261,0.36099,,,,,,,-0.011376,-0.017694,0.03854,0.001277,4.5e-05,0.000151
561620,-0.010029,-0.016074,0.032518,0.087266,-0.0,-0.0,3.0,0.3261,0.284646,0.3261,0.361385,,,,,,,-0.011378,-0.017693,0.038543,0.024502,-4e-06,0.000151
561640,-0.009787,-0.0162,0.03252,0.087266,-0.0,-0.0,3.0,0.3261,0.283211,0.3261,0.362415,,,,,,,-0.011375,-0.017693,0.038546,0.02332,-1.7e-05,0.000163
561660,-0.009058,-0.016456,0.032525,0.087266,-0.0,-0.0,3.0,0.3261,0.280432,0.3261,0.364377,,,,,,,-0.011248,-0.017692,0.038549,0.095656,-5e-06,0.000163
561680,-0.007717,-0.016478,0.032658,0.087266,-0.0,-0.0,3.0,0.3261,0.283332,0.3261,0.362328,,,,,,,-0.010271,-0.017692,0.038553,0.071639,6e-06,0.000163
561700,-0.005517,-0.016392,0.032555,0.087266,-0.0,-0.0,3.0,0.3261,0.2983,0.3261,0.351001,,,,,,,-0.008197,-0.017691,0.038556,0.024115,2.7e-05,0.000153
561720,-0.002707,-0.016316,0.032457,0.087266,-0.0,-0.0,3.0,0.3261,0.30742,0.3261,0.343429,,,,,,,-0.005391,-0.017691,0.038559,0.097346,2.2e-05,0.000155
561740,0.001202,-0.016257,0.032367,0.087266,-0.0,-0.0,3.0,0.3261,0.318482,0.3261,0.333484,,,,,,,-0.001608,-0.01769,0.038562,0.146364,1.5e-05,0.000133
561760,0.006204,-0.016582,0.032164,0.087266,-0.0,-0.0,3.0,0.3261,0.329151,0.3261,0.32301,,,,,,,0.002906,-0.01769,0.038564,0.195389,-5e-06,0.000113
561780,0.011944,-0.016671,0.031843,0.087266,-0.0,-0.0,3.0,0.3261,0.33732,0.3261,0.31433,,,,,,,0.008154,-0.01769,0.038567,0.219797,-2.6e-05,9.2e-05
561800,0.017922,-0.017129,0.031533,0.087266,-0.0,-0.0,3.0,0.3261,0.340033,0.3261,0.311308,,,,,,,0.013649,-0.01769,0.038568,0.292275,-5.9e-05,6.1e-05
561820,0.023784,-0.017216,0.031212,0.087266,-0.0,-0.0,3.0,0.3261,0.337439,0.3261,0.314199,,,,,,,0.019269,-0.017691,0.038569,0.340594,-5.5e-05,2.9e-05
561840,0.029401,-0.017419,0.030896,0.087266,-0.0,-0.0,3.0,0.3261,0.336459,0.3261,0.315274,,,,,,,0.025011,-0.017692,0.038569,0.316203,-6.4e-05,-3e-06
561860,0.034654,-0.01737,0.030567,0.087266,-0.0,-0.0,3.0,0.3261,0.337556,0.3261,0.31407,,,,,,,0.030627,-0.017693,0.038569,0.243914,-5.9e-05,-3.6e-05
561880,0.039174,-0.017314,0.030482,0.087266,-0.0,-0.0,3.0,0.3261,0.33916,0.3261,0.312288,,,,,,,0.03588,-0.017694,0.038568,0.171463,-4.1e-05,-5.7e-05
561900,0.04333,-0.017248,0.03027,0.087266,-0.0,-0.0,3.0,0.3261,0.334522,0.3261,0.317372,,,,,,,0.040152,-0.017696,0.038567,0.171923,-4.7e-05,-6.5e-05
561920,0.046748,-0.017176,0.030291,0.087266,-0.0,-0.0,3.0,0.3261,0.329989,0.3261,0.322147,,,,,,,0.04394,-0.017697,0.038565,0.170989,-5.2e-05,-6.2e-05
561940,0.049556,-0.017221,0.030437,0.087266,-0.0,-0.0,3.0,0.3261,0.325993,0.3261,0.326208,,,,,,,0.046989,-0.017699,0.038564,0.122752,-6.9e-05,-5.9e-05
561960,0.051632,-0.017129,0.030448,0.087266,-0.0,-0.0,3.0,0.3261,0.321814,0.3261,0.330312,,,,,,,0.04943,-0.0177,0.038563,0.074038,-7.2e-05,-5.8e-05
561980,0.053222,-0.017154,0.030464,0.087266,-0.0,-0.0,3.0,0.3261,0.316866,0.3261,0.334993,,,,,,,0.051141,-0.017702,0.038562,0.049106,-9.8e-05,-5.6e-05
562000,0.05432,-0.01717,0.030471,0.087266,-0.0,-0.0,3.0,0.3261,0.312542,0.3261,0.338933,,,,,,,0.052488,-0.017703,0.03856,0.073206,-7.6e-05,-5.5e-05
562020,0.055295,-0.017302,0.030359,0.087266,-0.0,-0.0,3.0,0.3261,0.309065,0.3261,0.342005,,,,,,,0.053466,-0.017704,0.038559,0.09687,-8.9e-05,-6.6e-05
562040,0.056394,-0.017315,0.030244,0.087266,-0.0,-0.0,3.0,0.3261,0.307795,0.3261,0.343106,,,,,,,0.054447,-0.017706,0.038558,0.09677,-6.6e-05,-6.6e-05
562060,0.057616,-0.017456,0.030261,0.087266,-0.0,-0.0,3.0,0.3261,0.309454,0.3261,0.341665,,,,,,,0.055549,-0.017707,0.038557,0.048432,-5.5e-05,-6.5e-05
562080,0.058959,-0.017471,0.030148,0.087266,-0.0,-0.0,3.0,0.3261,0.311878,0.3261,0.339527,,,,,,,0.056767,-0.017708,0.038555,0.049278,-4.4e-05,-7.7e-05
562100,0.060306,-0.017243,0.030027,0.087266,-0.0,-0.0,3.0,0.3261,0.311945,0.3261,0.339466,,,,,,,0.058109,-0.01771,0.038554,0.09815,-4.6e-05,-8.8e-05
562120,0.062265,-0.017146,0.02992,0.087266,-0.0,-0.0,3.0,0.3261,0.316081,0.3261,0.335718,,,,,,,0.059943,-0.017712,0.038552,0.098294,-4.8e-05,-9.8e-05
562140,0.064588,-0.016813,0.029922,0.087266,-0.0,-0.0,3.0,0.3261,0.325357,0.3261,0.326842,,,,,,,0.06238,-0.017713,0.038549,0.050086,-6.3e-05,-0.000108
562160,0.067277,-0.016848,0.029822,0.087266,-0.0,-0.0,3.0,0.3261,0.331567,0.3261,0.320507,,,,,,,0.064947,-0.017714,0.038547,0.099199,-5.4e-05,-0.000118
562180,0.07009,-0.016762,0.029717,0.087266,-0.0,-0.0,3.0,0.3261,0.329942,0.3261,0.322196,,,,,,,0.067394,-0.017715,0.038545,0.171249,-7e-05,-0.000128
562200,0.073141,-0.017046,0.029627,0.087266,-0.0,-0.0,3.0,0.3261,0.327567,0.3261,0.324625,,,,,,,0.06996,-0.017716,0.038542,0.244279,-7.4e-05,-0.000137
562220,0.076193,-0.017211,0.029655,0.087266,-0.0,-0.0,3.0,0.3261,0.325615,0.3261,0.326585,,,,,,,0.07277,-0.017717,0.038539,0.243558,-7.7e-05,-0.000148
562240,0.079125,-0.017365,0.029438,0.087266,-0.0,-0.0,3.0,0.3261,0.323407,0.3261,0.328763,,,,,,,0.075583,-0.017719,0.038537,0.194393,-8.1e-05,-0.000145
562260,0.081691,-0.017401,0.029458,0.087266,-0.0,-0.0,3.0,0.3261,0.327045,0.3261,0.325152,,,,,,,0.078639,-0.01772,0.038534,0.072663,-8.3e-05,-0.000155
562280,0.083891,-0.017182,0.029339,0.087266,-0.0,-0.0,3.0,0.3261,0.329425,0.3261,0.322729,,,,,,,0.081575,-0.017722,0.038531,0.023755,-7.5e-05,-0.000153
562300,0.086215,-0.017093,0.029352,0.087266,-0.0,-0.0,3.0,0.3261,0.33282,0.3261,0.319187,,,,,,,0.084263,-0.017723,0.038527,0.02495,-4.1e-05,-0.000165
562320,0.088538,-0.01712,0.029248,0.087266,-0.0,-0.0,3.0,0.3261,0.33906,0.3261,0.3124,,,,,,,0.086952,-0.017724,0.038524,0.025356,-3.2e-05,-0.000175
562340,0.090864,-0.016909,0.029254,0.087266,-0.0,-0.0,3.0,0.3261,0.340624,0.3261,0.310639,,,,,,,0.089151,-0.017725,0.03852,0.074231,-3.6e-05,-0.000173
562360,0.093188,-0.016936,0.029149,0.087266,-0.0,-0.0,3.0,0.3261,0.336744,0.3261,0.314963,,,,,,,0.090983,-0.017726,0.038517,0.147739,-3.8e-05,-0.000183
562380,0.09526,-0.016964,0.02916,0.087266,-0.0,-0.0,3.0,0.3261,0.327849,0.3261,0.324338,,,,,,,0.092454,-0.017726,0.038513,0.219061,-4e-05,-0.000182
562400,0.097218,-0.016985,0.029053,0.087266,-0.0,-0.0,3.0,0.3261,0.322757,0.3261,0.329397,,,,,,,0.094164,-0.017727,0.03851,0.195531,-4.2e-05,-0.000192
562420,0.099052,-0.017126,0.028952,0.087266,-0.0,-0.0,3.0,0.3261,0.321249,0.3261,0.330855,,,,,,,0.095998,-0.017728,0.038506,0.121308,-5.6e-05,-0.000191
562440,0.100515,-0.017146,0.028959,0.087266,-0.0,-0.0,3.0,0.3261,0.327437,0.3261,0.324756,,,,,,,0.098198,-0.017729,0.038502,9.8e-05,-5.8e-05,-0.000201
562460,0.101987,-0.017038,0.028844,0.087266,-0.0,-0.0,3.0,0.3261,0.331692,0.3261,0.320375,,,,,,,0.100154,-0.01773,0.038498,0.000424,-6e-05,-0.000211
562480,0.103824,-0.016935,0.02873,0.087266,-0.0,-0.0,3.0,0.3261,0.335652,0.3261,0.316152,,,,,,,0.102113,-0.017731,0.038493,0.049222,-3.8e-05,-0.000211
562500,0.105781,-0.016962,0.028744,0.087266,-0.0,-0.0,3.0,0.3261,0.340227,0.3261,0.311089,,,,,,,0.104065,-0.017732,0.038489,0.074809,-4e-05,-0.000221
562520,0.107984,-0.016863,0.028631,0.087266,-0.0,-0.0,3.0,0.3261,0.340083,0.3261,0.311252,,,,,,,0.10578,-0.017733,0.038485,0.12218,-3e-05,-0.000232
562540,0.110056,-0.01689,0.028641,0.087266,-0.0,-0.0,3.0,0.3261,0.335701,0.3261,0.3161,,,,,,,0.107373,-0.017734,0.03848,0.194218,-4.5e-05,-0.00023
562560,0.11201,-0.017154,0.028547,0.087266,-0.0,-0.0,3.0,0.3261,0.330711,0.3261,0.321399,,,,,,,0.109088,-0.017734,0.038475,0.194034,-4.6e-05,-0.00024
562580,0.113843,-0.0173,0.028567,0.087266,-0.0,-0.0,3.0,0.3261,0.330094,0.3261,0.322039,,,,,,,0.111042,-0.017735,0.03847,0.121594,-6e-05,-0.00025
562600,0.115315,-0.017191,0.02845,0.087266,-0.0,-0.0,3.0,0.3261,0.33281,0.3261,0.319197,,,,,,,0.112991,-0.017737,0.038465,0.050618,-5e-05,-0.000249
562620,0.116788,-0.017082,0.028333,0.087266,-0.0,-0.0,3.0,0.3261,0.337251,0.3261,0.314406,,,,,,,0.11495,-0.017738,0.03846,0.000198,-5.2e-05,-0.000248
562640,0.118253,-0.016857,0.028325,0.087266,-0.0,-0.0,3.0,0.3261,0.33959,0.3261,0.311807,,,,,,,0.11654,-0.017739,0.038456,0.02503,-4.2e-05,-0.000247
562660,0.119479,-0.016874,0.028336,0.087266,-0.0,-0.0,3.0,0.3261,0.338754,0.3261,0.312742,,,,,,,0.117891,-0.01774,0.03845,0.049296,-3.1e-05,-0.000258
562680,0.120708,-0.016761,0.028217,0.087266,-0.0,-0.0,3.0,0.3261,0.337587,0.3261,0.314035,,,,,,,0.118987,-0.01774,0.038445,0.099288,-3.2e-05,-0.000256
562700,0.121802,-0.016897,0.028229,0.087266,-0.0,-0.0,3.0,0.3261,0.335129,0.3261,0.316719,,,,,,,0.119972,-0.017741,0.03844,0.048605,-4.5e-05,-0.000267
562720,0.122653,-0.01703,0.02824,0.087266,-0.0,-0.0,3.0,0.3261,0.335418,0.3261,0.316406,,,,,,,0.120947,-0.017742,0.038434,0.024208,-5.7e-05,-0.000277
562740,0.123269,-0.017153,0.028133,0.087266,-0.0,-0.0,3.0,0.3261,0.333914,0.3261,0.318024,,,,,,,0.121688,-0.017743,0.038429,0.048379,-4.6e-05,-0.000277
562760,0.124,-0.017162,0.028137,0.087266,-0.0,-0.0,3.0,0.3261,0.330569,0.3261,0.321547,,,,,,,0.122178,-0.017743,0.038423,0.072084,-4.7e-05,-0.000276
562780,0.124613,-0.016926,0.028124,0.087266,-0.0,-0.0,3.0,0.3261,0.331435,0.3261,0.320645,,,,,,,0.122788,-0.017744,0.038418,0.048278,-2.3e-05,-0.000277
562800,0.125231,-0.016813,0.028124,0.087266,-0.0,-0.0,3.0,0.3261,0.331042,0.3261,0.321054,,,,,,,0.123274,-0.017745,0.038412,0.024722,-1.1e-05,-0.000277
562820,0.12548,-0.016565,0.027988,0.087266,-0.0,-0.0,3.0,0.3261,0.330159,0.3261,0.321971,,,,,,,0.123769,-0.017745,0.038407,0.000358,-1.2e-05,-0.000275
562840,0.125723,-0.016568,0.027989,0.087266,-0.0,-0.0,3.0,0.3261,0.329699,0.3261,0.322446,,,,,,,0.124134,-0.017746,0.038401,0.024645,-1.2e-05,-0.000275
562860,0.126087,-0.016694,0.027998,0.087266,-0.0,-0.0,3.0,0.3261,0.332182,0.3261,0.31986,,,,,,,0.124745,-0.017746,0.038396,-0.000104,-2.4e-05,-0.000285
562880,0.126696,-0.016702,0.028,0.087266,-0.0,-0.0,3.0,0.3261,0.338645,0.3261,0.312863,,,,,,,0.125482,-0.017746,0.03839,-0.049759,-2.5e-05,-0.000285
562900,0.127188,-0.016953,0.028023,0.087266,-0.0,-0.0,3.0,0.3261,0.340338,0.3261,0.310963,,,,,,,0.126092,-0.017747,0.038384,-0.024575,-3.8e-05,-0.000282
562920,0.127798,-0.016839,0.028018,0.087266,-0.0,-0.0,3.0,0.3261,0.337409,0.3261,0.314232,,,,,,,0.126337,-0.017747,0.038378,0.072733,-2.6e-05,-0.000294
562940,0.128658,-0.016964,0.027912,0.087266,-0.0,-0.0,3.0,0.3261,0.337139,0.3261,0.31453,,,,,,,0.126823,-0.017748,0.038373,0.098773,-2.7e-05,-0.000293
562960,0.129514,-0.016731,0.0279,0.087266,-0.0,-0.0,3.0,0.3261,0.333938,0.3261,0.317998,,,,,,,0.127311,-0.017748,0.038367,0.099063,-1.5e-05,-0.000293
562980,0.130002,-0.016737,0.027902,0.087266,-0.0,-0.0,3.0,0.3261,0.332672,0.3261,0.319344,,,,,,,0.12793,-0.017749,0.038361,0.024266,-1.5e-05,-0.000292
563000,0.13037,-0.016612,0.027773,0.087266,-0.0,-0.0,3.0,0.3261,0.333223,0.3261,0.31876,,,,,,,0.12854,-0.017749,0.038355,-9.7e-05,-1.6e-05,-0.000292
563020,0.130612,-0.016737,0.027782,0.087266,-0.0,-0.0,3.0,0.3261,0.333753,0.3261,0.318196,,,,,,,0.129147,-0.017749,0.038349,-0.024113,-1.7e-05,-0.000291
563040,0.130983,-0.016864,0.027797,0.087266,-0.0,-0.0,3.0,0.3261,0.338831,0.3261,0.312656,,,,,,,0.129886,-0.01775,0.038343,-0.023909,-1.7e-05,-0.000302
563060,0.131472,-0.016749,0.027791,0.087266,-0.0,-0.0,3.0,0.3261,0.343622,0.3261,0.307195,,,,,,,0.130614,-0.01775,0.038337,-0.023612,-3e-05,-0.0003
563080,0.132079,-0.016878,0.027801,0.087266,-0.0,-0.0,3.0,0.3261,0.343345,0.3261,0.307518,,,,,,,0.130856,-0.017751,0.038331,0.024753,-4.2e-05,-0.000298
563100,0.132575,-0.016885,0.027808,0.087266,-0.0,-0.0,3.0,0.3261,0.338172,0.3261,0.313389,,,,,,,0.130857,-0.017752,0.038325,0.099169,-4.2e-05,-0.000309
563120,0.132816,-0.017124,0.027704,0.087266,-0.0,-0.0,3.0,0.3261,0.332638,0.3261,0.319379,,,,,,,0.130862,-0.017752,0.038319,0.073447,-5.5e-05,-0.000296
563140,0.132816,-0.017124,0.027704,0.087266,-0.0,-0.0,3.0,0.3261,0.328895,0.3261,0.323273,,,,,,,0.130862,-0.017753,0.038313,0.073949,-4.2e-05,-0.000308
563160,0.132692,-0.017244,0.027711,0.087266,-0.0,-0.0,3.0,0.3261,0.329729,0.3261,0.322416,,,,,,,0.130987,-0.017754,0.038307,-0.04917,-2.9e-05,-0.000309
563180,0.132201,-0.016993,0.027688,0.087266,-0.0,-0.0,3.0,0.3261,0.333189,0.3261,0.318795,,,,,,,0.131112,-0.017755,0.038301,-0.098713,-2.9e-05,-0.000296
563200,0.131714,-0.016874,0.0278,0.087266,-0.0,-0.0,3.0,0.3261,0.334444,0.3261,0.317456,,,,,,,0.130981,-0.017756,0.038295,-0.072277,-2.9e-05,-0.000308
563220,0.131717,-0.016744,0.02767,0.087266,-0.0,-0.0,3.0,0.3261,0.338877,0.3261,0.312604,,,,,,,0.130978,-0.017757,0.038289,0.00106,-2.9e-05,-0.000307
563240,0.131956,-0.016998,0.027809,0.087266,-0.0,-0.0,3.0,0.3261,0.341304,0.3261,0.309867,,,,,,,0.130975,-0.017758,0.038283,-0.02361,-5.4e-05,-0.000293
563260,0.132321,-0.017003,0.02781,0.087266,-0.0,-0.0,3.0,0.3261,0.341059,0.3261,0.310146,,,,,,,0.130855,-0.017758,0.038277,0.024302,-6.6e-05,-0.000291
563280,0.132449,-0.017127,0.027824,0.087266,-0.0,-0.0,3.0,0.3261,0.336248,0.3261,0.315505,,,,,,,0.130735,-0.017759,0.038271,0.073996,-6.6e-05,-0.00029
563300,0.132813,-0.017254,0.027834,0.087266,-0.0,-0.0,3.0,0.3261,0.332975,0.3261,0.319023,,,,,,,0.130743,-0.01776,0.038265,0.072889,-4.3e-05,-0.000279
563320,0.132935,-0.017255,0.027834,0.087266,-0.0,-0.0,3.0,0.3261,0.336359,0.3261,0.315383,,,,,,,0.131234,-0.017761,0.03826,-9.7e-05,-3e-05,-0.000291
563340,0.132815,-0.017132,0.027825,0.087266,-0.0,-0.0,3.0,0.3261,0.337004,0.3261,0.314678,,,,,,,0.131476,-0.017762,0.038254,-0.047907,-1.7e-05,-0.000292
563360,0.132698,-0.016879,0.027687,0.087266,-0.0,-0.0,3.0,0.3261,0.338186,0.3261,0.313374,,,,,,,0.131593,-0.017763,0.038248,-0.047909,-5.4e-05,-0.000289
563380,0.132576,-0.016877,0.027687,0.087266,-0.0,-0.0,3.0,0.3261,0.341277,0.3261,0.309897,,,,,,,0.131715,-0.017764,0.038242,-0.047707,-4.2e-05,-0.000289
563400,0.132444,-0.016996,0.027689,0.087266,-0.0,-0.0,3.0,0.3261,0.339763,0.3261,0.311612,,,,,,,0.131468,-0.017765,0.038236,0.000685,-7.7e-05,-0.000298
563420,0.132442,-0.017118,0.027697,0.087266,-0.0,-0.0,3.0,0.3261,0.340841,0.3261,0.310394,,,,,,,0.131349,-0.017766,0.03823,0.000195,-6.6e-05,-0.000286
563440,0.132198,-0.017123,0.027818,0.087266,-0.0,-0.0,3.0,0.3261,0.335916,0.3261,0.315866,,,,,,,0.130859,-0.017767,0.038224,0.023317,-6.6e-05,-0.000274
563460,0.132073,-0.017251,0.027947,0.087266,-0.0,-0.0,3.0,0.3261,0.338358,0.3261,0.313182,,,,,,,0.130736,-0.017768,0.038219,-0.000489,-5.3e-05,-0.000274
563480,0.131952,-0.017136,0.02806,0.087266,-0.0,-0.0,3.0,0.3261,0.335186,0.3261,0.316657,,,,,,,0.130371,-0.017769,0.038213,0.024157,-4.1e-05,-0.000275
563500,0.131832,-0.017013,0.028052,0.087266,-0.0,-0.0,3.0,0.3261,0.335871,0.3261,0.315915,,,,,,,0.130249,-0.01777,0.038208,0.024163,-4.1e-05,-0.000274
563520,0.13171,-0.017011,0.028051,0.087266,-0.0,-0.0,3.0,0.3261,0.337026,0.3261,0.314653,,,,,,,0.130248,-0.017771,0.038203,0.00013,-4e-05,-0.000274
563540,0.131708,-0.017247,0.027946,0.087266,-0.0,-0.0,3.0,0.3261,0.337956,0.3261,0.313628,,,,,,,0.130246,-0.017772,0.038197,-0.024361,-5.3e-05,-0.00026
563560,0.131588,-0.017124,0.027937,0.087266,-0.0,-0.0,3.0,0.3261,0.341264,0.3261,0.309912,,,,,,,0.130367,-0.017773,0.038192,-0.048415,-5.3e-05,-0.00026
563580,0.131464,-0.017244,0.027945,0.087266,-0.0,-0.0,3.0,0.3261,0.339197,0.3261,0.312247,,,,,,,0.130246,-0.017775,0.038187,0.000257,-5.2e-05,-0.000271
563600,0.131469,-0.016992,0.027807,0.087266,-0.0,-0.0,3.0,0.3261,0.339749,0.3261,0.311627,,,,,,,0.130247,-0.017776,0.038181,0.000605,-3.9e-05,-0.000284
563620,0.131469,-0.016992,0.027807,0.087266,-0.0,-0.0,3.0,0.3261,0.343504,0.3261,0.307333,,,,,,,0.130366,-0.017777,0.038176,-0.07246,-6.3e-05,-0.000282
563640,0.131224,-0.017103,0.027692,0.087266,-0.0,-0.0,3.0,0.3261,0.343338,0.3261,0.307525,,,,,,,0.130246,-0.017778,0.03817,-0.024412,-7.4e-05,-0.000292
563660,0.130979,-0.017222,0.027699,0.087266,-0.0,-0.0,3.0,0.3261,0.338035,0.3261,0.31354,,,,,,,0.129762,-0.017779,0.038164,0.047712,-7.4e-05,-0.000292
563680,0.130976,-0.017466,0.027715,0.087266,-0.0,-0.0,3.0,0.3261,0.338085,0.3261,0.313485,,,,,,,0.129519,-0.01778,0.038158,0.047719,-7.4e-05,-0.000291
563700,0.130854,-0.01735,0.027828,0.087266,-0.0,-0.0,3.0,0.3261,0.340029,0.3261,0.311313,,,,,,,0.129395,-0.017781,0.038152,0.000335,-4.9e-05,-0.000293
563720,0.130489,-0.017346,0.027827,0.087266,-0.0,-0.0,3.0,0.3261,0.335968,0.3261,0.315809,,,,,,,0.129023,-0.017783,0.038147,-0.000557,-6.1e-05,-0.00028
563740,0.130241,-0.017098,0.027805,0.087266,-0.0,-0.0,3.0,0.3261,0.335902,0.3261,0.315881,,,,,,,0.128776,-0.017784,0.038141,-0.024434,-6.1e-05,-0.000267
563760,0.129627,-0.017342,0.02794,0.087266,-0.0,-0.0,3.0,0.3261,0.337194,0.3261,0.314468,,,,,,,0.128653,-0.017786,0.038136,-0.048466,-7.2e-05,-0.000278
563780,0.129384,-0.017339,0.027939,0.087266,-0.0,-0.0,3.0,0.3261,0.342178,0.3261,0.308866,,,,,,,0.128525,-0.017787,0.03813,-0.071722,-7.3e-05,-0.000265
563800,0.12914,-0.017336,0.027938,0.087266,-0.0,-0.0,3.0,0.3261,0.345214,0.3261,0.305328,,,,,,,0.128407,-0.017789,0.038125,-0.073171,-9.7e-05,-0.000263
563820,0.128895,-0.017455,0.027945,0.087266,-0.0,-0.0,3.0,0.3261,0.344216,0.3261,0.306501,,,,,,,0.128038,-0.017791,0.03812,0.000436,-9.6e-05,-0.000275
563840,0.128772,-0.017567,0.02783,0.087266,-0.0,-0.0,3.0,0.3261,0.341303,0.3261,0.309868,,,,,,,0.127552,-0.017792,0.038114,0.048503,-0.000107,-0.000274
563860,0.128772,-0.017567,0.02783,0.087266,-0.0,-0.0,3.0,0.3261,0.338446,0.3261,0.313085,,,,,,,0.12706,-0.017794,0.038109,0.073989,-9.5e-05,-0.000274
563880,0.128397,-0.017683,0.027831,0.087266,-0.0,-0.0,3.0,0.3261,0.333448,0.3261,0.31852,,,,,,,0.126576,-0.017796,0.038103,0.071777,-9.4e-05,-0.000274
563900,0.128154,-0.01768,0.02783,0.087266,-0.0,-0.0,3.0,0.3261,0.33468,0.3261,0.317202,,,,,,,0.126455,-0.017798,0.038098,-0.000397,-6.9e-05,-0.000276
563920,0.12767,-0.017431,0.027813,0.087266,-0.0,-0.0,3.0,0.3261,0.339709,0.3261,0.311672,,,,,,,0.126453,-0.017799,0.038092,-0.072759,-6.8e-05,-0.000275
563940,0.127183,-0.017425,0.02781,0.087266,-0.0,-0.0,3.0,0.3261,0.338996,0.3261,0.312472,,,,,,,0.126207,-0.017801,0.038087,-0.047882,-6.7e-05,-0.000287
563960,0.127063,-0.017301,0.027802,0.087266,-0.0,-0.0,3.0,0.3261,0.3453,0.3261,0.305226,,,,,,,0.126324,-0.017803,0.038081,-0.047819,-9.2e-05,-0.000273
563980,0.127057,-0.017667,0.027825,0.087266,-0.0,-0.0,3.0,0.3261,0.347597,0.3261,0.30248,,,,,,,0.126201,-0.017805,0.038076,-0.048225,-0.000116,-0.00027
564000,0.126934,-0.017787,0.027833,0.087266,-0.0,-0.0,3.0,0.3261,0.344857,0.3261,0.305748,,,,,,,0.125713,-0.017807,0.03807,0.047768,-0.000152,-0.000268
564020,0.12681,-0.017907,0.02784,0.087266,-0.0,-0.0,3.0,0.3261,0.341542,0.3261,0.309595,,,,,,,0.125345,-0.017809,0.038065,0.048861,-0.000128,-0.000257
564040,0.126438,-0.017788,0.027947,0.087266,-0.0,-0.0,3.0,0.3261,0.334922,0.3261,0.316942,,,,,,,0.124741,-0.017811,0.03806,0.046929,-0.000103,-0.000258
564060,0.125829,-0.017666,0.028058,0.087266,-0.0,-0.0,3.0,0.3261,0.332578,0.3261,0.319443,,,,,,,0.124254,-0.017813,0.038054,-0.024759,-6.5e-05,-0.000261
564080,0.124982,-0.01729,0.028032,0.087266,-0.0,-0.0,3.0,0.3261,0.337271,0.3261,0.314384,,,,,,,0.124006,-0.017815,0.038049,-0.120552,-4e-05,-0.00025
564100,0.123878,-0.017161,0.028136,0.087266,-0.0,-0.0,3.0,0.3261,0.33803,0.3261,0.313546,,,,,,,0.123397,-0.017816,0.038044,-0.098509,-6.4e-05,-0.000248
564120,0.123146,-0.017273,0.02814,0.087266,-0.0,-0.0,3.0,0.3261,0.338785,0.3261,0.312707,,,,,,,0.122656,-0.017818,0.03804,-0.024212,-7.6e-05,-0.000235
564140,0.122653,-0.017633,0.028161,0.087266,-0.0,-0.0,3.0,0.3261,0.343526,0.3261,0.307307,,,,,,,0.122163,-0.017819,0.038035,-0.072344,-9.9e-05,-0.000234
564160,0.122035,-0.017631,0.028275,0.087266,-0.0,-0.0,3.0,0.3261,0.342363,0.3261,0.308653,,,,,,,0.121303,-0.017821,0.03803,-0.048097,-9.8e-05,-0.000234
564180,0.121302,-0.017744,0.028279,0.087266,-0.0,-0.0,3.0,0.3261,0.335607,0.3261,0.316202,,,,,,,0.120086,-0.017823,0.038026,0.047714,-0.000122,-0.00022
564200,0.120564,-0.017733,0.02827,0.087266,-0.0,-0.0,3.0,0.3261,0.332114,0.3261,0.319932,,,,,,,0.119107,-0.017825,0.038021,0.023606,-9.6e-05,-0.000222
564220,0.11959,-0.017607,0.02838,0.087266,-0.0,-0.0,3.0,0.3261,0.3311,0.3261,0.320994,,,,,,,0.118254,-0.017827,0.038017,-0.025023,-9.4e-05,-0.000222
564240,0.118862,-0.017468,0.028248,0.087266,-0.0,-0.0,3.0,0.3261,0.334757,0.3261,0.31712,,,,,,,0.117645,-0.017829,0.038013,-0.048249,-5.7e-05,-0.000224
564260,0.117884,-0.017211,0.028223,0.087266,-0.0,-0.0,3.0,0.3261,0.336382,0.3261,0.315358,,,,,,,0.117028,-0.01783,0.038008,-0.096918,-5.6e-05,-0.000213
564280,0.117153,-0.017087,0.028335,0.087266,-0.0,-0.0,3.0,0.3261,0.339359,0.3261,0.312066,,,,,,,0.116419,-0.017831,0.038004,-0.07219,-4.3e-05,-0.000213
564300,0.116666,-0.017081,0.028333,0.087266,-0.0,-0.0,3.0,0.3261,0.338776,0.3261,0.312718,,,,,,,0.115685,-0.017833,0.038,-0.023424,-5.5e-05,-0.000212
564320,0.116166,-0.017439,0.028347,0.087266,-0.0,-0.0,3.0,0.3261,0.340101,0.3261,0.311231,,,,,,,0.115196,-0.017834,0.037995,-0.025919,-9.1e-05,-0.000198
564340,0.115676,-0.017562,0.028473,0.087266,-0.0,-0.0,3.0,0.3261,0.339291,0.3261,0.312142,,,,,,,0.114699,-0.017836,0.037991,-0.000104,-0.000102,-0.000197
564360,0.115428,-0.017802,0.028486,0.087266,-0.0,-0.0,3.0,0.3261,0.339009,0.3261,0.312457,,,,,,,0.114212,-0.017837,0.037987,-0.000827,-0.000126,-0.000196
564380,0.114941,-0.017796,0.028484,0.087266,-0.0,-0.0,3.0,0.3261,0.339973,0.3261,0.311375,,,,,,,0.113847,-0.017839,0.037983,-0.024631,-0.000101,-0.000197
564400,0.114453,-0.01779,0.028481,0.087266,-0.0,-0.0,3.0,0.3261,0.339842,0.3261,0.311523,,,,,,,0.113362,-0.017841,0.037979,-0.000717,-0.0001,-0.000197
564420,0.114328,-0.017543,0.028462,0.087266,-0.0,-0.0,3.0,0.3261,0.335831,0.3261,0.315958,,,,,,,0.112747,-0.017843,0.037976,0.048238,-7.5e-05,-0.000198
564440,0.113964,-0.017417,0.028453,0.087266,-0.0,-0.0,3.0,0.3261,0.339713,0.3261,0.311668,,,,,,,0.112622,-0.017845,0.037972,-0.048182,-7.4e-05,-0.000198
564460,0.113477,-0.017411,0.028451,0.087266,-0.0,-0.0,3.0,0.3261,0.34,0.3261,0.311345,,,,,,,0.112258,-0.017847,0.037968,-0.048541,-7.3e-05,-0.000198
564480,0.112867,-0.01741,0.02857,0.087266,-0.0,-0.0,3.0,0.3261,0.336765,0.3261,0.31494,,,,,,,0.111769,-0.017848,0.037964,-0.024573,-8.6e-05,-0.000185
564500,0.112255,-0.017524,0.028574,0.087266,-0.0,-0.0,3.0,0.3261,0.336814,0.3261,0.314885,,,,,,,0.111284,-0.01785,0.03796,-0.024572,-7.3e-05,-0.000186
564520,0.111518,-0.017398,0.02868,0.087266,-0.0,-0.0,3.0,0.3261,0.340814,0.3261,0.310424,,,,,,,0.110915,-0.017851,0.037956,-0.098091,-7.2e-05,-0.000186
564540,0.110909,-0.01739,0.028677,0.087266,-0.0,-0.0,3.0,0.3261,0.342186,0.3261,0.308857,,,,,,,0.110298,-0.017853,0.037953,-0.048683,-8.4e-05,-0.000173
564560,0.110179,-0.017259,0.028667,0.087266,-0.0,-0.0,3.0,0.3261,0.338008,0.3261,0.313571,,,,,,,0.109322,-0.017854,0.037949,-0.0,-8.3e-05,-0.000173
564580,0.109681,-0.017495,0.028673,0.087266,-0.0,-0.0,3.0,0.3261,0.335281,0.3261,0.316554,,,,,,,0.108467,-0.017856,0.037946,0.048953,-8.2e-05,-0.000173
564600,0.109072,-0.017487,0.02867,0.087266,-0.0,-0.0,3.0,0.3261,0.33404,0.3261,0.317889,,,,,,,0.107733,-0.017857,0.037942,0.024305,-6.8e-05,-0.000174
564620,0.108219,-0.017476,0.028665,0.087266,-0.0,-0.0,3.0,0.3261,0.331667,0.3261,0.320401,,,,,,,0.106885,-0.017858,0.037939,-0.024935,-5.4e-05,-0.000175
564640,0.107361,-0.017342,0.028649,0.087266,-0.0,-0.0,3.0,0.3261,0.332678,0.3261,0.319338,,,,,,,0.106145,-0.01786,0.037935,-0.048719,-4.2e-05,-0.000164
564660,0.106385,-0.017336,0.028766,0.087266,-0.0,-0.0,3.0,0.3261,0.331452,0.3261,0.320627,,,,,,,0.105412,-0.017861,0.037932,-0.072837,-5.2e-05,-0.000164
564680,0.105405,-0.0172,0.02875,0.087266,-0.0,-0.0,3.0,0.3261,0.33799,0.3261,0.313591,,,,,,,0.104918,-0.017863,0.037929,-0.120406,-6.3e-05,-0.000175
564700,0.104428,-0.017309,0.028752,0.087266,-0.0,-0.0,3.0,0.3261,0.339618,0.3261,0.311775,,,,,,,0.104185,-0.017864,0.037925,-0.122431,-9.8e-05,-0.000174
564720,0.103695,-0.017421,0.028754,0.087266,-0.0,-0.0,3.0,0.3261,0.338623,0.3261,0.312887,,,,,,,0.103083,-0.017866,0.037922,-0.049184,-0.00011,-0.000161
564740,0.102956,-0.017532,0.028752,0.087266,-0.0,-0.0,3.0,0.3261,0.338158,0.3261,0.313404,,,,,,,0.102108,-0.017867,0.037919,-0.024805,-9.7e-05,-0.00015
564760,0.102221,-0.017651,0.028876,0.087266,-0.0,-0.0,3.0,0.3261,0.332138,0.3261,0.319907,,,,,,,0.100888,-0.017869,0.037916,0.072014,-7.2e-05,-0.000151
564780,0.101734,-0.017529,0.028989,0.087266,-0.0,-0.0,3.0,0.3261,0.328737,0.3261,0.323435,,,,,,,0.100035,-0.01787,0.037913,0.072217,-5.9e-05,-0.00014
564800,0.100881,-0.017518,0.028985,0.087266,-0.0,-0.0,3.0,0.3261,0.327739,0.3261,0.324451,,,,,,,0.099425,-0.017872,0.03791,-0.025633,-4.5e-05,-0.000141
564820,0.100147,-0.017263,0.028963,0.087266,-0.0,-0.0,3.0,0.3261,0.332129,0.3261,0.319916,,,,,,,0.098926,-0.017873,0.037907,-0.096696,-5.6e-05,-0.000141
564840,0.099172,-0.01725,0.028959,0.087266,-0.0,-0.0,3.0,0.3261,0.33406,0.3261,0.317868,,,,,,,0.09844,-0.017874,0.037904,-0.097426,-6.7e-05,-0.00014
564860,0.098562,-0.017242,0.028955,0.087266,-0.0,-0.0,3.0,0.3261,0.337844,0.3261,0.313752,,,,,,,0.09795,-0.017876,0.037901,-0.072583,-6.7e-05,-0.00014
564880,0.098067,-0.017356,0.028954,0.087266,-0.0,-0.0,3.0,0.3261,0.340052,0.3261,0.311286,,,,,,,0.097463,-0.017877,0.037899,-0.073344,-7.9e-05,-0.000127
