time_ms,roll,pitch,yaw,roll_rate,pitch_rate,yaw_rate,reference_roll,reference_pitch,reference_yaw,reference_throttle,throttle_1,throttle_2,throttle_3,throttle_4,roll_predicted,pitch_predicted,yaw_predicted,roll_rate_predicted,pitch_rate_predicted,yaw_rate_predicted
436733,-0.000942,0.000356,0.232122,0.001064,-0.001065,-0.001063,-0.0,-0.0,-0.0,3.0,0.3261,0.311477,0.3261,0.339883,,,,,,
436753,-0.000849,9.9e-05,0.232594,0.001064,-0.002129,-0.001062,0.000468,-0.0,-0.0,3.0,0.3261,0.311333,0.3261,0.34001,,,,,,
436773,-0.000727,8.5e-05,0.233108,0.001064,-0.002129,-0.001063,0.001394,-0.0,-0.0,3.0,0.3261,0.311034,0.3261,0.340276,,,,,,
436793,-0.000606,7.1e-05,0.23358,0.001064,-0.002129,-0.001063,0.001858,-0.0,-0.0,3.0,0.3261,0.309608,0.3261,0.341531,,,,,,
436813,-0.000364,4.3e-05,0.233934,-0.0,-0.001065,-0.001064,0.002488,-0.0,-0.0,3.0,0.3261,0.309438,0.3261,0.341679,,,,,,
436833,-0.000349,0.000164,0.23433,-0.0,-0.001065,-0.001064,0.003641,-0.0,-0.0,3.0,0.3261,0.307707,0.3261,0.343181,,,,,,
436853,-0.000228,0.00015,0.234802,-0.001064,-0.001064,-0.001064,0.004173,-0.0,-0.0,3.0,0.3261,0.307505,0.3261,0.343355,,,,,,
436873,-0.0002,0.000392,0.235198,-0.001065,-0.0,-0.001064,0.005456,-0.0,-0.0,3.0,0.3261,0.308287,0.3261,0.342681,,,,,,
436893,5.7e-05,0.000485,0.235552,-0.001065,0.0,-0.001064,0.006099,-0.0,-0.0,3.0,0.3261,0.308069,0.3261,0.342869,,,,,,
436913,0.000222,0.000834,0.235905,-0.001066,0.001065,-0.002128,0.007115,-0.0,-0.0,3.0,0.3261,0.308967,0.3261,0.34209,,,,,,
436933,0.000265,0.001198,0.236184,-3e-06,0.001065,-0.002128,0.008032,-0.0,-0.0,3.0,0.3261,0.308561,0.3261,0.342443,,,,,,
436953,0.000294,0.00144,0.236537,-3e-06,1e-06,-0.002128,0.008969,-0.0,-0.0,3.0,0.3261,0.306836,0.3261,0.34393,,,,,,
436973,0.000173,0.001455,0.236773,-0.001067,0.0,-0.002128,0.009435,-0.0,-0.0,3.0,0.3261,0.306506,0.3261,0.344212,,,,,,
436993,0.000416,0.001426,0.237008,-0.002131,1e-06,-0.002128,0.010361,-0.0,-0.0,3.0,0.3261,0.306131,0.3261,0.344532,,,,,,
437013,0.000765,0.001261,0.237405,-0.002131,2e-06,-0.002128,0.011622,-0.0,-0.0,3.0,0.3261,0.305659,0.3261,0.344933,,,,,,
437033,0.000993,0.001111,0.23764,-0.00213,1e-06,-0.001064,0.012347,-0.0,-0.0,3.0,0.3261,0.306625,0.3261,0.344111,,,,,,
437053,0.000993,0.001111,0.237876,-0.00213,1e-06,-0.001064,0.01351,-0.0,-0.0,3.0,0.3261,0.307343,0.3261,0.343495,,,,,,
437073,0.001115,0.001096,0.238229,-1e-06,1e-06,-0.001064,0.014193,-0.0,-0.0,3.0,0.3261,0.308258,0.3261,0.342706,,,,,,
437093,0.001129,0.001217,0.238508,0.001062,2e-06,-0.002128,0.015196,-0.0,-0.0,3.0,0.3261,0.307724,0.3261,0.343167,,,,,,
437113,0.001386,0.001309,0.238743,0.002127,-0.001063,-0.001066,0.015658,-0.0,-0.0,3.0,0.3261,0.307456,0.3261,0.343398,,,,,,
437133,0.002022,0.001478,0.239095,0.002127,-0.002126,-0.001069,0.016604,-0.0,-0.0,3.0,0.3261,0.305846,0.3261,0.344775,,,,,,
437153,0.002628,0.001405,0.239491,0.002127,-0.002126,-0.00107,0.017168,-0.0,-0.0,3.0,0.3261,0.305655,0.3261,0.344937,,,,,,
437173,0.00384,0.001259,0.239842,0.001063,-0.002124,-0.001072,0.017921,-0.0,-0.0,3.0,0.3261,0.305609,0.3261,0.344976,,,,,,
437193,0.004689,0.001155,0.240355,0.001063,-0.002123,-0.001074,0.017921,-0.0,-0.0,3.0,0.3261,0.305711,0.3261,0.344889,,,,,,
437213,0.00578,0.001022,0.240824,0.002127,-0.001058,-0.00107,0.020031,-0.0,-0.0,3.0,0.3261,0.306452,0.3261,0.344258,,,,,,
437233,0.00675,0.000904,0.241218,0.003192,-0.001057,-0.001071,0.020735,-0.0,-0.0,3.0,0.3261,0.307639,0.3261,0.34324,,,,,,
437253,0.007598,0.000799,0.241569,0.004256,8e-06,-0.001064,0.021915,-0.0,-0.0,3.0,0.3261,0.307325,0.3261,0.343511,,,,,,
437273,0.009082,0.000864,0.241917,0.004256,-0.001055,-0.001074,0.022909,-0.0,-0.0,3.0,0.3261,0.306002,0.3261,0.344642,,,,,,
437293,0.010823,0.00102,0.242189,0.004256,-0.001053,-0.001076,0.023351,-0.0,-0.0,3.0,0.3261,0.304967,0.3261,0.345519,,,,,,
437313,0.012942,0.001252,0.242413,0.004256,-0.002114,-0.001092,0.024235,-0.0,-0.0,3.0,0.3261,0.30653,0.3261,0.344192,,,,,,
437333,0.015046,0.001363,0.242636,0.004257,-0.002128,-3.2e-05,0.025116,-0.0,-0.0,3.0,0.3261,0.308093,0.3261,0.342848,,,,,,
437353,0.017394,0.001443,0.242899,0.003191,-0.001046,-0.001083,0.026109,-0.0,-0.0,3.0,0.3261,0.309707,0.3261,0.341444,,,,,,
437373,0.019847,0.001387,0.243117,0.004255,-0.001043,-0.001085,0.027051,-0.0,-0.0,3.0,0.3261,0.311382,0.3261,0.339967,,,,,,
437393,0.022422,0.001317,0.243259,0.00532,2.4e-05,-0.001064,0.027571,-0.0,-0.0,3.0,0.3261,0.31199,0.3261,0.339426,,,,,,
437413,0.02486,0.001142,0.243239,0.00532,2.6e-05,-0.001064,0.028344,-0.0,-0.0,3.0,0.3261,0.312492,0.3261,0.338978,,,,,,
437433,0.027812,0.00115,0.24321,0.005321,0.001064,3e-05,0.029562,-0.0,-0.0,3.0,0.3261,0.313038,0.3261,0.338487,,,,,,
437453,0.031113,0.000992,0.243176,0.005321,0.001064,3.3e-05,0.029992,-0.0,-0.0,3.0,0.3261,0.313998,0.3261,0.337622,,,,,,
437473,0.034552,0.000945,0.242944,0.006385,0.001064,3.7e-05,0.030874,-0.0,-0.0,3.0,0.3261,0.316128,0.3261,0.335675,,,,,,
437493,0.038004,0.001018,0.242779,0.006385,0.0,0.0,0.031739,-0.0,-0.0,3.0,0.3261,0.318282,0.3261,0.333672,,,,,,
437513,0.041441,0.000972,0.242495,0.00745,0.0,0.0,0.03262,-0.0,-0.0,3.0,0.3261,0.319216,0.3261,0.332793,,,,,,
437533,0.045274,0.001125,0.24224,0.007448,4.8e-05,-0.001063,0.033529,-0.0,-0.0,3.0,0.3261,0.321521,0.3261,0.330594,,,,,,
437553,0.049316,0.001007,0.241938,0.008513,5.2e-05,-0.001063,0.033529,-0.0,-0.0,3.0,0.3261,0.323008,0.3261,0.329153,,,,,,
437573,0.053468,0.000757,0.241558,0.008514,0.0,0.0,0.034938,-0.0,-0.0,3.0,0.3261,0.325305,0.3261,0.326893,,,,,,
437593,0.057848,0.000355,0.24129,0.008514,0.0,0.0,0.035646,-0.0,-0.0,3.0,0.3261,0.326731,0.3261,0.325468,,,,,,
437613,0.062122,9e-05,0.241015,0.009578,0.0,0.0,0.036397,-0.0,-0.0,3.0,0.3261,0.329328,0.3261,0.322829,,,,,,
437633,0.066377,-0.000292,0.240577,0.009578,-7.1e-05,0.001062,0.037346,-0.0,-0.0,3.0,0.3261,0.330705,0.3261,0.321405,,,,,,
437653,0.070802,-0.000323,0.240164,0.010642,-0.001137,0.000986,0.038176,-0.0,-0.0,3.0,0.3261,0.331045,0.3261,0.321051,,,,,,
437673,0.075198,-0.00059,0.239634,0.010642,-0.002202,0.000901,0.039008,-0.0,-0.0,3.0,0.3261,0.33142,0.3261,0.32066,,,,,,
437693,0.07938,-0.000589,0.239213,0.009577,-0.001145,0.000976,0.039867,-0.0,-0.0,3.0,0.3261,0.331761,0.3261,0.320303,,,,,,
437713,0.083549,-0.000702,0.238673,0.00745,-0.001061,-8.9e-05,0.039867,-0.0,-0.0,3.0,0.3261,0.332415,0.3261,0.319614,,,,,,
437733,0.087703,-0.000935,0.238133,0.006385,0.0,0.0,0.041315,-0.0,-0.0,3.0,0.3261,0.33496,0.3261,0.316901,,,,,,
437753,0.091735,-0.001156,0.237709,0.005321,0.00106,9.7e-05,0.041952,-0.0,-0.0,3.0,0.3261,0.336587,0.3261,0.315134,,,,,,
437773,0.09527,-0.001433,0.237181,0.006385,0.001059,0.000101,0.042983,-0.0,-0.0,3.0,0.3261,0.337965,0.3261,0.313618,,,,,,
437793,0.098426,-0.001793,0.236784,0.006385,0.001059,0.000105,0.043513,-0.0,-0.0,3.0,0.3261,0.340538,0.3261,0.310737,,,,,,
437813,0.101233,-0.001986,0.236388,0.006385,0.0,0.0,0.044385,-0.0,-0.0,3.0,0.3261,0.340667,0.3261,0.310591,,,,,,
437833,0.104176,-0.002073,0.235981,0.006385,0.0,0.0,0.045174,-0.0,-0.0,3.0,0.3261,0.340889,0.3261,0.310339,,,,,,
437853,0.106899,-0.001892,0.235641,0.005321,0.0,0.0,0.045567,-0.0,-0.0,3.0,0.3261,0.340067,0.3261,0.31127,,,,,,
437873,0.109235,-0.001911,0.235365,0.004257,0.0,0.0,0.046225,-0.0,-0.0,3.0,0.3261,0.340196,0.3261,0.311124,,,,,,
437893,0.111195,-0.002008,0.235105,0.002129,-0.001058,-0.000118,0.047003,-0.0,-0.0,3.0,0.3261,0.340191,0.3261,0.311129,,,,,,
437913,0.11279,-0.002068,0.234973,0.001064,-0.001057,-0.00012,0.047718,-0.0,-0.0,3.0,0.3261,0.341232,0.3261,0.309949,,,,,,
437933,0.113639,-0.002161,0.234828,0.001064,-0.001057,-0.000121,0.048773,-0.0,-0.0,3.0,0.3261,0.340827,0.3261,0.310409,,,,,,
437953,0.114229,-0.002354,0.234816,0.0,-0.001057,-0.000121,0.049281,-0.0,-0.0,3.0,0.3261,0.341633,0.3261,0.309491,,,,,,
437973,0.114243,-0.00224,0.234927,2e-06,0.000121,-0.001057,0.050194,-0.0,-0.0,3.0,0.3261,0.341018,0.3261,0.310193,,,,,,
437993,0.114,-0.002218,0.235052,-0.001062,0.001178,-0.000936,0.050966,-0.0,-0.0,3.0,0.3261,0.340358,0.3261,0.310941,,,,,,
438013,0.113757,-0.002196,0.235178,-0.001062,0.001178,-0.000937,0.051716,-0.0,-0.0,3.0,0.3261,0.339689,0.3261,0.311695,,,,,,
438033,0.113513,-0.002181,0.235421,-0.001062,0.000121,-0.001057,0.052523,-0.0,-0.0,3.0,0.3261,0.340119,0.3261,0.311211,,,,,,
438053,0.113133,-0.002273,0.235675,-0.002126,-0.001995,-0.001298,0.053112,-0.0,-0.0,3.0,0.3261,0.340553,0.3261,0.31072,,,,,,
438073,0.112634,-0.002343,0.235814,-0.002128,-0.002115,-0.000239,0.053803,-0.0,-0.0,3.0,0.3261,0.340913,0.3261,0.310312,,,,,,
438093,0.11204,-0.00217,0.23618,-0.002126,-0.000939,-0.001177,0.054384,-0.0,-0.0,3.0,0.3261,0.342378,0.3261,0.308635,,,,,,
438113,0.111447,-0.001997,0.236546,-0.002126,-0.000939,-0.001176,0.054796,-0.0,-0.0,3.0,0.3261,0.342758,0.3261,0.308198,,,,,,
438133,0.111102,-0.001854,0.236947,-0.001062,0.000118,-0.001058,0.055779,-0.0,-0.0,3.0,0.3261,0.343027,0.3261,0.307886,,,,,,
438153,0.110843,-0.001966,0.237314,-0.00106,0.000235,-0.002115,0.056476,-0.0,-0.0,3.0,0.3261,0.343395,0.3261,0.307459,,,,,,
438173,0.110583,-0.002085,0.237799,-0.001062,0.000117,-0.001058,0.057179,-0.0,-0.0,3.0,0.3261,0.343752,0.3261,0.307044,,,,,,
438193,0.110586,-0.002113,0.238312,-0.001062,0.000117,-0.001058,0.057875,-0.0,-0.0,3.0,0.3261,0.345285,0.3261,0.305243,,,,,,
438213,0.110582,-0.002139,0.238783,-0.002124,0.000235,-0.002115,0.058225,-0.0,-0.0,3.0,0.3261,0.345805,0.3261,0.304627,,,,,,
438233,0.110479,-0.002031,0.239293,-0.00106,-0.000823,-0.002233,0.058761,-0.0,-0.0,3.0,0.3261,0.345126,0.3261,0.305432,,,,,,
438253,0.109748,-0.001977,0.239905,-0.002124,-0.001883,-0.002349,0.059931,-0.0,-0.0,3.0,0.3261,0.345165,0.3261,0.305386,,,,,,
438273,0.109003,-0.002043,0.240522,-0.002124,-0.001884,-0.002347,0.059931,-0.0,-0.0,3.0,0.3261,0.344423,0.3261,0.306259,,,,,,
438293,0.108287,-0.001866,0.241126,-0.00319,-0.002001,-0.001288,0.060995,-0.0,-0.0,3.0,0.3261,0.343356,0.3261,0.307505,,,,,,
438313,0.1072,-0.001767,0.241791,-0.004253,-0.00083,-0.00223,0.061737,-0.0,-0.0,3.0,0.3261,0.343364,0.3261,0.307496,,,,,,
438333,0.105863,-0.001643,0.242538,-0.004253,-0.000833,-0.002229,0.062062,-0.0,-0.0,3.0,0.3261,0.3434,0.3261,0.307454,,,,,,
438353,0.104165,-0.001467,0.243177,-0.005318,-0.000837,-0.002228,0.063037,-0.0,-0.0,3.0,0.3261,0.34311,0.3261,0.30779,,,,,,
438373,0.102218,-0.00126,0.24378,-0.004255,-0.00095,-0.001167,0.063355,-0.0,-0.0,3.0,0.3261,0.342913,0.3261,0.308018,,,,,,
438393,0.100143,-0.001152,0.244317,-0.004256,-0.000952,-0.001165,0.063759,-0.0,-0.0,3.0,0.3261,0.341505,0.3261,0.309637,,,,,,
438413,0.097705,-0.000998,0.244864,-0.004255,0.000208,-0.002118,0.064265,-0.0,-0.0,3.0,0.3261,0.339916,0.3261,0.31144,,,,,,
438433,0.095141,-0.000816,0.245134,-0.00532,-0.000958,-0.001161,0.064829,-0.0,-0.0,3.0,0.3261,0.338224,0.3261,0.313331,,,,,,
438453,0.092563,-0.000754,0.245407,-0.006384,-0.000961,-0.001158,0.065705,-0.0,-0.0,3.0,0.3261,0.336381,0.3261,0.31536,,,,,,
438473,0.089592,-0.000884,0.24558,-0.007449,-0.000965,-0.001155,0.066492,-0.0,-0.0,3.0,0.3261,0.334385,0.3261,0.317519,,,,,,
438493,0.086606,-0.001134,0.245756,-0.008514,-0.00106,-9.2e-05,0.06679,-0.0,-0.0,3.0,0.3261,0.333636,0.3261,0.31832,,,,,,
438513,0.083166,-0.001086,0.246047,-0.008514,0.0,0.0,0.067379,-0.0,-0.0,3.0,0.3261,0.333763,0.3261,0.318185,,,,,,
438533,0.079333,-0.00123,0.246234,-0.008513,0.001145,-0.000977,0.067986,-0.0,-0.0,3.0,0.3261,0.332554,0.3261,0.319468,,,,,,
438553,0.07553,-0.001132,0.246408,-0.007448,0.001141,-0.000981,0.068271,-0.0,-0.0,3.0,0.3261,0.331399,0.3261,0.320682,,,,,,
438573,0.071712,-0.00115,0.246462,-0.007448,0.001138,-0.000985,0.068853,-0.0,-0.0,3.0,0.3261,0.330087,0.3261,0.322046,,,,,,
438593,0.068016,-0.001183,0.24651,-0.007448,7.2e-05,-0.001062,0.069575,-0.0,-0.0,3.0,0.3261,0.327522,0.3261,0.32467,,,,,,
438613,0.064924,-0.001295,0.246658,-0.007449,-0.001062,-6.9e-05,0.070027,-0.0,-0.0,3.0,0.3261,0.326354,0.3261,0.325846,,,,,,
438633,0.061833,-0.001403,0.246685,-0.007449,-0.002124,-0.000132,0.07072,-0.0,-0.0,3.0,0.3261,0.325055,0.3261,0.327141,,,,,,
438653,0.059017,-0.001303,0.246859,-0.007449,-0.001062,-6.3e-05,0.071041,-0.0,-0.0,3.0,0.3261,0.325111,0.3261,0.327085,,,,,,
438673,0.05644,-0.001232,0.246982,-0.006384,6e-05,-0.001063,0.071841,-0.0,-0.0,3.0,0.3261,0.325048,0.3261,0.327148,,,,,,
438693,0.054245,-0.001086,0.247138,-0.00532,5.8e-05,-0.001063,0.072102,-0.0,-0.0,3.0,0.3261,0.326436,0.3261,0.325764,,,,,,
438713,0.052274,-0.001086,0.24713,-0.004256,5.6e-05,-0.001063,0.07262,-0.0,-0.0,3.0,0.3261,0.326586,0.3261,0.325613,,,,,,
438733,0.050684,-0.001015,0.247275,-0.002127,5.4e-05,-0.001063,0.072889,-0.0,-0.0,3.0,0.3261,0.326913,0.3261,0.325285,,,,,,
438753,0.049685,-0.00114,0.247412,-0.001063,5.3e-05,-0.001063,0.073399,-0.0,-0.0,3.0,0.3261,0.326139,0.3261,0.326062,,,,,,
438773,0.049184,-0.001206,0.247657,1e-06,-0.001011,-0.001115,0.074144,-0.0,-0.0,3.0,0.3261,0.326622,0.3261,0.325577,,,,,,
438793,0.049184,-0.001209,0.247775,0.0,-0.002126,-0.000105,0.074556,-0.0,-0.0,3.0,0.3261,0.326169,0.3261,0.326032,,,,,,
438813,0.04944,-0.001124,0.248003,0.001064,-0.002126,-0.000105,0.074886,-0.0,-0.0,3.0,0.3261,0.327008,0.3261,0.325189,,,,,,
438833,0.050048,-0.001206,0.248274,0.001066,-0.00101,-0.001116,0.075484,-0.0,-0.0,3.0,0.3261,0.326684,0.3261,0.325515,,,,,,
438853,0.050804,-0.001058,0.248374,0.001065,5.4e-05,-0.001063,0.075944,-0.0,-0.0,3.0,0.3261,0.327639,0.3261,0.324551,,,,,,
438873,0.051548,-0.001034,0.24864,0.001065,5.5e-05,-0.001063,0.07618,-0.0,-0.0,3.0,0.3261,0.327481,0.3261,0.324711,,,,,,
438893,0.05182,-0.000826,0.248747,1e-06,5.5e-05,-0.001063,0.076746,-0.0,-0.0,3.0,0.3261,0.325878,0.3261,0.326322,,,,,,
438913,0.052319,-0.000771,0.248972,1e-06,5.6e-05,-0.001063,0.077078,-0.0,-0.0,3.0,0.3261,0.325612,0.3261,0.326588,,,,,,
438933,0.05256,-0.000808,0.249202,1e-06,-0.001007,-0.001119,0.077389,-0.0,-0.0,3.0,0.3261,0.32527,0.3261,0.326927,,,,,,
438953,0.052835,-0.000603,0.249472,1e-06,-0.001007,-0.001119,0.077997,-0.0,-0.0,3.0,0.3261,0.32484,0.3261,0.327354,,,,,,
438973,0.053061,-0.000761,0.249706,0.001065,-0.001006,-0.001119,0.078238,-0.0,-0.0,3.0,0.3261,0.32451,0.3261,0.32768,,,,,,
438993,0.05306,-0.000767,0.249941,0.001065,-0.001006,-0.001119,0.078745,-0.0,-0.0,3.0,0.3261,0.32281,0.3261,0.329346,,,,,,
439013,0.053062,-0.000774,0.250221,1e-06,-0.001006,-0.001119,0.079138,-0.0,-0.0,3.0,0.3261,0.322346,0.3261,0.329796,,,,,,
439033,0.053198,-0.000675,0.25045,1e-06,5.7e-05,-0.001063,0.079329,-0.0,-0.0,3.0,0.3261,0.321989,0.3261,0.330142,,,,,,
439053,0.053697,-0.000621,0.250674,-0.001064,5.7e-05,-0.001063,0.079708,-0.0,-0.0,3.0,0.3261,0.321685,0.3261,0.330436,,,,,,
439073,0.053954,-0.000534,0.250784,-0.001064,5.7e-05,-0.001063,0.080128,-0.0,-0.0,3.0,0.3261,0.322501,0.3261,0.329647,,,,,,
439093,0.054092,-0.000435,0.251059,-0.001064,5.8e-05,-0.001063,0.080536,-0.0,-0.0,3.0,0.3261,0.323277,0.3261,0.328891,,,,,,
439113,0.054439,-0.000609,0.25129,1e-06,5.8e-05,-0.001063,0.080743,-0.0,-0.0,3.0,0.3261,0.324184,0.3261,0.328001,,,,,,
439133,0.054802,-0.000661,0.251519,0.001065,-0.001004,-0.001121,0.081026,-0.0,-0.0,3.0,0.3261,0.323869,0.3261,0.328311,,,,,,
439153,0.055304,-0.000609,0.251788,0.002129,-0.001004,-0.001121,0.081447,-0.0,-0.0,3.0,0.3261,0.322347,0.3261,0.329796,,,,,,
439173,0.055803,-0.000552,0.251893,0.002129,-0.002066,-0.001181,0.081638,-0.0,-0.0,3.0,0.3261,0.320894,0.3261,0.331196,,,,,,
439193,0.056528,-0.000651,0.252115,0.001065,-0.001002,-0.001123,0.081999,-0.0,-0.0,3.0,0.3261,0.320677,0.3261,0.331404,,,,,,
439213,0.057409,-0.000524,0.252374,1e-06,-0.001001,-0.001124,0.082306,-0.0,-0.0,3.0,0.3261,0.320533,0.3261,0.331541,,,,,,
439233,0.058406,-0.000416,0.252701,0.0,6.2e-05,-0.001062,0.082695,-0.0,-0.0,3.0,0.3261,0.320405,0.3261,0.331664,,,,,,
439253,0.059287,-0.000289,0.252959,0.0,0.001125,-0.000999,0.082695,-0.0,-0.0,3.0,0.3261,0.322807,0.3261,0.329349,,,,,,
439273,0.060028,-0.000268,0.253177,0.001064,0.001126,-0.000998,0.082987,-0.0,-0.0,3.0,0.3261,0.322647,0.3261,0.329505,,,,,,
439293,0.060894,-0.000259,0.25332,0.002129,0.001192,-0.00206,0.083479,-0.0,-0.0,3.0,0.3261,0.323677,0.3261,0.328499,,,,,,
439313,0.061846,-0.000507,0.253423,0.003193,6.6e-05,-0.001062,0.083652,-0.0,-0.0,3.0,0.3261,0.323642,0.3261,0.328534,,,,,,
439333,0.062708,-0.000498,0.25352,0.003193,-0.000995,-0.001129,0.083966,-0.0,-0.0,3.0,0.3261,0.322331,0.3261,0.329811,,,,,,
439353,0.063922,-0.000657,0.253659,0.003193,-0.002124,-0.000136,0.084136,-0.0,-0.0,3.0,0.3261,0.321186,0.3261,0.330916,,,,,,
439373,0.065131,-0.000816,0.253752,0.002129,-0.002124,-0.000139,0.084377,-0.0,-0.0,3.0,0.3261,0.321243,0.3261,0.330861,,,,,,
439393,0.066346,-0.000971,0.253774,0.001064,-0.002124,-0.000141,0.084607,-0.0,-0.0,3.0,0.3261,0.321317,0.3261,0.33079,,,,,,
439413,0.067602,-0.000766,0.253854,0.001064,-0.001062,-7.2e-05,0.084771,-0.0,-0.0,3.0,0.3261,0.322651,0.3261,0.3295,,,,,,
439433,0.068862,-0.000563,0.253979,0.002129,7.3e-05,-0.001062,0.084938,-0.0,-0.0,3.0,0.3261,0.322785,0.3261,0.32937,,,,,,
439453,0.069846,-0.000566,0.253955,0.002129,0.001136,-0.000987,0.085222,-0.0,-0.0,3.0,0.3261,0.324011,0.3261,0.328171,,,,,,
439473,0.070966,-0.000463,0.253923,0.002129,0.002199,-0.000911,0.085381,-0.0,-0.0,3.0,0.3261,0.324129,0.3261,0.328055,,,,,,
439493,0.072301,-0.000634,0.253939,0.002129,0.001138,-0.000985,0.085611,-0.0,-0.0,3.0,0.3261,0.323101,0.3261,0.329063,,,,,,
439513,0.073617,-0.000921,0.253796,0.002128,0.0,0.0,0.085729,-0.0,-0.0,3.0,0.3261,0.323322,0.3261,0.328846,,,,,,
439533,0.074933,-0.001207,0.253653,0.002129,-0.001061,-8e-05,0.085899,-0.0,-0.0,3.0,0.3261,0.323541,0.3261,0.328633,,,,,,
439553,0.07575,-0.001553,0.253525,0.002129,-0.002122,-0.000161,0.08606,-0.0,-0.0,3.0,0.3261,0.323611,0.3261,0.328563,,,,,,
439573,0.076719,-0.001672,0.253386,0.002129,-0.002122,-0.000163,0.086211,-0.0,-0.0,3.0,0.3261,0.323746,0.3261,0.328432,,,,,,
439593,0.077813,-0.001807,0.253289,0.002129,-0.002122,-0.000165,0.086339,-0.0,-0.0,3.0,0.3261,0.322733,0.3261,0.329421,,,,,,
439613,0.078919,-0.001815,0.253024,0.002129,-0.001061,-8.4e-05,0.086339,-0.0,-0.0,3.0,0.3261,0.322989,0.3261,0.329172,,,,,,
439633,0.080161,-0.001718,0.252751,0.002128,0.0,0.0,0.086586,-0.0,-0.0,3.0,0.3261,0.323217,0.3261,0.328949,,,,,,
439653,0.08163,-0.001772,0.252477,0.001064,0.002121,0.000174,0.086685,-0.0,-0.0,3.0,0.3261,0.324787,0.3261,0.327407,,,,,,
439673,0.083221,-0.001836,0.252081,0.002128,0.002121,0.000177,0.086768,-0.0,-0.0,3.0,0.3261,0.326407,0.3261,0.325793,,,,,,
439693,0.084816,-0.001905,0.251847,0.003193,0.00106,9e-05,0.086866,-0.0,-0.0,3.0,0.3261,0.328032,0.3261,0.324153,,,,,,
439713,0.086633,-0.00212,0.251449,0.004257,0.0,0.0,0.086949,-0.0,-0.0,3.0,0.3261,0.328562,0.3261,0.323613,,,,,,
439733,0.088329,-0.002319,0.251053,0.004257,-0.00106,-9.4e-05,0.087022,-0.0,-0.0,3.0,0.3261,0.329077,0.3261,0.323086,,,,,,
439753,0.089889,-0.002622,0.250665,0.004257,-0.00212,-0.000191,0.087056,-0.0,-0.0,3.0,0.3261,0.328406,0.3261,0.323772,,,,,,
439773,0.091984,-0.00263,0.25041,0.004255,-0.002217,0.000864,0.087092,-0.0,-0.0,3.0,0.3261,0.329108,0.3261,0.323054,,,,,,
439793,0.094058,-0.002751,0.249996,0.00319,-0.001159,0.00096,0.087151,-0.0,-0.0,3.0,0.3261,0.328638,0.3261,0.323535,,,,,,
439813,0.096047,-0.002622,0.249735,0.002128,0.0,0.0,0.0872,-0.0,-0.0,3.0,0.3261,0.329346,0.3261,0.32281,,,,,,
439833,0.097546,-0.00243,0.249442,0.002128,0.001059,0.000104,0.087227,-0.0,-0.0,3.0,0.3261,0.331101,0.3261,0.320993,,,,,,
439853,0.0994,-0.002399,0.24907,0.002128,0.001059,0.000106,0.087256,-0.0,-0.0,3.0,0.3261,0.33297,0.3261,0.319028,,,,,,
439873,0.101126,-0.002357,0.248774,0.003195,0.001166,-0.000951,0.087262,-0.0,-0.0,3.0,0.3261,0.333665,0.3261,0.31829,,,,,,
439893,0.102836,-0.002437,0.248482,0.004259,0.000109,-0.001059,0.087266,-0.0,-0.0,3.0,0.3261,0.334374,0.3261,0.317532,,,,,,
439913,0.104281,-0.002728,0.248254,0.004257,-0.001058,-0.000111,0.087261,-0.0,-0.0,3.0,0.3261,0.333867,0.3261,0.318074,,,,,,
439933,0.105961,-0.003048,0.247973,0.003193,-0.002117,-0.000225,0.087244,-0.0,-0.0,3.0,0.3261,0.333458,0.3261,0.31851,,,,,,
439953,0.107527,-0.003354,0.24774,0.002126,-0.00223,0.00083,0.087216,-0.0,-0.0,3.0,0.3261,0.333039,0.3261,0.318954,,,,,,
439973,0.109009,-0.003287,0.247564,0.001065,-0.001058,-0.000116,0.087194,-0.0,-0.0,3.0,0.3261,0.333768,0.3261,0.318179,,,,,,
439993,0.110256,-0.003197,0.247557,0.001068,0.000117,-0.001058,0.087173,-0.0,-0.0,3.0,0.3261,0.335585,0.3261,0.316225,,,,,,
440013,0.111134,-0.003054,0.247399,0.001067,0.001176,-0.00094,0.087094,-0.0,-0.0,3.0,0.3261,0.336168,0.3261,0.315591,,,,,,
440033,0.111663,-0.002751,0.247364,0.001067,0.001176,-0.000939,0.08705,-0.0,-0.0,3.0,0.3261,0.336644,0.3261,0.315072,,,,,,
440053,0.112031,-0.002804,0.247514,0.001067,0.000119,-0.001058,0.086982,-0.0,-0.0,3.0,0.3261,0.335939,0.3261,0.315841,,,,,,
440073,0.112273,-0.002835,0.247506,3e-06,-0.000938,-0.001177,0.086901,-0.0,-0.0,3.0,0.3261,0.335205,0.3261,0.316637,,,,,,
440093,0.112377,-0.002984,0.247743,0.0,-0.001058,-0.000119,0.08681,-0.0,-0.0,3.0,0.3261,0.333278,0.3261,0.318701,,,,,,
440113,0.112118,-0.003089,0.247992,-0.002125,-0.000938,-0.001177,0.086753,-0.0,-0.0,3.0,0.3261,0.333532,0.3261,0.318431,,,,,,
440133,0.111631,-0.003048,0.24836,-0.003189,-0.000939,-0.001176,0.086665,-0.0,-0.0,3.0,0.3261,0.333719,0.3261,0.318231,,,,,,
440153,0.111008,-0.003113,0.248738,-0.002125,-0.00094,-0.001176,0.0865,-0.0,-0.0,3.0,0.3261,0.335039,0.3261,0.316816,,,,,,
440173,0.110296,-0.002915,0.24899,-0.002125,-0.000941,-0.001175,0.086381,-0.0,-0.0,3.0,0.3261,0.335154,0.3261,0.316692,,,,,,
440193,0.109551,-0.002971,0.249489,-0.001058,-0.000825,-0.002232,0.086288,-0.0,-0.0,3.0,0.3261,0.335242,0.3261,0.316597,,,,,,
440213,0.108844,-0.002779,0.249902,-0.001061,-0.000942,-0.001174,0.086118,-0.0,-0.0,3.0,0.3261,0.335367,0.3261,0.316461,,,,,,
440233,0.108612,-0.002661,0.25049,-0.001061,-0.000943,-0.001173,0.085965,-0.0,-0.0,3.0,0.3261,0.334475,0.3261,0.317422,,,,,,
440253,0.108251,-0.002648,0.251133,-0.001059,0.00023,-0.002116,0.085797,-0.0,-0.0,3.0,0.3261,0.334696,0.3261,0.317185,,,,,,
440273,0.10802,-0.002529,0.25172,-0.001059,0.000229,-0.002116,0.085713,-0.0,-0.0,3.0,0.3261,0.336076,0.3261,0.315692,,,,,,
440293,0.107794,-0.002418,0.25247,-0.001059,-0.000829,-0.002231,0.085449,-0.0,-0.0,3.0,0.3261,0.336361,0.3261,0.315382,,,,,,
440313,0.107305,-0.002395,0.253188,-0.001059,-0.00083,-0.00223,0.085344,-0.0,-0.0,3.0,0.3261,0.336514,0.3261,0.315214,,,,,,
440333,0.106941,-0.002395,0.254065,-0.001059,-0.000831,-0.00223,0.085087,-0.0,-0.0,3.0,0.3261,0.336751,0.3261,0.314955,,,,,,
440353,0.106578,-0.002394,0.254942,-0.001059,-0.000832,-0.00223,0.084963,-0.0,-0.0,3.0,0.3261,0.336945,0.3261,0.314742,,,,,,
440373,0.106231,-0.002273,0.255813,-0.001059,-0.000833,-0.002229,0.084686,-0.0,-0.0,3.0,0.3261,0.337193,0.3261,0.31447,,,,,,
440393,0.105651,-0.001997,0.256639,-0.002124,0.000224,-0.002117,0.08455,-0.0,-0.0,3.0,0.3261,0.336175,0.3261,0.315584,,,,,,
440413,0.105199,-0.001738,0.257508,-0.002125,0.000223,-0.002117,0.084316,-0.0,-0.0,3.0,0.3261,0.336368,0.3261,0.315373,,,,,,
440433,0.104731,-0.0016,0.258382,-0.002125,0.000223,-0.002117,0.084067,-0.0,-0.0,3.0,0.3261,0.336559,0.3261,0.315165,,,,,,
440453,0.104119,-0.001571,0.259337,-0.002125,-0.000837,-0.002228,0.083772,-0.0,-0.0,3.0,0.3261,0.336715,0.3261,0.314994,,,,,,
440473,0.103274,-0.001499,0.260113,-0.001061,-0.001898,-0.002337,0.083617,-0.0,-0.0,3.0,0.3261,0.336751,0.3261,0.314955,,,,,,
440493,0.1023,-0.001415,0.260962,-0.002125,-0.0019,-0.002335,0.083295,-0.0,-0.0,3.0,0.3261,0.335645,0.3261,0.31616,,,,,,
440513,0.101608,-0.001115,0.261721,-0.002126,-0.000843,-0.002225,0.083054,-0.0,-0.0,3.0,0.3261,0.33574,0.3261,0.316057,,,,,,
440533,0.101,-0.00106,0.262208,-0.00319,-0.000844,-0.002225,0.082738,-0.0,-0.0,3.0,0.3261,0.335877,0.3261,0.315908,,,,,,
440553,0.100287,-0.000867,0.262692,-0.003192,-0.000952,-0.001165,0.082473,-0.0,-0.0,3.0,0.3261,0.337103,0.3261,0.314568,,,,,,
440573,0.099076,-0.000725,0.263081,-0.003192,-0.000954,-0.001164,0.082134,-0.0,-0.0,3.0,0.3261,0.33705,0.3261,0.314627,,,,,,
440593,0.097972,-0.000707,0.263238,-0.003193,-0.001059,-0.000104,0.081978,-0.0,-0.0,3.0,0.3261,0.338101,0.3261,0.313467,,,,,,
440613,0.096883,-0.000568,0.263389,-0.002128,0.000103,-0.001059,0.081657,-0.0,-0.0,3.0,0.3261,0.336921,0.3261,0.314768,,,,,,
440633,0.095652,-0.000533,0.263501,-0.002128,0.000102,-0.001059,0.081425,-0.0,-0.0,3.0,0.3261,0.336799,0.3261,0.314902,,,,,,
440653,0.094533,-0.000624,0.263429,-0.002128,0.0001,-0.001059,0.08102,-0.0,-0.0,3.0,0.3261,0.335611,0.3261,0.316197,,,,,,
440673,0.093375,-0.000963,0.263437,-0.002127,9.9e-05,-0.00106,0.080674,-0.0,-0.0,3.0,0.3261,0.334376,0.3261,0.317529,,,,,,
440693,0.092117,-0.00117,0.263605,-0.003191,-0.000962,-0.001158,0.080496,-0.0,-0.0,3.0,0.3261,0.334195,0.3261,0.317723,,,,,,
440713,0.090991,-0.001266,0.2636,-0.004257,-0.00106,-9.7e-05,0.079932,-0.0,-0.0,3.0,0.3261,0.335315,0.3261,0.316518,,,,,,
440733,0.089991,-0.001385,0.263756,-0.003193,-0.00106,-9.6e-05,0.079691,-0.0,-0.0,3.0,0.3261,0.335213,0.3261,0.316627,,,,,,
440753,0.088902,-0.001251,0.26402,-0.003191,9.4e-05,-0.00106,0.079278,-0.0,-0.0,3.0,0.3261,0.336276,0.3261,0.315474,,,,,,
440773,0.08745,-0.001063,0.264178,-0.002127,0.001153,-0.000967,0.078883,-0.0,-0.0,3.0,0.3261,0.336065,0.3261,0.315704,,,,,,
440793,0.086482,-0.000939,0.264322,-0.001063,0.001152,-0.000968,0.078393,-0.0,-0.0,3.0,0.3261,0.336026,0.3261,0.315746,,,,,,
440813,0.085839,-0.00111,0.264534,-0.001063,9.1e-05,-0.00106,0.07808,-0.0,-0.0,3.0,0.3261,0.336027,0.3261,0.315745,,,,,,
440833,0.08531,-0.001419,0.264843,-0.001063,-0.00097,-0.001151,0.07808,-0.0,-0.0,3.0,0.3261,0.334809,0.3261,0.317064,,,,,,
440853,0.084793,-0.001607,0.2651,-0.002128,-0.002121,-0.00018,0.077566,-0.0,-0.0,3.0,0.3261,0.334899,0.3261,0.316967,,,,,,
440873,0.084292,-0.001673,0.265351,-0.003192,-0.002121,-0.000179,0.076914,-0.0,-0.0,3.0,0.3261,0.336185,0.3261,0.315573,,,,,,
440893,0.083702,-0.001481,0.265596,-0.003191,-0.000972,-0.001149,0.076385,-0.0,-0.0,3.0,0.3261,0.337398,0.3261,0.314245,,,,,,
440913,0.083249,-0.001185,0.265832,-0.002127,8.8e-05,-0.001061,0.076104,-0.0,-0.0,3.0,0.3261,0.337432,0.3261,0.314207,,,,,,
440933,0.08266,-0.000988,0.26596,-0.001063,8.8e-05,-0.001061,0.075651,-0.0,-0.0,3.0,0.3261,0.338614,0.3261,0.312897,,,,,,
440953,0.081951,-0.000775,0.266092,-0.001063,8.7e-05,-0.001061,0.075188,-0.0,-0.0,3.0,0.3261,0.338628,0.3261,0.312882,,,,,,
440973,0.081691,-0.000873,0.266336,-0.001063,8.7e-05,-0.001061,0.07469,-0.0,-0.0,3.0,0.3261,0.337653,0.3261,0.313963,,,,,,
440993,0.081415,-0.001092,0.266585,-0.001063,8.7e-05,-0.001061,0.074188,-0.0,-0.0,3.0,0.3261,0.336673,0.3261,0.31504,,,,,,
441013,0.081035,-0.001174,0.266833,-0.002127,8.6e-05,-0.001061,0.073872,-0.0,-0.0,3.0,0.3261,0.336743,0.3261,0.314964,,,,,,
441033,0.080655,-0.001256,0.26708,-0.002127,8.6e-05,-0.001061,0.073489,-0.0,-0.0,3.0,0.3261,0.337971,0.3261,0.313612,,,,,,
441053,0.080049,-0.001184,0.267329,-0.002127,-0.000976,-0.001146,0.072838,-0.0,-0.0,3.0,0.3261,0.338073,0.3261,0.313498,,,,,,
441073,0.079202,-0.001075,0.267467,-0.002127,-0.000977,-0.001145,0.072479,-0.0,-0.0,3.0,0.3261,0.338009,0.3261,0.313569,,,,,,
441093,0.078233,-0.000954,0.267725,-0.002127,-0.000978,-0.001144,0.071964,-0.0,-0.0,3.0,0.3261,0.336812,0.3261,0.314888,,,,,,
441113,0.077387,-0.000844,0.267863,-0.002127,-0.000979,-0.001143,0.071361,-0.0,-0.0,3.0,0.3261,0.336817,0.3261,0.314882,,,,,,
441133,0.076435,-0.000602,0.268116,-0.003192,8.1e-05,-0.001061,0.071084,-0.0,-0.0,3.0,0.3261,0.335539,0.3261,0.316276,,,,,,
441153,0.075345,-0.000464,0.268377,-0.003192,0.001141,-0.000981,0.070669,-0.0,-0.0,3.0,0.3261,0.335397,0.3261,0.316429,,,,,,
441173,0.074135,-0.000309,0.268639,-0.003192,0.00114,-0.000982,0.070149,-0.0,-0.0,3.0,0.3261,0.335242,0.3261,0.316596,,,,,,
441193,0.072893,-0.000392,0.268794,-0.003192,7.8e-05,-0.001061,0.06961,-0.0,-0.0,3.0,0.3261,0.335074,0.3261,0.316778,,,,,,
441213,0.071512,-0.000587,0.269188,-0.003192,-0.000985,-0.001138,0.068908,-0.0,-0.0,3.0,0.3261,0.334906,0.3261,0.316959,,,,,,
441233,0.070128,-0.000773,0.269299,-0.003192,-0.002049,-0.001211,0.068137,-0.0,-0.0,3.0,0.3261,0.333597,0.3261,0.318362,,,,,,
441253,0.068643,-0.000826,0.269573,-0.004256,-0.000989,-0.001135,0.06779,-0.0,-0.0,3.0,0.3261,0.332103,0.3261,0.319943,,,,,,
441273,0.067159,-0.000879,0.269846,-0.00532,-0.00099,-0.001133,0.0672,-0.0,-0.0,3.0,0.3261,0.331832,0.3261,0.320228,,,,,,
441293,0.065586,-0.000673,0.270113,-0.00532,7e-05,-0.001062,0.066611,-0.0,-0.0,3.0,0.3261,0.332683,0.3261,0.319331,,,,,,
441313,0.063893,-0.000446,0.270266,-0.005321,6.8e-05,-0.001062,0.066313,-0.0,-0.0,3.0,0.3261,0.333388,0.3261,0.318584,,,,,,
441333,0.062041,-0.000448,0.270495,-0.004256,6.6e-05,-0.001062,0.065748,-0.0,-0.0,3.0,0.3261,0.332953,0.3261,0.319046,,,,,,
441353,0.060057,-0.000554,0.270778,-0.004256,6.4e-05,-0.001062,0.064944,-0.0,-0.0,3.0,0.3261,0.332537,0.3261,0.319486,,,,,,
441373,0.058226,-0.000431,0.270933,-0.003192,-0.001,-0.001124,0.064457,-0.0,-0.0,3.0,0.3261,0.330888,0.3261,0.321215,,,,,,
441393,0.056258,-0.000416,0.27121,-0.003192,-0.001003,-0.001122,0.063701,-0.0,-0.0,3.0,0.3261,0.329254,0.3261,0.322904,,,,,,
441413,0.054393,-0.000538,0.271485,-0.004256,-0.001005,-0.001121,0.063325,-0.0,-0.0,3.0,0.3261,0.328686,0.3261,0.323486,,,,,,
441433,0.05268,-0.000433,0.271702,-0.005321,5.6e-05,-0.001063,0.062593,-0.0,-0.0,3.0,0.3261,0.328261,0.3261,0.32392,,,,,,
441453,0.05097,-0.000328,0.271967,-0.005321,-0.001009,-0.001117,0.061918,-0.0,-0.0,3.0,0.3261,0.328984,0.3261,0.323181,,,,,,
441473,0.049139,-0.000207,0.272233,-0.005321,-0.001011,-0.001115,0.061103,-0.0,-0.0,3.0,0.3261,0.329698,0.3261,0.322447,,,,,,
441493,0.047412,-0.000225,0.272616,-0.004257,-0.001013,-0.001113,0.060619,-0.0,-0.0,3.0,0.3261,0.329149,0.3261,0.323013,,,,,,
441513,0.045581,-0.000105,0.272996,-0.003193,-0.001015,-0.001112,0.06003,-0.0,-0.0,3.0,0.3261,0.328584,0.3261,0.32359,,,,,,
441533,0.043733,-0.000106,0.273378,-0.003193,4.7e-05,-0.001063,0.059628,-0.0,-0.0,3.0,0.3261,0.32794,0.3261,0.324246,,,,,,
441553,0.0423,0.000207,0.273795,-0.003193,4.5e-05,-0.001063,0.058793,-0.0,-0.0,3.0,0.3261,0.326363,0.3261,0.325838,,,,,,
441573,0.041057,0.000124,0.274166,-0.003193,8.7e-05,-0.002127,0.058287,-0.0,-0.0,3.0,0.3261,0.324719,0.3261,0.327473,,,,,,
441593,0.039709,0.00018,0.274536,-0.004257,-0.001021,-0.001106,0.057387,-0.0,-0.0,3.0,0.3261,0.325554,0.3261,0.326645,,,,,,
441613,0.038482,0.000219,0.274903,-0.004257,-0.001022,-0.001104,0.056692,-0.0,-0.0,3.0,0.3261,0.326349,0.3261,0.325852,,,,,,
441633,0.037514,0.000346,0.275265,-0.003193,-0.002087,-0.001143,0.055968,-0.0,-0.0,3.0,0.3261,0.327226,0.3261,0.324969,,,,,,
441653,0.036273,0.000265,0.275683,-0.002129,-0.001025,-0.001102,0.055436,-0.0,-0.0,3.0,0.3261,0.32676,0.3261,0.325439,,,,,,
441673,0.035426,0.000376,0.276042,-0.001065,-0.001026,-0.001101,0.055436,-0.0,-0.0,3.0,0.3261,0.327428,0.3261,0.324765,,,,,,
441693,0.034337,0.000521,0.276404,-0.001065,3.7e-05,-0.001064,0.054081,-0.0,-0.0,3.0,0.3261,0.327268,0.3261,0.324927,,,,,,
441713,0.033853,0.000584,0.276643,-0.001065,3.6e-05,-0.001064,0.053708,-0.0,-0.0,3.0,0.3261,0.325793,0.3261,0.326407,,,,,,
441733,0.033509,0.000749,0.277044,-0.001065,0.001099,-0.001028,0.052528,-0.0,-0.0,3.0,0.3261,0.32582,0.3261,0.326381,,,,,,
441753,0.033491,0.000625,0.277278,-0.002129,3.6e-05,-0.001064,0.052002,-0.0,-0.0,3.0,0.3261,0.325744,0.3261,0.326456,,,,,,
441773,0.03337,0.000637,0.277512,-0.001065,3.6e-05,-0.001064,0.051191,-0.0,-0.0,3.0,0.3261,0.326925,0.3261,0.325273,,,,,,
441793,0.033232,0.000531,0.277632,-0.001065,-0.001028,-0.001099,0.050443,-0.0,-0.0,3.0,0.3261,0.328082,0.3261,0.324102,,,,,,
441813,0.033096,0.000425,0.277801,-0.001065,-0.001028,-0.001099,0.049689,-0.0,-0.0,3.0,0.3261,0.328066,0.3261,0.324118,,,,,,
441833,0.033096,0.000423,0.277918,-0.0,-0.002092,-0.001134,0.04931,-0.0,-0.0,3.0,0.3261,0.327979,0.3261,0.324207,,,,,,
441853,0.033095,0.000421,0.278034,-0.0,-0.002127,-7e-05,0.048912,-0.0,-0.0,3.0,0.3261,0.327902,0.3261,0.324284,,,,,,
441873,0.033095,0.000419,0.27815,0.0,0.0,0.0,0.047893,-0.0,-0.0,3.0,0.3261,0.326848,0.3261,0.32535,,,,,,
441893,0.033112,0.000536,0.278381,-0.001065,0.001099,-0.001028,0.046772,-0.0,-0.0,3.0,0.3261,0.328219,0.3261,0.323963,,,,,,
441913,0.032974,0.00043,0.2785,-0.001065,0.001099,-0.001029,0.046275,-0.0,-0.0,3.0,0.3261,0.328165,0.3261,0.324018,,,,,,
441933,0.033096,0.000409,0.278782,-0.001065,0.001099,-0.001028,0.045739,-0.0,-0.0,3.0,0.3261,0.327026,0.3261,0.325171,,,,,,
441953,0.032975,0.000422,0.279015,-0.0,3.5e-05,-0.001064,0.04487,-0.0,-0.0,3.0,0.3261,0.327111,0.3261,0.325085,,,,,,
441973,0.032819,0.000195,0.279137,-0.0,-0.001029,-0.001099,0.044075,-0.0,-0.0,3.0,0.3261,0.32717,0.3261,0.325025,,,,,,
441993,0.032716,0.000333,0.279136,-0.001065,-0.002093,-0.001133,0.04328,-0.0,-0.0,3.0,0.3261,0.327253,0.3261,0.324942,,,,,,
442013,0.032957,0.000297,0.27925,-0.0,-0.002127,-7e-05,0.042467,-0.0,-0.0,3.0,0.3261,0.327462,0.3261,0.324731,,,,,,
442033,0.032974,0.000416,0.279364,-0.001064,-0.002127,-7e-05,0.042467,-0.0,-0.0,3.0,0.3261,0.327344,0.3261,0.32485,,,,,,
442053,0.032888,0.00067,0.279644,-0.001064,-0.001064,-3.5e-05,0.040841,-0.0,-0.0,3.0,0.3261,0.327723,0.3261,0.324466,,,,,,
442073,0.032767,0.000683,0.279878,-0.001065,0.001099,-0.001029,0.040234,-0.0,-0.0,3.0,0.3261,0.328964,0.3261,0.323202,,,,,,
442093,0.032646,0.000696,0.280112,-1e-06,0.002197,-0.002058,0.039183,-0.0,-0.0,3.0,0.3261,0.329173,0.3261,0.322988,,,,,,
442113,0.03287,0.000539,0.280227,-1e-06,0.002197,-0.002057,0.038679,-0.0,-0.0,3.0,0.3261,0.329328,0.3261,0.322829,,,,,,
442133,0.032732,0.000434,0.280346,-0.0,3.5e-05,-0.001064,0.037802,-0.0,-0.0,3.0,0.3261,0.328317,0.3261,0.323862,,,,,,
442153,0.032562,8.6e-05,0.28052,-0.0,-0.001029,-0.001098,0.036965,-0.0,-0.0,3.0,0.3261,0.328471,0.3261,0.323706,,,,,,
442173,0.032665,-5.4e-05,0.280637,-0.001064,-0.002127,-7e-05,0.036114,-0.0,-0.0,3.0,0.3261,0.328726,0.3261,0.323445,,,,,,
442193,0.032907,-9e-05,0.28075,-0.002128,-0.002127,-7e-05,0.035636,-0.0,-0.0,3.0,0.3261,0.328915,0.3261,0.323252,,,,,,
442213,0.032699,0.000184,0.280865,-0.002128,-0.002127,-7e-05,0.034519,-0.0,-0.0,3.0,0.3261,0.329174,0.3261,0.322986,,,,,,
442233,0.032387,0.000594,0.281096,-0.001065,-0.001029,-0.001098,0.033949,-0.0,-0.0,3.0,0.3261,0.329233,0.3261,0.322926,,,,,,
442253,0.031662,0.000694,0.28122,-0.001066,0.001131,-0.002094,0.033236,-0.0,-0.0,3.0,0.3261,0.330389,0.3261,0.321734,,,,,,
442273,0.031212,0.001003,0.281338,-0.001065,0.001097,-0.00103,0.0321,-0.0,-0.0,3.0,0.3261,0.329423,0.3261,0.322731,,,,,,
442293,0.030694,0.000828,0.281463,-0.001065,0.001096,-0.001031,0.031554,-0.0,-0.0,3.0,0.3261,0.328247,0.3261,0.323934,,,,,,
442313,0.030541,0.000601,0.281635,-0.001065,3.2e-05,-0.001064,0.030695,-0.0,-0.0,3.0,0.3261,0.328467,0.3261,0.32371,,,,,,
442333,0.029868,0.0002,0.281881,-0.002129,-0.002096,-0.001127,0.029839,-0.0,-0.0,3.0,0.3261,0.327342,0.3261,0.324852,,,,,,
442353,0.029367,0.000146,0.282003,-0.003193,-0.002128,-6.2e-05,0.028976,-0.0,-0.0,3.0,0.3261,0.328642,0.3261,0.323532,,,,,,
442373,0.028503,0.000142,0.282246,-0.003193,-0.002128,-6.1e-05,0.027972,-0.0,-0.0,3.0,0.3261,0.328693,0.3261,0.323479,,,,,,
442393,0.02757,0.000517,0.282484,-0.002129,-0.001034,-0.001093,0.027972,-0.0,-0.0,3.0,0.3261,0.328396,0.3261,0.323782,,,,,,
442413,0.026379,0.000807,0.282726,-0.002129,0.001092,-0.001036,0.026416,-0.0,-0.0,3.0,0.3261,0.328511,0.3261,0.323665,,,,,,
442433,0.025066,0.001114,0.282969,-0.003195,0.001117,-0.002101,0.025634,-0.0,-0.0,3.0,0.3261,0.327162,0.3261,0.325033,,,,,,
442453,0.023825,0.001043,0.28315,-0.003195,0.001115,-0.002102,0.02499,-0.0,-0.0,3.0,0.3261,0.326968,0.3261,0.325229,,,,,,
442473,0.022565,0.000851,0.28328,-0.004258,2.4e-05,-0.001064,0.023926,-0.0,-0.0,3.0,0.3261,0.325702,0.3261,0.326497,,,,,,
442493,0.021183,0.000676,0.283527,-0.004258,-0.001041,-0.001087,0.023035,-0.0,-0.0,3.0,0.3261,0.32553,0.3261,0.326669,,,,,,
442513,0.019543,0.000413,0.283891,-0.004257,-0.002107,-0.001106,0.022139,-0.0,-0.0,3.0,0.3261,0.32646,0.3261,0.32574,,,,,,
442533,0.018179,0.000359,0.284134,-0.003193,-0.002109,-0.001103,0.021684,-0.0,-0.0,3.0,0.3261,0.326133,0.3261,0.326067,,,,,,
442553,0.016711,0.000443,0.284492,-0.003193,-0.001046,-0.001082,0.020458,-0.0,-0.0,3.0,0.3261,0.324816,0.3261,0.327377,,,,,,
442573,0.015158,0.000787,0.284784,-0.003194,1.6e-05,-0.001064,0.019956,-0.0,-0.0,3.0,0.3261,0.324427,0.3261,0.327762,,,,,,
442593,0.013587,0.00101,0.285024,-0.004259,0.001093,-0.002114,0.018763,-0.0,-0.0,3.0,0.3261,0.324248,0.3261,0.327938,,,,,,
442613,0.012155,0.001337,0.285379,-0.00426,0.00109,-0.002115,0.018244,-0.0,-0.0,3.0,0.3261,0.323885,0.3261,0.328296,,,,,,
442633,0.010791,0.001285,0.28567,-0.004258,0.001076,-0.001053,0.017063,-0.0,-0.0,3.0,0.3261,0.324949,0.3261,0.327246,,,,,,
442653,0.009324,0.001371,0.286024,-0.003194,1e-05,-0.001064,0.016525,-0.0,-0.0,3.0,0.3261,0.324567,0.3261,0.327624,,,,,,
442673,0.007805,0.001095,0.286379,-0.003194,-0.001056,-0.001072,0.015615,-0.0,-0.0,3.0,0.3261,0.324277,0.3261,0.32791,,,,,,
442693,0.006303,0.00094,0.286899,-0.002129,-0.002122,-0.001078,0.01469,-0.0,-0.0,3.0,0.3261,0.323991,0.3261,0.328191,,,,,,
442713,0.004921,0.000768,0.287251,-0.003194,-0.002123,-0.001075,0.013708,-0.0,-0.0,3.0,0.3261,0.32255,0.3261,0.329599,,,,,,
442733,0.003817,0.000804,0.287485,-0.003194,-0.002124,-0.001072,0.013076,-0.0,-0.0,3.0,0.3261,0.322283,0.3261,0.329858,,,,,,
442753,0.002626,0.0011,0.287886,-0.003194,-0.001061,-0.001067,0.011864,-0.0,-0.0,3.0,0.3261,0.322172,0.3261,0.329965,,,,,,
442773,0.001454,0.001516,0.288235,-0.004259,2e-06,-0.001064,0.011146,-0.0,-0.0,3.0,0.3261,0.323115,0.3261,0.329049,,,,,,
442793,0.000142,0.00183,0.28852,-0.004259,0.001064,-0.001064,0.010074,-0.0,-0.0,3.0,0.3261,0.32412,0.3261,0.328065,,,,,,
442813,-0.000909,0.002229,0.288752,-0.003197,0.001062,-0.002129,0.009588,-0.0,-0.0,3.0,0.3261,0.323808,0.3261,0.328371,,,,,,
442833,-0.002014,0.002267,0.288984,-0.002133,0.00106,-0.002131,0.008597,-0.0,-0.0,3.0,0.3261,0.324841,0.3261,0.327353,,,,,,
442853,-0.002894,0.002149,0.289384,-0.001067,-3e-06,-0.001064,0.007681,-0.0,-0.0,3.0,0.3261,0.323518,0.3261,0.328655,,,,,,
442873,-0.003931,0.001807,0.289614,-0.001066,-0.002133,-0.001056,0.007217,-0.0,-0.0,3.0,0.3261,0.321988,0.3261,0.330143,,,,,,
442893,-0.004708,0.001551,0.28996,-0.00213,-0.003198,-0.001049,0.00647,-0.0,-0.0,3.0,0.3261,0.321839,0.3261,0.330287,,,,,,
442913,-0.005347,0.001398,0.290242,-0.003193,-0.003193,1.7e-05,0.005158,-0.0,-0.0,3.0,0.3261,0.321921,0.3261,0.330208,,,,,,
442933,-0.006193,0.001523,0.290473,-0.003193,-0.002128,1.3e-05,0.004511,-0.0,-0.0,3.0,0.3261,0.321719,0.3261,0.330403,,,,,,
442953,-0.007141,0.001785,0.290587,-0.004259,-0.001072,-0.001057,0.003141,-0.0,-0.0,3.0,0.3261,0.321719,0.3261,0.330403,,,,,,
442973,-0.008555,0.002239,0.290701,-0.003195,0.001055,-0.001073,0.003141,-0.0,-0.0,3.0,0.3261,0.322331,0.3261,0.329811,,,,,,
442993,-0.010004,0.002452,0.290813,-0.003195,0.002118,-0.001085,0.001575,-0.0,-0.0,3.0,0.3261,0.322226,0.3261,0.329913,,,,,,
443013,-0.01123,0.002508,0.290862,-0.003198,0.002104,-0.002152,0.000602,-0.0,-0.0,3.0,0.3261,0.320784,0.3261,0.331301,,,,,,
443033,-0.012629,0.002221,0.291086,-0.003197,0.001037,-0.002142,-0.000318,-0.0,-0.0,3.0,0.3261,0.319254,0.3261,0.332756,,,,,,
443053,-0.01389,0.002037,0.291195,-0.004259,-1.5e-05,-0.001064,-0.001238,-0.0,-0.0,3.0,0.3261,0.318983,0.3261,0.333013,,,,,,
443073,-0.015549,0.001665,0.291467,-0.005321,-0.002128,3.3e-05,-0.001701,-0.0,-0.0,3.0,0.3261,0.318413,0.3261,0.333549,,,,,,
443093,-0.017172,0.001536,0.291803,-0.004257,-0.003192,5.5e-05,-0.002333,-0.0,-0.0,3.0,0.3261,0.317898,0.3261,0.334032,,,,,,
443113,-0.019019,0.001565,0.29219,-0.004259,-0.002148,-0.001024,-0.003072,-0.0,-0.0,3.0,0.3261,0.317328,0.3261,0.334563,,,,,,
443133,-0.020933,0.001972,0.29241,-0.003195,-0.00215,-0.001019,-0.00469,-0.0,-0.0,3.0,0.3261,0.317023,0.3261,0.334847,,,,,,
443153,-0.02295,0.00252,0.292798,-0.003195,-0.001088,-0.00104,-0.00545,-0.0,-0.0,3.0,0.3261,0.316383,0.3261,0.335439,,,,,,
443173,-0.024658,0.002652,0.293016,-0.003195,-2.6e-05,-0.001064,-0.00618,-0.0,-0.0,3.0,0.3261,0.314575,0.3261,0.337097,,,,,,
443193,-0.026108,0.002871,0.293404,-0.00426,0.001036,-0.001092,-0.007171,-0.0,-0.0,3.0,0.3261,0.314177,0.3261,0.337459,,,,,,
443213,-0.027591,0.002848,0.293735,-0.004263,0.001005,-0.002157,-0.00817,-0.0,-0.0,3.0,0.3261,0.315019,0.3261,0.336692,,,,,,
443233,-0.028937,0.00293,0.294121,-0.004263,-6.2e-05,-0.002128,-0.008667,-0.0,-0.0,3.0,0.3261,0.314467,0.3261,0.337196,,,,,,
443253,-0.030199,0.002752,0.294504,-0.004263,-6.4e-05,-0.002127,-0.009593,-0.0,-0.0,3.0,0.3261,0.315336,0.3261,0.336402,,,,,,
443273,-0.031683,0.002729,0.294717,-0.004263,-6.7e-05,-0.002127,-0.010712,-0.0,-0.0,3.0,0.3261,0.316185,0.3261,0.335622,,,,,,
443293,-0.033133,0.002949,0.294986,-0.003196,-0.001099,-0.001028,-0.011379,-0.0,-0.0,3.0,0.3261,0.315641,0.3261,0.336122,,,,,,
443313,-0.034496,0.002909,0.295199,-0.003196,-0.0011,-0.001027,-0.012511,-0.0,-0.0,3.0,0.3261,0.314023,0.3261,0.337598,,,,,,
443333,-0.035963,0.003008,0.295464,-0.003196,-0.001102,-0.001025,-0.013074,-0.0,-0.0,3.0,0.3261,0.313418,0.3261,0.338146,,,,,,
443353,-0.03755,0.003125,0.295674,-0.003193,-0.001063,4e-05,-0.014267,-0.0,-0.0,3.0,0.3261,0.312979,0.3261,0.338541,,,,,,
443373,-0.039017,0.003228,0.296053,-0.003193,-0.001063,4.2e-05,-0.014712,-0.0,-0.0,3.0,0.3261,0.312315,0.3261,0.339136,,,,,,
443393,-0.040621,0.003225,0.296259,-0.002132,-0.001107,-0.00102,-0.015632,-0.0,-0.0,3.0,0.3261,0.311753,0.3261,0.339637,,,,,,
443413,-0.042143,0.002964,0.296514,-0.002131,-0.001108,-0.001018,-0.016533,-0.0,-0.0,3.0,0.3261,0.309929,0.3261,0.341249,,,,,,
443433,-0.043508,0.002927,0.296774,-0.002131,-0.00111,-0.001017,-0.017655,-0.0,-0.0,3.0,0.3261,0.3095,0.3261,0.341625,,,,,,
443453,-0.044732,0.002992,0.296984,-0.003196,-0.001111,-0.001016,-0.018339,-0.0,-0.0,3.0,0.3261,0.308961,0.3261,0.342095,,,,,,
443473,-0.045856,0.002919,0.297247,-0.00426,-0.001112,-0.001014,-0.018339,-0.0,-0.0,3.0,0.3261,0.308203,0.3261,0.342754,,,,,,
443493,-0.046682,0.003169,0.297352,-0.004257,-0.001063,5e-05,-0.01991,-0.0,-0.0,3.0,0.3261,0.308088,0.3261,0.342853,,,,,,
443513,-0.047508,0.003419,0.297457,-0.003193,0.0,0.0,-0.020852,-0.0,-0.0,3.0,0.3261,0.309045,0.3261,0.342022,,,,,,
443533,-0.048596,0.003589,0.297723,-0.003197,0.001011,-0.001115,-0.021395,-0.0,-0.0,3.0,0.3261,0.311046,0.3261,0.340265,,,,,,
443553,-0.049283,0.003942,0.297833,-0.002133,0.001011,-0.001115,-0.022452,-0.0,-0.0,3.0,0.3261,0.310808,0.3261,0.340476,,,,,,
443573,-0.049922,0.003794,0.297932,-0.001072,0.000957,-0.002179,-0.023368,-0.0,-0.0,3.0,0.3261,0.311813,0.3261,0.339584,,,,,,
443593,-0.050165,0.003837,0.298213,-8e-06,0.000956,-0.002179,-0.024249,-0.0,-0.0,3.0,0.3261,0.311681,0.3261,0.339701,,,,,,
443613,-0.050202,0.003595,0.298207,-4e-06,-5.3e-05,-0.001063,-0.025231,-0.0,-0.0,3.0,0.3261,0.311661,0.3261,0.339719,,,,,,
443633,-0.050098,0.003463,0.298437,-0.001068,-5.3e-05,-0.001063,-0.025748,-0.0,-0.0,3.0,0.3261,0.310265,0.3261,0.340954,,,,,,
443653,-0.049994,0.00333,0.298667,-0.001068,-0.001116,-0.00101,-0.026635,-0.0,-0.0,3.0,0.3261,0.31028,0.3261,0.340941,,,,,,
443673,-0.049836,0.003556,0.29879,-0.001068,-0.001116,-0.00101,-0.027165,-0.0,-0.0,3.0,0.3261,0.311469,0.3261,0.33989,,,,,,
443693,-0.049717,0.003544,0.299076,-0.001068,-0.001116,-0.00101,-0.028548,-0.0,-0.0,3.0,0.3261,0.312947,0.3261,0.33857,,,,,,
443713,-0.049957,0.003587,0.299303,-4e-06,-5.3e-05,-0.001063,-0.029014,-0.0,-0.0,3.0,0.3261,0.312737,0.3261,0.338758,,,,,,
443733,-0.050095,0.003487,0.299413,0.001061,-5.3e-05,-0.001063,-0.02992,-0.0,-0.0,3.0,0.3261,0.312723,0.3261,0.338771,,,,,,
443753,-0.050095,0.00349,0.299528,0.001061,-0.001116,-0.00101,-0.03078,-0.0,-0.0,3.0,0.3261,0.31149,0.3261,0.339871,,,,,,
443773,-0.050112,0.003372,0.299641,0.001061,-0.001116,-0.00101,-0.03164,-0.0,-0.0,3.0,0.3261,0.31025,0.3261,0.340967,,,,,,
443793,-0.05003,0.00312,0.299921,0.0,-0.002126,0.000106,-0.032197,-0.0,-0.0,3.0,0.3261,0.310224,0.3261,0.34099,,,,,,
443813,-0.050271,0.003159,0.300033,-0.001064,-0.003189,0.00016,-0.033143,-0.0,-0.0,3.0,0.3261,0.310226,0.3261,0.340988,,,,,,
443833,-0.050028,0.003128,0.300267,-0.001064,-0.002126,0.000106,-0.034303,-0.0,-0.0,3.0,0.3261,0.310485,0.3261,0.34076,,,,,,
443853,-0.04999,0.003376,0.300504,-3e-06,-0.001116,-0.00101,-0.034829,-0.0,-0.0,3.0,0.3261,0.310468,0.3261,0.340776,,,,,,
443873,-0.050094,0.003521,0.300789,-4e-06,-5.3e-05,-0.001063,-0.035887,-0.0,-0.0,3.0,0.3261,0.310597,0.3261,0.340662,,,,,,
443893,-0.050214,0.003543,0.300902,-0.001068,-5.3e-05,-0.001063,-0.036399,-0.0,-0.0,3.0,0.3261,0.310543,0.3261,0.34071,,,,,,
443913,-0.050092,0.00353,0.301135,-0.001068,0.00101,-0.001116,-0.037275,-0.0,-0.0,3.0,0.3261,0.310708,0.3261,0.340564,,,,,,
443933,-0.049989,0.003394,0.301249,-0.001068,0.00101,-0.001116,-0.038108,-0.0,-0.0,3.0,0.3261,0.310863,0.3261,0.340427,,,,,,
443953,-0.049852,0.003503,0.301539,-0.001068,-5.3e-05,-0.001063,-0.038723,-0.0,-0.0,3.0,0.3261,0.310963,0.3261,0.340338,,,,,,
443973,-0.049833,0.003627,0.301657,-0.001068,-5.3e-05,-0.001063,-0.039302,-0.0,-0.0,3.0,0.3261,0.311021,0.3261,0.340288,,,,,,
443993,-0.049953,0.003648,0.30177,-0.002136,-0.000106,-0.002126,-0.040318,-0.0,-0.0,3.0,0.3261,0.31119,0.3261,0.340137,,,,,,
444013,-0.050091,0.003549,0.30188,-0.002136,-0.000107,-0.002126,-0.041009,-0.0,-0.0,3.0,0.3261,0.31252,0.3261,0.338953,,,,,,
444033,-0.05009,0.003552,0.301995,-0.002132,-5.3e-05,-0.001063,-0.041998,-0.0,-0.0,3.0,0.3261,0.312742,0.3261,0.338754,,,,,,
444053,-0.050093,0.003556,0.302165,-0.002132,-5.3e-05,-0.001063,-0.042874,-0.0,-0.0,3.0,0.3261,0.312935,0.3261,0.33858,,,,,,
444073,-0.05011,0.003441,0.302392,-0.001068,-5.3e-05,-0.001063,-0.043679,-0.0,-0.0,3.0,0.3261,0.313114,0.3261,0.33842,,,,,,
444093,-0.050211,0.003583,0.302508,-0.001068,-5.3e-05,-0.001063,-0.044077,-0.0,-0.0,3.0,0.3261,0.314382,0.3261,0.337273,,,,,,
444113,-0.050108,0.003447,0.302623,-0.001068,-0.001116,-0.00101,-0.044939,-0.0,-0.0,3.0,0.3261,0.314631,0.3261,0.337046,,,,,,
444133,-0.050107,0.003453,0.302853,-3e-06,-0.001116,-0.00101,-0.044939,-0.0,-0.0,3.0,0.3261,0.314565,0.3261,0.337106,,,,,,
444153,-0.05023,0.003475,0.30302,0.001061,-0.002179,-0.000956,-0.046381,-0.0,-0.0,3.0,0.3261,0.313698,0.3261,0.337893,,,,,,
444173,-0.050507,0.003277,0.303241,0.001061,-0.002179,-0.000955,-0.047048,-0.0,-0.0,3.0,0.3261,0.31378,0.3261,0.337818,,,,,,
444193,-0.050645,0.003177,0.303351,0.001061,-0.00218,-0.000955,-0.047906,-0.0,-0.0,3.0,0.3261,0.312732,0.3261,0.338763,,,,,,
444213,-0.050523,0.003165,0.303583,0.0,-0.002126,0.000107,-0.048567,-0.0,-0.0,3.0,0.3261,0.311705,0.3261,0.33968,,,,,,
444233,-0.050421,0.003029,0.303697,-0.001064,-0.002126,0.000107,-0.049132,-0.0,-0.0,3.0,0.3261,0.311908,0.3261,0.3395,,,,,,
444253,-0.050404,0.003153,0.30387,-0.001064,-0.001063,5.4e-05,-0.050045,-0.0,-0.0,3.0,0.3261,0.313478,0.3261,0.338092,,,,,,
444273,-0.050505,0.003298,0.304101,-0.001064,0.0,0.0,-0.050802,-0.0,-0.0,3.0,0.3261,0.313696,0.3261,0.337895,,,,,,
444293,-0.050467,0.003546,0.304337,-4e-06,-5.4e-05,-0.001063,-0.051546,-0.0,-0.0,3.0,0.3261,0.315224,0.3261,0.336504,,,,,,
444313,-0.05055,0.003808,0.304456,-8e-06,0.000955,-0.00218,-0.052381,-0.0,-0.0,3.0,0.3261,0.314254,0.3261,0.337389,,,,,,
444333,-0.050775,0.00397,0.304625,-9e-06,0.000955,-0.00218,-0.052381,-0.0,-0.0,3.0,0.3261,0.314203,0.3261,0.337435,,,,,,
444353,-0.050653,0.003954,0.304742,-0.001069,0.001009,-0.001117,-0.053677,-0.0,-0.0,3.0,0.3261,0.31346,0.3261,0.338108,,,,,,
444373,-0.050912,0.003874,0.30485,-0.002133,0.001009,-0.001117,-0.05427,-0.0,-0.0,3.0,0.3261,0.313623,0.3261,0.337961,,,,,,
444393,-0.050828,0.003617,0.304961,-0.002132,-5.4e-05,-0.001063,-0.055131,-0.0,-0.0,3.0,0.3261,0.315243,0.3261,0.336487,,,,,,
444413,-0.050845,0.003502,0.305188,-0.002128,0.0,0.0,-0.055628,-0.0,-0.0,3.0,0.3261,0.316708,0.3261,0.335139,,,,,,
444433,-0.051108,0.003423,0.305351,-0.001068,-5.4e-05,-0.001063,-0.056336,-0.0,-0.0,3.0,0.3261,0.316922,0.3261,0.334941,,,,,,
444453,-0.051468,0.003485,0.305574,-0.001068,-0.001118,-0.001008,-0.057036,-0.0,-0.0,3.0,0.3261,0.318344,0.3261,0.333614,,,,,,
444473,-0.05183,0.00354,0.305568,-4e-06,-0.001118,-0.001008,-0.057761,-0.0,-0.0,3.0,0.3261,0.317313,0.3261,0.334577,,,,,,
444493,-0.05221,0.003479,0.305673,-4e-06,-0.001118,-0.001007,-0.058125,-0.0,-0.0,3.0,0.3261,0.31615,0.3261,0.335654,,,,,,
444513,-0.052453,0.00352,0.305839,-4e-06,-0.001119,-0.001007,-0.059078,-0.0,-0.0,3.0,0.3261,0.316476,0.3261,0.335354,,,,,,
444533,-0.05273,0.003322,0.306059,-0.001064,-0.002125,0.000112,-0.059528,-0.0,-0.0,3.0,0.3261,0.315377,0.3261,0.336365,,,,,,
444553,-0.052989,0.003242,0.306166,-0.001064,-0.002125,0.000113,-0.06008,-0.0,-0.0,3.0,0.3261,0.315571,0.3261,0.336187,,,,,,
444573,-0.053007,0.003127,0.306393,-0.002128,-0.001063,5.6e-05,-0.060933,-0.0,-0.0,3.0,0.3261,0.315948,0.3261,0.335841,,,,,,
444593,-0.053352,0.003311,0.306674,-0.001068,-0.001119,-0.001006,-0.061381,-0.0,-0.0,3.0,0.3261,0.31733,0.3261,0.334561,,,,,,
444613,-0.053452,0.003456,0.306905,-0.001068,-5.7e-05,-0.001063,-0.062028,-0.0,-0.0,3.0,0.3261,0.317624,0.3261,0.334288,,,,,,
444633,-0.053918,0.003659,0.307184,-0.001072,0.000948,-0.002183,-0.062671,-0.0,-0.0,3.0,0.3261,0.317807,0.3261,0.334117,,,,,,
444653,-0.054019,0.003801,0.3073,-0.002137,0.00201,-0.00224,-0.06333,-0.0,-0.0,3.0,0.3261,0.318115,0.3261,0.333828,,,,,,
444673,-0.053999,0.003925,0.307418,-0.002133,0.001005,-0.00112,-0.063698,-0.0,-0.0,3.0,0.3261,0.318372,0.3261,0.333588,,,,,,
444693,-0.054118,0.00395,0.307646,-0.001068,-5.8e-05,-0.001063,-0.06443,-0.0,-0.0,3.0,0.3261,0.319937,0.3261,0.332109,,,,,,
444713,-0.054257,0.003852,0.307755,-0.001068,-0.00112,-0.001005,-0.06478,-0.0,-0.0,3.0,0.3261,0.320143,0.3261,0.331913,,,,,,
444733,-0.054519,0.003776,0.308033,-0.001068,-0.002183,-0.000947,-0.065671,-0.0,-0.0,3.0,0.3261,0.320498,0.3261,0.331575,,,,,,
444753,-0.054935,0.003477,0.308246,-0.001068,-0.002184,-0.000946,-0.066044,-0.0,-0.0,3.0,0.3261,0.320627,0.3261,0.331452,,,,,,
444773,-0.055436,0.003434,0.308348,-0.001067,-0.002184,-0.000945,-0.066733,-0.0,-0.0,3.0,0.3261,0.31962,0.3261,0.33241,,,,,,
444793,-0.055837,0.003257,0.30862,-0.001064,-0.002125,0.000119,-0.06733,-0.0,-0.0,3.0,0.3261,0.318609,0.3261,0.333365,,,,,,
444813,-0.056401,0.003595,0.30873,-0.002128,-0.001063,6e-05,-0.067911,-0.0,-0.0,3.0,0.3261,0.318766,0.3261,0.333217,,,,,,
444833,-0.057126,0.003716,0.309,-0.002128,-0.001062,6.1e-05,-0.068521,-0.0,-0.0,3.0,0.3261,0.31888,0.3261,0.33311,,,,,,
444853,-0.05769,0.004057,0.309225,-0.002133,-6.1e-05,-0.001062,-0.068521,-0.0,-0.0,3.0,0.3261,0.318843,0.3261,0.333145,,,,,,
444873,-0.058276,0.00428,0.309501,-0.002138,0.000938,-0.002187,-0.06955,-0.0,-0.0,3.0,0.3261,0.319139,0.3261,0.332865,,,,,,
444893,-0.058998,0.0044,0.309716,-0.002138,0.000937,-0.002188,-0.069956,-0.0,-0.0,3.0,0.3261,0.319189,0.3261,0.332818,,,,,,
444913,-0.05998,0.004433,0.309807,-0.003202,0.000935,-0.002188,-0.070295,-0.0,-0.0,3.0,0.3261,0.319119,0.3261,0.332884,,,,,,
444933,-0.060882,0.004212,0.310064,-0.003197,-6.5e-05,-0.001062,-0.07104,-0.0,-0.0,3.0,0.3261,0.319207,0.3261,0.332802,,,,,,
444953,-0.061662,0.003967,0.310153,-0.003197,-6.6e-05,-0.001062,-0.071659,-0.0,-0.0,3.0,0.3261,0.318063,0.3261,0.333877,,,,,,
444973,-0.062685,0.003764,0.310406,-0.003192,-0.001062,6.7e-05,-0.072191,-0.0,-0.0,3.0,0.3261,0.319261,0.3261,0.33275,,,,,,
444993,-0.063788,0.003817,0.310493,-0.003192,-0.001062,6.8e-05,-0.07245,-0.0,-0.0,3.0,0.3261,0.319099,0.3261,0.332903,,,,,,
445013,-0.065033,0.003774,0.310743,-0.002132,-0.001131,-0.000993,-0.072707,-0.0,-0.0,3.0,0.3261,0.318883,0.3261,0.333107,,,,,,
445033,-0.066622,0.003904,0.310873,-0.002132,-0.001133,-0.000991,-0.073318,-0.0,-0.0,3.0,0.3261,0.318661,0.3261,0.333316,,,,,,
445053,-0.067947,0.004116,0.310956,-0.002128,-0.002124,0.000145,-0.073891,-0.0,-0.0,3.0,0.3261,0.317268,0.3261,0.334619,,,,,,
445073,-0.069276,0.004329,0.311095,-0.002128,-0.002123,0.000147,-0.074182,-0.0,-0.0,3.0,0.3261,0.314508,0.3261,0.337158,,,,,,
445093,-0.070758,0.004323,0.31128,-0.003197,-0.001137,-0.000986,-0.074938,-0.0,-0.0,3.0,0.3261,0.313074,0.3261,0.338455,,,,,,
445113,-0.072125,0.004295,0.311409,-0.005326,-7.7e-05,-0.001061,-0.075258,-0.0,-0.0,3.0,0.3261,0.312773,0.3261,0.338726,,,,,,
445133,-0.073712,0.004435,0.311764,-0.00639,-7.8e-05,-0.001061,-0.075722,-0.0,-0.0,3.0,0.3261,0.313685,0.3261,0.337905,,,,,,
445153,-0.075458,0.004349,0.311991,-0.006395,0.000901,-0.002203,-0.076187,-0.0,-0.0,3.0,0.3261,0.314528,0.3261,0.33714,,,,,,
445173,-0.077565,0.004325,0.312322,-0.006395,0.000896,-0.002205,-0.076634,-0.0,-0.0,3.0,0.3261,0.315227,0.3261,0.336502,,,,,,
445193,-0.079914,0.004335,0.312529,-0.005331,0.000891,-0.002207,-0.076923,-0.0,-0.0,3.0,0.3261,0.314514,0.3261,0.337153,,,,,,
445213,-0.082244,0.004466,0.312738,-0.004266,-0.000175,-0.002121,-0.077263,-0.0,-0.0,3.0,0.3261,0.312537,0.3261,0.338937,,,,,,
445233,-0.084574,0.004598,0.312945,-0.004266,-0.00124,-0.002031,-0.077653,-0.0,-0.0,3.0,0.3261,0.31054,0.3261,0.340712,,,,,,
445253,-0.086763,0.004837,0.313273,-0.005325,-0.002213,-0.000876,-0.078242,-0.0,-0.0,3.0,0.3261,0.30861,0.3261,0.342401,,,,,,
445273,-0.089136,0.00473,0.313521,-0.006384,-0.00318,0.000284,-0.078517,-0.0,-0.0,3.0,0.3261,0.306455,0.3261,0.344256,,,,,,
445293,-0.091806,0.005052,0.313944,-0.007453,-0.003277,-0.000767,-0.078973,-0.0,-0.0,3.0,0.3261,0.306821,0.3261,0.343943,,,,,,
445313,-0.094538,0.005015,0.314404,-0.00639,-0.002219,-0.000859,-0.079373,-0.0,-0.0,3.0,0.3261,0.305816,0.3261,0.3448,,,,,,
445333,-0.097392,0.004994,0.314742,-0.005326,-0.001163,-0.000956,-0.079767,-0.0,-0.0,3.0,0.3261,0.304726,0.3261,0.345722,,,,,,
445353,-0.10022,0.005098,0.315139,-0.005332,-0.000213,-0.002118,-0.079953,-0.0,-0.0,3.0,0.3261,0.303536,0.3261,0.34672,,,,,,
445373,-0.103156,0.005338,0.315477,-0.005327,-0.00011,-0.001059,-0.080459,-0.0,-0.0,3.0,0.3261,0.302381,0.3261,0.347679,,,,,,
445393,-0.105771,0.005275,0.315698,-0.005327,-0.000112,-0.001058,-0.080772,-0.0,-0.0,3.0,0.3261,0.29989,0.3261,0.349719,,,,,,
445413,-0.10844,0.005598,0.315988,-0.006391,-0.000115,-0.001058,-0.081067,-0.0,-0.0,3.0,0.3261,0.298673,0.3261,0.350702,,,,,,
445433,-0.110896,0.005758,0.316221,-0.007455,-0.001175,-0.00094,-0.081241,-0.0,-0.0,3.0,0.3261,0.297437,0.3261,0.35169,,,,,,
445453,-0.113346,0.005918,0.316395,-0.007455,-0.001178,-0.000937,-0.081695,-0.0,-0.0,3.0,0.3261,0.296259,0.3261,0.352623,,,,,,
445473,-0.115922,0.006098,0.316618,-0.006391,-0.00118,-0.000934,-0.082011,-0.0,-0.0,3.0,0.3261,0.296317,0.3261,0.352577,,,,,,
445493,-0.118249,0.006246,0.316906,-0.005327,-0.001182,-0.000931,-0.082328,-0.0,-0.0,3.0,0.3261,0.296434,0.3261,0.352485,,,,,,
445513,-0.120603,0.006276,0.317242,-0.005328,-0.000128,-0.001057,-0.08263,-0.0,-0.0,3.0,0.3261,0.295144,0.3261,0.353499,,,,,,
445533,-0.122349,0.006202,0.317431,-0.004263,-0.00013,-0.001056,-0.08282,-0.0,-0.0,3.0,0.3261,0.29401,0.3261,0.354382,,,,,,
445553,-0.124075,0.006256,0.31774,-0.004264,-0.000132,-0.001056,-0.083136,-0.0,-0.0,3.0,0.3261,0.294273,0.3261,0.354178,,,,,,
445573,-0.125347,0.006107,0.318005,-0.003199,-0.000133,-0.001056,-0.083445,-0.0,-0.0,3.0,0.3261,0.294685,0.3261,0.353857,,,,,,
445593,-0.126572,0.006204,0.318342,-0.002135,-0.000134,-0.001056,-0.083445,-0.0,-0.0,3.0,0.3261,0.294972,0.3261,0.353633,,,,,,
445613,-0.127291,0.006336,0.318537,-0.001071,-0.000135,-0.001056,-0.083923,-0.0,-0.0,3.0,0.3261,0.294256,0.3261,0.354191,,,,,,
445633,-0.127898,0.006442,0.31868,-0.00107,-0.001191,-0.00092,-0.084066,-0.0,-0.0,3.0,0.3261,0.29344,0.3261,0.354823,,,,,,
445653,-0.128257,0.006508,0.318777,-0.00107,-0.001192,-0.000919,-0.084308,-0.0,-0.0,3.0,0.3261,0.292746,0.3261,0.355357,,,,,,
445673,-0.128255,0.006516,0.318891,-0.001063,-0.001055,0.000136,-0.084546,-0.0,-0.0,3.0,0.3261,0.293567,0.3261,0.354725,,,,,,
445693,-0.128011,0.006492,0.319131,-0.00107,-0.001191,-0.00092,-0.084769,-0.0,-0.0,3.0,0.3261,0.293092,0.3261,0.355091,,,,,,
445713,-0.127769,0.006461,0.319256,-0.001064,0.0,0.0,-0.084905,-0.0,-0.0,3.0,0.3261,0.29397,0.3261,0.354413,,,,,,
445733,-0.127675,0.00633,0.319426,-0.001064,0.0,0.0,-0.08506,-0.0,-0.0,3.0,0.3261,0.294803,0.3261,0.353765,,,,,,
445753,-0.12721,0.006147,0.31967,0.0,0.0,0.0,-0.085294,-0.0,-0.0,3.0,0.3261,0.294428,0.3261,0.354057,,,,,,
445773,-0.126948,0.006236,0.319803,0.001058,-0.000135,-0.001056,-0.085558,-0.0,-0.0,3.0,0.3261,0.294019,0.3261,0.354375,,,,,,
445793,-0.126688,0.006318,0.319822,0.001058,-0.000134,-0.001056,-0.085696,-0.0,-0.0,3.0,0.3261,0.292174,0.3261,0.355795,,,,,,
445813,-0.126448,0.006279,0.319833,0.001065,-0.001056,0.000134,-0.08588,-0.0,-0.0,3.0,0.3261,0.290338,0.3261,0.357188,,,,,,
445833,-0.126097,0.006106,0.3199,1e-06,-0.001056,0.000134,-0.086039,-0.0,-0.0,3.0,0.3261,0.289924,0.3261,0.3575,,,,,,
445853,-0.125595,0.006156,0.320044,-0.001063,-0.001056,0.000133,-0.086187,-0.0,-0.0,3.0,0.3261,0.289569,0.3261,0.357766,,,,,,
445873,-0.124974,0.006179,0.320079,-0.001063,-0.001056,0.000133,-0.08626,-0.0,-0.0,3.0,0.3261,0.290632,0.3261,0.356966,,,,,,
445893,-0.124612,0.006128,0.32021,1e-06,-0.001056,0.000132,-0.08644,-0.0,-0.0,3.0,0.3261,0.291652,0.3261,0.356193,,,,,,
445913,-0.124471,0.006236,0.320337,-7e-06,-0.000132,-0.001056,-0.086531,-0.0,-0.0,3.0,0.3261,0.291168,0.3261,0.356561,,,,,,
445933,-0.124089,0.006305,0.320475,0.001058,-0.000132,-0.001056,-0.086605,-0.0,-0.0,3.0,0.3261,0.290777,0.3261,0.356857,,,,,,
445953,-0.123606,0.006234,0.320611,0.002122,-0.000131,-0.001056,-0.08675,-0.0,-0.0,3.0,0.3261,0.289054,0.3261,0.358151,,,,,,
445973,-0.122764,0.006098,0.32065,0.001058,-0.00013,-0.001056,-0.086799,-0.0,-0.0,3.0,0.3261,0.287436,0.3261,0.359351,,,,,,
445993,-0.122014,0.006106,0.320746,0.001065,-0.001056,0.00013,-0.086916,-0.0,-0.0,3.0,0.3261,0.287225,0.3261,0.359507,,,,,,
446013,-0.121411,0.006016,0.320888,2e-06,-0.002113,0.000258,-0.086993,-0.0,-0.0,3.0,0.3261,0.288372,0.3261,0.358659,,,,,,
446033,-0.12041,0.0061,0.320945,0.001059,-0.002241,-0.000801,-0.087066,-0.0,-0.0,3.0,0.3261,0.289664,0.3261,0.357695,,,,,,
446053,-0.11942,0.00607,0.321052,0.001059,-0.001183,-0.00093,-0.087096,-0.0,-0.0,3.0,0.3261,0.290958,0.3261,0.35672,,,,,,
446073,-0.118316,0.006021,0.321221,0.003187,-0.001182,-0.000931,-0.087166,-0.0,-0.0,3.0,0.3261,0.290918,0.3261,0.356751,,,,,,
446093,-0.117313,0.006112,0.321391,0.003186,-0.000125,-0.001057,-0.087166,-0.0,-0.0,3.0,0.3261,0.292218,0.3261,0.355761,,,,,,
446113,-0.115944,0.006136,0.321404,0.00425,-0.000123,-0.001057,-0.08721,-0.0,-0.0,3.0,0.3261,0.290923,0.3261,0.356747,,,,,,
446133,-0.114092,0.006089,0.321551,0.00425,-0.000121,-0.001057,-0.087249,-0.0,-0.0,3.0,0.3261,0.291217,0.3261,0.356524,,,,,,
446153,-0.112227,0.006163,0.32176,0.003187,-0.001177,-0.000938,-0.087265,-0.0,-0.0,3.0,0.3261,0.29153,0.3261,0.356286,,,,,,
446173,-0.110236,0.006216,0.321916,0.003188,-0.002233,-0.000824,-0.087266,-0.0,-0.0,3.0,0.3261,0.29329,0.3261,0.354939,,,,,,
446193,-0.108264,0.006148,0.322063,0.004252,-0.002231,-0.000828,-0.087262,-0.0,-0.0,3.0,0.3261,0.293687,0.3261,0.354631,,,,,,
446213,-0.106172,0.00606,0.322213,0.004251,-0.001171,-0.000945,-0.087247,-0.0,-0.0,3.0,0.3261,0.295527,0.3261,0.353199,,,,,,
446233,-0.104288,0.006248,0.322308,0.004251,-0.001169,-0.000948,-0.087218,-0.0,-0.0,3.0,0.3261,0.295938,0.3261,0.352877,,,,,,
446253,-0.102216,0.006039,0.322448,0.005315,-0.001167,-0.00095,-0.0872,-0.0,-0.0,3.0,0.3261,0.29645,0.3261,0.352473,,,,,,
446273,-0.100024,0.005805,0.322477,0.005315,-0.000106,-0.001059,-0.08715,-0.0,-0.0,3.0,0.3261,0.297033,0.3261,0.352011,,,,,,
446293,-0.097693,0.005672,0.322515,0.005321,0.0,0.0,-0.087105,-0.0,-0.0,3.0,0.3261,0.299039,0.3261,0.350407,,,,,,
446313,-0.09536,0.005544,0.322664,0.005322,-0.001059,0.000101,-0.087073,-0.0,-0.0,3.0,0.3261,0.299723,0.3261,0.349855,,,,,,
446333,-0.092908,0.005391,0.322701,0.00638,-0.001158,-0.000961,-0.086982,-0.0,-0.0,3.0,0.3261,0.300465,0.3261,0.349252,,,,,,
446353,-0.090577,0.005258,0.322732,0.00638,-0.001156,-0.000964,-0.086903,-0.0,-0.0,3.0,0.3261,0.299871,0.3261,0.349734,,,,,,
446373,-0.088346,0.005265,0.322761,0.006386,-0.00212,0.000188,-0.086814,-0.0,-0.0,3.0,0.3261,0.3006,0.3261,0.349141,,,,,,
446393,-0.08602,0.005132,0.322845,0.005322,-0.002121,0.000183,-0.086716,-0.0,-0.0,3.0,0.3261,0.300048,0.3261,0.349591,,,,,,
446413,-0.083689,0.004999,0.322869,0.004252,-0.001149,-0.000972,-0.086659,-0.0,-0.0,3.0,0.3261,0.300893,0.3261,0.348902,,,,,,
