time_ms,roll,pitch,yaw,reference_roll,reference_pitch,reference_yaw,reference_throttle,throttle_1,throttle_2,throttle_3,throttle_4,roll_predicted,pitch_predicted,yaw_predicted,roll_rate_predicted,pitch_rate_predicted,yaw_rate_predicted,value1,value2,value3,value4,value5,value6
306120,-0.003652,-0.01575,-0.001372,0.0,-0.0,-0.0,3.0,0.3261,0.323793,0.3261,0.328385,,,,,,,-0.003856,-0.017114,0.004941,-0.004635,-1.5e-05,9.5e-05
306140,-0.003653,-0.015628,-0.00125,0.0,-0.0,-0.0,3.0,0.3261,0.323666,0.3261,0.32851,,,,,,,-0.003905,-0.017114,0.004943,-0.003288,-3e-06,0.000107
306160,-0.003775,-0.015628,-0.00125,0.0,-0.0,-0.0,3.0,0.3261,0.324186,0.3261,0.327999,,,,,,,-0.003906,-0.017114,0.004945,-0.006707,-3e-06,0.000107
306180,-0.003774,-0.015628,-0.001373,0.0,-0.0,-0.0,3.0,0.3261,0.324429,0.3261,0.32776,,,,,,,-0.003928,-0.017114,0.004946,-0.005965,-3e-06,9.5e-05
306200,-0.003407,-0.015628,-0.00137,0.0,-0.0,-0.0,3.0,0.3261,0.324889,0.3261,0.327305,,,,,,,-0.003909,-0.017115,0.004948,0.004108,-3e-06,9.5e-05
306220,-0.003041,-0.015628,-0.001367,0.0,-0.0,-0.0,3.0,0.3261,0.324856,0.3261,0.327338,,,,,,,-0.003855,-0.017115,0.00495,0.01309,-3e-06,9.5e-05
306240,-0.003041,-0.015506,-0.001367,0.0,-0.0,-0.0,3.0,0.3261,0.324534,0.3261,0.327657,,,,,,,-0.003782,-0.017114,0.004952,0.010927,9e-06,9.5e-05
306260,-0.003163,-0.015628,-0.001368,0.0,-0.0,-0.0,3.0,0.3261,0.324299,0.3261,0.327888,,,,,,,-0.003718,-0.017114,0.004954,0.005514,-3e-06,9.4e-05
306280,-0.003408,-0.015628,-0.001248,0.0,-0.0,-0.0,3.0,0.3261,0.323825,0.3261,0.328354,,,,,,,-0.003699,-0.017114,0.004956,-0.002155,-3e-06,0.000106
306300,-0.00353,-0.015628,-0.001249,0.0,-0.0,-0.0,3.0,0.3261,0.323882,0.3261,0.328299,,,,,,,-0.003681,-0.017114,0.004959,-0.006204,-3e-06,0.000106
306320,-0.003653,-0.015506,-0.001249,0.0,-0.0,-0.0,3.0,0.3261,0.323775,0.3261,0.328403,,,,,,,-0.003709,-0.017114,0.004961,-0.008931,9e-06,0.000105
306340,-0.003653,-0.015384,-0.001249,0.0,-0.0,-0.0,3.0,0.3261,0.324025,0.3261,0.328158,,,,,,,-0.003756,-0.017114,0.004963,-0.007518,2.1e-05,0.000105
306360,-0.003408,-0.015506,-0.00137,0.0,-0.0,-0.0,3.0,0.3261,0.324614,0.3261,0.327578,,,,,,,-0.003761,-0.017114,0.004965,-0.000217,9e-06,9.3e-05
306380,-0.003285,-0.015506,-0.001369,0.0,-0.0,-0.0,3.0,0.3261,0.324515,0.3261,0.327675,,,,,,,-0.003771,-0.017114,0.004967,0.003618,9e-06,9.3e-05
306400,-0.002919,-0.015505,-0.001366,0.0,-0.0,-0.0,3.0,0.3261,0.324919,0.3261,0.327275,,,,,,,-0.003722,-0.017114,0.004968,0.012808,9e-06,9.3e-05
306420,-0.002919,-0.015628,-0.001366,0.0,-0.0,-0.0,3.0,0.3261,0.324219,0.3261,0.327967,,,,,,,-0.003674,-0.017113,0.00497,0.011308,-3e-06,9.3e-05
306440,-0.00292,-0.015627,-0.001244,0.0,-0.0,-0.0,3.0,0.3261,0.324222,0.3261,0.327964,,,,,,,-0.003606,-0.017113,0.004972,0.009279,-3e-06,0.000105
306460,-0.003286,-0.015506,-0.001246,0.0,-0.0,-0.0,3.0,0.3261,0.324193,0.3261,0.327992,,,,,,,-0.00351,-0.017113,0.004975,-0.00407,9e-06,0.000104
306480,-0.003286,-0.015506,-0.001246,0.0,-0.0,-0.0,3.0,0.3261,0.324529,0.3261,0.327662,,,,,,,-0.003442,-0.017113,0.004977,-0.005987,9e-06,0.000104
306500,-0.003042,-0.015383,-0.001244,0.0,-0.0,-0.0,3.0,0.3261,0.325083,0.3261,0.327113,,,,,,,-0.00334,-0.017113,0.004979,-0.00184,2.1e-05,0.000104
306520,-0.00292,-0.015505,-0.001244,0.0,-0.0,-0.0,3.0,0.3261,0.324866,0.3261,0.327328,,,,,,,-0.00329,-0.017113,0.004981,0.000212,9e-06,0.000104
306540,-0.00292,-0.015505,-0.001244,0.0,-0.0,-0.0,3.0,0.3261,0.32483,0.3261,0.327363,,,,,,,-0.003262,-0.017113,0.004983,-0.000556,9e-06,0.000104
306560,-0.002798,-0.015627,-0.001243,0.0,-0.0,-0.0,3.0,0.3261,0.324673,0.3261,0.327519,,,,,,,-0.003265,-0.017112,0.004985,0.003059,-3e-06,0.000104
306580,-0.002798,-0.015749,-0.001243,0.0,-0.0,-0.0,3.0,0.3261,0.324149,0.3261,0.328036,,,,,,,-0.003293,-0.017112,0.004987,0.003806,-1.6e-05,0.000103
306600,-0.002798,-0.015505,-0.001243,0.0,-0.0,-0.0,3.0,0.3261,0.323825,0.3261,0.328354,,,,,,,-0.003328,-0.017113,0.004989,0.004758,9e-06,0.000103
306620,-0.00292,-0.015505,-0.001244,0.0,-0.0,-0.0,3.0,0.3261,0.3239,0.3261,0.328281,,,,,,,-0.003331,-0.017113,0.004991,0.001332,9e-06,0.000103
306640,-0.00292,-0.015261,-0.001243,0.0,-0.0,-0.0,3.0,0.3261,0.324366,0.3261,0.327822,,,,,,,-0.003296,-0.017112,0.004993,0.000369,3.3e-05,0.000103
306660,-0.00292,-0.015383,-0.001243,0.0,-0.0,-0.0,3.0,0.3261,0.324383,0.3261,0.327805,,,,,,,-0.003262,-0.017112,0.004995,-0.000626,2.1e-05,0.000103
306680,-0.00292,-0.015383,-0.001243,0.0,-0.0,-0.0,3.0,0.3261,0.324298,0.3261,0.327889,,,,,,,-0.003244,-0.017112,0.004997,-0.001156,2.1e-05,0.000102
306700,-0.00292,-0.015627,-0.001244,0.0,-0.0,-0.0,3.0,0.3261,0.324243,0.3261,0.327944,,,,,,,-0.003234,-0.017111,0.005,-0.001433,-3e-06,0.000102
306720,-0.002798,-0.015505,-0.001243,0.0,-0.0,-0.0,3.0,0.3261,0.324473,0.3261,0.327717,,,,,,,-0.003225,-0.017111,0.005002,0.001843,9e-06,0.000102
306740,-0.002921,-0.015749,-0.001122,0.0,-0.0,-0.0,3.0,0.3261,0.32468,0.3261,0.327512,,,,,,,-0.003162,-0.017111,0.005004,-0.003504,-1.6e-05,0.000114
306760,-0.002799,-0.015627,-0.001121,0.0,-0.0,-0.0,3.0,0.3261,0.324531,0.3261,0.327659,,,,,,,-0.003168,-0.017111,0.005006,0.000206,-3e-06,0.000114
306780,-0.002676,-0.015505,-0.001242,0.0,-0.0,-0.0,3.0,0.3261,0.32458,0.3261,0.327611,,,,,,,-0.003147,-0.017111,0.005008,0.003155,9e-06,0.000101
306800,-0.002554,-0.015383,-0.001241,0.0,-0.0,-0.0,3.0,0.3261,0.324341,0.3261,0.327847,,,,,,,-0.003156,-0.017111,0.00501,0.006898,2.1e-05,0.000101
306820,-0.002675,-0.015261,-0.001364,0.0,-0.0,-0.0,3.0,0.3261,0.324194,0.3261,0.327991,,,,,,,-0.003152,-0.017111,0.005012,0.003263,3.3e-05,8.9e-05
306840,-0.002798,-0.015505,-0.001243,0.0,-0.0,-0.0,3.0,0.3261,0.32385,0.3261,0.32833,,,,,,,-0.00318,-0.01711,0.005014,0.00051,9e-06,0.000101
306860,-0.00292,-0.015505,-0.001244,0.0,-0.0,-0.0,3.0,0.3261,0.323714,0.3261,0.328463,,,,,,,-0.003209,-0.01711,0.005016,-0.002211,9e-06,0.0001
306880,-0.003042,-0.01575,-0.001245,0.0,-0.0,-0.0,3.0,0.3261,0.323659,0.3261,0.328517,,,,,,,-0.003236,-0.01711,0.005018,-0.004991,-1.6e-05,0.0001
306900,-0.003164,-0.01575,-0.001246,0.0,-0.0,-0.0,3.0,0.3261,0.323876,0.3261,0.328304,,,,,,,-0.003257,-0.01711,0.00502,-0.007881,-1.6e-05,0.0001
306920,-0.003286,-0.015628,-0.001247,0.0,-0.0,-0.0,3.0,0.3261,0.323939,0.3261,0.328242,,,,,,,-0.003305,-0.01711,0.005022,-0.009981,-4e-06,0.0001
306940,-0.003164,-0.015505,-0.001246,0.0,-0.0,-0.0,3.0,0.3261,0.324252,0.3261,0.327934,,,,,,,-0.003352,-0.01711,0.005024,-0.005037,9e-06,9.9e-05
306960,-0.00292,-0.015383,-0.001243,0.0,-0.0,-0.0,3.0,0.3261,0.323957,0.3261,0.328225,,,,,,,-0.003429,-0.01711,0.005026,0.004216,2.1e-05,9.9e-05
306980,-0.00292,-0.015261,-0.001243,0.0,-0.0,-0.0,3.0,0.3261,0.323765,0.3261,0.328413,,,,,,,-0.003494,-0.017109,0.005028,0.006084,3.3e-05,9.9e-05
307000,-0.003165,-0.015261,-0.001245,0.0,-0.0,-0.0,3.0,0.3261,0.323208,0.3261,0.328958,,,,,,,-0.003582,-0.017109,0.00503,0.001508,3.3e-05,9.9e-05
307020,-0.003287,-0.015261,-0.001246,0.0,-0.0,-0.0,3.0,0.3261,0.323367,0.3261,0.328803,,,,,,,-0.003638,-0.017108,0.005032,-0.000388,3.3e-05,9.9e-05
307040,-0.003409,-0.015506,-0.001247,0.0,-0.0,-0.0,3.0,0.3261,0.323416,0.3261,0.328755,,,,,,,-0.003653,-0.017108,0.005034,-0.003513,8e-06,9.8e-05
307060,-0.003531,-0.015506,-0.001248,0.0,-0.0,-0.0,3.0,0.3261,0.323474,0.3261,0.328698,,,,,,,-0.00367,-0.017108,0.005036,-0.006546,8e-06,9.8e-05
307080,-0.003653,-0.015506,-0.001249,0.0,-0.0,-0.0,3.0,0.3261,0.323663,0.3261,0.328513,,,,,,,-0.003698,-0.017108,0.005038,-0.009212,8e-06,9.8e-05
307100,-0.00353,-0.015628,-0.001249,0.0,-0.0,-0.0,3.0,0.3261,0.323936,0.3261,0.328245,,,,,,,-0.003735,-0.017108,0.00504,-0.004561,-4e-06,9.8e-05
307120,-0.00353,-0.015628,-0.001249,0.0,-0.0,-0.0,3.0,0.3261,0.323845,0.3261,0.328335,,,,,,,-0.003787,-0.017107,0.005042,-0.003049,-4e-06,9.7e-05
307140,-0.003409,-0.015384,-0.001247,0.0,-0.0,-0.0,3.0,0.3261,0.323719,0.3261,0.328458,,,,,,,-0.003848,-0.017107,0.005044,0.002212,2e-05,9.7e-05
307160,-0.003531,-0.015384,-0.001248,0.0,-0.0,-0.0,3.0,0.3261,0.322738,0.3261,0.329416,,,,,,,-0.003983,-0.017106,0.005046,0.002492,2e-05,9.7e-05
307180,-0.003531,-0.015139,-0.001248,0.0,-0.0,-0.0,3.0,0.3261,0.3231,0.3261,0.329064,,,,,,,-0.004038,-0.017106,0.005047,0.004099,4.5e-05,9.7e-05
307200,-0.004019,-0.01514,-0.001251,0.0,-0.0,-0.0,3.0,0.3261,0.322713,0.3261,0.32944,,,,,,,-0.0041,-0.017105,0.005049,-0.008248,4.5e-05,9.6e-05
307220,-0.003897,-0.01514,-0.00125,0.0,-0.0,-0.0,3.0,0.3261,0.323479,0.3261,0.328693,,,,,,,-0.004127,-0.017105,0.005051,-0.003855,4.5e-05,9.6e-05
307240,-0.004019,-0.015262,-0.001252,0.0,-0.0,-0.0,3.0,0.3261,0.323353,0.3261,0.328817,,,,,,,-0.004146,-0.017105,0.005053,-0.006879,3.2e-05,9.6e-05
307260,-0.003896,-0.015384,-0.001373,0.0,-0.0,-0.0,3.0,0.3261,0.323344,0.3261,0.328825,,,,,,,-0.004221,-0.017104,0.005055,-0.001107,2e-05,8.4e-05
307280,-0.004019,-0.01575,-0.001253,0.0,-0.0,-0.0,3.0,0.3261,0.323581,0.3261,0.328594,,,,,,,-0.004235,-0.017104,0.005057,-0.004232,-1.6e-05,9.5e-05
307300,-0.004019,-0.01575,-0.001253,0.0,-0.0,-0.0,3.0,0.3261,0.322973,0.3261,0.329187,,,,,,,-0.004334,-0.017104,0.005059,-0.001396,-1.6e-05,9.5e-05
307320,-0.00402,-0.01575,-0.001131,0.0,-0.0,-0.0,3.0,0.3261,0.323012,0.3261,0.32915,,,,,,,-0.004403,-0.017103,0.005061,0.000545,-1.6e-05,0.000107
307340,-0.004265,-0.015384,-0.00101,0.0,-0.0,-0.0,3.0,0.3261,0.322311,0.3261,0.329831,,,,,,,-0.004521,-0.017103,0.005063,-0.003212,2e-05,0.000119
307360,-0.004509,-0.015262,-0.001011,0.0,-0.0,-0.0,3.0,0.3261,0.322674,0.3261,0.329478,,,,,,,-0.004589,-0.017103,0.005065,-0.00826,3.2e-05,0.000119
307380,-0.004509,-0.015017,-0.001011,0.0,-0.0,-0.0,3.0,0.3261,0.322732,0.3261,0.329422,,,,,,,-0.004677,-0.017103,0.005067,-0.005669,5.7e-05,0.000119
307400,-0.004509,-0.015262,-0.001011,0.0,-0.0,-0.0,3.0,0.3261,0.323001,0.3261,0.32916,,,,,,,-0.004723,-0.017102,0.00507,-0.004346,3.2e-05,0.000118
307420,-0.004387,-0.015261,-0.00101,0.0,-0.0,-0.0,3.0,0.3261,0.322717,0.3261,0.329436,,,,,,,-0.004808,-0.017102,0.005072,0.001615,3.2e-05,0.000118
307440,-0.004387,-0.015506,-0.001011,0.0,-0.0,-0.0,3.0,0.3261,0.323007,0.3261,0.329155,,,,,,,-0.00484,-0.017102,0.005074,0.002596,8e-06,0.000118
307460,-0.004509,-0.015628,-0.001012,0.0,-0.0,-0.0,3.0,0.3261,0.322965,0.3261,0.329195,,,,,,,-0.004859,-0.017101,0.005077,-0.000375,-4e-06,0.000118
307480,-0.004509,-0.01575,-0.001012,0.0,-0.0,-0.0,3.0,0.3261,0.32303,0.3261,0.329132,,,,,,,-0.004868,-0.017101,0.005079,-0.000131,-1.7e-05,0.000117
307500,-0.004508,-0.015628,-0.001134,0.0,-0.0,-0.0,3.0,0.3261,0.322907,0.3261,0.329252,,,,,,,-0.004875,-0.017101,0.005081,6e-05,-5e-06,0.000105
307520,-0.004508,-0.015384,-0.001134,0.0,-0.0,-0.0,3.0,0.3261,0.323188,0.3261,0.328977,,,,,,,-0.004858,-0.0171,0.005084,-0.000394,2e-05,0.000105
307540,-0.004509,-0.015139,-0.001011,0.0,-0.0,-0.0,3.0,0.3261,0.323144,0.3261,0.329021,,,,,,,-0.004862,-0.0171,0.005086,-0.000304,4.4e-05,0.000117
307560,-0.004631,-0.01514,-0.001012,0.0,-0.0,-0.0,3.0,0.3261,0.323001,0.3261,0.32916,,,,,,,-0.00488,-0.017099,0.005088,-0.003318,4.4e-05,0.000116
307580,-0.004509,-0.015139,-0.001011,0.0,-0.0,-0.0,3.0,0.3261,0.323162,0.3261,0.329003,,,,,,,-0.004913,-0.017099,0.00509,0.001228,4.4e-05,0.000116
307600,-0.00451,-0.015139,-0.000889,0.0,-0.0,-0.0,3.0,0.3261,0.32288,0.3261,0.329278,,,,,,,-0.004927,-0.017098,0.005093,0.00153,4.4e-05,0.000128
307620,-0.00451,-0.015261,-0.000889,0.0,-0.0,-0.0,3.0,0.3261,0.322655,0.3261,0.329497,,,,,,,-0.004966,-0.017098,0.005095,0.002624,3.2e-05,0.000128
307640,-0.00451,-0.015261,-0.000889,0.0,-0.0,-0.0,3.0,0.3261,0.323016,0.3261,0.329145,,,,,,,-0.004953,-0.017097,0.005098,0.002297,3.2e-05,0.000128
307660,-0.004754,-0.015383,-0.000891,0.0,-0.0,-0.0,3.0,0.3261,0.323027,0.3261,0.329134,,,,,,,-0.004931,-0.017096,0.0051,-0.005376,1.9e-05,0.000127
307680,-0.00451,-0.015383,-0.000889,0.0,-0.0,-0.0,3.0,0.3261,0.323341,0.3261,0.328829,,,,,,,-0.004924,-0.017096,0.005103,0.001514,1.9e-05,0.000127
307700,-0.004388,-0.015505,-0.000889,0.0,-0.0,-0.0,3.0,0.3261,0.322998,0.3261,0.329163,,,,,,,-0.004918,-0.017095,0.005105,0.004804,7e-06,0.000127
307720,-0.004388,-0.015383,-0.000888,0.0,-0.0,-0.0,3.0,0.3261,0.322919,0.3261,0.32924,,,,,,,-0.004917,-0.017094,0.005108,0.004771,1.9e-05,0.000127
307740,-0.004511,-0.015261,-0.000767,0.0,-0.0,-0.0,3.0,0.3261,0.323068,0.3261,0.329095,,,,,,,-0.004886,-0.017093,0.005111,0.000331,3.1e-05,0.000139
307760,-0.004633,-0.015139,-0.000768,0.0,-0.0,-0.0,3.0,0.3261,0.322979,0.3261,0.329181,,,,,,,-0.004854,-0.017093,0.005113,-0.004126,4.4e-05,0.000138
307780,-0.004512,-0.015139,-0.000645,0.0,-0.0,-0.0,3.0,0.3261,0.323035,0.3261,0.329127,,,,,,,-0.004846,-0.017093,0.005116,-0.000849,4.4e-05,0.00015
307800,-0.004511,-0.015017,-0.000766,0.0,-0.0,-0.0,3.0,0.3261,0.323057,0.3261,0.329105,,,,,,,-0.004829,-0.017092,0.005119,-0.001335,5.6e-05,0.000138
307820,-0.004632,-0.015139,-0.00089,0.0,-0.0,-0.0,3.0,0.3261,0.322858,0.3261,0.329299,,,,,,,-0.004848,-0.017092,0.005121,-0.004289,4.3e-05,0.000125
307840,-0.004632,-0.015383,-0.00089,0.0,-0.0,-0.0,3.0,0.3261,0.322947,0.3261,0.329213,,,,,,,-0.004895,-0.017091,0.005124,-0.002876,1.9e-05,0.000125
307860,-0.004509,-0.01575,-0.001012,0.0,-0.0,-0.0,3.0,0.3261,0.322831,0.3261,0.329326,,,,,,,-0.004939,-0.017091,0.005126,0.001963,-1.8e-05,0.000113
307880,-0.004388,-0.01575,-0.000889,0.0,-0.0,-0.0,3.0,0.3261,0.322651,0.3261,0.3295,,,,,,,-0.004998,-0.017091,0.005129,0.007144,-1.8e-05,0.000125
307900,-0.004388,-0.01575,-0.000889,0.0,-0.0,-0.0,3.0,0.3261,0.322711,0.3261,0.329443,,,,,,,-0.004979,-0.01709,0.005132,0.006568,-1.8e-05,0.000124
307920,-0.004633,-0.015627,-0.000769,0.0,-0.0,-0.0,3.0,0.3261,0.322417,0.3261,0.329728,,,,,,,-0.004959,-0.01709,0.005134,-0.00116,-6e-06,0.000136
307940,-0.004877,-0.015383,-0.00077,0.0,-0.0,-0.0,3.0,0.3261,0.322478,0.3261,0.329669,,,,,,,-0.004953,-0.01709,0.005137,-0.008372,1.9e-05,0.000136
307960,-0.004878,-0.015261,-0.000648,0.0,-0.0,-0.0,3.0,0.3261,0.323007,0.3261,0.329155,,,,,,,-0.004921,-0.01709,0.005139,-0.009258,3.1e-05,0.000148
307980,-0.004755,-0.015139,-0.000769,0.0,-0.0,-0.0,3.0,0.3261,0.323004,0.3261,0.329157,,,,,,,-0.004917,-0.01709,0.005142,-0.005816,4.3e-05,0.000135
308000,-0.004389,-0.015261,-0.000766,0.0,-0.0,-0.0,3.0,0.3261,0.323534,0.3261,0.32864,,,,,,,-0.004908,-0.017089,0.005145,0.004575,3.1e-05,0.000135
308020,-0.00451,-0.015383,-0.000889,0.0,-0.0,-0.0,3.0,0.3261,0.323042,0.3261,0.32912,,,,,,,-0.004917,-0.017089,0.005147,0.001312,1.9e-05,0.000123
308040,-0.004266,-0.015627,-0.000888,0.0,-0.0,-0.0,3.0,0.3261,0.322928,0.3261,0.329231,,,,,,,-0.004979,-0.017089,0.00515,0.010192,-6e-06,0.000123
308060,-0.004266,-0.015749,-0.000888,0.0,-0.0,-0.0,3.0,0.3261,0.322711,0.3261,0.329443,,,,,,,-0.004958,-0.017089,0.005152,0.0095,-1.8e-05,0.000122
308080,-0.00451,-0.01575,-0.00089,0.0,-0.0,-0.0,3.0,0.3261,0.321937,0.3261,0.330193,,,,,,,-0.004997,-0.017089,0.005155,0.003488,-1.8e-05,0.000122
308100,-0.004754,-0.015628,-0.000892,0.0,-0.0,-0.0,3.0,0.3261,0.322278,0.3261,0.329863,,,,,,,-0.00498,-0.017089,0.005157,-0.004053,-6e-06,0.000121
308120,-0.004876,-0.015383,-0.000892,0.0,-0.0,-0.0,3.0,0.3261,0.322446,0.3261,0.3297,,,,,,,-0.004975,-0.017089,0.00516,-0.007698,1.9e-05,0.000121
308140,-0.004633,-0.015505,-0.000769,0.0,-0.0,-0.0,3.0,0.3261,0.323363,0.3261,0.328807,,,,,,,-0.004913,-0.017089,0.005162,-0.002368,7e-06,0.000133
308160,-0.004633,-0.015261,-0.000768,0.0,-0.0,-0.0,3.0,0.3261,0.323209,0.3261,0.328957,,,,,,,-0.004871,-0.017089,0.005165,-0.003608,3.1e-05,0.000133
308180,-0.004511,-0.015505,-0.000768,0.0,-0.0,-0.0,3.0,0.3261,0.323261,0.3261,0.328906,,,,,,,-0.004872,-0.017088,0.005168,-5e-06,6e-06,0.000133
308200,-0.004389,-0.015505,-0.000767,0.0,-0.0,-0.0,3.0,0.3261,0.323074,0.3261,0.329089,,,,,,,-0.004894,-0.017088,0.00517,0.004172,6e-06,0.000133
308220,-0.004267,-0.015627,-0.000766,0.0,-0.0,-0.0,3.0,0.3261,0.322941,0.3261,0.329219,,,,,,,-0.004899,-0.017088,0.005173,0.007821,-6e-06,0.000133
308240,-0.004266,-0.015749,-0.000888,0.0,-0.0,-0.0,3.0,0.3261,0.322574,0.3261,0.329575,,,,,,,-0.004898,-0.017088,0.005175,0.007745,-1.8e-05,0.00012
308260,-0.004266,-0.015627,-0.000888,0.0,-0.0,-0.0,3.0,0.3261,0.32255,0.3261,0.329599,,,,,,,-0.004884,-0.017088,0.005178,0.007346,-6e-06,0.00012
308280,-0.004265,-0.015628,-0.00101,0.0,-0.0,-0.0,3.0,0.3261,0.32289,0.3261,0.329268,,,,,,,-0.004816,-0.017089,0.00518,0.00541,-6e-06,0.000107
308300,-0.004387,-0.015628,-0.001011,0.0,-0.0,-0.0,3.0,0.3261,0.323201,0.3261,0.328965,,,,,,,-0.004715,-0.017089,0.005182,-0.00098,-6e-06,0.000107
308320,-0.004266,-0.015627,-0.000888,0.0,-0.0,-0.0,3.0,0.3261,0.323359,0.3261,0.32881,,,,,,,-0.004627,-0.017089,0.005185,-2.6e-05,-6e-06,0.000119
308340,-0.004266,-0.015749,-0.000888,0.0,-0.0,-0.0,3.0,0.3261,0.322994,0.3261,0.329167,,,,,,,-0.004571,-0.017089,0.005187,-0.00169,-1.8e-05,0.000119
308360,-0.004266,-0.015627,-0.000888,0.0,-0.0,-0.0,3.0,0.3261,0.322795,0.3261,0.329361,,,,,,,-0.004581,-0.017089,0.005189,-0.001416,-6e-06,0.000119
308380,-0.004388,-0.015627,-0.000889,0.0,-0.0,-0.0,3.0,0.3261,0.322964,0.3261,0.329196,,,,,,,-0.004555,-0.017089,0.005191,-0.005669,-6e-06,0.000118
308400,-0.004388,-0.015627,-0.000889,0.0,-0.0,-0.0,3.0,0.3261,0.322678,0.3261,0.329474,,,,,,,-0.004611,-0.017089,0.005194,-0.004028,-6e-06,0.000118
308420,-0.004144,-0.015627,-0.000887,0.0,-0.0,-0.0,3.0,0.3261,0.323206,0.3261,0.32896,,,,,,,-0.004595,-0.017089,0.005196,0.002606,-6e-06,0.000118
308440,-0.003899,-0.015627,-0.001007,0.0,-0.0,-0.0,3.0,0.3261,0.323043,0.3261,0.329119,,,,,,,-0.004595,-0.01709,0.005198,0.009659,-6e-06,0.000106
308460,-0.003654,-0.015627,-0.001005,0.0,-0.0,-0.0,3.0,0.3261,0.323391,0.3261,0.32878,,,,,,,-0.00454,-0.01709,0.005201,0.01515,-6e-06,0.000106
308480,-0.003777,-0.015505,-0.001006,0.0,-0.0,-0.0,3.0,0.3261,0.32322,0.3261,0.328946,,,,,,,-0.004436,-0.017089,0.005203,0.008584,7e-06,0.000106
308500,-0.0039,-0.015505,-0.000885,0.0,-0.0,-0.0,3.0,0.3261,0.323247,0.3261,0.32892,,,,,,,-0.00432,-0.017089,0.005205,0.001669,7e-06,0.000117
308520,-0.0039,-0.015505,-0.000885,0.0,-0.0,-0.0,3.0,0.3261,0.323234,0.3261,0.328933,,,,,,,-0.004211,-0.017089,0.005207,-0.001529,7e-06,0.000117
308540,-0.003778,-0.015505,-0.000884,0.0,-0.0,-0.0,3.0,0.3261,0.32317,0.3261,0.328995,,,,,,,-0.004135,-0.017089,0.00521,-0.000208,7e-06,0.000117
308560,-0.003778,-0.015505,-0.000884,0.0,-0.0,-0.0,3.0,0.3261,0.323443,0.3261,0.328728,,,,,,,-0.004059,-0.017089,0.005212,-0.002357,7e-06,0.000117
308580,-0.003778,-0.015383,-0.000884,0.0,-0.0,-0.0,3.0,0.3261,0.323626,0.3261,0.32855,,,,,,,-0.003998,-0.017089,0.005214,-0.004065,1.9e-05,0.000117
308600,-0.003655,-0.015627,-0.000883,0.0,-0.0,-0.0,3.0,0.3261,0.323376,0.3261,0.328794,,,,,,,-0.004009,-0.017088,0.005217,-0.000204,-6e-06,0.000116
308620,-0.003166,-0.015505,-0.001001,0.0,-0.0,-0.0,3.0,0.3261,0.323743,0.3261,0.328434,,,,,,,-0.003989,-0.017088,0.005219,0.013382,6e-06,0.000104
308640,-0.003166,-0.015627,-0.001002,0.0,-0.0,-0.0,3.0,0.3261,0.323298,0.3261,0.32887,,,,,,,-0.003927,-0.017088,0.005221,0.011517,-6e-06,0.000104
308660,-0.003167,-0.015505,-0.000879,0.0,-0.0,-0.0,3.0,0.3261,0.322914,0.3261,0.329245,,,,,,,-0.003899,-0.017088,0.005223,0.010639,6e-06,0.000116
308680,-0.003411,-0.015383,-0.000881,0.0,-0.0,-0.0,3.0,0.3261,0.322891,0.3261,0.329268,,,,,,,-0.003815,-0.017088,0.005226,0.001113,1.9e-05,0.000116
308700,-0.003533,-0.015505,-0.000882,0.0,-0.0,-0.0,3.0,0.3261,0.322959,0.3261,0.329201,,,,,,,-0.00376,-0.017088,0.005228,-0.004003,6e-06,0.000115
308720,-0.003655,-0.015505,-0.001005,0.0,-0.0,-0.0,3.0,0.3261,0.322854,0.3261,0.329303,,,,,,,-0.003739,-0.017088,0.00523,-0.008116,6e-06,0.000103
308740,-0.003654,-0.015627,-0.001005,0.0,-0.0,-0.0,3.0,0.3261,0.322775,0.3261,0.32938,,,,,,,-0.003778,-0.017088,0.005232,-0.006973,-6e-06,0.000103
308760,-0.003532,-0.015627,-0.001004,0.0,-0.0,-0.0,3.0,0.3261,0.323253,0.3261,0.328914,,,,,,,-0.003792,-0.017088,0.005235,-0.002974,-6e-06,0.000103
308780,-0.003411,-0.015749,-0.000882,0.0,-0.0,-0.0,3.0,0.3261,0.32339,0.3261,0.32878,,,,,,,-0.003813,-0.017088,0.005237,0.001207,-1.8e-05,0.000115
308800,-0.003289,-0.015749,-0.000881,0.0,-0.0,-0.0,3.0,0.3261,0.32329,0.3261,0.328878,,,,,,,-0.003806,-0.017088,0.005239,0.004474,-1.8e-05,0.000114
308820,-0.003046,-0.015627,-0.000756,0.0,-0.0,-0.0,3.0,0.3261,0.322936,0.3261,0.329224,,,,,,,-0.003813,-0.017088,0.005241,0.011655,-6e-06,0.000127
308840,-0.003046,-0.015261,-0.000756,0.0,-0.0,-0.0,3.0,0.3261,0.32357,0.3261,0.328604,,,,,,,-0.003688,-0.017088,0.005244,0.008065,3.1e-05,0.000126
308860,-0.003168,-0.015138,-0.000757,0.0,-0.0,-0.0,3.0,0.3261,0.323474,0.3261,0.328698,,,,,,,-0.003591,-0.017087,0.005246,0.001726,4.3e-05,0.000126
308880,-0.003046,-0.015138,-0.000756,0.0,-0.0,-0.0,3.0,0.3261,0.323909,0.3261,0.328272,,,,,,,-0.003471,-0.017087,0.005249,0.00184,4.3e-05,0.000126
308900,-0.003168,-0.015383,-0.000757,0.0,-0.0,-0.0,3.0,0.3261,0.323354,0.3261,0.328815,,,,,,,-0.003414,-0.017087,0.005252,-0.003395,1.9e-05,0.000126
308920,-0.003047,-0.015382,-0.000634,0.0,-0.0,-0.0,3.0,0.3261,0.323153,0.3261,0.329012,,,,,,,-0.003437,-0.017086,0.005254,0.000765,1.9e-05,0.000138
308940,-0.003291,-0.015627,-0.000636,0.0,-0.0,-0.0,3.0,0.3261,0.32306,0.3261,0.329103,,,,,,,-0.003424,-0.017086,0.005257,-0.006656,-6e-06,0.000137
308960,-0.003169,-0.015749,-0.000635,0.0,-0.0,-0.0,3.0,0.3261,0.322721,0.3261,0.329432,,,,,,,-0.003514,-0.017085,0.00526,-0.000525,-1.8e-05,0.000137
308980,-0.00317,-0.015626,-0.000513,0.0,-0.0,-0.0,3.0,0.3261,0.322974,0.3261,0.329186,,,,,,,-0.003523,-0.017085,0.005263,-0.000302,-6e-06,0.000149
309000,-0.00317,-0.015382,-0.000513,0.0,-0.0,-0.0,3.0,0.3261,0.322993,0.3261,0.329168,,,,,,,-0.003541,-0.017085,0.005265,0.000209,1.8e-05,0.000149
309020,-0.003169,-0.015138,-0.000634,0.0,-0.0,-0.0,3.0,0.3261,0.323041,0.3261,0.329121,,,,,,,-0.003537,-0.017084,0.005268,0.000126,4.3e-05,0.000136
309040,-0.003291,-0.014894,-0.000635,0.0,-0.0,-0.0,3.0,0.3261,0.322968,0.3261,0.329192,,,,,,,-0.003535,-0.017084,0.005271,-0.003469,6.7e-05,0.000136
309060,-0.003413,-0.014894,-0.000636,0.0,-0.0,-0.0,3.0,0.3261,0.322517,0.3261,0.329631,,,,,,,-0.003619,-0.017083,0.005274,-0.00457,6.7e-05,0.000135
309080,-0.003535,-0.015138,-0.000637,0.0,-0.0,-0.0,3.0,0.3261,0.322132,0.3261,0.330004,,,,,,,-0.003726,-0.017082,0.005276,-0.005056,4.3e-05,0.000135
309100,-0.003902,-0.015261,-0.00064,0.0,-0.0,-0.0,3.0,0.3261,0.32116,0.3261,0.330941,,,,,,,-0.003908,-0.017081,0.005279,-0.010464,3e-05,0.000134
309120,-0.004268,-0.015383,-0.000643,0.0,-0.0,-0.0,3.0,0.3261,0.320768,0.3261,0.331317,,,,,,,-0.004157,-0.017081,0.005282,-0.013863,1.8e-05,0.000134
309140,-0.004878,-0.015505,-0.000648,0.0,-0.0,-0.0,3.0,0.3261,0.320394,0.3261,0.331674,,,,,,,-0.004429,-0.01708,0.005285,-0.023622,6e-06,0.000133
309160,-0.005122,-0.015627,-0.000651,0.0,-0.0,-0.0,3.0,0.3261,0.320196,0.3261,0.331863,,,,,,,-0.004779,-0.01708,0.005287,-0.020548,-7e-06,0.000133
309180,-0.005365,-0.015505,-0.000774,0.0,-0.0,-0.0,3.0,0.3261,0.319556,0.3261,0.332471,,,,,,,-0.005173,-0.01708,0.00529,-0.016244,6e-06,0.00012
309200,-0.005732,-0.015261,-0.000776,0.0,-0.0,-0.0,3.0,0.3261,0.319354,0.3261,0.332662,,,,,,,-0.005569,-0.017079,0.005292,-0.015377,3e-05,0.00012
309220,-0.006221,-0.015261,-0.000658,0.0,-0.0,-0.0,3.0,0.3261,0.319112,0.3261,0.332891,,,,,,,-0.00594,-0.017079,0.005295,-0.018785,3e-05,0.000131
309240,-0.006343,-0.015139,-0.000659,0.0,-0.0,-0.0,3.0,0.3261,0.31923,0.3261,0.332779,,,,,,,-0.006292,-0.017078,0.005297,-0.012109,4.2e-05,0.000131
309260,-0.006588,-0.015139,-0.000538,0.0,-0.0,-0.0,3.0,0.3261,0.319206,0.3261,0.332802,,,,,,,-0.006585,-0.017078,0.0053,-0.010748,4.2e-05,0.000143
309280,-0.00671,-0.015017,-0.000539,0.0,-0.0,-0.0,3.0,0.3261,0.319709,0.3261,0.332326,,,,,,,-0.006792,-0.017078,0.005303,-0.008271,5.4e-05,0.000142
309300,-0.006954,-0.015261,-0.000541,0.0,-0.0,-0.0,3.0,0.3261,0.319808,0.3261,0.332232,,,,,,,-0.006959,-0.017077,0.005305,-0.010476,3e-05,0.000142
309320,-0.006954,-0.015261,-0.000541,0.0,-0.0,-0.0,3.0,0.3261,0.320366,0.3261,0.331701,,,,,,,-0.007081,-0.017076,0.005308,-0.006871,3e-05,0.000141
309340,-0.007076,-0.015627,-0.000544,0.0,-0.0,-0.0,3.0,0.3261,0.320524,0.3261,0.331549,,,,,,,-0.007174,-0.017076,0.005311,-0.007679,-7e-06,0.000141
309360,-0.006831,-0.015505,-0.000663,0.0,-0.0,-0.0,3.0,0.3261,0.320869,0.3261,0.33122,,,,,,,-0.007248,-0.017075,0.005314,0.001562,5e-06,0.000129
309380,-0.006953,-0.015505,-0.000664,0.0,-0.0,-0.0,3.0,0.3261,0.320445,0.3261,0.331625,,,,,,,-0.007302,-0.017074,0.005317,-0.000451,5e-06,0.000128
309400,-0.007076,-0.015505,-0.000543,0.0,-0.0,-0.0,3.0,0.3261,0.319967,0.3261,0.332081,,,,,,,-0.007406,-0.017074,0.00532,-0.001049,5e-06,0.00014
309420,-0.00732,-0.015383,-0.000545,0.0,-0.0,-0.0,3.0,0.3261,0.320138,0.3261,0.331918,,,,,,,-0.00747,-0.017073,0.005322,-0.006242,1.7e-05,0.00014
309440,-0.007565,-0.015261,-0.000546,0.0,-0.0,-0.0,3.0,0.3261,0.32013,0.3261,0.331926,,,,,,,-0.007542,-0.017073,0.005325,-0.011221,2.9e-05,0.000139
309460,-0.007565,-0.015017,-0.000545,0.0,-0.0,-0.0,3.0,0.3261,0.320543,0.3261,0.331532,,,,,,,-0.007584,-0.017073,0.005328,-0.009945,5.4e-05,0.000139
309480,-0.007321,-0.015139,-0.000544,0.0,-0.0,-0.0,3.0,0.3261,0.320748,0.3261,0.331335,,,,,,,-0.007633,-0.017072,0.00533,-0.001457,4.1e-05,0.000139
309500,-0.00732,-0.015139,-0.000666,0.0,-0.0,-0.0,3.0,0.3261,0.320806,0.3261,0.33128,,,,,,,-0.007649,-0.017072,0.005333,-0.000944,4.1e-05,0.000127
309520,-0.00732,-0.015384,-0.000667,0.0,-0.0,-0.0,3.0,0.3261,0.320595,0.3261,0.331482,,,,,,,-0.007704,-0.017071,0.005336,0.000656,1.7e-05,0.000126
309540,-0.007075,-0.015506,-0.000665,0.0,-0.0,-0.0,3.0,0.3261,0.320531,0.3261,0.331543,,,,,,,-0.007753,-0.017071,0.005338,0.009111,5e-06,0.000126
309560,-0.007197,-0.015628,-0.000667,0.0,-0.0,-0.0,3.0,0.3261,0.319884,0.3261,0.33216,,,,,,,-0.007797,-0.01707,0.005341,0.006754,-8e-06,0.000126
309580,-0.007564,-0.015628,-0.00067,0.0,-0.0,-0.0,3.0,0.3261,0.319403,0.3261,0.332616,,,,,,,-0.007864,-0.01707,0.005343,-0.001931,-8e-06,0.000125
309600,-0.00793,-0.015506,-0.000672,0.0,-0.0,-0.0,3.0,0.3261,0.31963,0.3261,0.3324,,,,,,,-0.007903,-0.01707,0.005346,-0.011358,5e-06,0.000125
309620,-0.008052,-0.015384,-0.000672,0.0,-0.0,-0.0,3.0,0.3261,0.319927,0.3261,0.332119,,,,,,,-0.007953,-0.01707,0.005348,-0.013412,1.7e-05,0.000124
309640,-0.00793,-0.015506,-0.000672,0.0,-0.0,-0.0,3.0,0.3261,0.319952,0.3261,0.332095,,,,,,,-0.008032,-0.017069,0.005351,-0.007607,5e-06,0.000124
309660,-0.007808,-0.015506,-0.000671,0.0,-0.0,-0.0,3.0,0.3261,0.320267,0.3261,0.331796,,,,,,,-0.008099,-0.017069,0.005353,-0.002072,5e-06,0.000124
309680,-0.007808,-0.015384,-0.000671,0.0,-0.0,-0.0,3.0,0.3261,0.320479,0.3261,0.331593,,,,,,,-0.008123,-0.017069,0.005356,-0.001326,1.7e-05,0.000124
309700,-0.00793,-0.015384,-0.000671,0.0,-0.0,-0.0,3.0,0.3261,0.320108,0.3261,0.331946,,,,,,,-0.008171,-0.017069,0.005358,-0.00349,1.7e-05,0.000123
309720,-0.007809,-0.015627,-0.000549,0.0,-0.0,-0.0,3.0,0.3261,0.319966,0.3261,0.332082,,,,,,,-0.008241,-0.017069,0.005361,0.002018,-8e-06,0.000135
309740,-0.007809,-0.015383,-0.000548,0.0,-0.0,-0.0,3.0,0.3261,0.319636,0.3261,0.332395,,,,,,,-0.008316,-0.017068,0.005363,0.004123,1.7e-05,0.000135
309760,-0.008052,-0.015384,-0.000672,0.0,-0.0,-0.0,3.0,0.3261,0.319437,0.3261,0.332584,,,,,,,-0.008373,-0.017068,0.005366,-0.001268,1.7e-05,0.000123
309780,-0.008052,-0.015262,-0.000672,0.0,-0.0,-0.0,3.0,0.3261,0.319367,0.3261,0.332649,,,,,,,-0.008444,-0.017068,0.005368,0.000758,2.9e-05,0.000122
309800,-0.008174,-0.015262,-0.000673,0.0,-0.0,-0.0,3.0,0.3261,0.319465,0.3261,0.332557,,,,,,,-0.008468,-0.017068,0.005371,-0.002053,2.9e-05,0.000122
309820,-0.008174,-0.015262,-0.000673,0.0,-0.0,-0.0,3.0,0.3261,0.319517,0.3261,0.332507,,,,,,,-0.008506,-0.017067,0.005374,-0.000956,2.9e-05,0.000122
309840,-0.008053,-0.015261,-0.00055,0.0,-0.0,-0.0,3.0,0.3261,0.320179,0.3261,0.331879,,,,,,,-0.008462,-0.017067,0.005376,0.001338,2.9e-05,0.000134
309860,-0.008053,-0.015383,-0.00055,0.0,-0.0,-0.0,3.0,0.3261,0.320246,0.3261,0.331815,,,,,,,-0.008384,-0.017066,0.005379,-0.000942,1.6e-05,0.000134
309880,-0.007931,-0.015261,-0.000549,0.0,-0.0,-0.0,3.0,0.3261,0.32062,0.3261,0.331458,,,,,,,-0.008292,-0.017065,0.005381,-3.3e-05,2.9e-05,0.000133
309900,-0.007687,-0.015261,-0.000547,0.0,-0.0,-0.0,3.0,0.3261,0.321018,0.3261,0.331078,,,,,,,-0.008181,-0.017064,0.005384,0.003865,2.8e-05,0.000133
309920,-0.007444,-0.015016,-0.000422,0.0,-0.0,-0.0,3.0,0.3261,0.321375,0.3261,0.330734,,,,,,,-0.008023,-0.017063,0.005387,0.006353,5.3e-05,0.000146
309940,-0.007077,-0.015138,-0.00042,0.0,-0.0,-0.0,3.0,0.3261,0.321436,0.3261,0.330676,,,,,,,-0.007884,-0.017062,0.00539,0.012922,4.1e-05,0.000145
309960,-0.006833,-0.015016,-0.000418,0.0,-0.0,-0.0,3.0,0.3261,0.321685,0.3261,0.330436,,,,,,,-0.0077,-0.017062,0.005392,0.014681,5.3e-05,0.000145
309980,-0.006711,-0.014894,-0.000416,0.0,-0.0,-0.0,3.0,0.3261,0.321597,0.3261,0.330521,,,,,,,-0.007508,-0.017061,0.005395,0.012629,6.5e-05,0.000145
310000,-0.006467,-0.015016,-0.000415,0.0,-0.0,-0.0,3.0,0.3261,0.321628,0.3261,0.330491,,,,,,,-0.007307,-0.01706,0.005398,0.013865,5.3e-05,0.000145
310020,-0.006222,-0.015017,-0.000535,0.0,-0.0,-0.0,3.0,0.3261,0.321774,0.3261,0.33035,,,,,,,-0.007073,-0.017059,0.005401,0.014157,5.2e-05,0.000133
310040,-0.0061,-0.015017,-0.000534,0.0,-0.0,-0.0,3.0,0.3261,0.32214,0.3261,0.329996,,,,,,,-0.006802,-0.017059,0.005404,0.009854,5.2e-05,0.000133
310060,-0.005978,-0.015139,-0.000534,0.0,-0.0,-0.0,3.0,0.3261,0.322576,0.3261,0.329574,,,,,,,-0.006531,-0.017058,0.005407,0.005634,4e-05,0.000132
310080,-0.005611,-0.015383,-0.000532,0.0,-0.0,-0.0,3.0,0.3261,0.322869,0.3261,0.329288,,,,,,,-0.006269,-0.017057,0.005409,0.008669,1.6e-05,0.000132
310100,-0.005001,-0.015383,-0.000527,0.0,-0.0,-0.0,3.0,0.3261,0.323392,0.3261,0.328778,,,,,,,-0.005971,-0.017056,0.005412,0.01773,1.5e-05,0.000133
310120,-0.004635,-0.015383,-0.000524,0.0,-0.0,-0.0,3.0,0.3261,0.322965,0.3261,0.329195,,,,,,,-0.0057,-0.017055,0.005415,0.020412,1.5e-05,0.000133
310140,-0.004392,-0.01526,-0.0004,0.0,-0.0,-0.0,3.0,0.3261,0.32317,0.3261,0.328995,,,,,,,-0.005413,-0.017054,0.005418,0.019165,2.8e-05,0.000145
310160,-0.00427,-0.015138,-0.000399,0.0,-0.0,-0.0,3.0,0.3261,0.322935,0.3261,0.329225,,,,,,,-0.005138,-0.017053,0.00542,0.014681,4e-05,0.000145
310180,-0.004147,-0.014894,-0.000519,0.0,-0.0,-0.0,3.0,0.3261,0.323125,0.3261,0.329039,,,,,,,-0.00487,-0.017053,0.005423,0.010532,6.4e-05,0.000132
310200,-0.004024,-0.014772,-0.00064,0.0,-0.0,-0.0,3.0,0.3261,0.323441,0.3261,0.32873,,,,,,,-0.004592,-0.017052,0.005425,0.006051,7.6e-05,0.00012
310220,-0.003779,-0.014895,-0.000761,0.0,-0.0,-0.0,3.0,0.3261,0.323267,0.3261,0.3289,,,,,,,-0.004384,-0.017052,0.005428,0.007098,6.4e-05,0.000108
310240,-0.003289,-0.015139,-0.00088,0.0,-0.0,-0.0,3.0,0.3261,0.323844,0.3261,0.328336,,,,,,,-0.004139,-0.017051,0.00543,0.014204,3.9e-05,9.5e-05
310260,-0.003167,-0.015383,-0.000879,0.0,-0.0,-0.0,3.0,0.3261,0.323432,0.3261,0.328739,,,,,,,-0.003935,-0.01705,0.005432,0.011825,1.5e-05,9.5e-05
310280,-0.003045,-0.015627,-0.000878,0.0,-0.0,-0.0,3.0,0.3261,0.323196,0.3261,0.328969,,,,,,,-0.003772,-0.01705,0.005434,0.010627,-1e-05,9.5e-05
310300,-0.002924,-0.015627,-0.000755,0.0,-0.0,-0.0,3.0,0.3261,0.322726,0.3261,0.329428,,,,,,,-0.003637,-0.017049,0.005436,0.01016,-1e-05,0.000107
310320,-0.002924,-0.015749,-0.000756,0.0,-0.0,-0.0,3.0,0.3261,0.322213,0.3261,0.329925,,,,,,,-0.003557,-0.017049,0.005439,0.007787,-2.2e-05,0.000107
310340,-0.003169,-0.01526,-0.000635,0.0,-0.0,-0.0,3.0,0.3261,0.322034,0.3261,0.330099,,,,,,,-0.003471,-0.017048,0.005441,-0.001823,2.7e-05,0.000119
310360,-0.003413,-0.015138,-0.000636,0.0,-0.0,-0.0,3.0,0.3261,0.321941,0.3261,0.330189,,,,,,,-0.003443,-0.017048,0.005443,-0.009677,3.9e-05,0.000118
310380,-0.00329,-0.015016,-0.000757,0.0,-0.0,-0.0,3.0,0.3261,0.322475,0.3261,0.329672,,,,,,,-0.0034,-0.017048,0.005445,-0.007322,5.1e-05,0.000106
310400,-0.003046,-0.015016,-0.000755,0.0,-0.0,-0.0,3.0,0.3261,0.32261,0.3261,0.329541,,,,,,,-0.003389,-0.017047,0.005447,-0.000546,5.1e-05,0.000106
310420,-0.002923,-0.015139,-0.000877,0.0,-0.0,-0.0,3.0,0.3261,0.322591,0.3261,0.329559,,,,,,,-0.003373,-0.017047,0.005449,0.002574,3.9e-05,9.4e-05
310440,-0.002801,-0.015505,-0.000876,0.0,-0.0,-0.0,3.0,0.3261,0.322135,0.3261,0.330001,,,,,,,-0.003418,-0.017047,0.005451,0.007368,2e-06,9.4e-05
310460,-0.00268,-0.015871,-0.000754,0.0,-0.0,-0.0,3.0,0.3261,0.322265,0.3261,0.329876,,,,,,,-0.003404,-0.017047,0.005453,0.010484,-3.4e-05,0.000106
310480,-0.002802,-0.015749,-0.000755,0.0,-0.0,-0.0,3.0,0.3261,0.321608,0.3261,0.33051,,,,,,,-0.003398,-0.017047,0.005455,0.006655,-2.2e-05,0.000105
310500,-0.003046,-0.015749,-0.000757,0.0,-0.0,-0.0,3.0,0.3261,0.321604,0.3261,0.330514,,,,,,,-0.003375,-0.017047,0.005457,-0.001067,-2.2e-05,0.000105
310520,-0.00329,-0.015505,-0.000758,0.0,-0.0,-0.0,3.0,0.3261,0.321773,0.3261,0.330351,,,,,,,-0.003339,-0.017047,0.00546,-0.009143,2e-06,0.000105
310540,-0.003168,-0.015383,-0.000757,0.0,-0.0,-0.0,3.0,0.3261,0.322213,0.3261,0.329925,,,,,,,-0.00332,-0.017047,0.005462,-0.006101,1.5e-05,0.000105
310560,-0.003046,-0.015383,-0.000756,0.0,-0.0,-0.0,3.0,0.3261,0.322509,0.3261,0.329638,,,,,,,-0.003279,-0.017047,0.005464,-0.003743,1.5e-05,0.000104
310580,-0.002802,-0.015382,-0.000754,0.0,-0.0,-0.0,3.0,0.3261,0.322713,0.3261,0.32944,,,,,,,-0.003254,-0.017047,0.005466,0.002624,1.5e-05,0.000104
310600,-0.002557,-0.015505,-0.000875,0.0,-0.0,-0.0,3.0,0.3261,0.323116,0.3261,0.329048,,,,,,,-0.003172,-0.017046,0.005468,0.007392,2e-06,9.2e-05
310620,-0.002435,-0.015627,-0.000874,0.0,-0.0,-0.0,3.0,0.3261,0.322973,0.3261,0.329187,,,,,,,-0.003093,-0.017046,0.005469,0.008606,-1e-05,9.2e-05
310640,-0.002434,-0.015627,-0.000996,0.0,-0.0,-0.0,3.0,0.3261,0.322547,0.3261,0.329601,,,,,,,-0.003044,-0.017047,0.005471,0.007172,-1e-05,8e-05
310660,-0.002433,-0.015627,-0.001118,0.0,-0.0,-0.0,3.0,0.3261,0.322277,0.3261,0.329863,,,,,,,-0.003007,-0.017047,0.005472,0.00609,-1e-05,6.7e-05
310680,-0.00231,-0.015627,-0.001239,0.0,-0.0,-0.0,3.0,0.3261,0.322535,0.3261,0.329613,,,,,,,-0.002941,-0.017047,0.005474,0.007764,-1e-05,5.5e-05
310700,-0.002554,-0.015871,-0.001241,0.0,-0.0,-0.0,3.0,0.3261,0.322125,0.3261,0.330011,,,,,,,-0.002884,-0.017047,0.005475,-0.000994,-3.4e-05,5.5e-05
310720,-0.002554,-0.015627,-0.001241,0.0,-0.0,-0.0,3.0,0.3261,0.322217,0.3261,0.329922,,,,,,,-0.002859,-0.017048,0.005476,-0.001713,-1e-05,5.5e-05
310740,-0.002554,-0.015749,-0.001241,0.0,-0.0,-0.0,3.0,0.3261,0.322461,0.3261,0.329685,,,,,,,-0.002799,-0.017048,0.005477,-0.00342,-2.2e-05,5.5e-05
310760,-0.00231,-0.015627,-0.001239,0.0,-0.0,-0.0,3.0,0.3261,0.322743,0.3261,0.329411,,,,,,,-0.002734,-0.017048,0.005478,0.001786,-1e-05,5.5e-05
310780,-0.002189,-0.015627,-0.001116,0.0,-0.0,-0.0,3.0,0.3261,0.323274,0.3261,0.328894,,,,,,,-0.002609,-0.017049,0.00548,0.001709,-1e-05,6.7e-05
310800,-0.002067,-0.015627,-0.001115,0.0,-0.0,-0.0,3.0,0.3261,0.32341,0.3261,0.328761,,,,,,,-0.002498,-0.017049,0.005481,0.002072,-1e-05,6.7e-05
310820,-0.0017,-0.015627,-0.001112,0.0,-0.0,-0.0,3.0,0.3261,0.323975,0.3261,0.328207,,,,,,,-0.002349,-0.017049,0.005482,0.008418,-1e-05,6.7e-05
310840,-0.001212,-0.015626,-0.001108,0.0,-0.0,-0.0,3.0,0.3261,0.324223,0.3261,0.327962,,,,,,,-0.002162,-0.017049,0.005483,0.01712,-1e-05,6.7e-05
310860,-0.000968,-0.015504,-0.001106,0.0,-0.0,-0.0,3.0,0.3261,0.323999,0.3261,0.328183,,,,,,,-0.001975,-0.017049,0.005485,0.018708,3e-06,6.7e-05
310880,-0.000724,-0.015504,-0.001105,0.0,-0.0,-0.0,3.0,0.3261,0.324023,0.3261,0.32816,,,,,,,-0.001766,-0.017049,0.005486,0.019702,3e-06,6.7e-05
310900,-0.000725,-0.015382,-0.000982,0.0,-0.0,-0.0,3.0,0.3261,0.324043,0.3261,0.32814,,,,,,,-0.00153,-0.017049,0.005488,0.012842,1.5e-05,7.9e-05
310920,-0.000603,-0.015382,-0.000981,0.0,-0.0,-0.0,3.0,0.3261,0.324335,0.3261,0.327853,,,,,,,-0.001256,-0.017049,0.005489,0.008435,1.5e-05,7.9e-05
310940,-0.000604,-0.01526,-0.000859,0.0,-0.0,-0.0,3.0,0.3261,0.324133,0.3261,0.328051,,,,,,,-0.001036,-0.017048,0.005491,0.002002,2.7e-05,9.1e-05
310960,-0.000482,-0.015504,-0.000858,0.0,-0.0,-0.0,3.0,0.3261,0.324234,0.3261,0.327952,,,,,,,-0.000866,-0.017048,0.005493,0.000641,3e-06,9.1e-05
310980,-0.00036,-0.015382,-0.000857,0.0,-0.0,-0.0,3.0,0.3261,0.32452,0.3261,0.32767,,,,,,,-0.000711,-0.017048,0.005495,-0.000243,1.5e-05,9.1e-05
311000,-0.000238,-0.015504,-0.000857,0.0,-0.0,-0.0,3.0,0.3261,0.324351,0.3261,0.327837,,,,,,,-0.000615,-0.017047,0.005496,0.000515,3e-06,9.1e-05
311020,-0.000115,-0.015382,-0.000978,0.0,-0.0,-0.0,3.0,0.3261,0.323783,0.3261,0.328395,,,,,,,-0.000601,-0.017047,0.005498,0.00362,1.5e-05,7.9e-05
311040,8e-06,-0.015381,-0.001099,0.0,-0.0,-0.0,3.0,0.3261,0.323235,0.3261,0.328932,,,,,,,-0.000645,-0.017047,0.005499,0.00842,1.5e-05,6.7e-05
311060,-0.000236,-0.015382,-0.001101,0.0,-0.0,-0.0,3.0,0.3261,0.322455,0.3261,0.329691,,,,,,,-0.000713,-0.017046,0.005501,0.003236,1.5e-05,6.6e-05
311080,-0.00048,-0.015138,-0.001103,0.0,-0.0,-0.0,3.0,0.3261,0.322058,0.3261,0.330076,,,,,,,-0.000807,-0.017046,0.005502,-0.001158,3.9e-05,6.6e-05
311100,-0.000846,-0.01526,-0.001105,0.0,-0.0,-0.0,3.0,0.3261,0.322039,0.3261,0.330094,,,,,,,-0.000895,-0.017045,0.005503,-0.009192,2.7e-05,6.6e-05
311120,-0.000968,-0.015138,-0.001106,0.0,-0.0,-0.0,3.0,0.3261,0.322541,0.3261,0.329608,,,,,,,-0.000942,-0.017045,0.005505,-0.011317,3.9e-05,6.5e-05
311140,-0.000846,-0.01526,-0.001105,0.087266,-0.0,-0.0,3.0,0.3261,0.275509,0.3261,0.367752,,,,,,,-0.000973,-0.017044,0.005506,-0.006859,2.7e-05,6.5e-05
311160,-0.000723,-0.015382,-0.001227,0.087266,-0.0,-0.0,3.0,0.3261,0.275537,0.3261,0.367733,,,,,,,-0.001016,-0.017044,0.005507,-0.002026,1.4e-05,5.3e-05
311180,-0.000358,-0.015382,-0.001102,0.087266,-0.0,-0.0,3.0,0.3261,0.276315,0.3261,0.367208,,,,,,,-0.000989,-0.017043,0.005509,0.007869,1.4e-05,6.5e-05
311200,0.000985,-0.015381,-0.001091,0.087266,-0.0,-0.0,3.0,0.3261,0.279089,0.3261,0.36531,,,,,,,-0.000692,-0.017043,0.00551,0.038277,1.4e-05,6.6e-05
311220,0.00306,-0.015258,-0.001076,0.087266,-0.0,-0.0,3.0,0.3261,0.283651,0.3261,0.362101,,,,,,,0.000156,-0.017042,0.005511,0.07397,2.7e-05,6.8e-05
311240,0.006357,-0.015133,-0.001173,0.087266,-0.0,-0.0,3.0,0.3261,0.290946,0.3261,0.356729,,,,,,,0.0018,-0.017041,0.005512,0.122139,3.9e-05,5.8e-05
311260,0.010874,-0.014885,-0.001262,0.087266,-0.0,-0.0,3.0,0.3261,0.301379,0.3261,0.348505,,,,,,,0.004599,-0.017041,0.005514,0.172388,6.4e-05,4.9e-05
311280,0.016858,-0.01488,-0.001462,0.087266,-0.0,-0.0,3.0,0.3261,0.312626,0.3261,0.338858,,,,,,,0.008589,-0.01704,0.005514,0.230646,6.4e-05,2.9e-05
311300,0.02443,-0.015233,-0.001889,0.087266,-0.0,-0.0,3.0,0.3261,0.324287,0.3261,0.327899,,,,,,,0.013836,-0.01704,0.005514,0.298488,2.9e-05,-1.4e-05
311320,0.033347,-0.015456,-0.002427,0.087266,-0.0,-0.0,3.0,0.3261,0.336012,0.3261,0.315761,,,,,,,0.020385,-0.017039,0.005514,0.36755,6e-06,-6.8e-05
311340,0.042998,-0.01592,-0.00283,0.087266,-0.0,-0.0,3.0,0.3261,0.346683,0.3261,0.303579,,,,,,,0.028101,-0.01704,0.005512,0.424037,-4e-05,-0.000108
311360,0.053261,-0.016004,-0.003477,0.087266,-0.0,-0.0,3.0,0.3261,0.356637,0.3261,0.291067,,,,,,,0.03688,-0.01704,0.00551,0.467382,-4.8e-05,-0.000172
311380,0.064011,-0.016327,-0.003988,0.087266,-0.0,-0.0,3.0,0.3261,0.364969,0.3261,0.279582,,,,,,,0.046447,-0.017041,0.005506,0.501904,-8e-05,-0.000223
311400,0.074396,-0.016038,-0.004398,0.087266,-0.0,-0.0,3.0,0.3261,0.371033,0.3261,0.270538,,,,,,,0.056485,-0.017043,0.005501,0.512019,-5.1e-05,-0.000263
311420,0.0843,-0.015985,-0.004928,0.087266,-0.0,-0.0,3.0,0.3261,0.375068,0.3261,0.264152,,,,,,,0.066603,-0.017044,0.005495,0.505771,-4.6e-05,-0.000316
311440,0.0931,-0.015818,-0.005227,0.087266,-0.0,-0.0,3.0,0.3261,0.377365,0.3261,0.260371,,,,,,,0.076505,-0.017046,0.005489,0.473774,-2.9e-05,-0.000345
311460,0.100802,-0.016024,-0.005395,0.087266,-0.0,-0.0,3.0,0.3261,0.377125,0.3261,0.260772,,,,,,,0.085755,-0.017047,0.005482,0.428663,-5e-05,-0.000361
311480,0.107039,-0.016117,-0.005459,0.087266,-0.0,-0.0,3.0,0.3261,0.374507,0.3261,0.26506,,,,,,,0.093992,-0.017048,0.005475,0.370312,-5.9e-05,-0.000367
311500,0.111319,-0.016102,-0.005423,0.087266,-0.0,-0.0,3.0,0.3261,0.369027,0.3261,0.2736,,,,,,,0.10086,-0.017049,0.005468,0.29474,-5.7e-05,-0.000363
311520,0.113641,-0.016344,-0.005268,0.087266,-0.0,-0.0,3.0,0.3261,0.361803,0.3261,0.284066,,,,,,,0.106133,-0.017051,0.00546,0.208679,-8.1e-05,-0.000346
311540,0.114006,-0.016221,-0.005271,0.087266,-0.0,-0.0,3.0,0.3261,0.352769,0.3261,0.296074,,,,,,,0.10967,-0.017052,0.005453,0.116182,-6.9e-05,-0.000346
311560,0.112903,-0.016346,-0.005273,0.087266,-0.0,-0.0,3.0,0.3261,0.342554,0.3261,0.308433,,,,,,,0.111386,-0.017053,0.005446,0.033867,-8.1e-05,-0.000345
311580,0.110214,-0.016356,-0.005296,0.087266,-0.0,-0.0,3.0,0.3261,0.331664,0.3261,0.320404,,,,,,,0.111429,-0.017055,0.00544,-0.045855,-8.2e-05,-0.000347
311600,0.106421,-0.016254,-0.005213,0.087266,-0.0,-0.0,3.0,0.3261,0.320267,0.3261,0.331795,,,,,,,0.109871,-0.017056,0.005433,-0.111227,-7.2e-05,-0.000338
311620,0.101411,-0.016393,-0.005249,0.087266,-0.0,-0.0,3.0,0.3261,0.30963,0.3261,0.341512,,,,,,,0.107013,-0.017058,0.005426,-0.174026,-8.5e-05,-0.000341
311640,0.096035,-0.016284,-0.005423,0.087266,-0.0,-0.0,3.0,0.3261,0.30028,0.3261,0.349402,,,,,,,0.103123,-0.017059,0.005419,-0.217403,-7.4e-05,-0.000358
311660,0.090781,-0.016425,-0.005462,0.087266,-0.0,-0.0,3.0,0.3261,0.293008,0.3261,0.355156,,,,,,,0.098575,-0.017061,0.005412,-0.238112,-8.8e-05,-0.000361
311680,0.085771,-0.016686,-0.005494,0.087266,-0.0,-0.0,3.0,0.3261,0.289342,0.3261,0.357936,,,,,,,0.093815,-0.017063,0.005405,-0.245356,-0.000114,-0.000363
311700,0.081741,-0.016944,-0.005519,0.087266,-0.0,-0.0,3.0,0.3261,0.289062,0.3261,0.358145,,,,,,,0.089213,-0.017065,0.005397,-0.228588,-0.00014,-0.000365
311720,0.079543,-0.017191,-0.00565,0.087266,-0.0,-0.0,3.0,0.3261,0.293141,0.3261,0.355053,,,,,,,0.085237,-0.017068,0.00539,-0.17675,-0.000164,-0.000377
311740,0.078689,-0.017438,-0.005648,0.087266,-0.0,-0.0,3.0,0.3261,0.299658,0.3261,0.349907,,,,,,,0.082262,-0.017071,0.005382,-0.114898,-0.000188,-0.000377
311760,0.079544,-0.017308,-0.005767,0.087266,-0.0,-0.0,3.0,0.3261,0.30818,0.3261,0.342773,,,,,,,0.080509,-0.017074,0.005375,-0.038897,-0.000175,-0.000388
311780,0.081988,-0.017055,-0.005756,0.087266,-0.0,-0.0,3.0,0.3261,0.318304,0.3261,0.333651,,,,,,,0.080203,-0.017077,0.005367,0.041255,-0.00015,-0.000386
311800,0.085773,-0.016919,-0.005727,0.087266,-0.0,-0.0,3.0,0.3261,0.329064,0.3261,0.3231,,,,,,,0.081436,-0.01708,0.005359,0.115704,-0.000136,-0.000382
311820,0.090662,-0.016652,-0.005818,0.087266,-0.0,-0.0,3.0,0.3261,0.34003,0.3261,0.311311,,,,,,,0.084197,-0.017082,0.005351,0.177908,-0.000109,-0.00039
311840,0.096894,-0.016745,-0.00588,0.087266,-0.0,-0.0,3.0,0.3261,0.35052,0.3261,0.298899,,,,,,,0.088319,-0.017084,0.005344,0.239521,-0.000118,-0.000396
311860,0.104228,-0.016711,-0.005938,0.087266,-0.0,-0.0,3.0,0.3261,0.360742,0.3261,0.285535,,,,,,,0.093735,-0.017087,0.005336,0.29557,-0.000114,-0.000401
311880,0.11218,-0.016911,-0.006099,0.087266,-0.0,-0.0,3.0,0.3261,0.369238,0.3261,0.273282,,,,,,,0.100127,-0.01709,0.005327,0.341112,-0.000134,-0.000416
311900,0.120254,-0.016985,-0.006264,0.087266,-0.0,-0.0,3.0,0.3261,0.375862,0.3261,0.262857,,,,,,,0.107196,-0.017093,0.005319,0.370493,-0.000141,-0.000432
311920,0.127963,-0.01693,-0.006561,0.087266,-0.0,-0.0,3.0,0.3261,0.38032,0.3261,0.255338,,,,,,,0.114609,-0.017096,0.00531,0.379149,-0.000135,-0.000461
311940,0.134811,-0.016874,-0.006864,0.087266,-0.0,-0.0,3.0,0.3261,0.381781,0.3261,0.252773,,,,,,,0.121908,-0.017099,0.005301,0.365901,-0.000129,-0.00049
311960,0.140448,-0.01671,-0.007067,0.087266,-0.0,-0.0,3.0,0.3261,0.381403,0.3261,0.253441,,,,,,,0.128767,-0.017101,0.005291,0.330224,-0.000113,-0.000509
311980,0.144241,-0.016431,-0.007294,0.087266,-0.0,-0.0,3.0,0.3261,0.378479,0.3261,0.258496,,,,,,,0.134786,-0.017103,0.005281,0.265343,-8.5e-05,-0.000531
312000,0.14632,-0.01642,-0.007275,0.087266,-0.0,-0.0,3.0,0.3261,0.373439,0.3261,0.266769,,,,,,,0.139607,-0.017105,0.00527,0.18544,-8.3e-05,-0.000528
312020,0.146929,-0.016539,-0.00726,0.087266,-0.0,-0.0,3.0,0.3261,0.366691,0.3261,0.277077,,,,,,,0.142967,-0.017107,0.005259,0.105283,-9.5e-05,-0.000525
312040,0.145955,-0.016666,-0.007261,0.087266,-0.0,-0.0,3.0,0.3261,0.358001,0.3261,0.289255,,,,,,,0.144663,-0.017109,0.005249,0.027349,-0.000107,-0.000524
312060,0.143259,-0.016931,-0.007145,0.087266,-0.0,-0.0,3.0,0.3261,0.347751,0.3261,0.302293,,,,,,,0.14465,-0.017112,0.005239,-0.050978,-0.000134,-0.000512
312080,0.138857,-0.017083,-0.007055,0.087266,-0.0,-0.0,3.0,0.3261,0.33648,0.3261,0.315251,,,,,,,0.142969,-0.017114,0.005228,-0.130393,-0.000149,-0.000502
312100,0.133472,-0.016995,-0.006991,0.087266,-0.0,-0.0,3.0,0.3261,0.325088,0.3261,0.327108,,,,,,,0.139766,-0.017117,0.005218,-0.194153,-0.00014,-0.000494
312120,0.127227,-0.017031,-0.006924,0.087266,-0.0,-0.0,3.0,0.3261,0.314216,0.3261,0.337424,,,,,,,0.135312,-0.01712,0.005208,-0.246528,-0.000143,-0.000487
312140,0.120502,-0.016947,-0.006871,0.087266,-0.0,-0.0,3.0,0.3261,0.30526,0.3261,0.345272,,,,,,,0.129956,-0.017122,0.005198,-0.286465,-0.000134,-0.00048
312160,0.1139,-0.017106,-0.006802,0.087266,-0.0,-0.0,3.0,0.3261,0.298322,0.3261,0.350983,,,,,,,0.124018,-0.017125,0.005189,-0.305901,-0.00015,-0.000472
312180,0.108028,-0.017138,-0.006732,0.087266,-0.0,-0.0,3.0,0.3261,0.294438,0.3261,0.35405,,,,,,,0.117911,-0.017128,0.005179,-0.2991,-0.000153,-0.000465
312200,0.103017,-0.017288,-0.006649,0.087266,-0.0,-0.0,3.0,0.3261,0.294039,0.3261,0.35436,,,,,,,0.112068,-0.017131,0.00517,-0.274818,-0.000167,-0.000455
312220,0.099346,-0.017431,-0.006554,0.087266,-0.0,-0.0,3.0,0.3261,0.297188,0.3261,0.351888,,,,,,,0.106904,-0.017135,0.005161,-0.231248,-0.000181,-0.000445
312240,0.097396,-0.01744,-0.006572,0.087266,-0.0,-0.0,3.0,0.3261,0.303335,0.3261,0.346887,,,,,,,0.102761,-0.017139,0.005152,-0.167321,-0.000182,-0.000446
312260,0.097151,-0.017319,-0.006581,0.087266,-0.0,-0.0,3.0,0.3261,0.311855,0.3261,0.339547,,,,,,,0.099923,-0.017143,0.005143,-0.091683,-0.000169,-0.000446
312280,0.098369,-0.017198,-0.006453,0.087266,-0.0,-0.0,3.0,0.3261,0.321988,0.3261,0.330143,,,,,,,0.098593,-0.017146,0.005134,-0.01729,-0.000157,-0.000432
312300,0.101301,-0.017185,-0.006426,0.087266,-0.0,-0.0,3.0,0.3261,0.33282,0.3261,0.319187,,,,,,,0.098836,-0.017149,0.005126,0.061177,-0.000155,-0.000429
312320,0.105702,-0.017167,-0.006387,0.087266,-0.0,-0.0,3.0,0.3261,0.343496,0.3261,0.307341,,,,,,,0.100625,-0.017152,0.005117,0.137389,-0.000153,-0.000424
312340,0.111453,-0.017259,-0.006451,0.087266,-0.0,-0.0,3.0,0.3261,0.35367,0.3261,0.294925,,,,,,,0.103832,-0.017155,0.005109,0.211529,-0.000162,-0.000429
312360,0.117448,-0.017463,-0.006627,0.087266,-0.0,-0.0,3.0,0.3261,0.362835,0.3261,0.282621,,,,,,,0.108343,-0.017158,0.0051,0.25498,-0.000182,-0.000446
312380,0.124052,-0.017541,-0.006802,0.087266,-0.0,-0.0,3.0,0.3261,0.370193,0.3261,0.27183,,,,,,,0.113764,-0.017161,0.005091,0.289574,-0.00019,-0.000463
312400,0.130779,-0.017486,-0.007104,0.087266,-0.0,-0.0,3.0,0.3261,0.376377,0.3261,0.262012,,,,,,,0.119882,-0.017165,0.005082,0.307436,-0.000184,-0.000492
312420,0.137025,-0.01744,-0.007291,0.087266,-0.0,-0.0,3.0,0.3261,0.37994,0.3261,0.255996,,,,,,,0.126224,-0.017168,0.005072,0.304708,-0.000179,-0.00051
312440,0.142655,-0.017265,-0.007612,0.087266,-0.0,-0.0,3.0,0.3261,0.381445,0.3261,0.253367,,,,,,,0.132398,-0.017172,0.005061,0.288868,-0.000161,-0.000541
312460,0.146943,-0.016991,-0.007713,0.087266,-0.0,-0.0,3.0,0.3261,0.380406,0.3261,0.255188,,,,,,,0.13802,-0.017175,0.00505,0.250017,-0.000133,-0.00055
312480,0.149997,-0.016965,-0.007805,0.087266,-0.0,-0.0,3.0,0.3261,0.377138,0.3261,0.26075,,,,,,,0.142741,-0.017178,0.005039,0.201355,-0.000131,-0.000558
312500,0.151223,-0.017081,-0.007785,0.087266,-0.0,-0.0,3.0,0.3261,0.370818,0.3261,0.27087,,,,,,,0.146171,-0.01718,0.005028,0.136958,-0.000142,-0.000555
312520,0.150494,-0.017207,-0.007783,0.087266,-0.0,-0.0,3.0,0.3261,0.362449,0.3261,0.283163,,,,,,,0.148114,-0.017183,0.005017,0.058901,-0.000154,-0.000553
312540,0.147916,-0.017247,-0.007441,0.087266,-0.0,-0.0,3.0,0.3261,0.35295,0.3261,0.295845,,,,,,,0.148501,-0.017186,0.005006,-0.027606,-0.000158,-0.000518
312560,0.143635,-0.017286,-0.007238,0.087266,-0.0,-0.0,3.0,0.3261,0.341979,0.3261,0.309094,,,,,,,0.14721,-0.017189,0.004996,-0.114856,-0.000161,-0.000497
312580,0.138119,-0.017329,-0.007044,0.087266,-0.0,-0.0,3.0,0.3261,0.331117,0.3261,0.320977,,,,,,,0.144398,-0.017193,0.004986,-0.193684,-0.000165,-0.000477
312600,0.131759,-0.017376,-0.00686,0.087266,-0.0,-0.0,3.0,0.3261,0.320762,0.3261,0.331322,,,,,,,0.140244,-0.017196,0.004977,-0.25798,-0.00017,-0.000457
312620,0.125025,-0.0173,-0.006686,0.087266,-0.0,-0.0,3.0,0.3261,0.310986,0.3261,0.340319,,,,,,,0.134949,-0.0172,0.004968,-0.30001,-0.000162,-0.000439
312640,0.11818,-0.017331,-0.006749,0.087266,-0.0,-0.0,3.0,0.3261,0.302217,0.3261,0.347815,,,,,,,0.128802,-0.017203,0.004959,-0.320521,-0.000165,-0.000444
312660,0.11121,-0.017375,-0.006569,0.087266,-0.0,-0.0,3.0,0.3261,0.295605,0.3261,0.353138,,,,,,,0.122192,-0.017206,0.00495,-0.331029,-0.000169,-0.000425
312680,0.104851,-0.017659,-0.00637,0.087266,-0.0,-0.0,3.0,0.3261,0.291669,0.3261,0.35618,,,,,,,0.11549,-0.017209,0.004942,-0.321112,-0.000197,-0.000405
312700,0.099717,-0.017808,-0.006289,0.087266,-0.0,-0.0,3.0,0.3261,0.291341,0.3261,0.356429,,,,,,,0.109177,-0.017213,0.004934,-0.286828,-0.000211,-0.000396
312720,0.095801,-0.017591,-0.006093,0.087266,-0.0,-0.0,3.0,0.3261,0.29449,0.3261,0.354009,,,,,,,0.103639,-0.017217,0.004926,-0.239607,-0.000189,-0.000375
312740,0.09311,-0.017491,-0.005879,0.087266,-0.0,-0.0,3.0,0.3261,0.301073,0.3261,0.348755,,,,,,,0.099243,-0.01722,0.004919,-0.189758,-0.000179,-0.000353
312760,0.092378,-0.017251,-0.005897,0.087266,-0.0,-0.0,3.0,0.3261,0.31008,0.3261,0.341117,,,,,,,0.096145,-0.017224,0.004912,-0.120621,-0.000154,-0.000354
312780,0.093596,-0.017251,-0.005764,0.087266,-0.0,-0.0,3.0,0.3261,0.320743,0.3261,0.331341,,,,,,,0.094563,-0.017227,0.004905,-0.038883,-0.000154,-0.00034
312800,0.096528,-0.017118,-0.005743,0.087266,-0.0,-0.0,3.0,0.3261,0.331512,0.3261,0.320564,,,,,,,0.094514,-0.017231,0.004898,0.048062,-0.000141,-0.000338
312820,0.100565,-0.017341,-0.005818,0.087266,-0.0,-0.0,3.0,0.3261,0.341828,0.3261,0.309267,,,,,,,0.095968,-0.017234,0.004891,0.12345,-0.000163,-0.000344
312840,0.105823,-0.017424,-0.006129,0.087266,-0.0,-0.0,3.0,0.3261,0.351907,0.3261,0.297164,,,,,,,0.098855,-0.017237,0.004884,0.192634,-0.00017,-0.000375
312860,0.111696,-0.01763,-0.006306,0.087266,-0.0,-0.0,3.0,0.3261,0.360569,0.3261,0.285773,,,,,,,0.102988,-0.017241,0.004876,0.243412,-0.000191,-0.000392
312880,0.117937,-0.017576,-0.006737,0.087266,-0.0,-0.0,3.0,0.3261,0.367306,0.3261,0.27617,,,,,,,0.108009,-0.017244,0.004868,0.278963,-0.000185,-0.000434
312900,0.124177,-0.017518,-0.007166,0.087266,-0.0,-0.0,3.0,0.3261,0.372762,0.3261,0.26784,,,,,,,0.113659,-0.017249,0.004859,0.296212,-0.000179,-0.000476
312920,0.129687,-0.017338,-0.007611,0.087266,-0.0,-0.0,3.0,0.3261,0.375936,0.3261,0.262736,,,,,,,0.119522,-0.017253,0.004849,0.286004,-0.00016,-0.000519
312940,0.134456,-0.017411,-0.007923,0.087266,-0.0,-0.0,3.0,0.3261,0.377063,0.3261,0.260876,,,,,,,0.1252,-0.017256,0.004839,0.25965,-0.000167,-0.00055
312960,0.138259,-0.017497,-0.008124,0.087266,-0.0,-0.0,3.0,0.3261,0.37561,0.3261,0.26327,,,,,,,0.130276,-0.01726,0.004828,0.222506,-0.000176,-0.000569
312980,0.140827,-0.017596,-0.008212,0.087266,-0.0,-0.0,3.0,0.3261,0.372219,0.3261,0.268694,,,,,,,0.134467,-0.017263,0.004816,0.175126,-0.000185,-0.000576
313000,0.141558,-0.017957,-0.008179,0.087266,-0.0,-0.0,3.0,0.3261,0.366392,0.3261,0.277516,,,,,,,0.137486,-0.017267,0.004805,0.108409,-0.000221,-0.000572
313020,0.140706,-0.017962,-0.008188,0.087266,-0.0,-0.0,3.0,0.3261,0.358981,0.3261,0.287937,,,,,,,0.139129,-0.017271,0.004793,0.03561,-0.000221,-0.000572
313040,0.138262,-0.01835,-0.008065,0.087266,-0.0,-0.0,3.0,0.3261,0.349897,0.3261,0.299671,,,,,,,0.139265,-0.017275,0.004782,-0.039671,-0.000259,-0.000558
313060,0.134713,-0.018125,-0.008116,0.087266,-0.0,-0.0,3.0,0.3261,0.340587,0.3261,0.310682,,,,,,,0.137978,-0.01728,0.00477,-0.105712,-0.000236,-0.000562
313080,0.129937,-0.018036,-0.008048,0.087266,-0.0,-0.0,3.0,0.3261,0.330079,0.3261,0.322055,,,,,,,0.135276,-0.017285,0.004759,-0.16638,-0.000227,-0.000554
313100,0.123942,-0.017831,-0.007999,0.087266,-0.0,-0.0,3.0,0.3261,0.31998,0.3261,0.332068,,,,,,,0.131353,-0.017289,0.004748,-0.226798,-0.000206,-0.000548
313120,0.117463,-0.017736,-0.00819,0.087266,-0.0,-0.0,3.0,0.3261,0.310471,0.3261,0.340772,,,,,,,0.126402,-0.017294,0.004737,-0.271432,-0.000196,-0.000566
313140,0.11086,-0.017777,-0.00813,0.087266,-0.0,-0.0,3.0,0.3261,0.302907,0.3261,0.347243,,,,,,,0.120763,-0.017298,0.004726,-0.299567,-0.0002,-0.000559
313160,0.104501,-0.018059,-0.008055,0.087266,-0.0,-0.0,3.0,0.3261,0.297254,0.3261,0.351835,,,,,,,0.114736,-0.017302,0.004715,-0.309296,-0.000227,-0.00055
313180,0.098999,-0.018323,-0.008216,0.087266,-0.0,-0.0,3.0,0.3261,0.295509,0.3261,0.353213,,,,,,,0.108784,-0.017306,0.004704,-0.296159,-0.000253,-0.000565
313200,0.09436,-0.018469,-0.008256,0.087266,-0.0,-0.0,3.0,0.3261,0.296376,0.3261,0.352531,,,,,,,0.103203,-0.017311,0.004693,-0.268584,-0.000268,-0.000568
313220,0.091551,-0.0186,-0.0084,0.087266,-0.0,-0.0,3.0,0.3261,0.30066,0.3261,0.349093,,,,,,,0.098371,-0.017316,0.004681,-0.209617,-0.00028,-0.000581
313240,0.090328,-0.018351,-0.008666,0.087266,-0.0,-0.0,3.0,0.3261,0.307144,0.3261,0.343666,,,,,,,0.094637,-0.017322,0.004669,-0.136475,-0.000255,-0.000607
313260,0.09045,-0.018101,-0.008797,0.087266,-0.0,-0.0,3.0,0.3261,0.315588,0.3261,0.336171,,,,,,,0.092272,-0.017327,0.004657,-0.063972,-0.000229,-0.000619
313280,0.092042,-0.017838,-0.009038,0.087266,-0.0,-0.0,3.0,0.3261,0.324997,0.3261,0.327199,,,,,,,0.091341,-0.017331,0.004644,0.009605,-0.000202,-0.000642
313300,0.094853,-0.017567,-0.009267,0.087266,-0.0,-0.0,3.0,0.3261,0.334698,0.3261,0.317183,,,,,,,0.0919,-0.017336,0.004631,0.075326,-0.000175,-0.000663
313320,0.099007,-0.017653,-0.009465,0.087266,-0.0,-0.0,3.0,0.3261,0.344741,0.3261,0.305886,,,,,,,0.093892,-0.01734,0.004618,0.138474,-0.000183,-0.000682
313340,0.104638,-0.017969,-0.009761,0.087266,-0.0,-0.0,3.0,0.3261,0.355096,0.3261,0.293086,,,,,,,0.09727,-0.017344,0.004604,0.204304,-0.000214,-0.00071
313360,0.110635,-0.018286,-0.009928,0.087266,-0.0,-0.0,3.0,0.3261,0.363496,0.3261,0.281688,,,,,,,0.101787,-0.017349,0.00459,0.247523,-0.000245,-0.000725
313380,0.117242,-0.018712,-0.0102,0.087266,-0.0,-0.0,3.0,0.3261,0.370582,0.3261,0.271233,,,,,,,0.107102,-0.017355,0.004575,0.285285,-0.000288,-0.000751
313400,0.123727,-0.019014,-0.010478,0.087266,-0.0,-0.0,3.0,0.3261,0.375777,0.3261,0.262997,,,,,,,0.112974,-0.01736,0.00456,0.303239,-0.000317,-0.000777
313420,0.129845,-0.019073,-0.010772,0.087266,-0.0,-0.0,3.0,0.3261,0.378522,0.3261,0.258424,,,,,,,0.118974,-0.017366,0.004544,0.306642,-0.000322,-0.000805
313440,0.134985,-0.018787,-0.010858,0.087266,-0.0,-0.0,3.0,0.3261,0.379211,0.3261,0.25725,,,,,,,0.1248,-0.017372,0.004528,0.286579,-0.000293,-0.000812
313460,0.138657,-0.018623,-0.011072,0.087266,-0.0,-0.0,3.0,0.3261,0.378518,0.3261,0.25843,,,,,,,0.128878,-0.017376,0.004516,0.239082,-0.000242,-0.000824
313480,0.140735,-0.018487,-0.011059,0.087266,-0.0,-0.0,3.0,0.3261,0.373982,0.3261,0.265902,,,,,,,0.134459,-0.017383,0.004495,0.172694,-0.000262,-0.000829
313500,0.141596,-0.018481,-0.011052,0.087266,-0.0,-0.0,3.0,0.3261,0.368789,0.3261,0.273959,,,,,,,0.137651,-0.017388,0.004478,0.104767,-0.000261,-0.000826
313520,0.141102,-0.018849,-0.011029,0.087266,-0.0,-0.0,3.0,0.3261,0.361579,0.3261,0.284378,,,,,,,0.139448,-0.017394,0.004462,0.037915,-0.000297,-0.000822
313540,0.139022,-0.019003,-0.010799,0.087266,-0.0,-0.0,3.0,0.3261,0.352871,0.3261,0.295944,,,,,,,0.139736,-0.017401,0.004446,-0.031228,-0.000312,-0.000798
313560,0.135717,-0.019155,-0.010703,0.087266,-0.0,-0.0,3.0,0.3261,0.343798,0.3261,0.30699,,,,,,,0.138598,-0.017407,0.00443,-0.094499,-0.000327,-0.000787
313580,0.131192,-0.01895,-0.010645,0.087266,-0.0,-0.0,3.0,0.3261,0.334058,0.3261,0.317869,,,,,,,0.136134,-0.017413,0.004414,-0.15472,-0.000305,-0.000779
313600,0.125686,-0.019116,-0.010572,0.087266,-0.0,-0.0,3.0,0.3261,0.324153,0.3261,0.328032,,,,,,,0.132473,-0.017419,0.004398,-0.208643,-0.000321,-0.00077
313620,0.119935,-0.018788,-0.010653,0.087266,-0.0,-0.0,3.0,0.3261,0.315882,0.3261,0.335901,,,,,,,0.127906,-0.017425,0.004383,-0.243291,-0.000288,-0.000777
313640,0.113697,-0.018591,-0.010608,0.087266,-0.0,-0.0,3.0,0.3261,0.309433,0.3261,0.341683,,,,,,,0.122759,-0.017431,0.004368,-0.275026,-0.000268,-0.000771
313660,0.10807,-0.018627,-0.010663,0.087266,-0.0,-0.0,3.0,0.3261,0.304895,0.3261,0.34558,,,,,,,0.117273,-0.017436,0.004352,-0.279188,-0.000271,-0.000775
313680,0.103182,-0.01878,-0.010705,0.087266,-0.0,-0.0,3.0,0.3261,0.302996,0.3261,0.347169,,,,,,,0.111811,-0.017442,0.004337,-0.26247,-0.000286,-0.000778
313700,0.098909,-0.01893,-0.010743,0.087266,-0.0,-0.0,3.0,0.3261,0.303475,0.3261,0.34677,,,,,,,0.106733,-0.017448,0.004321,-0.238982,-0.0003,-0.00078
313720,0.095852,-0.019186,-0.010883,0.087266,-0.0,-0.0,3.0,0.3261,0.306691,0.3261,0.344054,,,,,,,0.102332,-0.017454,0.004305,-0.199751,-0.000325,-0.000792
313740,0.094267,-0.019197,-0.0109,0.087266,-0.0,-0.0,3.0,0.3261,0.311819,0.3261,0.339579,,,,,,,0.098804,-0.017461,0.00429,-0.143129,-0.000325,-0.000792
313760,0.094023,-0.019071,-0.011031,0.087266,-0.0,-0.0,3.0,0.3261,0.319384,0.3261,0.332634,,,,,,,0.096478,-0.017467,0.004274,-0.082329,-0.000312,-0.000804
313780,0.095244,-0.019179,-0.011133,0.087266,-0.0,-0.0,3.0,0.3261,0.327784,0.3261,0.324405,,,,,,,0.095417,-0.017472,0.004257,-0.015725,-0.000322,-0.000812
313800,0.097689,-0.019035,-0.011237,0.087266,-0.0,-0.0,3.0,0.3261,0.336587,0.3261,0.315135,,,,,,,0.095653,-0.017478,0.004241,0.048739,-0.000307,-0.000821
313820,0.101482,-0.019004,-0.011321,0.087266,-0.0,-0.0,3.0,0.3261,0.34505,0.3261,0.305522,,,,,,,0.097076,-0.017484,0.004225,0.117823,-0.000304,-0.000828
313840,0.105756,-0.018968,-0.011398,0.087266,-0.0,-0.0,3.0,0.3261,0.353058,0.3261,0.295707,,,,,,,0.099689,-0.01749,0.004208,0.166332,-0.0003,-0.000834
313860,0.110654,-0.019045,-0.011587,0.087266,-0.0,-0.0,3.0,0.3261,0.359928,0.3261,0.286651,,,,,,,0.103223,-0.017497,0.004191,0.206161,-0.000307,-0.000851
313880,0.115789,-0.019245,-0.011642,0.087266,-0.0,-0.0,3.0,0.3261,0.365504,0.3261,0.278809,,,,,,,0.107482,-0.017504,0.004174,0.231738,-0.000326,-0.000855
313900,0.120931,-0.019325,-0.011704,0.087266,-0.0,-0.0,3.0,0.3261,0.369656,0.3261,0.272647,,,,,,,0.112194,-0.017511,0.004157,0.244261,-0.000333,-0.000859
313920,0.125699,-0.019275,-0.011897,0.087266,-0.0,-0.0,3.0,0.3261,0.372665,0.3261,0.267993,,,,,,,0.117107,-0.017518,0.00414,0.240152,-0.000327,-0.000877
313940,0.129615,-0.01949,-0.01184,0.087266,-0.0,-0.0,3.0,0.3261,0.373606,0.3261,0.266502,,,,,,,0.121862,-0.017524,0.004122,0.215766,-0.000348,-0.00087
313960,0.133041,-0.019466,-0.011804,0.087266,-0.0,-0.0,3.0,0.3261,0.372766,0.3261,0.267834,,,,,,,0.126115,-0.017531,0.004105,0.191691,-0.000345,-0.000864
313980,0.135364,-0.01957,-0.011771,0.087266,-0.0,-0.0,3.0,0.3261,0.369743,0.3261,0.272515,,,,,,,0.129643,-0.017538,0.004088,0.156437,-0.000355,-0.000859
314000,0.136221,-0.019338,-0.011535,0.087266,-0.0,-0.0,3.0,0.3261,0.364973,0.3261,0.279576,,,,,,,0.132237,-0.017544,0.00407,0.105723,-0.000331,-0.000834
314020,0.13548,-0.019359,-0.011298,0.087266,-0.0,-0.0,3.0,0.3261,0.358704,0.3261,0.28831,,,,,,,0.133737,-0.017551,0.004054,0.04031,-0.000333,-0.000809
314040,0.133765,-0.019257,-0.011203,0.087266,-0.0,-0.0,3.0,0.3261,0.351638,0.3261,0.297503,,,,,,,0.134035,-0.017557,0.004038,-0.018454,-0.000322,-0.000797
314060,0.130708,-0.019181,-0.010878,0.087266,-0.0,-0.0,3.0,0.3261,0.344091,0.3261,0.306648,,,,,,,0.133196,-0.017564,0.004022,-0.083115,-0.000313,-0.000763
314080,0.127035,-0.019221,-0.010673,0.087266,-0.0,-0.0,3.0,0.3261,0.337185,0.3261,0.314479,,,,,,,0.131328,-0.017571,0.004007,-0.135722,-0.000317,-0.000741
314100,0.122867,-0.019019,-0.010485,0.087266,-0.0,-0.0,3.0,0.3261,0.330459,0.3261,0.321661,,,,,,,0.128513,-0.017577,0.003992,-0.175163,-0.000296,-0.000721
314120,0.118463,-0.019062,-0.010287,0.087266,-0.0,-0.0,3.0,0.3261,0.323886,0.3261,0.328295,,,,,,,0.124899,-0.017583,0.003978,-0.198298,-0.0003,-0.0007
