time_ms,roll,pitch,yaw,reference_roll,reference_pitch,reference_yaw,reference_throttle,throttle_1,throttle_2,throttle_3,throttle_4,roll_predicted,pitch_predicted,yaw_predicted,roll_rate_predicted,pitch_rate_predicted,yaw_rate_predicted,value1,value2,value3,value4,value5,value6
478614,-0.000218,-0.018314,-0.016243,0.0,-0.0,-0.0,3.0,0.3261,0.321226,0.3261,0.330878,,,,,,,-0.00118,-0.019791,-0.011672,0.021145,-6e-06,-8.1e-05
478634,2.5e-05,-0.018068,-0.016241,0.0,-0.0,-0.0,3.0,0.3261,0.321927,0.3261,0.330202,,,,,,,-0.000942,-0.019791,-0.011674,0.021771,1.9e-05,-6.8e-05
478654,0.000148,-0.018067,-0.016362,0.0,-0.0,-0.0,3.0,0.3261,0.322585,0.3261,0.329564,,,,,,,-0.000697,-0.019791,-0.011675,-0.001651,1.9e-05,-8e-05
478674,0.000393,-0.018187,-0.01636,0.0,-0.0,-0.0,3.0,0.3261,0.323908,0.3261,0.328273,,,,,,,-0.000452,-0.019791,-0.011677,-0.00157,7e-06,-8e-05
478694,0.000639,-0.018551,-0.016235,0.0,-0.0,-0.0,3.0,0.3261,0.327281,0.3261,0.324913,,,,,,,-0.000101,-0.019792,-0.011678,-0.02181,-2.9e-05,-6.7e-05
478714,0.000884,-0.018671,-0.016233,0.0,-0.0,-0.0,3.0,0.3261,0.327259,0.3261,0.324936,,,,,,,1.5e-05,-0.019792,-0.011679,0.003114,-4.1e-05,-6.7e-05
478734,0.001128,-0.018669,-0.016231,0.0,-0.0,-0.0,3.0,0.3261,0.321954,0.3261,0.330176,,,,,,,-9.4e-05,-0.019792,-0.01168,0.022934,8e-06,-5.5e-05
478754,0.001003,-0.018426,-0.01611,0.0,-0.0,-0.0,3.0,0.3261,0.320189,0.3261,0.33187,,,,,,,-0.000216,-0.019792,-0.011681,0.070296,-1.7e-05,-5.4e-05
478774,0.000756,-0.018184,-0.01599,0.0,-0.0,-0.0,3.0,0.3261,0.320915,0.3261,0.331176,,,,,,,-9.5e-05,-0.019792,-0.011683,-0.000571,7e-06,-4.2e-05
478794,0.000634,-0.018185,-0.015991,0.0,-0.0,-0.0,3.0,0.3261,0.321152,0.3261,0.330949,,,,,,,-9.3e-05,-0.019792,-0.011684,-0.024458,7e-06,-4.2e-05
478814,0.000755,-0.018062,-0.01599,0.0,-0.0,-0.0,3.0,0.3261,0.324037,0.3261,0.328146,,,,,,,0.000149,-0.019792,-0.011685,-0.047583,2e-05,-4.2e-05
478834,0.001001,-0.018182,-0.01611,0.0,-0.0,-0.0,3.0,0.3261,0.325073,0.3261,0.327123,,,,,,,0.000273,-0.019793,-0.011686,-0.02422,8e-06,-5.4e-05
478854,0.001124,-0.018181,-0.016231,0.0,-0.0,-0.0,3.0,0.3261,0.326633,0.3261,0.325566,,,,,,,0.000392,-0.019793,-0.011687,-0.023255,8e-06,-6.6e-05
478874,0.001248,-0.018424,-0.01623,0.0,-0.0,-0.0,3.0,0.3261,0.32789,0.3261,0.324297,,,,,,,0.000505,-0.019793,-0.011688,-0.021123,-1.6e-05,-6.6e-05
478894,0.001492,-0.018544,-0.016105,0.0,-0.0,-0.0,3.0,0.3261,0.327219,0.3261,0.324976,,,,,,,0.000503,-0.019793,-0.011689,0.026204,-2.8e-05,-5.3e-05
478914,0.001493,-0.018666,-0.016105,0.0,-0.0,-0.0,3.0,0.3261,0.321274,0.3261,0.330831,,,,,,,0.00027,-0.019793,-0.01169,0.071167,-4.1e-05,-5.3e-05
478934,0.001492,-0.018544,-0.016105,0.0,-0.0,-0.0,3.0,0.3261,0.319743,0.3261,0.332294,,,,,,,0.000277,-0.019793,-0.011691,0.069583,-2.8e-05,-5.3e-05
478954,0.001246,-0.018424,-0.015986,0.0,-0.0,-0.0,3.0,0.3261,0.319184,0.3261,0.332823,,,,,,,0.000405,-0.019793,-0.011692,-0.002344,-1.6e-05,-4.1e-05
478974,0.001243,-0.018058,-0.015986,0.0,-0.0,-0.0,3.0,0.3261,0.323182,0.3261,0.328983,,,,,,,0.000762,-0.019794,-0.011693,-0.071584,2e-05,-4.1e-05
478994,0.001245,-0.01818,-0.016108,0.0,-0.0,-0.0,3.0,0.3261,0.323695,0.3261,0.328481,,,,,,,0.000763,-0.019794,-0.011694,-0.07151,8e-06,-5.3e-05
479014,0.00161,-0.018055,-0.016105,0.0,-0.0,-0.0,3.0,0.3261,0.325601,0.3261,0.326598,,,,,,,0.000761,-0.019794,-0.011695,-0.00071,2.1e-05,-5.2e-05
479034,0.001612,-0.018299,-0.016104,0.0,-0.0,-0.0,3.0,0.3261,0.32748,0.3261,0.324713,,,,,,,0.000874,-0.019794,-0.011696,-0.02222,-4e-06,-5.2e-05
479054,0.00149,-0.0183,-0.016105,0.0,-0.0,-0.0,3.0,0.3261,0.326314,0.3261,0.325886,,,,,,,0.000625,-0.019795,-0.011697,0.002312,-4e-06,-5.2e-05
479074,0.001614,-0.018543,-0.016104,0.0,-0.0,-0.0,3.0,0.3261,0.324476,0.3261,0.327714,,,,,,,0.000508,-0.019795,-0.011698,0.048717,-2.8e-05,-5.2e-05
479094,0.001371,-0.018667,-0.016106,0.0,-0.0,-0.0,3.0,0.3261,0.320881,0.3261,0.331208,,,,,,,0.000273,-0.019795,-0.011699,0.047072,-4.1e-05,-5.2e-05
479114,0.00137,-0.018545,-0.016106,0.0,-0.0,-0.0,3.0,0.3261,0.321654,0.3261,0.330465,,,,,,,0.000397,-0.019795,-0.0117,0.022939,-2.8e-05,-5.2e-05
479134,0.001248,-0.018424,-0.01623,0.0,-0.0,-0.0,3.0,0.3261,0.320622,0.3261,0.331456,,,,,,,0.000401,-0.019795,-0.011701,-0.001213,-1.6e-05,-6.4e-05
479154,0.001246,-0.018302,-0.016108,0.0,-0.0,-0.0,3.0,0.3261,0.323655,0.3261,0.328521,,,,,,,0.000513,-0.019795,-0.011702,-0.023096,-4e-06,-5.2e-05
479174,0.001246,-0.018302,-0.016108,0.0,-0.0,-0.0,3.0,0.3261,0.324551,0.3261,0.327639,,,,,,,0.000636,-0.019795,-0.011703,-0.04674,-4e-06,-5.2e-05
479194,0.001366,-0.018179,-0.015985,0.0,-0.0,-0.0,3.0,0.3261,0.324893,0.3261,0.327302,,,,,,,0.000636,-0.019796,-0.011704,-0.023659,8e-06,-3.9e-05
479214,0.001612,-0.018299,-0.016104,0.0,-0.0,-0.0,3.0,0.3261,0.324399,0.3261,0.327789,,,,,,,0.000638,-0.019796,-0.011706,0.023305,-4e-06,-5.1e-05
479234,0.00149,-0.0183,-0.016105,0.0,-0.0,-0.0,3.0,0.3261,0.323876,0.3261,0.328304,,,,,,,0.00064,-0.019796,-0.011707,-0.00057,-4e-06,-5.1e-05
479254,0.00137,-0.018423,-0.016229,0.0,-0.0,-0.0,3.0,0.3261,0.325242,0.3261,0.326956,,,,,,,0.000636,-0.019797,-0.011708,-0.02292,-1.6e-05,-6.4e-05
479274,0.001492,-0.018422,-0.016227,0.0,-0.0,-0.0,3.0,0.3261,0.325947,0.3261,0.326253,,,,,,,0.000632,-0.019797,-0.011709,0.001389,-1.6e-05,-6.3e-05
479294,0.001495,-0.018666,-0.016349,0.0,-0.0,-0.0,3.0,0.3261,0.324134,0.3261,0.328051,,,,,,,0.000514,-0.019797,-0.01171,0.024576,-4e-05,-7.5e-05
479314,0.001618,-0.018665,-0.016348,0.0,-0.0,-0.0,3.0,0.3261,0.321848,0.3261,0.330278,,,,,,,0.0004,-0.019798,-0.011712,0.069977,-4e-05,-7.5e-05
479334,0.00125,-0.018668,-0.01623,0.0,-0.0,-0.0,3.0,0.3261,0.321004,0.3261,0.331091,,,,,,,0.000398,-0.019798,-0.011713,-0.000335,-4e-05,-6.3e-05
479354,0.001249,-0.018546,-0.01623,0.0,-0.0,-0.0,3.0,0.3261,0.321952,0.3261,0.330178,,,,,,,0.000393,-0.019799,-0.011714,0.000503,-2.8e-05,-6.3e-05
479374,0.001247,-0.018424,-0.016108,0.0,-0.0,-0.0,3.0,0.3261,0.3214,0.3261,0.33071,,,,,,,0.000526,-0.019799,-0.011715,-0.025519,-1.6e-05,-5.1e-05
479394,0.001367,-0.018179,-0.016107,0.0,-0.0,-0.0,3.0,0.3261,0.322089,0.3261,0.330045,,,,,,,0.000525,-0.0198,-0.011717,-0.00218,9e-06,-5e-05
479414,0.001367,-0.018179,-0.016107,0.0,-0.0,-0.0,3.0,0.3261,0.325719,0.3261,0.326481,,,,,,,0.000762,-0.0198,-0.011718,-0.047673,9e-06,-5e-05
479434,0.00149,-0.018178,-0.016228,0.0,-0.0,-0.0,3.0,0.3261,0.327988,0.3261,0.324198,,,,,,,0.000874,-0.0198,-0.011719,-0.045678,9e-06,-6.2e-05
479454,0.001738,-0.018542,-0.016225,0.0,-0.0,-0.0,3.0,0.3261,0.328158,0.3261,0.324025,,,,,,,0.00087,-0.0198,-0.01172,0.002718,-2.8e-05,-6.2e-05
479474,0.001982,-0.018418,-0.016345,0.0,-0.0,-0.0,3.0,0.3261,0.325771,0.3261,0.326429,,,,,,,0.000752,-0.019801,-0.011721,0.07246,-1.5e-05,-7.4e-05
479494,0.00186,-0.018541,-0.016224,0.0,-0.0,-0.0,3.0,0.3261,0.322461,0.3261,0.329686,,,,,,,0.000639,-0.019801,-0.011723,0.070634,-2.7e-05,-6.2e-05
479514,0.001737,-0.01842,-0.016225,0.0,-0.0,-0.0,3.0,0.3261,0.320919,0.3261,0.331172,,,,,,,0.000642,-0.019801,-0.011724,0.046414,-1.5e-05,-6.2e-05
479534,0.001491,-0.0183,-0.016228,0.0,-0.0,-0.0,3.0,0.3261,0.319231,0.3261,0.332778,,,,,,,0.000646,-0.019801,-0.011725,-0.001488,-3e-06,-6.2e-05
479554,0.001612,-0.018299,-0.016104,0.0,-0.0,-0.0,3.0,0.3261,0.320225,0.3261,0.331835,,,,,,,0.000772,-0.019801,-0.011726,-0.002542,-3e-06,-4.9e-05
479574,0.001733,-0.018176,-0.016103,0.0,-0.0,-0.0,3.0,0.3261,0.323073,0.3261,0.32909,,,,,,,0.001139,-0.019801,-0.011727,-0.049799,9e-06,-4.9e-05
479594,0.002101,-0.018295,-0.0161,0.0,-0.0,-0.0,3.0,0.3261,0.327967,0.3261,0.324219,,,,,,,0.001493,-0.019801,-0.011728,-0.047247,-3e-06,-4.9e-05
479614,0.002589,-0.018291,-0.016095,0.0,-0.0,-0.0,3.0,0.3261,0.332845,0.3261,0.31916,,,,,,,0.001964,-0.019802,-0.011729,-0.043861,-2e-06,-4.8e-05
479634,0.002957,-0.01841,-0.016214,0.0,-0.0,-0.0,3.0,0.3261,0.33195,0.3261,0.320104,,,,,,,0.002081,-0.019802,-0.011731,0.004341,-1.4e-05,-6e-05
479654,0.003445,-0.018406,-0.016209,0.0,-0.0,-0.0,3.0,0.3261,0.326395,0.3261,0.325805,,,,,,,0.001973,-0.019802,-0.011732,0.119185,-1.4e-05,-5.9e-05
479674,0.003446,-0.018528,-0.016209,0.0,-0.0,-0.0,3.0,0.3261,0.322148,0.3261,0.329989,,,,,,,0.001985,-0.019802,-0.011733,0.116879,-2.6e-05,-5.9e-05
479694,0.0032,-0.018286,-0.016212,0.0,-0.0,-0.0,3.0,0.3261,0.32049,0.3261,0.331582,,,,,,,0.002111,-0.019802,-0.011734,0.045297,-2e-06,-5.9e-05
479714,0.002955,-0.018166,-0.016214,0.0,-0.0,-0.0,3.0,0.3261,0.320488,0.3261,0.331584,,,,,,,0.002232,-0.019802,-0.011735,-0.025168,1e-05,-5.9e-05
479734,0.002954,-0.018166,-0.016092,0.0,-0.0,-0.0,3.0,0.3261,0.323005,0.3261,0.329156,,,,,,,0.002476,-0.019802,-0.011736,-0.072261,1e-05,-4.7e-05
479754,0.003198,-0.018164,-0.01609,0.0,-0.0,-0.0,3.0,0.3261,0.32465,0.3261,0.327542,,,,,,,0.002477,-0.019802,-0.011737,-0.025381,1e-05,-4.7e-05
479774,0.003441,-0.018163,-0.015966,0.0,-0.0,-0.0,3.0,0.3261,0.328176,0.3261,0.324006,,,,,,,0.002711,-0.019802,-0.011738,-0.023755,1.1e-05,-3.4e-05
479794,0.003443,-0.018407,-0.015965,0.0,-0.0,-0.0,3.0,0.3261,0.329384,0.3261,0.322771,,,,,,,0.0027,-0.019802,-0.011739,-0.021138,-1.4e-05,-3.4e-05
479814,0.003687,-0.018282,-0.016085,0.0,-0.0,-0.0,3.0,0.3261,0.329907,0.3261,0.322233,,,,,,,0.002693,-0.019802,-0.01174,0.027077,-1e-06,-4.6e-05
479834,0.003689,-0.018527,-0.016085,0.0,-0.0,-0.0,3.0,0.3261,0.323405,0.3261,0.328766,,,,,,,0.002469,-0.019802,-0.011741,0.070592,-2.6e-05,-4.6e-05
479854,0.003689,-0.018282,-0.016207,0.0,-0.0,-0.0,3.0,0.3261,0.320952,0.3261,0.33114,,,,,,,0.002355,-0.019802,-0.011742,0.092281,-1e-06,-5.8e-05
479874,0.003444,-0.018284,-0.01621,0.0,-0.0,-0.0,3.0,0.3261,0.32059,0.3261,0.331487,,,,,,,0.002483,-0.019802,-0.011743,0.020773,-1e-06,-5.8e-05
479894,0.003324,-0.018285,-0.016333,0.0,-0.0,-0.0,3.0,0.3261,0.323181,0.3261,0.328984,,,,,,,0.002596,-0.019803,-0.011744,-0.024204,-2e-06,-7e-05
479914,0.003325,-0.018407,-0.016333,0.0,-0.0,-0.0,3.0,0.3261,0.327049,0.3261,0.325147,,,,,,,0.002836,-0.019803,-0.011745,-0.023398,-1.4e-05,-5.8e-05
479934,0.003323,-0.018407,-0.016211,0.0,-0.0,-0.0,3.0,0.3261,0.328198,0.3261,0.323984,,,,,,,0.002827,-0.019803,-0.011746,-0.045127,-1.4e-05,-5.8e-05
479954,0.003444,-0.018284,-0.01621,0.0,-0.0,-0.0,3.0,0.3261,0.326912,0.3261,0.325285,,,,,,,0.002714,-0.019803,-0.011747,-0.023589,-1e-06,-5.8e-05
479974,0.003322,-0.018408,-0.016088,0.0,-0.0,-0.0,3.0,0.3261,0.327419,0.3261,0.324774,,,,,,,0.002709,-0.019803,-0.011749,-0.04622,-1.4e-05,-4.5e-05
479994,0.003321,-0.018285,-0.016089,0.0,-0.0,-0.0,3.0,0.3261,0.327559,0.3261,0.324632,,,,,,,0.002582,-0.019803,-0.01175,-0.021891,-2e-06,-4.5e-05
480014,0.003321,-0.018285,-0.016089,0.0,-0.0,-0.0,3.0,0.3261,0.326934,0.3261,0.325264,,,,,,,0.002459,-0.019803,-0.011751,0.001756,-2e-06,-4.5e-05
480034,0.003442,-0.018162,-0.016088,0.0,-0.0,-0.0,3.0,0.3261,0.326441,0.3261,0.325758,,,,,,,0.002463,-0.019803,-0.011752,0.024198,1.1e-05,-4.5e-05
480054,0.003443,-0.018284,-0.016088,0.0,-0.0,-0.0,3.0,0.3261,0.324549,0.3261,0.327641,,,,,,,0.002345,-0.019803,-0.011752,0.047169,-1e-06,-4.5e-05
480074,0.003198,-0.018164,-0.01609,0.0,-0.0,-0.0,3.0,0.3261,0.32229,0.3261,0.329851,,,,,,,0.002227,-0.019803,-0.011753,-0.00056,-2e-06,-4.5e-05
480094,0.003077,-0.018287,-0.016091,0.0,-0.0,-0.0,3.0,0.3261,0.322515,0.3261,0.329632,,,,,,,0.002226,-0.019803,-0.011754,-0.000373,-2e-06,-4.5e-05
480114,0.003077,-0.018287,-0.016091,0.0,-0.0,-0.0,3.0,0.3261,0.324779,0.3261,0.327414,,,,,,,0.00235,-0.019803,-0.011755,-0.024736,1e-05,-3.3e-05
480134,0.003198,-0.018164,-0.01609,0.0,-0.0,-0.0,3.0,0.3261,0.323386,0.3261,0.328784,,,,,,,0.002354,-0.019803,-0.011756,-0.001787,1.1e-05,-4.5e-05
480154,0.003197,-0.018042,-0.01609,0.0,-0.0,-0.0,3.0,0.3261,0.325498,0.3261,0.326701,,,,,,,0.002593,-0.019802,-0.011757,-0.048021,2.3e-05,-4.5e-05
480174,0.00332,-0.018163,-0.016089,0.0,-0.0,-0.0,3.0,0.3261,0.326965,0.3261,0.325233,,,,,,,0.002585,-0.019802,-0.011757,0.02461,-1e-06,-5.7e-05
480194,0.003443,-0.018284,-0.016088,0.0,-0.0,-0.0,3.0,0.3261,0.329125,0.3261,0.323037,,,,,,,0.002826,-0.019802,-0.011759,-0.045339,-2e-06,-4.4e-05
480214,0.003445,-0.018406,-0.016209,0.0,-0.0,-0.0,3.0,0.3261,0.327479,0.3261,0.324713,,,,,,,0.002583,-0.019802,-0.01176,0.001814,-1.4e-05,-5.6e-05
480234,0.003445,-0.018406,-0.016209,0.0,-0.0,-0.0,3.0,0.3261,0.32273,0.3261,0.329424,,,,,,,0.002223,-0.019802,-0.01176,0.023774,-1.4e-05,-4.4e-05
480254,0.003201,-0.018408,-0.016212,0.0,-0.0,-0.0,3.0,0.3261,0.323728,0.3261,0.328449,,,,,,,0.002098,-0.019802,-0.011761,0.04802,-1.4e-05,-5.6e-05
480274,0.003199,-0.018286,-0.01609,0.0,-0.0,-0.0,3.0,0.3261,0.322504,0.3261,0.329643,,,,,,,0.002106,-0.019802,-0.011762,0.046199,-2e-06,-4.4e-05
480294,0.002955,-0.018288,-0.016092,0.0,-0.0,-0.0,3.0,0.3261,0.321079,0.3261,0.331019,,,,,,,0.00211,-0.019802,-0.011763,-0.001677,-2e-06,-4.4e-05
480314,0.002953,-0.018044,-0.016092,0.0,-0.0,-0.0,3.0,0.3261,0.327939,0.3261,0.324247,,,,,,,0.002462,-0.019802,-0.011764,-0.069871,3.5e-05,-4.4e-05
480334,0.002953,-0.018044,-0.016092,0.0,-0.0,-0.0,3.0,0.3261,0.324639,0.3261,0.327553,,,,,,,0.002354,-0.019802,-0.011765,-0.04889,2.2e-05,-4.4e-05
480354,0.002953,-0.018044,-0.016092,0.0,-0.0,-0.0,3.0,0.3261,0.328548,0.3261,0.323627,,,,,,,0.002458,-0.019802,-0.011766,0.025537,-2e-06,-5.6e-05
480374,0.003078,-0.018287,-0.016213,0.0,-0.0,-0.0,3.0,0.3261,0.325628,0.3261,0.326572,,,,,,,0.00222,-0.019802,-0.011767,0.048073,-1.4e-05,-5.6e-05
480394,0.003323,-0.018407,-0.016211,0.0,-0.0,-0.0,3.0,0.3261,0.327958,0.3261,0.324228,,,,,,,0.002339,-0.019802,-0.011768,0.02529,-1.4e-05,-5.6e-05
480414,0.003324,-0.018529,-0.01621,0.0,-0.0,-0.0,3.0,0.3261,0.325174,0.3261,0.327023,,,,,,,0.002099,-0.019802,-0.011769,0.07153,-2.6e-05,-5.6e-05
480434,0.003201,-0.018408,-0.016212,0.0,-0.0,-0.0,3.0,0.3261,0.323268,0.3261,0.328899,,,,,,,0.001981,-0.019802,-0.01177,0.070593,-1.4e-05,-5.6e-05
480454,0.002834,-0.018289,-0.016215,0.0,-0.0,-0.0,3.0,0.3261,0.322063,0.3261,0.33007,,,,,,,0.002115,-0.019802,-0.011771,-0.025998,1e-05,-5.6e-05
480474,0.002712,-0.01829,-0.016216,0.0,-0.0,-0.0,3.0,0.3261,0.324928,0.3261,0.327267,,,,,,,0.002234,-0.019802,-0.011772,-0.048866,1e-05,-5.6e-05
480494,0.002833,-0.018167,-0.016215,0.0,-0.0,-0.0,3.0,0.3261,0.322799,0.3261,0.329357,,,,,,,0.002116,-0.019802,-0.011774,-0.026154,1e-05,-5.6e-05
480514,0.002956,-0.018288,-0.016214,0.0,-0.0,-0.0,3.0,0.3261,0.331037,0.3261,0.32106,,,,,,,0.002451,-0.019802,-0.011774,-0.043535,-2e-06,-5.5e-05
480534,0.0032,-0.018286,-0.016212,0.0,-0.0,-0.0,3.0,0.3261,0.330647,0.3261,0.321466,,,,,,,0.002451,-0.019802,-0.011776,0.027294,-1.4e-05,-6.7e-05
480554,0.003325,-0.018529,-0.016332,0.0,-0.0,-0.0,3.0,0.3261,0.323421,0.3261,0.32875,,,,,,,0.002105,-0.019803,-0.011777,0.094277,-3.8e-05,-6.7e-05
480574,0.003692,-0.018526,-0.016329,0.0,-0.0,-0.0,3.0,0.3261,0.322292,0.3261,0.329849,,,,,,,0.002109,-0.019803,-0.011778,0.069677,-1.4e-05,-6.7e-05
480594,0.00357,-0.018527,-0.01633,0.0,-0.0,-0.0,3.0,0.3261,0.322803,0.3261,0.329353,,,,,,,0.002354,-0.019803,-0.011779,-0.024463,-1.4e-05,-6.7e-05
480614,0.003448,-0.018528,-0.016331,0.0,-0.0,-0.0,3.0,0.3261,0.324191,0.3261,0.327994,,,,,,,0.002476,-0.019804,-0.011781,-0.0479,-1.4e-05,-6.7e-05
480634,0.003082,-0.018653,-0.016335,0.0,-0.0,-0.0,3.0,0.3261,0.324727,0.3261,0.327466,,,,,,,0.002604,-0.019804,-0.011782,-0.048719,-3.8e-05,-6.7e-05
480654,0.003082,-0.018531,-0.016457,0.0,-0.0,-0.0,3.0,0.3261,0.32734,0.3261,0.324854,,,,,,,0.002721,-0.019805,-0.011783,-0.047931,-2.6e-05,-6.6e-05
480674,0.003083,-0.018653,-0.016457,0.0,-0.0,-0.0,3.0,0.3261,0.329353,0.3261,0.322803,,,,,,,0.002709,-0.019806,-0.011785,-0.045292,-3.8e-05,-6.6e-05
480694,0.003203,-0.01853,-0.016334,0.0,-0.0,-0.0,3.0,0.3261,0.330118,0.3261,0.322014,,,,,,,0.002577,-0.019806,-0.011786,-0.020089,-2.6e-05,-6.6e-05
480714,0.003083,-0.018775,-0.016334,0.0,-0.0,-0.0,3.0,0.3261,0.326733,0.3261,0.325466,,,,,,,0.002342,-0.019807,-0.011788,0.025428,-5e-05,-6.6e-05
480734,0.003326,-0.018651,-0.016332,0.0,-0.0,-0.0,3.0,0.3261,0.321651,0.3261,0.330469,,,,,,,0.001994,-0.019808,-0.011789,0.091899,-2.5e-05,-6.6e-05
480754,0.003326,-0.018651,-0.016332,0.0,-0.0,-0.0,3.0,0.3261,0.321965,0.3261,0.330165,,,,,,,0.002117,-0.019808,-0.01179,0.045148,-3.8e-05,-7.8e-05
480774,0.003327,-0.018529,-0.016455,0.0,-0.0,-0.0,3.0,0.3261,0.324296,0.3261,0.327891,,,,,,,0.00223,-0.019809,-0.011792,-0.023719,-2.6e-05,-7.8e-05
480794,0.003206,-0.018652,-0.016455,0.0,-0.0,-0.0,3.0,0.3261,0.325588,0.3261,0.326612,,,,,,,0.002352,-0.01981,-0.011793,-0.04699,-3.8e-05,-7.8e-05
480814,0.003085,-0.018653,-0.016579,0.0,-0.0,-0.0,3.0,0.3261,0.325247,0.3261,0.32695,,,,,,,0.002356,-0.019811,-0.011795,-0.000666,-3.7e-05,-7.7e-05
480834,0.003086,-0.018775,-0.016579,0.0,-0.0,-0.0,3.0,0.3261,0.326136,0.3261,0.326064,,,,,,,0.002479,-0.019811,-0.011797,-0.024302,-5e-05,-7.7e-05
480854,0.003208,-0.018774,-0.016577,0.0,-0.0,-0.0,3.0,0.3261,0.326726,0.3261,0.325473,,,,,,,0.002475,-0.019812,-0.011798,-0.023433,-4.9e-05,-7.7e-05
480874,0.003207,-0.018774,-0.016455,0.0,-0.0,-0.0,3.0,0.3261,0.327873,0.3261,0.324314,,,,,,,0.002467,-0.019813,-0.0118,-0.021915,-4.9e-05,-7.7e-05
480894,0.003207,-0.018774,-0.016455,0.0,-0.0,-0.0,3.0,0.3261,0.32802,0.3261,0.324165,,,,,,,0.002466,-0.019814,-0.011802,0.001748,-4.9e-05,-7.7e-05
480914,0.003328,-0.018651,-0.016454,0.0,-0.0,-0.0,3.0,0.3261,0.325492,0.3261,0.326707,,,,,,,0.002353,-0.019815,-0.011803,0.046747,-3.7e-05,-7.6e-05
480934,0.003328,-0.018651,-0.016454,0.0,-0.0,-0.0,3.0,0.3261,0.324124,0.3261,0.32806,,,,,,,0.002357,-0.019816,-0.011805,0.04607,-3.7e-05,-7.6e-05
480954,0.00345,-0.01865,-0.016453,0.0,-0.0,-0.0,3.0,0.3261,0.324746,0.3261,0.327447,,,,,,,0.002352,-0.019817,-0.011806,0.023491,-3.7e-05,-7.6e-05
480974,0.003573,-0.018771,-0.016452,0.0,-0.0,-0.0,3.0,0.3261,0.325391,0.3261,0.326807,,,,,,,0.002472,-0.019817,-0.011808,-0.023133,-4.9e-05,-6.4e-05
480994,0.003328,-0.018651,-0.016454,0.0,-0.0,-0.0,3.0,0.3261,0.324999,0.3261,0.327196,,,,,,,0.002472,-0.019818,-0.011809,-0.02333,-3.7e-05,-6.4e-05
481014,0.003328,-0.018651,-0.016454,0.0,-0.0,-0.0,3.0,0.3261,0.32442,0.3261,0.327769,,,,,,,0.002481,-0.019819,-0.01181,-0.00177,-2.4e-05,-6.4e-05
481034,0.003327,-0.018773,-0.016332,0.0,-0.0,-0.0,3.0,0.3261,0.325062,0.3261,0.327134,,,,,,,0.002604,-0.01982,-0.011812,-0.025412,-2.4e-05,-6.4e-05
481054,0.003449,-0.01865,-0.016331,0.0,-0.0,-0.0,3.0,0.3261,0.328137,0.3261,0.324046,,,,,,,0.002715,-0.01982,-0.011813,-0.022964,-3.6e-05,-6.3e-05
481074,0.003448,-0.018528,-0.016331,0.0,-0.0,-0.0,3.0,0.3261,0.330783,0.3261,0.321325,,,,,,,0.002949,-0.019821,-0.011814,-0.044262,-3.6e-05,-7.5e-05
481094,0.003449,-0.01865,-0.016331,0.0,-0.0,-0.0,3.0,0.3261,0.328848,0.3261,0.32332,,,,,,,0.002832,-0.019822,-0.011816,0.025491,-6e-05,-7.5e-05
481114,0.003693,-0.018648,-0.016329,0.0,-0.0,-0.0,3.0,0.3261,0.326932,0.3261,0.325265,,,,,,,0.002715,-0.019823,-0.011817,0.071366,-4.8e-05,-7.5e-05
481134,0.003938,-0.018768,-0.016326,0.0,-0.0,-0.0,3.0,0.3261,0.325103,0.3261,0.327093,,,,,,,0.002718,-0.019824,-0.011818,0.047173,-4.8e-05,-7.5e-05
481154,0.004059,-0.018645,-0.016325,0.0,-0.0,-0.0,3.0,0.3261,0.324227,0.3261,0.327959,,,,,,,0.002716,-0.019824,-0.01182,0.023614,-2.3e-05,-6.2e-05
481174,0.003815,-0.018647,-0.016328,0.0,-0.0,-0.0,3.0,0.3261,0.322437,0.3261,0.329708,,,,,,,0.002724,-0.019825,-0.011821,0.02199,-3.6e-05,-5e-05
481194,0.00369,-0.018404,-0.016207,0.0,-0.0,-0.0,3.0,0.3261,0.321599,0.3261,0.330518,,,,,,,0.002732,-0.019825,-0.011822,-0.003799,1e-06,-3.8e-05
481214,0.00369,-0.018404,-0.016207,0.0,-0.0,-0.0,3.0,0.3261,0.325647,0.3261,0.326553,,,,,,,0.002967,-0.019826,-0.011823,-0.02563,1e-06,-3.8e-05
481234,0.003687,-0.018282,-0.016085,0.0,-0.0,-0.0,3.0,0.3261,0.330988,0.3261,0.321111,,,,,,,0.003316,-0.019826,-0.011824,-0.068969,1e-06,-5e-05
481254,0.00381,-0.018282,-0.016084,0.0,-0.0,-0.0,3.0,0.3261,0.331316,0.3261,0.320769,,,,,,,0.003312,-0.019826,-0.011825,-0.044412,-2.3e-05,-4.9e-05
481274,0.003933,-0.01828,-0.016205,0.0,-0.0,-0.0,3.0,0.3261,0.331583,0.3261,0.320489,,,,,,,0.003308,-0.019826,-0.011826,0.003421,-2.3e-05,-4.9e-05
481294,0.004056,-0.018279,-0.016326,0.0,-0.0,-0.0,3.0,0.3261,0.325904,0.3261,0.326296,,,,,,,0.002954,-0.019827,-0.011827,0.094994,-2.3e-05,-4.9e-05
481314,0.004181,-0.018644,-0.016324,0.0,-0.0,-0.0,3.0,0.3261,0.32303,0.3261,0.329132,,,,,,,0.00284,-0.019827,-0.011828,0.093362,-2.3e-05,-4.9e-05
481334,0.004302,-0.018521,-0.016323,0.0,-0.0,-0.0,3.0,0.3261,0.321864,0.3261,0.330264,,,,,,,0.002844,-0.019827,-0.011829,0.021995,-1.1e-05,-4.9e-05
481354,0.00418,-0.018644,-0.016202,0.0,-0.0,-0.0,3.0,0.3261,0.324546,0.3261,0.327644,,,,,,,0.003084,-0.019827,-0.01183,-0.047745,-1.1e-05,-4.9e-05
481374,0.003934,-0.018402,-0.016205,0.0,-0.0,-0.0,3.0,0.3261,0.32514,0.3261,0.327057,,,,,,,0.003211,-0.019827,-0.011831,-0.048964,1.4e-05,-4.9e-05
481394,0.003811,-0.018281,-0.016206,0.0,-0.0,-0.0,3.0,0.3261,0.327365,0.3261,0.324829,,,,,,,0.003329,-0.019828,-0.011832,-0.048177,1.4e-05,-4.9e-05
481414,0.003809,-0.018037,-0.016207,0.0,-0.0,-0.0,3.0,0.3261,0.330912,0.3261,0.32119,,,,,,,0.003564,-0.019828,-0.011833,-0.046528,1.4e-05,-4.8e-05
481434,0.004054,-0.018157,-0.016204,0.0,-0.0,-0.0,3.0,0.3261,0.331668,0.3261,0.3204,,,,,,,0.003429,-0.019828,-0.011834,-0.020046,-1.1e-05,-4.8e-05
481454,0.00442,-0.018154,-0.016201,0.0,-0.0,-0.0,3.0,0.3261,0.331284,0.3261,0.320802,,,,,,,0.003428,-0.019828,-0.011835,0.050542,-1e-05,-4.8e-05
481474,0.004423,-0.01852,-0.0162,0.0,-0.0,-0.0,3.0,0.3261,0.324457,0.3261,0.327733,,,,,,,0.003203,-0.019828,-0.011836,0.070574,-2.3e-05,-4.8e-05
481494,0.004668,-0.01864,-0.016198,0.0,-0.0,-0.0,3.0,0.3261,0.323126,0.3261,0.329038,,,,,,,0.003211,-0.019828,-0.011837,0.069002,-2.3e-05,-4.8e-05
481514,0.004791,-0.018762,-0.016196,0.0,-0.0,-0.0,3.0,0.3261,0.323882,0.3261,0.328298,,,,,,,0.003456,-0.019828,-0.011838,-0.001453,-3.5e-05,-4.8e-05
481534,0.004791,-0.018762,-0.016196,0.0,-0.0,-0.0,3.0,0.3261,0.328458,0.3261,0.32372,,,,,,,0.003935,-0.019829,-0.011838,-0.046788,-2.2e-05,-4.7e-05
481554,0.004667,-0.018518,-0.016198,0.0,-0.0,-0.0,3.0,0.3261,0.329268,0.3261,0.32289,,,,,,,0.00418,-0.01983,-0.011839,-0.070607,-1e-05,-4.7e-05
481574,0.004911,-0.018394,-0.016318,0.0,-0.0,-0.0,3.0,0.3261,0.330954,0.3261,0.321146,,,,,,,0.004298,-0.01983,-0.01184,-0.022906,-1e-05,-4.7e-05
481594,0.005032,-0.018271,-0.016317,0.0,-0.0,-0.0,3.0,0.3261,0.331021,0.3261,0.321077,,,,,,,0.004417,-0.01983,-0.011842,-0.022223,3e-06,-5.9e-05
481614,0.0054,-0.01839,-0.016313,0.0,-0.0,-0.0,3.0,0.3261,0.330308,0.3261,0.321818,,,,,,,0.004416,-0.019831,-0.011843,0.025106,-9e-06,-5.8e-05
481634,0.005278,-0.018391,-0.016314,0.0,-0.0,-0.0,3.0,0.3261,0.327808,0.3261,0.324381,,,,,,,0.004423,-0.019831,-0.011844,0.024139,-3.4e-05,-5.8e-05
481654,0.005401,-0.018512,-0.016313,0.0,-0.0,-0.0,3.0,0.3261,0.326445,0.3261,0.325755,,,,,,,0.004304,-0.019831,-0.011845,0.046929,-3.4e-05,-5.8e-05
481674,0.005402,-0.018634,-0.016313,0.0,-0.0,-0.0,3.0,0.3261,0.324554,0.3261,0.327637,,,,,,,0.004312,-0.019832,-0.011846,0.022092,-3.4e-05,-7e-05
481694,0.005525,-0.018633,-0.016434,0.0,-0.0,-0.0,3.0,0.3261,0.326365,0.3261,0.325835,,,,,,,0.004429,-0.019832,-0.011848,0.022987,-2.1e-05,-7e-05
481714,0.005525,-0.018633,-0.016434,0.0,-0.0,-0.0,3.0,0.3261,0.328083,0.3261,0.324101,,,,,,,0.004669,-0.019832,-0.011849,-0.04678,-2.1e-05,-7e-05
481734,0.005524,-0.018511,-0.016434,0.0,-0.0,-0.0,3.0,0.3261,0.328054,0.3261,0.324131,,,,,,,0.004669,-0.019833,-0.01185,-0.023503,-9e-06,-7e-05
481754,0.005401,-0.01839,-0.016435,0.0,-0.0,-0.0,3.0,0.3261,0.327234,0.3261,0.324961,,,,,,,0.004674,-0.019833,-0.011852,0.022185,3e-06,-5.7e-05
481774,0.005399,-0.018268,-0.016314,0.0,-0.0,-0.0,3.0,0.3261,0.325516,0.3261,0.326683,,,,,,,0.004558,-0.019834,-0.011853,0.021127,-9e-06,-5.7e-05
481794,0.00552,-0.018145,-0.016313,0.0,-0.0,-0.0,3.0,0.3261,0.329826,0.3261,0.322316,,,,,,,0.004788,-0.019834,-0.011854,-0.046635,3e-06,-5.7e-05
481814,0.00552,-0.018145,-0.016313,0.0,-0.0,-0.0,3.0,0.3261,0.330274,0.3261,0.321853,,,,,,,0.004784,-0.019834,-0.011856,-0.045761,-9e-06,-5.7e-05
481834,0.005399,-0.018268,-0.016314,0.0,-0.0,-0.0,3.0,0.3261,0.32968,0.3261,0.322466,,,,,,,0.004786,-0.019834,-0.011857,0.001327,-2.1e-05,-6.9e-05
481854,0.005522,-0.018389,-0.016312,0.0,-0.0,-0.0,3.0,0.3261,0.327399,0.3261,0.324795,,,,,,,0.004673,-0.019834,-0.011858,0.07,-3.3e-05,-5.6e-05
481874,0.00589,-0.01863,-0.016308,0.0,-0.0,-0.0,3.0,0.3261,0.329056,0.3261,0.323107,,,,,,,0.004909,-0.019834,-0.011859,0.024119,-9e-06,-5.6e-05
481894,0.006134,-0.018628,-0.016306,0.0,-0.0,-0.0,3.0,0.3261,0.328998,0.3261,0.323167,,,,,,,0.005027,-0.019834,-0.01186,-0.022439,4e-06,-4.4e-05
481914,0.006255,-0.018505,-0.016305,0.0,-0.0,-0.0,3.0,0.3261,0.329174,0.3261,0.322987,,,,,,,0.00515,-0.019834,-0.011861,0.000808,4e-06,-4.4e-05
481934,0.006252,-0.018261,-0.016184,0.0,-0.0,-0.0,3.0,0.3261,0.327614,0.3261,0.324577,,,,,,,0.005283,-0.019835,-0.011862,0.021957,1.6e-05,-4.4e-05
481954,0.006253,-0.018261,-0.016306,0.0,-0.0,-0.0,3.0,0.3261,0.327048,0.3261,0.325149,,,,,,,0.005413,-0.019835,-0.011863,-0.002536,4e-06,-5.6e-05
481974,0.006373,-0.018016,-0.016305,0.0,-0.0,-0.0,3.0,0.3261,0.330823,0.3261,0.321283,,,,,,,0.005644,-0.019835,-0.011864,-0.046781,4e-06,-6.8e-05
481994,0.006375,-0.01826,-0.016305,0.0,-0.0,-0.0,3.0,0.3261,0.331965,0.3261,0.320089,,,,,,,0.005759,-0.019835,-0.011866,-0.021435,-3.2e-05,-6.7e-05
482014,0.006375,-0.018137,-0.016427,0.0,-0.0,-0.0,3.0,0.3261,0.329894,0.3261,0.322246,,,,,,,0.00564,-0.019835,-0.011867,0.048482,-3.2e-05,-6.7e-05
482034,0.006501,-0.018625,-0.016424,0.0,-0.0,-0.0,3.0,0.3261,0.329546,0.3261,0.322605,,,,,,,0.005638,-0.019835,-0.011868,0.048453,-2e-05,-5.5e-05
482054,0.006868,-0.018622,-0.016421,0.0,-0.0,-0.0,3.0,0.3261,0.329022,0.3261,0.323142,,,,,,,0.005637,-0.019835,-0.011869,0.024923,-8e-06,-5.5e-05
482074,0.006865,-0.0185,-0.016299,0.0,-0.0,-0.0,3.0,0.3261,0.327161,0.3261,0.325035,,,,,,,0.005642,-0.019835,-0.01187,0.023566,1.7e-05,-5.5e-05
482094,0.006864,-0.018378,-0.0163,0.0,-0.0,-0.0,3.0,0.3261,0.327231,0.3261,0.324964,,,,,,,0.005772,-0.019835,-0.011872,-0.001545,2.9e-05,-5.5e-05
482114,0.00674,-0.018135,-0.016302,0.0,-0.0,-0.0,3.0,0.3261,0.326476,0.3261,0.325724,,,,,,,0.005904,-0.019836,-0.011873,-0.003465,2.9e-05,-5.4e-05
482134,0.00674,-0.018135,-0.016302,0.0,-0.0,-0.0,3.0,0.3261,0.328197,0.3261,0.323985,,,,,,,0.006024,-0.019836,-0.011874,-0.002288,-7e-06,-6.6e-05
482154,0.006862,-0.018134,-0.016301,0.0,-0.0,-0.0,3.0,0.3261,0.33194,0.3261,0.320115,,,,,,,0.006254,-0.019836,-0.011875,-0.022668,-3.2e-05,-6.6e-05
482174,0.00711,-0.018498,-0.016297,0.0,-0.0,-0.0,3.0,0.3261,0.333542,0.3261,0.31842,,,,,,,0.006366,-0.019836,-0.011876,-0.020332,-5.6e-05,-6.6e-05
482194,0.007112,-0.01862,-0.016419,0.0,-0.0,-0.0,3.0,0.3261,0.331663,0.3261,0.320406,,,,,,,0.006368,-0.019837,-0.011877,0.002575,-5.6e-05,-5.3e-05
482214,0.007113,-0.018864,-0.016296,0.0,-0.0,-0.0,3.0,0.3261,0.328829,0.3261,0.32334,,,,,,,0.006127,-0.019837,-0.011878,0.048563,-4.4e-05,-4.1e-05
482234,0.007113,-0.018864,-0.016296,0.0,-0.0,-0.0,3.0,0.3261,0.326663,0.3261,0.325536,,,,,,,0.006015,-0.019838,-0.011879,0.046176,-1.9e-05,-4.1e-05
482254,0.007112,-0.018742,-0.016296,0.0,-0.0,-0.0,3.0,0.3261,0.32688,0.3261,0.325318,,,,,,,0.006017,-0.019838,-0.01188,-0.001167,-7e-06,-5.3e-05
482274,0.006987,-0.018499,-0.016298,0.0,-0.0,-0.0,3.0,0.3261,0.327333,0.3261,0.324861,,,,,,,0.006019,-0.019839,-0.011882,-0.025023,-7e-06,-5.3e-05
482294,0.006742,-0.018379,-0.016301,0.0,-0.0,-0.0,3.0,0.3261,0.32808,0.3261,0.324104,,,,,,,0.00602,-0.01984,-0.011883,-0.024767,-1.9e-05,-6.5e-05
482314,0.006742,-0.018379,-0.016301,0.0,-0.0,-0.0,3.0,0.3261,0.330715,0.3261,0.321396,,,,,,,0.006137,-0.01984,-0.011884,-0.023778,-1.9e-05,-6.5e-05
482334,0.006742,-0.018379,-0.016301,0.0,-0.0,-0.0,3.0,0.3261,0.329619,0.3261,0.322529,,,,,,,0.006015,-0.019841,-0.011885,7.6e-05,-4.4e-05,-6.5e-05
482354,0.006867,-0.0185,-0.016421,0.0,-0.0,-0.0,3.0,0.3261,0.332138,0.3261,0.319907,,,,,,,0.006126,-0.019841,-0.011886,-0.021464,-4.4e-05,-5.3e-05
482374,0.006745,-0.018745,-0.0163,0.0,-0.0,-0.0,3.0,0.3261,0.328366,0.3261,0.323813,,,,,,,0.00589,-0.019842,-0.011887,0.000325,-5.6e-05,-4e-05
482394,0.006623,-0.018746,-0.016301,0.0,-0.0,-0.0,3.0,0.3261,0.32842,0.3261,0.323758,,,,,,,0.005767,-0.019842,-0.011888,0.04732,-3.1e-05,-5.2e-05
482414,0.006502,-0.018869,-0.016302,0.0,-0.0,-0.0,3.0,0.3261,0.327147,0.3261,0.325049,,,,,,,0.005653,-0.019843,-0.011889,0.022353,-3.1e-05,-5.3e-05
482434,0.006623,-0.018624,-0.016423,0.0,-0.0,-0.0,3.0,0.3261,0.328863,0.3261,0.323306,,,,,,,0.005647,-0.019844,-0.011891,-0.000208,-7e-06,-6.5e-05
482454,0.0065,-0.018503,-0.016425,0.0,-0.0,-0.0,3.0,0.3261,0.329502,0.3261,0.32265,,,,,,,0.005644,-0.019844,-0.011892,-0.02283,-1.9e-05,-6.5e-05
482474,0.0065,-0.018503,-0.016425,0.0,-0.0,-0.0,3.0,0.3261,0.328613,0.3261,0.323561,,,,,,,0.005526,-0.019845,-0.011893,-8e-06,-1.9e-05,-7.7e-05
482494,0.006256,-0.018505,-0.016427,0.0,-0.0,-0.0,3.0,0.3261,0.326418,0.3261,0.325782,,,,,,,0.005413,-0.019845,-0.011894,0.021684,-3.1e-05,-6.5e-05
482514,0.006135,-0.018505,-0.01655,0.0,-0.0,-0.0,3.0,0.3261,0.326378,0.3261,0.325822,,,,,,,0.005291,-0.019846,-0.011896,-0.001781,-3.1e-05,-6.5e-05
482534,0.005891,-0.01863,-0.01643,0.0,-0.0,-0.0,3.0,0.3261,0.328062,0.3261,0.324122,,,,,,,0.005285,-0.019846,-0.011897,-0.071142,-3.2e-05,-6.5e-05
482554,0.005769,-0.018631,-0.016431,0.0,-0.0,-0.0,3.0,0.3261,0.332002,0.3261,0.32005,,,,,,,0.005274,-0.019847,-0.011899,-0.068859,-3.2e-05,-6.5e-05
482574,0.005402,-0.018512,-0.016435,0.0,-0.0,-0.0,3.0,0.3261,0.32938,0.3261,0.322775,,,,,,,0.004912,-0.019848,-0.0119,0.000691,-1.9e-05,-7.7e-05
482594,0.00528,-0.01839,-0.016559,0.0,-0.0,-0.0,3.0,0.3261,0.328638,0.3261,0.323535,,,,,,,0.004672,-0.019848,-0.011901,0.023322,-1.9e-05,-7.7e-05
482614,0.00528,-0.01839,-0.016559,0.0,-0.0,-0.0,3.0,0.3261,0.326188,0.3261,0.326013,,,,,,,0.00431,-0.019848,-0.011903,0.046076,-2e-05,-7.7e-05
482634,0.005281,-0.01839,-0.016681,0.0,-0.0,-0.0,3.0,0.3261,0.327601,0.3261,0.32459,,,,,,,0.004179,-0.019849,-0.011904,0.000832,-2e-05,-7.7e-05
482654,0.004916,-0.018515,-0.016684,0.0,-0.0,-0.0,3.0,0.3261,0.325125,0.3261,0.327071,,,,,,,0.003942,-0.019849,-0.011906,-0.02427,-8e-06,-7.7e-05
482674,0.004547,-0.018397,-0.016565,0.0,-0.0,-0.0,3.0,0.3261,0.324058,0.3261,0.328126,,,,,,,0.003708,-0.019849,-0.011908,-0.002725,-8e-06,-7.7e-05
482694,0.004182,-0.018522,-0.016569,0.0,-0.0,-0.0,3.0,0.3261,0.324996,0.3261,0.3272,,,,,,,0.003586,-0.019849,-0.011909,-0.026149,-8e-06,-7.7e-05
482714,0.004058,-0.018279,-0.01657,0.0,-0.0,-0.0,3.0,0.3261,0.329286,0.3261,0.322872,,,,,,,0.003574,-0.01985,-0.011911,-0.047519,4e-06,-7.7e-05
482734,0.003936,-0.01828,-0.016571,0.0,-0.0,-0.0,3.0,0.3261,0.331683,0.3261,0.320385,,,,,,,0.003564,-0.01985,-0.011913,-0.069018,4e-06,-7.7e-05
482754,0.004057,-0.018156,-0.01657,0.0,-0.0,-0.0,3.0,0.3261,0.330913,0.3261,0.321189,,,,,,,0.00332,-0.01985,-0.011914,0.025298,-8e-06,-8.9e-05
482774,0.004059,-0.018401,-0.01657,0.0,-0.0,-0.0,3.0,0.3261,0.328867,0.3261,0.323302,,,,,,,0.0032,-0.01985,-0.011916,0.071526,-8e-06,-7.6e-05
482794,0.004303,-0.018399,-0.016568,0.0,-0.0,-0.0,3.0,0.3261,0.326991,0.3261,0.325207,,,,,,,0.003084,-0.01985,-0.011917,0.046945,-8e-06,-7.7e-05
482814,0.004425,-0.018398,-0.016567,0.0,-0.0,-0.0,3.0,0.3261,0.325816,0.3261,0.326384,,,,,,,0.003085,-0.01985,-0.011919,0.022926,4e-06,-7.7e-05
482834,0.00418,-0.018277,-0.016569,0.0,-0.0,-0.0,3.0,0.3261,0.324727,0.3261,0.327465,,,,,,,0.003091,-0.019849,-0.01192,-0.001671,4e-06,-7.7e-05
482854,0.003814,-0.018281,-0.016572,0.0,-0.0,-0.0,3.0,0.3261,0.324873,0.3261,0.327322,,,,,,,0.003095,-0.019849,-0.011922,-0.049883,2.8e-05,-6.4e-05
482874,0.003569,-0.018161,-0.016575,0.0,-0.0,-0.0,3.0,0.3261,0.327511,0.3261,0.324681,,,,,,,0.003091,-0.019849,-0.011923,-0.02542,2.8e-05,-7.6e-05
482894,0.003447,-0.018162,-0.016576,0.0,-0.0,-0.0,3.0,0.3261,0.331493,0.3261,0.320584,,,,,,,0.003201,-0.019849,-0.011925,-0.046373,1.6e-05,-7.6e-05
482914,0.003569,-0.018161,-0.016575,0.0,-0.0,-0.0,3.0,0.3261,0.332564,0.3261,0.319458,,,,,,,0.00307,-0.019849,-0.011926,-0.04441,-9e-06,-7.6e-05
482934,0.003569,-0.018161,-0.016575,0.0,-0.0,-0.0,3.0,0.3261,0.330996,0.3261,0.321103,,,,,,,0.002827,-0.019849,-0.011928,0.025962,-9e-06,-7.6e-05
482954,0.003447,-0.018162,-0.016576,0.0,-0.0,-0.0,3.0,0.3261,0.325214,0.3261,0.326983,,,,,,,0.002351,-0.019849,-0.011929,0.070578,-9e-06,-7.6e-05
482974,0.00357,-0.018283,-0.016575,0.0,-0.0,-0.0,3.0,0.3261,0.324124,0.3261,0.32806,,,,,,,0.002236,-0.019849,-0.011931,0.069004,3e-06,-7.6e-05
482994,0.003327,-0.018407,-0.016577,0.0,-0.0,-0.0,3.0,0.3261,0.322112,0.3261,0.330024,,,,,,,0.002116,-0.019848,-0.011932,-0.002179,1.5e-05,-7.6e-05
483014,0.002961,-0.01841,-0.01658,0.0,-0.0,-0.0,3.0,0.3261,0.326315,0.3261,0.325886,,,,,,,0.00223,-0.019848,-0.011934,-0.0714,2.7e-05,-6.4e-05
483034,0.002471,-0.018414,-0.016463,0.0,-0.0,-0.0,3.0,0.3261,0.326538,0.3261,0.325661,,,,,,,0.002114,-0.019848,-0.011935,-0.048948,1.5e-05,-6.4e-05
483054,0.002469,-0.01817,-0.016463,0.0,-0.0,-0.0,3.0,0.3261,0.330175,0.3261,0.321955,,,,,,,0.002107,-0.019848,-0.011937,-0.000506,1.5e-05,-6.4e-05
483074,0.002347,-0.018171,-0.016464,0.0,-0.0,-0.0,3.0,0.3261,0.329766,0.3261,0.322378,,,,,,,0.001982,-0.019848,-0.011938,-0.023105,3e-06,-7.6e-05
483094,0.002591,-0.018047,-0.016584,0.0,-0.0,-0.0,3.0,0.3261,0.330537,0.3261,0.32158,,,,,,,0.001728,-0.019848,-0.01194,0.002309,2e-06,-7.6e-05
483114,0.002349,-0.018293,-0.016586,0.0,-0.0,-0.0,3.0,0.3261,0.327083,0.3261,0.325114,,,,,,,0.001492,-0.019848,-0.011941,0.024518,-2.2e-05,-7.6e-05
483134,0.00235,-0.018415,-0.016586,0.0,-0.0,-0.0,3.0,0.3261,0.324149,0.3261,0.328036,,,,,,,0.001134,-0.019848,-0.011943,0.069897,-2.2e-05,-7.6e-05
483154,0.002107,-0.018539,-0.016588,0.0,-0.0,-0.0,3.0,0.3261,0.322217,0.3261,0.329922,,,,,,,0.00102,-0.019848,-0.011944,0.021162,-1e-05,-7.6e-05
483174,0.001985,-0.01854,-0.016589,0.0,-0.0,-0.0,3.0,0.3261,0.324511,0.3261,0.327679,,,,,,,0.001015,-0.019848,-0.011945,-0.025104,2e-06,-6.4e-05
483194,0.001862,-0.018541,-0.016468,0.0,-0.0,-0.0,3.0,0.3261,0.327903,0.3261,0.324284,,,,,,,0.001128,-0.019848,-0.011947,-0.07027,2e-06,-6.4e-05
483214,0.001738,-0.018298,-0.016469,0.0,-0.0,-0.0,3.0,0.3261,0.329465,0.3261,0.322688,,,,,,,0.001124,-0.019848,-0.011948,-0.022786,1.4e-05,-6.3e-05
483234,0.001615,-0.018177,-0.016471,0.0,-0.0,-0.0,3.0,0.3261,0.328824,0.3261,0.323345,,,,,,,0.001128,-0.019848,-0.011949,-0.023833,2.6e-05,-6.3e-05
483254,0.001736,-0.018054,-0.01647,0.0,-0.0,-0.0,3.0,0.3261,0.328432,0.3261,0.323745,,,,,,,0.001007,-0.019848,-0.011951,0.023147,1.4e-05,-6.3e-05
483274,0.00198,-0.018052,-0.016467,0.0,-0.0,-0.0,3.0,0.3261,0.329562,0.3261,0.322588,,,,,,,0.001126,-0.019848,-0.011952,-0.022948,2e-06,-6.3e-05
483294,0.001859,-0.018175,-0.016468,0.0,-0.0,-0.0,3.0,0.3261,0.329519,0.3261,0.322632,,,,,,,0.00112,-0.019848,-0.011953,-0.021712,-1e-05,-6.3e-05
483314,0.001859,-0.018175,-0.016468,0.0,-0.0,-0.0,3.0,0.3261,0.327628,0.3261,0.324563,,,,,,,0.001005,-0.019848,-0.011955,0.023683,2e-06,-6.3e-05
483334,0.001617,-0.018421,-0.016471,0.0,-0.0,-0.0,3.0,0.3261,0.324137,0.3261,0.328048,,,,,,,0.000769,-0.019847,-0.011956,0.045764,-1e-05,-6.3e-05
483354,0.001739,-0.01842,-0.016469,0.0,-0.0,-0.0,3.0,0.3261,0.326833,0.3261,0.325365,,,,,,,0.000759,-0.019847,-0.011957,0.000395,1.4e-05,-6.3e-05
483374,0.001617,-0.018421,-0.016471,0.0,-0.0,-0.0,3.0,0.3261,0.326009,0.3261,0.326191,,,,,,,0.000636,-0.019847,-0.011958,-0.023366,2.6e-05,-5.1e-05
483394,0.001369,-0.018179,-0.016351,0.0,-0.0,-0.0,3.0,0.3261,0.326129,0.3261,0.326071,,,,,,,0.000514,-0.019847,-0.011959,-0.023565,3.8e-05,-5.1e-05
483414,0.001125,-0.018181,-0.016353,0.0,-0.0,-0.0,3.0,0.3261,0.324225,0.3261,0.327961,,,,,,,0.000282,-0.019846,-0.01196,0.021065,3.8e-05,-5.1e-05
483434,0.001003,-0.018182,-0.016354,0.0,-0.0,-0.0,3.0,0.3261,0.325382,0.3261,0.326816,,,,,,,0.000284,-0.019846,-0.011961,-0.002149,1.3e-05,-6.3e-05
483454,0.00088,-0.018061,-0.016355,0.0,-0.0,-0.0,3.0,0.3261,0.327546,0.3261,0.324645,,,,,,,0.000277,-0.019846,-0.011963,-0.047497,1e-06,-6.3e-05
483474,0.00076,-0.018184,-0.016478,0.0,-0.0,-0.0,3.0,0.3261,0.33083,0.3261,0.321275,,,,,,,0.000262,-0.019846,-0.011964,-0.044251,-2.4e-05,-6.3e-05
483494,0.000395,-0.018309,-0.016482,0.0,-0.0,-0.0,3.0,0.3261,0.32658,0.3261,0.325619,,,,,,,-9.2e-05,-0.019846,-0.011965,0.0241,-3.6e-05,-6.3e-05
483514,0.000398,-0.018553,-0.016604,0.0,-0.0,-0.0,3.0,0.3261,0.324767,0.3261,0.327426,,,,,,,-0.000456,-0.019846,-0.011966,0.070555,-3.6e-05,-6.3e-05
483534,0.000519,-0.018552,-0.016481,0.0,-0.0,-0.0,3.0,0.3261,0.324449,0.3261,0.327741,,,,,,,-0.000578,-0.019846,-0.011967,0.022956,0.0,-6.3e-05
483554,0.000276,-0.018676,-0.016483,0.0,-0.0,-0.0,3.0,0.3261,0.324562,0.3261,0.327629,,,,,,,-0.000705,-0.019846,-0.011969,-0.023411,1.2e-05,-5.1e-05
483574,-9.2e-05,-0.018435,-0.016486,0.0,-0.0,-0.0,3.0,0.3261,0.323699,0.3261,0.328477,,,,,,,-0.000943,-0.019847,-0.01197,-0.024475,1.2e-05,-6.3e-05
483594,-0.00046,-0.018194,-0.01649,0.0,-0.0,-0.0,3.0,0.3261,0.32343,0.3261,0.328741,,,,,,,-0.001053,-0.019847,-0.011971,-0.026952,2.4e-05,-6.3e-05
483614,-0.000584,-0.018073,-0.016491,0.0,-0.0,-0.0,3.0,0.3261,0.323307,0.3261,0.328861,,,,,,,-0.001295,-0.019847,-0.011973,-0.026887,1.2e-05,-7.5e-05
483634,-0.000707,-0.017952,-0.016492,0.0,-0.0,-0.0,3.0,0.3261,0.328578,0.3261,0.323596,,,,,,,-0.001192,-0.019847,-0.011974,-0.04659,-0.0,-7.5e-05
483654,-0.000704,-0.018074,-0.016614,0.087266,-0.0,-0.0,3.0,0.3261,0.279591,0.3261,0.364962,,,,,,,-0.001325,-0.019847,-0.011975,-0.044041,-2.5e-05,-7.5e-05
483674,-0.000824,-0.018197,-0.016737,0.087266,-0.0,-0.0,3.0,0.3261,0.27559,0.3261,0.367698,,,,,,,-0.001562,-0.019847,-0.011977,0.001512,-2.5e-05,-7.5e-05
483694,-0.0007,-0.018562,-0.016614,0.087266,-0.0,-0.0,3.0,0.3261,0.270659,0.3261,0.370955,,,,,,,-0.001922,-0.019846,-0.011978,0.117655,-2.5e-05,-6.3e-05
483714,0.000643,-0.018673,-0.016602,0.087266,-0.0,-0.0,3.0,0.3261,0.276585,0.3261,0.367025,,,,,,,-0.001316,-0.019846,-0.01198,0.118031,0.0,-6.2e-05
483734,0.002473,-0.018658,-0.016462,0.087266,-0.0,-0.0,3.0,0.3261,0.284703,0.3261,0.361344,,,,,,,0.000261,-0.019846,-0.011981,0.096335,1.4e-05,-6e-05
483754,0.005647,-0.018509,-0.016555,0.087266,-0.0,-0.0,3.0,0.3261,0.300601,0.3261,0.34914,,,,,,,0.003174,-0.019846,-0.011982,0.0993,2.8e-05,-5.8e-05
483774,0.00992,-0.018473,-0.016637,0.087266,-0.0,-0.0,3.0,0.3261,0.313757,0.3261,0.33784,,,,,,,0.007191,-0.019846,-0.011984,0.172595,2e-05,-7.8e-05
483794,0.015783,-0.01842,-0.016947,0.087266,-0.0,-0.0,3.0,0.3261,0.326951,0.3261,0.325246,,,,,,,0.012428,-0.019847,-0.011985,0.269569,0.0,-9.7e-05
483814,0.022747,-0.018601,-0.017247,0.087266,-0.0,-0.0,3.0,0.3261,0.340635,0.3261,0.310627,,,,,,,0.018875,-0.019847,-0.011987,0.298674,-1.8e-05,-0.000127
483834,0.030809,-0.018768,-0.017533,0.087266,-0.0,-0.0,3.0,0.3261,0.34929,0.3261,0.300417,,,,,,,0.026071,-0.019847,-0.01199,0.4186,-4.7e-05,-0.000155
483854,0.039361,-0.018925,-0.017933,0.087266,-0.0,-0.0,3.0,0.3261,0.354231,0.3261,0.294205,,,,,,,0.034012,-0.019848,-0.011993,0.465596,-5.1e-05,-0.000196
483874,0.048038,-0.019076,-0.018332,0.087266,-0.0,-0.0,3.0,0.3261,0.35752,0.3261,0.289897,,,,,,,0.042451,-0.019849,-0.011998,0.486838,-4.2e-05,-0.000235
483894,0.05647,-0.019229,-0.018607,0.087266,-0.0,-0.0,3.0,0.3261,0.359004,0.3261,0.287906,,,,,,,0.05102,-0.01985,-0.012003,0.460037,-4.5e-05,-0.000263
483914,0.06441,-0.019142,-0.018771,0.087266,-0.0,-0.0,3.0,0.3261,0.362202,0.3261,0.283509,,,,,,,0.059453,-0.019852,-0.012008,0.389142,-4.8e-05,-0.000291
483934,0.071376,-0.01906,-0.019066,0.087266,-0.0,-0.0,3.0,0.3261,0.36226,0.3261,0.283428,,,,,,,0.067158,-0.019853,-0.012014,0.317766,-6.3e-05,-0.000319
483954,0.077236,-0.018867,-0.019252,0.087266,-0.0,-0.0,3.0,0.3261,0.358722,0.3261,0.288287,,,,,,,0.073646,-0.019855,-0.01202,0.292205,-8.1e-05,-0.000323
483974,0.081884,-0.019185,-0.019191,0.087266,-0.0,-0.0,3.0,0.3261,0.352859,0.3261,0.29596,,,,,,,0.078912,-0.019857,-0.012027,0.267302,-0.000111,-0.000328
483994,0.085672,-0.019262,-0.019267,0.087266,-0.0,-0.0,3.0,0.3261,0.350741,0.3261,0.298624,,,,,,,0.083313,-0.019859,-0.012034,0.172683,-0.000119,-0.000322
484014,0.088238,-0.019235,-0.019241,0.087266,-0.0,-0.0,3.0,0.3261,0.344055,0.3261,0.30669,,,,,,,0.086248,-0.019861,-0.01204,0.101646,-0.000116,-0.000319
484034,0.089585,-0.019222,-0.019228,0.087266,-0.0,-0.0,3.0,0.3261,0.336518,0.3261,0.315209,,,,,,,0.088092,-0.019863,-0.012047,0.07535,-0.000102,-0.000329
484054,0.08983,-0.019341,-0.01922,0.087266,-0.0,-0.0,3.0,0.3261,0.327496,0.3261,0.324697,,,,,,,0.088848,-0.019864,-0.012053,0.04804,-8.9e-05,-0.000328
484074,0.089832,-0.019458,-0.019337,0.087266,-0.0,-0.0,3.0,0.3261,0.322898,0.3261,0.32926,,,,,,,0.088981,-0.019866,-0.01206,0.023018,-0.0001,-0.000352
484094,0.089468,-0.019329,-0.01959,0.087266,-0.0,-0.0,3.0,0.3261,0.320308,0.3261,0.331756,,,,,,,0.088739,-0.019868,-0.012067,-0.024166,-8.7e-05,-0.000364
484114,0.088976,-0.019328,-0.019714,0.087266,-0.0,-0.0,3.0,0.3261,0.318953,0.3261,0.333041,,,,,,,0.088248,-0.01987,-0.012074,-0.024428,-8.7e-05,-0.000376
484134,0.088489,-0.0192,-0.01997,0.087266,-0.0,-0.0,3.0,0.3261,0.31791,0.3261,0.33402,,,,,,,0.087768,-0.019872,-0.012082,-0.025514,-9.9e-05,-0.000387
484154,0.08837,-0.01944,-0.020082,0.087266,-0.0,-0.0,3.0,0.3261,0.318925,0.3261,0.333067,,,,,,,0.087532,-0.019874,-0.01209,0.02081,-0.000122,-0.00041
484174,0.08886,-0.019424,-0.02032,0.087266,-0.0,-0.0,3.0,0.3261,0.32425,0.3261,0.327936,,,,,,,0.087889,-0.019877,-0.012098,-0.00079,-0.000121,-0.000421
484194,0.089845,-0.019652,-0.020423,0.087266,-0.0,-0.0,3.0,0.3261,0.331328,0.3261,0.320756,,,,,,,0.088731,-0.019879,-0.012107,-0.020196,-0.000144,-0.000431
484214,0.091067,-0.019754,-0.020525,0.087266,-0.0,-0.0,3.0,0.3261,0.337012,0.3261,0.314669,,,,,,,0.089938,-0.019882,-0.012115,0.029608,-0.000141,-0.000452
484234,0.093026,-0.019849,-0.020621,0.087266,-0.0,-0.0,3.0,0.3261,0.338101,0.3261,0.313468,,,,,,,0.091291,-0.019884,-0.012125,0.145868,-0.000138,-0.000462
484254,0.095472,-0.019937,-0.02071,0.087266,-0.0,-0.0,3.0,0.3261,0.338649,0.3261,0.312859,,,,,,,0.093128,-0.019887,-0.012134,0.215928,-0.000134,-0.000471
484274,0.098159,-0.019657,-0.020814,0.087266,-0.0,-0.0,3.0,0.3261,0.339415,0.3261,0.312002,,,,,,,0.095331,-0.01989,-0.012143,0.168517,-0.000119,-0.00048
484294,0.100483,-0.019624,-0.020911,0.087266,-0.0,-0.0,3.0,0.3261,0.341917,0.3261,0.309165,,,,,,,0.097899,-0.019893,-0.012153,0.145292,-0.000128,-0.000488
484314,0.102683,-0.019471,-0.021016,0.087266,-0.0,-0.0,3.0,0.3261,0.341925,0.3261,0.309157,,,,,,,0.100354,-0.019895,-0.012163,0.096454,-0.000124,-0.000497
484334,0.104765,-0.019684,-0.021103,0.087266,-0.0,-0.0,3.0,0.3261,0.343759,0.3261,0.307036,,,,,,,0.10293,-0.019898,-0.012173,0.071819,-0.000145,-0.000504
484354,0.106721,-0.01954,-0.021088,0.087266,-0.0,-0.0,3.0,0.3261,0.349603,0.3261,0.300034,,,,,,,0.105485,-0.019901,-0.012183,0.003441,-0.00013,-0.000502
484374,0.108308,-0.019764,-0.021055,0.087266,-0.0,-0.0,3.0,0.3261,0.352111,0.3261,0.296907,,,,,,,0.107416,-0.019903,-0.012193,-0.01607,-0.00014,-0.000498
484394,0.1099,-0.019739,-0.02116,0.087266,-0.0,-0.0,3.0,0.3261,0.34908,0.3261,0.300675,,,,,,,0.108648,-0.019906,-0.012203,0.076982,-0.000149,-0.000506
484414,0.110882,-0.019729,-0.021152,0.087266,-0.0,-0.0,3.0,0.3261,0.341259,0.3261,0.309918,,,,,,,0.109398,-0.019909,-0.012213,0.144923,-0.000147,-0.000504
484434,0.111492,-0.019843,-0.021137,0.087266,-0.0,-0.0,3.0,0.3261,0.335612,0.3261,0.316196,,,,,,,0.109899,-0.019912,-0.012223,0.118726,-0.000134,-0.000504
484454,0.111614,-0.019841,-0.021135,0.087266,-0.0,-0.0,3.0,0.3261,0.331896,0.3261,0.320161,,,,,,,0.110157,-0.019914,-0.012233,0.045483,-0.000134,-0.000503
484474,0.111371,-0.019844,-0.021139,0.087266,-0.0,-0.0,3.0,0.3261,0.331034,0.3261,0.321063,,,,,,,0.110285,-0.019917,-0.012243,-0.049861,-0.000123,-0.000491
484494,0.110629,-0.019487,-0.021164,0.087266,-0.0,-0.0,3.0,0.3261,0.332989,0.3261,0.319008,,,,,,,0.11028,-0.01992,-0.012253,-0.097157,-0.00011,-0.000502
484514,0.110019,-0.019494,-0.021172,0.087266,-0.0,-0.0,3.0,0.3261,0.333572,0.3261,0.318389,,,,,,,0.109909,-0.019922,-0.012263,-0.049149,-0.00011,-0.000502
484534,0.109774,-0.019375,-0.021182,0.087266,-0.0,-0.0,3.0,0.3261,0.335567,0.3261,0.316244,,,,,,,0.109536,-0.019925,-0.012273,-0.023825,-0.000134,-0.0005
484554,0.109655,-0.019621,-0.02117,0.087266,-0.0,-0.0,3.0,0.3261,0.338077,0.3261,0.313494,,,,,,,0.109278,-0.019927,-0.012283,-0.020493,-0.000146,-0.00051
484574,0.109902,-0.019855,-0.021276,0.087266,-0.0,-0.0,3.0,0.3261,0.337087,0.3261,0.314586,,,,,,,0.108912,-0.01993,-0.012293,0.050268,-0.00017,-0.000508
484594,0.110149,-0.020095,-0.021259,0.087266,-0.0,-0.0,3.0,0.3261,0.334566,0.3261,0.317325,,,,,,,0.108798,-0.019933,-0.012303,0.071664,-0.000158,-0.000496
484614,0.110394,-0.020214,-0.021249,0.087266,-0.0,-0.0,3.0,0.3261,0.333277,0.3261,0.318702,,,,,,,0.10893,-0.019936,-0.012313,0.069843,-0.000145,-0.000507
484634,0.110765,-0.020089,-0.021255,0.087266,-0.0,-0.0,3.0,0.3261,0.333913,0.3261,0.318025,,,,,,,0.109303,-0.019939,-0.012324,0.021387,-0.000132,-0.000519
484654,0.111007,-0.019835,-0.021387,0.087266,-0.0,-0.0,3.0,0.3261,0.337786,0.3261,0.313816,,,,,,,0.109911,-0.019942,-0.012334,-0.04846,-0.00013,-0.00053
484674,0.111251,-0.019704,-0.021513,0.087266,-0.0,-0.0,3.0,0.3261,0.341059,0.3261,0.310145,,,,,,,0.110518,-0.019945,-0.012344,-0.046404,-0.000142,-0.000528
484694,0.111618,-0.019692,-0.02163,0.087266,-0.0,-0.0,3.0,0.3261,0.341445,0.3261,0.309706,,,,,,,0.111009,-0.019948,-0.012355,0.023567,-0.000139,-0.000538
484714,0.112231,-0.019922,-0.02173,0.087266,-0.0,-0.0,3.0,0.3261,0.34141,0.3261,0.309745,,,,,,,0.111372,-0.019951,-0.012366,0.024467,-0.000163,-0.000535
484734,0.112719,-0.020037,-0.021717,0.087266,-0.0,-0.0,3.0,0.3261,0.343783,0.3261,0.307008,,,,,,,0.111845,-0.019953,-0.012376,0.004101,-0.000162,-0.000545
484754,0.112848,-0.020037,-0.021719,0.087266,-0.0,-0.0,3.0,0.3261,0.338082,0.3261,0.313488,,,,,,,0.11174,-0.019957,-0.012387,0.072775,-0.000173,-0.000544
484774,0.112972,-0.02015,-0.021833,0.087266,-0.0,-0.0,3.0,0.3261,0.335608,0.3261,0.3162,,,,,,,0.111749,-0.01996,-0.012399,0.047551,-0.00016,-0.000556
484794,0.112852,-0.020274,-0.021827,0.087266,-0.0,-0.0,3.0,0.3261,0.335368,0.3261,0.31646,,,,,,,0.111878,-0.019963,-0.01241,-0.001855,-0.000159,-0.000566
484814,0.112852,-0.020145,-0.021956,0.087266,-0.0,-0.0,3.0,0.3261,0.335891,0.3261,0.315893,,,,,,,0.111878,-0.019966,-0.012421,-0.002065,-0.000147,-0.000566
484834,0.112602,-0.02014,-0.022077,0.087266,-0.0,-0.0,3.0,0.3261,0.336717,0.3261,0.314992,,,,,,,0.11188,-0.019969,-0.012432,-0.049124,-0.000159,-0.000564
484854,0.112479,-0.020148,-0.021957,0.087266,-0.0,-0.0,3.0,0.3261,0.339652,0.3261,0.311736,,,,,,,0.111872,-0.019973,-0.012443,-0.047514,-0.000159,-0.000563
484874,0.112235,-0.020152,-0.02196,0.087266,-0.0,-0.0,3.0,0.3261,0.33717,0.3261,0.314495,,,,,,,0.111632,-0.019976,-0.012455,-0.001138,-0.00017,-0.000562
484894,0.112235,-0.020152,-0.02196,0.087266,-0.0,-0.0,3.0,0.3261,0.338238,0.3261,0.313316,,,,,,,0.111508,-0.01998,-0.012466,-0.000455,-0.000182,-0.00056
484914,0.112357,-0.02015,-0.021959,0.087266,-0.0,-0.0,3.0,0.3261,0.338786,0.3261,0.312706,,,,,,,0.111507,-0.019984,-0.012477,-0.023644,-0.000194,-0.000558
484934,0.11248,-0.02027,-0.02195,0.087266,-0.0,-0.0,3.0,0.3261,0.341988,0.3261,0.309084,,,,,,,0.111741,-0.019987,-0.012488,0.002288,-0.000205,-0.000568
484954,0.112482,-0.020263,-0.022072,0.087266,-0.0,-0.0,3.0,0.3261,0.340108,0.3261,0.311223,,,,,,,0.111744,-0.019991,-0.0125,0.001401,-0.000193,-0.000568
484974,0.112605,-0.020384,-0.022063,0.087266,-0.0,-0.0,3.0,0.3261,0.340214,0.3261,0.311104,,,,,,,0.111744,-0.019995,-0.012511,0.049614,-0.000192,-0.000567
484994,0.112977,-0.02038,-0.022063,0.087266,-0.0,-0.0,3.0,0.3261,0.337229,0.3261,0.31443,,,,,,,0.111632,-0.019998,-0.012522,0.09419,-0.000167,-0.000567
485014,0.113221,-0.020248,-0.022188,0.087266,-0.0,-0.0,3.0,0.3261,0.337307,0.3261,0.314344,,,,,,,0.111751,-0.020002,-0.012534,0.02468,-0.000179,-0.000565
485034,0.113099,-0.02025,-0.02219,0.087266,-0.0,-0.0,3.0,0.3261,0.338538,0.3261,0.312982,,,,,,,0.112001,-0.020006,-0.012545,-0.023528,-0.000179,-0.000564
485054,0.112855,-0.020253,-0.022193,0.087266,-0.0,-0.0,3.0,0.3261,0.336617,0.3261,0.315102,,,,,,,0.112016,-0.020009,-0.012556,-0.002925,-0.000178,-0.000563
485074,0.112978,-0.020373,-0.022184,0.087266,-0.0,-0.0,3.0,0.3261,0.339622,0.3261,0.311771,,,,,,,0.112256,-0.020013,-0.012568,-0.048818,-0.00019,-0.000561
485094,0.112855,-0.020253,-0.022193,0.087266,-0.0,-0.0,3.0,0.3261,0.343611,0.3261,0.307208,,,,,,,0.112482,-0.020017,-0.012579,-0.092437,-0.000177,-0.000573
485114,0.112855,-0.020124,-0.022322,0.087266,-0.0,-0.0,3.0,0.3261,0.344818,0.3261,0.305795,,,,,,,0.112478,-0.02002,-0.012591,-0.044147,-0.000188,-0.000583
485134,0.112856,-0.020246,-0.022315,0.087266,-0.0,-0.0,3.0,0.3261,0.34215,0.3261,0.308898,,,,,,,0.112112,-0.020024,-0.012602,0.026157,-0.000187,-0.000582
485154,0.112737,-0.020491,-0.022303,0.087266,-0.0,-0.0,3.0,0.3261,0.337885,0.3261,0.313706,,,,,,,0.111751,-0.020027,-0.012614,0.072581,-0.000199,-0.000592
485174,0.11286,-0.020483,-0.022423,0.087266,-0.0,-0.0,3.0,0.3261,0.33645,0.3261,0.315284,,,,,,,0.111514,-0.020031,-0.012626,0.071176,-0.000186,-0.000592
485194,0.112618,-0.020608,-0.022419,0.087266,-0.0,-0.0,3.0,0.3261,0.335789,0.3261,0.316004,,,,,,,0.111392,-0.020035,-0.012638,-0.000514,-0.000187,-0.000591
485214,0.112244,-0.02049,-0.022427,0.087266,-0.0,-0.0,3.0,0.3261,0.336084,0.3261,0.315683,,,,,,,0.111276,-0.020039,-0.012649,-0.025328,-0.000174,-0.000591
485234,0.111755,-0.020374,-0.02244,0.087266,-0.0,-0.0,3.0,0.3261,0.335704,0.3261,0.316096,,,,,,,0.111165,-0.020042,-0.012661,-0.051018,-0.000174,-0.00059
485254,0.111389,-0.02025,-0.022574,0.087266,-0.0,-0.0,3.0,0.3261,0.338717,0.3261,0.312783,,,,,,,0.111036,-0.020046,-0.012673,-0.049121,-0.000186,-0.0006
485274,0.110903,-0.02025,-0.022702,0.087266,-0.0,-0.0,3.0,0.3261,0.340358,0.3261,0.310941,,,,,,,0.110785,-0.02005,-0.012685,-0.046844,-0.000209,-0.00061
485294,0.110785,-0.020488,-0.022812,0.087266,-0.0,-0.0,3.0,0.3261,0.341883,0.3261,0.309205,,,,,,,0.11041,-0.020054,-0.012697,-0.021335,-0.000221,-0.000609
485314,0.110666,-0.020605,-0.022929,0.087266,-0.0,-0.0,3.0,0.3261,0.342397,0.3261,0.308614,,,,,,,0.110035,-0.020058,-0.01271,0.027495,-0.00022,-0.00062
485334,0.110668,-0.020849,-0.022916,0.087266,-0.0,-0.0,3.0,0.3261,0.336664,0.3261,0.31505,,,,,,,0.109445,-0.020062,-0.012722,0.094275,-0.00022,-0.000631
485354,0.110671,-0.020964,-0.023031,0.087266,-0.0,-0.0,3.0,0.3261,0.332786,0.3261,0.319223,,,,,,,0.109089,-0.020066,-0.012735,0.092754,-0.000219,-0.000643
485374,0.110428,-0.02096,-0.023156,0.087266,-0.0,-0.0,3.0,0.3261,0.334556,0.3261,0.317336,,,,,,,0.109214,-0.020071,-0.012748,-0.026263,-0.000218,-0.000654
485394,0.110058,-0.020951,-0.023401,0.087266,-0.0,-0.0,3.0,0.3261,0.336158,0.3261,0.315603,,,,,,,0.109217,-0.020076,-0.012761,-0.073141,-0.000217,-0.000677
485414,0.109571,-0.020829,-0.023536,0.087266,-0.0,-0.0,3.0,0.3261,0.338831,0.3261,0.312656,,,,,,,0.109221,-0.02008,-0.012775,-0.096872,-0.000228,-0.000687
485434,0.109447,-0.02058,-0.023673,0.087266,-0.0,-0.0,3.0,0.3261,0.344113,0.3261,0.306623,,,,,,,0.10933,-0.020085,-0.012788,-0.047214,-0.000226,-0.000698
485454,0.109696,-0.020807,-0.0239,0.087266,-0.0,-0.0,3.0,0.3261,0.344158,0.3261,0.30657,,,,,,,0.109207,-0.02009,-0.012802,0.001686,-0.000237,-0.000708
485474,0.109821,-0.02092,-0.024013,0.087266,-0.0,-0.0,3.0,0.3261,0.342317,0.3261,0.308707,,,,,,,0.108954,-0.020094,-0.012817,0.026118,-0.000249,-0.000718
485494,0.109703,-0.021159,-0.024124,0.087266,-0.0,-0.0,3.0,0.3261,0.339382,0.3261,0.31204,,,,,,,0.108721,-0.020099,-0.012831,0.048276,-0.000272,-0.000727
485514,0.109585,-0.021398,-0.024234,0.087266,-0.0,-0.0,3.0,0.3261,0.335548,0.3261,0.316266,,,,,,,0.10837,-0.020104,-0.012846,0.092478,-0.000271,-0.000738
485534,0.109344,-0.021516,-0.024353,0.087266,-0.0,-0.0,3.0,0.3261,0.335627,0.3261,0.31618,,,,,,,0.108378,-0.02011,-0.012861,-0.025844,-0.000283,-0.000749
485554,0.108977,-0.021271,-0.024493,0.087266,-0.0,-0.0,3.0,0.3261,0.33893,0.3261,0.312546,,,,,,,0.108369,-0.020115,-0.012876,-0.071305,-0.000245,-0.000774
485574,0.108731,-0.021024,-0.024631,0.087266,-0.0,-0.0,3.0,0.3261,0.339204,0.3261,0.312239,,,,,,,0.108126,-0.02012,-0.012892,-0.048108,-0.000231,-0.000786
485594,0.108487,-0.020899,-0.024763,0.087266,-0.0,-0.0,3.0,0.3261,0.339744,0.3261,0.311633,,,,,,,0.107881,-0.020125,-0.012907,-0.047213,-0.000243,-0.000796
485614,0.108246,-0.021018,-0.024882,0.087266,-0.0,-0.0,3.0,0.3261,0.339894,0.3261,0.311465,,,,,,,0.107638,-0.02013,-0.012923,1.1e-05,-0.000267,-0.000793
485634,0.108126,-0.021141,-0.024877,0.087266,-0.0,-0.0,3.0,0.3261,0.340335,0.3261,0.310967,,,,,,,0.107516,-0.020135,-0.012939,0.000272,-0.000266,-0.000804
485654,0.108129,-0.021385,-0.024864,0.087266,-0.0,-0.0,3.0,0.3261,0.339509,0.3261,0.311898,,,,,,,0.107274,-0.020141,-0.012955,0.000301,-0.000278,-0.000802
485674,0.108008,-0.021509,-0.024859,0.087266,-0.0,-0.0,3.0,0.3261,0.339483,0.3261,0.311927,,,,,,,0.107153,-0.020146,-0.012971,0.000545,-0.000289,-0.000812
485694,0.107763,-0.02139,-0.024869,0.087266,-0.0,-0.0,3.0,0.3261,0.3402,0.3261,0.311119,,,,,,,0.107027,-0.020152,-0.012988,0.001123,-0.000276,-0.000811
485714,0.107762,-0.021268,-0.024876,0.087266,-0.0,-0.0,3.0,0.3261,0.339209,0.3261,0.312233,,,,,,,0.106786,-0.020157,-0.013004,0.047146,-0.000264,-0.00081
485734,0.107638,-0.021148,-0.024884,0.087266,-0.0,-0.0,3.0,0.3261,0.33797,0.3261,0.313613,,,,,,,0.106668,-0.020162,-0.01302,0.022752,-0.000251,-0.00081
485754,0.107762,-0.021268,-0.024876,0.087266,-0.0,-0.0,3.0,0.3261,0.338961,0.3261,0.31251,,,,,,,0.106666,-0.020167,-0.013036,-0.000633,-0.000252,-0.000796
485774,0.107759,-0.021153,-0.02476,0.087266,-0.0,-0.0,3.0,0.3261,0.34115,0.3261,0.310042,,,,,,,0.106778,-0.020172,-0.013052,-0.022627,-0.00024,-0.000783
485794,0.107507,-0.021162,-0.024637,0.087266,-0.0,-0.0,3.0,0.3261,0.336558,0.3261,0.315166,,,,,,,0.106546,-0.020177,-0.013067,0.021702,-0.00024,-0.000769
485814,0.107383,-0.021048,-0.024524,0.087266,-0.0,-0.0,3.0,0.3261,0.337577,0.3261,0.314047,,,,,,,0.106546,-0.020182,-0.013083,-0.003497,-0.000228,-0.000756
485834,0.10726,-0.021057,-0.024404,0.087266,-0.0,-0.0,3.0,0.3261,0.342965,0.3261,0.307958,,,,,,,0.10678,-0.020187,-0.013098,-0.09484,-0.000265,-0.000741
485854,0.107138,-0.021187,-0.024277,0.087266,-0.0,-0.0,3.0,0.3261,0.344343,0.3261,0.306353,,,,,,,0.106639,-0.020192,-0.013113,-0.044203,-0.000264,-0.000739
485874,0.106893,-0.021197,-0.024158,0.087266,-0.0,-0.0,3.0,0.3261,0.341884,0.3261,0.309203,,,,,,,0.106403,-0.020197,-0.013127,0.001194,-0.000276,-0.000725
485894,0.106892,-0.021203,-0.024036,0.087266,-0.0,-0.0,3.0,0.3261,0.341331,0.3261,0.309836,,,,,,,0.106154,-0.020202,-0.013141,0.048102,-0.000253,-0.0007
485914,0.106889,-0.021088,-0.023921,0.087266,-0.0,-0.0,3.0,0.3261,0.338388,0.3261,0.313149,,,,,,,0.105791,-0.020207,-0.013155,0.046831,-0.000229,-0.000688
485934,0.106885,-0.020979,-0.023684,0.087266,-0.0,-0.0,3.0,0.3261,0.338525,0.3261,0.312997,,,,,,,0.105665,-0.020212,-0.013169,-8.9e-05,-0.000205,-0.000677
485954,0.106519,-0.020991,-0.023567,0.087266,-0.0,-0.0,3.0,0.3261,0.33617,0.3261,0.31559,,,,,,,0.105431,-0.020216,-0.013182,-0.025622,-0.000219,-0.000651
485974,0.10603,-0.021004,-0.023452,0.087266,-0.0,-0.0,3.0,0.3261,0.336815,0.3261,0.314885,,,,,,,0.105313,-0.020221,-0.013195,-0.026661,-0.000219,-0.000638
485994,0.105783,-0.020892,-0.02334,0.087266,-0.0,-0.0,3.0,0.3261,0.33964,0.3261,0.31175,,,,,,,0.105309,-0.020226,-0.013208,-0.072842,-0.00022,-0.000624
486014,0.10566,-0.020771,-0.023348,0.087266,-0.0,-0.0,3.0,0.3261,0.344186,0.3261,0.306537,,,,,,,0.105415,-0.02023,-0.01322,-0.069889,-0.000219,-0.000623
486034,0.105903,-0.020646,-0.023351,0.087266,-0.0,-0.0,3.0,0.3261,0.346089,0.3261,0.30429,,,,,,,0.105405,-0.020235,-0.013233,-0.020944,-0.000218,-0.000621
486054,0.105901,-0.020653,-0.023229,0.087266,-0.0,-0.0,3.0,0.3261,0.344977,0.3261,0.305608,,,,,,,0.105276,-0.020239,-0.013245,0.003612,-0.000219,-0.000608
486074,0.10578,-0.020654,-0.023231,0.087266,-0.0,-0.0,3.0,0.3261,0.338869,0.3261,0.312614,,,,,,,0.104797,-0.020243,-0.013257,0.072056,-0.000206,-0.000608
486094,0.105904,-0.020896,-0.023216,0.087266,-0.0,-0.0,3.0,0.3261,0.336822,0.3261,0.314877,,,,,,,0.104561,-0.020247,-0.013269,0.093717,-0.000207,-0.000594
486114,0.105782,-0.021026,-0.023089,0.087266,-0.0,-0.0,3.0,0.3261,0.335958,0.3261,0.31582,,,,,,,0.104566,-0.020251,-0.013281,-0.002532,-0.000195,-0.000594
486134,0.105409,-0.020908,-0.023097,0.087266,-0.0,-0.0,3.0,0.3261,0.338589,0.3261,0.312926,,,,,,,0.104559,-0.020255,-0.013293,-0.07158,-0.000195,-0.000593
486154,0.105039,-0.020676,-0.022992,0.087266,-0.0,-0.0,3.0,0.3261,0.340075,0.3261,0.311261,,,,,,,0.104565,-0.020259,-0.013305,-0.049231,-0.000194,-0.000592
486174,0.104916,-0.020555,-0.023,0.087266,-0.0,-0.0,3.0,0.3261,0.342789,0.3261,0.308161,,,,,,,0.104558,-0.020264,-0.013317,-0.047577,-0.000206,-0.00059
486194,0.104795,-0.020551,-0.023124,0.087266,-0.0,-0.0,3.0,0.3261,0.343332,0.3261,0.307532,,,,,,,0.104429,-0.020268,-0.013328,-0.022491,-0.000218,-0.000588
486214,0.105041,-0.020669,-0.023114,0.087266,-0.0,-0.0,3.0,0.3261,0.344576,0.3261,0.30608,,,,,,,0.104296,-0.020272,-0.01334,-0.020492,-0.000217,-0.000587
486234,0.104921,-0.020915,-0.023103,0.087266,-0.0,-0.0,3.0,0.3261,0.34266,0.3261,0.30831,,,,,,,0.10405,-0.020275,-0.013352,0.02684,-0.000217,-0.000586
486254,0.1048,-0.021045,-0.022977,0.087266,-0.0,-0.0,3.0,0.3261,0.337172,0.3261,0.314493,,,,,,,0.103583,-0.02028,-0.013364,0.093102,-0.000217,-0.000573
486274,0.104801,-0.021166,-0.02297,0.087266,-0.0,-0.0,3.0,0.3261,0.336592,0.3261,0.315128,,,,,,,0.103465,-0.020284,-0.013375,0.045319,-0.000217,-0.000572
486294,0.104556,-0.021048,-0.02298,0.087266,-0.0,-0.0,3.0,0.3261,0.337307,0.3261,0.314345,,,,,,,0.103467,-0.020288,-0.013387,-0.025573,-0.000205,-0.000572
486314,0.104312,-0.021051,-0.022983,0.087266,-0.0,-0.0,3.0,0.3261,0.342015,0.3261,0.309053,,,,,,,0.103701,-0.020293,-0.013398,-0.070357,-0.000217,-0.000571
486334,0.104187,-0.020809,-0.022998,0.087266,-0.0,-0.0,3.0,0.3261,0.341904,0.3261,0.30918,,,,,,,0.103579,-0.020297,-0.013409,-0.0706,-0.000205,-0.00057
486354,0.103942,-0.02069,-0.023007,0.087266,-0.0,-0.0,3.0,0.3261,0.342043,0.3261,0.309022,,,,,,,0.103456,-0.020301,-0.013421,-0.023434,-0.000204,-0.000569
486374,0.103941,-0.020568,-0.023013,0.087266,-0.0,-0.0,3.0,0.3261,0.3413,0.3261,0.309872,,,,,,,0.103212,-0.020305,-0.013432,0.022962,-0.000192,-0.000556
486394,0.103941,-0.020697,-0.022885,0.087266,-0.0,-0.0,3.0,0.3261,0.340823,0.3261,0.310414,,,,,,,0.103091,-0.020309,-0.013443,-0.000215,-0.000216,-0.000554
486414,0.103577,-0.020823,-0.022884,0.087266,-0.0,-0.0,3.0,0.3261,0.339677,0.3261,0.311708,,,,,,,0.102845,-0.020313,-0.013455,0.000213,-0.000216,-0.000553
486434,0.103206,-0.020949,-0.022878,0.087266,-0.0,-0.0,3.0,0.3261,0.338313,0.3261,0.313232,,,,,,,0.102478,-0.020317,-0.013466,-0.000666,-0.000216,-0.000552
486454,0.102839,-0.02096,-0.022761,0.087266,-0.0,-0.0,3.0,0.3261,0.339091,0.3261,0.312366,,,,,,,0.102231,-0.020322,-0.013477,0.023062,-0.000204,-0.000552
486474,0.102716,-0.02084,-0.022769,0.087266,-0.0,-0.0,3.0,0.3261,0.336105,0.3261,0.31566,,,,,,,0.101753,-0.020326,-0.013487,0.043952,-0.00018,-0.000541
486494,0.102593,-0.020719,-0.022777,0.087266,-0.0,-0.0,3.0,0.3261,0.338242,0.3261,0.313311,,,,,,,0.101621,-0.020329,-0.013498,-0.024399,-0.00018,-0.00054
486514,0.102468,-0.020477,-0.022791,0.087266,-0.0,-0.0,3.0,0.3261,0.339785,0.3261,0.311587,,,,,,,0.101496,-0.020333,-0.013509,-0.024023,-0.000168,-0.00054
486534,0.102104,-0.020604,-0.02279,0.087266,-0.0,-0.0,3.0,0.3261,0.336945,0.3261,0.314742,,,,,,,0.101263,-0.020337,-0.01352,0.020966,-0.00018,-0.000538
486554,0.101981,-0.020483,-0.022798,0.087266,-0.0,-0.0,3.0,0.3261,0.339103,0.3261,0.312352,,,,,,,0.101259,-0.02034,-0.013531,-0.025462,-0.000168,-0.000538
486574,0.101737,-0.020615,-0.022673,0.087266,-0.0,-0.0,3.0,0.3261,0.341485,0.3261,0.30966,,,,,,,0.101251,-0.020344,-0.013541,-0.070574,-0.00018,-0.000537
486594,0.101859,-0.020485,-0.022799,0.087266,-0.0,-0.0,3.0,0.3261,0.344427,0.3261,0.306255,,,,,,,0.101242,-0.020348,-0.013552,-0.045316,-0.000179,-0.000535
