time_ms,roll,pitch,yaw,reference_roll,reference_pitch,reference_yaw,reference_throttle,throttle_1,throttle_2,throttle_3,throttle_4,roll_predicted,pitch_predicted,yaw_predicted,roll_rate_predicted,pitch_rate_predicted,yaw_rate_predicted,value1,value2,value3,value4,value5,value6
186197,0.001697,-0.018002,-0.269055,0.0,-0.0,-0.0,2.0,0.282024,0.281281,0.282024,0.282764,,,,,,,0.002306,-0.010506,-0.172459,0.024081,-0.000227,0.000153
186217,0.001576,-0.018018,-0.269056,0.087266,-0.0,-0.0,2.0,0.282024,0.214281,0.282024,0.331761,,,,,,,0.002322,-0.01051,-0.172456,-0.003031,-0.000228,0.000153
186237,0.001455,-0.018035,-0.269057,0.087266,-0.0,-0.0,2.0,0.282024,0.210526,0.282024,0.333685,,,,,,,0.002186,-0.010515,-0.172453,-9.9e-05,-0.000229,0.000153
186257,0.001954,-0.018091,-0.268936,0.087266,-0.0,-0.0,2.0,0.282024,0.216966,0.282024,0.33034,,,,,,,0.002442,-0.01052,-0.17245,0.048288,-0.000234,0.000164
186277,0.002816,-0.018097,-0.268812,0.087266,-0.0,-0.0,2.0,0.282024,0.223186,0.282024,0.326901,,,,,,,0.003304,-0.010524,-0.172446,0.048387,-0.000234,0.000176
186297,0.004922,-0.018182,-0.268793,0.087266,-0.0,-0.0,2.0,0.282024,0.232923,0.282024,0.321088,,,,,,,0.005029,-0.010529,-0.172443,0.124141,-0.000242,0.000178
186317,0.007996,-0.018135,-0.268878,0.087266,-0.0,-0.0,2.0,0.282024,0.246866,0.282024,0.311775,,,,,,,0.007981,-0.010534,-0.172439,0.14853,-0.000237,0.000169
186337,0.012403,-0.017908,-0.269108,0.087266,-0.0,-0.0,2.0,0.282024,0.257879,0.282024,0.303507,,,,,,,0.011902,-0.010538,-0.172436,0.24521,-0.000214,0.000146
186357,0.017825,-0.01791,-0.269268,0.087266,-0.0,-0.0,2.0,0.282024,0.27121,0.282024,0.292272,,,,,,,0.017048,-0.010542,-0.172433,0.300277,-0.000214,0.000129
186377,0.02425,-0.01802,-0.269564,0.087266,-0.0,-0.0,2.0,0.282024,0.282756,0.282024,0.281289,,,,,,,0.02323,-0.010547,-0.172431,0.34866,-0.000224,0.0001
186397,0.031696,-0.018355,-0.270101,0.087266,-0.0,-0.0,2.0,0.282024,0.292516,0.282024,0.270938,,,,,,,0.030432,-0.010552,-0.172429,0.397219,-0.000257,4.6e-05
186417,0.039884,-0.018707,-0.270597,0.087266,-0.0,-0.0,2.0,0.282024,0.302802,0.282024,0.258767,,,,,,,0.038514,-0.010557,-0.172429,0.418328,-0.000292,-4e-06
186437,0.048329,-0.019143,-0.27094,0.087266,-0.0,-0.0,2.0,0.282024,0.310303,0.282024,0.248911,,,,,,,0.046942,-0.010563,-0.172429,0.42177,-0.000335,-3.8e-05
186457,0.057,-0.01942,-0.271247,0.087266,-0.0,-0.0,2.0,0.282024,0.315541,0.282024,0.241445,,,,,,,0.055512,-0.01057,-0.17243,0.441917,-0.000362,-6.9e-05
186477,0.065296,-0.019622,-0.271586,0.087266,-0.0,-0.0,2.0,0.282024,0.318828,0.282024,0.236478,,,,,,,0.063909,-0.010578,-0.172432,0.421697,-0.000381,-0.000102
186497,0.072954,-0.01966,-0.271925,0.087266,-0.0,-0.0,2.0,0.282024,0.318791,0.282024,0.236536,,,,,,,0.071826,-0.010585,-0.172434,0.370229,-0.000384,-0.000136
186517,0.079865,-0.019682,-0.271989,0.087266,-0.0,-0.0,2.0,0.282024,0.316872,0.282024,0.239461,,,,,,,0.078864,-0.010593,-0.172437,0.344894,-0.000386,-0.000142
186537,0.085671,-0.019732,-0.27208,0.087266,-0.0,-0.0,2.0,0.282024,0.315149,0.282024,0.242022,,,,,,,0.085033,-0.010601,-0.17244,0.272645,-0.00039,-0.000151
186557,0.090477,-0.019684,-0.271972,0.087266,-0.0,-0.0,2.0,0.282024,0.311104,0.282024,0.247802,,,,,,,0.090098,-0.010609,-0.172443,0.2209,-0.000385,-0.00014
186577,0.094058,-0.019683,-0.27191,0.087266,-0.0,-0.0,2.0,0.282024,0.303882,0.282024,0.257403,,,,,,,0.093934,-0.010616,-0.172446,0.170124,-0.000384,-0.000133
186597,0.096442,-0.019963,-0.271954,0.087266,-0.0,-0.0,2.0,0.282024,0.299771,0.282024,0.262502,,,,,,,0.096785,-0.010624,-0.172448,0.077174,-0.000411,-0.000138
186617,0.097925,-0.020003,-0.271883,0.087266,-0.0,-0.0,2.0,0.282024,0.293064,0.282024,0.270325,,,,,,,0.098412,-0.010633,-0.172451,0.048499,-0.000414,-0.00013
186637,0.098408,-0.019942,-0.271746,0.087266,-0.0,-0.0,2.0,0.282024,0.285168,0.282024,0.278829,,,,,,,0.099017,-0.010641,-0.172453,0.02406,-0.000407,-0.000116
186657,0.09815,-0.019855,-0.271762,0.087266,-0.0,-0.0,2.0,0.282024,0.280275,0.282024,0.283757,,,,,,,0.099001,-0.010649,-0.172456,-0.024159,-0.000398,-0.000118
186677,0.09765,-0.019795,-0.271904,0.087266,-0.0,-0.0,2.0,0.282024,0.279265,0.282024,0.284745,,,,,,,0.098622,-0.010657,-0.172458,-0.04812,-0.000391,-0.000132
186697,0.096926,-0.019896,-0.271934,0.087266,-0.0,-0.0,2.0,0.282024,0.275874,0.282024,0.287987,,,,,,,0.097882,-0.010665,-0.172461,-0.045031,-0.0004,-0.000134
186717,0.096668,-0.019802,-0.272066,0.087266,-0.0,-0.0,2.0,0.282024,0.277558,0.282024,0.286391,,,,,,,0.097398,-0.010672,-0.172464,-1.9e-05,-0.00039,-0.000147
186737,0.096684,-0.019929,-0.271944,0.087266,-0.0,-0.0,2.0,0.282024,0.280415,0.282024,0.28362,,,,,,,0.097277,-0.01068,-0.172466,0.027354,-0.000402,-0.000135
186757,0.097063,-0.02,-0.271924,0.087266,-0.0,-0.0,2.0,0.282024,0.283379,0.282024,0.28066,,,,,,,0.097656,-0.010688,-0.172469,0.027352,-0.000408,-0.000132
186777,0.097788,-0.019899,-0.271894,0.087266,-0.0,-0.0,2.0,0.282024,0.286054,0.282024,0.27791,,,,,,,0.098293,-0.010696,-0.172472,0.044942,-0.000397,-0.000129
186797,0.098777,-0.019886,-0.271897,0.087266,-0.0,-0.0,2.0,0.282024,0.29114,0.282024,0.272463,,,,,,,0.099379,-0.010704,-0.172474,0.02558,-0.000395,-0.000129
186817,0.100017,-0.019966,-0.271718,0.087266,-0.0,-0.0,2.0,0.282024,0.291401,0.282024,0.272176,,,,,,,0.100368,-0.010712,-0.172477,0.075682,-0.000402,-0.000111
186837,0.101232,-0.019799,-0.271715,0.087266,-0.0,-0.0,2.0,0.282024,0.293659,0.282024,0.269654,,,,,,,0.101713,-0.01072,-0.172479,0.04959,-0.000385,-0.000111
186857,0.102594,-0.01985,-0.271763,0.087266,-0.0,-0.0,2.0,0.282024,0.296039,0.282024,0.266928,,,,,,,0.103064,-0.010728,-0.172481,0.051788,-0.000389,-0.000115
186877,0.103962,-0.019907,-0.271742,0.087266,-0.0,-0.0,2.0,0.282024,0.295776,0.282024,0.267233,,,,,,,0.104312,-0.010736,-0.172484,0.075781,-0.000394,-0.000113
186897,0.105307,-0.019843,-0.271678,0.087266,-0.0,-0.0,2.0,0.282024,0.296506,0.282024,0.266384,,,,,,,0.105657,-0.010743,-0.172486,0.075756,-0.000387,-0.000106
186917,0.106434,-0.019927,-0.271783,0.087266,-0.0,-0.0,2.0,0.282024,0.296946,0.282024,0.26587,,,,,,,0.106904,-0.010751,-0.172488,0.0517,-0.000395,-0.000116
186937,0.107302,-0.019924,-0.271904,0.087266,-0.0,-0.0,2.0,0.282024,0.295858,0.282024,0.267137,,,,,,,0.107904,-0.010759,-0.17249,0.02559,-0.000394,-0.000128
186957,0.108181,-0.020048,-0.271854,0.087266,-0.0,-0.0,2.0,0.282024,0.294574,0.282024,0.268615,,,,,,,0.108669,-0.010767,-0.172493,0.048219,-0.000405,-0.000123
186977,0.108802,-0.020078,-0.271937,0.087266,-0.0,-0.0,2.0,0.282024,0.295394,0.282024,0.267674,,,,,,,0.10941,-0.010775,-0.172496,0.024251,-0.000407,-0.000131
186997,0.109171,-0.020028,-0.271969,0.087266,-0.0,-0.0,2.0,0.282024,0.292109,0.282024,0.271391,,,,,,,0.109773,-0.010783,-0.172498,0.025402,-0.000402,-0.000134
187017,0.109292,-0.020005,-0.27208,0.087266,-0.0,-0.0,2.0,0.282024,0.291687,0.282024,0.27186,,,,,,,0.110022,-0.010791,-0.172501,-0.0,-0.000398,-0.000145
187037,0.109292,-0.020005,-0.27208,0.087266,-0.0,-0.0,2.0,0.282024,0.289006,0.282024,0.274784,,,,,,,0.109901,-0.010799,-0.172504,0.024016,-0.000398,-0.000145
187057,0.10905,-0.020045,-0.271975,0.087266,-0.0,-0.0,2.0,0.282024,0.290313,0.282024,0.273369,,,,,,,0.109901,-0.010807,-0.172506,-0.024055,-0.000401,-0.000134
187077,0.108802,-0.020078,-0.271937,0.087266,-0.0,-0.0,2.0,0.282024,0.289934,0.282024,0.273781,,,,,,,0.109653,-0.010815,-0.172509,-0.024053,-0.000403,-0.00013
187097,0.108681,-0.020095,-0.271942,0.087266,-0.0,-0.0,2.0,0.282024,0.289581,0.282024,0.274164,,,,,,,0.109411,-0.010823,-0.172512,-6.4e-05,-0.000404,-0.00013
187117,0.108681,-0.020095,-0.271942,0.087266,-0.0,-0.0,2.0,0.282024,0.290992,0.282024,0.272626,,,,,,,0.109428,-0.010831,-0.172514,-0.003279,-0.000403,-0.00013
187137,0.108922,-0.020062,-0.271931,0.087266,-0.0,-0.0,2.0,0.282024,0.292783,0.282024,0.270639,,,,,,,0.109531,-0.010839,-0.172517,0.024152,-0.000399,-0.000128
187157,0.109043,-0.020045,-0.271926,0.087266,-0.0,-0.0,2.0,0.282024,0.293273,0.282024,0.270089,,,,,,,0.109773,-0.010847,-0.172519,9.9e-05,-0.000397,-0.000128
187177,0.109429,-0.020115,-0.271952,0.087266,-0.0,-0.0,2.0,0.282024,0.294877,0.282024,0.268268,,,,,,,0.110159,-0.010856,-0.172522,9.9e-05,-0.000403,-0.00013
187197,0.109687,-0.020202,-0.271935,0.087266,-0.0,-0.0,2.0,0.282024,0.294841,0.282024,0.268309,,,,,,,0.110416,-0.010864,-0.172525,0.000161,-0.000411,-0.000128
187217,0.109944,-0.020296,-0.271801,0.087266,-0.0,-0.0,2.0,0.282024,0.294531,0.282024,0.268663,,,,,,,0.110658,-0.010872,-0.172527,0.003329,-0.000419,-0.000114
187237,0.110066,-0.020273,-0.271912,0.087266,-0.0,-0.0,2.0,0.282024,0.293132,0.282024,0.270248,,,,,,,0.110796,-0.01088,-0.172529,-0.0,-0.000416,-0.000125
187257,0.110066,-0.020273,-0.271912,0.087266,-0.0,-0.0,2.0,0.282024,0.294453,0.282024,0.268752,,,,,,,0.110916,-0.010889,-0.172532,-0.023955,-0.000415,-0.000125
187277,0.110066,-0.020273,-0.271912,0.087266,-0.0,-0.0,2.0,0.282024,0.292737,0.282024,0.270691,,,,,,,0.110796,-0.010897,-0.172534,0.0,-0.000415,-0.000125
187297,0.109945,-0.02029,-0.271917,0.087266,-0.0,-0.0,2.0,0.282024,0.292596,0.282024,0.270849,,,,,,,0.110675,-0.010905,-0.172537,1.4e-05,-0.000415,-0.000125
187317,0.109807,-0.020186,-0.271929,0.087266,-0.0,-0.0,2.0,0.282024,0.292361,0.282024,0.271111,,,,,,,0.110538,-0.010913,-0.172539,-1.4e-05,-0.000404,-0.000126
187337,0.109703,-0.020323,-0.271928,0.087266,-0.0,-0.0,2.0,0.282024,0.293078,0.282024,0.270309,,,,,,,0.110554,-0.010922,-0.172542,-0.024053,-0.000417,-0.000126
187357,0.109824,-0.020306,-0.271923,0.087266,-0.0,-0.0,2.0,0.282024,0.293911,0.282024,0.269369,,,,,,,0.110554,-0.01093,-0.172545,-1e-06,-0.000415,-0.000125
187377,0.109824,-0.020306,-0.271923,0.087266,-0.0,-0.0,2.0,0.282024,0.293464,0.282024,0.269874,,,,,,,0.110554,-0.010938,-0.172547,0.0,-0.000414,-0.000125
187397,0.109945,-0.02029,-0.271917,0.087266,-0.0,-0.0,2.0,0.282024,0.294486,0.282024,0.268714,,,,,,,0.110675,-0.010946,-0.172549,-1e-06,-0.000411,-0.000124
187417,0.110066,-0.020273,-0.271912,0.087266,-0.0,-0.0,2.0,0.282024,0.295691,0.282024,0.26733,,,,,,,0.110812,-0.010955,-0.172552,-0.003194,-0.000409,-0.000123
187437,0.110082,-0.020394,-0.271906,0.087266,-0.0,-0.0,2.0,0.282024,0.295824,0.282024,0.267176,,,,,,,0.110933,-0.010963,-0.172554,-0.023954,-0.00042,-0.000122
187457,0.110082,-0.020394,-0.271906,0.087266,-0.0,-0.0,2.0,0.282024,0.294186,0.282024,0.269057,,,,,,,0.110812,-0.010971,-0.172557,1.4e-05,-0.000419,-0.000122
187477,0.109945,-0.02029,-0.271917,0.087266,-0.0,-0.0,2.0,0.282024,0.293451,0.282024,0.269889,,,,,,,0.110692,-0.01098,-0.172559,-0.003293,-0.000408,-0.000123
187497,0.109841,-0.020427,-0.271917,0.087266,-0.0,-0.0,2.0,0.282024,0.293648,0.282024,0.269666,,,,,,,0.110554,-0.010988,-0.172562,0.003279,-0.000421,-0.000122
187517,0.10972,-0.020444,-0.271922,0.087266,-0.0,-0.0,2.0,0.282024,0.29407,0.282024,0.269189,,,,,,,0.11045,-0.010996,-0.172564,1.4e-05,-0.000422,-0.000123
187537,0.109599,-0.020468,-0.271811,0.087266,-0.0,-0.0,2.0,0.282024,0.294075,0.282024,0.269183,,,,,,,0.110329,-0.011005,-0.172567,-0.0,-0.000423,-0.000111
187557,0.109599,-0.020468,-0.271811,0.087266,-0.0,-0.0,2.0,0.282024,0.294582,0.282024,0.268605,,,,,,,0.110329,-0.011013,-0.172569,-6.7e-05,-0.000422,-0.000111
187577,0.109599,-0.020461,-0.271928,0.087266,-0.0,-0.0,2.0,0.282024,0.295113,0.282024,0.267997,,,,,,,0.110329,-0.011022,-0.172571,-0.0,-0.000421,-0.000123
187597,0.109615,-0.020588,-0.271805,0.087266,-0.0,-0.0,2.0,0.282024,0.295153,0.282024,0.267951,,,,,,,0.110346,-0.01103,-0.172574,-5.5e-05,-0.000433,-0.00011
187617,0.109736,-0.020565,-0.271916,0.087266,-0.0,-0.0,2.0,0.282024,0.295723,0.282024,0.267294,,,,,,,0.110467,-0.011039,-0.172576,1.4e-05,-0.00043,-0.000121
187637,0.109857,-0.020548,-0.27191,0.087266,-0.0,-0.0,2.0,0.282024,0.295374,0.282024,0.267696,,,,,,,0.110467,-0.011047,-0.172579,0.024053,-0.000427,-0.00012
187657,0.109736,-0.020565,-0.271916,0.087266,-0.0,-0.0,2.0,0.282024,0.294975,0.282024,0.268155,,,,,,,0.11045,-0.011056,-0.172581,0.003278,-0.000428,-0.00012
187677,0.109736,-0.020565,-0.271916,0.087266,-0.0,-0.0,2.0,0.282024,0.295667,0.282024,0.267359,,,,,,,0.110467,-0.011064,-0.172583,1.4e-05,-0.000427,-0.00012
187697,0.109615,-0.020588,-0.271805,0.087266,-0.0,-0.0,2.0,0.282024,0.295212,0.282024,0.267883,,,,,,,0.110346,-0.011073,-0.172586,0.0,-0.000429,-0.000109
187717,0.109494,-0.020605,-0.271811,0.087266,-0.0,-0.0,2.0,0.282024,0.294835,0.282024,0.268316,,,,,,,0.110225,-0.011081,-0.172588,1e-06,-0.000429,-0.000109
187737,0.109495,-0.020598,-0.271927,0.087266,-0.0,-0.0,2.0,0.282024,0.295787,0.282024,0.267219,,,,,,,0.110225,-0.01109,-0.17259,-0.0,-0.000428,-0.000121
187757,0.109495,-0.020598,-0.271927,0.087266,-0.0,-0.0,2.0,0.282024,0.295979,0.282024,0.266997,,,,,,,0.110225,-0.011099,-0.172592,-0.0,-0.000427,-0.00012
187777,0.109495,-0.020598,-0.271927,0.087266,-0.0,-0.0,2.0,0.282024,0.296123,0.282024,0.26683,,,,,,,0.110225,-0.011107,-0.172595,0.0,-0.000426,-0.00012
187797,0.109753,-0.020685,-0.27191,0.087266,-0.0,-0.0,2.0,0.282024,0.296723,0.282024,0.266131,,,,,,,0.110346,-0.011116,-0.172597,0.027334,-0.000434,-0.000118
187817,0.109753,-0.020685,-0.27191,0.087266,-0.0,-0.0,2.0,0.282024,0.297237,0.282024,0.265528,,,,,,,0.110484,-0.011124,-0.1726,-7e-05,-0.000433,-0.000118
187837,0.109753,-0.020685,-0.27191,0.087266,-0.0,-0.0,2.0,0.282024,0.296748,0.282024,0.266101,,,,,,,0.110483,-0.011133,-0.172602,0.0,-0.000432,-0.000118
187857,0.109752,-0.020692,-0.271793,0.087266,-0.0,-0.0,2.0,0.282024,0.296848,0.282024,0.265984,,,,,,,0.110483,-0.011142,-0.172604,-0.0,-0.000432,-0.000106
187877,0.109632,-0.020709,-0.271799,0.087266,-0.0,-0.0,2.0,0.282024,0.29603,0.282024,0.266937,,,,,,,0.110362,-0.01115,-0.172607,0.0,-0.000433,-0.000106
187897,0.109511,-0.020726,-0.271804,0.087266,-0.0,-0.0,2.0,0.282024,0.296937,0.282024,0.26588,,,,,,,0.110362,-0.011159,-0.172609,-0.024052,-0.000434,-0.000107
187917,0.109494,-0.020605,-0.271811,0.087266,-0.0,-0.0,2.0,0.282024,0.296694,0.282024,0.266165,,,,,,,0.110225,-0.011168,-0.172611,-8.2e-05,-0.000421,-0.000107
187937,0.109495,-0.020598,-0.271927,0.087266,-0.0,-0.0,2.0,0.282024,0.297239,0.282024,0.265525,,,,,,,0.110225,-0.011176,-0.172613,6.8e-05,-0.000419,-0.000118
187957,0.109494,-0.020605,-0.271811,0.087266,-0.0,-0.0,2.0,0.282024,0.297404,0.282024,0.26533,,,,,,,0.110225,-0.011184,-0.172615,0.0,-0.000419,-0.000107
187977,0.109494,-0.020605,-0.271811,0.087266,-0.0,-0.0,2.0,0.282024,0.298152,0.282024,0.264445,,,,,,,0.110329,-0.011193,-0.172618,-0.020844,-0.000418,-0.000106
187997,0.109616,-0.020581,-0.271922,0.087266,-0.0,-0.0,2.0,0.282024,0.298263,0.282024,0.264313,,,,,,,0.110362,-0.011201,-0.17262,-0.003281,-0.000415,-0.000117
188017,0.109632,-0.020702,-0.271915,0.087266,-0.0,-0.0,2.0,0.282024,0.29803,0.282024,0.264591,,,,,,,0.110362,-0.01121,-0.172622,7.1e-05,-0.000426,-0.000116
188037,0.109632,-0.020709,-0.271799,0.087266,-0.0,-0.0,2.0,0.282024,0.297949,0.282024,0.264686,,,,,,,0.110346,-0.011218,-0.172624,0.003292,-0.000426,-0.000104
188057,0.109615,-0.020588,-0.271805,0.087266,-0.0,-0.0,2.0,0.282024,0.298099,0.282024,0.264509,,,,,,,0.110346,-0.011226,-0.172626,-6.8e-05,-0.000413,-0.000105
188077,0.109495,-0.020598,-0.271927,0.087266,-0.0,-0.0,2.0,0.282024,0.297541,0.282024,0.265169,,,,,,,0.110225,-0.011235,-0.172629,1.4e-05,-0.000413,-0.000117
188097,0.109357,-0.020494,-0.271939,0.087266,-0.0,-0.0,2.0,0.282024,0.296802,0.282024,0.266039,,,,,,,0.110104,-0.011243,-0.172631,-0.00331,-0.000402,-0.000118
188117,0.109374,-0.020622,-0.271816,0.087266,-0.0,-0.0,2.0,0.282024,0.296725,0.282024,0.266128,,,,,,,0.109977,-0.011251,-0.172633,0.025302,-0.000414,-0.000105
188137,0.109246,-0.020638,-0.271773,0.087266,-0.0,-0.0,2.0,0.282024,0.296911,0.282024,0.26591,,,,,,,0.109977,-0.011259,-0.172635,-0.000105,-0.000415,-0.000101
188157,0.109367,-0.020622,-0.271767,0.087266,-0.0,-0.0,2.0,0.282024,0.299452,0.282024,0.262888,,,,,,,0.110104,-0.011267,-0.172637,-0.001351,-0.000412,-0.0001
188177,0.10939,-0.020743,-0.27181,0.087266,-0.0,-0.0,2.0,0.282024,0.299032,0.282024,0.263394,,,,,,,0.110121,-0.011276,-0.172639,-0.0,-0.000424,-0.000104
188197,0.109374,-0.020622,-0.271816,0.087266,-0.0,-0.0,2.0,0.282024,0.298394,0.282024,0.264157,,,,,,,0.110121,-0.011284,-0.172641,-0.003376,-0.000411,-0.000104
188217,0.109374,-0.020622,-0.271816,0.087266,-0.0,-0.0,2.0,0.282024,0.299006,0.282024,0.263425,,,,,,,0.110097,-0.011292,-0.172643,0.001345,-0.00041,-0.000104
188237,0.109246,-0.020638,-0.271773,0.087266,-0.0,-0.0,2.0,0.282024,0.297317,0.282024,0.265433,,,,,,,0.109967,-0.011301,-0.172646,0.001827,-0.000411,-0.0001
188257,0.109125,-0.020655,-0.271778,0.087266,-0.0,-0.0,2.0,0.282024,0.299287,0.282024,0.263087,,,,,,,0.109983,-0.011309,-0.172648,-0.025398,-0.000412,-0.0001
188277,0.109125,-0.020655,-0.271778,0.087266,-0.0,-0.0,2.0,0.282024,0.299276,0.282024,0.2631,,,,,,,0.109856,-0.011317,-0.17265,-0.0,-0.000411,-0.0001
188297,0.109004,-0.020679,-0.271668,0.087266,-0.0,-0.0,2.0,0.282024,0.297859,0.282024,0.264793,,,,,,,0.109735,-0.011325,-0.172651,-0.0001,-0.000412,-8.9e-05
188317,0.109125,-0.020662,-0.271662,0.087266,-0.0,-0.0,2.0,0.282024,0.299904,0.282024,0.262341,,,,,,,0.109855,-0.011334,-0.172653,-1.4e-05,-0.00041,-8.8e-05
188337,0.109125,-0.020655,-0.271778,0.087266,-0.0,-0.0,2.0,0.282024,0.299864,0.282024,0.26239,,,,,,,0.109856,-0.011342,-0.172655,-0.0,-0.000408,-9.9e-05
188357,0.109125,-0.020655,-0.271778,0.087266,-0.0,-0.0,2.0,0.282024,0.301602,0.282024,0.260262,,,,,,,0.109976,-0.01135,-0.172657,-0.023886,-0.000408,-9.9e-05
188377,0.109125,-0.020662,-0.271662,0.087266,-0.0,-0.0,2.0,0.282024,0.300077,0.282024,0.262132,,,,,,,0.109855,-0.011358,-0.172659,-0.0,-0.000407,-8.7e-05
188397,0.108988,-0.020558,-0.271674,0.087266,-0.0,-0.0,2.0,0.282024,0.299357,0.282024,0.263002,,,,,,,0.109735,-0.011366,-0.172661,-0.003291,-0.000396,-8.8e-05
188417,0.109005,-0.020672,-0.271784,0.087266,-0.0,-0.0,2.0,0.282024,0.300084,0.282024,0.262123,,,,,,,0.109719,-0.011374,-0.172663,0.003275,-0.000407,-9.9e-05
188437,0.108884,-0.020689,-0.271789,0.087266,-0.0,-0.0,2.0,0.282024,0.29959,0.282024,0.262721,,,,,,,0.109614,-0.011382,-0.172665,1e-06,-0.000408,-9.9e-05
188457,0.108884,-0.020689,-0.271789,0.087266,-0.0,-0.0,2.0,0.282024,0.300481,0.282024,0.261639,,,,,,,0.109614,-0.01139,-0.172667,0.0,-0.000407,-9.9e-05
188477,0.108884,-0.020689,-0.271789,0.087266,-0.0,-0.0,2.0,0.282024,0.300822,0.282024,0.261222,,,,,,,0.109614,-0.011398,-0.172668,8.3e-05,-0.000406,-9.9e-05
188497,0.108867,-0.020568,-0.271796,0.087266,-0.0,-0.0,2.0,0.282024,0.300857,0.282024,0.26118,,,,,,,0.109614,-0.011407,-0.17267,-0.00329,-0.000393,-0.0001
188517,0.108884,-0.020689,-0.271789,0.087266,-0.0,-0.0,2.0,0.282024,0.300747,0.282024,0.261314,,,,,,,0.109598,-0.011414,-0.172672,0.003277,-0.000404,-9.9e-05
188537,0.108884,-0.020689,-0.271789,0.087266,-0.0,-0.0,2.0,0.282024,0.301089,0.282024,0.260894,,,,,,,0.109614,-0.011423,-0.172674,0.0,-0.000404,-9.8e-05
188557,0.108884,-0.020695,-0.271673,0.087266,-0.0,-0.0,2.0,0.282024,0.301205,0.282024,0.260752,,,,,,,0.109614,-0.011431,-0.172676,0.0,-0.000404,-8.7e-05
188577,0.108763,-0.020712,-0.271679,0.087266,-0.0,-0.0,2.0,0.282024,0.30086,0.282024,0.261175,,,,,,,0.109493,-0.011439,-0.172678,-0.0,-0.000404,-8.7e-05
188597,0.108625,-0.020608,-0.27169,0.087266,-0.0,-0.0,2.0,0.282024,0.301304,0.282024,0.260629,,,,,,,0.109493,-0.011447,-0.17268,-0.027416,-0.000393,-8.8e-05
188617,0.108625,-0.020608,-0.27169,0.087266,-0.0,-0.0,2.0,0.282024,0.301061,0.282024,0.260929,,,,,,,0.109356,-0.011455,-0.172682,-1.4e-05,-0.000392,-8.8e-05
188637,0.108505,-0.020625,-0.271696,0.087266,-0.0,-0.0,2.0,0.282024,0.301277,0.282024,0.260663,,,,,,,0.109339,-0.011463,-0.172683,-0.020778,-0.000393,-8.8e-05
188657,0.108488,-0.020511,-0.271585,0.087266,-0.0,-0.0,2.0,0.282024,0.301341,0.282024,0.260584,,,,,,,0.109218,-0.01147,-0.172685,0.0,-0.000381,-7.7e-05
188677,0.108383,-0.020655,-0.271468,0.087266,-0.0,-0.0,2.0,0.282024,0.300083,0.282024,0.262124,,,,,,,0.109098,-0.011478,-0.172687,0.003118,-0.000395,-6.5e-05
188697,0.10835,-0.020414,-0.271481,0.087266,-0.0,-0.0,2.0,0.282024,0.300606,0.282024,0.261486,,,,,,,0.109114,-0.011486,-0.172688,-0.006746,-0.00037,-6.6e-05
188717,0.108246,-0.020551,-0.27148,0.087266,-0.0,-0.0,2.0,0.282024,0.301011,0.282024,0.260991,,,,,,,0.108976,-0.011493,-0.172689,1e-06,-0.000383,-6.6e-05
188737,0.108142,-0.020689,-0.271479,0.087266,-0.0,-0.0,2.0,0.282024,0.300208,0.282024,0.261972,,,,,,,0.108849,-0.011501,-0.172691,0.004586,-0.000396,-6.6e-05
188757,0.108118,-0.020575,-0.27132,0.087266,-0.0,-0.0,2.0,0.282024,0.301855,0.282024,0.259948,,,,,,,0.108848,-0.011509,-0.172692,-0.0,-0.000384,-5e-05
188777,0.10786,-0.020487,-0.271337,0.087266,-0.0,-0.0,2.0,0.282024,0.301538,0.282024,0.26034,,,,,,,0.108712,-0.011516,-0.172693,-0.024123,-0.000374,-5.1e-05
188797,0.107844,-0.020367,-0.271343,0.087266,-0.0,-0.0,2.0,0.282024,0.301316,0.282024,0.260615,,,,,,,0.108591,-0.011524,-0.172694,-0.003373,-0.000361,-5.2e-05
188817,0.107723,-0.020383,-0.271349,0.087266,-0.0,-0.0,2.0,0.282024,0.301756,0.282024,0.260071,,,,,,,0.108453,-0.011531,-0.172695,0.0,-0.000362,-5.2e-05
188837,0.107481,-0.020417,-0.27136,0.087266,-0.0,-0.0,2.0,0.282024,0.301575,0.282024,0.260295,,,,,,,0.108316,-0.011538,-0.172696,-0.020784,-0.000365,-5.3e-05
188857,0.107464,-0.020303,-0.271249,0.087266,-0.0,-0.0,2.0,0.282024,0.302015,0.282024,0.259749,,,,,,,0.108195,-0.011545,-0.172697,-0.0,-0.000353,-4.2e-05
188877,0.107344,-0.02032,-0.271255,0.087266,-0.0,-0.0,2.0,0.282024,0.301977,0.282024,0.259796,,,,,,,0.108074,-0.011552,-0.172698,-6.8e-05,-0.000354,-4.3e-05
188897,0.107223,-0.02033,-0.271377,0.087266,-0.0,-0.0,2.0,0.282024,0.301232,0.282024,0.260718,,,,,,,0.107954,-0.011559,-0.172699,-0.0001,-0.000354,-5.5e-05
188917,0.107223,-0.02033,-0.271377,0.087266,-0.0,-0.0,2.0,0.282024,0.300948,0.282024,0.261067,,,,,,,0.107833,-0.011567,-0.1727,0.024027,-0.000353,-5.5e-05
188937,0.107102,-0.020353,-0.271266,0.087266,-0.0,-0.0,2.0,0.282024,0.301921,0.282024,0.259866,,,,,,,0.107833,-0.011574,-0.172701,0.0,-0.000355,-4.3e-05
188957,0.107102,-0.020353,-0.271266,0.087266,-0.0,-0.0,2.0,0.282024,0.302605,0.282024,0.259013,,,,,,,0.107833,-0.011581,-0.172702,-8.2e-05,-0.000354,-4.3e-05
188977,0.106982,-0.020363,-0.271388,0.087266,-0.0,-0.0,2.0,0.282024,0.301197,0.282024,0.260761,,,,,,,0.107713,-0.011588,-0.172703,-9.9e-05,-0.000355,-5.5e-05
188997,0.106981,-0.02037,-0.271271,0.087266,-0.0,-0.0,2.0,0.282024,0.30283,0.282024,0.258731,,,,,,,0.107712,-0.011595,-0.172704,0.0,-0.000355,-4.4e-05
189017,0.106861,-0.020387,-0.271277,0.087266,-0.0,-0.0,2.0,0.282024,0.30263,0.282024,0.258982,,,,,,,0.107591,-0.011602,-0.172705,-0.0,-0.000356,-4.4e-05
189037,0.10674,-0.020403,-0.271282,0.087266,-0.0,-0.0,2.0,0.282024,0.303015,0.282024,0.2585,,,,,,,0.107591,-0.011609,-0.172706,-0.024058,-0.000356,-4.5e-05
189057,0.10674,-0.020403,-0.271282,0.087266,-0.0,-0.0,2.0,0.282024,0.302955,0.282024,0.258575,,,,,,,0.10747,-0.011616,-0.172707,0.0,-0.000356,-4.5e-05
189077,0.106619,-0.02042,-0.271287,0.087266,-0.0,-0.0,2.0,0.282024,0.302225,0.282024,0.259488,,,,,,,0.107349,-0.011623,-0.172708,-1.3e-05,-0.000357,-4.5e-05
189097,0.106515,-0.020558,-0.271287,0.087266,-0.0,-0.0,2.0,0.282024,0.303554,0.282024,0.257819,,,,,,,0.107349,-0.011631,-0.172708,-0.020774,-0.00037,-4.5e-05
189117,0.106371,-0.020453,-0.271249,0.087266,-0.0,-0.0,2.0,0.282024,0.302351,0.282024,0.259331,,,,,,,0.107101,-0.011638,-0.172709,1.4e-05,-0.000359,-4.1e-05
189137,0.10625,-0.02047,-0.271255,0.087266,-0.0,-0.0,2.0,0.282024,0.301669,0.282024,0.260179,,,,,,,0.106981,-0.011645,-0.17271,-9.9e-05,-0.00036,-4.1e-05
189157,0.106129,-0.020487,-0.27126,0.087266,-0.0,-0.0,2.0,0.282024,0.301912,0.282024,0.259877,,,,,,,0.106877,-0.011652,-0.172711,-0.003368,-0.000361,-4.2e-05
189177,0.106009,-0.020504,-0.271266,0.087266,-0.0,-0.0,2.0,0.282024,0.301725,0.282024,0.260109,,,,,,,0.106739,-0.011659,-0.172712,-9.9e-05,-0.000361,-4.2e-05
189197,0.105904,-0.020641,-0.271265,0.087266,-0.0,-0.0,2.0,0.282024,0.302829,0.282024,0.258732,,,,,,,0.106618,-0.011667,-0.172713,0.003271,-0.000374,-4.2e-05
189217,0.105784,-0.020658,-0.27127,0.087266,-0.0,-0.0,2.0,0.282024,0.30324,0.282024,0.258216,,,,,,,0.106514,-0.011674,-0.172714,1.4e-05,-0.000375,-4.3e-05
189237,0.105663,-0.020675,-0.271276,0.087266,-0.0,-0.0,2.0,0.282024,0.302877,0.282024,0.258672,,,,,,,0.106393,-0.011682,-0.172714,1.4e-05,-0.000376,-4.3e-05
189257,0.105542,-0.020691,-0.271281,0.087266,-0.0,-0.0,2.0,0.282024,0.302788,0.282024,0.258784,,,,,,,0.106272,-0.011689,-0.172715,1e-06,-0.000377,-4.4e-05
189277,0.105405,-0.020587,-0.271293,0.087266,-0.0,-0.0,2.0,0.282024,0.302074,0.282024,0.259676,,,,,,,0.106152,-0.011697,-0.172716,-0.003382,-0.000366,-4.5e-05
189297,0.105405,-0.020587,-0.271293,0.087266,-0.0,-0.0,2.0,0.282024,0.30355,0.282024,0.257823,,,,,,,0.106135,-0.011704,-0.172717,-1.3e-05,-0.000365,-4.5e-05
189317,0.10518,-0.020742,-0.271297,0.087266,-0.0,-0.0,2.0,0.282024,0.303181,0.282024,0.258289,,,,,,,0.106014,-0.011712,-0.172718,-0.020713,-0.00038,-4.5e-05
189337,0.105058,-0.020765,-0.271186,0.087266,-0.0,-0.0,2.0,0.282024,0.302898,0.282024,0.258646,,,,,,,0.105789,-0.011719,-0.172719,1.4e-05,-0.000382,-3.4e-05
189357,0.104817,-0.020798,-0.271197,0.087266,-0.0,-0.0,2.0,0.282024,0.303427,0.282024,0.25798,,,,,,,0.105668,-0.011727,-0.172719,-0.024044,-0.000384,-3.5e-05
189377,0.104696,-0.020815,-0.271202,0.087266,-0.0,-0.0,2.0,0.282024,0.303594,0.282024,0.257768,,,,,,,0.105547,-0.011734,-0.17272,-0.024059,-0.000385,-3.5e-05
189397,0.10468,-0.020694,-0.271208,0.087266,-0.0,-0.0,2.0,0.282024,0.302156,0.282024,0.259574,,,,,,,0.105306,-0.011742,-0.172721,0.020676,-0.000372,-3.6e-05
189417,0.104432,-0.020727,-0.27117,0.087266,-0.0,-0.0,2.0,0.282024,0.304287,0.282024,0.256887,,,,,,,0.105282,-0.01175,-0.172721,-0.023956,-0.000375,-3.2e-05
189437,0.10431,-0.020751,-0.271059,0.087266,-0.0,-0.0,2.0,0.282024,0.302931,0.282024,0.258605,,,,,,,0.105041,-0.011757,-0.172722,0.0,-0.000376,-2.1e-05
189457,0.10419,-0.020761,-0.271181,0.087266,-0.0,-0.0,2.0,0.282024,0.303674,0.282024,0.257667,,,,,,,0.105025,-0.011764,-0.172723,-0.020787,-0.000377,-3.3e-05
189477,0.10419,-0.020761,-0.271181,0.087266,-0.0,-0.0,2.0,0.282024,0.303974,0.282024,0.257285,,,,,,,0.10492,-0.011772,-0.172723,1.4e-05,-0.000376,-3.3e-05
189497,0.104053,-0.020657,-0.271192,0.087266,-0.0,-0.0,2.0,0.282024,0.30384,0.282024,0.257456,,,,,,,0.1048,-0.011779,-0.172724,-0.003269,-0.000365,-3.4e-05
189517,0.104052,-0.020663,-0.271076,0.087266,-0.0,-0.0,2.0,0.282024,0.304246,0.282024,0.256939,,,,,,,0.104799,-0.011787,-0.172724,-0.003283,-0.000365,-2.2e-05
189537,0.104052,-0.020663,-0.271076,0.087266,-0.0,-0.0,2.0,0.282024,0.30432,0.282024,0.256844,,,,,,,0.1048,-0.011794,-0.172725,-0.003363,-0.000364,-2.2e-05
189557,0.104053,-0.020657,-0.271192,0.087266,-0.0,-0.0,2.0,0.282024,0.304206,0.282024,0.25699,,,,,,,0.104783,-0.011802,-0.172726,-1.4e-05,-0.000363,-3.4e-05
189577,0.103932,-0.020674,-0.271197,0.087266,-0.0,-0.0,2.0,0.282024,0.303958,0.282024,0.257306,,,,,,,0.104662,-0.011809,-0.172726,0.0,-0.000364,-3.4e-05
189597,0.103811,-0.02069,-0.271203,0.087266,-0.0,-0.0,2.0,0.282024,0.303349,0.282024,0.258078,,,,,,,0.104542,-0.011816,-0.172727,-8.6e-05,-0.000364,-3.5e-05
189617,0.103794,-0.020576,-0.271092,0.087266,-0.0,-0.0,2.0,0.282024,0.30437,0.282024,0.25678,,,,,,,0.104525,-0.011823,-0.172727,0.0,-0.000352,-2.3e-05
189637,0.103674,-0.020593,-0.271097,0.087266,-0.0,-0.0,2.0,0.282024,0.304169,0.282024,0.257038,,,,,,,0.104404,-0.01183,-0.172728,-0.0,-0.000353,-2.4e-05
189657,0.103657,-0.020472,-0.271103,0.087266,-0.0,-0.0,2.0,0.282024,0.304646,0.282024,0.256427,,,,,,,0.104404,-0.011837,-0.172728,-0.003284,-0.000341,-2.4e-05
189677,0.103674,-0.020593,-0.271097,0.087266,-0.0,-0.0,2.0,0.282024,0.30481,0.282024,0.256216,,,,,,,0.104404,-0.011844,-0.172729,-0.0,-0.000352,-2.4e-05
189697,0.103674,-0.020593,-0.271097,0.087266,-0.0,-0.0,2.0,0.282024,0.304778,0.282024,0.256257,,,,,,,0.104387,-0.011851,-0.172729,0.003284,-0.000351,-2.4e-05
189717,0.103657,-0.020472,-0.271103,0.087266,-0.0,-0.0,2.0,0.282024,0.305566,0.282024,0.255241,,,,,,,0.104387,-0.011858,-0.17273,8.6e-05,-0.000338,-2.4e-05
189737,0.103536,-0.020489,-0.271109,0.087266,-0.0,-0.0,2.0,0.282024,0.304646,0.282024,0.256427,,,,,,,0.104267,-0.011865,-0.17273,0.0,-0.000339,-2.5e-05
189757,0.103415,-0.020506,-0.271114,0.087266,-0.0,-0.0,2.0,0.282024,0.303427,0.282024,0.25798,,,,,,,0.104146,-0.011872,-0.172731,-9.9e-05,-0.00034,-2.5e-05
189777,0.103399,-0.020385,-0.27112,0.087266,-0.0,-0.0,2.0,0.282024,0.305082,0.282024,0.255866,,,,,,,0.104146,-0.011879,-0.172731,-0.003283,-0.000328,-2.6e-05
189797,0.103295,-0.020522,-0.271119,0.087266,-0.0,-0.0,2.0,0.282024,0.304061,0.282024,0.257174,,,,,,,0.104026,-0.011885,-0.172732,-0.0001,-0.000341,-2.6e-05
189817,0.103295,-0.020522,-0.271119,0.087266,-0.0,-0.0,2.0,0.282024,0.303603,0.282024,0.257756,,,,,,,0.103904,-0.011892,-0.172732,0.024035,-0.00034,-2.6e-05
189837,0.103157,-0.020418,-0.27113,0.087266,-0.0,-0.0,2.0,0.282024,0.304366,0.282024,0.256785,,,,,,,0.103888,-0.011899,-0.172733,-1.3e-05,-0.000329,-2.7e-05
189857,0.103174,-0.020539,-0.271125,0.087266,-0.0,-0.0,2.0,0.282024,0.305497,0.282024,0.25533,,,,,,,0.103904,-0.011906,-0.172733,1.4e-05,-0.00034,-2.6e-05
189877,0.103053,-0.020556,-0.27113,0.087266,-0.0,-0.0,2.0,0.282024,0.304575,0.282024,0.256518,,,,,,,0.103767,-0.011912,-0.172734,0.003283,-0.000341,-2.7e-05
189897,0.102916,-0.020452,-0.271141,0.087266,-0.0,-0.0,2.0,0.282024,0.30536,0.282024,0.255508,,,,,,,0.103767,-0.011919,-0.172734,-0.024061,-0.00033,-2.8e-05
189917,0.102795,-0.020469,-0.271146,0.087266,-0.0,-0.0,2.0,0.282024,0.30373,0.282024,0.257596,,,,,,,0.103526,-0.011925,-0.172735,-9.9e-05,-0.000331,-2.8e-05
189937,0.102674,-0.020485,-0.271151,0.087266,-0.0,-0.0,2.0,0.282024,0.303797,0.282024,0.257511,,,,,,,0.103405,-0.011932,-0.172736,-9.9e-05,-0.000332,-2.9e-05
189957,0.102547,-0.020508,-0.270991,0.087266,-0.0,-0.0,2.0,0.282024,0.303821,0.282024,0.25748,,,,,,,0.103284,-0.011939,-0.172736,-0.001445,-0.000334,-1.3e-05
189977,0.10257,-0.020623,-0.271151,0.087266,-0.0,-0.0,2.0,0.282024,0.305304,0.282024,0.25558,,,,,,,0.103278,-0.011946,-0.172736,0.004533,-0.000345,-2.8e-05
189997,0.102443,-0.020639,-0.271107,0.087266,-0.0,-0.0,2.0,0.282024,0.305027,0.282024,0.255937,,,,,,,0.103157,-0.011952,-0.172737,0.003269,-0.000346,-2.4e-05
190017,0.102443,-0.020639,-0.271107,0.087266,-0.0,-0.0,2.0,0.282024,0.305831,0.282024,0.254896,,,,,,,0.103173,-0.011959,-0.172737,1.4e-05,-0.000345,-2.4e-05
190037,0.102322,-0.020656,-0.271113,0.087266,-0.0,-0.0,2.0,0.282024,0.305981,0.282024,0.254701,,,,,,,0.10319,-0.011966,-0.172738,-0.027328,-0.000346,-2.4e-05
190057,0.102338,-0.020777,-0.271107,0.087266,-0.0,-0.0,2.0,0.282024,0.305823,0.282024,0.254906,,,,,,,0.103069,-0.011973,-0.172738,8e-06,-0.000357,-2.4e-05
190077,0.102185,-0.020552,-0.271124,0.087266,-0.0,-0.0,2.0,0.282024,0.304225,0.282024,0.256965,,,,,,,0.102932,-0.01198,-0.172739,-0.00338,-0.000334,-2.5e-05
190097,0.102064,-0.020569,-0.271129,0.087266,-0.0,-0.0,2.0,0.282024,0.305706,0.282024,0.255059,,,,,,,0.102932,-0.011987,-0.172739,-0.027352,-0.000335,-2.6e-05
190117,0.101976,-0.020827,-0.271123,0.087266,-0.0,-0.0,2.0,0.282024,0.305746,0.282024,0.255007,,,,,,,0.102811,-0.011994,-0.17274,-0.020778,-0.00036,-2.5e-05
190137,0.101839,-0.020723,-0.271134,0.087266,-0.0,-0.0,2.0,0.282024,0.304906,0.282024,0.256093,,,,,,,0.102569,-0.012001,-0.17274,1e-06,-0.000349,-2.6e-05
190157,0.101597,-0.020756,-0.271144,0.087266,-0.0,-0.0,2.0,0.282024,0.304976,0.282024,0.256002,,,,,,,0.102448,-0.012008,-0.172741,-0.024057,-0.000352,-2.7e-05
190177,0.101493,-0.020894,-0.271144,0.087266,-0.0,-0.0,2.0,0.282024,0.304297,0.282024,0.256874,,,,,,,0.102224,-0.012015,-0.172741,-8.6e-05,-0.000365,-2.7e-05
190197,0.101356,-0.02079,-0.271154,0.087266,-0.0,-0.0,2.0,0.282024,0.30559,0.282024,0.255209,,,,,,,0.102102,-0.012022,-0.172742,-0.003269,-0.000354,-2.8e-05
190217,0.101114,-0.020823,-0.271165,0.087266,-0.0,-0.0,2.0,0.282024,0.305324,0.282024,0.255553,,,,,,,0.101965,-0.012029,-0.172743,-0.024074,-0.000356,-2.9e-05
190237,0.100977,-0.020719,-0.271176,0.087266,-0.0,-0.0,2.0,0.282024,0.304848,0.282024,0.256167,,,,,,,0.101724,-0.012037,-0.172743,-0.003282,-0.000345,-3e-05
190257,0.100735,-0.020753,-0.271186,0.087266,-0.0,-0.0,2.0,0.282024,0.303703,0.282024,0.257629,,,,,,,0.101467,-0.012044,-0.172744,-0.000185,-0.000348,-3.1e-05
190277,0.10051,-0.020907,-0.271191,0.087266,-0.0,-0.0,2.0,0.282024,0.30509,0.282024,0.255856,,,,,,,0.101345,-0.012051,-0.172745,-0.020793,-0.000363,-3.2e-05
190297,0.100406,-0.021038,-0.271307,0.087266,-0.0,-0.0,2.0,0.282024,0.304008,0.282024,0.257243,,,,,,,0.101121,-0.012058,-0.172745,0.003186,-0.000375,-4.3e-05
190317,0.100285,-0.021055,-0.271312,0.087266,-0.0,-0.0,2.0,0.282024,0.305499,0.282024,0.255328,,,,,,,0.101016,-0.012065,-0.172746,1.4e-05,-0.000376,-4.4e-05
190337,0.100044,-0.021088,-0.271323,0.087266,-0.0,-0.0,2.0,0.282024,0.304704,0.282024,0.256353,,,,,,,0.100774,-0.012073,-0.172747,1.4e-05,-0.000379,-4.5e-05
190357,0.099786,-0.021001,-0.271339,0.087266,-0.0,-0.0,2.0,0.282024,0.304664,0.282024,0.256404,,,,,,,0.100637,-0.01208,-0.172748,-0.024075,-0.000369,-4.6e-05
190377,0.099665,-0.021018,-0.271344,0.087266,-0.0,-0.0,2.0,0.282024,0.305434,0.282024,0.255411,,,,,,,0.100516,-0.012088,-0.172749,-0.024061,-0.00037,-4.6e-05
190397,0.099407,-0.020924,-0.271476,0.087266,-0.0,-0.0,2.0,0.282024,0.304612,0.282024,0.256471,,,,,,,0.100275,-0.012095,-0.17275,-0.027257,-0.00036,-6e-05
190417,0.099297,-0.021061,-0.271427,0.087266,-0.0,-0.0,2.0,0.282024,0.304563,0.282024,0.256533,,,,,,,0.100027,-0.012102,-0.172751,1e-06,-0.000373,-5.5e-05
190437,0.099055,-0.021095,-0.271437,0.087266,-0.0,-0.0,2.0,0.282024,0.303301,0.282024,0.258139,,,,,,,0.09977,-0.01211,-0.172752,0.003173,-0.000376,-5.6e-05
190457,0.098814,-0.021128,-0.271447,0.087266,-0.0,-0.0,2.0,0.282024,0.30499,0.282024,0.255985,,,,,,,0.099664,-0.012117,-0.172753,-0.02397,-0.000378,-5.6e-05
190477,0.098692,-0.021151,-0.271336,0.087266,-0.0,-0.0,2.0,0.282024,0.304586,0.282024,0.256504,,,,,,,0.099423,-0.012125,-0.172754,-7.8e-05,-0.00038,-4.5e-05
190497,0.098435,-0.021058,-0.271468,0.087266,-0.0,-0.0,2.0,0.282024,0.30355,0.282024,0.257824,,,,,,,0.099182,-0.012132,-0.172755,-0.003371,-0.00037,-5.8e-05
190517,0.098193,-0.021091,-0.271479,0.087266,-0.0,-0.0,2.0,0.282024,0.303284,0.282024,0.25816,,,,,,,0.098924,-0.01214,-0.172756,-9.9e-05,-0.000372,-5.9e-05
190537,0.097935,-0.021004,-0.271494,0.087266,-0.0,-0.0,2.0,0.282024,0.30316,0.282024,0.258317,,,,,,,0.098682,-0.012147,-0.172758,-0.003383,-0.000363,-6.1e-05
190557,0.09771,-0.021158,-0.271499,0.087266,-0.0,-0.0,2.0,0.282024,0.304312,0.282024,0.256854,,,,,,,0.098561,-0.012155,-0.172759,-0.024063,-0.000377,-6.1e-05
190577,0.097452,-0.021071,-0.271515,0.087266,-0.0,-0.0,2.0,0.282024,0.302665,0.282024,0.258938,,,,,,,0.098183,-0.012162,-0.17276,-0.000113,-0.000368,-6.2e-05
190597,0.097106,-0.021242,-0.271525,0.087266,-0.0,-0.0,2.0,0.282024,0.303587,0.282024,0.257777,,,,,,,0.097941,-0.01217,-0.172761,-0.020777,-0.000384,-6.3e-05
190617,0.096727,-0.021172,-0.271545,0.087266,-0.0,-0.0,2.0,0.282024,0.302748,0.282024,0.258834,,,,,,,0.097595,-0.012177,-0.172762,-0.027435,-0.000376,-6.5e-05
190637,0.096479,-0.021205,-0.271506,0.087266,-0.0,-0.0,2.0,0.282024,0.303577,0.282024,0.257789,,,,,,,0.097331,-0.012185,-0.172764,-0.024061,-0.000379,-6.1e-05
190657,0.096101,-0.021134,-0.271527,0.087266,-0.0,-0.0,2.0,0.282024,0.303172,0.282024,0.258302,,,,,,,0.096968,-0.012192,-0.172765,-0.027349,-0.000371,-6.3e-05
190677,0.095842,-0.021047,-0.271542,0.087266,-0.0,-0.0,2.0,0.282024,0.301618,0.282024,0.260242,,,,,,,0.09659,-0.0122,-0.172766,-0.003399,-0.000362,-6.5e-05
190697,0.095617,-0.021201,-0.271547,0.087266,-0.0,-0.0,2.0,0.282024,0.303069,0.282024,0.258432,,,,,,,0.096348,-0.012207,-0.172768,1e-06,-0.000376,-6.5e-05
190717,0.095255,-0.021251,-0.271562,0.087266,-0.0,-0.0,2.0,0.282024,0.301966,0.282024,0.25981,,,,,,,0.09609,-0.012215,-0.172769,-0.020888,-0.000381,-6.6e-05
190737,0.095013,-0.021285,-0.271572,0.087266,-0.0,-0.0,2.0,0.282024,0.303059,0.282024,0.258444,,,,,,,0.095864,-0.012223,-0.17277,-0.024061,-0.000383,-6.7e-05
190757,0.094892,-0.021302,-0.271577,0.087266,-0.0,-0.0,2.0,0.282024,0.30229,0.282024,0.259407,,,,,,,0.095623,-0.01223,-0.172772,-9.9e-05,-0.000384,-6.8e-05
190777,0.094618,-0.021094,-0.271598,0.087266,-0.0,-0.0,2.0,0.282024,0.303474,0.282024,0.25792,,,,,,,0.095485,-0.012238,-0.172773,-0.027349,-0.000363,-6.9e-05
190797,0.094497,-0.021116,-0.271486,0.087266,-0.0,-0.0,2.0,0.282024,0.30387,0.282024,0.257419,,,,,,,0.095365,-0.012245,-0.172774,-0.02745,-0.000364,-5.8e-05
190817,0.094376,-0.021127,-0.271608,0.087266,-0.0,-0.0,2.0,0.282024,0.303713,0.282024,0.257618,,,,,,,0.095227,-0.012252,-0.172776,-0.024062,-0.000365,-7e-05
190837,0.09437,-0.021127,-0.271559,0.087266,-0.0,-0.0,2.0,0.282024,0.303581,0.282024,0.257785,,,,,,,0.095084,-0.01226,-0.172777,0.003372,-0.000364,-6.5e-05
190857,0.094249,-0.021149,-0.271447,0.087266,-0.0,-0.0,2.0,0.282024,0.30372,0.282024,0.257609,,,,,,,0.09498,-0.012267,-0.172778,-8.4e-05,-0.000365,-5.4e-05
190877,0.094128,-0.021166,-0.271452,0.087266,-0.0,-0.0,2.0,0.282024,0.302476,0.282024,0.259175,,,,,,,0.094859,-0.012274,-0.172779,-8.6e-05,-0.000366,-5.4e-05
190897,0.094128,-0.021166,-0.271452,0.087266,-0.0,-0.0,2.0,0.282024,0.30399,0.282024,0.257266,,,,,,,0.094859,-0.012281,-0.17278,-0.0,-0.000365,-5.4e-05
190917,0.093991,-0.021062,-0.271463,0.087266,-0.0,-0.0,2.0,0.282024,0.303371,0.282024,0.25805,,,,,,,0.094721,-0.012289,-0.172781,-1.4e-05,-0.000354,-5.5e-05
190937,0.09387,-0.021079,-0.271468,0.087266,-0.0,-0.0,2.0,0.282024,0.303013,0.282024,0.258501,,,,,,,0.094601,-0.012296,-0.172782,-1.3e-05,-0.000355,-5.5e-05
190957,0.093749,-0.021095,-0.271472,0.087266,-0.0,-0.0,2.0,0.282024,0.302854,0.282024,0.258702,,,,,,,0.094463,-0.012303,-0.172784,0.003273,-0.000356,-5.6e-05
190977,0.093733,-0.020975,-0.271478,0.087266,-0.0,-0.0,2.0,0.282024,0.303816,0.282024,0.257486,,,,,,,0.094463,-0.01231,-0.172785,0.0,-0.000344,-5.6e-05
190997,0.093612,-0.020991,-0.271483,0.087266,-0.0,-0.0,2.0,0.282024,0.303231,0.282024,0.258227,,,,,,,0.094342,-0.012317,-0.172786,1.4e-05,-0.000345,-5.7e-05
191017,0.093612,-0.020991,-0.271483,0.087266,-0.0,-0.0,2.0,0.282024,0.303986,0.282024,0.25727,,,,,,,0.094342,-0.012323,-0.172787,-0.0,-0.000344,-5.7e-05
191037,0.093491,-0.021014,-0.271371,0.087266,-0.0,-0.0,2.0,0.282024,0.302563,0.282024,0.259065,,,,,,,0.094238,-0.01233,-0.172788,-0.003368,-0.000345,-4.5e-05
191057,0.093491,-0.021014,-0.271371,0.087266,-0.0,-0.0,2.0,0.282024,0.303303,0.282024,0.258136,,,,,,,0.094221,-0.012337,-0.172789,-1.3e-05,-0.000345,-4.5e-05
191077,0.093386,-0.021151,-0.271371,0.087266,-0.0,-0.0,2.0,0.282024,0.303464,0.282024,0.257932,,,,,,,0.094101,-0.012344,-0.17279,0.003183,-0.000358,-4.5e-05
191097,0.09325,-0.021041,-0.271497,0.087266,-0.0,-0.0,2.0,0.282024,0.303865,0.282024,0.257424,,,,,,,0.094101,-0.012351,-0.172791,-0.024064,-0.000346,-5.8e-05
191117,0.09325,-0.021041,-0.271497,0.087266,-0.0,-0.0,2.0,0.282024,0.303759,0.282024,0.257559,,,,,,,0.09398,-0.012358,-0.172792,0.0,-0.000345,-5.8e-05
