time_ms,roll,pitch,yaw,roll_rate,pitch_rate,yaw_rate,reference_roll,reference_pitch,reference_yaw,reference_throttle,throttle_1,throttle_2,throttle_3,throttle_4,roll_predicted,pitch_predicted,yaw_predicted,roll_rate_predicted,pitch_rate_predicted,yaw_rate_predicted
493478,-0.008945,0.013165,-0.060137,0.0,-0.001064,1e-05,0.0,-0.0,-0.0,2.0,0.282024,0.281942,0.282024,0.282107,,,,,,
493498,-0.008944,0.013165,-0.060015,-1.4e-05,-0.001074,-0.001055,6.7e-05,-0.0,-0.0,2.0,0.282024,0.281899,0.282024,0.282149,,,,,,
493518,-0.008944,0.013165,-0.060015,-0.001064,0.0,0.0,0.003821,-0.0,-0.0,2.0,0.282024,0.277631,0.282024,0.286321,,,,,,
493538,-0.008944,0.013165,-0.060015,-0.001064,-0.001064,1e-05,0.006016,-0.0,-0.0,2.0,0.282024,0.27622,0.282024,0.287662,,,,,,
493558,-0.009065,0.013162,-0.059892,-0.001078,-0.001074,-0.001055,0.009987,-0.0,-0.0,2.0,0.282024,0.275387,0.282024,0.288444,,,,,,
493578,-0.009187,0.013158,-0.059891,0.0,0.0,0.0,0.012523,-0.0,-0.0,2.0,0.282024,0.271732,0.282024,0.291802,,,,,,
493598,-0.009069,0.013284,-0.059892,-1.4e-05,-1e-05,-0.001064,0.017509,-0.0,-0.0,2.0,0.282024,0.270381,0.282024,0.293014,,,,,,
493618,-0.008699,0.013173,-0.059895,0.0,-0.001064,9e-06,0.019692,-0.0,-0.0,2.0,0.282024,0.269122,0.282024,0.294128,,,,,,
493638,-0.008459,0.013302,-0.059896,-1.4e-05,-0.001073,-0.001055,0.022535,-0.0,-0.0,2.0,0.282024,0.267363,0.282024,0.295663,,,,,,
493658,-0.008216,0.013309,-0.06002,-1.4e-05,-9e-06,-0.001064,0.026416,-0.0,-0.0,2.0,0.282024,0.26484,0.282024,0.297819,,,,,,
493678,-0.007728,0.013324,-0.060023,0.0,-0.001064,8e-06,0.031243,-0.0,-0.0,2.0,0.282024,0.261783,0.282024,0.300363,,,,,,
493698,-0.007359,0.013212,-0.060148,0.001064,0.0,0.0,0.032975,-0.0,-0.0,2.0,0.282024,0.26282,0.282024,0.299508,,,,,,
493718,-0.006871,0.013227,-0.060152,0.00105,-7e-06,-0.001064,0.036587,-0.0,-0.0,2.0,0.282024,0.260626,0.282024,0.301307,,,,,,
493738,-0.006014,0.01313,-0.06028,0.001064,0.0,0.0,0.040403,-0.0,-0.0,2.0,0.282024,0.260559,0.282024,0.301361,,,,,,
493758,-0.004794,0.013167,-0.06041,0.003193,-0.001064,5e-06,0.040403,-0.0,-0.0,2.0,0.282024,0.263459,0.282024,0.298978,,,,,,
493778,-0.003327,0.013089,-0.06042,0.003193,-0.001064,4e-06,0.040403,-0.0,-0.0,2.0,0.282024,0.264463,0.282024,0.298137,,,,,,
493798,-0.001254,0.013152,-0.060678,0.004257,-0.001064,1e-06,0.047613,-0.0,-0.0,2.0,0.282024,0.262891,0.282024,0.299449,,,,,,
493818,0.001311,0.013108,-0.060816,0.005321,0.0,0.0,0.051533,-0.0,-0.0,2.0,0.282024,0.263955,0.282024,0.298564,,,,,,
493838,0.003995,0.013189,-0.060955,0.006385,0.0,0.0,0.05474,-0.0,-0.0,2.0,0.282024,0.265565,0.282024,0.297205,,,,,,
493858,0.007288,0.013291,-0.061108,0.007449,-0.001064,-8e-06,0.056693,-0.0,-0.0,2.0,0.282024,0.268468,0.282024,0.294702,,,,,,
493878,0.011325,0.013049,-0.061374,0.0085,1.2e-05,-0.001064,0.059761,-0.0,-0.0,2.0,0.282024,0.269156,0.282024,0.294099,,,,,,
493898,0.015601,0.012937,-0.061639,0.009592,-1.7e-05,0.001064,0.062467,-0.0,-0.0,2.0,0.282024,0.27407,0.282024,0.289668,,,,,,
493918,0.020484,0.012968,-0.061917,0.010642,0.0,0.0,0.065003,-0.0,-0.0,2.0,0.282024,0.277501,0.282024,0.286445,,,,,,
493938,0.025615,0.012885,-0.062182,0.011706,-0.001064,-2.7e-05,0.066204,-0.0,-0.0,2.0,0.282024,0.28186,0.282024,0.282188,,,,,,
493958,0.031359,0.012702,-0.062577,0.012771,0.0,0.0,0.067955,-0.0,-0.0,2.0,0.282024,0.284415,0.282024,0.279603,,,,,,
493978,0.037465,0.012657,-0.063093,0.012784,-4e-05,0.001064,0.071403,-0.0,-0.0,2.0,0.282024,0.287886,0.282024,0.275982,,,,,,
493998,0.043813,0.012739,-0.063366,0.013848,-4.7e-05,0.001063,0.073094,-0.0,-0.0,2.0,0.282024,0.292465,0.282024,0.270995,,,,,,
494018,0.050407,0.012714,-0.063875,0.014898,-0.001063,-5.4e-05,0.075555,-0.0,-0.0,2.0,0.282024,0.294953,0.282024,0.268181,,,,,,
494038,0.057005,0.01269,-0.064271,0.013821,6.1e-05,-0.001063,0.076608,-0.0,-0.0,2.0,0.282024,0.298264,0.282024,0.264312,,,,,,
494058,0.063963,0.012809,-0.064909,0.013849,-6.8e-05,0.001062,0.078476,-0.0,-0.0,2.0,0.282024,0.301239,0.282024,0.260709,,,,,,
494078,0.070809,0.012676,-0.065292,0.014913,-7.5e-05,0.001062,0.080023,-0.0,-0.0,2.0,0.282024,0.304272,0.282024,0.256905,,,,,,
494098,0.077411,0.012537,-0.065669,0.013835,0.0,0.0,0.080738,-0.0,-0.0,2.0,0.282024,0.307597,0.282024,0.252573,,,,,,
494118,0.083886,0.012523,-0.066167,0.012771,0.0,0.0,0.081792,-0.0,-0.0,2.0,0.282024,0.309054,0.282024,0.250617,,,,,,
494138,0.090001,0.012373,-0.066534,0.01172,-9.6e-05,0.00106,0.083392,-0.0,-0.0,2.0,0.282024,0.311588,0.282024,0.247128,,,,,,
494158,0.09563,0.012327,-0.066794,0.010655,-0.000102,0.001059,0.084041,-0.0,-0.0,2.0,0.282024,0.312737,0.282024,0.245507,,,,,,
494178,0.100762,0.012386,-0.067045,0.009577,-0.001059,-0.000107,0.085277,-0.0,-0.0,2.0,0.282024,0.311702,0.282024,0.246967,,,,,,
494198,0.105284,0.012433,-0.067417,0.008499,-0.000946,-0.00117,0.085781,-0.0,-0.0,2.0,0.282024,0.312361,0.282024,0.24604,,,,,,
494218,0.109198,0.012455,-0.067667,0.00745,0.0,0.0,0.086502,-0.0,-0.0,2.0,0.282024,0.312559,0.282024,0.24576,,,,,,
494238,0.11237,0.012567,-0.067791,0.005321,0.0,0.0,0.086914,-0.0,-0.0,2.0,0.282024,0.310896,0.282024,0.248092,,,,,,
494258,0.114813,0.012648,-0.067795,0.003178,-0.000935,-0.001179,0.087173,-0.0,-0.0,2.0,0.282024,0.310496,0.282024,0.248645,,,,,,
494278,0.116651,0.012595,-0.067916,0.002114,-0.000933,-0.001181,0.087259,-0.0,-0.0,2.0,0.282024,0.309898,0.282024,0.249467,,,,,,
494298,0.117635,0.012514,-0.068039,0.001064,0.0,0.0,0.087249,-0.0,-0.0,2.0,0.282024,0.307239,0.282024,0.253047,,,,,,
494318,0.118122,0.01253,-0.068037,-0.001064,0.0,0.0,0.087008,-0.0,-0.0,2.0,0.282024,0.306029,0.282024,0.254638,,,,,,
494338,0.118006,0.012397,-0.067909,-0.001077,0.000125,-0.001057,0.08674,-0.0,-0.0,2.0,0.282024,0.30446,0.282024,0.256666,,,,,,
494358,0.117385,0.012497,-0.067906,-0.002143,-0.000932,-0.001182,0.086459,-0.0,-0.0,2.0,0.282024,0.302619,0.282024,0.258996,,,,,,
494378,0.116529,0.012591,-0.067916,-0.003208,-0.000933,-0.001181,0.085686,-0.0,-0.0,2.0,0.282024,0.300932,0.282024,0.261087,,,,,,
494398,0.115428,0.012677,-0.067927,-0.003194,-0.001057,-0.000123,0.084892,-0.0,-0.0,2.0,0.282024,0.300754,0.282024,0.261306,,,,,,
494418,0.114322,0.012754,-0.067804,-0.003193,0.0,0.0,0.083957,-0.0,-0.0,2.0,0.282024,0.300633,0.282024,0.261453,,,,,,
494438,0.113214,0.012846,-0.067924,-0.003206,0.00012,-0.001057,0.083408,-0.0,-0.0,2.0,0.282024,0.300307,0.282024,0.261852,,,,,,
494458,0.112122,0.012687,-0.06792,-0.00213,-0.001058,-0.000119,0.082199,-0.0,-0.0,2.0,0.282024,0.302063,0.282024,0.25969,,,,,,
494478,0.111019,0.01265,-0.067911,-0.002128,0.0,0.0,0.082199,-0.0,-0.0,2.0,0.282024,0.301424,0.282024,0.260482,,,,,,
494498,0.110288,0.012626,-0.067913,-0.00213,-0.001058,-0.000117,0.079605,-0.0,-0.0,2.0,0.282024,0.302499,0.282024,0.259146,,,,,,
494518,0.109439,0.012476,-0.067909,-0.002143,-0.000942,-0.001174,0.078797,-0.0,-0.0,2.0,0.282024,0.302457,0.282024,0.259198,,,,,,
494538,0.108825,0.012584,-0.068039,-0.001064,0.0,0.0,0.077222,-0.0,-0.0,2.0,0.282024,0.30303,0.282024,0.25848,,,,,,
494558,0.108452,0.012578,-0.06815,-0.001064,0.0,0.0,0.074741,-0.0,-0.0,2.0,0.282024,0.30424,0.282024,0.256947,,,,,,
494578,0.107968,0.012446,-0.068266,-0.001066,-0.001058,-0.000115,0.072639,-0.0,-0.0,2.0,0.282024,0.306771,0.282024,0.253665,,,,,,
494598,0.10772,0.01256,-0.068273,-0.001066,-0.001058,-0.000114,0.070539,-0.0,-0.0,2.0,0.282024,0.307839,0.282024,0.25225,,,,,,
494618,0.107353,0.012554,-0.068396,-0.001079,-0.000944,-0.001172,0.068314,-0.0,-0.0,2.0,0.282024,0.308884,0.282024,0.250847,,,,,,
494638,0.107231,0.012557,-0.068518,-0.001066,-0.001058,-0.000114,0.066776,-0.0,-0.0,2.0,0.282024,0.309674,0.282024,0.249774,,,,,,
494658,0.106986,0.012555,-0.06864,-0.001064,0.0,0.0,0.064061,-0.0,-0.0,2.0,0.282024,0.311049,0.282024,0.247879,,,,,,
494678,0.106499,0.012539,-0.068642,-0.001077,0.000113,-0.001058,0.062509,-0.0,-0.0,2.0,0.282024,0.311621,0.282024,0.247082,,,,,,
494698,0.106008,0.012406,-0.068745,-0.002142,0.000113,-0.001058,0.058562,-0.0,-0.0,2.0,0.282024,0.31195,0.282024,0.24662,,,,,,
494718,0.105398,0.012392,-0.068869,-0.002128,0.0,0.0,0.056656,-0.0,-0.0,2.0,0.282024,0.312685,0.282024,0.245581,,,,,,
494738,0.104302,0.012355,-0.068872,-0.003193,0.0,0.0,0.053416,-0.0,-0.0,2.0,0.282024,0.312287,0.282024,0.246145,,,,,,
494758,0.103194,0.012445,-0.06899,-0.003194,-0.001059,-0.00011,0.050452,-0.0,-0.0,2.0,0.282024,0.313288,0.282024,0.244721,,,,,,
494778,0.101732,0.012396,-0.068994,-0.004258,-0.001059,-0.000108,0.04733,-0.0,-0.0,2.0,0.282024,0.312643,0.282024,0.24564,,,,,,
494798,0.099894,0.012455,-0.068992,-0.005321,0.0,0.0,0.045746,-0.0,-0.0,2.0,0.282024,0.312503,0.282024,0.245838,,,,,,
494818,0.097937,0.012394,-0.069106,-0.005322,-0.001059,-0.000104,0.043734,-0.0,-0.0,2.0,0.282024,0.310948,0.282024,0.248019,,,,,,
494838,0.095494,0.012311,-0.069098,-0.0064,-0.000958,-0.001161,0.039381,-0.0,-0.0,2.0,0.282024,0.310417,0.282024,0.248754,,,,,,
494858,0.092803,0.012341,-0.069097,-0.006398,9.9e-05,-0.00106,0.037262,-0.0,-0.0,2.0,0.282024,0.310098,0.282024,0.249192,,,,,,
494878,0.089747,0.012359,-0.069095,-0.007463,9.5e-05,-0.00106,0.032764,-0.0,-0.0,2.0,0.282024,0.309303,0.282024,0.250279,,,,,,
494898,0.086569,0.012367,-0.068971,-0.008515,-0.00106,-9.2e-05,0.029939,-0.0,-0.0,2.0,0.282024,0.307475,0.282024,0.252734,,,,,,
494918,0.082907,0.012243,-0.068962,-0.008514,0.0,0.0,0.025722,-0.0,-0.0,2.0,0.282024,0.30617,0.282024,0.254454,,,,,,
494938,0.078744,0.012344,-0.068951,-0.009591,8.4e-05,-0.001061,0.021956,-0.0,-0.0,2.0,0.282024,0.305943,0.282024,0.25475,,,,,,
494958,0.074474,0.012194,-0.068818,-0.010656,-0.000982,-0.001141,0.02017,-0.0,-0.0,2.0,0.282024,0.302884,0.282024,0.258663,,,,,,
494978,0.069824,0.012279,-0.068803,-0.010642,0.0,0.0,0.015726,-0.0,-0.0,2.0,0.282024,0.302786,0.282024,0.258786,,,,,,
494998,0.064817,0.012227,-0.068671,-0.011706,0.0,0.0,0.015726,-0.0,-0.0,2.0,0.282024,0.29818,0.282024,0.264412,,,,,,
495018,0.059562,0.012293,-0.068662,-0.012771,-0.001062,-6.3e-05,0.010095,-0.0,-0.0,2.0,0.282024,0.298401,0.282024,0.264149,,,,,,
495038,0.054063,0.012227,-0.068634,-0.012771,-0.001063,-5.8e-05,0.007631,-0.0,-0.0,2.0,0.282024,0.294922,0.282024,0.268216,,,,,,
495058,0.048319,0.012276,-0.068618,-0.012771,-0.001063,-5.1e-05,0.002527,-0.0,-0.0,2.0,0.282024,0.294539,0.282024,0.268655,,,,,,
495078,0.042576,0.012325,-0.068598,-0.013835,-0.001063,-4.5e-05,-0.001112,-0.0,-0.0,2.0,0.282024,0.291539,0.282024,0.272023,,,,,,
495098,0.036711,0.012367,-0.068452,-0.013848,3.9e-05,-0.001064,-0.003016,-0.0,-0.0,2.0,0.282024,0.290872,0.282024,0.272757,,,,,,
495118,0.030723,0.012409,-0.068546,-0.012771,0.0,0.0,-0.008643,-0.0,-0.0,2.0,0.282024,0.290631,0.282024,0.273022,,,,,,
495138,0.024986,0.012334,-0.068405,-0.012771,0.0,0.0,-0.012296,-0.0,-0.0,2.0,0.282024,0.287586,0.282024,0.2763,,,,,,
495158,0.01912,0.012379,-0.068492,-0.012784,-0.001044,-0.001084,-0.015994,-0.0,-0.0,2.0,0.282024,0.28804,0.282024,0.275817,,,,,,
495178,0.013255,0.012424,-0.068466,-0.012771,-0.001064,-1.4e-05,-0.017794,-0.0,-0.0,2.0,0.282024,0.285511,0.282024,0.278475,,,,,,
495198,0.007512,0.012472,-0.068558,-0.012771,-0.001064,-8e-06,-0.020813,-0.0,-0.0,2.0,0.282024,0.283775,0.282024,0.280258,,,,,,
495218,0.002009,0.01265,-0.068637,-0.012771,-0.001064,-2e-06,-0.026106,-0.0,-0.0,2.0,0.282024,0.283664,0.282024,0.28037,,,,,,
495238,-0.003617,0.012824,-0.068735,-0.011706,-0.001064,4e-06,-0.028099,-0.0,-0.0,2.0,0.282024,0.283179,0.282024,0.280862,,,,,,
495258,-0.008994,0.012882,-0.068819,-0.011706,-0.001064,1e-05,-0.031405,-0.0,-0.0,2.0,0.282024,0.280026,0.282024,0.284002,,,,,,
495278,-0.014132,0.01307,-0.069022,-0.011706,-0.001064,1.5e-05,-0.034079,-0.0,-0.0,2.0,0.282024,0.280284,0.282024,0.283749,,,,,,
495298,-0.019261,0.013011,-0.069224,-0.010642,0.0,0.0,-0.03788,-0.0,-0.0,2.0,0.282024,0.28127,0.282024,0.282775,,,,,,
495318,-0.024147,0.012963,-0.069316,-0.010642,0.0,0.0,-0.041361,-0.0,-0.0,2.0,0.282024,0.280369,0.282024,0.283666,,,,,,
495338,-0.028669,0.012922,-0.069653,-0.010642,0.0,0.0,-0.044656,-0.0,-0.0,2.0,0.282024,0.279579,0.282024,0.284439,,,,,,
495358,-0.033306,0.012755,-0.069855,-0.009578,0.0,0.0,-0.04811,-0.0,-0.0,2.0,0.282024,0.280686,0.282024,0.283353,,,,,,
495378,-0.037587,0.012847,-0.069945,-0.009578,-0.001063,4e-05,-0.04811,-0.0,-0.0,2.0,0.282024,0.277871,0.282024,0.286091,,,,,,
495398,-0.041747,0.012937,-0.070277,-0.009577,-0.001063,4.4e-05,-0.053519,-0.0,-0.0,2.0,0.282024,0.278707,0.282024,0.285286,,,,,,
495418,-0.045899,0.012906,-0.070475,-0.008513,-0.001063,4.9e-05,-0.055921,-0.0,-0.0,2.0,0.282024,0.279428,0.282024,0.284586,,,,,,
495438,-0.049693,0.013009,-0.070685,-0.008499,-0.00101,0.001116,-0.057513,-0.0,-0.0,2.0,0.282024,0.278001,0.282024,0.285966,,,,,,
495458,-0.053482,0.01299,-0.070897,-0.008514,0.0,0.0,-0.061343,-0.0,-0.0,2.0,0.282024,0.278028,0.282024,0.285941,,,,,,
495478,-0.057029,0.012974,-0.071231,-0.008514,0.0,0.0,-0.063925,-0.0,-0.0,2.0,0.282024,0.279259,0.282024,0.28475,,,,,,
495498,-0.060575,0.012958,-0.071564,-0.00745,0.0,0.0,-0.066422,-0.0,-0.0,2.0,0.282024,0.276738,0.282024,0.287172,,,,,,
495518,-0.064115,0.012825,-0.071656,-0.008514,0.0,0.0,-0.067624,-0.0,-0.0,2.0,0.282024,0.275173,0.282024,0.288644,,,,,,
495538,-0.06754,0.012811,-0.071988,-0.008514,0.0,0.0,-0.070175,-0.0,-0.0,2.0,0.282024,0.276484,0.282024,0.287412,,,,,,
495558,-0.070959,0.012677,-0.072202,-0.00745,0.0,0.0,-0.072054,-0.0,-0.0,2.0,0.282024,0.275473,0.282024,0.288363,,,,,,
495578,-0.074143,0.012796,-0.072409,-0.007449,-0.001061,7.9e-05,-0.073954,-0.0,-0.0,2.0,0.282024,0.274623,0.282024,0.289156,,,,,,
495598,-0.077445,0.012787,-0.072617,-0.007449,-0.001061,8.2e-05,-0.074982,-0.0,-0.0,2.0,0.282024,0.273113,0.282024,0.290548,,,,,,
495618,-0.080381,0.012791,-0.072829,-0.00745,0.0,0.0,-0.077991,-0.0,-0.0,2.0,0.282024,0.273161,0.282024,0.290503,,,,,,
495638,-0.083439,0.012784,-0.07316,-0.006384,-0.001061,8.9e-05,-0.079013,-0.0,-0.0,2.0,0.282024,0.273714,0.282024,0.289996,,,,,,
495658,-0.086253,0.012796,-0.07325,-0.006384,-0.00106,9.2e-05,-0.080512,-0.0,-0.0,2.0,0.282024,0.272837,0.282024,0.290799,,,,,,
495678,-0.089067,0.012797,-0.073582,-0.006385,0.0,0.0,-0.081858,-0.0,-0.0,2.0,0.282024,0.27185,0.282024,0.291696,,,,,,
495698,-0.091891,0.012924,-0.0738,-0.006384,-0.00106,9.8e-05,-0.083114,-0.0,-0.0,2.0,0.282024,0.270795,0.282024,0.292644,,,,,,
495718,-0.09434,0.012943,-0.074014,-0.00532,-0.001059,0.0001,-0.083692,-0.0,-0.0,2.0,0.282024,0.269527,0.282024,0.293772,,,,,,
495738,-0.096788,0.012966,-0.074106,-0.005335,-0.000103,-0.001059,-0.084637,-0.0,-0.0,2.0,0.282024,0.268498,0.282024,0.294676,,,,,,
495758,-0.099237,0.012977,-0.074441,-0.005321,0.0,0.0,-0.085789,-0.0,-0.0,2.0,0.282024,0.269568,0.282024,0.293735,,,,,,
495778,-0.101441,0.013009,-0.074535,-0.00532,-0.001059,0.000108,-0.085789,-0.0,-0.0,2.0,0.282024,0.268064,0.282024,0.295054,,,,,,
495798,-0.103269,0.012933,-0.074627,-0.004269,-0.001168,-0.000949,-0.086663,-0.0,-0.0,2.0,0.282024,0.269344,0.282024,0.293933,,,,,,
495818,-0.105113,0.0131,-0.07472,-0.004271,-0.000112,-0.001058,-0.087,-0.0,-0.0,2.0,0.282024,0.26834,0.282024,0.294814,,,,,,
495838,-0.106825,0.013035,-0.074706,-0.004257,0.0,0.0,-0.087232,-0.0,-0.0,2.0,0.282024,0.267325,0.282024,0.295695,,,,,,
495858,-0.108292,0.012992,-0.074452,-0.003205,-0.001173,-0.000943,-0.087257,-0.0,-0.0,2.0,0.282024,0.268278,0.282024,0.294868,,,,,,
495878,-0.109757,0.013071,-0.074178,-0.003205,-0.001174,-0.000941,-0.08721,-0.0,-0.0,2.0,0.282024,0.26721,0.282024,0.295795,,,,,,
495898,-0.110742,0.013163,-0.074047,-0.003207,-0.000118,-0.001058,-0.08712,-0.0,-0.0,2.0,0.282024,0.266496,0.282024,0.29641,,,,,,
495918,-0.111599,0.013259,-0.073904,-0.002142,-0.000119,-0.001058,-0.086478,-0.0,-0.0,2.0,0.282024,0.267439,0.282024,0.295597,,,,,,
495938,-0.112333,0.013366,-0.073642,-0.001063,-0.001058,0.000119,-0.086146,-0.0,-0.0,2.0,0.282024,0.266703,0.282024,0.296232,,,,,,
495958,-0.113062,0.013352,-0.073387,-0.001077,-0.001177,-0.000937,-0.085765,-0.0,-0.0,2.0,0.282024,0.267913,0.282024,0.295186,,,,,,
495978,-0.113189,0.013469,-0.073378,-0.001077,-0.001178,-0.000937,-0.084428,-0.0,-0.0,2.0,0.282024,0.266902,0.282024,0.296061,,,,,,
495998,-0.11331,0.013472,-0.073254,-0.001064,0.0,0.0,-0.083822,-0.0,-0.0,2.0,0.282024,0.266425,0.282024,0.29647,,,,,,
496018,-0.113304,0.013364,-0.073018,0.0,0.0,0.0,-0.082705,-0.0,-0.0,2.0,0.282024,0.267612,0.282024,0.295447,,,,,,
496038,-0.113186,0.013497,-0.072892,-1.3e-05,-0.001178,-0.000937,-0.081444,-0.0,-0.0,2.0,0.282024,0.266821,0.282024,0.29613,,,,,,
496058,-0.112938,0.013384,-0.072903,-1.3e-05,-0.001177,-0.000938,-0.079954,-0.0,-0.0,2.0,0.282024,0.265988,0.282024,0.296845,,,,,,
496078,-0.112816,0.013389,-0.072905,-0.001064,0.0,0.0,-0.079089,-0.0,-0.0,2.0,0.282024,0.265474,0.282024,0.297283,,,,,,
496098,-0.112572,0.013405,-0.072787,2e-06,-0.001057,0.00012,-0.077989,-0.0,-0.0,2.0,0.282024,0.26485,0.282024,0.297811,,,,,,
496118,-0.112698,0.013529,-0.072657,-0.001077,-0.001177,-0.000938,-0.075519,-0.0,-0.0,2.0,0.282024,0.260991,0.282024,0.301011,,,,,,
496138,-0.11282,0.013518,-0.072776,-0.001079,-0.00012,-0.001058,-0.07402,-0.0,-0.0,2.0,0.282024,0.259857,0.282024,0.301929,,,,,,
496158,-0.112943,0.013506,-0.072896,-0.001064,0.0,0.0,-0.071352,-0.0,-0.0,2.0,0.282024,0.257843,0.282024,0.303535,,,,,,
496178,-0.113064,0.013502,-0.072894,0.0,0.0,0.0,-0.069864,-0.0,-0.0,2.0,0.282024,0.258754,0.282024,0.302812,,,,,,
496198,-0.112942,0.013513,-0.072774,-1.3e-05,-0.001177,-0.000938,-0.067538,-0.0,-0.0,2.0,0.282024,0.257125,0.282024,0.3041,,,,,,
496218,-0.112578,0.013513,-0.073024,-1.3e-05,-0.001177,-0.000938,-0.065151,-0.0,-0.0,2.0,0.282024,0.255666,0.282024,0.305237,,,,,,
496238,-0.11233,0.013394,-0.073156,0.0,0.0,0.0,-0.062649,-0.0,-0.0,2.0,0.282024,0.253998,0.282024,0.306518,,,,,,
496258,-0.112092,0.013518,-0.073275,0.0,0.0,0.0,-0.060886,-0.0,-0.0,2.0,0.282024,0.252864,0.282024,0.307377,,,,,,
496278,-0.111971,0.013516,-0.073399,-1.3e-05,-0.001176,-0.000939,-0.058179,-0.0,-0.0,2.0,0.282024,0.250887,0.282024,0.308854,,,,,,
496298,-0.111728,0.013511,-0.073646,-1.3e-05,-0.001176,-0.000939,-0.05552,-0.0,-0.0,2.0,0.282024,0.249072,0.282024,0.310186,,,,,,
496318,-0.111486,0.013507,-0.073893,2e-06,-0.001058,0.000118,-0.053356,-0.0,-0.0,2.0,0.282024,0.247624,0.282024,0.311233,,,,,,
496338,-0.111243,0.013509,-0.074019,1.4e-05,0.000118,0.001058,-0.049112,-0.0,-0.0,2.0,0.282024,0.24447,0.282024,0.313462,,,,,,
496358,-0.111004,0.013634,-0.074137,2e-06,-0.001058,0.000118,-0.047231,-0.0,-0.0,2.0,0.282024,0.243143,0.282024,0.314382,,,,,,
496378,-0.110513,0.013524,-0.074274,0.001052,-0.001175,-0.00094,-0.043722,-0.0,-0.0,2.0,0.282024,0.243052,0.282024,0.314444,,,,,,
496398,-0.109898,0.013533,-0.074514,0.001064,0.0,0.0,-0.040343,-0.0,-0.0,2.0,0.282024,0.240838,0.282024,0.315951,,,,,,
496418,-0.108924,0.013571,-0.07453,0.001064,0.0,0.0,-0.036972,-0.0,-0.0,2.0,0.282024,0.238888,0.282024,0.317252,,,,,,
496438,-0.107694,0.013502,-0.074422,0.002128,0.0,0.0,-0.036972,-0.0,-0.0,2.0,0.282024,0.242167,0.282024,0.31505,,,,,,
496458,-0.106359,0.013676,-0.074438,0.003178,-0.000113,-0.001058,-0.030866,-0.0,-0.0,2.0,0.282024,0.240636,0.282024,0.316087,,,,,,
496478,-0.104526,0.013739,-0.074577,0.004242,-0.000111,-0.001059,-0.028781,-0.0,-0.0,2.0,0.282024,0.242733,0.282024,0.314663,,,,,,
496498,-0.102444,0.013696,-0.074604,0.005323,-0.001059,0.000109,-0.024176,-0.0,-0.0,2.0,0.282024,0.24304,0.282024,0.314453,,,,,,
496518,-0.099996,0.013668,-0.074636,0.005324,-0.002118,0.000213,-0.02138,-0.0,-0.0,2.0,0.282024,0.242727,0.282024,0.314667,,,,,,
496538,-0.09694,0.013663,-0.074677,0.006388,-0.002118,0.000206,-0.017154,-0.0,-0.0,2.0,0.282024,0.241792,0.282024,0.315305,,,,,,
496558,-0.093636,0.013539,-0.074848,0.006372,-0.001159,-0.00096,-0.01347,-0.0,-0.0,2.0,0.282024,0.246056,0.282024,0.312349,,,,,,
496578,-0.089847,0.013678,-0.075,0.008514,0.0,0.0,-0.011638,-0.0,-0.0,2.0,0.282024,0.249776,0.282024,0.309672,,,,,,
496598,-0.08569,0.013589,-0.075181,0.009578,0.0,0.0,-0.007994,-0.0,-0.0,2.0,0.282024,0.252333,0.282024,0.307777,,,,,,
496618,-0.08104,0.013512,-0.075475,0.010629,-0.001147,-0.000975,-0.005749,-0.0,-0.0,2.0,0.282024,0.256248,0.282024,0.304786,,,,,,
496638,-0.075787,0.013457,-0.075909,0.011708,-0.001061,8.1e-05,-0.00253,-0.0,-0.0,2.0,0.282024,0.257734,0.282024,0.303621,,,,,,
496658,-0.070407,0.013407,-0.076328,0.011707,-0.001062,7.5e-05,0.002778,-0.0,-0.0,2.0,0.282024,0.259858,0.282024,0.301928,,,,,,
496678,-0.064421,0.013387,-0.076644,0.011707,-0.001062,6.9e-05,0.006154,-0.0,-0.0,2.0,0.282024,0.263746,0.282024,0.298738,,,,,,
496698,-0.058066,0.013379,-0.077067,0.012785,6.2e-05,0.001063,0.008727,-0.0,-0.0,2.0,0.282024,0.268359,0.282024,0.294797,,,,,,
496718,-0.051837,0.013368,-0.077499,0.013835,0.0,0.0,0.013161,-0.0,-0.0,2.0,0.282024,0.269586,0.282024,0.293719,,,,,,
496738,-0.044988,0.01314,-0.077938,0.014899,0.0,0.0,0.016776,-0.0,-0.0,2.0,0.282024,0.271774,0.282024,0.291764,,,,,,
496758,-0.038014,0.01292,-0.078236,0.014899,0.0,0.0,0.020456,-0.0,-0.0,2.0,0.282024,0.27587,0.282024,0.287991,,,,,,
496778,-0.030932,0.012952,-0.078552,0.014899,0.0,0.0,0.022252,-0.0,-0.0,2.0,0.282024,0.279317,0.282024,0.284695,,,,,,
496798,-0.023604,0.012994,-0.078851,0.014899,0.0,0.0,0.025972,-0.0,-0.0,2.0,0.282024,0.281635,0.282024,0.282413,,,,,,
496818,-0.016394,0.01291,-0.079144,0.015964,-0.001064,1.7e-05,0.030801,-0.0,-0.0,2.0,0.282024,0.284958,0.282024,0.279046,,,,,,
496838,-0.009194,0.013073,-0.079443,0.014899,-0.001064,1e-05,0.032759,-0.0,-0.0,2.0,0.282024,0.286421,0.282024,0.277527,,,,,,
496858,-0.002106,0.012989,-0.079615,0.014899,-0.001064,2e-06,0.03633,-0.0,-0.0,2.0,0.282024,0.288625,0.282024,0.275193,,,,,,
496878,0.004861,0.0129,-0.07978,0.013821,5e-06,-0.001064,0.040824,-0.0,-0.0,2.0,0.282024,0.290144,0.282024,0.273554,,,,,,
496898,0.011578,0.012924,-0.08006,0.013835,0.0,0.0,0.04276,-0.0,-0.0,2.0,0.282024,0.29129,0.282024,0.272298,,,,,,
496918,0.017814,0.012808,-0.080102,0.012757,1.9e-05,-0.001064,0.045927,-0.0,-0.0,2.0,0.282024,0.291436,0.282024,0.272137,,,,,,
496938,0.02393,0.012566,-0.080366,0.011706,0.0,0.0,0.04901,-0.0,-0.0,2.0,0.282024,0.293251,0.282024,0.270114,,,,,,
496958,0.029789,0.012682,-0.080643,0.011706,0.0,0.0,0.052364,-0.0,-0.0,2.0,0.282024,0.293055,0.282024,0.270335,,,,,,
496978,0.035167,0.012654,-0.08067,0.010642,-0.001064,-3.7e-05,0.054018,-0.0,-0.0,2.0,0.282024,0.295269,0.282024,0.267818,,,,,,
496998,0.040294,0.012743,-0.080938,0.009577,-0.001063,-4.3e-05,0.057713,-0.0,-0.0,2.0,0.282024,0.294411,0.282024,0.2688,,,,,,
497018,0.045054,0.012815,-0.081066,0.009564,-0.001015,-0.001111,0.059124,-0.0,-0.0,2.0,0.282024,0.294722,0.282024,0.268445,,,,,,
497038,0.049579,0.012753,-0.081082,0.008514,0.0,0.0,0.061774,-0.0,-0.0,2.0,0.282024,0.294108,0.282024,0.269146,,,,,,
497058,0.053731,0.012801,-0.08122,0.008514,0.0,0.0,0.065331,-0.0,-0.0,2.0,0.282024,0.294487,0.282024,0.268714,,,,,,
497078,0.057528,0.012592,-0.081349,0.00745,0.0,0.0,0.066761,-0.0,-0.0,2.0,0.282024,0.294188,0.282024,0.269054,,,,,,
497098,0.061071,0.012617,-0.081482,0.006385,0.0,0.0,0.06912,-0.0,-0.0,2.0,0.282024,0.293155,0.282024,0.270222,,,,,,
497118,0.064493,0.012637,-0.081615,0.006385,0.0,0.0,0.07134,-0.0,-0.0,2.0,0.282024,0.293877,0.282024,0.269408,,,,,,
497138,0.067553,0.012521,-0.081741,0.00532,-0.001062,-7.2e-05,0.072376,-0.0,-0.0,2.0,0.282024,0.295112,0.282024,0.267998,,,,,,
497158,0.070238,0.012634,-0.081876,0.00532,-0.001062,-7.5e-05,0.073792,-0.0,-0.0,2.0,0.282024,0.294136,0.282024,0.269114,,,,,,
497178,0.07268,0.012615,-0.08199,0.004256,-0.001061,-7.7e-05,0.0771,-0.0,-0.0,2.0,0.282024,0.291904,0.282024,0.271619,,,,,,
497198,0.074878,0.012709,-0.082124,0.003192,-0.001061,-8e-05,0.077931,-0.0,-0.0,2.0,0.282024,0.292731,0.282024,0.270697,,,,,,
497218,0.076837,0.012667,-0.082131,0.003193,0.0,0.0,0.079575,-0.0,-0.0,2.0,0.282024,0.291186,0.282024,0.272412,,,,,,
497238,0.078427,0.01261,-0.082124,0.003193,0.0,0.0,0.080636,-0.0,-0.0,2.0,0.282024,0.291506,0.282024,0.27206,,,,,,
497258,0.079899,0.012548,-0.082131,0.002114,-0.000976,-0.001146,0.082179,-0.0,-0.0,2.0,0.282024,0.289693,0.282024,0.274043,,,,,,
497278,0.081244,0.012485,-0.082245,0.002114,-0.000974,-0.001147,0.083365,-0.0,-0.0,2.0,0.282024,0.289813,0.282024,0.273913,,,,,,
497298,0.082346,0.012408,-0.082238,0.002114,-0.000973,-0.001148,0.084388,-0.0,-0.0,2.0,0.282024,0.289859,0.282024,0.273863,,,,,,
497318,0.083442,0.012575,-0.082255,0.001063,-0.001061,-8.9e-05,0.085355,-0.0,-0.0,2.0,0.282024,0.288153,0.282024,0.275697,,,,,,
497338,0.084539,0.012619,-0.082253,0.00105,-0.000971,-0.00115,0.085923,-0.0,-0.0,2.0,0.282024,0.290262,0.282024,0.273425,,,,,,
497358,0.085276,0.012645,-0.082145,0.002114,-0.00097,-0.001151,0.086463,-0.0,-0.0,2.0,0.282024,0.288601,0.282024,0.275219,,,,,,
497378,0.086372,0.012694,-0.082263,0.00105,-0.000968,-0.001152,0.08686,-0.0,-0.0,2.0,0.282024,0.289054,0.282024,0.274733,,,,,,
497398,0.087225,0.012729,-0.082261,0.001064,0.0,0.0,0.087058,-0.0,-0.0,2.0,0.282024,0.29121,0.282024,0.272386,,,,,,
497418,0.088084,0.012636,-0.082132,0.002128,0.0,0.0,0.087258,-0.0,-0.0,2.0,0.282024,0.289838,0.282024,0.273885,,,,,,
497438,0.088942,0.012672,-0.082145,0.001051,9.5e-05,-0.00106,0.08723,-0.0,-0.0,2.0,0.282024,0.290383,0.282024,0.273293,,,,,,
497458,0.089921,0.012595,-0.082258,0.001064,0.0,0.0,0.087046,-0.0,-0.0,2.0,0.282024,0.291115,0.282024,0.272491,,,,,,
497478,0.090652,0.012624,-0.082255,0.002127,-0.00106,-9.6e-05,0.086888,-0.0,-0.0,2.0,0.282024,0.291656,0.282024,0.271895,,,,,,
497498,0.091633,0.012659,-0.082146,0.00105,-0.000962,-0.001157,0.086446,-0.0,-0.0,2.0,0.282024,0.292496,0.282024,0.27096,,,,,,
497518,0.092486,0.012694,-0.082143,0.00105,-0.000961,-0.001158,0.08568,-0.0,-0.0,2.0,0.282024,0.293494,0.282024,0.269841,,,,,,
497538,0.093466,0.01274,-0.082277,0.002127,-0.00106,-9.9e-05,0.085199,-0.0,-0.0,2.0,0.282024,0.294373,0.282024,0.268844,,,,,,
497558,0.094197,0.012769,-0.082274,0.001051,0.0001,-0.00106,0.084448,-0.0,-0.0,2.0,0.282024,0.295258,0.282024,0.267831,,,,,,
497578,0.094923,0.012921,-0.082278,0.001064,0.0,0.0,0.083042,-0.0,-0.0,2.0,0.282024,0.296505,0.282024,0.266385,,,,,,
497598,0.095659,0.012828,-0.082269,0.001049,-0.000958,-0.001161,0.082358,-0.0,-0.0,2.0,0.282024,0.29737,0.282024,0.265371,,,,,,
497618,0.096156,0.012733,-0.082398,0.0,0.0,0.0,0.081071,-0.0,-0.0,2.0,0.282024,0.29673,0.282024,0.266122,,,,,,
497638,0.096521,0.012748,-0.082397,-1e-06,-0.001059,-0.000103,0.079641,-0.0,-0.0,2.0,0.282024,0.29779,0.282024,0.264875,,,,,,
497658,0.096771,0.01263,-0.082269,-1.5e-05,-0.000956,-0.001162,0.078055,-0.0,-0.0,2.0,0.282024,0.298849,0.282024,0.263614,,,,,,
497678,0.096765,0.012758,-0.082396,-0.001078,0.000103,-0.001059,0.077018,-0.0,-0.0,2.0,0.282024,0.299476,0.282024,0.262859,,,,,,
497698,0.096765,0.012758,-0.082396,-0.001066,-0.001059,-0.000103,0.074652,-0.0,-0.0,2.0,0.282024,0.299182,0.282024,0.263214,,,,,,
497718,0.096517,0.012864,-0.082281,-0.001079,-0.000957,-0.001162,0.073649,-0.0,-0.0,2.0,0.282024,0.299604,0.282024,0.262704,,,,,,
497738,0.096025,0.012966,-0.082289,-0.001078,0.000102,-0.001059,0.070485,-0.0,-0.0,2.0,0.282024,0.301159,0.282024,0.260808,,,,,,
497758,0.095655,0.012944,-0.082154,-0.001079,-0.000958,-0.001161,0.068811,-0.0,-0.0,2.0,0.282024,0.301915,0.282024,0.259873,,,,,,
497778,0.095289,0.01293,-0.082155,-0.001078,0.000101,-0.001059,0.06628,-0.0,-0.0,2.0,0.282024,0.303188,0.282024,0.258281,,,,,,
497798,0.094797,0.013032,-0.082162,-0.001066,-0.001059,-0.000101,0.06377,-0.0,-0.0,2.0,0.282024,0.3027,0.282024,0.258895,,,,,,
497818,0.094316,0.012879,-0.081915,-0.002143,-0.000959,-0.00116,0.062481,-0.0,-0.0,2.0,0.282024,0.304785,0.282024,0.256249,,,,,,
497838,0.093829,0.012859,-0.081917,-0.002143,-0.00096,-0.001159,0.059799,-0.0,-0.0,2.0,0.282024,0.306035,0.282024,0.25463,,,,,,
497858,0.093205,0.013072,-0.081794,-0.002142,9.9e-05,-0.00106,0.058371,-0.0,-0.0,2.0,0.282024,0.304884,0.282024,0.256121,,,,,,
497878,0.092475,0.013037,-0.081675,-0.002128,0.0,0.0,0.055654,-0.0,-0.0,2.0,0.282024,0.305992,0.282024,0.254686,,,,,,
497898,0.091741,0.013118,-0.081439,-0.002144,-0.000962,-0.001157,0.051506,-0.0,-0.0,2.0,0.282024,0.307923,0.282024,0.252138,,,,,,
497918,0.090763,0.013067,-0.081184,-0.003208,-0.000963,-0.001156,0.04837,-0.0,-0.0,2.0,0.282024,0.309135,0.282024,0.250507,,,,,,
497938,0.089541,0.013135,-0.081072,-0.003207,9.5e-05,-0.00106,0.045581,-0.0,-0.0,2.0,0.282024,0.308406,0.282024,0.251491,,,,,,
497958,0.088197,0.01307,-0.080817,-0.004271,9.4e-05,-0.00106,0.042358,-0.0,-0.0,2.0,0.282024,0.307852,0.282024,0.252233,,,,,,
497978,0.086488,0.01299,-0.080563,-0.004271,9.2e-05,-0.00106,0.038955,-0.0,-0.0,2.0,0.282024,0.308804,0.282024,0.250955,,,,,,
497998,0.084414,0.013015,-0.080209,-0.005335,9e-05,-0.001061,0.035366,-0.0,-0.0,2.0,0.282024,0.308026,0.282024,0.252,,,,,,
498018,0.082208,0.013161,-0.079965,-0.005336,-0.000973,-0.001148,0.033677,-0.0,-0.0,2.0,0.282024,0.307756,0.282024,0.252361,,,,,,
498038,0.079646,0.013045,-0.07959,-0.007465,-0.000976,-0.001146,0.029377,-0.0,-0.0,2.0,0.282024,0.30712,0.282024,0.253205,,,,,,
498058,0.076588,0.013155,-0.079224,-0.007465,-0.00098,-0.001143,0.029377,-0.0,-0.0,2.0,0.282024,0.303745,0.282024,0.257576,,,,,,
498078,0.073286,0.013251,-0.078736,-0.008543,-0.000906,-0.002201,0.024976,-0.0,-0.0,2.0,0.282024,0.304375,0.282024,0.256774,,,,,,
498098,0.069614,0.013339,-0.078353,-0.009607,-0.000914,-0.002198,0.01977,-0.0,-0.0,2.0,0.282024,0.303612,0.282024,0.257745,,,,,,
498118,0.065702,0.013419,-0.077982,-0.009592,7e-05,-0.001062,0.016927,-0.0,-0.0,2.0,0.282024,0.301341,0.282024,0.260583,,,,,,
498138,0.061309,0.013356,-0.077483,-0.009592,6.5e-05,-0.001062,0.012553,-0.0,-0.0,2.0,0.282024,0.299639,0.282024,0.262663,,,,,,
498158,0.05691,0.013418,-0.076986,-0.010657,6.1e-05,-0.001063,0.008865,-0.0,-0.0,2.0,0.282024,0.299224,0.282024,0.263163,,,,,,
498178,0.052147,0.013345,-0.076468,-0.011721,5.5e-05,-0.001063,0.005093,-0.0,-0.0,2.0,0.282024,0.296975,0.282024,0.265835,,,,,,
498198,0.047017,0.013383,-0.075964,-0.011721,-0.001013,-0.001113,0.003256,-0.0,-0.0,2.0,0.282024,0.295015,0.282024,0.268109,,,,,,
498218,0.041642,0.013414,-0.075456,-0.012786,-0.001019,-0.001108,0.001303,-0.0,-0.0,2.0,0.282024,0.291222,0.282024,0.272373,,,,,,
498238,0.036147,0.013441,-0.074822,-0.0128,-0.000987,-0.002166,-0.002272,-0.0,-0.0,2.0,0.282024,0.290026,0.282024,0.273681,,,,,,
498258,0.030525,0.01359,-0.074308,-0.0128,-0.000999,-0.00216,-0.008998,-0.0,-0.0,2.0,0.282024,0.2907,0.282024,0.272946,,,,,,
498278,0.024785,0.013616,-0.073787,-0.01385,-0.001038,-0.00109,-0.011135,-0.0,-0.0,2.0,0.282024,0.286738,0.282024,0.277194,,,,,,
498298,0.018928,0.013519,-0.073274,-0.012785,2e-05,-0.001064,-0.013845,-0.0,-0.0,2.0,0.282024,0.286539,0.282024,0.277402,,,,,,
498318,0.012941,0.013662,-0.072624,-0.0128,-0.001037,-0.002142,-0.018142,-0.0,-0.0,2.0,0.282024,0.285483,0.282024,0.278503,,,,,,
498338,0.00708,0.013692,-0.072104,-0.013864,-0.001049,-0.002136,-0.021802,-0.0,-0.0,2.0,0.282024,0.282309,0.282024,0.281739,,,,,,
498358,0.001218,0.013725,-0.071688,-0.01385,-0.001063,-0.001066,-0.025399,-0.0,-0.0,2.0,0.282024,0.28269,0.282024,0.281356,,,,,,
498378,-0.004769,0.013877,-0.07116,-0.012785,-0.001069,-0.001059,-0.027228,-0.0,-0.0,2.0,0.282024,0.280031,0.282024,0.283997,,,,,,
498398,-0.01063,0.013915,-0.070628,-0.0128,-0.001087,-0.002117,-0.027228,-0.0,-0.0,2.0,0.282024,0.276194,0.282024,0.287686,,,,,,
498418,-0.016249,0.013964,-0.070228,-0.0128,-0.001099,-0.002111,-0.035402,-0.0,-0.0,2.0,0.282024,0.277891,0.282024,0.286072,,,,,,
498438,-0.021867,0.014014,-0.069812,-0.011721,-0.001087,-0.001041,-0.037058,-0.0,-0.0,2.0,0.282024,0.275294,0.282024,0.288531,,,,,,
498458,-0.02748,0.013944,-0.069395,-0.012785,-0.001093,-0.001035,-0.040516,-0.0,-0.0,2.0,0.282024,0.27384,0.282024,0.28988,,,,,,
498478,-0.032859,0.014129,-0.068986,-0.012785,-0.001099,-0.001029,-0.044775,-0.0,-0.0,2.0,0.282024,0.275023,0.282024,0.288784,,,,,,
498498,-0.038113,0.014197,-0.068576,-0.011721,-0.001104,-0.001023,-0.047978,-0.0,-0.0,2.0,0.282024,0.273663,0.282024,0.290043,,,,,,
498518,-0.043363,0.014267,-0.06815,-0.011721,-0.001109,-0.001017,-0.049567,-0.0,-0.0,2.0,0.282024,0.271209,0.282024,0.292274,,,,,,
498538,-0.048373,0.014348,-0.067737,-0.011721,-0.001114,-0.001012,-0.052612,-0.0,-0.0,2.0,0.282024,0.269879,0.282024,0.29346,,,,,,
498558,-0.053139,0.014435,-0.067446,-0.010658,-5.7e-05,-0.001063,-0.056046,-0.0,-0.0,2.0,0.282024,0.270918,0.282024,0.292534,,,,,,
498578,-0.057901,0.014405,-0.067033,-0.010657,-0.001124,-0.001001,-0.056046,-0.0,-0.0,2.0,0.282024,0.267672,0.282024,0.295395,,,,,,
498598,-0.062423,0.014503,-0.066739,-0.009592,-0.001129,-0.000996,-0.060762,-0.0,-0.0,2.0,0.282024,0.267775,0.282024,0.295306,,,,,,
498618,-0.066693,0.014366,-0.066455,-0.009592,-0.001133,-0.000991,-0.06279,-0.0,-0.0,2.0,0.282024,0.26826,0.282024,0.294884,,,,,,
498638,-0.070732,0.014605,-0.066159,-0.009594,-7.5e-05,-0.001062,-0.066115,-0.0,-0.0,2.0,0.282024,0.267743,0.282024,0.295334,,,,,,
498658,-0.074644,0.014726,-0.065867,-0.008528,-0.001141,-0.000982,-0.067412,-0.0,-0.0,2.0,0.282024,0.267915,0.282024,0.295184,,,,,,
498678,-0.078435,0.014731,-0.065591,-0.008544,-0.001228,-0.002039,-0.069929,-0.0,-0.0,2.0,0.282024,0.267035,0.282024,0.295946,,,,,,
498698,-0.081735,0.014747,-0.065431,-0.00745,0.0,0.0,-0.072131,-0.0,-0.0,2.0,0.282024,0.26828,0.282024,0.294867,,,,,,
498718,-0.084916,0.014895,-0.065144,-0.006401,-9e-05,-0.001061,-0.07418,-0.0,-0.0,2.0,0.282024,0.267475,0.282024,0.295566,,,,,,
498738,-0.087724,0.014807,-0.064994,-0.0064,-0.001153,-0.000967,-0.075926,-0.0,-0.0,2.0,0.282024,0.268713,0.282024,0.294488,,,,,,
498758,-0.090404,0.014728,-0.064712,-0.005337,-9.6e-05,-0.00106,-0.077441,-0.0,-0.0,2.0,0.282024,0.267912,0.282024,0.295187,,,,,,
498778,-0.092726,0.014651,-0.064689,-0.005321,0.0,0.0,-0.078459,-0.0,-0.0,2.0,0.282024,0.26901,0.282024,0.294226,,,,,,
498798,-0.094928,0.014712,-0.064419,-0.00532,-0.001059,0.000101,-0.080526,-0.0,-0.0,2.0,0.282024,0.270839,0.282024,0.292605,,,,,,
498818,-0.096883,0.014653,-0.06428,-0.004255,-0.001059,0.000103,-0.081485,-0.0,-0.0,2.0,0.282024,0.270164,0.282024,0.293207,,,,,,
498838,-0.098842,0.014711,-0.064256,-0.004287,-0.001269,-0.002013,-0.082919,-0.0,-0.0,2.0,0.282024,0.26785,0.282024,0.295241,,,,,,
498858,-0.10043,0.01478,-0.064226,-0.004255,-0.001059,0.000107,-0.084016,-0.0,-0.0,2.0,0.282024,0.2695,0.282024,0.293795,,,,,,
498878,-0.102024,0.014856,-0.064085,-0.004257,0.0,0.0,-0.084963,-0.0,-0.0,2.0,0.282024,0.271007,0.282024,0.292454,,,,,,
498898,-0.103617,0.014932,-0.063944,-0.003207,-0.001169,-0.000949,-0.085576,-0.0,-0.0,2.0,0.282024,0.270315,0.282024,0.293072,,,,,,
498918,-0.104958,0.014887,-0.063923,-0.003207,-0.00117,-0.000947,-0.085576,-0.0,-0.0,2.0,0.282024,0.267439,0.282024,0.295597,,,,,,
498938,-0.106183,0.014841,-0.064037,-0.003193,0.0,0.0,-0.086365,-0.0,-0.0,2.0,0.282024,0.269133,0.282024,0.294119,,,,,,
498958,-0.107645,0.014798,-0.063892,-0.003193,0.0,0.0,-0.08677,-0.0,-0.0,2.0,0.282024,0.268413,0.282024,0.29475,,,,,,
498978,-0.108747,0.014769,-0.063764,-0.002127,-0.001058,0.000116,-0.087175,-0.0,-0.0,2.0,0.282024,0.267877,0.282024,0.295217,,,,,,
498998,-0.109969,0.01485,-0.063738,-0.003222,-0.001291,-0.001999,-0.087243,-0.0,-0.0,2.0,0.282024,0.267138,0.282024,0.295858,,,,,,
499018,-0.110829,0.014816,-0.063857,-0.003193,0.0,0.0,-0.087205,-0.0,-0.0,2.0,0.282024,0.266517,0.282024,0.296392,,,,,,
499038,-0.111929,0.014908,-0.063711,-0.002127,-0.001058,0.000119,-0.08698,-0.0,-0.0,2.0,0.282024,0.267584,0.282024,0.295472,,,,,,
499058,-0.112792,0.015002,-0.063702,-0.002143,-0.001177,-0.000938,-0.086606,-0.0,-0.0,2.0,0.282024,0.266701,0.282024,0.296234,,,,,,
499078,-0.113646,0.014967,-0.063809,-0.002144,-0.000121,-0.001057,-0.08635,-0.0,-0.0,2.0,0.282024,0.263958,0.282024,0.298561,,,,,,
499098,-0.114256,0.014939,-0.063921,-0.002128,0.0,0.0,-0.085681,-0.0,-0.0,2.0,0.282024,0.265068,0.282024,0.297626,,,,,,
499118,-0.114867,0.014805,-0.063807,-0.002127,-0.001057,0.000122,-0.084979,-0.0,-0.0,2.0,0.282024,0.266151,0.282024,0.296706,,,,,,
499138,-0.115476,0.014785,-0.063797,-0.001062,-0.001057,0.000123,-0.083856,-0.0,-0.0,2.0,0.282024,0.264916,0.282024,0.297755,,,,,,
499158,-0.115968,0.014883,-0.063904,-0.00108,-0.000123,-0.001057,-0.082816,-0.0,-0.0,2.0,0.282024,0.26387,0.282024,0.298635,,,,,,
499178,-0.11609,0.014872,-0.064023,-0.001064,0.0,0.0,-0.081903,-0.0,-0.0,2.0,0.282024,0.263141,0.282024,0.299242,,,,,,
499198,-0.116209,0.014739,-0.06415,0.0,0.0,0.0,-0.080361,-0.0,-0.0,2.0,0.282024,0.261969,0.282024,0.30021,,,,,,
499218,-0.116456,0.01486,-0.064017,2e-06,-0.001057,0.000124,-0.07882,-0.0,-0.0,2.0,0.282024,0.260665,0.282024,0.301275,,,,,,
499238,-0.11646,0.014974,-0.064132,-0.001078,-0.001181,-0.000933,-0.077124,-0.0,-0.0,2.0,0.282024,0.259441,0.282024,0.302263,,,,,,
499258,-0.116332,0.01472,-0.064391,-0.001064,0.0,0.0,-0.076242,-0.0,-0.0,2.0,0.282024,0.261016,0.282024,0.30099,,,,,,
499278,-0.11621,0.014725,-0.064393,0.0,0.0,0.0,-0.073452,-0.0,-0.0,2.0,0.282024,0.25907,0.282024,0.30256,,,,,,
499298,-0.116088,0.014736,-0.064274,2e-06,-0.001057,0.000123,-0.073452,-0.0,-0.0,2.0,0.282024,0.259132,0.282024,0.30251,,,,,,
499318,-0.116084,0.014614,-0.064281,-1.4e-05,-0.00118,-0.000934,-0.069648,-0.0,-0.0,2.0,0.282024,0.256364,0.282024,0.304695,,,,,,
499338,-0.115837,0.014493,-0.064413,0.0,0.0,0.0,-0.068289,-0.0,-0.0,2.0,0.282024,0.253453,0.282024,0.306932,,,,,,
499358,-0.115715,0.014497,-0.064415,-0.001064,0.0,0.0,-0.065132,-0.0,-0.0,2.0,0.282024,0.253327,0.282024,0.307028,,,,,,
499378,-0.115718,0.014626,-0.064287,2e-06,-0.001057,0.000123,-0.063513,-0.0,-0.0,2.0,0.282024,0.252083,0.282024,0.307964,,,,,,
499398,-0.115722,0.014748,-0.06428,-1.4e-05,-0.00118,-0.000934,-0.060937,-0.0,-0.0,2.0,0.282024,0.250131,0.282024,0.309412,,,,,,
499418,-0.115722,0.014748,-0.06428,-0.00108,-0.000123,-0.001057,-0.05825,-0.0,-0.0,2.0,0.282024,0.245882,0.282024,0.312473,,,,,,
499438,-0.115597,0.014623,-0.06441,0.0,0.0,0.0,-0.056326,-0.0,-0.0,2.0,0.282024,0.244466,0.282024,0.313466,,,,,,
499458,-0.11535,0.01451,-0.064421,0.0,0.0,0.0,-0.052771,-0.0,-0.0,2.0,0.282024,0.244083,0.282024,0.313732,,,,,,
499478,-0.115231,0.014643,-0.064295,-1.4e-05,-0.00118,-0.000935,-0.049475,-0.0,-0.0,2.0,0.282024,0.241553,0.282024,0.315468,,,,,,
499498,-0.114989,0.014637,-0.064542,-1.2e-05,-0.002236,-0.000813,-0.047049,-0.0,-0.0,2.0,0.282024,0.239827,0.282024,0.316629,,,,,,
499518,-0.114495,0.014403,-0.064686,0.001066,-0.001057,0.000122,-0.043423,-0.0,-0.0,2.0,0.282024,0.237262,0.282024,0.31832,,,,,,
499538,-0.114,0.014425,-0.06456,0.0,0.0,0.0,-0.043423,-0.0,-0.0,2.0,0.282024,0.23767,0.282024,0.318053,,,,,,
499558,-0.113273,0.014572,-0.064565,0.001049,-0.00012,-0.001058,-0.043423,-0.0,-0.0,2.0,0.282024,0.240567,0.282024,0.316133,,,,,,
499578,-0.112421,0.014587,-0.064823,0.001047,0.000938,-0.001177,-0.034901,-0.0,-0.0,2.0,0.282024,0.236667,0.282024,0.318706,,,,,,
499598,-0.111441,0.014606,-0.06507,0.002127,0.001058,-0.000118,-0.031086,-0.0,-0.0,2.0,0.282024,0.234298,0.282024,0.320223,,,,,,
499618,-0.110094,0.014401,-0.065227,0.003193,0.0,0.0,-0.027587,-0.0,-0.0,2.0,0.282024,0.232475,0.282024,0.321368,,,,,,
499638,-0.108379,0.01433,-0.065371,0.003194,-0.001058,0.000115,-0.025836,-0.0,-0.0,2.0,0.282024,0.234868,0.282024,0.319861,,,,,,
499658,-0.10642,0.01426,-0.06564,0.004259,-0.001058,0.000113,-0.023248,-0.0,-0.0,2.0,0.282024,0.234335,0.282024,0.320199,,,,,,
499678,-0.104093,0.014076,-0.066042,0.004257,0.0,0.0,-0.017976,-0.0,-0.0,2.0,0.282024,0.234265,0.282024,0.320244,,,,,,
499698,-0.101277,0.013915,-0.066329,0.00532,0.001059,-0.000108,-0.015804,-0.0,-0.0,2.0,0.282024,0.239544,0.282024,0.316817,,,,,,
499718,-0.098101,0.013884,-0.066736,0.006384,0.001059,-0.000104,-0.010571,-0.0,-0.0,2.0,0.282024,0.240201,0.282024,0.316379,,,,,,
499738,-0.094685,0.013984,-0.06714,0.008499,-0.000101,-0.00106,-0.008069,-0.0,-0.0,2.0,0.282024,0.243236,0.282024,0.314318,,,,,,
499758,-0.090521,0.013733,-0.067801,0.009579,-0.00106,9.6e-05,-0.003971,-0.0,-0.0,2.0,0.282024,0.243322,0.282024,0.314258,,,,,,
499778,-0.085757,0.013633,-0.068354,0.010658,-0.000969,0.001152,-0.000245,-0.0,-0.0,2.0,0.282024,0.246389,0.282024,0.312114,,,,,,
499798,-0.080865,0.01354,-0.068893,0.010658,-0.000975,0.001147,0.003485,-0.0,-0.0,2.0,0.282024,0.249495,0.282024,0.309877,,,,,,
499818,-0.075369,0.013466,-0.069572,0.011708,-0.001061,8e-05,0.005344,-0.0,-0.0,2.0,0.282024,0.254359,0.282024,0.306242,,,,,,
499838,-0.069256,0.013291,-0.070369,0.012785,7.4e-05,0.001062,0.007364,-0.0,-0.0,2.0,0.282024,0.259474,0.282024,0.302237,,,,,,
499858,-0.063272,0.013238,-0.071169,0.013848,0.001129,0.000995,0.012265,-0.0,-0.0,2.0,0.282024,0.262295,0.282024,0.299942,,,,,,
499878,-0.056672,0.013085,-0.072083,0.014913,6e-05,0.001063,0.014614,-0.0,-0.0,2.0,0.282024,0.265282,0.282024,0.297445,,,,,,
499898,-0.049713,0.013074,-0.073007,0.014913,5.3e-05,0.001063,0.020035,-0.0,-0.0,2.0,0.282024,0.26835,0.282024,0.294805,,,,,,
499918,-0.042625,0.012826,-0.074053,0.014913,4.5e-05,0.001063,0.022573,-0.0,-0.0,2.0,0.282024,0.27144,0.282024,0.292065,,,,,,
499938,-0.035296,0.012716,-0.075093,0.014926,7.5e-05,0.002127,0.026819,-0.0,-0.0,2.0,0.282024,0.273504,0.282024,0.290189,,,,,,
499958,-0.027846,0.012618,-0.076127,0.015977,3e-05,0.001064,0.030303,-0.0,-0.0,2.0,0.282024,0.277979,0.282024,0.285988,,,,,,
499978,-0.020393,0.012404,-0.07729,0.01599,4.3e-05,0.002128,0.033711,-0.0,-0.0,2.0,0.282024,0.280592,0.282024,0.283446,,,,,,
499998,-0.013184,0.012188,-0.078323,0.015977,-0.00105,0.001078,0.037101,-0.0,-0.0,2.0,0.282024,0.283052,0.282024,0.280991,,,,,,
500018,-0.005725,0.011868,-0.07935,0.014912,6e-06,0.001064,0.037101,-0.0,-0.0,2.0,0.282024,0.285921,0.282024,0.278048,,,,,,
500038,0.001487,0.011666,-0.080245,0.014912,-2e-06,0.001064,0.042826,-0.0,-0.0,2.0,0.282024,0.286847,0.282024,0.27708,,,,,,
500058,0.008212,0.011449,-0.080765,0.013835,0.0,0.0,0.044621,-0.0,-0.0,2.0,0.282024,0.28989,0.282024,0.273829,,,,,,
500078,0.014699,0.011103,-0.08117,0.012771,0.0,0.0,0.047523,-0.0,-0.0,2.0,0.282024,0.288532,0.282024,0.275293,,,,,,
500098,0.021065,0.010753,-0.08143,0.012771,0.0,0.0,0.051936,-0.0,-0.0,2.0,0.282024,0.289753,0.282024,0.273978,,,,,,
500118,0.026824,0.010376,-0.081454,0.011695,2.9e-05,-0.001064,0.054875,-0.0,-0.0,2.0,0.282024,0.289725,0.282024,0.274009,,,,,,
500138,0.032323,0.010351,-0.081218,0.010642,-0.001064,-3.4e-05,0.056281,-0.0,-0.0,2.0,0.282024,0.29044,0.282024,0.27323,,,,,,
500158,0.037336,0.010307,-0.081115,0.009556,-0.000984,-0.002167,0.059053,-0.0,-0.0,2.0,0.282024,0.291823,0.282024,0.271709,,,,,,
500178,0.042095,0.010497,-0.081014,0.008502,-0.001018,-0.001108,0.061976,-0.0,-0.0,2.0,0.282024,0.291196,0.282024,0.272401,,,,,,
500198,0.046488,0.010674,-0.081032,0.008513,-0.001063,-4.9e-05,0.063988,-0.0,-0.0,2.0,0.282024,0.290901,0.282024,0.272726,,,,,,
500218,0.050386,0.010947,-0.080794,0.007437,-0.001009,-0.001117,0.066404,-0.0,-0.0,2.0,0.282024,0.290055,0.282024,0.27365,,,,,,
500238,0.054154,0.011465,-0.080819,0.007437,-0.001005,-0.00112,0.067715,-0.0,-0.0,2.0,0.282024,0.291552,0.282024,0.272009,,,,,,
500258,0.057553,0.012087,-0.080727,0.006371,-0.002064,-0.001185,0.071514,-0.0,-0.0,2.0,0.282024,0.289577,0.282024,0.274168,,,,,,
500278,0.060717,0.012454,-0.080628,0.005307,-0.000998,-0.001127,0.072796,-0.0,-0.0,2.0,0.282024,0.290709,0.282024,0.272937,,,,,,
500298,0.063639,0.012689,-0.08051,0.005308,6.8e-05,-0.001062,0.074942,-0.0,-0.0,2.0,0.282024,0.289429,0.282024,0.274328,,,,,,
500318,0.066331,0.01267,-0.080399,0.005308,7.1e-05,-0.001062,0.076846,-0.0,-0.0,2.0,0.282024,0.289914,0.282024,0.273804,,,,,,
500338,0.068794,0.012276,-0.080274,0.004244,7.3e-05,-0.001062,0.077735,-0.0,-0.0,2.0,0.282024,0.289121,0.282024,0.27466,,,,,,
500358,0.07113,0.011876,-0.080133,0.004244,7.6e-05,-0.001062,0.07895,-0.0,-0.0,2.0,0.282024,0.289811,0.282024,0.273915,,,,,,
500378,0.073222,0.011589,-0.08001,0.004245,7.8e-05,-0.001061,0.080299,-0.0,-0.0,2.0,0.282024,0.290287,0.282024,0.273397,,,,,,
500398,0.075426,0.011432,-0.079997,0.003181,8e-05,-0.001061,0.082294,-0.0,-0.0,2.0,0.282024,0.288636,0.282024,0.275182,,,,,,
500418,0.077509,0.011388,-0.079881,0.004244,-0.000979,-0.001144,0.08289,-0.0,-0.0,2.0,0.282024,0.29132,0.282024,0.272265,,,,,,
500438,0.07921,0.0117,-0.079902,0.003192,-0.001061,-8.4e-05,0.083961,-0.0,-0.0,2.0,0.282024,0.289935,0.282024,0.273781,,,,,,
500458,0.081032,0.011898,-0.080024,0.003192,-0.001061,-8.6e-05,0.085148,-0.0,-0.0,2.0,0.282024,0.290344,0.282024,0.273335,,,,,,
500478,0.082607,0.012327,-0.080051,0.003192,-0.001061,-8.8e-05,0.086014,-0.0,-0.0,2.0,0.282024,0.290776,0.282024,0.272863,,,,,,
500498,0.084058,0.012634,-0.080179,0.003192,-0.00106,-8.9e-05,0.086319,-0.0,-0.0,2.0,0.282024,0.289703,0.282024,0.274032,,,,,,
500518,0.085399,0.01281,-0.080196,0.002115,9.1e-05,-0.00106,0.086807,-0.0,-0.0,2.0,0.282024,0.290249,0.282024,0.273439,,,,,,
500538,0.086626,0.012619,-0.080304,0.002128,0.0,0.0,0.087004,-0.0,-0.0,2.0,0.282024,0.290878,0.282024,0.272751,,,,,,
500558,0.087738,0.01242,-0.080306,0.002128,0.0,0.0,0.08722,-0.0,-0.0,2.0,0.282024,0.291402,0.282024,0.272174,,,,,,
500578,0.088727,0.012098,-0.080408,0.001051,9.4e-05,-0.00106,0.087265,-0.0,-0.0,2.0,0.282024,0.290231,0.282024,0.273459,,,,,,
500598,0.089589,0.011894,-0.080516,0.001052,9.5e-05,-0.00106,0.087057,-0.0,-0.0,2.0,0.282024,0.290906,0.282024,0.272721,,,,,,
500618,0.090329,0.011813,-0.080766,0.001064,0.0,0.0,0.086824,-0.0,-0.0,2.0,0.282024,0.291498,0.282024,0.272069,,,,,,
500638,0.091059,0.011847,-0.080885,0.001064,0.0,0.0,0.086537,-0.0,-0.0,2.0,0.282024,0.292113,0.282024,0.271387,,,,,,
500658,0.091662,0.011999,-0.08101,0.001063,-0.00106,-9.7e-05,0.085859,-0.0,-0.0,2.0,0.282024,0.292889,0.282024,0.270521,,,,,,
500678,0.092144,0.012269,-0.081156,-1.4e-05,-0.000962,-0.001158,0.085109,-0.0,-0.0,2.0,0.282024,0.293631,0.282024,0.269686,,,,,,
500698,0.092624,0.012421,-0.081403,0.0,0.0,0.0,0.084676,-0.0,-0.0,2.0,0.282024,0.292453,0.282024,0.271009,,,,,,
500718,0.09299,0.012436,-0.081402,0.0,0.0,0.0,0.083795,-0.0,-0.0,2.0,0.282024,0.293206,0.282024,0.270165,,,,,,
500738,0.093238,0.012324,-0.081395,-1.3e-05,9.9e-05,-0.00106,0.082127,-0.0,-0.0,2.0,0.282024,0.294339,0.282024,0.268882,,,,,,
500758,0.093365,0.012207,-0.081389,-1.3e-05,9.9e-05,-0.00106,0.081268,-0.0,-0.0,2.0,0.282024,0.294951,0.282024,0.268183,,,,,,
500778,0.093492,0.01209,-0.081383,0.0,0.0,0.0,0.080518,-0.0,-0.0,2.0,0.282024,0.295454,0.282024,0.267604,,,,,,
500798,0.093498,0.011962,-0.081256,-0.001077,9.9e-05,-0.00106,0.077994,-0.0,-0.0,2.0,0.282024,0.296979,0.282024,0.265831,,,,,,
500818,0.093498,0.011962,-0.081256,-0.001078,-0.00096,-0.001159,0.076976,-0.0,-0.0,2.0,0.282024,0.295859,0.282024,0.267136,,,,,,
500838,0.093371,0.012079,-0.081262,-0.001065,-0.00106,-9.9e-05,0.075009,-0.0,-0.0,2.0,0.282024,0.296952,0.282024,0.265862,,,,,,
500858,0.093123,0.012191,-0.081269,-0.001078,-0.000961,-0.001159,0.073057,-0.0,-0.0,2.0,0.282024,0.297978,0.282024,0.264651,,,,,,
500878,0.092752,0.012299,-0.081275,-0.001064,0.0,0.0,0.070981,-0.0,-0.0,2.0,0.282024,0.298961,0.282024,0.263479,,,,,,
500898,0.092388,0.012278,-0.081155,-0.001078,-0.000962,-0.001158,0.070981,-0.0,-0.0,2.0,0.282024,0.298749,0.282024,0.263733,,,,,,
500918,0.092026,0.012147,-0.081272,-0.002141,9.8e-05,-0.00106,0.066729,-0.0,-0.0,2.0,0.282024,0.301042,0.282024,0.260952,,,,,,
500938,0.09166,0.01201,-0.081253,-0.001064,0.0,0.0,0.065204,-0.0,-0.0,2.0,0.282024,0.301714,0.282024,0.260123,,,,,,
500958,0.091056,0.011864,-0.081249,-0.002128,0.0,0.0,0.062922,-0.0,-0.0,2.0,0.282024,0.302664,0.282024,0.258939,,,,,,
500978,0.090568,0.011844,-0.081251,-0.002142,-0.000964,-0.001156,0.059512,-0.0,-0.0,2.0,0.282024,0.302696,0.282024,0.2589,,,,,,
500998,0.089836,0.011821,-0.081375,-0.002141,9.5e-05,-0.00106,0.057618,-0.0,-0.0,2.0,0.282024,0.303386,0.282024,0.258031,,,,,,
501018,0.088978,0.011908,-0.081383,-0.002128,0.0,0.0,0.054391,-0.0,-0.0,2.0,0.282024,0.304741,0.282024,0.256305,,,,,,
501038,0.087998,0.011868,-0.081371,-0.003194,-0.00106,-9.4e-05,0.051298,-0.0,-0.0,2.0,0.282024,0.304292,0.282024,0.25688,,,,,,
501058,0.086658,0.011814,-0.081375,-0.003205,9.2e-05,-0.00106,0.049566,-0.0,-0.0,2.0,0.282024,0.304516,0.282024,0.256594,,,,,,
501078,0.085064,0.011872,-0.08137,-0.004271,-0.00097,-0.001151,0.047289,-0.0,-0.0,2.0,0.282024,0.303264,0.282024,0.258185,,,,,,
501098,0.083231,0.01192,-0.08138,-0.005334,8.8e-05,-0.001061,0.04293,-0.0,-0.0,2.0,0.282024,0.303089,0.282024,0.258406,,,,,,
501118,0.081276,0.011841,-0.08137,-0.005321,0.0,0.0,0.041141,-0.0,-0.0,2.0,0.282024,0.302995,0.282024,0.258524,,,,,,
501138,0.078707,0.011855,-0.081244,-0.006386,-0.001061,-8.4e-05,0.036414,-0.0,-0.0,2.0,0.282024,0.302568,0.282024,0.259059,,,,,,
501158,0.0759,0.011742,-0.081235,-0.007463,-0.00098,-0.001142,0.033904,-0.0,-0.0,2.0,0.282024,0.300734,0.282024,0.26133,,,,,,
501178,0.072844,0.011736,-0.081109,-0.007463,-0.000984,-0.001139,0.030085,-0.0,-0.0,2.0,0.282024,0.301199,0.282024,0.260759,,,,,,
501198,0.069301,0.011711,-0.080981,-0.008514,0.0,0.0,0.026578,-0.0,-0.0,2.0,0.282024,0.299508,0.282024,0.262821,,,,,,
501218,0.065508,0.011799,-0.080857,-0.009591,7e-05,-0.001062,0.022887,-0.0,-0.0,2.0,0.282024,0.299428,0.282024,0.262918,,,,,,
501238,0.061478,0.011752,-0.080605,-0.009591,-0.000997,-0.001128,0.019226,-0.0,-0.0,2.0,0.282024,0.297527,0.282024,0.265186,,,,,,
501258,0.057076,0.01182,-0.080598,-0.010656,-0.001002,-0.001123,0.016377,-0.0,-0.0,2.0,0.282024,0.2949,0.282024,0.268241,,,,,,
501278,0.052187,0.011862,-0.080345,-0.010656,-0.001007,-0.001118,0.016377,-0.0,-0.0,2.0,0.282024,0.291976,0.282024,0.271539,,,,,,
501298,0.047296,0.011904,-0.080075,-0.01172,-0.001013,-0.001113,0.009194,-0.0,-0.0,2.0,0.282024,0.291607,0.282024,0.271949,,,,,,
501318,0.042157,0.012064,-0.079939,-0.01172,-0.001018,-0.001108,0.006989,-0.0,-0.0,2.0,0.282024,0.289816,0.282024,0.27391,,,,,,
501338,0.03678,0.01221,-0.07957,-0.012784,-0.001024,-0.001103,0.00198,-0.0,-0.0,2.0,0.282024,0.287823,0.282024,0.276048,,,,,,
501358,0.031402,0.012239,-0.079424,-0.012784,-0.00103,-0.001097,-7.5e-05,-0.0,-0.0,2.0,0.282024,0.285756,0.282024,0.27822,,,,,,
501378,0.025655,0.012375,-0.079153,-0.012784,-0.001037,-0.001091,-0.003835,-0.0,-0.0,2.0,0.282024,0.284532,0.282024,0.279484,,,,,,
501398,0.020031,0.012517,-0.078878,-0.012784,-0.001043,-0.001085,-0.007597,-0.0,-0.0,2.0,0.282024,0.283333,0.282024,0.280706,,,,,,
501418,0.014284,0.012656,-0.078733,-0.012784,1.5e-05,-0.001064,-0.009454,-0.0,-0.0,2.0,0.282024,0.280855,0.282024,0.283186,,,,,,
501438,0.008548,0.012552,-0.078461,-0.012784,-0.001055,-0.001073,-0.013086,-0.0,-0.0,2.0,0.282024,0.279502,0.282024,0.284515,,,,,,
501458,0.002807,0.012571,-0.078172,-0.012784,3e-06,-0.001064,-0.018077,-0.0,-0.0,2.0,0.282024,0.279016,0.282024,0.284986,,,,,,
501478,-0.002695,0.012722,-0.078016,-0.012771,0.0,0.0,-0.020898,-0.0,-0.0,2.0,0.282024,0.277273,0.282024,0.286663,,,,,,
501498,-0.00831,0.012626,-0.077734,-0.012784,-0.001073,-0.001055,-0.023121,-0.0,-0.0,2.0,0.282024,0.27693,0.282024,0.28699,,,,,,
501518,-0.01369,0.012785,-0.077464,-0.01172,-0.001079,-0.00105,-0.0277,-0.0,-0.0,2.0,0.282024,0.27638,0.282024,0.287511,,,,,,
501538,-0.018949,0.012948,-0.077298,-0.01172,-0.001084,-0.001044,-0.031411,-0.0,-0.0,2.0,0.282024,0.27541,0.282024,0.288422,,,,,,
501558,-0.024079,0.012996,-0.077008,-0.01172,-0.00109,-0.001038,-0.034892,-0.0,-0.0,2.0,0.282024,0.274294,0.282024,0.289461,,,,,,
501578,-0.028856,0.013302,-0.076851,-0.010642,-0.001064,3.1e-05,-0.038331,-0.0,-0.0,2.0,0.282024,0.275305,0.282024,0.288521,,,,,,
501598,-0.033742,0.013361,-0.076557,-0.010671,-7.2e-05,-0.002127,-0.04152,-0.0,-0.0,2.0,0.282024,0.274181,0.282024,0.289565,,,,,,
501618,-0.038139,0.013316,-0.076403,-0.010656,-0.001104,-0.001023,-0.043882,-0.0,-0.0,2.0,0.282024,0.272825,0.282024,0.29081,,,,,,
501638,-0.042658,0.013267,-0.076246,-0.009577,-0.001063,4.5e-05,-0.047446,-0.0,-0.0,2.0,0.282024,0.274123,0.282024,0.289619,,,,,,
501658,-0.04693,0.01323,-0.075954,-0.009592,-5e-05,-0.001063,-0.05025,-0.0,-0.0,2.0,0.282024,0.273121,0.282024,0.290541,,,,,,
501678,-0.05097,0.013445,-0.075792,-0.009592,-0.001117,-0.001009,-0.051938,-0.0,-0.0,2.0,0.282024,0.271543,0.282024,0.291973,,,,,,
501698,-0.054884,0.013543,-0.075632,-0.008527,-0.001121,-0.001004,-0.056114,-0.0,-0.0,2.0,0.282024,0.273664,0.282024,0.290043,,,,,,
501718,-0.058549,0.013532,-0.075355,-0.008513,-0.001062,6.2e-05,-0.057863,-0.0,-0.0,2.0,0.282024,0.272358,0.282024,0.291235,,,,,,
501738,-0.062219,0.01364,-0.075195,-0.008527,-0.001128,-0.000996,-0.060579,-0.0,-0.0,2.0,0.282024,0.271718,0.282024,0.291816,,,,,,
501758,-0.065642,0.013753,-0.075143,-0.008528,-7e-05,-0.001062,-0.063213,-0.0,-0.0,2.0,0.282024,0.271184,0.282024,0.292296,,,,,,
501778,-0.069185,0.013748,-0.074863,-0.007464,-7.4e-05,-0.001062,-0.066079,-0.0,-0.0,2.0,0.282024,0.272683,0.282024,0.29094,,,,,,
501798,-0.072363,0.013754,-0.074708,-0.007449,-0.001061,7.7e-05,-0.066079,-0.0,-0.0,2.0,0.282024,0.270489,0.282024,0.292918,,,,,,
501818,-0.075667,0.013877,-0.074546,-0.007463,-0.001142,-0.000981,-0.070138,-0.0,-0.0,2.0,0.282024,0.271052,0.282024,0.292414,,,,,,
501838,-0.078723,0.013889,-0.07439,-0.007464,-8.4e-05,-0.001061,-0.0712,-0.0,-0.0,2.0,0.282024,0.269703,0.282024,0.293616,,,,,,
501858,-0.081658,0.013899,-0.074357,-0.006384,-0.001061,8.7e-05,-0.073367,-0.0,-0.0,2.0,0.282024,0.271097,0.282024,0.292373,,,,,,
501878,-0.084596,0.014043,-0.074074,-0.006399,-0.00115,-0.000971,-0.075889,-0.0,-0.0,2.0,0.282024,0.268869,0.282024,0.29435,,,,,,
501898,-0.087409,0.014053,-0.074162,-0.006385,0.0,0.0,-0.077731,-0.0,-0.0,2.0,0.282024,0.270183,0.282024,0.29319,,,,,,
501918,-0.090221,0.014074,-0.074006,-0.0064,-9.6e-05,-0.00106,-0.078551,-0.0,-0.0,2.0,0.282024,0.268829,0.282024,0.294385,,,,,,
501938,-0.09279,0.014105,-0.073853,-0.006384,-0.00106,9.9e-05,-0.080078,-0.0,-0.0,2.0,0.282024,0.268089,0.282024,0.295033,,,,,,
501958,-0.095359,0.01413,-0.07382,-0.0064,-0.000101,-0.001059,-0.081516,-0.0,-0.0,2.0,0.282024,0.267336,0.282024,0.295686,,,,,,
501978,-0.097924,0.014033,-0.073793,-0.006385,0.0,0.0,-0.081516,-0.0,-0.0,2.0,0.282024,0.267543,0.282024,0.295507,,,,,,
501998,-0.100249,0.014067,-0.073763,-0.005335,-0.001165,-0.000952,-0.083822,-0.0,-0.0,2.0,0.282024,0.267532,0.282024,0.295517,,,,,,
502018,-0.10257,0.013986,-0.073617,-0.00532,-0.001059,0.000109,-0.084593,-0.0,-0.0,2.0,0.282024,0.266432,0.282024,0.296464,,,,,,
502038,-0.104773,0.014031,-0.073466,-0.005336,-0.000111,-0.001058,-0.085691,-0.0,-0.0,2.0,0.282024,0.265694,0.282024,0.297096,,,,,,
502058,-0.106611,0.014084,-0.073443,-0.005321,0.0,0.0,-0.086083,-0.0,-0.0,2.0,0.282024,0.264659,0.282024,0.297972,,,,,,
502078,-0.108686,0.014133,-0.07328,-0.00427,-0.001173,-0.000943,-0.086629,-0.0,-0.0,2.0,0.282024,0.26562,0.282024,0.297158,,,,,,
502098,-0.110523,0.0142,-0.073012,-0.00427,-0.001175,-0.00094,-0.086997,-0.0,-0.0,2.0,0.282024,0.264539,0.282024,0.298073,,,,,,
502118,-0.112121,0.014391,-0.072863,-0.00427,-0.001177,-0.000939,-0.087213,-0.0,-0.0,2.0,0.282024,0.263594,0.282024,0.298865,,,,,,
502138,-0.113711,0.014332,-0.072848,-0.004257,0.0,0.0,-0.087213,-0.0,-0.0,2.0,0.282024,0.264517,0.282024,0.298092,,,,,,
502158,-0.115176,0.014412,-0.072573,-0.003193,0.0,0.0,-0.087253,-0.0,-0.0,2.0,0.282024,0.263492,0.282024,0.29895,,,,,,
502178,-0.116522,0.014369,-0.072441,-0.003206,-0.001181,-0.000933,-0.08697,-0.0,-0.0,2.0,0.282024,0.262341,0.282024,0.299904,,,,,,
502198,-0.117739,0.01433,-0.072298,-0.003223,-0.00025,-0.002114,-0.086668,-0.0,-0.0,2.0,0.282024,0.261258,0.282024,0.300792,,,,,,
502218,-0.118595,0.014177,-0.072303,-0.002128,0.0,0.0,-0.086386,-0.0,-0.0,2.0,0.282024,0.262515,0.282024,0.299761,,,,,,
502238,-0.119573,0.01427,-0.072157,-0.002128,0.0,0.0,-0.08542,-0.0,-0.0,2.0,0.282024,0.261137,0.282024,0.300892,,,,,,
502258,-0.12031,0.01425,-0.072035,-0.002142,-0.001184,-0.000929,-0.084564,-0.0,-0.0,2.0,0.282024,0.259967,0.282024,0.30184,,,,,,
502278,-0.120798,0.014224,-0.072148,-0.001077,-0.001185,-0.000928,-0.084069,-0.0,-0.0,2.0,0.282024,0.259286,0.282024,0.302387,,,,,,
502298,-0.121172,0.014447,-0.072248,-0.001064,0.0,0.0,-0.082999,-0.0,-0.0,2.0,0.282024,0.260307,0.282024,0.301565,,,,,,
502318,-0.121294,0.014442,-0.072246,-0.001064,0.0,0.0,-0.082414,-0.0,-0.0,2.0,0.282024,0.259803,0.282024,0.301972,,,,,,
502338,-0.121294,0.014442,-0.072246,2e-06,-0.001056,0.000129,-0.08006,-0.0,-0.0,2.0,0.282024,0.260141,0.282024,0.301699,,,,,,
502358,-0.12129,0.01432,-0.072253,-1.3e-05,-0.001185,-0.000928,-0.079099,-0.0,-0.0,2.0,0.282024,0.25945,0.282024,0.302256,,,,,,
502378,-0.120921,0.014198,-0.07251,-1.5e-05,-0.000128,-0.001057,-0.077625,-0.0,-0.0,2.0,0.282024,0.258681,0.282024,0.30287,,,,,,
502398,-0.120673,0.014085,-0.072522,0.0,0.0,0.0,-0.075413,-0.0,-0.0,2.0,0.282024,0.257255,0.282024,0.303998,,,,,,
502418,-0.120677,0.014214,-0.072393,0.0,0.0,0.0,-0.07423,-0.0,-0.0,2.0,0.282024,0.25636,0.282024,0.304698,,,,,,
502438,-0.120677,0.014214,-0.072393,-1.3e-05,-0.001185,-0.000928,-0.072207,-0.0,-0.0,2.0,0.282024,0.252737,0.282024,0.307473,,,,,,
502458,-0.12079,0.013966,-0.072405,-0.001077,-0.001185,-0.000928,-0.07001,-0.0,-0.0,2.0,0.282024,0.251024,0.282024,0.308752,,,,,,
502478,-0.120786,0.013844,-0.072413,-0.001064,0.0,0.0,-0.067754,-0.0,-0.0,2.0,0.282024,0.249311,0.282024,0.310012,,,,,,
502498,-0.120789,0.013973,-0.072284,0.0,0.0,0.0,-0.066096,-0.0,-0.0,2.0,0.282024,0.250202,0.282024,0.30936,,,,,,
502518,-0.120667,0.013985,-0.072165,-1.3e-05,-0.001185,-0.000928,-0.063375,-0.0,-0.0,2.0,0.282024,0.248213,0.282024,0.310808,,,,,,
502538,-0.120546,0.013983,-0.072288,-1.3e-05,-0.001184,-0.000929,-0.061643,-0.0,-0.0,2.0,0.282024,0.246995,0.282024,0.311683,,,,,,
502558,-0.120299,0.013863,-0.072421,2e-06,-0.001057,0.000128,-0.057537,-0.0,-0.0,2.0,0.282024,0.244004,0.282024,0.313787,,,,,,
502578,-0.119917,0.01364,-0.072308,0.0,0.0,0.0,-0.055575,-0.0,-0.0,2.0,0.282024,0.242686,0.282024,0.314695,,,,,,
502598,-0.119677,0.013771,-0.072305,0.0,0.0,0.0,-0.052389,-0.0,-0.0,2.0,0.282024,0.240319,0.282024,0.3163,,,,,,
502618,-0.119434,0.01378,-0.072309,0.00105,-0.000127,-0.001057,-0.050818,-0.0,-0.0,2.0,0.282024,0.241563,0.282024,0.315461,,,,,,
502638,-0.118939,0.013547,-0.072454,0.001052,-0.001183,-0.000931,-0.047687,-0.0,-0.0,2.0,0.282024,0.239464,0.282024,0.316871,,,,,,
502658,-0.118204,0.013453,-0.072474,0.001066,-0.001057,0.000126,-0.044453,-0.0,-0.0,2.0,0.282024,0.237415,0.282024,0.318219,,,,,,
502678,-0.117344,0.013485,-0.072475,0.001066,-0.001057,0.000125,-0.042469,-0.0,-0.0,2.0,0.282024,0.236449,0.282024,0.318847,,,,,,
502698,-0.116248,0.013526,-0.072494,0.002114,-0.000123,-0.001057,-0.038761,-0.0,-0.0,2.0,0.282024,0.236659,0.282024,0.318711,,,,,,
502718,-0.11478,0.013573,-0.072628,0.003178,-0.000122,-0.001057,-0.036818,-0.0,-0.0,2.0,0.282024,0.23866,0.282024,0.317403,,,,,,
502738,-0.11319,0.013626,-0.072763,0.004255,0.001057,-0.00012,-0.03165,-0.0,-0.0,2.0,0.282024,0.238079,0.282024,0.317785,,,,,,
502758,-0.11123,0.013577,-0.07279,0.005321,0.0,0.0,-0.029076,-0.0,-0.0,2.0,0.282024,0.237542,0.282024,0.318137,,,,,,
502778,-0.108901,0.013413,-0.072951,0.005308,-0.001174,-0.000942,-0.025075,-0.0,-0.0,2.0,0.282024,0.238554,0.282024,0.317473,,,,,,
502798,-0.106207,0.013258,-0.073238,0.006387,-0.001058,0.000113,-0.02142,-0.0,-0.0,2.0,0.282024,0.237761,0.282024,0.317993,,,,,,
502818,-0.103025,0.013127,-0.07341,0.006385,0.0,0.0,-0.017755,-0.0,-0.0,2.0,0.282024,0.239711,0.282024,0.316706,,,,,,
502838,-0.099475,0.013138,-0.073445,0.00745,0.0,0.0,-0.015946,-0.0,-0.0,2.0,0.282024,0.243379,0.282024,0.314219,,,,,,
502858,-0.095445,0.01315,-0.073865,0.008514,0.0,0.0,-0.013921,-0.0,-0.0,2.0,0.282024,0.247228,0.282024,0.311516,,,,,,
502878,-0.091161,0.013056,-0.074157,0.010642,0.0,0.0,-0.010329,-0.0,-0.0,2.0,0.282024,0.249964,0.282024,0.309534,,,,,,
502898,-0.086395,0.012977,-0.074589,0.010642,0.0,0.0,-0.00355,-0.0,-0.0,2.0,0.282024,0.250639,0.282024,0.309037,,,,,,
502918,-0.081132,0.012796,-0.075016,0.011708,-0.001061,8.6e-05,-0.001265,-0.0,-0.0,2.0,0.282024,0.252856,0.282024,0.307384,,,,,,
502938,-0.07563,0.012753,-0.075316,0.011708,-0.001061,8e-05,0.00134,-0.0,-0.0,2.0,0.282024,0.257114,0.282024,0.304108,,,,,,
502958,-0.069767,0.012721,-0.075753,0.011706,0.0,0.0,0.005855,-0.0,-0.0,2.0,0.282024,0.258096,0.282024,0.303335,,,,,,
502978,-0.063529,0.012578,-0.076303,0.012771,0.0,0.0,0.009649,-0.0,-0.0,2.0,0.282024,0.261907,0.282024,0.300261,,,,,,
