time_ms,roll,pitch,yaw,reference_roll,reference_pitch,reference_yaw,reference_throttle,throttle_1,throttle_2,throttle_3,throttle_4,roll_predicted,pitch_predicted,yaw_predicted,roll_rate_predicted,pitch_rate_predicted,yaw_rate_predicted,value1,value2,value3,value4,value5,value6
241270,-0.005471,-0.00055,-0.111639,0.0,-0.0,-0.0,3.0,0.338048,0.316745,0.313527,0.335105,-0.0,-0.0,-0.002733,0.0,0.0,-7.7e-05,-0.027045,-0.001516,-0.041226,-0.003224,1.9e-05,-4.1e-05
241290,-0.005607,-0.000313,-0.111638,0.0,-0.0,-0.0,3.0,0.336919,0.316851,0.31477,0.335006,-0.0,-0.0,-0.002734,0.0,0.0,-7.7e-05,-0.027047,-0.001515,-0.041227,-0.003612,5.5e-05,-4.1e-05
241310,-0.0056,-0.000435,-0.111639,0.0,-0.0,-0.0,3.0,0.336937,0.316769,0.314751,0.335083,-0.0,-0.0,-0.002736,0.0,0.0,-7.7e-05,-0.027065,-0.001513,-0.041228,-0.003513,8e-05,-4.1e-05
241330,-0.005579,-0.000801,-0.111761,0.0,-0.0,-0.0,3.0,0.336927,0.316918,0.314762,0.334944,-0.0,-0.0,-0.002737,0.0,0.0,-7.7e-05,-0.027073,-0.001512,-0.041229,-0.000622,6.8e-05,-4.1e-05
241350,-0.005688,-0.001052,-0.111762,0.0,-0.0,-0.0,3.0,0.33391,0.317084,0.318028,0.33479,-0.0,-0.0,-0.002739,0.0,0.0,-7.7e-05,-0.027041,-0.001511,-0.04123,0.001273,6.9e-05,-5.3e-05
241370,-0.005552,-0.001289,-0.111762,0.0,-0.0,-0.0,3.0,0.332338,0.317015,0.319696,0.334854,-0.0,-0.0,-0.00274,0.0,0.0,-7.7e-05,-0.027009,-0.001511,-0.041231,0.000738,5.6e-05,-6.5e-05
241390,-0.005437,-0.00116,-0.111883,0.0,-0.0,-0.0,3.0,0.333488,0.316966,0.318478,0.334899,-0.0,-0.0,-0.002742,0.0,0.0,-7.7e-05,-0.026996,-0.001511,-0.041232,0.003478,2e-05,-7.7e-05
241410,-0.005586,-0.00068,-0.111882,0.0,-0.0,-0.0,3.0,0.332118,0.316942,0.319927,0.334922,-0.0,-0.0,-0.002744,0.0,0.0,-7.7e-05,-0.026967,-0.00151,-0.041234,0.002714,3.3e-05,-7.7e-05
241430,-0.005735,-0.000199,-0.11188,0.0,-0.0,-0.0,3.0,0.334911,0.316929,0.316954,0.334934,-0.0,-0.0,-0.002745,0.0,0.0,-7.7e-05,-0.026942,-0.00151,-0.041235,0.002189,3.2e-05,-8.9e-05
241450,-0.005756,0.000166,-0.112,0.0,-0.0,-0.0,3.0,0.336452,0.316758,0.315282,0.335093,-0.0,-0.0,-0.002747,0.0,0.0,-7.7e-05,-0.026956,-0.001509,-0.041237,0.004785,5.7e-05,-8.8e-05
241470,-0.005756,0.000166,-0.112121,0.0,-0.0,-0.0,3.0,0.337413,0.316549,0.314228,0.335285,-0.0,-0.0,-0.002748,0.0,0.0,-7.7e-05,-0.026965,-0.001507,-0.041239,0.002097,8.1e-05,-0.0001
241490,-0.005742,-7.8e-05,-0.112243,0.0,-0.0,-0.0,3.0,0.340022,0.31646,0.31132,0.335368,-0.0,-0.0,-0.00275,0.0,0.0,-7.7e-05,-0.026981,-0.001505,-0.041241,1.1e-05,6.8e-05,-0.000124
241510,-0.005478,-0.000431,-0.112487,0.0,-0.0,-0.0,3.0,0.340673,0.316156,0.310585,0.335649,-0.0,-0.0,-0.002751,0.0,0.0,-7.7e-05,-0.027023,-0.001504,-0.041243,-0.003974,4.2e-05,-0.000136
241530,-0.0056,-0.000438,-0.112628,0.0,-0.0,-0.0,3.0,0.339583,0.316347,0.311814,0.335472,-0.0,-0.0,-0.002753,0.0,0.0,-7.7e-05,-0.027037,-0.001503,-0.041246,-0.003539,2.9e-05,-0.00015
241550,-0.005837,-0.000574,-0.11275,0.0,-0.0,-0.0,3.0,0.340891,0.316177,0.310337,0.33563,-0.0,-0.0,-0.002754,0.0,0.0,-7.7e-05,-0.027067,-0.001502,-0.041249,-0.007906,1.6e-05,-0.000162
241570,-0.005843,-0.000452,-0.11287,0.0,-0.0,-0.0,3.0,0.337954,0.316199,0.313631,0.335609,-0.0,-0.0,-0.002756,0.0,0.0,-7.7e-05,-0.027122,-0.001501,-0.041252,-0.006884,2.8e-05,-0.000162
241590,-0.00585,-0.00033,-0.11287,0.0,-0.0,-0.0,3.0,0.33591,0.316316,0.315872,0.335501,-0.0,-0.0,-0.002757,0.0,0.0,-7.7e-05,-0.027171,-0.0015,-0.041256,-0.001131,6.6e-05,-0.000161
241610,-0.005972,-0.000337,-0.112749,0.0,-0.0,-0.0,3.0,0.333389,0.316133,0.318583,0.33567,-0.0,-0.0,-0.002759,0.0,0.0,-7.7e-05,-0.027213,-0.001499,-0.041259,-0.00341,0.000114,-0.000149
241630,-0.005979,-0.000215,-0.112748,0.0,-0.0,-0.0,3.0,0.332873,0.316067,0.319131,0.335731,-0.0,-0.0,-0.002761,0.0,0.0,-7.7e-05,-0.027277,-0.001497,-0.041262,0.000377,0.000126,-0.000148
241650,-0.005972,-0.000337,-0.112628,0.0,-0.0,-0.0,3.0,0.333824,0.316206,0.31812,0.335603,-0.0,-0.0,-0.002762,0.0,0.0,-7.7e-05,-0.027297,-0.001495,-0.041265,0.000941,0.000114,-0.00016
241670,-0.006094,-0.000344,-0.112749,0.0,-0.0,-0.0,3.0,0.33481,0.316393,0.317063,0.33543,-0.0,-0.0,-0.002764,0.0,0.0,-7.7e-05,-0.027283,-0.001493,-0.041268,0.00353,9e-05,-0.00016
241690,-0.005965,-0.000459,-0.112749,0.0,-0.0,-0.0,3.0,0.336492,0.316502,0.315238,0.335329,-0.0,-0.0,-0.002765,0.0,0.0,-7.7e-05,-0.027241,-0.001492,-0.041271,0.005511,6.6e-05,-0.00016
241710,-0.005958,-0.000581,-0.112871,0.0,-0.0,-0.0,3.0,0.337667,0.316281,0.313947,0.335534,-0.0,-0.0,-0.002767,0.0,0.0,-7.7e-05,-0.027216,-0.001491,-0.041275,0.005265,4.2e-05,-0.000159
241730,-0.005715,-0.000567,-0.11275,0.0,-0.0,-0.0,3.0,0.336688,0.315953,0.315024,0.335836,-0.0,-0.0,-0.002768,0.0,0.0,-7.7e-05,-0.027223,-0.00149,-0.041278,0.002829,4.1e-05,-0.000159
241750,-0.005614,-0.000194,-0.112749,0.0,-0.0,-0.0,3.0,0.333202,0.315986,0.318782,0.335806,-0.0,-0.0,-0.00277,0.0,0.0,-7.7e-05,-0.027204,-0.001489,-0.041281,0.002,7.8e-05,-0.000159
241770,-0.00562,-7.2e-05,-0.112627,0.0,-0.0,-0.0,3.0,0.334554,0.315834,0.317338,0.335945,-0.0,-0.0,-0.002771,0.0,0.0,-7.7e-05,-0.027187,-0.001487,-0.041284,-0.003668,8.8e-05,-0.000158
241790,-0.005634,0.000172,-0.112627,0.0,-0.0,-0.0,3.0,0.335303,0.315908,0.316531,0.335877,-0.0,-0.0,-0.002773,0.0,0.0,-7.7e-05,-0.02718,-0.001486,-0.041287,-0.006393,8.7e-05,-0.000158
241810,-0.005641,0.000293,-0.112747,0.0,-0.0,-0.0,3.0,0.337792,0.316119,0.31381,0.335683,-0.0,-0.0,-0.002774,0.0,0.0,-7.7e-05,-0.027163,-0.001484,-0.04129,-0.004178,8.8e-05,-0.000158
241830,-0.00562,-7.3e-05,-0.112748,0.0,-0.0,-0.0,3.0,0.341756,0.316134,0.30935,0.33567,-0.0,-0.0,-0.002776,0.0,0.0,-7.7e-05,-0.027144,-0.001481,-0.041294,-0.001707,6.4e-05,-0.000157
241850,-0.0056,-0.000439,-0.11287,0.0,-0.0,-0.0,3.0,0.341263,0.316309,0.309914,0.335508,-0.0,-0.0,-0.002778,0.0,0.0,-7.7e-05,-0.027113,-0.00148,-0.041297,0.003092,4.1e-05,-0.000157
241870,-0.005586,-0.000682,-0.112871,0.0,-0.0,-0.0,3.0,0.340085,0.316266,0.311249,0.335547,-0.0,-0.0,-0.002779,0.0,0.0,-7.7e-05,-0.02706,-0.001479,-0.0413,0.0021,2.8e-05,-0.000157
241890,-0.005471,-0.000553,-0.11275,0.0,-0.0,-0.0,3.0,0.335276,0.316137,0.316559,0.335666,-0.0,-0.0,-0.002781,0.0,0.0,-7.7e-05,-0.027035,-0.001478,-0.041303,0.003866,5.3e-05,-0.000157
241910,-0.005485,-0.000309,-0.112749,0.0,-0.0,-0.0,3.0,0.334439,0.316351,0.317461,0.335469,-0.0,-0.0,-0.002782,0.0,0.0,-7.7e-05,-0.026975,-0.001478,-0.041306,0.005029,6.6e-05,-0.000156
241930,-0.00537,-0.000181,-0.112749,0.0,-0.0,-0.0,3.0,0.334123,0.316413,0.3178,0.335412,-0.0,-0.0,-0.002784,0.0,0.0,-7.7e-05,-0.026898,-0.001476,-0.041309,0.005695,9.1e-05,-0.000144
241950,-0.005248,-0.000174,-0.112749,0.0,-0.0,-0.0,3.0,0.335007,0.316445,0.31685,0.335382,-0.0,-0.0,-0.002785,0.0,0.0,-7.7e-05,-0.026823,-0.001474,-0.041312,0.009102,0.000105,-0.000143
241970,-0.004997,-0.000282,-0.112749,0.0,-0.0,-0.0,3.0,0.333796,0.316519,0.31815,0.335313,-0.0,-0.0,-0.002787,0.0,0.0,-7.7e-05,-0.026721,-0.001473,-0.041315,0.009397,0.000117,-0.000143
241990,-0.004618,-0.000505,-0.11275,0.0,-0.0,-0.0,3.0,0.334628,0.316683,0.317258,0.335162,-0.0,-0.0,-0.002788,0.0,0.0,-7.7e-05,-0.026568,-0.001471,-0.041318,0.006289,0.000105,-0.000143
242010,-0.004123,-0.000599,-0.112751,0.0,-0.0,-0.0,3.0,0.333619,0.317042,0.318339,0.334829,-0.0,-0.0,-0.00279,0.0,0.0,-7.7e-05,-0.026373,-0.001469,-0.041321,0.010188,8.2e-05,-0.000155
242030,-0.003887,-0.000464,-0.112629,0.0,-0.0,-0.0,3.0,0.334952,0.317309,0.31691,0.33458,-0.0,-0.0,-0.002791,0.0,0.0,-7.7e-05,-0.026123,-0.001468,-0.041324,0.010509,4.7e-05,-0.000167
242050,-0.003413,-0.000192,-0.112629,0.0,-0.0,-0.0,3.0,0.336988,0.317831,0.314695,0.334094,-0.0,-0.0,-0.002793,0.0,0.0,-7.7e-05,-0.025836,-0.001468,-0.041327,0.015028,2.5e-05,-0.000166
242070,-0.003054,-5e-05,-0.11275,0.0,-0.0,-0.0,3.0,0.338796,0.318181,0.312694,0.333767,-0.0,-0.0,-0.002795,0.0,0.0,-7.7e-05,-0.025501,-0.001467,-0.041331,0.018258,2.8e-05,-0.000166
242090,-0.002824,0.000207,-0.11275,0.0,-0.0,-0.0,3.0,0.339211,0.318358,0.312231,0.333601,-0.0,-0.0,-0.002796,0.0,0.0,-7.7e-05,-0.025158,-0.001465,-0.041334,0.018597,4.2e-05,-0.000154
242110,-0.00258,0.000221,-0.11275,0.0,-0.0,-0.0,3.0,0.340096,0.318429,0.311237,0.333533,-0.0,-0.0,-0.002798,0.0,0.0,-7.7e-05,-0.024813,-0.001464,-0.041337,0.016165,6.8e-05,-0.000153
242130,-0.002215,0.000242,-0.112871,0.0,-0.0,-0.0,3.0,0.338402,0.318521,0.313134,0.333447,-0.0,-0.0,-0.002799,0.0,0.0,-7.7e-05,-0.024473,-0.001462,-0.04134,0.013834,9.3e-05,-0.000153
242150,-0.001957,1.2e-05,-0.112872,0.0,-0.0,-0.0,3.0,0.339999,0.31861,0.311346,0.333364,-0.0,-0.0,-0.002801,0.0,0.0,-7.7e-05,-0.024167,-0.00146,-0.041343,0.015249,8.3e-05,-0.000165
242170,-0.001814,-0.000347,-0.112993,0.0,-0.0,-0.0,3.0,0.33914,0.318502,0.31231,0.333465,-0.0,-0.0,-0.002802,0.0,0.0,-7.7e-05,-0.023884,-0.001458,-0.041346,0.011976,7.1e-05,-0.000164
242190,-0.001679,-0.000584,-0.112993,0.0,-0.0,-0.0,3.0,0.338169,0.318432,0.313392,0.333531,-0.0,-0.0,-0.002804,0.0,0.0,-7.7e-05,-0.023654,-0.001457,-0.04135,0.01242,6e-05,-0.000164
242210,-0.001428,-0.000692,-0.112993,0.0,-0.0,-0.0,3.0,0.336108,0.318415,0.315657,0.333547,-0.0,-0.0,-0.002805,0.0,0.0,-7.7e-05,-0.02345,-0.001456,-0.041353,0.013267,6.2e-05,-0.000164
242230,-0.001184,-0.000678,-0.112993,0.0,-0.0,-0.0,3.0,0.332848,0.318606,0.319157,0.333367,-0.0,-0.0,-0.002807,0.0,0.0,-7.7e-05,-0.023208,-0.001455,-0.041357,0.010435,8.7e-05,-0.000163
242250,-0.000711,-0.000407,-0.112872,0.0,-0.0,-0.0,3.0,0.329701,0.318742,0.322445,0.333239,-0.0,-0.0,-0.002808,0.0,0.0,-7.7e-05,-0.022966,-0.001454,-0.04136,0.010176,0.000112,-0.000163
242270,-0.000366,-2.1e-05,-0.112872,0.0,-0.0,-0.0,3.0,0.329064,0.319075,0.323099,0.332926,-0.0,-0.0,-0.00281,0.0,0.0,-7.7e-05,-0.022693,-0.001452,-0.041363,0.011837,0.000139,-0.000175
242290,-1.4e-05,0.000244,-0.112872,0.0,-0.0,-0.0,3.0,0.332461,0.319355,0.319566,0.332661,-0.0,-0.0,-0.002812,0.0,0.0,-7.7e-05,-0.022401,-0.00145,-0.041367,0.013549,0.000128,-0.000174
242310,0.00023,0.000258,-0.112872,0.0,-0.0,-0.0,3.0,0.338405,0.319795,0.31313,0.332244,-0.0,-0.0,-0.002813,0.0,0.0,-7.7e-05,-0.022071,-0.001447,-0.04137,0.017452,8.2e-05,-0.000174
242330,0.000481,0.000149,-0.112872,0.0,-0.0,-0.0,3.0,0.340638,0.319794,0.310624,0.332245,-0.0,-0.0,-0.002815,0.0,0.0,-7.7e-05,-0.021763,-0.001445,-0.041373,0.018974,5.9e-05,-0.000174
242350,0.000616,-8.7e-05,-0.112993,0.0,-0.0,-0.0,3.0,0.341024,0.319821,0.310186,0.332219,-0.0,-0.0,-0.002816,0.0,0.0,-7.7e-05,-0.021442,-0.001443,-0.041377,0.012334,4.7e-05,-0.000173
242370,0.001111,-0.000182,-0.113114,0.0,-0.0,-0.0,3.0,0.341532,0.319925,0.309606,0.33212,-0.0,-0.0,-0.002818,0.0,0.0,-7.7e-05,-0.021154,-0.001442,-0.04138,0.014253,2.5e-05,-0.000173
242390,0.00124,-0.000297,-0.113114,0.0,-0.0,-0.0,3.0,0.338632,0.319901,0.312877,0.332143,-0.0,-0.0,-0.002819,0.0,0.0,-7.7e-05,-0.02086,-0.001441,-0.041384,0.010335,5e-05,-0.000185
242410,0.001469,-3.9e-05,-0.113235,0.0,-0.0,-0.0,3.0,0.337618,0.319801,0.314002,0.332239,-0.0,-0.0,-0.002821,0.0,0.0,-7.7e-05,-0.020651,-0.00144,-0.041388,0.010906,6.3e-05,-0.000184
242430,0.001578,0.000212,-0.113235,0.0,-0.0,-0.0,3.0,0.335162,0.320014,0.316683,0.332036,-0.0,-0.0,-0.002822,0.0,0.0,-7.7e-05,-0.020421,-0.001438,-0.041391,0.010619,0.000113,-0.000184
242450,0.001699,0.000219,-0.113356,0.0,-0.0,-0.0,3.0,0.335231,0.32001,0.316608,0.33204,-0.0,-0.0,-0.002824,0.0,0.0,-7.7e-05,-0.020216,-0.001436,-0.041395,0.011159,0.000139,-0.000184
242470,0.001835,-1.8e-05,-0.113356,0.0,-0.0,-0.0,3.0,0.332787,0.320027,0.319222,0.332024,-0.0,-0.0,-0.002825,0.0,0.0,-7.7e-05,-0.020034,-0.001433,-0.041399,0.012168,0.000164,-0.000196
242490,0.002093,-0.000248,-0.113477,0.0,-0.0,-0.0,3.0,0.332607,0.320247,0.319412,0.331814,-0.0,-0.0,-0.002827,0.0,0.0,-7.7e-05,-0.019817,-0.001431,-0.041403,0.010297,0.000152,-0.000207
242510,0.002222,-0.000363,-0.113477,0.0,-0.0,-0.0,3.0,0.332026,0.320144,0.320025,0.331913,-0.0,-0.0,-0.002829,0.0,0.0,-7.7e-05,-0.019621,-0.001429,-0.041408,0.006445,0.000128,-0.000219
242530,0.00233,-0.000112,-0.113477,0.0,-0.0,-0.0,3.0,0.334019,0.32005,0.317911,0.332002,-0.0,-0.0,-0.00283,0.0,0.0,-7.7e-05,-0.019489,-0.001427,-0.041412,0.006822,8e-05,-0.00023
242550,0.002187,0.000246,-0.113477,0.0,-0.0,-0.0,3.0,0.337763,0.320192,0.313842,0.331867,-0.0,-0.0,-0.002832,0.0,0.0,-7.7e-05,-0.019348,-0.001426,-0.041416,0.006708,5.6e-05,-0.00023
242570,0.002044,0.000605,-0.113599,0.0,-0.0,-0.0,3.0,0.340318,0.319928,0.310987,0.332118,-0.0,-0.0,-0.002833,0.0,0.0,-7.7e-05,-0.019263,-0.001424,-0.041421,0.002333,5.5e-05,-0.00023
242590,0.001908,0.000842,-0.113599,0.0,-0.0,-0.0,3.0,0.340458,0.319566,0.310828,0.332462,-0.0,-0.0,-0.002835,0.0,0.0,-7.7e-05,-0.019269,-0.001422,-0.041426,0.002168,7.9e-05,-0.000229
242610,0.001908,0.000842,-0.11372,0.0,-0.0,-0.0,3.0,0.339346,0.319419,0.31208,0.332601,-0.0,-0.0,-0.002836,0.0,0.0,-7.7e-05,-0.019291,-0.001419,-0.04143,-0.000542,0.000127,-0.000229
242630,0.001929,0.000477,-0.113841,0.0,-0.0,-0.0,3.0,0.340197,0.319136,0.311123,0.332868,-0.0,-0.0,-0.002838,0.0,0.0,-7.7e-05,-0.019333,-0.001416,-0.041435,-0.004945,0.000137,-0.00024
242650,0.001929,0.000477,-0.113962,0.0,-0.0,-0.0,3.0,0.337169,0.319075,0.314496,0.332926,-0.0,-0.0,-0.002839,0.0,0.0,-7.7e-05,-0.01942,-0.001413,-0.04144,-0.003247,0.000149,-0.000252
242670,0.001713,-2.5e-05,-0.113962,0.0,-0.0,-0.0,3.0,0.335958,0.319168,0.31582,0.332838,-0.0,-0.0,-0.002841,0.0,0.0,-7.7e-05,-0.019462,-0.00141,-0.041445,-0.007513,0.000148,-0.000251
242690,0.001605,-0.000275,-0.114082,0.0,-0.0,-0.0,3.0,0.336319,0.31904,0.315427,0.332959,-0.0,-0.0,-0.002842,0.0,0.0,-7.7e-05,-0.019548,-0.001408,-0.04145,-0.007841,0.00011,-0.000251
242710,0.001476,-0.00016,-0.113962,0.0,-0.0,-0.0,3.0,0.333869,0.319062,0.318071,0.332938,-0.0,-0.0,-0.002844,0.0,0.0,-7.7e-05,-0.019652,-0.001406,-0.041456,-0.003062,0.000111,-0.00025
242730,0.001233,-0.000174,-0.113962,0.0,-0.0,-0.0,3.0,0.331396,0.319077,0.320685,0.332924,-0.0,-0.0,-0.002846,0.0,0.0,-7.7e-05,-0.019722,-0.001404,-0.041461,-0.00445,0.000134,-0.00025
242750,0.001334,0.000198,-0.113841,0.0,-0.0,-0.0,3.0,0.330428,0.318832,0.321693,0.333155,-0.0,-0.0,-0.002847,0.0,0.0,-7.7e-05,-0.019838,-0.001402,-0.041466,-0.004734,0.000145,-0.000261
242770,0.001306,0.000686,-0.11372,0.0,-0.0,-0.0,3.0,0.33213,0.318897,0.319915,0.333093,-0.0,-0.0,-0.002849,0.0,0.0,-7.7e-05,-0.019926,-0.0014,-0.041471,-0.002859,0.000145,-0.000261
242790,0.001055,0.000794,-0.11372,0.0,-0.0,-0.0,3.0,0.337115,0.318922,0.314555,0.33307,-0.0,-0.0,-0.00285,0.0,0.0,-7.7e-05,-0.019999,-0.001397,-0.041476,-0.003749,0.000132,-0.00026
242810,0.000933,0.000787,-0.113841,0.0,-0.0,-0.0,3.0,0.341205,0.318898,0.309979,0.333093,-0.0,-0.0,-0.002852,0.0,0.0,-7.7e-05,-0.020077,-0.001394,-0.041481,-0.00423,9.4e-05,-0.00026
242830,0.001062,0.000672,-0.113962,0.0,-0.0,-0.0,3.0,0.342401,0.318758,0.30861,0.333224,-0.0,-0.0,-0.002853,0.0,0.0,-7.7e-05,-0.020182,-0.001391,-0.041486,-0.001878,8.2e-05,-0.000259
242850,0.000975,5.6e-05,-0.113962,0.0,-0.0,-0.0,3.0,0.344352,0.318863,0.306343,0.333126,-0.0,-0.0,-0.002855,0.0,0.0,-7.7e-05,-0.020234,-0.001389,-0.041491,-0.003057,5.7e-05,-0.000259
242870,0.001226,-5.2e-05,-0.114083,0.0,-0.0,-0.0,3.0,0.341534,0.318917,0.309604,0.333075,-0.0,-0.0,-0.002856,0.0,0.0,-7.7e-05,-0.020281,-0.001387,-0.041496,-0.002066,5.7e-05,-0.000258
242890,0.001219,7e-05,-0.114083,0.0,-0.0,-0.0,3.0,0.336033,0.319038,0.315739,0.33296,-0.0,-0.0,-0.002858,0.0,0.0,-7.7e-05,-0.020288,-0.001386,-0.041502,-0.002506,0.000105,-0.000258
242910,0.00109,0.000185,-0.114083,0.0,-0.0,-0.0,3.0,0.334197,0.319041,0.31772,0.332958,-0.0,-0.0,-0.002859,0.0,0.0,-7.7e-05,-0.020306,-0.001384,-0.041507,-0.002404,0.000129,-0.000257
242930,0.001076,0.000428,-0.114083,0.0,-0.0,-0.0,3.0,0.331585,0.319048,0.320487,0.332951,-0.0,-0.0,-0.002861,0.0,0.0,-7.7e-05,-0.020321,-0.001382,-0.041512,-0.005121,0.000165,-0.000257
242950,0.001076,0.000428,-0.114083,0.0,-0.0,-0.0,3.0,0.331751,0.31927,0.320313,0.332742,-0.0,-0.0,-0.002863,0.0,0.0,-7.7e-05,-0.020333,-0.001379,-0.041517,-4e-06,0.00019,-0.000256
242970,0.00109,0.000185,-0.114083,0.0,-0.0,-0.0,3.0,0.333736,0.319368,0.318213,0.332649,-0.0,-0.0,-0.002864,0.0,0.0,-7.7e-05,-0.020322,-0.001375,-0.041522,0.002644,0.000166,-0.000268
242990,0.001104,-5.9e-05,-0.114083,0.0,-0.0,-0.0,3.0,0.334118,0.319383,0.317806,0.332635,-0.0,-0.0,-0.002866,0.0,0.0,-7.7e-05,-0.020302,-0.001373,-0.041528,0.002508,0.000142,-0.000267
243010,0.001104,-5.9e-05,-0.113962,0.0,-0.0,-0.0,3.0,0.334397,0.319317,0.317507,0.332697,-0.0,-0.0,-0.002867,0.0,0.0,-7.7e-05,-0.020286,-0.001371,-0.041533,0.002604,0.000105,-0.000267
243030,0.00109,0.000184,-0.113962,0.0,-0.0,-0.0,3.0,0.336816,0.31933,0.314883,0.332685,-0.0,-0.0,-0.002869,0.0,0.0,-7.7e-05,-0.020262,-0.001369,-0.041538,0.002542,6.8e-05,-0.000278
243050,0.001306,0.000686,-0.113962,0.0,-0.0,-0.0,3.0,0.337493,0.319562,0.314139,0.332465,-0.0,-0.0,-0.00287,0.0,0.0,-7.7e-05,-0.02021,-0.001367,-0.041544,0.00402,6.9e-05,-0.000266
243070,0.001299,0.000808,-0.113962,0.0,-0.0,-0.0,3.0,0.339782,0.319559,0.311591,0.332468,-0.0,-0.0,-0.002872,0.0,0.0,-7.7e-05,-0.020141,-0.001365,-0.041549,0.002268,9.3e-05,-0.000253
243090,0.001536,0.000943,-0.113962,0.0,-0.0,-0.0,3.0,0.340624,0.319425,0.310639,0.332595,-0.0,-0.0,-0.002873,0.0,0.0,-7.7e-05,-0.020124,-0.001362,-0.041554,0.004336,0.000106,-0.000253
243110,0.001664,0.000829,-0.114083,0.0,-0.0,-0.0,3.0,0.337518,0.319639,0.314112,0.332392,-0.0,-0.0,-0.002875,0.0,0.0,-7.7e-05,-0.020038,-0.001359,-0.041559,0.001797,0.000166,-0.000252
243130,0.001685,0.000463,-0.114083,0.0,-0.0,-0.0,3.0,0.337579,0.319714,0.314045,0.332321,-0.0,-0.0,-0.002876,0.0,0.0,-7.7e-05,-0.019952,-0.001356,-0.041564,-4e-05,0.000166,-0.000252
243150,0.001835,-1.8e-05,-0.113962,0.0,-0.0,-0.0,3.0,0.336948,0.319649,0.314739,0.332383,-0.0,-0.0,-0.002878,0.0,0.0,-7.7e-05,-0.019901,-0.001353,-0.041569,-0.000816,0.000141,-0.000251
243170,0.00172,-0.000146,-0.113961,0.0,-0.0,-0.0,3.0,0.334877,0.319912,0.31699,0.332133,-0.0,-0.0,-0.00288,0.0,0.0,-7.7e-05,-0.019834,-0.001351,-0.041574,0.000635,0.000117,-0.000239
243190,0.001727,-0.000268,-0.11384,0.0,-0.0,-0.0,3.0,0.335481,0.32,0.316338,0.332049,-0.0,-0.0,-0.002881,0.0,0.0,-7.7e-05,-0.019767,-0.001349,-0.041579,0.002089,9.3e-05,-0.000238
243210,0.001835,-1.8e-05,-0.113719,0.0,-0.0,-0.0,3.0,0.335129,0.320113,0.316719,0.331942,-0.0,-0.0,-0.002883,0.0,0.0,-7.7e-05,-0.019722,-0.001348,-0.041584,0.00902,8.3e-05,-0.000225
243230,0.001943,0.000233,-0.113598,0.0,-0.0,-0.0,3.0,0.332674,0.320149,0.319342,0.331907,-0.0,-0.0,-0.002884,0.0,0.0,-7.7e-05,-0.019636,-0.001346,-0.041588,0.009335,0.00012,-0.000225
243250,0.002173,0.00049,-0.113599,0.0,-0.0,-0.0,3.0,0.333044,0.320352,0.318949,0.331714,-0.0,-0.0,-0.002886,0.0,0.0,-7.7e-05,-0.01951,-0.001344,-0.041593,0.008959,0.000145,-0.000212
243270,0.002518,0.000877,-0.113478,0.0,-0.0,-0.0,3.0,0.334527,0.320481,0.317367,0.331591,-0.0,-0.0,-0.002887,0.0,0.0,-7.7e-05,-0.019357,-0.001341,-0.041597,0.0083,0.000145,-0.000212
243290,0.002883,0.000898,-0.113599,0.0,-0.0,-0.0,3.0,0.337215,0.320819,0.314446,0.331268,-0.0,-0.0,-0.002889,0.0,0.0,-7.7e-05,-0.019171,-0.001338,-0.041601,0.012255,0.000135,-0.000224
243310,0.003148,0.000546,-0.11372,0.0,-0.0,-0.0,3.0,0.342307,0.321023,0.308718,0.331072,-0.0,-0.0,-0.00289,0.0,0.0,-7.7e-05,-0.018943,-0.001335,-0.041605,0.010588,8.7e-05,-0.000223
243330,0.003406,0.000316,-0.11384,0.0,-0.0,-0.0,3.0,0.343006,0.321193,0.307911,0.330909,-0.0,-0.0,-0.002892,0.0,0.0,-7.7e-05,-0.018722,-0.001333,-0.04161,0.011365,6.4e-05,-0.000223
243350,0.003419,7.3e-05,-0.113961,0.0,-0.0,-0.0,3.0,0.339988,0.321302,0.311359,0.330804,-0.0,-0.0,-0.002893,0.0,0.0,-7.7e-05,-0.018488,-0.001331,-0.041614,0.008851,7.6e-05,-0.000234
243370,0.003677,-0.000157,-0.11396,0.0,-0.0,-0.0,3.0,0.3383,0.32117,0.313247,0.330932,-0.0,-0.0,-0.002895,0.0,0.0,-7.7e-05,-0.018304,-0.001329,-0.041619,0.004947,7.6e-05,-0.000234
243390,0.003907,0.0001,-0.11384,0.0,-0.0,-0.0,3.0,0.332194,0.32135,0.319848,0.330759,-0.0,-0.0,-0.002897,0.0,0.0,-7.7e-05,-0.018125,-0.001328,-0.041624,0.005743,0.000126,-0.000221
243410,0.003886,0.000466,-0.113719,0.0,-0.0,-0.0,3.0,0.330432,0.321537,0.321688,0.330579,-0.0,-0.0,-0.002898,0.0,0.0,-7.7e-05,-0.017941,-0.001325,-0.041629,0.006555,0.000164,-0.000221
243430,0.003879,0.000588,-0.11372,0.0,-0.0,-0.0,3.0,0.333247,0.321428,0.318734,0.330684,-0.0,-0.0,-0.0029,0.0,0.0,-7.7e-05,-0.017797,-0.001323,-0.041633,0.003524,0.000163,-0.000221
243450,0.003886,0.000466,-0.113719,0.0,-0.0,-0.0,3.0,0.335374,0.321552,0.316454,0.330564,-0.0,-0.0,-0.002901,0.0,0.0,-7.7e-05,-0.017695,-0.00132,-0.041637,0.00923,0.000153,-0.00022
243470,0.003778,0.000215,-0.113719,0.0,-0.0,-0.0,3.0,0.336415,0.321533,0.315322,0.330582,-0.0,-0.0,-0.002903,0.0,0.0,-7.7e-05,-0.017588,-0.001317,-0.041642,0.009853,0.000129,-0.00022
243490,0.003914,-2.2e-05,-0.113718,0.0,-0.0,-0.0,3.0,0.337812,0.321424,0.313788,0.330687,-0.0,-0.0,-0.002904,0.0,0.0,-7.7e-05,-0.017507,-0.001314,-0.041646,0.008568,9.2e-05,-0.000219
243510,0.004273,0.000121,-0.113597,0.0,-0.0,-0.0,3.0,0.336968,0.321441,0.314717,0.330671,-0.0,-0.0,-0.002906,0.0,0.0,-7.7e-05,-0.017405,-0.001313,-0.041651,0.006716,6.8e-05,-0.000219
243530,0.004516,0.000134,-0.113476,0.0,-0.0,-0.0,3.0,0.338333,0.321531,0.31321,0.330584,-0.0,-0.0,-0.002907,0.0,0.0,-7.7e-05,-0.017295,-0.001311,-0.041655,0.007111,5.6e-05,-0.000206
243550,0.004631,0.000263,-0.113476,0.0,-0.0,-0.0,3.0,0.338812,0.321498,0.312677,0.330616,-0.0,-0.0,-0.002909,0.0,0.0,-7.7e-05,-0.017192,-0.00131,-0.041659,0.004931,5.6e-05,-0.000206
243570,0.004732,0.000636,-0.113477,0.0,-0.0,-0.0,3.0,0.338488,0.321768,0.313037,0.330355,-0.0,-0.0,-0.00291,0.0,0.0,-7.7e-05,-0.017069,-0.001308,-0.041663,0.004602,8.1e-05,-0.000193
243590,0.004732,0.000636,-0.113598,0.0,-0.0,-0.0,3.0,0.338705,0.321826,0.312796,0.3303,-0.0,-0.0,-0.002912,0.0,0.0,-7.7e-05,-0.016953,-0.001306,-0.041667,0.00429,0.000118,-0.000193
243610,0.005119,0.000291,-0.113597,0.0,-0.0,-0.0,3.0,0.33644,0.322064,0.315295,0.33007,-0.0,-0.0,-0.002914,0.0,0.0,-7.7e-05,-0.016822,-0.001303,-0.041671,0.003811,0.000143,-0.000193
243630,0.005262,-6.8e-05,-0.113596,0.0,-0.0,-0.0,3.0,0.334643,0.322462,0.317242,0.329685,-0.0,-0.0,-0.002915,0.0,0.0,-7.7e-05,-0.016646,-0.001301,-0.041674,0.007822,0.000144,-0.000192
243650,0.005397,-0.000304,-0.113595,0.0,-0.0,-0.0,3.0,0.33352,0.322435,0.318444,0.32971,-0.0,-0.0,-0.002917,0.0,0.0,-7.7e-05,-0.016479,-0.001299,-0.041679,0.007161,0.000121,-0.000204
243670,0.005397,-0.000304,-0.113595,0.0,-0.0,-0.0,3.0,0.333682,0.322646,0.318271,0.329505,-0.0,-0.0,-0.002918,0.0,0.0,-7.7e-05,-0.01632,-0.001297,-0.041683,0.00939,8.5e-05,-0.000203
243690,0.005512,-0.000176,-0.113596,0.0,-0.0,-0.0,3.0,0.334597,0.322838,0.317291,0.329319,-0.0,-0.0,-0.00292,0.0,0.0,-7.7e-05,-0.01615,-0.001296,-0.041687,0.01125,6.2e-05,-0.000215
243710,0.005742,8.2e-05,-0.113475,0.0,-0.0,-0.0,3.0,0.335294,0.322936,0.31654,0.329223,-0.0,-0.0,-0.002921,0.0,0.0,-7.7e-05,-0.015979,-0.001295,-0.041691,0.012776,6.3e-05,-0.000202
243730,0.006101,0.000224,-0.113475,0.0,-0.0,-0.0,3.0,0.337357,0.322963,0.314289,0.329197,-0.0,-0.0,-0.002923,0.0,0.0,-7.7e-05,-0.01581,-0.001293,-0.041695,0.014355,6.5e-05,-0.000202
243750,0.006446,0.000611,-0.113476,0.0,-0.0,-0.0,3.0,0.336696,0.323264,0.315015,0.328903,-0.0,-0.0,-0.002924,0.0,0.0,-7.7e-05,-0.015571,-0.001291,-0.041699,0.011601,9e-05,-0.000189
243770,0.007062,0.000523,-0.113475,0.0,-0.0,-0.0,3.0,0.33816,0.323365,0.313402,0.328805,-0.0,-0.0,-0.002926,0.0,0.0,-7.7e-05,-0.015347,-0.001289,-0.041703,0.011859,0.000103,-0.000189
243790,0.007313,0.000416,-0.113596,0.0,-0.0,-0.0,3.0,0.338128,0.3239,0.313438,0.328281,-0.0,-0.0,-0.002927,0.0,0.0,-7.7e-05,-0.015055,-0.001287,-0.041706,0.013415,0.000105,-0.000201
243810,0.00757,0.000186,-0.113715,0.0,-0.0,-0.0,3.0,0.340543,0.324218,0.310732,0.327968,-0.0,-0.0,-0.002929,0.0,0.0,-7.7e-05,-0.014744,-0.001285,-0.04171,0.01229,8.2e-05,-0.0002
243830,0.00795,-3.6e-05,-0.113835,0.0,-0.0,-0.0,3.0,0.338574,0.324484,0.312943,0.327705,-0.0,-0.0,-0.002931,0.0,0.0,-7.7e-05,-0.01443,-0.001283,-0.041715,0.013379,8.3e-05,-0.000212
243850,0.0082,-0.000144,-0.113956,0.0,-0.0,-0.0,3.0,0.335951,0.324679,0.315827,0.327513,-0.0,-0.0,-0.002932,0.0,0.0,-7.7e-05,-0.014116,-0.001281,-0.041719,0.014483,8.5e-05,-0.000211
243870,0.008566,-0.000123,-0.113955,0.0,-0.0,-0.0,3.0,0.332319,0.324917,0.319716,0.327278,-0.0,-0.0,-0.002934,0.0,0.0,-7.7e-05,-0.013794,-0.00128,-0.041723,0.015113,0.000112,-0.000223
243890,0.008803,1.2e-05,-0.113834,0.0,-0.0,-0.0,3.0,0.331471,0.325093,0.320607,0.327103,-0.0,-0.0,-0.002935,0.0,0.0,-7.7e-05,-0.013472,-0.001278,-0.041728,0.015887,0.000126,-0.000235
243910,0.008897,0.000507,-0.113836,0.0,-0.0,-0.0,3.0,0.330297,0.325155,0.321828,0.327041,-0.0,-0.0,-0.002937,0.0,0.0,-7.7e-05,-0.013182,-0.001276,-0.041733,0.014752,0.000139,-0.000234
243930,0.009005,0.000758,-0.113837,0.0,-0.0,-0.0,3.0,0.335258,0.325304,0.316579,0.326894,-0.0,-0.0,-0.002938,0.0,0.0,-7.7e-05,-0.012913,-0.001273,-0.041737,0.014371,0.000128,-0.000246
243950,0.009242,0.000893,-0.113838,0.0,-0.0,-0.0,3.0,0.339041,0.32537,0.312421,0.326828,-0.0,-0.0,-0.00294,0.0,0.0,-7.7e-05,-0.012645,-0.001271,-0.041742,0.011578,0.000104,-0.000233
243970,0.009492,0.000786,-0.113958,0.0,-0.0,-0.0,3.0,0.342334,0.325307,0.308686,0.326891,-0.0,-0.0,-0.002941,0.0,0.0,-7.7e-05,-0.012441,-0.001268,-0.041746,0.012702,8.1e-05,-0.000233
243990,0.00952,0.000298,-0.113956,0.0,-0.0,-0.0,3.0,0.342828,0.32521,0.308117,0.326988,-0.0,-0.0,-0.002943,0.0,0.0,-7.7e-05,-0.012245,-0.001266,-0.041751,0.008699,6.9e-05,-0.00022
244010,0.009785,-5.4e-05,-0.113832,0.0,-0.0,-0.0,3.0,0.340838,0.325137,0.310397,0.32706,-0.0,-0.0,-0.002944,0.0,0.0,-7.7e-05,-0.012101,-0.001264,-0.041755,0.005668,6.8e-05,-0.000207
244030,0.009907,-4.7e-05,-0.113711,0.0,-0.0,-0.0,3.0,0.335784,0.325274,0.316009,0.326924,-0.0,-0.0,-0.002946,0.0,0.0,-7.7e-05,-0.011949,-0.001262,-0.04176,0.004736,9.3e-05,-0.000195
244050,0.009785,-5.5e-05,-0.11359,0.0,-0.0,-0.0,3.0,0.333909,0.325289,0.318029,0.326909,-0.0,-0.0,-0.002948,0.0,0.0,-7.7e-05,-0.011819,-0.001261,-0.041764,0.00184,0.000105,-0.000195
244070,0.010022,8e-05,-0.113469,0.0,-0.0,-0.0,3.0,0.332763,0.325459,0.319247,0.326739,-0.0,-0.0,-0.002949,0.0,0.0,-7.7e-05,-0.011723,-0.001259,-0.041768,0.004825,0.000119,-0.000182
244090,0.010144,8.7e-05,-0.113469,0.0,-0.0,-0.0,3.0,0.333484,0.325599,0.318482,0.3266,-0.0,-0.0,-0.002951,0.0,0.0,-7.7e-05,-0.011613,-0.001257,-0.041771,0.007639,0.00012,-0.000182
244110,0.010265,9.4e-05,-0.113469,0.0,-0.0,-0.0,3.0,0.333624,0.32578,0.318333,0.32642,-0.0,-0.0,-0.002952,0.0,0.0,-7.7e-05,-0.011489,-0.001255,-0.041775,0.010184,0.000121,-0.000194
244130,0.010387,0.000101,-0.113469,0.0,-0.0,-0.0,3.0,0.336708,0.325957,0.315002,0.326244,-0.0,-0.0,-0.002954,0.0,0.0,-7.7e-05,-0.011333,-0.001253,-0.041779,0.007311,8.4e-05,-0.000193
244150,0.010631,0.000115,-0.11359,0.0,-0.0,-0.0,3.0,0.337618,0.325979,0.314002,0.326222,-0.0,-0.0,-0.002955,0.0,0.0,-7.7e-05,-0.011197,-0.001251,-0.041783,0.007305,6e-05,-0.000205
244170,0.010624,0.000238,-0.113711,0.0,-0.0,-0.0,3.0,0.339879,0.326202,0.311481,0.325999,-0.0,-0.0,-0.002957,0.0,0.0,-7.7e-05,-0.01105,-0.00125,-0.041787,0.007063,3.7e-05,-0.000204
244190,0.010739,0.000367,-0.113712,0.0,-0.0,-0.0,3.0,0.340554,0.326347,0.310719,0.325853,-0.0,-0.0,-0.002958,0.0,0.0,-7.7e-05,-0.01091,-0.001249,-0.041791,0.006687,3.7e-05,-0.000204
244210,0.01099,0.000259,-0.113832,0.0,-0.0,-0.0,3.0,0.340617,0.326477,0.310647,0.325723,-0.0,-0.0,-0.00296,0.0,0.0,-7.7e-05,-0.01078,-0.001247,-0.041795,0.008794,6.3e-05,-0.000203
244230,0.011125,2.3e-05,-0.113951,0.0,-0.0,-0.0,3.0,0.338391,0.326585,0.313145,0.325615,-0.0,-0.0,-0.002961,0.0,0.0,-7.7e-05,-0.010635,-0.001245,-0.041799,0.010604,8.8e-05,-0.000203
244250,0.011498,-7.8e-05,-0.11395,0.0,-0.0,-0.0,3.0,0.334117,0.326838,0.317807,0.32536,-0.0,-0.0,-0.002963,0.0,0.0,-7.7e-05,-0.010465,-0.001244,-0.041803,0.011865,0.000114,-0.000215
244270,0.01187,-0.000179,-0.113949,0.0,-0.0,-0.0,3.0,0.332142,0.327096,0.319903,0.3251,-0.0,-0.0,-0.002965,0.0,0.0,-7.7e-05,-0.010248,-0.001242,-0.041808,0.009691,0.000127,-0.000226
244290,0.011992,-0.000172,-0.113949,0.0,-0.0,-0.0,3.0,0.332854,0.327229,0.319151,0.324966,-0.0,-0.0,-0.002966,0.0,0.0,-7.7e-05,-0.010029,-0.00124,-0.041812,0.007946,0.000103,-0.000238
244310,0.012222,8.6e-05,-0.11395,0.0,-0.0,-0.0,3.0,0.335742,0.327451,0.316055,0.324742,-0.0,-0.0,-0.002968,0.0,0.0,-7.7e-05,-0.009818,-0.001239,-0.041817,0.006499,6.7e-05,-0.000237
244330,0.012337,0.000215,-0.11395,0.0,-0.0,-0.0,3.0,0.337331,0.327679,0.314318,0.324511,-0.0,-0.0,-0.002969,0.0,0.0,-7.7e-05,-0.009604,-0.001237,-0.041821,0.007278,5.6e-05,-0.000251
244350,0.012452,0.000344,-0.114072,0.0,-0.0,-0.0,3.0,0.338878,0.327646,0.312604,0.324544,-0.0,-0.0,-0.002971,0.0,0.0,-7.7e-05,-0.009438,-0.001236,-0.041826,0.008931,5.7e-05,-0.000238
244370,0.012453,0.000344,-0.114093,0.0,-0.0,-0.0,3.0,0.339843,0.32777,0.311522,0.324419,-0.0,-0.0,-0.002972,0.0,0.0,-7.7e-05,-0.009279,-0.001234,-0.041831,0.007973,7e-05,-0.000236
244390,0.012337,0.000215,-0.114071,0.0,-0.0,-0.0,3.0,0.33799,0.32775,0.313591,0.324439,-0.0,-0.0,-0.002974,0.0,0.0,-7.7e-05,-0.009145,-0.001232,-0.041835,0.004865,9.4e-05,-0.000223
244410,0.012344,9.3e-05,-0.114071,0.0,-0.0,-0.0,3.0,0.335682,0.327542,0.316121,0.32465,-0.0,-0.0,-0.002975,0.0,0.0,-7.7e-05,-0.009084,-0.00123,-0.04184,0.00343,0.000106,-0.000223
244430,0.01223,-3.5e-05,-0.114091,0.0,-0.0,-0.0,3.0,0.336135,0.32763,0.315627,0.324561,-0.0,-0.0,-0.002977,0.0,0.0,-7.7e-05,-0.009032,-0.001228,-0.041845,0.002459,9.4e-05,-0.000234
244450,0.012115,-0.000163,-0.114211,0.0,-0.0,-0.0,3.0,0.337013,0.327439,0.314668,0.324754,-0.0,-0.0,-0.002978,0.0,0.0,-7.7e-05,-0.009033,-0.001227,-0.041849,0.002788,6.9e-05,-0.000236
244470,0.012237,-0.000156,-0.114211,0.0,-0.0,-0.0,3.0,0.336607,0.32718,0.315113,0.325015,-0.0,-0.0,-0.00298,0.0,0.0,-7.7e-05,-0.00909,-0.001226,-0.041854,0.004146,5.7e-05,-0.000235
244490,0.012114,-0.000164,-0.114069,0.0,-0.0,-0.0,3.0,0.335228,0.327159,0.316611,0.325036,-0.0,-0.0,-0.002982,0.0,0.0,-7.7e-05,-0.009104,-0.001224,-0.041859,-0.003432,6.7e-05,-0.000247
244510,0.012229,-3.5e-05,-0.11407,0.0,-0.0,-0.0,3.0,0.334652,0.327003,0.317232,0.325194,-0.0,-0.0,-0.002983,0.0,0.0,-7.7e-05,-0.009167,-0.001223,-0.041864,-0.007428,7.8e-05,-0.000245
244530,0.012222,8.7e-05,-0.114071,0.0,-0.0,-0.0,3.0,0.33631,0.327192,0.315437,0.325003,-0.0,-0.0,-0.002985,0.0,0.0,-7.7e-05,-0.009214,-0.001222,-0.041869,-0.008985,7.7e-05,-0.000246
244550,0.011964,0.000316,-0.114073,0.0,-0.0,-0.0,3.0,0.335291,0.327301,0.316544,0.324893,-0.0,-0.0,-0.002986,0.0,0.0,-7.7e-05,-0.009275,-0.00122,-0.041873,-0.00786,8.9e-05,-0.000244
244570,0.011728,0.000181,-0.114072,0.0,-0.0,-0.0,3.0,0.335761,0.327284,0.316035,0.324911,-0.0,-0.0,-0.002988,0.0,0.0,-7.7e-05,-0.009351,-0.001218,-0.041878,-0.008974,0.0001,-0.000231
244590,0.011498,-7.7e-05,-0.114071,0.0,-0.0,-0.0,3.0,0.338298,0.327318,0.313249,0.324876,-0.0,-0.0,-0.002989,0.0,0.0,-7.7e-05,-0.009465,-0.001216,-0.041883,-0.003686,7.6e-05,-0.000231
244610,0.011261,-0.000213,-0.114071,0.0,-0.0,-0.0,3.0,0.335521,0.327239,0.316294,0.324956,-0.0,-0.0,-0.002991,0.0,0.0,-7.7e-05,-0.009594,-0.001215,-0.041887,-0.000974,7.6e-05,-0.00023
244630,0.011024,-0.000349,-0.114071,0.0,-0.0,-0.0,3.0,0.336555,0.326999,0.315169,0.325198,-0.0,-0.0,-0.002992,0.0,0.0,-7.7e-05,-0.009734,-0.001214,-0.041892,-0.005586,6.2e-05,-0.00023
244650,0.010895,-0.000234,-0.113951,0.0,-0.0,-0.0,3.0,0.335976,0.32687,0.3158,0.325328,-0.0,-0.0,-0.002994,0.0,0.0,-7.7e-05,-0.009887,-0.001213,-0.041896,-0.007363,4.8e-05,-0.000229
244670,0.010875,0.000131,-0.113952,0.0,-0.0,-0.0,3.0,0.335438,0.326758,0.316384,0.32544,-0.0,-0.0,-0.002995,0.0,0.0,-7.7e-05,-0.01005,-0.001212,-0.041901,-0.009067,4.7e-05,-0.000229
244690,0.010868,0.000253,-0.113953,0.0,-0.0,-0.0,3.0,0.33947,0.326819,0.311941,0.325379,-0.0,-0.0,-0.002997,0.0,0.0,-7.7e-05,-0.01021,-0.001211,-0.041905,-0.008108,3.4e-05,-0.000216
244710,0.010868,0.000253,-0.113953,0.0,-0.0,-0.0,3.0,0.341217,0.327028,0.309965,0.325169,-0.0,-0.0,-0.002999,0.0,0.0,-7.7e-05,-0.010335,-0.001209,-0.04191,-0.005609,4.5e-05,-0.000204
244730,0.010753,0.000124,-0.113953,0.0,-0.0,-0.0,3.0,0.338399,0.327115,0.313137,0.325081,-0.0,-0.0,-0.003,0.0,0.0,-7.7e-05,-0.01044,-0.001207,-0.041914,-0.003838,8.2e-05,-0.000204
244750,0.010774,-0.000241,-0.113951,0.0,-0.0,-0.0,3.0,0.336424,0.327397,0.315312,0.324796,-0.0,-0.0,-0.003002,0.0,0.0,-7.7e-05,-0.010483,-0.001206,-0.041918,-0.005662,9.3e-05,-0.000203
244770,0.011024,-0.00035,-0.113829,0.0,-0.0,-0.0,3.0,0.332278,0.327598,0.319759,0.324593,-0.0,-0.0,-0.003003,0.0,0.0,-7.7e-05,-0.010515,-0.001204,-0.041922,-0.002536,0.000106,-0.000203
244790,0.011031,-0.000472,-0.113828,0.0,-0.0,-0.0,3.0,0.3313,0.327849,0.320786,0.324339,-0.0,-0.0,-0.003005,0.0,0.0,-7.7e-05,-0.010502,-0.001203,-0.041926,-8.7e-05,9.4e-05,-0.000215
244810,0.011024,-0.00035,-0.113829,0.0,-0.0,-0.0,3.0,0.333093,0.328068,0.318898,0.324116,-0.0,-0.0,-0.003006,0.0,0.0,-7.7e-05,-0.01048,-0.001202,-0.04193,0.002447,5.8e-05,-0.000214
244830,0.010882,8e-06,-0.11371,0.0,-0.0,-0.0,3.0,0.337594,0.328215,0.314028,0.323967,-0.0,-0.0,-0.003008,0.0,0.0,-7.7e-05,-0.010432,-0.001201,-0.041935,0.001886,2.2e-05,-0.000213
244850,0.010868,0.000252,-0.113711,0.0,-0.0,-0.0,3.0,0.339031,0.328088,0.312433,0.324096,-0.0,-0.0,-0.003009,0.0,0.0,-7.7e-05,-0.010427,-0.0012,-0.041939,0.001785,2.2e-05,-0.000201
244870,0.010753,0.000124,-0.113832,0.0,-0.0,-0.0,3.0,0.340209,0.328061,0.31111,0.324123,-0.0,-0.0,-0.003011,0.0,0.0,-7.7e-05,-0.010416,-0.001199,-0.041942,-0.001171,3.3e-05,-0.000201
244890,0.010997,0.000137,-0.113831,0.0,-0.0,-0.0,3.0,0.338335,0.328026,0.313207,0.324159,-0.0,-0.0,-0.003012,0.0,0.0,-7.7e-05,-0.010444,-0.001198,-0.041946,0.001691,5.8e-05,-0.000188
244910,0.011003,1.6e-05,-0.113831,0.0,-0.0,-0.0,3.0,0.337315,0.328151,0.314336,0.324032,-0.0,-0.0,-0.003014,0.0,0.0,-7.7e-05,-0.010442,-0.001197,-0.04195,0.001368,8.2e-05,-0.000188
244930,0.010895,-0.000235,-0.113829,0.0,-0.0,-0.0,3.0,0.337378,0.328173,0.314266,0.32401,-0.0,-0.0,-0.003016,0.0,0.0,-7.7e-05,-0.01044,-0.001195,-0.041954,-0.001103,6.9e-05,-0.000187
244950,0.011024,-0.00035,-0.113829,0.0,-0.0,-0.0,3.0,0.337005,0.328372,0.314676,0.323807,-0.0,-0.0,-0.003017,0.0,0.0,-7.7e-05,-0.010434,-0.001194,-0.041958,0.001475,5.7e-05,-0.000187
244970,0.010909,-0.000479,-0.113828,0.0,-0.0,-0.0,3.0,0.335028,0.328384,0.316827,0.323795,-0.0,-0.0,-0.003019,0.0,0.0,-7.7e-05,-0.010419,-0.001193,-0.041962,0.00116,5.7e-05,-0.000199
244990,0.010909,-0.000479,-0.113707,0.0,-0.0,-0.0,3.0,0.334466,0.328337,0.317433,0.323842,-0.0,-0.0,-0.00302,0.0,0.0,-7.7e-05,-0.010428,-0.001192,-0.041966,-0.001068,4.5e-05,-0.000198
245010,0.011132,-0.0001,-0.113709,0.0,-0.0,-0.0,3.0,0.332832,0.328507,0.319174,0.32367,-0.0,-0.0,-0.003022,0.0,0.0,-7.7e-05,-0.01042,-0.001192,-0.04197,-0.001391,5.7e-05,-0.000198
245030,0.011132,-0.0001,-0.113709,0.0,-0.0,-0.0,3.0,0.335913,0.328528,0.315869,0.323648,-0.0,-0.0,-0.003023,0.0,0.0,-7.7e-05,-0.01041,-0.001191,-0.041973,-0.001598,5.7e-05,-0.000198
245050,0.010746,0.000245,-0.113711,0.0,-0.0,-0.0,3.0,0.337572,0.328409,0.314052,0.323769,-0.0,-0.0,-0.003025,0.0,0.0,-7.7e-05,-0.010437,-0.00119,-0.041977,-0.003452,4.3e-05,-0.000185
245070,0.010502,0.000231,-0.113711,0.0,-0.0,-0.0,3.0,0.338667,0.32853,0.312839,0.323646,-0.0,-0.0,-0.003026,0.0,0.0,-7.7e-05,-0.010497,-0.001188,-0.041981,-0.00234,5.6e-05,-0.000185
245090,0.010279,-0.000149,-0.11371,0.0,-0.0,-0.0,3.0,0.340795,0.328503,0.310446,0.323673,-0.0,-0.0,-0.003028,0.0,0.0,-7.7e-05,-0.010561,-0.001187,-0.041985,-0.000832,4.3e-05,-0.000172
245110,0.010164,-0.000277,-0.11371,0.0,-0.0,-0.0,3.0,0.337665,0.328379,0.313949,0.323799,-0.0,-0.0,-0.003029,0.0,0.0,-7.7e-05,-0.010656,-0.001186,-0.041988,0.001168,4.3e-05,-0.000184
245130,0.010293,-0.000392,-0.113709,0.0,-0.0,-0.0,3.0,0.335661,0.328251,0.316142,0.32393,-0.0,-0.0,-0.003031,0.0,0.0,-7.7e-05,-0.010753,-0.001185,-0.041992,0.000498,5.4e-05,-0.000184
245150,0.0103,-0.000515,-0.113587,0.0,-0.0,-0.0,3.0,0.334887,0.328062,0.316979,0.324122,-0.0,-0.0,-0.003033,0.0,0.0,-7.7e-05,-0.010851,-0.001184,-0.041996,-0.00258,5.3e-05,-0.000183
245170,0.010157,-0.000156,-0.113589,0.0,-0.0,-0.0,3.0,0.336135,0.32796,0.315627,0.324226,-0.0,-0.0,-0.003034,0.0,0.0,-7.7e-05,-0.010964,-0.001183,-0.041999,-0.007637,2.7e-05,-0.000183
245190,0.010015,0.000203,-0.113591,0.0,-0.0,-0.0,3.0,0.335747,0.328056,0.31605,0.324128,-0.0,-0.0,-0.003036,0.0,0.0,-7.7e-05,-0.011075,-0.001183,-0.042003,-0.010726,4.9e-05,-0.000183
245210,0.009771,0.000189,-0.113591,0.0,-0.0,-0.0,3.0,0.3394,0.328043,0.31202,0.324142,-0.0,-0.0,-0.003037,0.0,0.0,-7.7e-05,-0.011195,-0.001181,-0.042006,-0.010765,4.9e-05,-0.00017
245230,0.009778,6.7e-05,-0.113591,0.0,-0.0,-0.0,3.0,0.337334,0.328017,0.314315,0.324168,-0.0,-0.0,-0.003039,0.0,0.0,-7.7e-05,-0.011359,-0.00118,-0.04201,-0.007594,7.3e-05,-0.00017
245250,0.00967,-0.000184,-0.11359,0.0,-0.0,-0.0,3.0,0.336481,0.328242,0.31525,0.323939,-0.0,-0.0,-0.00304,0.0,0.0,-7.7e-05,-0.011465,-0.001178,-0.042013,-0.0055,8.5e-05,-0.000158
245270,0.009684,-0.000428,-0.113589,0.0,-0.0,-0.0,3.0,0.335694,0.328304,0.316107,0.323876,-0.0,-0.0,-0.003042,0.0,0.0,-7.7e-05,-0.011565,-0.001177,-0.042016,-0.003247,7.2e-05,-0.000157
245290,0.009555,-0.000313,-0.113589,0.0,-0.0,-0.0,3.0,0.332793,0.328477,0.319216,0.323699,-0.0,-0.0,-0.003043,0.0,0.0,-7.7e-05,-0.011635,-0.001176,-0.04202,-0.001756,7.2e-05,-0.000169
245310,0.009426,-0.000198,-0.11359,0.0,-0.0,-0.0,3.0,0.335367,0.328691,0.316461,0.323482,-0.0,-0.0,-0.003045,0.0,0.0,-7.7e-05,-0.011669,-0.001175,-0.042023,-0.000745,4.8e-05,-0.000181
245330,0.009405,0.000168,-0.113592,0.0,-0.0,-0.0,3.0,0.33766,0.328682,0.313955,0.323491,-0.0,-0.0,-0.003046,0.0,0.0,-7.7e-05,-0.011704,-0.001174,-0.042026,0.000283,2.3e-05,-0.000168
245350,0.009513,0.000419,-0.113593,0.0,-0.0,-0.0,3.0,0.339022,0.3287,0.312443,0.323472,-0.0,-0.0,-0.003048,0.0,0.0,-7.7e-05,-0.011752,-0.001173,-0.04203,0.003739,3.6e-05,-0.000168
245370,0.009391,0.000412,-0.113593,0.0,-0.0,-0.0,3.0,0.339982,0.328662,0.311365,0.323511,-0.0,-0.0,-0.00305,0.0,0.0,-7.7e-05,-0.01177,-0.001172,-0.042033,0.001241,6e-05,-0.000168
245390,0.009405,0.000169,-0.113713,0.0,-0.0,-0.0,3.0,0.339838,0.328426,0.311528,0.323752,-0.0,-0.0,-0.003051,0.0,0.0,-7.7e-05,-0.011817,-0.00117,-0.042036,-0.005649,7e-05,-0.000167
245410,0.009283,0.000162,-0.113834,0.0,-0.0,-0.0,3.0,0.337062,0.328413,0.314614,0.323765,-0.0,-0.0,-0.003053,0.0,0.0,-7.7e-05,-0.011908,-0.001168,-0.04204,-0.004019,9.4e-05,-0.000167
245430,0.009047,2.6e-05,-0.113834,0.0,-0.0,-0.0,3.0,0.335237,0.328411,0.316602,0.323767,-0.0,-0.0,-0.003054,0.0,0.0,-7.7e-05,-0.011978,-0.001166,-0.042044,-0.007841,0.000105,-0.000179
245450,0.00881,-0.000109,-0.113834,0.0,-0.0,-0.0,3.0,0.335034,0.328265,0.316821,0.323915,-0.0,-0.0,-0.003056,0.0,0.0,-7.7e-05,-0.012096,-0.001165,-0.042047,-0.01035,9.1e-05,-0.000179
245470,0.00881,-0.00011,-0.113713,0.0,-0.0,-0.0,3.0,0.334349,0.328176,0.317558,0.324006,-0.0,-0.0,-0.003057,0.0,0.0,-7.7e-05,-0.012267,-0.001163,-0.042051,-0.006586,7.9e-05,-0.00019
245490,0.008437,-9e-06,-0.113714,0.0,-0.0,-0.0,3.0,0.334125,0.328153,0.317798,0.324029,-0.0,-0.0,-0.003059,0.0,0.0,-7.7e-05,-0.012412,-0.001162,-0.042055,-0.006097,7.8e-05,-0.000178
245510,0.008308,0.000106,-0.113593,0.0,-0.0,-0.0,3.0,0.336468,0.327921,0.315264,0.324266,-0.0,-0.0,-0.00306,0.0,0.0,-7.7e-05,-0.012573,-0.001161,-0.042058,-0.012843,6.3e-05,-0.000177
245530,0.008044,0.000457,-0.113595,0.0,-0.0,-0.0,3.0,0.336143,0.327846,0.315619,0.324342,-0.0,-0.0,-0.003062,0.0,0.0,-7.7e-05,-0.012773,-0.001159,-0.042062,-0.011348,7.4e-05,-0.000177
245550,0.007306,0.000538,-0.113596,0.0,-0.0,-0.0,3.0,0.339011,0.327643,0.312455,0.324548,-0.0,-0.0,-0.003063,0.0,0.0,-7.7e-05,-0.012984,-0.001157,-0.042065,-0.014623,7.2e-05,-0.000177
245570,0.006818,0.00051,-0.113596,0.0,-0.0,-0.0,3.0,0.340714,0.327207,0.310538,0.324988,-0.0,-0.0,-0.003065,0.0,0.0,-7.7e-05,-0.013306,-0.001156,-0.042068,-0.015402,5.7e-05,-0.000164
245590,0.006338,0.000361,-0.113717,0.0,-0.0,-0.0,3.0,0.338015,0.326758,0.313563,0.325441,-0.0,-0.0,-0.003067,0.0,0.0,-7.7e-05,-0.013681,-0.001154,-0.042072,-0.015634,9.1e-05,-0.000164
245610,0.005749,-4e-05,-0.113717,0.0,-0.0,-0.0,3.0,0.336705,0.326227,0.315005,0.325974,-0.0,-0.0,-0.003068,0.0,0.0,-7.7e-05,-0.014115,-0.001152,-0.042075,-0.016915,0.000101,-0.000164
245630,0.005268,-0.00019,-0.113596,0.0,-0.0,-0.0,3.0,0.335023,0.325559,0.316833,0.32664,-0.0,-0.0,-0.00307,0.0,0.0,-7.7e-05,-0.014603,-0.00115,-0.042078,-0.024641,9.6e-05,-0.000164
245650,0.004774,-9.5e-05,-0.113596,0.0,-0.0,-0.0,3.0,0.334091,0.325048,0.317834,0.327147,-0.0,-0.0,-0.003071,0.0,0.0,-7.7e-05,-0.015143,-0.001149,-0.042082,-0.02868,9.1e-05,-0.000176
245670,0.004029,0.000107,-0.113476,0.0,-0.0,-0.0,3.0,0.334911,0.32466,0.316954,0.327532,-0.0,-0.0,-0.003073,0.0,0.0,-7.7e-05,-0.015693,-0.001147,-0.042085,-0.037525,7.3e-05,-0.000163
245690,0.003399,0.000438,-0.113477,0.0,-0.0,-0.0,3.0,0.335685,0.324213,0.316117,0.327973,-0.0,-0.0,-0.003074,0.0,0.0,-7.7e-05,-0.016325,-0.001146,-0.042088,-0.039616,6.9e-05,-0.000163
245710,0.002661,0.000518,-0.113478,0.0,-0.0,-0.0,3.0,0.337449,0.324287,0.314188,0.3279,-0.0,-0.0,-0.003076,0.0,0.0,-7.7e-05,-0.016948,-0.001144,-0.042091,-0.031751,8e-05,-0.00015
245730,0.001936,0.000355,-0.113477,0.0,-0.0,-0.0,3.0,0.340297,0.323775,0.311009,0.328403,-0.0,-0.0,-0.003077,0.0,0.0,-7.7e-05,-0.017598,-0.001142,-0.042094,-0.030733,6.4e-05,-0.00015
245750,0.001334,0.000198,-0.113477,0.0,-0.0,-0.0,3.0,0.338073,0.323605,0.313498,0.32857,-0.0,-0.0,-0.003079,0.0,0.0,-7.7e-05,-0.018252,-0.001141,-0.042097,-0.027503,8.5e-05,-0.000138
245770,0.00086,-7.3e-05,-0.113477,0.0,-0.0,-0.0,3.0,0.337258,0.323568,0.314399,0.328606,-0.0,-0.0,-0.00308,0.0,0.0,-7.7e-05,-0.018827,-0.001139,-0.0421,-0.025667,8.2e-05,-0.000137
245790,0.000738,-8e-05,-0.113477,0.0,-0.0,-0.0,3.0,0.335024,0.323521,0.316832,0.328652,-0.0,-0.0,-0.003082,0.0,0.0,-7.7e-05,-0.019367,-0.001138,-0.042103,-0.021975,8e-05,-0.000149
245810,0.000616,-8.7e-05,-0.113477,0.0,-0.0,-0.0,3.0,0.334148,0.323948,0.317773,0.328234,-0.0,-0.0,-0.003084,0.0,0.0,-7.7e-05,-0.019784,-0.001136,-0.042106,-0.015725,7.9e-05,-0.000149
245830,0.000609,3.5e-05,-0.113477,0.0,-0.0,-0.0,3.0,0.335649,0.324327,0.316156,0.327861,-0.0,-0.0,-0.003085,0.0,0.0,-7.7e-05,-0.020086,-0.001135,-0.042109,-0.009209,6.7e-05,-0.000161
245850,0.000846,0.00017,-0.113599,0.0,-0.0,-0.0,3.0,0.337965,0.324491,0.313618,0.327699,-0.0,-0.0,-0.003087,0.0,0.0,-7.7e-05,-0.020315,-0.001134,-0.042112,-0.004208,5.5e-05,-0.00016
245870,0.000968,0.000177,-0.113599,0.0,-0.0,-0.0,3.0,0.336936,0.324934,0.314752,0.327261,-0.0,-0.0,-0.003088,0.0,0.0,-7.7e-05,-0.020416,-0.001132,-0.042116,-0.002225,6.7e-05,-0.00016
245890,0.001212,0.000191,-0.11372,0.0,-0.0,-0.0,3.0,0.336512,0.325254,0.315216,0.326943,-0.0,-0.0,-0.00309,0.0,0.0,-7.7e-05,-0.020424,-0.001131,-0.042119,-0.004785,7.8e-05,-0.000172
245910,0.001097,6.2e-05,-0.113841,0.0,-0.0,-0.0,3.0,0.338088,0.325279,0.313482,0.326919,-0.0,-0.0,-0.003091,0.0,0.0,-7.7e-05,-0.020428,-0.001129,-0.042122,-0.004542,6.6e-05,-0.000184
245930,0.000975,5.6e-05,-0.113841,0.0,-0.0,-0.0,3.0,0.338313,0.325289,0.313233,0.326908,-0.0,-0.0,-0.003093,0.0,0.0,-7.7e-05,-0.020438,-0.001128,-0.042126,-0.006774,5.3e-05,-0.000183
245950,0.000738,-8e-05,-0.113962,0.0,-0.0,-0.0,3.0,0.33657,0.325439,0.315153,0.32676,-0.0,-0.0,-0.003094,0.0,0.0,-7.7e-05,-0.020458,-0.001126,-0.04213,-0.006489,6.5e-05,-0.000183
245970,0.00038,-0.000223,-0.113962,0.0,-0.0,-0.0,3.0,0.338986,0.325121,0.312482,0.327075,-0.0,-0.0,-0.003096,0.0,0.0,-7.7e-05,-0.020543,-0.001125,-0.042133,-0.004399,4e-05,-0.000183
245990,0.000136,-0.000237,-0.113962,0.0,-0.0,-0.0,3.0,0.334332,0.324874,0.317576,0.32732,-0.0,-0.0,-0.003097,0.0,0.0,-7.7e-05,-0.020685,-0.001125,-0.042137,-0.00169,6.5e-05,-0.000182
246010,-0.000352,-0.000265,-0.113841,0.0,-0.0,-0.0,3.0,0.334176,0.324421,0.317744,0.327768,-0.0,-0.0,-0.003099,0.0,0.0,-7.7e-05,-0.02084,-0.001123,-0.042141,-0.008858,7.4e-05,-0.000182
246030,-0.000494,9.4e-05,-0.113841,0.0,-0.0,-0.0,3.0,0.33256,0.323817,0.319461,0.328361,-0.0,-0.0,-0.003101,0.0,0.0,-7.7e-05,-0.021096,-0.001122,-0.042144,-0.013911,8.3e-05,-0.000194
246050,-0.000874,0.000317,-0.113719,0.0,-0.0,-0.0,3.0,0.333877,0.323714,0.318063,0.328463,-0.0,-0.0,-0.003102,0.0,0.0,-7.7e-05,-0.021367,-0.001121,-0.042148,-0.013323,8.2e-05,-0.000193
246070,-0.001118,0.000303,-0.113719,0.0,-0.0,-0.0,3.0,0.338673,0.323534,0.312832,0.32864,-0.0,-0.0,-0.003104,0.0,0.0,-7.7e-05,-0.021633,-0.001119,-0.042152,-0.015137,5.5e-05,-0.000181
246090,-0.001233,0.000174,-0.113719,0.0,-0.0,-0.0,3.0,0.341769,0.323163,0.309336,0.329002,-0.0,-0.0,-0.003105,0.0,0.0,-7.7e-05,-0.021956,-0.001118,-0.042155,-0.015757,2.9e-05,-0.00018
246110,-0.001469,3.9e-05,-0.113841,0.0,-0.0,-0.0,3.0,0.339947,0.323197,0.311405,0.328968,-0.0,-0.0,-0.003107,0.0,0.0,-7.7e-05,-0.022255,-0.001117,-0.042159,-0.012153,4e-05,-0.000168
246130,-0.001584,-9e-05,-0.11372,0.0,-0.0,-0.0,3.0,0.339114,0.323268,0.31234,0.328899,-0.0,-0.0,-0.003108,0.0,0.0,-7.7e-05,-0.02249,-0.001115,-0.042162,-0.015071,5e-05,-0.000156
246150,-0.001699,-0.000219,-0.11372,0.0,-0.0,-0.0,3.0,0.334428,0.323446,0.317473,0.328726,-0.0,-0.0,-0.00311,0.0,0.0,-7.7e-05,-0.022678,-0.001114,-0.042165,-0.014102,8.6e-05,-0.000155
246170,-0.001713,2.5e-05,-0.113719,0.0,-0.0,-0.0,3.0,0.332234,0.323521,0.319806,0.328652,-0.0,-0.0,-0.003111,0.0,0.0,-7.7e-05,-0.022854,-0.001113,-0.042169,-0.010536,9.8e-05,-0.000155
246190,-0.001835,1.8e-05,-0.113719,0.0,-0.0,-0.0,3.0,0.331213,0.323746,0.320877,0.328432,-0.0,-0.0,-0.003113,0.0,0.0,-7.7e-05,-0.022981,-0.001112,-0.042172,-0.005568,0.000123,-0.000154
246210,-0.001842,0.00014,-0.113719,0.0,-0.0,-0.0,3.0,0.333988,0.32392,0.317945,0.328261,-0.0,-0.0,-0.003114,0.0,0.0,-7.7e-05,-0.023066,-0.00111,-0.042175,-0.000902,9.9e-05,-0.000166
246230,-0.001978,0.000377,-0.113719,0.0,-0.0,-0.0,3.0,0.334251,0.324056,0.317663,0.328128,-0.0,-0.0,-0.003116,0.0,0.0,-7.7e-05,-0.023121,-0.001108,-0.042178,0.002851,9.9e-05,-0.000178
246250,-0.002208,0.000119,-0.113719,0.0,-0.0,-0.0,3.0,0.336728,0.323879,0.31498,0.328301,-0.0,-0.0,-0.003118,0.0,0.0,-7.7e-05,-0.023153,-0.001106,-0.042182,-0.001479,8.6e-05,-0.000178
246270,-0.002086,0.000126,-0.113719,0.0,-0.0,-0.0,3.0,0.338585,0.323553,0.31293,0.328621,-0.0,-0.0,-0.003119,0.0,0.0,-7.7e-05,-0.023237,-0.001105,-0.042185,-0.004432,4.7e-05,-0.000177
246290,-0.002093,0.000248,-0.113719,0.0,-0.0,-0.0,3.0,0.337866,0.323621,0.313728,0.328554,-0.0,-0.0,-0.003121,0.0,0.0,-7.7e-05,-0.023318,-0.001103,-0.042189,-0.000138,4.8e-05,-0.000177
246310,-0.002343,0.000356,-0.11384,0.087266,-0.0,-0.0,3.0,0.340319,0.276049,0.310985,0.367388,0.000254,-0.0,-0.003122,0.100591,-0.0,-7.7e-05,-0.023384,-0.001102,-0.042192,-0.006312,3.4e-05,-0.000177
246330,-0.002465,0.000349,-0.11384,0.087266,-0.0,-0.0,3.0,0.341151,0.275317,0.310041,0.367881,0.003328,-0.0,-0.003124,0.207268,-0.0,-7.7e-05,-0.023499,-0.001101,-0.042195,-0.006473,3.3e-05,-0.000176
246350,-0.0021,0.000369,-0.113961,0.087266,-0.0,-0.0,3.0,0.337948,0.274698,0.313637,0.368296,0.007475,-0.0,-0.003125,0.19598,-1e-06,-7.7e-05,-0.023618,-0.001099,-0.042199,-0.001959,8.2e-05,-0.000164
246370,-0.000989,0.000188,-0.113841,0.087266,-0.0,-0.0,3.0,0.334807,0.275404,0.317066,0.367822,0.011193,-0.0,-0.003127,0.172464,-1e-06,-7.7e-05,-0.023569,-0.001097,-0.042202,0.012026,0.000123,-0.000164
246390,0.001463,8.3e-05,-0.113962,0.087266,-0.0,-0.0,3.0,0.333412,0.277503,0.318559,0.3664,0.014567,-0.0,-0.003128,0.16486,-2e-06,-7.7e-05,-0.023164,-0.001095,-0.042206,0.036969,0.000131,-0.000175
246410,0.004767,2.8e-05,-0.114081,0.087266,-0.0,-0.0,3.0,0.331753,0.281316,0.320311,0.363757,0.017843,-0.0,-0.00313,0.161969,-2e-06,-7.7e-05,-0.022142,-0.001094,-0.04221,0.072207,0.000134,-0.000187
246430,0.009168,3.5e-05,-0.114197,0.087266,-0.0,-0.0,3.0,0.333173,0.286731,0.318813,0.359869,0.021053,-0.0,-0.003131,0.157617,-2e-06,-7.7e-05,-0.020333,-0.001092,-0.042213,0.117004,0.000108,-0.000211
246450,0.01504,7e-06,-0.114569,0.087266,-0.0,-0.0,3.0,0.334618,0.293546,0.317269,0.354741,0.024166,-0.0,-0.003133,0.152443,-2e-06,-7.7e-05,-0.017558,-0.00109,-0.042218,0.172307,9e-05,-0.000236
246470,0.022374,6.4e-05,-0.11493,0.087266,-0.0,-0.0,3.0,0.336634,0.301311,0.315083,0.34856,0.027177,-0.0,-0.003135,0.147484,-3e-06,-7.7e-05,-0.013684,-0.001089,-0.042223,0.235446,6.8e-05,-0.00027
246490,0.031177,9e-05,-0.115396,0.087266,-0.0,-0.0,3.0,0.337932,0.309943,0.313655,0.341237,0.030092,-0.0,-0.003136,0.14282,-3e-06,-7.7e-05,-0.00858,-0.001087,-0.042228,0.298351,5.4e-05,-0.000304
246510,0.041438,0.000328,-0.115984,0.087266,-0.0,-0.0,3.0,0.336458,0.319174,0.315275,0.332832,0.032914,-0.0,-0.003138,0.138301,-3e-06,-7.7e-05,-0.002182,-0.001086,-0.042235,0.361979,7.2e-05,-0.000364
246530,0.05268,0.000512,-0.116667,0.087266,-0.0,-0.0,3.0,0.335918,0.328686,0.315864,0.323486,0.035647,-0.0,-0.003139,0.133888,-3e-06,-7.7e-05,0.005513,-0.001084,-0.042242,0.423961,9.8e-05,-0.00042
246550,0.064411,0.000736,-0.117467,0.087266,-0.0,-0.0,3.0,0.336602,0.337931,0.315118,0.313655,0.038292,-0.0,-0.003141,0.129592,-3e-06,-7.7e-05,0.014412,-0.001082,-0.042251,0.473703,0.000105,-0.000501
246570,0.076662,0.000518,-0.118364,0.087266,-0.0,-0.0,3.0,0.338163,0.346733,0.313399,0.30352,0.040853,-0.0,-0.003142,0.12542,-4e-06,-7.7e-05,0.024326,-0.00108,-0.042262,0.520167,0.000106,-0.000577
246590,0.089146,0.000575,-0.119381,0.087266,-0.0,-0.0,3.0,0.338513,0.35482,0.31301,0.293444,0.04333,-0.0,-0.003144,0.121366,-4e-06,-7.7e-05,0.035083,-0.001078,-0.042274,0.559441,9.9e-05,-0.000667
246610,0.10153,0.000391,-0.12026,0.087266,-0.0,-0.0,3.0,0.336749,0.361912,0.314957,0.283915,0.045728,-0.0,-0.003145,0.117426,-4e-06,-7.7e-05,0.046438,-0.001076,-0.042288,0.585755,0.000117,-0.000754
246630,0.113771,0.000454,-0.121103,0.087266,-0.0,-0.0,3.0,0.333147,0.368152,0.31884,0.274914,0.048048,-0.0,-0.003147,0.113597,-4e-06,-7.7e-05,0.058211,-0.001073,-0.042304,0.59276,0.000147,-0.000851
246650,0.125145,0.000835,-0.121857,0.087266,-0.0,-0.0,3.0,0.329101,0.373366,0.323062,0.266884,0.050292,-0.0,-0.003148,0.109876,-4e-06,-7.7e-05,0.070115,-0.001071,-0.042322,0.591829,0.000188,-0.000938
246670,0.135408,0.00141,-0.12275,0.087266,-0.0,-0.0,3.0,0.329941,0.377259,0.322197,0.260549,0.052462,-0.0,-0.00315,0.106261,-4e-06,-7.7e-05,0.08184,-0.001068,-0.042341,0.574402,0.0002,-0.001022
246690,0.144092,0.001879,-0.123421,0.087266,-0.0,-0.0,3.0,0.333195,0.37993,0.31879,0.256013,0.05456,-0.0,-0.003152,0.102748,-4e-06,-7.7e-05,0.09312,-0.001064,-0.042362,0.540568,0.000215,-0.001083
246710,0.151325,0.002019,-0.124073,0.087266,-0.0,-0.0,3.0,0.338023,0.38076,0.313554,0.254569,0.05659,-0.0,-0.003153,0.099335,-5e-06,-7.7e-05,0.103562,-0.001059,-0.042384,0.493563,0.00021,-0.001143
246730,0.156603,0.001909,-0.124587,0.087266,-0.0,-0.0,3.0,0.338928,0.379955,0.312548,0.255969,0.058551,-0.0,-0.003155,0.096019,-5e-06,-7.7e-05,0.112865,-0.001054,-0.042407,0.429234,0.000218,-0.001207
246750,0.159932,0.001793,-0.12503,0.087266,-0.0,-0.0,3.0,0.337629,0.377725,0.31399,0.259769,0.060447,-0.0,-0.003156,0.092797,-5e-06,-7.7e-05,0.120793,-0.00105,-0.042432,0.349804,0.000222,-0.001236
246770,0.161168,0.001525,-0.125212,0.087266,-0.0,-0.0,3.0,0.336674,0.373961,0.31504,0.265935,0.06228,-0.0,-0.003158,0.089668,-5e-06,-7.7e-05,0.127121,-0.001045,-0.042457,0.257377,0.000226,-0.001278
246790,0.160317,0.00148,-0.125354,0.087266,-0.0,-0.0,3.0,0.337462,0.368746,0.314174,0.274023,0.06405,-0.0,-0.003159,0.086628,-5e-06,-7.7e-05,0.131601,-0.001041,-0.042482,0.162951,0.000203,-0.001298
246810,0.157229,0.001792,-0.125661,0.087266,-0.0,-0.0,3.0,0.332705,0.362495,0.319309,0.283099,0.06576,-0.0,-0.003161,0.083675,-5e-06,-7.7e-05,0.134193,-0.001037,-0.042509,0.06617,0.00024,-0.001314
246830,0.15232,0.001836,-0.125614,0.087266,-0.0,-0.0,3.0,0.334794,0.355097,0.317079,0.293084,0.067412,-0.0,-0.003162,0.080807,-5e-06,-7.7e-05,0.134849,-0.001032,-0.042535,-0.030598,0.000239,-0.001317
246850,0.146284,0.002185,-0.125711,0.087266,-0.0,-0.0,3.0,0.333893,0.347173,0.318046,0.302991,0.069007,-0.0,-0.003164,0.078022,-5e-06,-7.7e-05,0.133623,-0.001027,-0.042561,-0.114166,0.000267,-0.001322
246870,0.139049,0.002214,-0.125807,0.087266,-0.0,-0.0,3.0,0.333434,0.338671,0.318535,0.312835,0.070547,-0.0,-0.003165,0.075317,-6e-06,-7.7e-05,0.130719,-0.001022,-0.042588,-0.198368,0.000296,-0.00133
246890,0.130963,0.002189,-0.12591,0.087266,-0.0,-0.0,3.0,0.334163,0.329972,0.317758,0.322165,0.072034,-0.0,-0.003167,0.07269,-6e-06,-7.7e-05,0.126238,-0.001016,-0.042614,-0.2669,0.000295,-0.001338
246910,0.122253,0.002247,-0.125996,0.087266,-0.0,-0.0,3.0,0.334577,0.32168,0.317314,0.33044,0.073469,-0.0,-0.003169,0.070139,-6e-06,-7.7e-05,0.120482,-0.001011,-0.042641,-0.324054,0.00029,-0.001355
246930,0.112943,0.002268,-0.126101,0.087266,-0.0,-0.0,3.0,0.33605,0.313647,0.31572,0.337939,0.074853,-0.0,-0.00317,0.067662,-6e-06,-7.7e-05,0.113659,-0.001005,-0.042668,-0.368606,0.00027,-0.001362
246950,0.103762,0.002058,-0.126272,0.087266,-0.0,-0.0,3.0,0.339999,0.306092,0.311346,0.344565,0.076188,-0.0,-0.003172,0.065257,-6e-06,-7.7e-05,0.106017,-0.001,-0.042695,-0.400659,0.000223,-0.001366
246970,0.095188,0.002125,-0.126358,0.087266,-0.0,-0.0,3.0,0.340542,0.299882,0.310733,0.349725,0.077475,-0.0,-0.003173,0.062922,-6e-06,-7.7e-05,0.097883,-0.000995,-0.042723,-0.409773,0.000205,-0.001369
246990,0.08736,0.001995,-0.12641,0.087266,-0.0,-0.0,3.0,0.338268,0.294538,0.313283,0.353972,0.078717,-0.0,-0.003175,0.060655,-6e-06,-7.7e-05,0.089552,-0.00099,-0.04275,-0.407536,0.000237,-0.001363
247010,0.080639,0.001813,-0.126457,0.087266,-0.0,-0.0,3.0,0.335004,0.290777,0.316854,0.356857,0.079913,-0.0,-0.003176,0.058455,-6e-06,-7.7e-05,0.081349,-0.000985,-0.042777,-0.39496,0.000262,-0.001366
247030,0.075243,0.001955,-0.12637,0.087266,-0.0,-0.0,3.0,0.330488,0.28911,0.32163,0.358109,0.081066,-0.0,-0.003178,0.056319,-6e-06,-7.7e-05,0.073591,-0.00098,-0.042805,-0.368686,0.000306,-0.00137
247050,0.071304,0.002312,-0.126289,0.087266,-0.0,-0.0,3.0,0.327992,0.289925,0.324194,0.357499,0.082177,-0.0,-0.003179,0.054247,-6e-06,-7.7e-05,0.06661,-0.000975,-0.042832,-0.325042,0.000335,-0.001358
247070,0.068849,0.002401,-0.126298,0.087266,-0.0,-0.0,3.0,0.332065,0.292868,0.319984,0.355263,0.083247,-0.0,-0.003181,0.052235,-6e-06,-7.7e-05,0.060677,-0.000969,-0.042859,-0.266791,0.000326,-0.001356
247090,0.068477,0.002496,-0.126185,0.087266,-0.0,-0.0,3.0,0.33202,0.297713,0.320031,0.35147,0.084276,-0.0,-0.003183,0.050282,-6e-06,-7.7e-05,0.056006,-0.000963,-0.042886,-0.188591,0.000319,-0.001342
247110,0.069581,0.002439,-0.12605,0.087266,-0.0,-0.0,3.0,0.334001,0.303802,0.317931,0.346497,0.085268,-0.0,-0.003184,0.048388,-7e-06,-7.7e-05,0.052823,-0.000956,-0.042913,-0.108237,0.00031,-0.001327
247130,0.072409,0.002247,-0.125911,0.087266,-0.0,-0.0,3.0,0.335423,0.310624,0.3164,0.340638,0.086222,-0.0,-0.003186,0.04655,-7e-06,-7.7e-05,0.051157,-0.00095,-0.04294,-0.028671,0.000286,-0.001323
247150,0.076561,0.002382,-0.125765,0.087266,-0.0,-0.0,3.0,0.334702,0.31812,0.317179,0.333824,0.087139,-0.0,-0.003187,0.044766,-7e-06,-7.7e-05,0.051083,-0.000945,-0.042966,0.042743,0.000281,-0.001304
247170,0.081942,0.002477,-0.125741,0.087266,-0.0,-0.0,3.0,0.334578,0.32559,0.317312,0.32661,0.088021,-0.0,-0.003189,0.043036,-7e-06,-7.7e-05,0.052462,-0.000939,-0.042992,0.111944,0.000285,-0.001288
247190,0.088054,0.002618,-0.125703,0.087266,-0.0,-0.0,3.0,0.334909,0.333222,0.316956,0.318761,0.08887,-0.0,-0.00319,0.041357,-7e-06,-7.7e-05,0.055203,-0.000934,-0.043017,0.178248,0.000284,-0.00127
247210,0.095274,0.002706,-0.125661,0.087266,-0.0,-0.0,3.0,0.336245,0.340623,0.315508,0.310641,0.089684,-0.0,-0.003192,0.039729,-7e-06,-7.7e-05,0.059193,-0.000928,-0.043043,0.238708,0.000291,-0.001273
247230,0.103118,0.002597,-0.125709,0.087266,-0.0,-0.0,3.0,0.337478,0.347519,0.314156,0.302574,0.090467,-0.0,-0.003193,0.03815,-7e-06,-7.7e-05,0.064295,-0.000922,-0.043068,0.288797,0.000288,-0.001265
247250,0.111333,0.002518,-0.125883,0.087266,-0.0,-0.0,3.0,0.336743,0.353957,0.314964,0.294557,0.091218,-0.0,-0.003195,0.036618,-7e-06,-7.7e-05,0.070324,-0.000916,-0.043094,0.329703,0.00029,-0.001282
247270,0.119563,0.002192,-0.125908,0.087266,-0.0,-0.0,3.0,0.336509,0.359755,0.31522,0.286887,0.09194,-0.0,-0.003196,0.035133,-7e-06,-7.7e-05,0.077122,-0.00091,-0.04312,0.351811,0.000279,-0.001282
247290,0.127665,0.00198,-0.125927,0.087266,-0.0,-0.0,3.0,0.335822,0.364719,0.315968,0.279941,0.092631,-0.0,-0.003198,0.033693,-7e-06,-7.7e-05,0.084395,-0.000905,-0.043145,0.364145,0.000256,-0.001295
247310,0.134899,0.001959,-0.125967,0.087266,-0.0,-0.0,3.0,0.337354,0.36893,0.314293,0.273746,0.093295,-0.0,-0.0032,0.032297,-7e-06,-7.7e-05,0.091906,-0.0009,-0.043171,0.371814,0.000221,-0.001295
247330,0.141138,0.002111,-0.12589,0.087266,-0.0,-0.0,3.0,0.335682,0.372041,0.31612,0.268972,0.09393,-0.0,-0.003201,0.030943,-7e-06,-7.7e-05,0.099404,-0.000895,-0.043197,0.363527,0.000229,-0.001285
247350,0.146657,0.002218,-0.125846,0.087266,-0.0,-0.0,3.0,0.33579,0.373822,0.316003,0.266158,0.094539,-0.0,-0.003203,0.029631,-7e-06,-7.7e-05,0.10658,-0.00089,-0.043223,0.34885,0.000246,-0.001286
247370,0.15105,0.002487,-0.125674,0.087266,-0.0,-0.0,3.0,0.333868,0.374154,0.318073,0.265626,0.095122,-0.0,-0.003204,0.028359,-7e-06,-7.7e-05,0.113205,-0.000885,-0.043248,0.317238,0.000278,-0.001267
247390,0.153741,0.002649,-0.125538,0.087266,-0.0,-0.0,3.0,0.332897,0.373118,0.319105,0.267277,0.09568,-0.0,-0.003206,0.027126,-7e-06,-7.7e-05,0.119037,-0.00088,-0.043273,0.263519,0.000309,-0.001251
247410,0.155224,0.002489,-0.125388,0.087266,-0.0,-0.0,3.0,0.335279,0.370961,0.316557,0.27065,0.096214,-0.0,-0.003207,0.025931,-7e-06,-7.7e-05,0.123819,-0.000874,-0.043298,0.198722,0.000306,-0.001234
247430,0.154745,0.002206,-0.125237,0.087266,-0.0,-0.0,3.0,0.334823,0.367711,0.317049,0.275571,0.096724,-0.0,-0.003209,0.024774,-7e-06,-7.7e-05,0.127374,-0.000868,-0.043323,0.13422,0.000296,-0.001219
247450,0.152794,0.002063,-0.125018,0.087266,-0.0,-0.0,3.0,0.337353,0.363143,0.314293,0.282186,0.097211,-0.0,-0.00321,0.023652,-7e-06,-7.7e-05,0.12953,-0.000862,-0.043347,0.060679,0.000248,-0.001191
247470,0.149375,0.001829,-0.124809,0.087266,-0.0,-0.0,3.0,0.338586,0.357948,0.312929,0.289326,0.097676,-0.0,-0.003212,0.022566,-7e-06,-7.7e-05,0.13025,-0.000857,-0.04337,-0.008668,0.000218,-0.001165
247490,0.144718,0.001753,-0.124499,0.087266,-0.0,-0.0,3.0,0.33749,0.351924,0.314142,0.297143,0.098119,-0.0,-0.003214,0.021513,-7e-06,-7.7e-05,0.129542,-0.000853,-0.043393,-0.076777,0.000214,-0.00113
247510,0.138942,0.001861,-0.124323,0.087266,-0.0,-0.0,3.0,0.334801,0.34528,0.317072,0.30525,0.098541,-0.0,-0.003215,0.020494,-7e-06,-7.7e-05,0.12746,-0.000849,-0.043416,-0.146979,0.000227,-0.001112
247530,0.132553,0.002038,-0.123918,0.087266,-0.0,-0.0,3.0,0.332893,0.338446,0.319109,0.313085,0.098944,-0.0,-0.003217,0.019507,-8e-06,-7.7e-05,0.124084,-0.000844,-0.043438,-0.210699,0.000244,-0.00107
247550,0.125435,0.002173,-0.123518,0.087266,-0.0,-0.0,3.0,0.332157,0.331879,0.319887,0.320179,0.099327,-0.0,-0.003218,0.018551,-8e-06,-7.7e-05,0.119605,-0.000839,-0.043459,-0.258988,0.000273,-0.001052
247570,0.117706,0.002296,-0.123479,0.087266,-0.0,-0.0,3.0,0.337237,0.325291,0.314422,0.326907,0.099691,-0.0,-0.00322,0.017626,-8e-06,-7.7e-05,0.114168,-0.000834,-0.04348,-0.301632,0.000236,-0.001019
247590,0.109628,0.002269,-0.12333,0.087266,-0.0,-0.0,3.0,0.339449,0.319123,0.311965,0.332881,0.100037,-0.0,-0.003221,0.01673,-8e-06,-7.7e-05,0.107941,-0.000829,-0.0435,-0.327589,0.000211,-0.000988
247610,0.101688,0.001881,-0.123004,0.087266,-0.0,-0.0,3.0,0.34015,0.313436,0.311176,0.338129,0.100365,-0.0,-0.003223,0.015863,-8e-06,-7.7e-05,0.101164,-0.000825,-0.04352,-0.34481,0.000199,-0.000967
247630,0.094604,0.001559,-0.122923,0.087266,-0.0,-0.0,3.0,0.340087,0.308374,0.311247,0.342606,0.100676,-0.0,-0.003224,0.015024,-8e-06,-7.7e-05,0.094048,-0.00082,-0.043539,-0.34941,0.000177,-0.000947
247650,0.088265,0.001157,-0.122721,0.087266,-0.0,-0.0,3.0,0.336006,0.304298,0.315768,0.346082,0.10097,-0.0,-0.003226,0.014211,-8e-06,-7.7e-05,0.086886,-0.000817,-0.043558,-0.350793,0.000179,-0.000926
247670,0.08275,0.001169,-0.122375,0.087266,-0.0,-0.0,3.0,0.335508,0.30163,0.316309,0.348298,0.101248,-0.0,-0.003228,0.013426,-8e-06,-7.7e-05,0.079893,-0.000814,-0.043576,-0.339979,0.000163,-0.000903
