time_ms,roll,pitch,yaw,reference_roll,reference_pitch,reference_yaw,reference_throttle,throttle_1,throttle_2,throttle_3,throttle_4,roll_predicted,pitch_predicted,yaw_predicted,roll_rate_predicted,pitch_rate_predicted,yaw_rate_predicted,value1,value2,value3,value4,value5,value6
440954,0.002679,-0.01854,-0.012431,0.0,-0.0,-0.0,3.0,0.3261,0.32021,0.3261,0.33185,,,,,,,0.001945,-0.019829,-0.011079,-0.02305,-2.4e-05,0.000253
440974,0.002434,-0.018419,-0.012434,0.0,-0.0,-0.0,3.0,0.3261,0.319153,0.3261,0.332852,,,,,,,0.001706,-0.019829,-0.011074,-0.024079,-1.2e-05,0.000253
440994,0.002311,-0.018298,-0.012435,0.0,-0.0,-0.0,3.0,0.3261,0.319485,0.3261,0.332538,,,,,,,0.001462,-0.019829,-0.011069,-0.000727,-0.0,0.000252
441014,0.001945,-0.0183,-0.012438,0.0,-0.0,-0.0,3.0,0.3261,0.319458,0.3261,0.332564,,,,,,,0.001214,-0.01983,-0.011064,-0.023502,-0.0,0.000251
441034,0.001821,-0.018057,-0.01244,0.0,-0.0,-0.0,3.0,0.3261,0.322889,0.3261,0.329269,,,,,,,0.001078,-0.01983,-0.011059,-0.021134,2.4e-05,0.00025
441054,0.001456,-0.018181,-0.012443,0.0,-0.0,-0.0,3.0,0.3261,0.319179,0.3261,0.332827,,,,,,,0.000722,-0.01983,-0.011054,-0.022961,1.2e-05,0.00025
441074,0.001334,-0.018182,-0.012444,0.0,-0.0,-0.0,3.0,0.3261,0.317334,0.3261,0.334558,,,,,,,0.000366,-0.019831,-0.011049,0.022117,1.2e-05,0.000249
441094,0.001091,-0.018428,-0.012446,0.0,-0.0,-0.0,3.0,0.3261,0.3146,0.3261,0.337075,,,,,,,9e-06,-0.019831,-0.011044,0.04397,-1.3e-05,0.000248
441114,0.000725,-0.01843,-0.012449,0.0,-0.0,-0.0,3.0,0.3261,0.318376,0.3261,0.333583,,,,,,,0.000121,-0.019831,-0.011039,-0.048005,-1.3e-05,0.000247
441134,0.000482,-0.018675,-0.012452,0.0,-0.0,-0.0,3.0,0.3261,0.320108,0.3261,0.331947,,,,,,,-9e-06,-0.019831,-0.011034,-0.069576,-3.8e-05,0.000247
441154,0.000483,-0.018798,-0.012452,0.0,-0.0,-0.0,3.0,0.3261,0.320456,0.3261,0.331615,,,,,,,-0.000254,-0.019831,-0.011029,-0.022288,-5e-05,0.000246
441174,0.000362,-0.018798,-0.012575,0.0,-0.0,-0.0,3.0,0.3261,0.317462,0.3261,0.334438,,,,,,,-0.000612,-0.019832,-0.011024,0.023247,-5e-05,0.000233
441194,0.000118,-0.0188,-0.012577,0.0,-0.0,-0.0,3.0,0.3261,0.317598,0.3261,0.334312,,,,,,,-0.000735,-0.019832,-0.011019,-9.4e-05,-5e-05,0.000233
441214,-0.000129,-0.018435,-0.012457,0.0,-0.0,-0.0,3.0,0.3261,0.31756,0.3261,0.334347,,,,,,,-0.000984,-0.019833,-0.011015,0.000286,-1.4e-05,0.000244
441234,-0.000252,-0.018314,-0.012458,0.0,-0.0,-0.0,3.0,0.3261,0.318911,0.3261,0.333081,,,,,,,-0.000984,-0.019833,-0.01101,-0.023383,-1e-06,0.000244
441254,-0.000377,-0.018069,-0.012335,0.0,-0.0,-0.0,3.0,0.3261,0.314965,0.3261,0.336742,,,,,,,-0.001335,-0.019833,-0.011005,0.020207,2.3e-05,0.000255
441274,-0.00062,-0.018071,-0.012459,0.0,-0.0,-0.0,3.0,0.3261,0.318942,0.3261,0.333051,,,,,,,-0.001223,-0.019833,-0.011,-0.04819,2.3e-05,0.000243
441294,-0.00062,-0.018071,-0.012459,0.0,-0.0,-0.0,3.0,0.3261,0.323145,0.3261,0.329019,,,,,,,-0.001112,-0.019834,-0.010996,-0.06942,2.3e-05,0.000242
441314,-0.000619,-0.018194,-0.012462,0.0,-0.0,-0.0,3.0,0.3261,0.323072,0.3261,0.329091,,,,,,,-0.001241,-0.019833,-0.010991,-0.044575,1.1e-05,0.000241
441334,-0.000618,-0.018438,-0.012462,0.0,-0.0,-0.0,3.0,0.3261,0.321643,0.3261,0.330476,,,,,,,-0.00148,-0.019833,-0.010986,0.001674,-1.4e-05,0.000241
441354,-0.000617,-0.01856,-0.012462,0.0,-0.0,-0.0,3.0,0.3261,0.318942,0.3261,0.333051,,,,,,,-0.001842,-0.019834,-0.010981,0.071417,-2.6e-05,0.00024
441374,-0.000862,-0.018562,-0.012342,0.0,-0.0,-0.0,3.0,0.3261,0.314982,0.3261,0.336726,,,,,,,-0.002199,-0.019834,-0.010976,0.092994,-2.6e-05,0.000252
441394,-0.001595,-0.018566,-0.012349,0.0,-0.0,-0.0,3.0,0.3261,0.311595,0.3261,0.339778,,,,,,,-0.002557,-0.019834,-0.010971,0.020876,-2.7e-05,0.000251
441414,-0.002085,-0.018447,-0.012231,0.0,-0.0,-0.0,3.0,0.3261,0.314054,0.3261,0.33757,,,,,,,-0.002684,-0.019834,-0.010966,-0.048897,-1.5e-05,0.000262
441434,-0.002451,-0.018327,-0.012356,0.0,-0.0,-0.0,3.0,0.3261,0.314758,0.3261,0.33693,,,,,,,-0.002806,-0.019835,-0.010961,-0.095791,-3e-06,0.000249
441454,-0.002573,-0.018328,-0.012358,0.0,-0.0,-0.0,3.0,0.3261,0.316133,0.3261,0.33567,,,,,,,-0.003051,-0.019835,-0.010956,-0.07223,-3e-06,0.000248
441474,-0.002694,-0.018451,-0.012359,0.0,-0.0,-0.0,3.0,0.3261,0.315589,0.3261,0.33617,,,,,,,-0.003412,-0.019835,-0.010951,-0.026091,-1.5e-05,0.000248
441494,-0.002817,-0.01833,-0.01236,0.0,-0.0,-0.0,3.0,0.3261,0.320904,0.3261,0.331186,,,,,,,-0.003431,-0.019835,-0.010946,-0.045988,-3e-06,0.000247
441514,-0.002938,-0.018452,-0.012361,0.0,-0.0,-0.0,3.0,0.3261,0.32161,0.3261,0.330508,,,,,,,-0.003685,-0.019835,-0.010941,-0.020417,-1.5e-05,0.000246
441534,-0.003183,-0.018454,-0.012241,0.0,-0.0,-0.0,3.0,0.3261,0.31701,0.3261,0.334858,,,,,,,-0.004165,-0.019835,-0.010936,0.024608,-1.5e-05,0.000258
441554,-0.00355,-0.018334,-0.012244,0.0,-0.0,-0.0,3.0,0.3261,0.315278,0.3261,0.336456,,,,,,,-0.004647,-0.019835,-0.010931,0.046857,-3e-06,0.000257
441574,-0.004039,-0.018215,-0.012249,0.0,-0.0,-0.0,3.0,0.3261,0.313913,0.3261,0.337699,,,,,,,-0.004886,-0.019836,-0.010926,-0.001327,9e-06,0.000256
441594,-0.004528,-0.018218,-0.012253,0.0,-0.0,-0.0,3.0,0.3261,0.312672,0.3261,0.338816,,,,,,,-0.005373,-0.019836,-0.010921,-0.001638,9e-06,0.000255
441614,-0.004892,-0.018342,-0.012379,0.0,-0.0,-0.0,3.0,0.3261,0.311752,0.3261,0.339638,,,,,,,-0.005729,-0.019837,-0.010916,-0.003145,-4e-06,0.000242
441634,-0.005013,-0.018465,-0.01238,0.0,-0.0,-0.0,3.0,0.3261,0.31429,0.3261,0.337356,,,,,,,-0.005857,-0.019837,-0.010911,-0.001986,-1.6e-05,0.000242
441654,-0.005136,-0.018588,-0.012259,0.0,-0.0,-0.0,3.0,0.3261,0.316449,0.3261,0.335379,,,,,,,-0.005988,-0.019837,-0.010905,-0.000259,-2.8e-05,0.000253
441674,-0.005257,-0.01871,-0.012261,0.0,-0.0,-0.0,3.0,0.3261,0.316037,0.3261,0.335758,,,,,,,-0.006112,-0.019837,-0.0109,0.000359,-4.1e-05,0.000252
441694,-0.00538,-0.018833,-0.01214,0.0,-0.0,-0.0,3.0,0.3261,0.315923,0.3261,0.335863,,,,,,,-0.006235,-0.019838,-0.010895,0.000419,-5.3e-05,0.000264
441714,-0.005259,-0.018588,-0.012138,0.0,-0.0,-0.0,3.0,0.3261,0.315578,0.3261,0.33618,,,,,,,-0.006234,-0.019838,-0.01089,0.023357,-2.8e-05,0.000264
441734,-0.00526,-0.018588,-0.012016,0.0,-0.0,-0.0,3.0,0.3261,0.314968,0.3261,0.336738,,,,,,,-0.006107,-0.019838,-0.010884,-0.001217,-2.8e-05,0.000275
441754,-0.005384,-0.018344,-0.012017,0.0,-0.0,-0.0,3.0,0.3261,0.316315,0.3261,0.335502,,,,,,,-0.00599,-0.019838,-0.010879,-0.04758,-4e-06,0.000275
441774,-0.005139,-0.018343,-0.012015,0.0,-0.0,-0.0,3.0,0.3261,0.318211,0.3261,0.333738,,,,,,,-0.005872,-0.019838,-0.010874,-0.023192,-4e-06,0.000274
441794,-0.005019,-0.018098,-0.012013,0.0,-0.0,-0.0,3.0,0.3261,0.318585,0.3261,0.333387,,,,,,,-0.00575,-0.019838,-0.010868,-0.023598,2.1e-05,0.000274
441814,-0.004897,-0.018097,-0.012012,0.0,-0.0,-0.0,3.0,0.3261,0.318187,0.3261,0.333761,,,,,,,-0.00575,-0.019838,-0.010863,-0.000109,2.1e-05,0.000274
441834,-0.005018,-0.01822,-0.012013,0.0,-0.0,-0.0,3.0,0.3261,0.318664,0.3261,0.333313,,,,,,,-0.005752,-0.019838,-0.010858,-0.022918,8e-06,0.000273
441854,-0.005018,-0.01822,-0.012013,0.0,-0.0,-0.0,3.0,0.3261,0.319692,0.3261,0.332342,,,,,,,-0.005757,-0.019838,-0.010852,-0.02204,8e-06,0.000272
441874,-0.005018,-0.01822,-0.012013,0.0,-0.0,-0.0,3.0,0.3261,0.318837,0.3261,0.333151,,,,,,,-0.005879,-0.019838,-0.010847,0.001423,8e-06,0.000272
441894,-0.005017,-0.01822,-0.012135,0.0,-0.0,-0.0,3.0,0.3261,0.3173,0.3261,0.334589,,,,,,,-0.005996,-0.019838,-0.010842,0.024083,8e-06,0.000259
441914,-0.004894,-0.018342,-0.012134,0.0,-0.0,-0.0,3.0,0.3261,0.316196,0.3261,0.335612,,,,,,,-0.006114,-0.019838,-0.010836,0.070458,-4e-06,0.000259
441934,-0.004772,-0.018341,-0.012133,0.0,-0.0,-0.0,3.0,0.3261,0.314902,0.3261,0.336799,,,,,,,-0.006109,-0.019838,-0.010831,0.092901,-4e-06,0.000258
441954,-0.004893,-0.018464,-0.012135,0.0,-0.0,-0.0,3.0,0.3261,0.314477,0.3261,0.337186,,,,,,,-0.005988,-0.019838,-0.010826,0.046406,-1.6e-05,0.000258
441974,-0.005016,-0.018465,-0.012136,0.0,-0.0,-0.0,3.0,0.3261,0.314368,0.3261,0.337286,,,,,,,-0.005866,-0.019838,-0.01082,-0.000596,-1.6e-05,0.000257
441994,-0.004893,-0.018464,-0.012135,0.0,-0.0,-0.0,3.0,0.3261,0.314057,0.3261,0.337568,,,,,,,-0.00574,-0.019838,-0.010815,-0.001338,-1.6e-05,0.000257
442014,-0.004771,-0.018463,-0.012134,0.0,-0.0,-0.0,3.0,0.3261,0.313742,0.3261,0.337853,,,,,,,-0.005612,-0.019838,-0.01081,-0.00254,-1.6e-05,0.000256
442034,-0.004771,-0.018463,-0.012134,0.0,-0.0,-0.0,3.0,0.3261,0.316335,0.3261,0.335484,,,,,,,-0.005373,-0.019839,-0.010805,-0.048553,-1.6e-05,0.000256
442054,-0.004771,-0.018463,-0.012134,0.0,-0.0,-0.0,3.0,0.3261,0.321436,0.3261,0.330676,,,,,,,-0.005147,-0.019839,-0.0108,-0.091933,-1.6e-05,0.000255
442074,-0.004527,-0.018462,-0.012131,0.0,-0.0,-0.0,3.0,0.3261,0.321423,0.3261,0.330688,,,,,,,-0.005147,-0.019839,-0.010795,-0.044965,-1.6e-05,0.000255
442094,-0.004285,-0.018216,-0.012129,0.0,-0.0,-0.0,3.0,0.3261,0.318896,0.3261,0.333094,,,,,,,-0.005387,-0.019839,-0.01079,0.047921,9e-06,0.000255
442114,-0.004284,-0.018338,-0.012129,0.0,-0.0,-0.0,3.0,0.3261,0.317323,0.3261,0.334568,,,,,,,-0.005509,-0.019839,-0.010785,0.071489,-3e-06,0.000254
442134,-0.004407,-0.018095,-0.012129,0.0,-0.0,-0.0,3.0,0.3261,0.318174,0.3261,0.333773,,,,,,,-0.00539,-0.019839,-0.01078,0.024875,2.1e-05,0.000254
442154,-0.004529,-0.018217,-0.012131,0.0,-0.0,-0.0,3.0,0.3261,0.314747,0.3261,0.336941,,,,,,,-0.005502,-0.019839,-0.010775,0.023037,9e-06,0.000253
442174,-0.004528,-0.018218,-0.012253,0.0,-0.0,-0.0,3.0,0.3261,0.313381,0.3261,0.338179,,,,,,,-0.005491,-0.01984,-0.01077,0.021144,9e-06,0.00024
442194,-0.004404,-0.018339,-0.012374,0.0,-0.0,-0.0,3.0,0.3261,0.315193,0.3261,0.336533,,,,,,,-0.005246,-0.01984,-0.010765,-0.002208,-3e-06,0.000228
442214,-0.004282,-0.018339,-0.012373,0.0,-0.0,-0.0,3.0,0.3261,0.317289,0.3261,0.3346,,,,,,,-0.005006,-0.01984,-0.010761,-0.024752,-3e-06,0.000227
442234,-0.004158,-0.018582,-0.012373,0.0,-0.0,-0.0,3.0,0.3261,0.31847,0.3261,0.333495,,,,,,,-0.00489,-0.01984,-0.010756,-0.023335,-2.7e-05,0.000227
442254,-0.004279,-0.018705,-0.012374,0.0,-0.0,-0.0,3.0,0.3261,0.317873,0.3261,0.334055,,,,,,,-0.005017,-0.01984,-0.010751,-0.022195,-4e-05,0.000226
442274,-0.004158,-0.018704,-0.012251,0.0,-0.0,-0.0,3.0,0.3261,0.319094,0.3261,0.332908,,,,,,,-0.005024,-0.01984,-0.010747,0.002368,-4e-05,0.000238
442294,-0.00428,-0.018827,-0.012252,0.0,-0.0,-0.0,3.0,0.3261,0.314983,0.3261,0.336726,,,,,,,-0.005259,-0.01984,-0.010742,0.02415,-5.2e-05,0.000237
442314,-0.004281,-0.018582,-0.012252,0.0,-0.0,-0.0,3.0,0.3261,0.315023,0.3261,0.336688,,,,,,,-0.005255,-0.019841,-0.010737,0.023137,-2.7e-05,0.000237
442334,-0.004526,-0.018462,-0.012254,0.0,-0.0,-0.0,3.0,0.3261,0.316164,0.3261,0.335641,,,,,,,-0.005136,-0.019841,-0.010733,-0.046935,-1.5e-05,0.000236
442354,-0.004283,-0.018094,-0.012373,0.0,-0.0,-0.0,3.0,0.3261,0.316692,0.3261,0.335154,,,,,,,-0.005009,-0.019842,-0.010728,-0.024533,2.1e-05,0.000224
442374,-0.004039,-0.018093,-0.01237,0.0,-0.0,-0.0,3.0,0.3261,0.317529,0.3261,0.334376,,,,,,,-0.004886,-0.019842,-0.010724,-0.001341,2.2e-05,0.000224
442394,-0.003795,-0.018091,-0.012368,0.0,-0.0,-0.0,3.0,0.3261,0.322073,0.3261,0.330061,,,,,,,-0.004532,-0.019842,-0.010719,-0.022397,2.2e-05,0.000224
442414,-0.003671,-0.018213,-0.012489,0.0,-0.0,-0.0,3.0,0.3261,0.322826,0.3261,0.32933,,,,,,,-0.004419,-0.019842,-0.010715,-0.020156,1e-05,0.000211
442434,-0.003425,-0.018456,-0.012488,0.0,-0.0,-0.0,3.0,0.3261,0.319957,0.3261,0.33209,,,,,,,-0.004536,-0.019842,-0.010711,0.04949,-1.5e-05,0.000211
442454,-0.003302,-0.018577,-0.012487,0.0,-0.0,-0.0,3.0,0.3261,0.315359,0.3261,0.336381,,,,,,,-0.004644,-0.019843,-0.010706,0.093888,-2.7e-05,0.00021
442474,-0.00318,-0.018576,-0.012486,0.0,-0.0,-0.0,3.0,0.3261,0.314729,0.3261,0.336957,,,,,,,-0.004518,-0.019843,-0.010702,0.093151,-2.7e-05,0.00021
442494,-0.003423,-0.018578,-0.01261,0.0,-0.0,-0.0,3.0,0.3261,0.312023,0.3261,0.339397,,,,,,,-0.004386,-0.019843,-0.010698,0.020971,-2.7e-05,0.000197
442514,-0.003302,-0.018455,-0.012609,0.0,-0.0,-0.0,3.0,0.3261,0.315578,0.3261,0.33618,,,,,,,-0.004151,-0.019844,-0.010694,-0.000858,-1.4e-05,0.000197
442534,-0.003301,-0.018577,-0.012609,0.0,-0.0,-0.0,3.0,0.3261,0.315715,0.3261,0.336055,,,,,,,-0.003901,-0.019844,-0.01069,-0.048738,-2.7e-05,0.000197
442554,-0.003058,-0.018332,-0.012728,0.0,-0.0,-0.0,3.0,0.3261,0.317502,0.3261,0.334401,,,,,,,-0.003786,-0.019845,-0.010686,-0.024118,-2e-06,0.000184
442574,-0.002935,-0.018453,-0.012727,0.0,-0.0,-0.0,3.0,0.3261,0.317427,0.3261,0.334471,,,,,,,-0.003664,-0.019845,-0.010682,-0.023972,-1.4e-05,0.000184
442594,-0.002813,-0.018452,-0.012726,0.0,-0.0,-0.0,3.0,0.3261,0.319932,0.3261,0.332114,,,,,,,-0.003551,-0.019845,-0.010678,-0.022166,-1.4e-05,0.000184
442614,-0.00269,-0.018573,-0.012725,0.0,-0.0,-0.0,3.0,0.3261,0.319694,0.3261,0.33234,,,,,,,-0.003427,-0.019845,-0.010675,-0.022263,-2.6e-05,0.000183
442634,-0.00269,-0.018573,-0.012725,0.0,-0.0,-0.0,3.0,0.3261,0.320452,0.3261,0.331618,,,,,,,-0.00343,-0.019845,-0.010671,-0.021717,-2.6e-05,0.000183
442654,-0.002446,-0.01845,-0.012723,0.0,-0.0,-0.0,3.0,0.3261,0.320591,0.3261,0.331486,,,,,,,-0.003308,-0.019846,-0.010668,0.001579,-1.4e-05,0.000183
442674,-0.002323,-0.018449,-0.012844,0.0,-0.0,-0.0,3.0,0.3261,0.319971,0.3261,0.332077,,,,,,,-0.003306,-0.019847,-0.010664,0.024982,-1.4e-05,0.000171
442694,-0.002445,-0.01845,-0.012845,0.0,-0.0,-0.0,3.0,0.3261,0.318712,0.3261,0.333268,,,,,,,-0.003307,-0.019847,-0.010661,0.001592,-1.4e-05,0.00017
442714,-0.002323,-0.018449,-0.012844,0.0,-0.0,-0.0,3.0,0.3261,0.317675,0.3261,0.33424,,,,,,,-0.003302,-0.019848,-0.010657,0.024022,-1.3e-05,0.00017
442734,-0.002201,-0.018448,-0.012843,0.0,-0.0,-0.0,3.0,0.3261,0.314914,0.3261,0.336789,,,,,,,-0.003293,-0.019848,-0.010654,0.045862,-1.3e-05,0.00017
442754,-0.002079,-0.018448,-0.012842,0.0,-0.0,-0.0,3.0,0.3261,0.315143,0.3261,0.336579,,,,,,,-0.003166,-0.019849,-0.01065,0.04489,-1.3e-05,0.000169
442774,-0.002078,-0.018692,-0.012842,0.0,-0.0,-0.0,3.0,0.3261,0.317777,0.3261,0.334144,,,,,,,-0.002805,-0.019849,-0.010647,-0.024323,-3.8e-05,0.000169
442794,-0.001833,-0.01869,-0.01284,0.0,-0.0,-0.0,3.0,0.3261,0.319533,0.3261,0.332492,,,,,,,-0.002443,-0.01985,-0.010644,-0.046914,-3.7e-05,0.000169
442814,-0.001344,-0.018931,-0.012835,0.0,-0.0,-0.0,3.0,0.3261,0.322063,0.3261,0.330071,,,,,,,-0.002087,-0.01985,-0.01064,-0.021145,-6.1e-05,0.000169
442834,-0.000734,-0.018805,-0.012829,0.0,-0.0,-0.0,3.0,0.3261,0.322362,0.3261,0.329781,,,,,,,-0.001718,-0.019851,-0.010637,0.025131,-4.9e-05,0.000169
442854,-0.00037,-0.018681,-0.012704,0.0,-0.0,-0.0,3.0,0.3261,0.321157,0.3261,0.330943,,,,,,,-0.001474,-0.019851,-0.010633,0.048361,-3.6e-05,0.000181
442874,-0.000127,-0.018435,-0.012702,0.0,-0.0,-0.0,3.0,0.3261,0.320939,0.3261,0.331153,,,,,,,-0.001109,-0.019851,-0.01063,0.024691,-1.2e-05,0.000181
442894,-6e-06,-0.018312,-0.0127,0.0,-0.0,-0.0,3.0,0.3261,0.31816,0.3261,0.333786,,,,,,,-0.000981,-0.019852,-0.010626,0.023376,1e-06,0.000181
442914,0.000115,-0.018067,-0.012699,0.0,-0.0,-0.0,3.0,0.3261,0.318497,0.3261,0.33347,,,,,,,-0.000736,-0.019852,-0.010623,-0.000555,2.5e-05,0.000181
442934,0.00036,-0.018188,-0.012697,0.0,-0.0,-0.0,3.0,0.3261,0.319339,0.3261,0.332676,,,,,,,-0.00049,-0.019852,-0.010619,-0.000674,1.3e-05,0.000181
442954,0.00036,-0.018188,-0.012697,0.0,-0.0,-0.0,3.0,0.3261,0.318632,0.3261,0.333343,,,,,,,-0.000362,-0.019853,-0.010616,-0.025291,1.3e-05,0.00018
442974,0.000362,-0.018432,-0.012819,0.0,-0.0,-0.0,3.0,0.3261,0.320374,0.3261,0.331693,,,,,,,-0.000372,-0.019853,-0.010612,-0.022916,-1.1e-05,0.000168
442994,0.000486,-0.018797,-0.012696,0.0,-0.0,-0.0,3.0,0.3261,0.321791,0.3261,0.330333,,,,,,,-0.000255,-0.019853,-0.010608,-0.021645,-4.8e-05,0.00018
443014,0.000608,-0.018919,-0.012695,0.0,-0.0,-0.0,3.0,0.3261,0.320573,0.3261,0.331503,,,,,,,-0.000377,-0.019854,-0.010605,0.025444,-6e-05,0.00018
443034,0.000608,-0.018797,-0.012695,0.0,-0.0,-0.0,3.0,0.3261,0.316278,0.3261,0.335536,,,,,,,-0.00061,-0.019854,-0.010601,0.070084,-4.8e-05,0.000179
443054,0.000485,-0.018675,-0.012696,0.0,-0.0,-0.0,3.0,0.3261,0.314641,0.3261,0.337037,,,,,,,-0.000607,-0.019854,-0.010597,0.045793,-3.5e-05,0.000179
443074,0.000239,-0.018555,-0.012576,0.0,-0.0,-0.0,3.0,0.3261,0.315432,0.3261,0.336314,,,,,,,-0.000491,-0.019855,-0.010594,-0.023893,-2.3e-05,0.00019
443094,0.00036,-0.018188,-0.012697,0.0,-0.0,-0.0,3.0,0.3261,0.318111,0.3261,0.333832,,,,,,,-0.000245,-0.019855,-0.01059,-0.047886,1.3e-05,0.000178
443114,0.000359,-0.018066,-0.012697,0.0,-0.0,-0.0,3.0,0.3261,0.31772,0.3261,0.334198,,,,,,,-0.000241,-0.019855,-0.010587,-0.048856,2.6e-05,0.000177
443134,0.000482,-0.018187,-0.012696,0.0,-0.0,-0.0,3.0,0.3261,0.321605,0.3261,0.330513,,,,,,,-0.000127,-0.019855,-0.010583,-0.047136,1.3e-05,0.000177
443154,0.000482,-0.018309,-0.012696,0.0,-0.0,-0.0,3.0,0.3261,0.323712,0.3261,0.328465,,,,,,,-0.00014,-0.019855,-0.01058,-0.044361,1e-06,0.000177
443174,0.000605,-0.018308,-0.012695,0.0,-0.0,-0.0,3.0,0.3261,0.325009,0.3261,0.327187,,,,,,,-0.00015,-0.019855,-0.010576,-0.018993,1e-06,0.000177
443194,0.000605,-0.018308,-0.012695,0.0,-0.0,-0.0,3.0,0.3261,0.318502,0.3261,0.333465,,,,,,,-0.000624,-0.019855,-0.010573,0.072179,1e-06,0.000176
443214,0.000605,-0.018308,-0.012695,0.0,-0.0,-0.0,3.0,0.3261,0.314758,0.3261,0.336931,,,,,,,-0.000855,-0.019855,-0.010569,0.116605,1e-06,0.000176
443234,0.000482,-0.018187,-0.012696,0.0,-0.0,-0.0,3.0,0.3261,0.313315,0.3261,0.338239,,,,,,,-0.000724,-0.019855,-0.010565,0.067709,1.3e-05,0.000175
443254,0.00036,-0.018188,-0.012697,0.0,-0.0,-0.0,3.0,0.3261,0.31616,0.3261,0.335645,,,,,,,-0.000488,-0.019855,-0.010562,-0.001103,1.3e-05,0.000175
443274,0.00036,-0.018188,-0.012697,0.0,-0.0,-0.0,3.0,0.3261,0.316269,0.3261,0.335545,,,,,,,-0.000362,-0.019854,-0.010558,-0.02543,1.3e-05,0.000175
443294,0.000484,-0.018431,-0.012818,0.0,-0.0,-0.0,3.0,0.3261,0.318724,0.3261,0.333256,,,,,,,-0.000244,-0.019854,-0.010555,-0.024112,-1.1e-05,0.000162
443314,0.000606,-0.01843,-0.012817,0.0,-0.0,-0.0,3.0,0.3261,0.321073,0.3261,0.331024,,,,,,,-4e-06,-0.019854,-0.010552,-0.046662,-1.1e-05,0.000162
443334,0.000607,-0.018553,-0.012817,0.0,-0.0,-0.0,3.0,0.3261,0.319951,0.3261,0.332096,,,,,,,-0.000132,-0.019854,-0.010548,-0.022061,-2.3e-05,0.000162
443354,0.000728,-0.018552,-0.012694,0.0,-0.0,-0.0,3.0,0.3261,0.320161,0.3261,0.331896,,,,,,,-0.000132,-0.019854,-0.010545,0.001348,-2.3e-05,0.000174
443374,0.000727,-0.018308,-0.012694,0.0,-0.0,-0.0,3.0,0.3261,0.317446,0.3261,0.334454,,,,,,,-0.000246,-0.019854,-0.010542,0.022889,1e-06,0.000173
443394,0.000726,-0.018186,-0.012694,0.0,-0.0,-0.0,3.0,0.3261,0.319976,0.3261,0.332072,,,,,,,-0.000133,-0.019854,-0.010538,0.000972,1.4e-05,0.000173
443414,0.000846,-0.01794,-0.01269,0.0,-0.0,-0.0,3.0,0.3261,0.319997,0.3261,0.332052,,,,,,,-1e-05,-0.019854,-0.010535,0.000557,3.8e-05,0.000173
443434,0.000969,-0.018062,-0.012692,0.0,-0.0,-0.0,3.0,0.3261,0.321296,0.3261,0.33081,,,,,,,0.000108,-0.019854,-0.010531,0.001472,2.6e-05,0.000173
443454,0.001092,-0.018183,-0.01269,0.0,-0.0,-0.0,3.0,0.3261,0.318997,0.3261,0.332999,,,,,,,0.000119,-0.019854,-0.010528,0.023032,1.4e-05,0.000172
443474,0.001336,-0.018182,-0.012688,0.0,-0.0,-0.0,3.0,0.3261,0.319182,0.3261,0.332825,,,,,,,0.000241,-0.019854,-0.010524,0.046527,1.4e-05,0.000172
443494,0.001338,-0.018426,-0.012688,0.0,-0.0,-0.0,3.0,0.3261,0.318065,0.3261,0.333876,,,,,,,0.000242,-0.019854,-0.010521,0.04666,-1.1e-05,0.000172
443514,0.001338,-0.018426,-0.012688,0.0,-0.0,-0.0,3.0,0.3261,0.317659,0.3261,0.334255,,,,,,,0.000367,-0.019854,-0.010518,0.022597,-1.1e-05,0.000171
443534,0.001217,-0.018671,-0.012689,0.0,-0.0,-0.0,3.0,0.3261,0.318599,0.3261,0.333374,,,,,,,0.000484,-0.019854,-0.010514,-0.023186,-3.5e-05,0.000171
443554,0.001338,-0.018426,-0.012688,0.0,-0.0,-0.0,3.0,0.3261,0.320844,0.3261,0.331243,,,,,,,0.000722,-0.019853,-0.010511,-0.045629,-1.1e-05,0.000171
443574,0.001582,-0.018424,-0.012686,0.0,-0.0,-0.0,3.0,0.3261,0.318389,0.3261,0.333572,,,,,,,0.000607,-0.019853,-0.010507,0.023262,-1e-05,0.000171
443594,0.001701,-0.018179,-0.012563,0.0,-0.0,-0.0,3.0,0.3261,0.31939,0.3261,0.332628,,,,,,,0.000728,-0.019853,-0.010504,0.022956,1.4e-05,0.000183
443614,0.001701,-0.018179,-0.012563,0.0,-0.0,-0.0,3.0,0.3261,0.32148,0.3261,0.330633,,,,,,,0.000964,-0.019853,-0.0105,-0.022427,1.4e-05,0.000182
443634,0.001822,-0.017933,-0.01256,0.0,-0.0,-0.0,3.0,0.3261,0.321554,0.3261,0.330562,,,,,,,0.001082,-0.019853,-0.010497,-0.021923,3.9e-05,0.000182
443654,0.002066,-0.017933,-0.01256,0.0,-0.0,-0.0,3.0,0.3261,0.318796,0.3261,0.333189,,,,,,,0.000971,-0.019853,-0.010493,0.046423,3.9e-05,0.000182
443674,0.002188,-0.017932,-0.012559,0.0,-0.0,-0.0,3.0,0.3261,0.319484,0.3261,0.332539,,,,,,,0.00122,-0.019853,-0.01049,0.021965,3.9e-05,0.000182
443694,0.002068,-0.018055,-0.012682,0.0,-0.0,-0.0,3.0,0.3261,0.321739,0.3261,0.330383,,,,,,,0.001457,-0.019852,-0.010486,-0.046691,2.6e-05,0.000169
443714,0.002313,-0.018175,-0.012679,0.0,-0.0,-0.0,3.0,0.3261,0.323329,0.3261,0.32884,,,,,,,0.001569,-0.019852,-0.010483,-0.021109,1.4e-05,0.000169
443734,0.002801,-0.018172,-0.012675,0.0,-0.0,-0.0,3.0,0.3261,0.323129,0.3261,0.329035,,,,,,,0.001695,-0.019851,-0.010479,0.048651,1.5e-05,0.000169
443754,0.00268,-0.018295,-0.012676,0.0,-0.0,-0.0,3.0,0.3261,0.319001,0.3261,0.332995,,,,,,,0.001581,-0.019851,-0.010476,0.04714,2e-06,0.000169
443774,0.002678,-0.018051,-0.012676,0.0,-0.0,-0.0,3.0,0.3261,0.320391,0.3261,0.331677,,,,,,,0.001696,-0.01985,-0.010472,0.024726,2.7e-05,0.000168
443794,0.002554,-0.01793,-0.012555,0.0,-0.0,-0.0,3.0,0.3261,0.318049,0.3261,0.33389,,,,,,,0.001699,-0.019849,-0.010469,0.000387,3.9e-05,0.00018
443814,0.002675,-0.017806,-0.012552,0.0,-0.0,-0.0,3.0,0.3261,0.316619,0.3261,0.335221,,,,,,,0.001708,-0.019848,-0.010465,0.021931,5.1e-05,0.00018
443834,0.002674,-0.017684,-0.01243,0.0,-0.0,-0.0,3.0,0.3261,0.316092,0.3261,0.335708,,,,,,,0.001839,-0.019847,-0.010462,-0.003616,6.3e-05,0.000192
443854,0.002796,-0.017683,-0.012429,0.0,-0.0,-0.0,3.0,0.3261,0.320228,0.3261,0.331832,,,,,,,0.002197,-0.019846,-0.010458,-0.049028,6.3e-05,0.000191
443874,0.002918,-0.017805,-0.012428,0.0,-0.0,-0.0,3.0,0.3261,0.324998,0.3261,0.327197,,,,,,,0.002546,-0.019845,-0.010455,-0.092472,5.1e-05,0.000191
443894,0.003531,-0.017924,-0.012546,0.0,-0.0,-0.0,3.0,0.3261,0.329211,0.3261,0.322948,,,,,,,0.002899,-0.019845,-0.010451,-0.042562,3.9e-05,0.000179
443914,0.004019,-0.017921,-0.012542,0.0,-0.0,-0.0,3.0,0.3261,0.326746,0.3261,0.325453,,,,,,,0.003026,-0.019844,-0.010447,0.026951,3.9e-05,0.000179
443934,0.004385,-0.017918,-0.012539,0.0,-0.0,-0.0,3.0,0.3261,0.324428,0.3261,0.327761,,,,,,,0.003152,-0.019843,-0.010444,0.073134,3.9e-05,0.000179
443954,0.004751,-0.017794,-0.012536,0.0,-0.0,-0.0,3.0,0.3261,0.320331,0.3261,0.331734,,,,,,,0.003287,-0.019842,-0.01044,0.117392,5.1e-05,0.000179
443974,0.004751,-0.017794,-0.012536,0.0,-0.0,-0.0,3.0,0.3261,0.318041,0.3261,0.333898,,,,,,,0.003662,-0.019841,-0.010437,0.045282,5.1e-05,0.000179
443994,0.004751,-0.017794,-0.012536,0.0,-0.0,-0.0,3.0,0.3261,0.319843,0.3261,0.332199,,,,,,,0.004025,-0.01984,-0.010433,-0.024552,5.1e-05,0.000178
444014,0.004995,-0.017792,-0.012534,0.0,-0.0,-0.0,3.0,0.3261,0.320445,0.3261,0.331625,,,,,,,0.004395,-0.019839,-0.010429,-0.048745,5.1e-05,0.000178
444034,0.005364,-0.018034,-0.012652,0.0,-0.0,-0.0,3.0,0.3261,0.322567,0.3261,0.329583,,,,,,,0.004635,-0.019838,-0.010426,-0.024096,2.7e-05,0.000166
444054,0.005607,-0.01791,-0.01265,0.0,-0.0,-0.0,3.0,0.3261,0.324703,0.3261,0.32749,,,,,,,0.004996,-0.019837,-0.010422,-0.046648,3.9e-05,0.000166
444074,0.00573,-0.018032,-0.012648,0.0,-0.0,-0.0,3.0,0.3261,0.326533,0.3261,0.325667,,,,,,,0.005105,-0.019837,-0.010419,-0.044017,2.7e-05,0.000166
444094,0.005974,-0.01803,-0.012646,0.0,-0.0,-0.0,3.0,0.3261,0.326223,0.3261,0.325978,,,,,,,0.005101,-0.019836,-0.010416,0.003857,2.7e-05,0.000165
444114,0.006095,-0.017785,-0.012646,0.0,-0.0,-0.0,3.0,0.3261,0.321747,0.3261,0.330376,,,,,,,0.004871,-0.019835,-0.010413,0.071262,5.2e-05,0.000165
444134,0.00585,-0.017665,-0.012648,0.0,-0.0,-0.0,3.0,0.3261,0.318662,0.3261,0.333315,,,,,,,0.004758,-0.019834,-0.010409,0.045818,6.4e-05,0.000165
444154,0.005484,-0.017545,-0.012774,0.0,-0.0,-0.0,3.0,0.3261,0.318096,0.3261,0.333847,,,,,,,0.004637,-0.019833,-0.010406,-0.001266,7.6e-05,0.000152
444174,0.005364,-0.017912,-0.012774,0.0,-0.0,-0.0,3.0,0.3261,0.318988,0.3261,0.333008,,,,,,,0.004638,-0.019832,-0.010403,-0.024584,3.9e-05,0.000151
444194,0.005121,-0.018035,-0.012776,0.0,-0.0,-0.0,3.0,0.3261,0.318732,0.3261,0.333249,,,,,,,0.004395,-0.019832,-0.0104,-0.024553,2.6e-05,0.000151
444214,0.005121,-0.018157,-0.012776,0.0,-0.0,-0.0,3.0,0.3261,0.321017,0.3261,0.331078,,,,,,,0.004394,-0.019831,-0.010397,-0.024253,1.4e-05,0.000151
444234,0.004999,-0.018158,-0.012777,0.0,-0.0,-0.0,3.0,0.3261,0.319747,0.3261,0.332289,,,,,,,0.004271,-0.01983,-0.010394,-0.024015,1.4e-05,0.00015
444254,0.00512,-0.018158,-0.012654,0.0,-0.0,-0.0,3.0,0.3261,0.322636,0.3261,0.329515,,,,,,,0.00426,-0.01983,-0.010391,0.001345,1.4e-05,0.000162
444274,0.004997,-0.017914,-0.012655,0.0,-0.0,-0.0,3.0,0.3261,0.320099,0.3261,0.331955,,,,,,,0.004146,-0.019829,-0.010387,-0.000448,3.8e-05,0.000162
444294,0.004996,-0.017792,-0.012656,0.0,-0.0,-0.0,3.0,0.3261,0.321646,0.3261,0.330473,,,,,,,0.004142,-0.019828,-0.010384,0.000104,5e-05,0.000161
444314,0.004994,-0.017548,-0.012656,0.0,-0.0,-0.0,3.0,0.3261,0.323439,0.3261,0.328732,,,,,,,0.004259,-0.019827,-0.010381,-0.022778,7.5e-05,0.000161
444334,0.004994,-0.017548,-0.012656,0.0,-0.0,-0.0,3.0,0.3261,0.324144,0.3261,0.32804,,,,,,,0.004256,-0.019826,-0.010378,-0.022041,7.4e-05,0.000161
444354,0.005117,-0.017669,-0.012655,0.0,-0.0,-0.0,3.0,0.3261,0.323832,0.3261,0.328347,,,,,,,0.004256,-0.019825,-0.010375,0.001474,6.2e-05,0.000161
444374,0.005118,-0.017791,-0.012655,0.0,-0.0,-0.0,3.0,0.3261,0.321184,0.3261,0.330918,,,,,,,0.004145,-0.019824,-0.010372,0.023039,5e-05,0.00016
444394,0.005241,-0.017913,-0.012653,0.0,-0.0,-0.0,3.0,0.3261,0.31963,0.3261,0.332401,,,,,,,0.004027,-0.019824,-0.010369,0.069262,3.8e-05,0.00016
444414,0.004997,-0.018036,-0.012655,0.0,-0.0,-0.0,3.0,0.3261,0.319901,0.3261,0.332143,,,,,,,0.004149,-0.019823,-0.010365,-0.001027,2.5e-05,0.00016
444434,0.004875,-0.018037,-0.012656,0.0,-0.0,-0.0,3.0,0.3261,0.320868,0.3261,0.331221,,,,,,,0.004143,-0.019822,-0.010362,-0.023202,2.5e-05,0.000159
444454,0.004997,-0.017914,-0.012655,0.0,-0.0,-0.0,3.0,0.3261,0.32336,0.3261,0.32881,,,,,,,0.004381,-0.019821,-0.010359,-0.045786,3.7e-05,0.000159
444474,0.005242,-0.018035,-0.012653,0.0,-0.0,-0.0,3.0,0.3261,0.320499,0.3261,0.331574,,,,,,,0.004144,-0.019819,-0.010356,0.046879,2.5e-05,0.000159
444494,0.005239,-0.017791,-0.012531,0.0,-0.0,-0.0,3.0,0.3261,0.321213,0.3261,0.33089,,,,,,,0.004266,-0.019819,-0.010352,0.022904,4.9e-05,0.000171
444514,0.005117,-0.017792,-0.012532,0.0,-0.0,-0.0,3.0,0.3261,0.323022,0.3261,0.329139,,,,,,,0.004381,-0.019818,-0.010349,-0.022653,4.9e-05,0.00017
444534,0.004994,-0.01767,-0.012534,0.0,-0.0,-0.0,3.0,0.3261,0.323437,0.3261,0.328734,,,,,,,0.004378,-0.019817,-0.010346,-0.045584,6.1e-05,0.00017
444554,0.005116,-0.01767,-0.012533,0.0,-0.0,-0.0,3.0,0.3261,0.321812,0.3261,0.330313,,,,,,,0.004266,-0.019817,-0.010343,-0.000656,6.1e-05,0.00017
444574,0.005117,-0.017669,-0.012655,0.0,-0.0,-0.0,3.0,0.3261,0.319713,0.3261,0.332322,,,,,,,0.004153,-0.019816,-0.010339,0.021279,6.1e-05,0.000157
444594,0.004996,-0.017792,-0.012656,0.0,-0.0,-0.0,3.0,0.3261,0.322682,0.3261,0.32947,,,,,,,0.004267,-0.019815,-0.010336,-0.02387,4.9e-05,0.000157
444614,0.005119,-0.017913,-0.012654,0.0,-0.0,-0.0,3.0,0.3261,0.324513,0.3261,0.327677,,,,,,,0.004379,-0.019814,-0.010333,-0.021825,3.7e-05,0.000156
444634,0.00512,-0.018158,-0.012654,0.0,-0.0,-0.0,3.0,0.3261,0.321655,0.3261,0.330465,,,,,,,0.00414,-0.019813,-0.01033,0.024365,1.2e-05,0.000156
444654,0.005242,-0.018157,-0.012652,0.0,-0.0,-0.0,3.0,0.3261,0.322083,0.3261,0.330051,,,,,,,0.004142,-0.019812,-0.010327,0.047449,1.2e-05,0.000156
444674,0.004999,-0.01828,-0.012654,0.0,-0.0,-0.0,3.0,0.3261,0.31839,0.3261,0.333571,,,,,,,0.004029,-0.019812,-0.010324,0.022476,-0.0,0.000155
444694,0.004875,-0.018037,-0.012656,0.0,-0.0,-0.0,3.0,0.3261,0.320345,0.3261,0.331721,,,,,,,0.004019,-0.019811,-0.01032,0.000586,2.4e-05,0.000155
444714,0.004874,-0.017915,-0.012534,0.0,-0.0,-0.0,3.0,0.3261,0.320415,0.3261,0.331654,,,,,,,0.004146,-0.019811,-0.010317,-0.02429,3.6e-05,0.000167
444734,0.004872,-0.017671,-0.012535,0.0,-0.0,-0.0,3.0,0.3261,0.320348,0.3261,0.331718,,,,,,,0.004152,-0.01981,-0.010314,-0.02561,6.1e-05,0.000166
444754,0.004994,-0.01767,-0.012534,0.0,-0.0,-0.0,3.0,0.3261,0.322574,0.3261,0.329576,,,,,,,0.004271,-0.019809,-0.010311,-0.025025,6.1e-05,0.000166
444774,0.004996,-0.017792,-0.012656,0.0,-0.0,-0.0,3.0,0.3261,0.325945,0.3261,0.326255,,,,,,,0.00438,-0.019809,-0.010308,-0.045758,4.8e-05,0.000154
444794,0.004998,-0.017914,-0.012777,0.0,-0.0,-0.0,3.0,0.3261,0.325841,0.3261,0.32636,,,,,,,0.004252,-0.019808,-0.010305,-0.020706,3.6e-05,0.000141
444814,0.005243,-0.018034,-0.012775,0.0,-0.0,-0.0,3.0,0.3261,0.325313,0.3261,0.326885,,,,,,,0.004131,-0.019807,-0.010302,0.049725,2.4e-05,0.000141
444834,0.004998,-0.018158,-0.012655,0.0,-0.0,-0.0,3.0,0.3261,0.319485,0.3261,0.332538,,,,,,,0.003777,-0.019806,-0.010299,0.070704,1.1e-05,0.000153
444854,0.004754,-0.01816,-0.012657,0.0,-0.0,-0.0,3.0,0.3261,0.317194,0.3261,0.334688,,,,,,,0.003542,-0.019806,-0.010296,0.068912,1.1e-05,0.000152
444874,0.004386,-0.017918,-0.012661,0.0,-0.0,-0.0,3.0,0.3261,0.316102,0.3261,0.335699,,,,,,,0.003546,-0.019805,-0.010293,-0.002614,3.5e-05,0.000152
444894,0.004264,-0.017919,-0.012662,0.0,-0.0,-0.0,3.0,0.3261,0.318863,0.3261,0.333125,,,,,,,0.003664,-0.019805,-0.01029,-0.048804,3.5e-05,0.000151
444914,0.004264,-0.017919,-0.012662,0.0,-0.0,-0.0,3.0,0.3261,0.320877,0.3261,0.331212,,,,,,,0.003786,-0.019804,-0.010287,-0.072218,3.5e-05,0.000151
444934,0.004386,-0.017918,-0.012661,0.0,-0.0,-0.0,3.0,0.3261,0.323434,0.3261,0.328737,,,,,,,0.003783,-0.019804,-0.010284,-0.048106,3.5e-05,0.000151
444954,0.004388,-0.01804,-0.012783,0.0,-0.0,-0.0,3.0,0.3261,0.326583,0.3261,0.325617,,,,,,,0.003891,-0.019803,-0.010281,-0.068561,2.3e-05,0.000138
444974,0.004388,-0.01804,-0.012783,0.0,-0.0,-0.0,3.0,0.3261,0.326336,0.3261,0.325864,,,,,,,0.003638,-0.019803,-0.010278,-0.019897,2.3e-05,0.000138
444994,0.004389,-0.018162,-0.012782,0.0,-0.0,-0.0,3.0,0.3261,0.322154,0.3261,0.329983,,,,,,,0.003282,-0.019802,-0.010276,0.048845,1.1e-05,0.000138
445014,0.004143,-0.017919,-0.012785,0.0,-0.0,-0.0,3.0,0.3261,0.317363,0.3261,0.334531,,,,,,,0.002806,-0.019801,-0.010273,0.093115,3.5e-05,0.000137
445034,0.003899,-0.017921,-0.012787,0.0,-0.0,-0.0,3.0,0.3261,0.317566,0.3261,0.334342,,,,,,,0.002811,-0.019801,-0.01027,0.045128,3.5e-05,0.000137
445054,0.003532,-0.017801,-0.012791,0.0,-0.0,-0.0,3.0,0.3261,0.316968,0.3261,0.334898,,,,,,,0.002689,-0.0198,-0.010267,-0.002014,4.7e-05,0.000136
445074,0.003412,-0.018046,-0.012792,0.0,-0.0,-0.0,3.0,0.3261,0.319994,0.3261,0.332055,,,,,,,0.002807,-0.0198,-0.010264,-0.047887,2.2e-05,0.000136
445094,0.003533,-0.017923,-0.012791,0.0,-0.0,-0.0,3.0,0.3261,0.320686,0.3261,0.331395,,,,,,,0.002683,-0.019799,-0.010262,-0.000672,3.4e-05,0.000136
445114,0.003535,-0.018167,-0.01279,0.0,-0.0,-0.0,3.0,0.3261,0.32122,0.3261,0.330884,,,,,,,0.002806,-0.019798,-0.010259,-0.023996,1e-05,0.000135
445134,0.003656,-0.018045,-0.012789,0.0,-0.0,-0.0,3.0,0.3261,0.323962,0.3261,0.328219,,,,,,,0.002918,-0.019798,-0.010256,-0.022197,2.2e-05,0.000135
445154,0.003899,-0.018043,-0.012665,0.0,-0.0,-0.0,3.0,0.3261,0.325172,0.3261,0.327025,,,,,,,0.003162,-0.019797,-0.010253,-0.02244,2.2e-05,0.000147
445174,0.003899,-0.018043,-0.012665,0.0,-0.0,-0.0,3.0,0.3261,0.323032,0.3261,0.329129,,,,,,,0.003041,-0.019796,-0.010251,0.000784,2.2e-05,0.000147
445194,0.004143,-0.017919,-0.012785,0.0,-0.0,-0.0,3.0,0.3261,0.325346,0.3261,0.326852,,,,,,,0.003281,-0.019796,-0.010248,0.001744,3.4e-05,0.000135
445214,0.004021,-0.01792,-0.012786,0.0,-0.0,-0.0,3.0,0.3261,0.321234,0.3261,0.33087,,,,,,,0.003047,-0.019796,-0.010245,0.023177,3.4e-05,0.000134
445234,0.003776,-0.0178,-0.012789,0.0,-0.0,-0.0,3.0,0.3261,0.320175,0.3261,0.331882,,,,,,,0.002803,-0.019795,-0.010243,0.023145,4.6e-05,0.000134
445254,0.003534,-0.018045,-0.01279,0.0,-0.0,-0.0,3.0,0.3261,0.319146,0.3261,0.332859,,,,,,,0.00256,-0.019795,-0.01024,0.023106,2.2e-05,0.000133
445274,0.00329,-0.018047,-0.012793,0.0,-0.0,-0.0,3.0,0.3261,0.318657,0.3261,0.333319,,,,,,,0.002442,-0.019795,-0.010237,-0.001105,2.1e-05,0.000133
445294,0.003048,-0.018293,-0.012917,0.0,-0.0,-0.0,3.0,0.3261,0.315815,0.3261,0.335962,,,,,,,0.002086,-0.019794,-0.010235,0.020974,-3e-06,0.00012
445314,0.002804,-0.018294,-0.012919,0.0,-0.0,-0.0,3.0,0.3261,0.318035,0.3261,0.333904,,,,,,,0.002084,-0.019794,-0.010232,-0.02578,-3e-06,0.00012
445334,0.002437,-0.018419,-0.0128,0.0,-0.0,-0.0,3.0,0.3261,0.320048,0.3261,0.332004,,,,,,,0.001952,-0.019794,-0.01023,-0.070873,-1.6e-05,0.000131
445354,0.002437,-0.018297,-0.0128,0.0,-0.0,-0.0,3.0,0.3261,0.323564,0.3261,0.32861,,,,,,,0.001943,-0.019793,-0.010227,-0.069215,-4e-06,0.000131
445374,0.002436,-0.018175,-0.0128,0.0,-0.0,-0.0,3.0,0.3261,0.322893,0.3261,0.329265,,,,,,,0.001698,-0.019793,-0.010224,-0.022261,9e-06,0.000131
445394,0.002313,-0.018175,-0.012679,0.0,-0.0,-0.0,3.0,0.3261,0.321451,0.3261,0.330661,,,,,,,0.001332,-0.019793,-0.010222,0.02446,8e-06,0.000143
445414,0.002067,-0.017933,-0.012682,0.0,-0.0,-0.0,3.0,0.3261,0.322038,0.3261,0.330095,,,,,,,0.001206,-0.019793,-0.010219,0.001526,3.3e-05,0.000142
445434,0.001822,-0.017812,-0.012684,0.0,-0.0,-0.0,3.0,0.3261,0.320098,0.3261,0.331956,,,,,,,0.000966,-0.019792,-0.010216,0.000455,4.5e-05,0.000142
445454,0.001699,-0.01769,-0.012683,0.0,-0.0,-0.0,3.0,0.3261,0.317902,0.3261,0.334027,,,,,,,0.000731,-0.019792,-0.010214,0.022042,5.7e-05,0.000142
445474,0.001578,-0.017813,-0.012684,0.0,-0.0,-0.0,3.0,0.3261,0.315933,0.3261,0.335854,,,,,,,0.000497,-0.019791,-0.010211,0.043797,4.5e-05,0.000141
445494,0.001335,-0.01806,-0.012688,0.0,-0.0,-0.0,3.0,0.3261,0.318567,0.3261,0.333404,,,,,,,0.000615,-0.019791,-0.010208,-0.025542,2e-05,0.00014
445514,0.001094,-0.018305,-0.012812,0.0,-0.0,-0.0,3.0,0.3261,0.322113,0.3261,0.330023,,,,,,,0.000601,-0.01979,-0.010205,-0.069301,-5e-06,0.000128
445534,0.001095,-0.018427,-0.012812,0.0,-0.0,-0.0,3.0,0.3261,0.321447,0.3261,0.330665,,,,,,,0.000356,-0.01979,-0.010202,-0.022066,-1.7e-05,0.000128
445554,0.001095,-0.018427,-0.012812,0.0,-0.0,-0.0,3.0,0.3261,0.320147,0.3261,0.33191,,,,,,,0.000115,-0.019789,-0.0102,0.024318,-1.7e-05,0.000127
445574,0.000849,-0.018429,-0.012693,0.0,-0.0,-0.0,3.0,0.3261,0.317775,0.3261,0.334146,,,,,,,-0.000247,-0.019789,-0.010197,0.046657,-1.7e-05,0.000139
445594,0.000603,-0.018064,-0.012695,0.0,-0.0,-0.0,3.0,0.3261,0.318179,0.3261,0.333768,,,,,,,-0.000248,-0.019789,-0.010194,-0.000501,1.9e-05,0.000138
445614,0.000236,-0.017943,-0.012696,0.0,-0.0,-0.0,3.0,0.3261,0.318066,0.3261,0.333875,,,,,,,-0.000368,-0.019789,-0.010192,-0.047985,3.1e-05,0.000138
445634,0.000112,-0.0177,-0.012697,0.0,-0.0,-0.0,3.0,0.3261,0.318941,0.3261,0.333052,,,,,,,-0.00049,-0.019789,-0.010189,-0.048404,5.6e-05,0.000138
445654,0.000235,-0.017699,-0.012818,0.0,-0.0,-0.0,3.0,0.3261,0.321236,0.3261,0.330868,,,,,,,-0.000492,-0.019788,-0.010187,-0.024133,5.6e-05,0.000125
445674,0.000113,-0.0177,-0.012819,0.0,-0.0,-0.0,3.0,0.3261,0.321554,0.3261,0.330562,,,,,,,-0.000493,-0.019788,-0.010184,-0.047525,5.5e-05,0.000125
445694,0.000115,-0.017945,-0.012821,0.0,-0.0,-0.0,3.0,0.3261,0.323376,0.3261,0.328794,,,,,,,-0.000624,-0.019787,-0.010181,-0.022083,3.1e-05,0.000125
445714,0.00036,-0.018066,-0.012819,0.0,-0.0,-0.0,3.0,0.3261,0.322474,0.3261,0.329673,,,,,,,-0.000747,-0.019786,-0.010179,0.048828,1.9e-05,0.000124
445734,0.000238,-0.018311,-0.012698,0.0,-0.0,-0.0,3.0,0.3261,0.319991,0.3261,0.332058,,,,,,,-0.000865,-0.019786,-0.010176,0.048133,-6e-06,0.000136
445754,-7e-06,-0.01819,-0.0127,0.0,-0.0,-0.0,3.0,0.3261,0.31552,0.3261,0.336234,,,,,,,-0.001095,-0.019785,-0.010174,0.045209,6e-06,0.000136
445774,-0.000128,-0.018069,-0.012824,0.0,-0.0,-0.0,3.0,0.3261,0.317328,0.3261,0.334564,,,,,,,-0.000979,-0.019785,-0.010171,-0.000613,1.8e-05,0.000123
445794,-0.000373,-0.017948,-0.012826,0.0,-0.0,-0.0,3.0,0.3261,0.316989,0.3261,0.334878,,,,,,,-0.000975,-0.019784,-0.010168,-0.048453,3e-05,0.000123
445814,-0.000372,-0.018071,-0.012826,0.0,-0.0,-0.0,3.0,0.3261,0.318823,0.3261,0.333164,,,,,,,-0.000973,-0.019784,-0.010166,-0.048727,1.8e-05,0.000123
445834,-0.000251,-0.017948,-0.012825,0.0,-0.0,-0.0,3.0,0.3261,0.320668,0.3261,0.331412,,,,,,,-0.000978,-0.019783,-0.010163,-0.024315,3e-05,0.000122
445854,-0.00025,-0.01807,-0.012825,0.0,-0.0,-0.0,3.0,0.3261,0.323479,0.3261,0.328693,,,,,,,-0.000864,-0.019783,-0.010161,-0.046132,1.8e-05,0.000122
445874,-0.000374,-0.01807,-0.012704,0.0,-0.0,-0.0,3.0,0.3261,0.324018,0.3261,0.328164,,,,,,,-0.000996,-0.019783,-0.010158,-0.044465,1.8e-05,0.000134
445894,-0.000251,-0.018192,-0.012703,0.0,-0.0,-0.0,3.0,0.3261,0.324443,0.3261,0.327746,,,,,,,-0.001122,-0.019782,-0.010156,0.003498,6e-06,0.000134
445914,-0.000251,-0.017948,-0.012825,0.0,-0.0,-0.0,3.0,0.3261,0.319114,0.3261,0.332889,,,,,,,-0.001349,-0.019782,-0.010154,0.046935,3e-05,0.000121
445934,-0.000495,-0.017949,-0.012827,0.0,-0.0,-0.0,3.0,0.3261,0.316935,0.3261,0.334929,,,,,,,-0.001587,-0.019782,-0.010151,0.04588,3e-05,0.000121
445954,-0.000495,-0.017949,-0.012827,0.0,-0.0,-0.0,3.0,0.3261,0.317723,0.3261,0.334195,,,,,,,-0.001587,-0.019781,-0.010149,0.045887,3e-05,0.000121
445974,-0.000738,-0.018195,-0.012829,0.0,-0.0,-0.0,3.0,0.3261,0.318467,0.3261,0.333498,,,,,,,-0.00159,-0.019781,-0.010146,-0.000189,5e-06,0.00012
445994,-0.00086,-0.018196,-0.01283,0.087266,-0.0,-0.0,3.0,0.3261,0.273822,0.3261,0.36888,,,,,,,-0.001587,-0.019781,-0.010144,-0.024342,5e-06,0.00012
446014,-0.000737,-0.018317,-0.012829,0.087266,-0.0,-0.0,3.0,0.3261,0.272643,0.3261,0.369659,,,,,,,-0.001581,-0.019781,-0.010141,-0.001794,-7e-06,0.00012
446034,-0.00037,-0.018437,-0.012826,0.087266,-0.0,-0.0,3.0,0.3261,0.276868,0.3261,0.366833,,,,,,,-0.00122,-0.019781,-0.010139,-0.000669,-1.9e-05,0.00012
446054,0.000728,-0.018308,-0.012816,0.087266,-0.0,-0.0,3.0,0.3261,0.285838,0.3261,0.360522,,,,,,,-0.000264,-0.019781,-0.010137,0.026566,-6e-06,0.000121
446074,0.003048,-0.018293,-0.012917,0.087266,-0.0,-0.0,3.0,0.3261,0.297669,0.3261,0.351505,,,,,,,0.001794,-0.01978,-0.010134,0.077186,-5e-06,0.00011
446094,0.006466,-0.018148,-0.013008,0.087266,-0.0,-0.0,3.0,0.3261,0.306673,0.3261,0.344069,,,,,,,0.004713,-0.01978,-0.010132,0.17321,1e-05,0.000101
446114,0.010985,-0.018239,-0.013087,0.087266,-0.0,-0.0,3.0,0.3261,0.315704,0.3261,0.336065,,,,,,,0.008734,-0.01978,-0.01013,0.269001,1e-06,9.3e-05
446134,0.016358,-0.018201,-0.013281,0.087266,-0.0,-0.0,3.0,0.3261,0.323112,0.3261,0.329052,,,,,,,0.013858,-0.01978,-0.010128,0.316885,5e-06,7.3e-05
446154,0.022588,-0.018277,-0.01359,0.087266,-0.0,-0.0,3.0,0.3261,0.330176,0.3261,0.321954,,,,,,,0.019961,-0.01978,-0.010127,0.341376,-3e-06,4.2e-05
446174,0.029552,-0.018465,-0.014008,0.087266,-0.0,-0.0,3.0,0.3261,0.338815,0.3261,0.312674,,,,,,,0.027042,-0.01978,-0.010127,0.31877,-2.2e-05,0.0
446194,0.037004,-0.018523,-0.014424,0.087266,-0.0,-0.0,3.0,0.3261,0.342791,0.3261,0.30816,,,,,,,0.034377,-0.019781,-0.010127,0.341229,-2.8e-05,-4.1e-05
446214,0.044458,-0.018703,-0.014715,0.087266,-0.0,-0.0,3.0,0.3261,0.347948,0.3261,0.302056,,,,,,,0.041953,-0.019782,-0.010128,0.317981,-4.5e-05,-7e-05
446234,0.051788,-0.018755,-0.015128,0.087266,-0.0,-0.0,3.0,0.3261,0.354986,0.3261,0.293228,,,,,,,0.049511,-0.019783,-0.01013,0.274069,-5.1e-05,-0.000111
446254,0.058634,-0.019056,-0.015418,0.087266,-0.0,-0.0,3.0,0.3261,0.355751,0.3261,0.292231,,,,,,,0.056351,-0.019784,-0.010132,0.275241,-8e-05,-0.00014
446274,0.064862,-0.018874,-0.015602,0.087266,-0.0,-0.0,3.0,0.3261,0.351042,0.3261,0.298249,,,,,,,0.062224,-0.019785,-0.010135,0.343359,-6.2e-05,-0.000158
446294,0.069754,-0.019068,-0.01579,0.087266,-0.0,-0.0,3.0,0.3261,0.341376,0.3261,0.309784,,,,,,,0.067013,-0.019787,-0.010139,0.363212,-8.1e-05,-0.000177
446314,0.073296,-0.019038,-0.015754,0.087266,-0.0,-0.0,3.0,0.3261,0.332941,0.3261,0.319059,,,,,,,0.071064,-0.019789,-0.010142,0.265244,-7.8e-05,-0.000173
446334,0.075863,-0.019138,-0.015724,0.087266,-0.0,-0.0,3.0,0.3261,0.326724,0.3261,0.325475,,,,,,,0.074254,-0.01979,-0.010146,0.145354,-8.8e-05,-0.000169
446354,0.077692,-0.019248,-0.015577,0.087266,-0.0,-0.0,3.0,0.3261,0.322228,0.3261,0.329911,,,,,,,0.07659,-0.019792,-0.010149,0.047934,-9.9e-05,-0.000154
446374,0.079039,-0.019238,-0.015565,0.087266,-0.0,-0.0,3.0,0.3261,0.321119,0.3261,0.33098,,,,,,,0.078303,-0.019794,-0.010152,-0.022626,-9.8e-05,-0.000153
446394,0.080137,-0.019228,-0.015553,0.087266,-0.0,-0.0,3.0,0.3261,0.320754,0.3261,0.33133,,,,,,,0.079401,-0.019797,-0.010155,-0.022743,-9.6e-05,-0.000151
446414,0.08087,-0.019216,-0.015667,0.087266,-0.0,-0.0,3.0,0.3261,0.319508,0.3261,0.332516,,,,,,,0.080007,-0.019799,-0.010158,0.001744,-9.5e-05,-0.000162
446434,0.08148,-0.019333,-0.015655,0.087266,-0.0,-0.0,3.0,0.3261,0.320094,0.3261,0.33196,,,,,,,0.080486,-0.0198,-0.010161,0.027113,-0.000107,-0.000161
446454,0.082218,-0.019322,-0.015771,0.087266,-0.0,-0.0,3.0,0.3261,0.318463,0.3261,0.333502,,,,,,,0.080857,-0.019802,-0.010164,0.097647,-0.000105,-0.000172
446474,0.083072,-0.019314,-0.015762,0.087266,-0.0,-0.0,3.0,0.3261,0.314767,0.3261,0.336922,,,,,,,0.081485,-0.019804,-0.010168,0.141143,-0.000104,-0.000171
446494,0.083927,-0.019302,-0.015874,0.087266,-0.0,-0.0,3.0,0.3261,0.314166,0.3261,0.337469,,,,,,,0.08247,-0.019806,-0.010171,0.116129,-0.000103,-0.000182
446514,0.085273,-0.01929,-0.015862,0.087266,-0.0,-0.0,3.0,0.3261,0.323089,0.3261,0.329074,,,,,,,0.084287,-0.019808,-0.010175,0.025665,-0.000102,-0.00018
446534,0.087353,-0.019267,-0.015963,0.087266,-0.0,-0.0,3.0,0.3261,0.330892,0.3261,0.321211,,,,,,,0.086475,-0.01981,-0.010179,0.004787,-9.9e-05,-0.00019
446554,0.089913,-0.019121,-0.015939,0.087266,-0.0,-0.0,3.0,0.3261,0.33351,0.3261,0.318454,,,,,,,0.088675,-0.019812,-0.010182,0.074008,-8.4e-05,-0.000187
446574,0.092725,-0.019213,-0.016026,0.087266,-0.0,-0.0,3.0,0.3261,0.340081,0.3261,0.311253,,,,,,,0.091226,-0.019814,-0.010186,0.124359,-9.3e-05,-0.000195
446594,0.095664,-0.019181,-0.01612,0.087266,-0.0,-0.0,3.0,0.3261,0.34423,0.3261,0.306485,,,,,,,0.094022,-0.019816,-0.01019,0.151744,-9e-05,-0.000204
446614,0.098476,-0.019272,-0.016207,0.087266,-0.0,-0.0,3.0,0.3261,0.33998,0.3261,0.311368,,,,,,,0.096482,-0.019818,-0.010194,0.219558,-9.9e-05,-0.000213
446634,0.101166,-0.019241,-0.0163,0.087266,-0.0,-0.0,3.0,0.3261,0.336733,0.3261,0.314974,,,,,,,0.099063,-0.01982,-0.010199,0.240293,-9.5e-05,-0.000222
446654,0.103611,-0.019212,-0.016396,0.087266,-0.0,-0.0,3.0,0.3261,0.335862,0.3261,0.315924,,,,,,,0.101761,-0.019821,-0.010203,0.191808,-9.2e-05,-0.000231
446674,0.105815,-0.019301,-0.016611,0.087266,-0.0,-0.0,3.0,0.3261,0.335755,0.3261,0.316041,,,,,,,0.104467,-0.019823,-0.010208,0.095074,-0.000101,-0.000252
446694,0.108137,-0.019279,-0.016586,0.087266,-0.0,-0.0,3.0,0.3261,0.340237,0.3261,0.311077,,,,,,,0.107146,-0.019825,-0.010213,0.026526,-9.9e-05,-0.000249
446714,0.110096,-0.019376,-0.016681,0.087266,-0.0,-0.0,3.0,0.3261,0.341881,0.3261,0.309206,,,,,,,0.109344,-0.019828,-0.010218,-0.019439,-0.000108,-0.000258
446734,0.112174,-0.019235,-0.016666,0.087266,-0.0,-0.0,3.0,0.3261,0.342401,0.3261,0.308609,,,,,,,0.111054,-0.01983,-0.010223,0.051423,-9.4e-05,-0.000256
446754,0.113517,-0.019465,-0.016636,0.087266,-0.0,-0.0,3.0,0.3261,0.337998,0.3261,0.313582,,,,,,,0.112284,-0.019832,-0.010228,0.072986,-0.000117,-0.000252
446774,0.114621,-0.019448,-0.016747,0.087266,-0.0,-0.0,3.0,0.3261,0.338395,0.3261,0.313142,,,,,,,0.113506,-0.019834,-0.010233,0.050407,-0.000115,-0.000263
446794,0.115354,-0.019563,-0.016731,0.087266,-0.0,-0.0,3.0,0.3261,0.335711,0.3261,0.316089,,,,,,,0.114363,-0.019837,-0.010238,0.026368,-0.000126,-0.000261
446814,0.116092,-0.019556,-0.016725,0.087266,-0.0,-0.0,3.0,0.3261,0.335415,0.3261,0.316409,,,,,,,0.115102,-0.019839,-0.010244,0.026186,-0.000125,-0.00026
446834,0.116579,-0.019422,-0.016848,0.087266,-0.0,-0.0,3.0,0.3261,0.331237,0.3261,0.320851,,,,,,,0.11548,-0.019841,-0.010249,0.047285,-0.000111,-0.000271
446854,0.11731,-0.019293,-0.016846,0.087266,-0.0,-0.0,3.0,0.3261,0.333194,0.3261,0.31879,,,,,,,0.116086,-0.019843,-0.010254,0.071249,-9.8e-05,-0.000271
446874,0.117675,-0.01916,-0.016971,0.087266,-0.0,-0.0,3.0,0.3261,0.331785,0.3261,0.320278,,,,,,,0.116579,-0.019845,-0.01026,0.046744,-8.5e-05,-0.000282
446894,0.118294,-0.019399,-0.016952,0.087266,-0.0,-0.0,3.0,0.3261,0.333956,0.3261,0.317979,,,,,,,0.117316,-0.019848,-0.010265,0.023984,-0.000108,-0.00028
446914,0.119026,-0.019513,-0.016936,0.087266,-0.0,-0.0,3.0,0.3261,0.334707,0.3261,0.317174,,,,,,,0.118047,-0.01985,-0.010271,0.024166,-0.00012,-0.000278
446934,0.119881,-0.019619,-0.01704,0.087266,-0.0,-0.0,3.0,0.3261,0.335041,0.3261,0.316814,,,,,,,0.118909,-0.019852,-0.010276,0.022863,-0.00013,-0.000288
446954,0.120984,-0.019487,-0.017037,0.087266,-0.0,-0.0,3.0,0.3261,0.341185,0.3261,0.310002,,,,,,,0.12012,-0.019855,-0.010282,0.001968,-0.000116,-0.000287
446974,0.122212,-0.01959,-0.017139,0.087266,-0.0,-0.0,3.0,0.3261,0.346138,0.3261,0.304232,,,,,,,0.121451,-0.019857,-0.010288,-0.017697,-0.000127,-0.000296
446994,0.123674,-0.019574,-0.017121,0.087266,-0.0,-0.0,3.0,0.3261,0.345239,0.3261,0.305298,,,,,,,0.122426,-0.019859,-0.010294,0.075941,-0.000125,-0.000294
447014,0.124777,-0.019313,-0.017247,0.087266,-0.0,-0.0,3.0,0.3261,0.340828,0.3261,0.310408,,,,,,,0.123178,-0.019862,-0.0103,0.143415,-9.8e-05,-0.000306
447034,0.125509,-0.019427,-0.01723,0.087266,-0.0,-0.0,3.0,0.3261,0.338401,0.3261,0.313135,,,,,,,0.124042,-0.019864,-0.010306,0.118115,-0.00011,-0.000304
447054,0.126127,-0.019414,-0.017348,0.087266,-0.0,-0.0,3.0,0.3261,0.336816,0.3261,0.314884,,,,,,,0.124899,-0.019866,-0.010312,0.071972,-0.000108,-0.000315
447074,0.126737,-0.019529,-0.017332,0.087266,-0.0,-0.0,3.0,0.3261,0.336877,0.3261,0.314817,,,,,,,0.125766,-0.019868,-0.010318,0.022531,-0.000119,-0.000313
447094,0.127102,-0.019525,-0.017328,0.087266,-0.0,-0.0,3.0,0.3261,0.336416,0.3261,0.315321,,,,,,,0.12638,-0.019871,-0.010325,-0.025195,-0.000119,-0.000312
447114,0.127468,-0.019522,-0.017323,0.087266,-0.0,-0.0,3.0,0.3261,0.338237,0.3261,0.313316,,,,,,,0.126865,-0.019874,-0.010331,-0.048137,-0.000118,-0.000311
447134,0.127834,-0.01964,-0.017311,0.087266,-0.0,-0.0,3.0,0.3261,0.341277,0.3261,0.309897,,,,,,,0.12723,-0.019876,-0.010337,-0.047948,-0.00013,-0.000309
447154,0.127835,-0.019761,-0.017303,0.087266,-0.0,-0.0,3.0,0.3261,0.341431,0.3261,0.309722,,,,,,,0.12722,-0.019879,-0.010343,-0.045789,-0.000142,-0.000307
447174,0.127966,-0.019753,-0.017426,0.087266,-0.0,-0.0,3.0,0.3261,0.341134,0.3261,0.310061,,,,,,,0.127092,-0.019881,-0.010349,0.004033,-0.00014,-0.000319
447194,0.127965,-0.019761,-0.017304,0.087266,-0.0,-0.0,3.0,0.3261,0.335759,0.3261,0.316037,,,,,,,0.126736,-0.019884,-0.010356,0.072162,-0.000141,-0.000306
447214,0.127843,-0.019762,-0.017306,0.087266,-0.0,-0.0,3.0,0.3261,0.334108,0.3261,0.317816,,,,,,,0.126618,-0.019886,-0.010362,0.071408,-0.000141,-0.000306
447234,0.127589,-0.019528,-0.0172,0.087266,-0.0,-0.0,3.0,0.3261,0.332108,0.3261,0.319939,,,,,,,0.126628,-0.019889,-0.010368,0.020601,-0.000117,-0.000295
447254,0.12759,-0.01965,-0.017192,0.087266,-0.0,-0.0,3.0,0.3261,0.336044,0.3261,0.315727,,,,,,,0.126999,-0.019892,-0.010374,-0.050581,-0.000129,-0.000293
447274,0.127842,-0.019641,-0.017314,0.087266,-0.0,-0.0,3.0,0.3261,0.339899,0.3261,0.311459,,,,,,,0.127355,-0.019895,-0.01038,-0.070461,-0.000128,-0.000305
447294,0.128452,-0.019756,-0.017298,0.087266,-0.0,-0.0,3.0,0.3261,0.342454,0.3261,0.308549,,,,,,,0.127722,-0.019897,-0.010386,-0.023667,-0.000139,-0.000303
447314,0.128939,-0.019751,-0.017292,0.087266,-0.0,-0.0,3.0,0.3261,0.345482,0.3261,0.305011,,,,,,,0.128072,-0.0199,-0.010392,0.00264,-0.000138,-0.000301
447334,0.129306,-0.019869,-0.017279,0.087266,-0.0,-0.0,3.0,0.3261,0.34596,0.3261,0.304443,,,,,,,0.128306,-0.019903,-0.010398,0.028139,-0.00015,-0.0003
447354,0.129681,-0.01998,-0.017392,0.087266,-0.0,-0.0,3.0,0.3261,0.341827,0.3261,0.309269,,,,,,,0.128317,-0.019905,-0.010404,0.098268,-0.000161,-0.00031
447374,0.129551,-0.019858,-0.017398,0.087266,-0.0,-0.0,3.0,0.3261,0.335316,0.3261,0.316517,,,,,,,0.12822,-0.019908,-0.01041,0.091855,-0.000148,-0.00031
447394,0.129308,-0.019853,-0.017523,0.087266,-0.0,-0.0,3.0,0.3261,0.334198,0.3261,0.317719,,,,,,,0.128224,-0.019911,-0.010417,0.044302,-0.000147,-0.000322
447414,0.128941,-0.019613,-0.017543,0.087266,-0.0,-0.0,3.0,0.3261,0.334601,0.3261,0.317287,,,,,,,0.128224,-0.019914,-0.010423,-0.026389,-0.000123,-0.000323
447434,0.128698,-0.019738,-0.017539,0.087266,-0.0,-0.0,3.0,0.3261,0.338196,0.3261,0.313362,,,,,,,0.128341,-0.019917,-0.010429,-0.095517,-0.000135,-0.000322
447454,0.128697,-0.019616,-0.017547,0.087266,-0.0,-0.0,3.0,0.3261,0.341789,0.3261,0.309313,,,,,,,0.128205,-0.01992,-0.010436,-0.069581,-0.000123,-0.000322
447474,0.128698,-0.019738,-0.017539,0.087266,-0.0,-0.0,3.0,0.3261,0.339345,0.3261,0.312081,,,,,,,0.127849,-0.019922,-0.010442,-0.00085,-0.000135,-0.000321
447494,0.128454,-0.01987,-0.017412,0.087266,-0.0,-0.0,3.0,0.3261,0.340486,0.3261,0.310796,,,,,,,0.127597,-0.019925,-0.010449,0.000725,-0.000148,-0.000308
447514,0.12821,-0.020002,-0.017286,0.087266,-0.0,-0.0,3.0,0.3261,0.339804,0.3261,0.311566,,,,,,,0.127352,-0.019928,-0.010455,0.001014,-0.000161,-0.000294
447534,0.128089,-0.020004,-0.017287,0.087266,-0.0,-0.0,3.0,0.3261,0.338747,0.3261,0.312749,,,,,,,0.127112,-0.019931,-0.010461,0.023765,-0.000161,-0.000294
447554,0.127843,-0.019892,-0.017176,0.087266,-0.0,-0.0,3.0,0.3261,0.338225,0.3261,0.313329,,,,,,,0.126993,-0.019933,-0.010466,-0.000772,-0.000149,-0.000282
447574,0.127965,-0.019891,-0.017175,0.087266,-0.0,-0.0,3.0,0.3261,0.339365,0.3261,0.312059,,,,,,,0.126986,-0.019937,-0.010472,0.02416,-0.000149,-0.000282
447594,0.127841,-0.019648,-0.017192,0.087266,-0.0,-0.0,3.0,0.3261,0.338217,0.3261,0.313339,,,,,,,0.126869,-0.01994,-0.010478,0.022714,-0.000124,-0.000283
447614,0.127348,-0.019767,-0.017309,0.087266,-0.0,-0.0,3.0,0.3261,0.340027,0.3261,0.311315,,,,,,,0.12686,-0.019943,-0.010483,-0.070305,-0.000136,-0.000294
447634,0.12747,-0.019765,-0.017308,0.087266,-0.0,-0.0,3.0,0.3261,0.340848,0.3261,0.310385,,,,,,,0.126738,-0.019946,-0.010489,-0.023437,-0.000135,-0.000293
447654,0.127228,-0.020011,-0.017295,0.087266,-0.0,-0.0,3.0,0.3261,0.337155,0.3261,0.314512,,,,,,,0.126388,-0.019948,-0.010495,-0.002671,-0.00016,-0.000291
447674,0.127228,-0.019882,-0.017425,0.087266,-0.0,-0.0,3.0,0.3261,0.341632,0.3261,0.309492,,,,,,,0.126501,-0.019951,-0.010501,-0.024256,-0.000146,-0.000304
447694,0.127107,-0.019883,-0.017426,0.087266,-0.0,-0.0,3.0,0.3261,0.344382,0.3261,0.306308,,,,,,,0.126609,-0.019954,-0.010507,-0.068492,-0.000146,-0.000303
447714,0.127351,-0.020002,-0.017415,0.087266,-0.0,-0.0,3.0,0.3261,0.345565,0.3261,0.304913,,,,,,,0.126607,-0.019957,-0.010513,-0.02096,-0.000158,-0.000302
447734,0.127353,-0.020116,-0.017529,0.087266,-0.0,-0.0,3.0,0.3261,0.34274,0.3261,0.308218,,,,,,,0.126372,-0.01996,-0.010519,0.024533,-0.000169,-0.000312
447754,0.127231,-0.020118,-0.017531,0.087266,-0.0,-0.0,3.0,0.3261,0.341092,0.3261,0.310108,,,,,,,0.126131,-0.019963,-0.010525,0.047467,-0.000169,-0.000312
447774,0.126864,-0.020008,-0.017422,0.087266,-0.0,-0.0,3.0,0.3261,0.33925,0.3261,0.312188,,,,,,,0.125892,-0.019966,-0.010531,0.022692,-0.000157,-0.0003
447794,0.126619,-0.019888,-0.017433,0.087266,-0.0,-0.0,3.0,0.3261,0.340113,0.3261,0.311218,,,,,,,0.125765,-0.01997,-0.010537,0.000127,-0.000145,-0.000301
447814,0.126253,-0.0199,-0.017315,0.087266,-0.0,-0.0,3.0,0.3261,0.336987,0.3261,0.314696,,,,,,,0.125414,-0.019973,-0.010543,-0.002946,-0.000146,-0.000289
447834,0.126007,-0.019788,-0.017204,0.087266,-0.0,-0.0,3.0,0.3261,0.338558,0.3261,0.31296,,,,,,,0.125292,-0.019976,-0.010549,-0.026715,-0.000135,-0.000277
447854,0.125757,-0.020034,-0.017189,0.087266,-0.0,-0.0,3.0,0.3261,0.342057,0.3261,0.309005,,,,,,,0.125283,-0.019979,-0.010555,-0.072997,-0.000159,-0.000275
447874,0.125514,-0.020036,-0.017192,0.087266,-0.0,-0.0,3.0,0.3261,0.344246,0.3261,0.306467,,,,,,,0.125028,-0.019982,-0.01056,-0.070761,-0.000159,-0.000275
447894,0.125272,-0.020282,-0.01718,0.087266,-0.0,-0.0,3.0,0.3261,0.344667,0.3261,0.305973,,,,,,,0.124652,-0.019985,-0.010566,-0.044842,-0.000183,-0.000273
447914,0.125027,-0.020163,-0.017191,0.087266,-0.0,-0.0,3.0,0.3261,0.344023,0.3261,0.306727,,,,,,,0.124159,-0.019988,-0.010571,0.002847,-0.000171,-0.000273
447934,0.124662,-0.020167,-0.017195,0.087266,-0.0,-0.0,3.0,0.3261,0.337391,0.3261,0.314252,,,,,,,0.123325,-0.019992,-0.010577,0.092957,-0.000171,-0.000273
447954,0.123931,-0.020175,-0.017205,0.087266,-0.0,-0.0,3.0,0.3261,0.334821,0.3261,0.317051,,,,,,,0.12284,-0.019995,-0.010582,0.045679,-0.000171,-0.000274
447974,0.123313,-0.020058,-0.017217,0.087266,-0.0,-0.0,3.0,0.3261,0.335454,0.3261,0.316367,,,,,,,0.122473,-0.019998,-0.010587,-0.00261,-0.000159,-0.000274
447994,0.12307,-0.020061,-0.01722,0.087266,-0.0,-0.0,3.0,0.3261,0.338592,0.3261,0.312922,,,,,,,0.122475,-0.020002,-0.010593,-0.049813,-0.000159,-0.000274
448014,0.122949,-0.020054,-0.017344,0.087266,-0.0,-0.0,3.0,0.3261,0.341992,0.3261,0.30908,,,,,,,0.122467,-0.020005,-0.010599,-0.071384,-0.000158,-0.000286
448034,0.123072,-0.020175,-0.017335,0.087266,-0.0,-0.0,3.0,0.3261,0.343062,0.3261,0.307846,,,,,,,0.122346,-0.020008,-0.010604,-0.024641,-0.00017,-0.000284
448054,0.123072,-0.020304,-0.017205,0.087266,-0.0,-0.0,3.0,0.3261,0.346204,0.3261,0.304153,,,,,,,0.122332,-0.020012,-0.01061,-0.021793,-0.000183,-0.000271
448074,0.122953,-0.020542,-0.017314,0.087266,-0.0,-0.0,3.0,0.3261,0.346288,0.3261,0.304052,,,,,,,0.122079,-0.020015,-0.010615,0.003988,-0.000206,-0.000281
448094,0.122952,-0.02042,-0.017321,0.087266,-0.0,-0.0,3.0,0.3261,0.342057,0.3261,0.309005,,,,,,,0.121726,-0.020019,-0.010621,0.071753,-0.000193,-0.000281
448114,0.122585,-0.020302,-0.017333,0.087266,-0.0,-0.0,3.0,0.3261,0.337417,0.3261,0.314223,,,,,,,0.121379,-0.020023,-0.010626,0.067957,-0.000181,-0.000282
448134,0.122097,-0.020185,-0.017347,0.087266,-0.0,-0.0,3.0,0.3261,0.337888,0.3261,0.313703,,,,,,,0.121257,-0.020026,-0.010632,-0.002557,-0.000169,-0.000283
448154,0.121722,-0.019944,-0.017363,0.087266,-0.0,-0.0,3.0,0.3261,0.3397,0.3261,0.311683,,,,,,,0.121253,-0.02003,-0.010638,-0.074003,-0.000145,-0.000284
448174,0.12148,-0.020069,-0.017359,0.087266,-0.0,-0.0,3.0,0.3261,0.341365,0.3261,0.309797,,,,,,,0.121132,-0.020033,-0.010643,-0.097359,-0.000157,-0.000283
448194,0.121115,-0.020194,-0.017356,0.087266,-0.0,-0.0,3.0,0.3261,0.341242,0.3261,0.309937,,,,,,,0.120637,-0.020037,-0.010649,-0.072196,-0.000169,-0.000282
448214,0.120627,-0.020329,-0.017233,0.087266,-0.0,-0.0,3.0,0.3261,0.343545,0.3261,0.307285,,,,,,,0.120136,-0.02004,-0.010654,-0.069568,-0.000182,-0.000269
448234,0.119896,-0.020336,-0.017243,0.087266,-0.0,-0.0,3.0,0.3261,0.343024,0.3261,0.30789,,,,,,,0.119399,-0.020044,-0.01066,-0.068531,-0.000183,-0.00027
448254,0.119158,-0.020472,-0.01712,0.087266,-0.0,-0.0,3.0,0.3261,0.338452,0.3261,0.313077,,,,,,,0.118303,-0.020047,-0.010665,0.000295,-0.000196,-0.000257
448274,0.118303,-0.020366,-0.017016,0.087266,-0.0,-0.0,3.0,0.3261,0.33461,0.3261,0.317278,,,,,,,0.117216,-0.020051,-0.01067,0.044933,-0.000185,-0.000246
448294,0.117442,-0.020252,-0.017031,0.087266,-0.0,-0.0,3.0,0.3261,0.334641,0.3261,0.317244,,,,,,,0.116601,-0.020054,-0.010675,-0.002598,-0.000173,-0.000247
448314,0.116831,-0.020137,-0.017046,0.087266,-0.0,-0.0,3.0,0.3261,0.334698,0.3261,0.317183,,,,,,,0.115997,-0.020058,-0.01068,-0.003641,-0.000161,-0.000248
448334,0.116222,-0.020143,-0.017054,0.087266,-0.0,-0.0,3.0,0.3261,0.338996,0.3261,0.312471,,,,,,,0.115743,-0.020061,-0.010685,-0.072117,-0.000161,-0.000248
448354,0.115978,-0.020017,-0.017186,0.087266,-0.0,-0.0,3.0,0.3261,0.340662,0.3261,0.310597,,,,,,,0.115374,-0.020064,-0.01069,-0.04792,-0.000148,-0.000261
448374,0.115858,-0.02014,-0.01718,0.087266,-0.0,-0.0,3.0,0.3261,0.341795,0.3261,0.309306,,,,,,,0.115128,-0.020068,-0.010695,-0.02382,-0.00016,-0.00026
448394,0.115737,-0.020263,-0.017175,0.087266,-0.0,-0.0,3.0,0.3261,0.342229,0.3261,0.308807,,,,,,,0.114885,-0.020071,-0.0107,-0.000287,-0.000172,-0.000259
448414,0.11561,-0.020378,-0.017288,0.087266,-0.0,-0.0,3.0,0.3261,0.342444,0.3261,0.30856,,,,,,,0.114756,-0.020075,-0.010706,3.9e-05,-0.000184,-0.00027
448434,0.115488,-0.020379,-0.01729,0.087266,-0.0,-0.0,3.0,0.3261,0.343661,0.3261,0.30715,,,,,,,0.114751,-0.020078,-0.010711,-0.022337,-0.000183,-0.000269
448454,0.115243,-0.02026,-0.0173,0.087266,-0.0,-0.0,3.0,0.3261,0.341591,0.3261,0.309539,,,,,,,0.114511,-0.020081,-0.010717,-0.023314,-0.000171,-0.00027
448474,0.115122,-0.020132,-0.01743,0.087266,-0.0,-0.0,3.0,0.3261,0.340692,0.3261,0.310563,,,,,,,0.114146,-0.020084,-0.010722,0.023575,-0.000158,-0.000282
448494,0.114755,-0.020014,-0.017442,0.087266,-0.0,-0.0,3.0,0.3261,0.33791,0.3261,0.313679,,,,,,,0.113667,-0.020088,-0.010728,0.045058,-0.000146,-0.000283
448514,0.114023,-0.020029,-0.017329,0.087266,-0.0,-0.0,3.0,0.3261,0.338779,0.3261,0.312713,,,,,,,0.113293,-0.020091,-0.010733,-0.02374,-0.000147,-0.000271
448534,0.113407,-0.020156,-0.017327,0.087266,-0.0,-0.0,3.0,0.3261,0.336109,0.3261,0.315656,,,,,,,0.112684,-0.020094,-0.010739,-0.025005,-0.000159,-0.00027
448554,0.112919,-0.020168,-0.017211,0.087266,-0.0,-0.0,3.0,0.3261,0.336495,0.3261,0.315235,,,,,,,0.112201,-0.020097,-0.010744,-0.026184,-0.00016,-0.000258
448574,0.112431,-0.020173,-0.017217,0.087266,-0.0,-0.0,3.0,0.3261,0.337706,0.3261,0.313905,,,,,,,0.111837,-0.0201,-0.010749,-0.049804,-0.000161,-0.000258
448594,0.111944,-0.020178,-0.017223,0.087266,-0.0,-0.0,3.0,0.3261,0.341316,0.3261,0.309852,,,,,,,0.111579,-0.020103,-0.010755,-0.093982,-0.000161,-0.000258
448614,0.111701,-0.020302,-0.01722,0.087266,-0.0,-0.0,3.0,0.3261,0.343841,0.3261,0.30694,,,,,,,0.111205,-0.020107,-0.01076,-0.068754,-0.000173,-0.000257
448634,0.11146,-0.02042,-0.017338,0.087266,-0.0,-0.0,3.0,0.3261,0.341921,0.3261,0.309162,,,,,,,0.110723,-0.02011,-0.010765,-0.022506,-0.000184,-0.000269
448654,0.11133,-0.020298,-0.017343,0.087266,-0.0,-0.0,3.0,0.3261,0.339052,0.3261,0.31241,,,,,,,0.110112,-0.020114,-0.01077,0.070041,-0.000172,-0.000269
448674,0.11072,-0.020304,-0.017351,0.087266,-0.0,-0.0,3.0,0.3261,0.338322,0.3261,0.313222,,,,,,,0.109748,-0.020117,-0.010776,0.0229,-0.000172,-0.000269
448694,0.110353,-0.020065,-0.017369,0.087266,-0.0,-0.0,3.0,0.3261,0.338944,0.3261,0.31253,,,,,,,0.109499,-0.02012,-0.010781,8.1e-05,-0.000148,-0.00027
448714,0.109868,-0.020185,-0.01749,0.087266,-0.0,-0.0,3.0,0.3261,0.336104,0.3261,0.315661,,,,,,,0.10915,-0.020123,-0.010786,-0.026192,-0.000159,-0.000282
448734,0.109381,-0.020312,-0.01749,0.087266,-0.0,-0.0,3.0,0.3261,0.337308,0.3261,0.314343,,,,,,,0.108909,-0.020127,-0.010792,-0.073442,-0.000172,-0.000281
448754,0.109012,-0.020551,-0.0176,0.087266,-0.0,-0.0,3.0,0.3261,0.339756,0.3261,0.31162,,,,,,,0.108664,-0.020131,-0.010798,-0.097211,-0.000195,-0.000292
448774,0.108651,-0.020786,-0.017835,0.087266,-0.0,-0.0,3.0,0.3261,0.341246,0.3261,0.309933,,,,,,,0.108295,-0.020135,-0.010804,-0.095845,-0.000218,-0.000314
448794,0.108044,-0.020908,-0.017958,0.087266,-0.0,-0.0,3.0,0.3261,0.34175,0.3261,0.309358,,,,,,,0.107673,-0.02014,-0.01081,-0.092838,-0.00023,-0.000326
448814,0.107802,-0.020897,-0.018205,0.087266,-0.0,-0.0,3.0,0.3261,0.343506,0.3261,0.30733,,,,,,,0.10705,-0.020144,-0.010817,-0.019468,-0.000229,-0.00035
448834,0.107071,-0.020776,-0.018343,0.087266,-0.0,-0.0,3.0,0.3261,0.336143,0.3261,0.315618,,,,,,,0.105973,-0.020148,-0.010824,0.046994,-0.000216,-0.000363
448854,0.106092,-0.020773,-0.018596,0.087266,-0.0,-0.0,3.0,0.3261,0.33158,0.3261,0.320493,,,,,,,0.105007,-0.020152,-0.010831,0.0445,-0.000215,-0.000388
448874,0.104997,-0.020772,-0.018854,0.087266,-0.0,-0.0,3.0,0.3261,0.329783,0.3261,0.32236,,,,,,,0.104162,-0.020157,-0.010839,-0.003529,-0.000215,-0.000413
448894,0.104019,-0.020891,-0.019101,0.087266,-0.0,-0.0,3.0,0.3261,0.331217,0.3261,0.320872,,,,,,,0.10356,-0.020161,-0.010848,-0.075878,-0.000226,-0.000437
448914,0.103412,-0.021013,-0.019224,0.087266,-0.0,-0.0,3.0,0.3261,0.335749,0.3261,0.316048,,,,,,,0.103183,-0.020166,-0.010857,-0.120196,-0.000238,-0.000448
