time_ms,roll,pitch,yaw,reference_roll,reference_pitch,reference_yaw,reference_throttle,throttle_1,throttle_2,throttle_3,throttle_4,roll_predicted,pitch_predicted,yaw_predicted,roll_rate_predicted,pitch_rate_predicted,yaw_rate_predicted,value1,value2,value3,value4,value5,value6
378518,0.010631,-0.018708,-0.314663,0.0,-0.0,-0.0,2.0,0.282024,0.275688,0.282024,0.288162,,,,,,,0.011363,-0.013108,-0.207024,-0.000304,-3.7e-05,-0.000951
378537,0.010613,-0.018586,-0.314778,0.0,-0.0,-0.0,2.0,0.282024,0.279453,0.282024,0.284562,,,,,,,0.011342,-0.013108,-0.207043,0.000303,-2.5e-05,-0.00096
378557,0.010631,-0.018708,-0.314663,0.0,-0.0,-0.0,2.0,0.282024,0.278855,0.282024,0.285143,,,,,,,0.011361,-0.013109,-0.207062,0.0,-3.7e-05,-0.000947
378577,0.010753,-0.018688,-0.314776,0.0,-0.0,-0.0,2.0,0.282024,0.279745,0.282024,0.284277,,,,,,,0.011483,-0.013109,-0.207081,1.6e-05,-3.5e-05,-0.000956
378597,0.010873,-0.018669,-0.314775,0.0,-0.0,-0.0,2.0,0.282024,0.281409,0.282024,0.282637,,,,,,,0.011603,-0.01311,-0.2071,9.9e-05,-3.3e-05,-0.000954
378617,0.010873,-0.018669,-0.314775,0.0,-0.0,-0.0,2.0,0.282024,0.279195,0.282024,0.284813,,,,,,,0.011603,-0.013111,-0.207119,0.0,-3.3e-05,-0.000952
378637,0.010854,-0.018548,-0.314775,0.0,-0.0,-0.0,2.0,0.282024,0.278598,0.282024,0.285391,,,,,,,0.011603,-0.013111,-0.207138,-0.003808,-2.1e-05,-0.00095
378657,0.010492,-0.018605,-0.31478,0.0,-0.0,-0.0,2.0,0.282024,0.277898,0.282024,0.286065,,,,,,,0.011445,-0.013112,-0.207157,-0.044234,-2.6e-05,-0.000949
378677,0.010353,-0.018504,-0.314781,0.0,-0.0,-0.0,2.0,0.282024,0.277527,0.282024,0.286421,,,,,,,0.011083,-0.013112,-0.207176,0.0,-1.6e-05,-0.000947
378697,0.010232,-0.018523,-0.314783,0.0,-0.0,-0.0,2.0,0.282024,0.277036,0.282024,0.286889,,,,,,,0.010842,-0.013113,-0.207195,0.024014,-1.8e-05,-0.000946
378717,0.010232,-0.018523,-0.314783,0.0,-0.0,-0.0,2.0,0.282024,0.279187,0.282024,0.284821,,,,,,,0.010962,-0.013113,-0.207214,-0.0,-1.8e-05,-0.000944
378737,0.010473,-0.018485,-0.31478,0.0,-0.0,-0.0,2.0,0.282024,0.280409,0.282024,0.283626,,,,,,,0.011083,-0.013113,-0.207233,0.024013,-1.4e-05,-0.000941
378757,0.010613,-0.018586,-0.314778,0.0,-0.0,-0.0,2.0,0.282024,0.279808,0.282024,0.284216,,,,,,,0.011223,-0.013114,-0.207252,0.024013,-2.4e-05,-0.000939
378777,0.010613,-0.018586,-0.314778,0.0,-0.0,-0.0,2.0,0.282024,0.279301,0.282024,0.28471,,,,,,,0.011343,-0.013114,-0.20727,1.6e-05,-2.4e-05,-0.000938
378797,0.010474,-0.018484,-0.314895,0.0,-0.0,-0.0,2.0,0.282024,0.281679,0.282024,0.282368,,,,,,,0.011445,-0.013114,-0.207289,-0.047926,-1.4e-05,-0.000947
378817,0.010213,-0.018403,-0.314783,0.0,-0.0,-0.0,2.0,0.282024,0.275629,0.282024,0.288217,,,,,,,0.010944,-0.013115,-0.207308,-9.9e-05,-6e-06,-0.000934
378837,0.009851,-0.01846,-0.314787,0.0,-0.0,-0.0,2.0,0.282024,0.276891,0.282024,0.287026,,,,,,,0.010721,-0.013115,-0.207327,-0.027806,-1.2e-05,-0.000933
378857,0.00987,-0.018581,-0.314787,0.0,-0.0,-0.0,2.0,0.282024,0.278767,0.282024,0.285228,,,,,,,0.010583,-0.013115,-0.207345,0.003607,-2.4e-05,-0.000931
378877,0.010093,-0.018421,-0.314899,0.0,-0.0,-0.0,2.0,0.282024,0.281422,0.282024,0.282624,,,,,,,0.010702,-0.013116,-0.207364,0.024298,-8e-06,-0.00094
378897,0.010093,-0.018421,-0.314899,0.0,-0.0,-0.0,2.0,0.282024,0.281284,0.282024,0.282761,,,,,,,0.010842,-0.013116,-0.207383,-0.00371,-8e-06,-0.000938
378917,0.010353,-0.018504,-0.314781,0.0,-0.0,-0.0,2.0,0.282024,0.281636,0.282024,0.282412,,,,,,,0.011084,-0.013116,-0.207402,-0.000203,-1.6e-05,-0.000925
378937,0.010455,-0.018364,-0.314895,0.0,-0.0,-0.0,2.0,0.282024,0.280524,0.282024,0.283513,,,,,,,0.011205,-0.013116,-0.20742,-0.00381,-2e-06,-0.000934
378957,0.010334,-0.018383,-0.314896,0.0,-0.0,-0.0,2.0,0.282024,0.278395,0.282024,0.285587,,,,,,,0.011064,-0.013117,-0.207439,0.000186,-4e-06,-0.000933
378977,0.009972,-0.018441,-0.314786,0.0,-0.0,-0.0,2.0,0.282024,0.275329,0.282024,0.288498,,,,,,,0.010703,-0.013117,-0.207457,-9.9e-05,-1e-05,-0.00092
378997,0.009731,-0.018479,-0.314789,0.0,-0.0,-0.0,2.0,0.282024,0.277844,0.282024,0.286117,,,,,,,0.010583,-0.013117,-0.207471,-0.024012,-1.3e-05,-0.00093
379017,0.00961,-0.018498,-0.31479,0.0,-0.0,-0.0,2.0,0.282024,0.277653,0.282024,0.2863,,,,,,,0.010239,-0.013117,-0.207494,0.020205,-1.5e-05,-0.000916
379037,0.009629,-0.018619,-0.31479,0.0,-0.0,-0.0,2.0,0.282024,0.277284,0.282024,0.286652,,,,,,,0.01022,-0.013118,-0.207512,0.027724,-2.7e-05,-0.000915
379057,0.009851,-0.01846,-0.314787,0.0,-0.0,-0.0,2.0,0.282024,0.280537,0.282024,0.2835,,,,,,,0.010462,-0.013118,-0.207531,0.02381,-1.1e-05,-0.000912
379077,0.010093,-0.018421,-0.314899,0.0,-0.0,-0.0,2.0,0.282024,0.283994,0.282024,0.280034,,,,,,,0.010842,-0.013118,-0.207549,-0.003712,-7e-06,-0.000922
379097,0.010113,-0.018542,-0.314899,0.0,-0.0,-0.0,2.0,0.282024,0.280479,0.282024,0.283557,,,,,,,0.010843,-0.013119,-0.207568,-0.0,-1.9e-05,-0.00092
379117,0.009992,-0.018561,-0.3149,0.0,-0.0,-0.0,2.0,0.282024,0.277007,0.282024,0.286916,,,,,,,0.010704,-0.013119,-0.207586,0.003712,-2.1e-05,-0.000918
379137,0.009732,-0.018478,-0.314904,0.0,-0.0,-0.0,2.0,0.282024,0.280054,0.282024,0.283974,,,,,,,0.010582,-0.013119,-0.207604,-0.023929,-1.3e-05,-0.000917
379157,0.00949,-0.018518,-0.314792,0.0,-0.0,-0.0,2.0,0.282024,0.276612,0.282024,0.287291,,,,,,,0.01022,-0.01312,-0.207622,-9.9e-05,-1.7e-05,-0.000904
379177,0.00935,-0.018416,-0.314793,0.0,-0.0,-0.0,2.0,0.282024,0.278388,0.282024,0.285594,,,,,,,0.01008,-0.01312,-0.207641,1e-06,-7e-06,-0.000902
379197,0.00935,-0.018416,-0.314793,0.0,-0.0,-0.0,2.0,0.282024,0.282155,0.282024,0.281893,,,,,,,0.010201,-0.01312,-0.207659,-0.024117,-7e-06,-0.0009
379217,0.009713,-0.018358,-0.314904,0.0,-0.0,-0.0,2.0,0.282024,0.281838,0.282024,0.28221,,,,,,,0.010321,-0.01312,-0.207677,0.024215,-1e-06,-0.00091
379237,0.009833,-0.018339,-0.314903,0.0,-0.0,-0.0,2.0,0.282024,0.283103,0.282024,0.280939,,,,,,,0.010563,-0.01312,-0.207695,0.0001,1e-06,-0.000908
379257,0.009833,-0.018339,-0.314903,0.0,-0.0,-0.0,2.0,0.282024,0.281761,0.282024,0.282287,,,,,,,0.010684,-0.01312,-0.207713,-0.024014,1e-06,-0.000906
379277,0.009713,-0.018358,-0.314904,0.0,-0.0,-0.0,2.0,0.282024,0.27778,0.282024,0.286178,,,,,,,0.010443,-0.01312,-0.207731,-9.9e-05,-1e-06,-0.000904
379297,0.00947,-0.018397,-0.314792,0.0,-0.0,-0.0,2.0,0.282024,0.27797,0.282024,0.285996,,,,,,,0.010183,-0.01312,-0.207749,0.003593,-5e-06,-0.000891
379317,0.00921,-0.018315,-0.314795,0.0,-0.0,-0.0,2.0,0.282024,0.276915,0.282024,0.287004,,,,,,,0.009941,-0.01312,-0.207767,-0.0001,3e-06,-0.00089
379337,0.00909,-0.018334,-0.314797,0.0,-0.0,-0.0,2.0,0.282024,0.281017,0.282024,0.283026,,,,,,,0.009941,-0.01312,-0.207785,-0.024131,1e-06,-0.000888
379357,0.00923,-0.018435,-0.314909,0.0,-0.0,-0.0,2.0,0.282024,0.282829,0.282024,0.281215,,,,,,,0.009959,-0.01312,-0.207803,0.000318,-9e-06,-0.000897
379377,0.009351,-0.018415,-0.314908,0.0,-0.0,-0.0,2.0,0.282024,0.281306,0.282024,0.282739,,,,,,,0.01008,-0.01312,-0.20782,0.000203,-7e-06,-0.000896
379397,0.009591,-0.018378,-0.314791,0.0,-0.0,-0.0,2.0,0.282024,0.282118,0.282024,0.28193,,,,,,,0.010303,-0.01312,-0.207838,0.003592,-3e-06,-0.000882
379417,0.009592,-0.018377,-0.314905,0.0,-0.0,-0.0,2.0,0.282024,0.281042,0.282024,0.283001,,,,,,,0.010322,-0.01312,-0.207856,1.6e-05,-3e-06,-0.000892
379437,0.009332,-0.018295,-0.314908,0.0,-0.0,-0.0,2.0,0.282024,0.279152,0.282024,0.284854,,,,,,,0.010182,-0.01312,-0.207874,-0.023827,5e-06,-0.00089
379457,0.00909,-0.018334,-0.314797,0.0,-0.0,-0.0,2.0,0.282024,0.277671,0.282024,0.286283,,,,,,,0.009942,-0.01312,-0.207892,-0.024315,1e-06,-0.000877
379477,0.00897,-0.018352,-0.314913,0.0,-0.0,-0.0,2.0,0.282024,0.278862,0.282024,0.285136,,,,,,,0.0097,-0.01312,-0.207909,1e-06,-0.0,-0.000887
379497,0.008969,-0.018353,-0.314798,0.0,-0.0,-0.0,2.0,0.282024,0.279279,0.282024,0.284731,,,,,,,0.009579,-0.01312,-0.207927,0.024014,-0.0,-0.000874
379517,0.008969,-0.018353,-0.314798,0.0,-0.0,-0.0,2.0,0.282024,0.280844,0.282024,0.283197,,,,,,,0.009699,-0.01312,-0.207944,-1e-06,-0.0,-0.000872
379537,0.009313,-0.018174,-0.314909,0.0,-0.0,-0.0,2.0,0.282024,0.284124,0.282024,0.279901,,,,,,,0.009941,-0.01312,-0.207962,0.020317,1.7e-05,-0.000881
379557,0.009433,-0.018155,-0.314907,0.0,-0.0,-0.0,2.0,0.282024,0.284408,0.282024,0.279611,,,,,,,0.010163,-0.01312,-0.207979,9.9e-05,1.9e-05,-0.00088
379577,0.009313,-0.018174,-0.314909,0.0,-0.0,-0.0,2.0,0.282024,0.278809,0.282024,0.285187,,,,,,,0.010042,-0.013119,-0.207997,0.000101,1.7e-05,-0.000878
379597,0.009192,-0.018193,-0.31491,0.0,-0.0,-0.0,2.0,0.282024,0.278464,0.282024,0.285521,,,,,,,0.009923,-0.013119,-0.208014,-9.9e-05,1.5e-05,-0.000876
379617,0.008951,-0.018232,-0.314913,0.0,-0.0,-0.0,2.0,0.282024,0.280144,0.282024,0.283886,,,,,,,0.009801,-0.013119,-0.208032,-0.023812,1.2e-05,-0.000875
379637,0.008709,-0.018271,-0.314801,0.0,-0.0,-0.0,2.0,0.282024,0.279277,0.282024,0.284733,,,,,,,0.00956,-0.013118,-0.208049,-0.024013,8e-06,-0.000862
379657,0.008709,-0.018271,-0.314801,0.0,-0.0,-0.0,2.0,0.282024,0.278923,0.282024,0.285077,,,,,,,0.009421,-0.013118,-0.208066,0.003694,8e-06,-0.00086
379677,0.008811,-0.01813,-0.314915,0.0,-0.0,-0.0,2.0,0.282024,0.283264,0.282024,0.280777,,,,,,,0.009559,-0.013118,-0.208083,-0.00351,2.2e-05,-0.00087
379697,0.009051,-0.018093,-0.314797,0.0,-0.0,-0.0,2.0,0.282024,0.282638,0.282024,0.281408,,,,,,,0.00968,-0.013118,-0.208101,0.020204,2.5e-05,-0.000856
379717,0.009191,-0.018194,-0.314796,0.0,-0.0,-0.0,2.0,0.282024,0.282737,0.282024,0.281309,,,,,,,0.009903,-0.013117,-0.208118,0.003609,1.5e-05,-0.000855
379737,0.009313,-0.018174,-0.314909,0.0,-0.0,-0.0,2.0,0.282024,0.282744,0.282024,0.281301,,,,,,,0.010043,-0.013117,-0.208135,-1e-06,1.7e-05,-0.000864
379757,0.009071,-0.018213,-0.314797,0.0,-0.0,-0.0,2.0,0.282024,0.280823,0.282024,0.283218,,,,,,,0.009921,-0.013117,-0.208152,-0.024014,1.3e-05,-0.000851
379777,0.00881,-0.018131,-0.3148,0.0,-0.0,-0.0,2.0,0.282024,0.278349,0.282024,0.285632,,,,,,,0.009662,-0.013116,-0.208169,-0.024113,2.1e-05,-0.00085
379797,0.008671,-0.01803,-0.314802,0.0,-0.0,-0.0,2.0,0.282024,0.279774,0.282024,0.284248,,,,,,,0.009522,-0.013116,-0.208186,-0.024029,3.1e-05,-0.000848
379817,0.008671,-0.01803,-0.314802,0.0,-0.0,-0.0,2.0,0.282024,0.280893,0.282024,0.283149,,,,,,,0.009401,-0.013115,-0.208203,0.0,3.1e-05,-0.000847
379837,0.008651,-0.017909,-0.314802,0.0,-0.0,-0.0,2.0,0.282024,0.281293,0.282024,0.282752,,,,,,,0.009401,-0.013114,-0.20822,-0.00381,4.3e-05,-0.000845
379857,0.008913,-0.017991,-0.314914,0.0,-0.0,-0.0,2.0,0.282024,0.284504,0.282024,0.279513,,,,,,,0.009643,-0.013114,-0.208237,9.9e-05,3.5e-05,-0.000854
379877,0.009154,-0.017952,-0.314911,0.0,-0.0,-0.0,2.0,0.282024,0.283087,0.282024,0.280956,,,,,,,0.009764,-0.013113,-0.208254,0.024014,3.9e-05,-0.000852
379897,0.009154,-0.017952,-0.314911,0.0,-0.0,-0.0,2.0,0.282024,0.282117,0.282024,0.281931,,,,,,,0.009883,-0.013112,-0.208271,0.000197,3.9e-05,-0.000851
379917,0.008912,-0.017991,-0.314799,0.0,-0.0,-0.0,2.0,0.282024,0.27914,0.282024,0.284866,,,,,,,0.009764,-0.013112,-0.208288,-0.024327,3.5e-05,-0.000838
379937,0.008792,-0.01801,-0.314915,0.0,-0.0,-0.0,2.0,0.282024,0.278825,0.282024,0.285172,,,,,,,0.009522,-0.013111,-0.208305,0.000101,3.3e-05,-0.000848
379957,0.00855,-0.018049,-0.314803,0.0,-0.0,-0.0,2.0,0.282024,0.278424,0.282024,0.28556,,,,,,,0.009281,-0.01311,-0.208322,-9.9e-05,2.9e-05,-0.000835
379977,0.00841,-0.017947,-0.314805,0.0,-0.0,-0.0,2.0,0.282024,0.279789,0.282024,0.284234,,,,,,,0.009141,-0.01311,-0.208338,-1.5e-05,3.9e-05,-0.000833
379997,0.00855,-0.018049,-0.314803,0.0,-0.0,-0.0,2.0,0.282024,0.283132,0.282024,0.28091,,,,,,,0.00928,-0.013109,-0.208355,1.5e-05,2.9e-05,-0.000832
380017,0.008791,-0.01801,-0.3148,0.0,-0.0,-0.0,2.0,0.282024,0.28314,0.282024,0.280902,,,,,,,0.009401,-0.013108,-0.208372,0.024013,3.3e-05,-0.00083
380037,0.008912,-0.017991,-0.314799,0.0,-0.0,-0.0,2.0,0.282024,0.282935,0.282024,0.281109,,,,,,,0.009642,-0.013108,-0.208388,-1e-06,3.4e-05,-0.000828
380057,0.008932,-0.018111,-0.314913,0.0,-0.0,-0.0,2.0,0.282024,0.282891,0.282024,0.281154,,,,,,,0.009783,-0.013107,-0.208405,-0.024013,2.2e-05,-0.000838
380077,0.008792,-0.01801,-0.314915,0.0,-0.0,-0.0,2.0,0.282024,0.28159,0.282024,0.282457,,,,,,,0.009643,-0.013106,-0.208422,-0.024013,3.3e-05,-0.000836
380097,0.008429,-0.018068,-0.314804,0.0,-0.0,-0.0,2.0,0.282024,0.27914,0.282024,0.284867,,,,,,,0.00928,-0.013106,-0.208438,-0.024013,2.7e-05,-0.000823
380117,0.008188,-0.018106,-0.314807,0.0,-0.0,-0.0,2.0,0.282024,0.278963,0.282024,0.285039,,,,,,,0.009041,-0.013105,-0.208455,-0.024314,2.3e-05,-0.000822
380137,0.008291,-0.017966,-0.314921,0.0,-0.0,-0.0,2.0,0.282024,0.280733,0.282024,0.283307,,,,,,,0.0089,-0.013105,-0.208471,0.024214,3.7e-05,-0.000832
380157,0.00829,-0.017966,-0.314806,0.0,-0.0,-0.0,2.0,0.282024,0.283646,0.282024,0.280389,,,,,,,0.00902,-0.013104,-0.208488,8.3e-05,3.7e-05,-0.000819
380177,0.008551,-0.018048,-0.314918,0.0,-0.0,-0.0,2.0,0.282024,0.283031,0.282024,0.281012,,,,,,,0.009161,-0.013103,-0.208504,0.024013,2.8e-05,-0.000828
380197,0.008672,-0.018029,-0.314916,0.0,-0.0,-0.0,2.0,0.282024,0.283787,0.282024,0.280245,,,,,,,0.009402,-0.013103,-0.208521,-1e-06,3e-05,-0.000826
380217,0.008672,-0.018029,-0.314916,0.0,-0.0,-0.0,2.0,0.282024,0.282402,0.282024,0.281645,,,,,,,0.009402,-0.013102,-0.208538,0.0,3e-05,-0.000825
380237,0.00841,-0.017947,-0.314805,0.0,-0.0,-0.0,2.0,0.282024,0.281033,0.282024,0.283011,,,,,,,0.009281,-0.013102,-0.208554,-0.028023,3.8e-05,-0.000812
380257,0.00831,-0.018086,-0.31492,0.0,-0.0,-0.0,2.0,0.282024,0.281811,0.282024,0.282237,,,,,,,0.009142,-0.013101,-0.20857,-0.020202,2.4e-05,-0.000822
380277,0.008049,-0.018005,-0.314809,0.0,-0.0,-0.0,2.0,0.282024,0.28115,0.282024,0.282895,,,,,,,0.0089,-0.0131,-0.208587,-0.024014,3.2e-05,-0.000809
380297,0.008068,-0.018125,-0.314808,0.0,-0.0,-0.0,2.0,0.282024,0.281209,0.282024,0.282835,,,,,,,0.008779,-0.0131,-0.208603,0.003809,2e-05,-0.000807
380317,0.008189,-0.018105,-0.314922,0.0,-0.0,-0.0,2.0,0.282024,0.284624,0.282024,0.279389,,,,,,,0.008919,-0.013099,-0.208619,9.9e-05,2.2e-05,-0.000817
380337,0.00831,-0.018086,-0.31492,0.0,-0.0,-0.0,2.0,0.282024,0.285253,0.282024,0.278741,,,,,,,0.009059,-0.013099,-0.208635,-0.003696,2.4e-05,-0.000815
380357,0.00843,-0.018067,-0.314919,0.0,-0.0,-0.0,2.0,0.282024,0.282964,0.282024,0.28108,,,,,,,0.009161,-0.013098,-0.208652,-1.6e-05,2.6e-05,-0.000814
380377,0.00845,-0.018188,-0.314919,0.0,-0.0,-0.0,2.0,0.282024,0.281532,0.282024,0.282515,,,,,,,0.00918,-0.013098,-0.208668,-0.0001,1.4e-05,-0.000812
380397,0.00831,-0.018086,-0.31492,0.0,-0.0,-0.0,2.0,0.282024,0.281217,0.282024,0.282828,,,,,,,0.00904,-0.013098,-0.208684,1e-06,2.4e-05,-0.00081
380417,0.007947,-0.018144,-0.31481,0.0,-0.0,-0.0,2.0,0.282024,0.280243,0.282024,0.283789,,,,,,,0.008798,-0.013097,-0.2087,-0.024029,1.8e-05,-0.000798
380437,0.007827,-0.018164,-0.314811,0.0,-0.0,-0.0,2.0,0.282024,0.279595,0.282024,0.284424,,,,,,,0.008559,-0.013097,-0.208716,-0.000302,1.6e-05,-0.000796
380457,0.007847,-0.018283,-0.314925,0.0,-0.0,-0.0,2.0,0.282024,0.283635,0.282024,0.2804,,,,,,,0.008577,-0.013097,-0.208732,0.0001,4e-06,-0.000806
380477,0.007986,-0.018385,-0.314924,0.0,-0.0,-0.0,2.0,0.282024,0.284973,0.282024,0.27903,,,,,,,0.008697,-0.013097,-0.208748,0.00391,-6e-06,-0.000804
380497,0.008088,-0.018245,-0.314923,0.0,-0.0,-0.0,2.0,0.282024,0.282552,0.282024,0.281495,,,,,,,0.008717,-0.013097,-0.208764,0.020219,8e-06,-0.000803
380517,0.008228,-0.018347,-0.314921,0.0,-0.0,-0.0,2.0,0.282024,0.285083,0.282024,0.278916,,,,,,,0.008938,-0.013097,-0.20878,0.003894,-2e-06,-0.000801
380537,0.008088,-0.018245,-0.314923,0.0,-0.0,-0.0,2.0,0.282024,0.281003,0.282024,0.28304,,,,,,,0.008819,-0.013097,-0.208796,-0.0001,8e-06,-0.000799
380557,0.007967,-0.018264,-0.314924,0.0,-0.0,-0.0,2.0,0.282024,0.279671,0.282024,0.284349,,,,,,,0.008698,-0.013096,-0.208812,-9.9e-05,6e-06,-0.000798
380577,0.007745,-0.018423,-0.314926,0.0,-0.0,-0.0,2.0,0.282024,0.281291,0.282024,0.282755,,,,,,,0.008577,-0.013096,-0.208828,-0.020202,-1e-05,-0.000797
380597,0.007625,-0.018442,-0.314928,0.0,-0.0,-0.0,2.0,0.282024,0.281127,0.282024,0.282918,,,,,,,0.008355,-0.013097,-0.208844,1e-06,-1.2e-05,-0.000795
380617,0.007644,-0.018563,-0.314927,0.0,-0.0,-0.0,2.0,0.282024,0.281798,0.282024,0.28225,,,,,,,0.008254,-0.013097,-0.20886,0.024029,-2.4e-05,-0.000794
380637,0.007764,-0.018544,-0.314926,0.0,-0.0,-0.0,2.0,0.282024,0.285383,0.282024,0.278607,,,,,,,0.008494,-0.013097,-0.208876,9.9e-05,-2.2e-05,-0.000792
380657,0.008006,-0.018505,-0.314923,0.0,-0.0,-0.0,2.0,0.282024,0.28433,0.282024,0.279691,,,,,,,0.008615,-0.013098,-0.208892,0.024013,-1.8e-05,-0.00079
380677,0.007986,-0.018385,-0.314924,0.0,-0.0,-0.0,2.0,0.282024,0.281849,0.282024,0.282199,,,,,,,0.008596,-0.013098,-0.208908,0.023998,-6e-06,-0.000788
380697,0.007866,-0.018404,-0.314925,0.0,-0.0,-0.0,2.0,0.282024,0.28323,0.282024,0.280811,,,,,,,0.008717,-0.013098,-0.208923,-0.024013,-8e-06,-0.000787
380717,0.007746,-0.018423,-0.315041,0.0,-0.0,-0.0,2.0,0.282024,0.282709,0.282024,0.281337,,,,,,,0.008596,-0.013098,-0.208939,-0.023807,-1e-05,-0.000797
380737,0.007504,-0.018462,-0.314929,0.0,-0.0,-0.0,2.0,0.282024,0.281402,0.282024,0.282644,,,,,,,0.008355,-0.013098,-0.208955,-0.024013,-1.3e-05,-0.000784
380757,0.007384,-0.018481,-0.31493,0.0,-0.0,-0.0,2.0,0.282024,0.280122,0.282024,0.283908,,,,,,,0.008115,-0.013099,-0.208971,-0.0001,-1.5e-05,-0.000783
380777,0.007524,-0.018581,-0.315043,0.0,-0.0,-0.0,2.0,0.282024,0.282831,0.282024,0.281214,,,,,,,0.008114,-0.013099,-0.208986,0.028033,-2.5e-05,-0.000793
380797,0.007625,-0.018442,-0.314928,0.0,-0.0,-0.0,2.0,0.282024,0.285969,0.282024,0.277998,,,,,,,0.008355,-0.0131,-0.209002,8.3e-05,-1.1e-05,-0.000779
380817,0.007745,-0.018423,-0.314926,0.0,-0.0,-0.0,2.0,0.282024,0.284336,0.282024,0.279685,,,,,,,0.008495,-0.0131,-0.209018,-0.003796,-9e-06,-0.000778
380837,0.007886,-0.018524,-0.315039,0.0,-0.0,-0.0,2.0,0.282024,0.286467,0.282024,0.277478,,,,,,,0.008737,-0.0131,-0.209033,-0.023913,-2e-05,-0.000787
380857,0.007885,-0.018525,-0.314925,0.0,-0.0,-0.0,2.0,0.282024,0.283277,0.282024,0.280763,,,,,,,0.008615,-0.0131,-0.209049,0.0,-2e-05,-0.000774
380877,0.007644,-0.018563,-0.314927,0.0,-0.0,-0.0,2.0,0.282024,0.279732,0.282024,0.28429,,,,,,,0.008375,-0.013101,-0.209064,-9.9e-05,-2.3e-05,-0.000773
380897,0.007403,-0.018601,-0.31493,0.0,-0.0,-0.0,2.0,0.282024,0.282396,0.282024,0.281652,,,,,,,0.008254,-0.013101,-0.20908,-0.024013,-2.7e-05,-0.000772
380917,0.007282,-0.01862,-0.314931,0.0,-0.0,-0.0,2.0,0.282024,0.282155,0.282024,0.281893,,,,,,,0.008013,-0.013102,-0.209095,0.0,-2.9e-05,-0.00077
380937,0.007282,-0.01862,-0.314931,0.0,-0.0,-0.0,2.0,0.282024,0.28217,0.282024,0.281878,,,,,,,0.007911,-0.013103,-0.209111,0.020203,-2.9e-05,-0.000769
380957,0.007301,-0.018741,-0.314931,0.0,-0.0,-0.0,2.0,0.282024,0.285799,0.282024,0.278176,,,,,,,0.008134,-0.013103,-0.209126,-0.020312,-4.1e-05,-0.000767
380977,0.007524,-0.018581,-0.315043,0.0,-0.0,-0.0,2.0,0.282024,0.283756,0.282024,0.280277,,,,,,,0.008133,-0.013104,-0.209141,0.024222,-2.5e-05,-0.000777
380997,0.007663,-0.018683,-0.314927,0.0,-0.0,-0.0,2.0,0.282024,0.283468,0.282024,0.28057,,,,,,,0.008273,-0.013105,-0.209157,0.024014,-3.5e-05,-0.000764
381017,0.007543,-0.018703,-0.314928,0.0,-0.0,-0.0,2.0,0.282024,0.283842,0.282024,0.280189,,,,,,,0.008394,-0.013105,-0.209172,-0.024223,-3.7e-05,-0.000762
381037,0.007422,-0.018722,-0.31493,0.0,-0.0,-0.0,2.0,0.282024,0.283245,0.282024,0.280796,,,,,,,0.008273,-0.013106,-0.209187,-0.024013,-3.9e-05,-0.000761
381057,0.007181,-0.01876,-0.314932,0.0,-0.0,-0.0,2.0,0.282024,0.281756,0.282024,0.282292,,,,,,,0.008032,-0.013107,-0.209203,-0.024029,-4.2e-05,-0.00076
381077,0.00694,-0.018798,-0.314935,0.0,-0.0,-0.0,2.0,0.282024,0.280592,0.282024,0.283446,,,,,,,0.007791,-0.013108,-0.209218,-0.024112,-4.6e-05,-0.000759
381097,0.007041,-0.018659,-0.314934,0.0,-0.0,-0.0,2.0,0.282024,0.283474,0.282024,0.280563,,,,,,,0.007772,-0.013108,-0.209233,-0.0,-3.2e-05,-0.000757
381117,0.007041,-0.018659,-0.314934,0.0,-0.0,-0.0,2.0,0.282024,0.284368,0.282024,0.279652,,,,,,,0.007771,-0.013109,-0.209248,8.4e-05,-3.2e-05,-0.000755
381137,0.00706,-0.018779,-0.314934,0.0,-0.0,-0.0,2.0,0.282024,0.283964,0.282024,0.280065,,,,,,,0.007791,-0.01311,-0.209263,1.6e-05,-4.4e-05,-0.000754
381157,0.007181,-0.01876,-0.314932,0.0,-0.0,-0.0,2.0,0.282024,0.284844,0.282024,0.279163,,,,,,,0.007911,-0.013111,-0.209278,-1e-06,-4.2e-05,-0.000752
381177,0.0072,-0.018881,-0.314932,0.0,-0.0,-0.0,2.0,0.282024,0.284452,0.282024,0.279566,,,,,,,0.00793,-0.013112,-0.209293,-1e-06,-5.4e-05,-0.000751
381197,0.0072,-0.018881,-0.314932,0.0,-0.0,-0.0,2.0,0.282024,0.281812,0.282024,0.282236,,,,,,,0.007829,-0.013113,-0.209308,0.020119,-5.4e-05,-0.000749
381217,0.00696,-0.018918,-0.315049,0.0,-0.0,-0.0,2.0,0.282024,0.282618,0.282024,0.281428,,,,,,,0.007811,-0.013114,-0.209323,-0.024011,-5.8e-05,-0.000759
381237,0.006941,-0.018798,-0.315049,0.0,-0.0,-0.0,2.0,0.282024,0.283151,0.282024,0.280891,,,,,,,0.007671,-0.013115,-0.209338,1e-06,-4.5e-05,-0.000758
381257,0.00682,-0.018817,-0.315051,0.0,-0.0,-0.0,2.0,0.282024,0.282258,0.282024,0.28179,,,,,,,0.007551,-0.013116,-0.209354,-1.5e-05,-4.7e-05,-0.000757
381277,0.006839,-0.018937,-0.315051,0.0,-0.0,-0.0,2.0,0.282024,0.284794,0.282024,0.279215,,,,,,,0.007671,-0.013117,-0.209369,-0.020201,-5.9e-05,-0.000755
381297,0.00696,-0.018918,-0.315049,0.0,-0.0,-0.0,2.0,0.282024,0.284497,0.282024,0.27952,,,,,,,0.00769,-0.013118,-0.209384,1.6e-05,-5.7e-05,-0.000753
381317,0.007099,-0.01902,-0.314933,0.0,-0.0,-0.0,2.0,0.282024,0.285891,0.282024,0.278079,,,,,,,0.007829,-0.013119,-0.209399,-0.000115,-6.7e-05,-0.00074
381337,0.0071,-0.01902,-0.315048,0.0,-0.0,-0.0,2.0,0.282024,0.285268,0.282024,0.278726,,,,,,,0.007951,-0.013121,-0.209414,-0.024013,-6.7e-05,-0.00075
381357,0.0071,-0.01902,-0.315048,0.0,-0.0,-0.0,2.0,0.282024,0.28204,0.282024,0.282008,,,,,,,0.007829,-0.013122,-0.209429,0.000116,-6.7e-05,-0.000749
381377,0.006978,-0.019039,-0.314934,0.0,-0.0,-0.0,2.0,0.282024,0.282676,0.282024,0.28137,,,,,,,0.007708,-0.013123,-0.209443,1e-06,-6.9e-05,-0.000736
381397,0.006857,-0.019059,-0.314936,0.0,-0.0,-0.0,2.0,0.282024,0.283892,0.282024,0.280138,,,,,,,0.007709,-0.013125,-0.209458,-0.024229,-7.1e-05,-0.000735
381417,0.006959,-0.018919,-0.314935,0.0,-0.0,-0.0,2.0,0.282024,0.283074,0.282024,0.280969,,,,,,,0.007569,-0.013126,-0.209473,0.024014,-5.6e-05,-0.000733
381437,0.006838,-0.018938,-0.314936,0.0,-0.0,-0.0,2.0,0.282024,0.285818,0.282024,0.278156,,,,,,,0.007689,-0.013127,-0.209488,-0.02393,-5.8e-05,-0.000732
381457,0.006978,-0.019039,-0.314934,0.0,-0.0,-0.0,2.0,0.282024,0.284923,0.282024,0.279082,,,,,,,0.007708,-0.013128,-0.209502,1.6e-05,-6.8e-05,-0.00073
381477,0.007099,-0.01902,-0.314933,0.0,-0.0,-0.0,2.0,0.282024,0.286402,0.282024,0.277547,,,,,,,0.007847,-0.01313,-0.209517,-0.003696,-6.6e-05,-0.000728
381497,0.007118,-0.019141,-0.314933,0.0,-0.0,-0.0,2.0,0.282024,0.284119,0.282024,0.279907,,,,,,,0.007829,-0.013131,-0.209531,0.003795,-7.8e-05,-0.000727
381517,0.007099,-0.01902,-0.314933,0.0,-0.0,-0.0,2.0,0.282024,0.282216,0.282024,0.281833,,,,,,,0.007728,-0.013133,-0.209546,0.020119,-6.6e-05,-0.000726
381537,0.006978,-0.019039,-0.314934,0.0,-0.0,-0.0,2.0,0.282024,0.284427,0.282024,0.279591,,,,,,,0.007829,-0.013134,-0.20956,-0.024013,-6.8e-05,-0.000724
381557,0.006857,-0.019059,-0.314936,0.0,-0.0,-0.0,2.0,0.282024,0.283817,0.282024,0.280215,,,,,,,0.007689,-0.013135,-0.209575,-0.020202,-6.9e-05,-0.000723
381577,0.006838,-0.018938,-0.314936,0.0,-0.0,-0.0,2.0,0.282024,0.281978,0.282024,0.282071,,,,,,,0.007468,-0.013136,-0.209589,0.020119,-5.7e-05,-0.000721
381597,0.006857,-0.019059,-0.314936,0.0,-0.0,-0.0,2.0,0.282024,0.286385,0.282024,0.277564,,,,,,,0.007587,-0.013138,-0.209604,9.9e-05,-6.9e-05,-0.00072
381617,0.006877,-0.019179,-0.314935,0.0,-0.0,-0.0,2.0,0.282024,0.285499,0.282024,0.278486,,,,,,,0.007607,-0.013139,-0.209618,1.5e-05,-8.1e-05,-0.000719
381637,0.006997,-0.01916,-0.314934,0.0,-0.0,-0.0,2.0,0.282024,0.282845,0.282024,0.2812,,,,,,,0.007607,-0.013141,-0.209632,0.023914,-7.9e-05,-0.000717
381657,0.006997,-0.01916,-0.314934,0.0,-0.0,-0.0,2.0,0.282024,0.28706,0.282024,0.276855,,,,,,,0.007848,-0.013142,-0.209647,-0.023914,-7.9e-05,-0.000716
381677,0.007118,-0.019141,-0.314933,0.0,-0.0,-0.0,2.0,0.282024,0.284534,0.282024,0.279482,,,,,,,0.007727,-0.013144,-0.209661,0.024013,-7.7e-05,-0.000714
381697,0.006857,-0.019059,-0.314936,0.0,-0.0,-0.0,2.0,0.282024,0.282998,0.282024,0.281045,,,,,,,0.007588,-0.013145,-0.209675,1e-06,-6.8e-05,-0.000713
381717,0.006737,-0.019078,-0.314937,0.0,-0.0,-0.0,2.0,0.282024,0.284448,0.282024,0.27957,,,,,,,0.007588,-0.013147,-0.20969,-0.024013,-7e-05,-0.000712
381737,0.006737,-0.019078,-0.314937,0.0,-0.0,-0.0,2.0,0.282024,0.284286,0.282024,0.279736,,,,,,,0.007467,-0.013148,-0.209704,0.0,-7e-05,-0.00071
381757,0.006755,-0.019199,-0.314822,0.0,-0.0,-0.0,2.0,0.282024,0.283534,0.282024,0.280503,,,,,,,0.007366,-0.01315,-0.209718,0.023796,-8.2e-05,-0.000697
381777,0.006756,-0.019198,-0.314937,0.0,-0.0,-0.0,2.0,0.282024,0.2849,0.282024,0.279105,,,,,,,0.007486,-0.013151,-0.209732,-0.0,-8.2e-05,-0.000707
381797,0.006877,-0.019179,-0.314935,0.0,-0.0,-0.0,2.0,0.282024,0.2871,0.282024,0.276814,,,,,,,0.007606,-0.013153,-0.209746,9.9e-05,-8e-05,-0.000706
381817,0.006877,-0.019179,-0.314935,0.0,-0.0,-0.0,2.0,0.282024,0.284964,0.282024,0.279039,,,,,,,0.007607,-0.013155,-0.20976,0.0,-8e-05,-0.000704
381837,0.006737,-0.019078,-0.314937,0.0,-0.0,-0.0,2.0,0.282024,0.284516,0.282024,0.2795,,,,,,,0.007588,-0.013156,-0.209774,-0.024029,-6.9e-05,-0.000703
381857,0.006616,-0.019097,-0.314938,0.0,-0.0,-0.0,2.0,0.282024,0.284453,0.282024,0.279565,,,,,,,0.007467,-0.013157,-0.209788,-0.024013,-7.1e-05,-0.000702
381877,0.006477,-0.018996,-0.31494,0.0,-0.0,-0.0,2.0,0.282024,0.28186,0.282024,0.282189,,,,,,,0.007206,-0.013159,-0.209802,0.000116,-6.1e-05,-0.000701
381897,0.006375,-0.019135,-0.314941,0.0,-0.0,-0.0,2.0,0.282024,0.282284,0.282024,0.281764,,,,,,,0.007106,-0.01316,-0.209816,-9.9e-05,-7.5e-05,-0.000699
381917,0.006496,-0.019116,-0.31494,0.0,-0.0,-0.0,2.0,0.282024,0.28697,0.282024,0.27695,,,,,,,0.007226,-0.013162,-0.20983,9.9e-05,-7.3e-05,-0.000698
381937,0.006515,-0.019237,-0.314939,0.0,-0.0,-0.0,2.0,0.282024,0.284991,0.282024,0.279012,,,,,,,0.007226,-0.013163,-0.209844,0.003811,-8.4e-05,-0.000696
381957,0.006616,-0.019097,-0.314938,0.0,-0.0,-0.0,2.0,0.282024,0.286636,0.282024,0.277301,,,,,,,0.007346,-0.013165,-0.209858,0.0001,-7e-05,-0.000695
381977,0.006597,-0.018976,-0.314938,0.0,-0.0,-0.0,2.0,0.282024,0.284713,0.282024,0.279298,,,,,,,0.007328,-0.013166,-0.209872,-1.6e-05,-5.8e-05,-0.000693
381997,0.006597,-0.018976,-0.314938,0.0,-0.0,-0.0,2.0,0.282024,0.284996,0.282024,0.279007,,,,,,,0.007328,-0.013167,-0.209886,-0.0,-5.8e-05,-0.000692
382017,0.006476,-0.018996,-0.314825,0.0,-0.0,-0.0,2.0,0.282024,0.283884,0.282024,0.280146,,,,,,,0.007206,-0.013168,-0.2099,-0.0,-6e-05,-0.000679
382037,0.006355,-0.019015,-0.314826,0.0,-0.0,-0.0,2.0,0.282024,0.28489,0.282024,0.279115,,,,,,,0.007206,-0.013169,-0.209913,-0.024014,-6.2e-05,-0.000678
382057,0.006476,-0.018996,-0.314825,0.0,-0.0,-0.0,2.0,0.282024,0.284763,0.282024,0.279246,,,,,,,0.007085,-0.013171,-0.209927,0.024014,-6e-05,-0.000677
382077,0.006476,-0.018996,-0.314825,0.0,-0.0,-0.0,2.0,0.282024,0.286914,0.282024,0.277009,,,,,,,0.007205,-0.013172,-0.20994,8.3e-05,-6e-05,-0.000675
382097,0.006596,-0.018977,-0.314824,0.0,-0.0,-0.0,2.0,0.282024,0.286468,0.282024,0.277477,,,,,,,0.007326,-0.013173,-0.209954,-1e-06,-5.8e-05,-0.000674
382117,0.006717,-0.018958,-0.314822,0.0,-0.0,-0.0,2.0,0.282024,0.286545,0.282024,0.277397,,,,,,,0.007447,-0.013174,-0.209967,-1e-06,-5.5e-05,-0.000672
382137,0.006698,-0.018837,-0.314823,0.0,-0.0,-0.0,2.0,0.282024,0.287527,0.282024,0.276363,,,,,,,0.007548,-0.013175,-0.209981,-0.023915,-4.3e-05,-0.000671
382157,0.006818,-0.018818,-0.314821,0.0,-0.0,-0.0,2.0,0.282024,0.285864,0.282024,0.278108,,,,,,,0.007548,-0.013176,-0.209994,-0.0,-4.1e-05,-0.00067
382177,0.006818,-0.018818,-0.314821,0.0,-0.0,-0.0,2.0,0.282024,0.2855,0.282024,0.278486,,,,,,,0.007548,-0.013177,-0.210008,-0.0,-4.1e-05,-0.000668
382197,0.006698,-0.018837,-0.314823,0.0,-0.0,-0.0,2.0,0.282024,0.284763,0.282024,0.279247,,,,,,,0.007428,-0.013178,-0.210021,-1e-06,-4.3e-05,-0.000667
382217,0.006699,-0.018837,-0.314937,0.0,-0.0,-0.0,2.0,0.282024,0.286427,0.282024,0.27752,,,,,,,0.007549,-0.013179,-0.210034,-0.023817,-4.3e-05,-0.000677
382237,0.006818,-0.018818,-0.314821,0.0,-0.0,-0.0,2.0,0.282024,0.286518,0.282024,0.277424,,,,,,,0.007548,-0.013179,-0.210048,-1e-06,-4.1e-05,-0.000664
382257,0.006939,-0.018799,-0.31482,0.0,-0.0,-0.0,2.0,0.282024,0.286328,0.282024,0.277623,,,,,,,0.007669,-0.01318,-0.210061,-0.0,-3.9e-05,-0.000663
382277,0.007041,-0.018659,-0.314934,0.0,-0.0,-0.0,2.0,0.282024,0.286415,0.282024,0.277533,,,,,,,0.007791,-0.013181,-0.210074,-0.003811,-2.5e-05,-0.000673
382297,0.007162,-0.01864,-0.314932,0.0,-0.0,-0.0,2.0,0.282024,0.287052,0.282024,0.276864,,,,,,,0.007892,-0.013181,-0.210088,-1e-06,-2.3e-05,-0.000671
382317,0.007041,-0.018659,-0.314934,0.0,-0.0,-0.0,2.0,0.282024,0.283601,0.282024,0.280435,,,,,,,0.007771,-0.013182,-0.210101,0.000111,-2.5e-05,-0.00067
382337,0.00704,-0.018659,-0.314819,0.0,-0.0,-0.0,2.0,0.282024,0.285006,0.282024,0.278997,,,,,,,0.007772,-0.013182,-0.210115,-0.000226,-2.5e-05,-0.000657
382357,0.007041,-0.018659,-0.314934,0.0,-0.0,-0.0,2.0,0.282024,0.285821,0.282024,0.278152,,,,,,,0.007772,-0.013183,-0.210128,1e-06,-2.5e-05,-0.000667
382377,0.00704,-0.018659,-0.314819,0.0,-0.0,-0.0,2.0,0.282024,0.285974,0.282024,0.277993,,,,,,,0.00777,-0.013184,-0.210141,0.0,-2.5e-05,-0.000655
382397,0.007142,-0.01852,-0.314818,0.0,-0.0,-0.0,2.0,0.282024,0.288032,0.282024,0.275826,,,,,,,0.007873,-0.013184,-0.210154,-0.000125,-1.1e-05,-0.000653
382417,0.007142,-0.01852,-0.314818,0.0,-0.0,-0.0,2.0,0.282024,0.286176,0.282024,0.277782,,,,,,,0.007873,-0.013184,-0.210167,-0.000208,-1.1e-05,-0.000652
382437,0.007143,-0.018519,-0.314933,0.0,-0.0,-0.0,2.0,0.282024,0.285091,0.282024,0.278908,,,,,,,0.007751,-0.013184,-0.21018,0.024223,-1.1e-05,-0.000662
382457,0.007142,-0.01852,-0.314818,0.0,-0.0,-0.0,2.0,0.282024,0.28815,0.282024,0.2757,,,,,,,0.007872,-0.013185,-0.210194,-0.00011,-1.1e-05,-0.000649
382477,0.007162,-0.01864,-0.314932,0.0,-0.0,-0.0,2.0,0.282024,0.287239,0.282024,0.276667,,,,,,,0.007892,-0.013185,-0.210207,1.5e-05,-2.3e-05,-0.000659
382497,0.007162,-0.01864,-0.314932,0.0,-0.0,-0.0,2.0,0.282024,0.286466,0.282024,0.277479,,,,,,,0.007892,-0.013185,-0.21022,1e-06,-2.3e-05,-0.000658
382517,0.007162,-0.01864,-0.314932,0.0,-0.0,-0.0,2.0,0.282024,0.286354,0.282024,0.277597,,,,,,,0.007892,-0.013186,-0.210233,0.0,-2.3e-05,-0.000657
382537,0.007162,-0.01864,-0.314932,0.0,-0.0,-0.0,2.0,0.282024,0.286385,0.282024,0.277564,,,,,,,0.007892,-0.013186,-0.210246,-0.0,-2.2e-05,-0.000655
382557,0.007143,-0.018519,-0.314933,0.0,-0.0,-0.0,2.0,0.282024,0.285927,0.282024,0.278042,,,,,,,0.007892,-0.013187,-0.210259,-0.003811,-1e-05,-0.000654
382577,0.007143,-0.018519,-0.314933,0.0,-0.0,-0.0,2.0,0.282024,0.285143,0.282024,0.278855,,,,,,,0.007873,-0.013187,-0.210272,-0.0001,-1e-05,-0.000653
382597,0.007143,-0.018519,-0.314933,0.0,-0.0,-0.0,2.0,0.282024,0.284099,0.282024,0.279927,,,,,,,0.007753,-0.013187,-0.210285,0.023914,-1e-05,-0.000652
382617,0.006901,-0.018557,-0.314935,0.0,-0.0,-0.0,2.0,0.282024,0.285971,0.282024,0.277997,,,,,,,0.007752,-0.013187,-0.210298,-0.024013,-1.4e-05,-0.000651
382637,0.006901,-0.018557,-0.314935,0.0,-0.0,-0.0,2.0,0.282024,0.286133,0.282024,0.277827,,,,,,,0.007632,-0.013188,-0.210311,0.0,-1.4e-05,-0.000649
382657,0.006781,-0.018576,-0.314937,0.0,-0.0,-0.0,2.0,0.282024,0.285243,0.282024,0.278752,,,,,,,0.007511,-0.013188,-0.210324,1e-06,-1.6e-05,-0.000648
382677,0.006659,-0.018596,-0.314823,0.0,-0.0,-0.0,2.0,0.282024,0.286694,0.282024,0.277241,,,,,,,0.00753,-0.013188,-0.210337,-0.028019,-1.8e-05,-0.000635
382697,0.00666,-0.018596,-0.314938,0.0,-0.0,-0.0,2.0,0.282024,0.287285,0.282024,0.276618,,,,,,,0.007511,-0.013189,-0.21035,-0.024014,-1.8e-05,-0.000646
382717,0.006641,-0.018475,-0.314938,0.0,-0.0,-0.0,2.0,0.282024,0.286232,0.282024,0.277724,,,,,,,0.007391,-0.013189,-0.210363,-0.003811,-6e-06,-0.000644
382737,0.00652,-0.018495,-0.314825,0.0,-0.0,-0.0,2.0,0.282024,0.286728,0.282024,0.277205,,,,,,,0.00739,-0.013189,-0.210376,-0.027809,-8e-06,-0.000632
382757,0.006521,-0.018494,-0.314939,0.0,-0.0,-0.0,2.0,0.282024,0.284436,0.282024,0.279582,,,,,,,0.007251,-0.013189,-0.210389,-9.9e-05,-8e-06,-0.000642
382777,0.00652,-0.018495,-0.314825,0.0,-0.0,-0.0,2.0,0.282024,0.286406,0.282024,0.277543,,,,,,,0.007251,-0.013189,-0.210401,-0.000209,-8e-06,-0.000629
382797,0.00652,-0.018495,-0.314825,0.0,-0.0,-0.0,2.0,0.282024,0.284601,0.282024,0.279413,,,,,,,0.007149,-0.01319,-0.210414,0.020121,-8e-06,-0.000628
382817,0.00652,-0.018495,-0.314825,0.0,-0.0,-0.0,2.0,0.282024,0.286715,0.282024,0.277218,,,,,,,0.00725,-0.01319,-0.210427,-0.0,-8e-06,-0.000627
382837,0.00652,-0.018495,-0.314825,0.0,-0.0,-0.0,2.0,0.282024,0.286547,0.282024,0.277395,,,,,,,0.00725,-0.01319,-0.210439,0.0,-8e-06,-0.000625
382857,0.0065,-0.018374,-0.314825,0.0,-0.0,-0.0,2.0,0.282024,0.286653,0.282024,0.277283,,,,,,,0.00725,-0.01319,-0.210452,-0.00381,4e-06,-0.000624
382877,0.00664,-0.018476,-0.314823,0.0,-0.0,-0.0,2.0,0.282024,0.28788,0.282024,0.275988,,,,,,,0.007351,-0.01319,-0.210464,0.003809,-6e-06,-0.000623
382897,0.006621,-0.018355,-0.314824,0.0,-0.0,-0.0,2.0,0.282024,0.28673,0.282024,0.277203,,,,,,,0.007351,-0.01319,-0.210477,0.0,6e-06,-0.000622
382917,0.006621,-0.018355,-0.314824,0.0,-0.0,-0.0,2.0,0.282024,0.287011,0.282024,0.276908,,,,,,,0.007371,-0.01319,-0.210489,-0.00381,6e-06,-0.00062
382937,0.00664,-0.018476,-0.314823,0.0,-0.0,-0.0,2.0,0.282024,0.286961,0.282024,0.27696,,,,,,,0.007372,-0.01319,-0.210501,-0.000208,-6e-06,-0.000619
382957,0.006641,-0.018475,-0.314938,0.0,-0.0,-0.0,2.0,0.282024,0.287106,0.282024,0.276807,,,,,,,0.00737,-0.01319,-0.210514,0.000225,-6e-06,-0.000629
382977,0.006621,-0.018355,-0.314824,0.0,-0.0,-0.0,2.0,0.282024,0.285783,0.282024,0.278192,,,,,,,0.00725,-0.01319,-0.210526,0.020204,6e-06,-0.000617
382997,0.006521,-0.018494,-0.314939,0.0,-0.0,-0.0,2.0,0.282024,0.286439,0.282024,0.277507,,,,,,,0.007232,-0.01319,-0.210539,0.003811,-8e-06,-0.000627
383017,0.006502,-0.018374,-0.314939,0.0,-0.0,-0.0,2.0,0.282024,0.2869,0.282024,0.277024,,,,,,,0.007232,-0.01319,-0.210551,1e-06,5e-06,-0.000626
383037,0.0065,-0.018374,-0.314825,0.0,-0.0,-0.0,2.0,0.282024,0.286995,0.282024,0.276924,,,,,,,0.007232,-0.01319,-0.210564,-0.000208,4e-06,-0.000613
383057,0.006381,-0.018393,-0.314941,0.0,-0.0,-0.0,2.0,0.282024,0.286976,0.282024,0.276944,,,,,,,0.007232,-0.01319,-0.210576,-0.024013,3e-06,-0.000623
383077,0.006502,-0.018374,-0.314939,0.0,-0.0,-0.0,2.0,0.282024,0.287955,0.282024,0.275909,,,,,,,0.007232,-0.01319,-0.210589,0.0,5e-06,-0.000622
383097,0.00652,-0.018495,-0.314825,0.0,-0.0,-0.0,2.0,0.282024,0.287339,0.282024,0.276561,,,,,,,0.00725,-0.01319,-0.210601,-1e-06,-8e-06,-0.000609
383117,0.0064,-0.018513,-0.314941,0.0,-0.0,-0.0,2.0,0.282024,0.284805,0.282024,0.279203,,,,,,,0.007131,-0.01319,-0.210613,-9.9e-05,-9e-06,-0.00062
383137,0.0064,-0.018513,-0.314941,0.0,-0.0,-0.0,2.0,0.282024,0.287003,0.282024,0.276915,,,,,,,0.00713,-0.01319,-0.210626,1e-06,-9e-06,-0.000618
383157,0.006259,-0.018412,-0.314827,0.0,-0.0,-0.0,2.0,0.282024,0.286404,0.282024,0.277544,,,,,,,0.00699,-0.01319,-0.210638,0.0,1e-06,-0.000606
383177,0.006139,-0.018432,-0.314829,0.0,-0.0,-0.0,2.0,0.282024,0.284698,0.282024,0.279313,,,,,,,0.00687,-0.01319,-0.21065,-0.0001,-1e-06,-0.000605
383197,0.00614,-0.018431,-0.314943,0.0,-0.0,-0.0,2.0,0.282024,0.286609,0.282024,0.27733,,,,,,,0.006851,-0.01319,-0.210662,0.003797,-1e-06,-0.000615
383217,0.006018,-0.018451,-0.31483,0.0,-0.0,-0.0,2.0,0.282024,0.286503,0.282024,0.277441,,,,,,,0.006749,-0.01319,-0.210674,0.0,-3e-06,-0.000602
383237,0.005898,-0.01847,-0.314831,0.0,-0.0,-0.0,2.0,0.282024,0.284683,0.282024,0.279329,,,,,,,0.006629,-0.013191,-0.210686,-0.0001,-5e-06,-0.000601
383257,0.005918,-0.01859,-0.314945,0.0,-0.0,-0.0,2.0,0.282024,0.287052,0.282024,0.276864,,,,,,,0.006648,-0.013191,-0.210698,1e-06,-1.7e-05,-0.000612
383277,0.005796,-0.01861,-0.314832,0.0,-0.0,-0.0,2.0,0.282024,0.286471,0.282024,0.277474,,,,,,,0.006527,-0.013191,-0.210711,0.0,-1.9e-05,-0.000599
383297,0.005676,-0.018629,-0.314833,0.0,-0.0,-0.0,2.0,0.282024,0.285824,0.282024,0.278149,,,,,,,0.006406,-0.013192,-0.210723,1e-06,-2.1e-05,-0.000598
383317,0.005657,-0.018508,-0.314833,0.0,-0.0,-0.0,2.0,0.282024,0.286791,0.282024,0.277139,,,,,,,0.006387,-0.013192,-0.210734,0.0,-9e-06,-0.000597
383337,0.005536,-0.018527,-0.314835,0.0,-0.0,-0.0,2.0,0.282024,0.286422,0.282024,0.277525,,,,,,,0.006266,-0.013192,-0.210746,0.0,-1.1e-05,-0.000596
383357,0.005415,-0.018546,-0.314836,0.0,-0.0,-0.0,2.0,0.282024,0.284456,0.282024,0.279562,,,,,,,0.006146,-0.013192,-0.210758,-0.000115,-1.3e-05,-0.000595
383377,0.005314,-0.018686,-0.314837,0.0,-0.0,-0.0,2.0,0.282024,0.287078,0.282024,0.276837,,,,,,,0.006165,-0.013193,-0.21077,-0.023998,-2.6e-05,-0.000594
383397,0.005314,-0.018686,-0.314837,0.0,-0.0,-0.0,2.0,0.282024,0.286804,0.282024,0.277125,,,,,,,0.006044,-0.013193,-0.210782,-0.0,-2.6e-05,-0.000592
383417,0.005314,-0.018686,-0.314837,0.0,-0.0,-0.0,2.0,0.282024,0.286648,0.282024,0.277288,,,,,,,0.006025,-0.013194,-0.210794,0.003794,-2.6e-05,-0.000591
383437,0.005193,-0.018705,-0.314838,0.0,-0.0,-0.0,2.0,0.282024,0.287014,0.282024,0.276904,,,,,,,0.006044,-0.013194,-0.210806,-0.024014,-2.8e-05,-0.00059
383457,0.005174,-0.018585,-0.314838,0.0,-0.0,-0.0,2.0,0.282024,0.286815,0.282024,0.277113,,,,,,,0.005924,-0.013195,-0.210818,-0.00381,-1.6e-05,-0.000589
383477,0.005035,-0.018483,-0.31484,0.0,-0.0,-0.0,2.0,0.282024,0.286529,0.282024,0.277413,,,,,,,0.005886,-0.013195,-0.210829,-0.02403,-6e-06,-0.000588
383497,0.005036,-0.018483,-0.314954,0.0,-0.0,-0.0,2.0,0.282024,0.286793,0.282024,0.277137,,,,,,,0.005785,-0.013195,-0.210841,-0.003811,-6e-06,-0.000598
383517,0.005054,-0.018604,-0.314839,0.0,-0.0,-0.0,2.0,0.282024,0.287156,0.282024,0.276755,,,,,,,0.005784,-0.013195,-0.210853,-0.0,-1.8e-05,-0.000586
383537,0.004933,-0.018623,-0.314841,0.0,-0.0,-0.0,2.0,0.282024,0.286644,0.282024,0.277293,,,,,,,0.005765,-0.013196,-0.210865,-0.020219,-2e-05,-0.000584
383557,0.004933,-0.018623,-0.314841,0.087266,-0.0,-0.0,2.0,0.282024,0.233325,0.282024,0.320836,,,,,,,0.005664,-0.013196,-0.210876,0.0,-2e-05,-0.000583
383577,0.004793,-0.018522,-0.314842,0.087266,-0.0,-0.0,2.0,0.282024,0.234621,0.282024,0.320018,,,,,,,0.005664,-0.013197,-0.210888,-0.027938,-1e-05,-0.000582
383597,0.005054,-0.018604,-0.314839,0.087266,-0.0,-0.0,2.0,0.282024,0.236781,0.282024,0.318632,,,,,,,0.005764,-0.013197,-0.2109,0.003908,-1.8e-05,-0.000581
383617,0.00588,-0.018349,-0.314946,0.087266,-0.0,-0.0,2.0,0.282024,0.241949,0.282024,0.315199,,,,,,,0.006387,-0.013197,-0.210912,0.044413,8e-06,-0.00059
383637,0.007365,-0.01836,-0.31493,0.087266,-0.0,-0.0,2.0,0.282024,0.25152,0.282024,0.308385,,,,,,,0.007731,-0.013197,-0.210923,0.072435,7e-06,-0.000588
383657,0.009471,-0.018396,-0.314907,0.087266,-0.0,-0.0,2.0,0.282024,0.256926,0.282024,0.304256,,,,,,,0.009578,-0.013197,-0.210935,0.124287,3e-06,-0.000584
383677,0.012463,-0.018538,-0.315155,0.087266,-0.0,-0.0,2.0,0.282024,0.266447,0.282024,0.296452,,,,,,,0.012326,-0.013197,-0.210947,0.172805,-1.1e-05,-0.000608
383697,0.016056,-0.018584,-0.31522,0.087266,-0.0,-0.0,2.0,0.282024,0.279961,0.282024,0.284066,,,,,,,0.0159,-0.013197,-0.210959,0.176619,-1.6e-05,-0.000613
383717,0.020514,-0.018615,-0.315435,0.087266,-0.0,-0.0,2.0,0.282024,0.285703,0.282024,0.278275,,,,,,,0.019892,-0.013197,-0.210971,0.269338,-1.9e-05,-0.000633
383737,0.025354,-0.018705,-0.315749,0.087266,-0.0,-0.0,2.0,0.282024,0.291244,0.282024,0.272349,,,,,,,0.024732,-0.013198,-0.210984,0.269349,-2.8e-05,-0.000663
383757,0.030676,-0.018717,-0.316042,0.087266,-0.0,-0.0,2.0,0.282024,0.301205,0.282024,0.260752,,,,,,,0.030193,-0.013199,-0.210998,0.241771,-2.9e-05,-0.000691
383777,0.036157,-0.018948,-0.316316,0.087266,-0.0,-0.0,2.0,0.282024,0.302486,0.282024,0.259163,,,,,,,0.035498,-0.013199,-0.211012,0.276722,-5.2e-05,-0.000717
383797,0.041478,-0.018957,-0.316467,0.087266,-0.0,-0.0,2.0,0.282024,0.305718,0.282024,0.255043,,,,,,,0.040838,-0.0132,-0.211026,0.272986,-5.3e-05,-0.000731
383817,0.046336,-0.019166,-0.316502,0.087266,-0.0,-0.0,2.0,0.282024,0.301988,0.282024,0.259783,,,,,,,0.045818,-0.013202,-0.211041,0.248616,-7.4e-05,-0.000733
383837,0.050673,-0.01921,-0.316544,0.087266,-0.0,-0.0,2.0,0.282024,0.301828,0.282024,0.259981,,,,,,,0.050396,-0.013203,-0.211056,0.200582,-7.8e-05,-0.000736
383857,0.054267,-0.019249,-0.316601,0.087266,-0.0,-0.0,2.0,0.282024,0.297887,0.282024,0.26476,,,,,,,0.054251,-0.013205,-0.21107,0.148643,-8.2e-05,-0.00074
383877,0.057258,-0.019391,-0.316442,0.087266,-0.0,-0.0,2.0,0.282024,0.292204,0.282024,0.271286,,,,,,,0.057364,-0.013206,-0.211085,0.124444,-9.6e-05,-0.000723
383897,0.059485,-0.019404,-0.316366,0.087266,-0.0,-0.0,2.0,0.282024,0.284596,0.282024,0.279418,,,,,,,0.059712,-0.013208,-0.211099,0.100236,-9.7e-05,-0.000713
383917,0.060954,-0.019293,-0.316373,0.087266,-0.0,-0.0,2.0,0.282024,0.277282,0.282024,0.286654,,,,,,,0.061299,-0.01321,-0.211113,0.076787,-8.5e-05,-0.000713
383937,0.061797,-0.019158,-0.316346,0.087266,-0.0,-0.0,2.0,0.282024,0.271738,0.282024,0.291797,,,,,,,0.062305,-0.013212,-0.211128,0.044289,-7.2e-05,-0.000709
383957,0.062298,-0.019201,-0.316327,0.087266,-0.0,-0.0,2.0,0.282024,0.269219,0.282024,0.294043,,,,,,,0.063009,-0.013213,-0.211142,0.003907,-7.6e-05,-0.000705
383977,0.062539,-0.019162,-0.31632,0.087266,-0.0,-0.0,2.0,0.282024,0.264633,0.282024,0.297994,,,,,,,0.06313,-0.013215,-0.211156,0.027934,-7.2e-05,-0.000703
383997,0.06266,-0.019143,-0.316316,0.087266,-0.0,-0.0,2.0,0.282024,0.262839,0.282024,0.299493,,,,,,,0.06327,-0.013216,-0.21117,0.023999,-7e-05,-0.000701
384017,0.062939,-0.019345,-0.316301,0.087266,-0.0,-0.0,2.0,0.282024,0.267428,0.282024,0.295607,,,,,,,0.06365,-0.013217,-0.211184,0.003812,-9e-05,-0.000699
384037,0.063561,-0.019365,-0.316392,0.087266,-0.0,-0.0,2.0,0.282024,0.270988,0.282024,0.292471,,,,,,,0.06417,-0.013219,-0.211198,0.024323,-9.2e-05,-0.000706
384057,0.064548,-0.019335,-0.316299,0.087266,-0.0,-0.0,2.0,0.282024,0.272203,0.282024,0.291376,,,,,,,0.064912,-0.013221,-0.211212,0.073004,-8.8e-05,-0.000696
384077,0.065811,-0.019498,-0.316363,0.087266,-0.0,-0.0,2.0,0.282024,0.275517,0.282024,0.288322,,,,,,,0.06616,-0.013223,-0.211226,0.076017,-0.000105,-0.000701
384097,0.067642,-0.019325,-0.316469,0.087266,-0.0,-0.0,2.0,0.282024,0.283942,0.282024,0.280087,,,,,,,0.067889,-0.013225,-0.21124,0.096403,-8.7e-05,-0.00071
384117,0.069729,-0.019236,-0.31639,0.087266,-0.0,-0.0,2.0,0.282024,0.287768,0.282024,0.276107,,,,,,,0.069854,-0.013227,-0.211254,0.120472,-7.8e-05,-0.0007
384137,0.071979,-0.019365,-0.316468,0.087266,-0.0,-0.0,2.0,0.282024,0.290264,0.282024,0.273423,,,,,,,0.072085,-0.013229,-0.211268,0.124311,-9.1e-05,-0.000707
384157,0.074591,-0.019436,-0.31653,0.087266,-0.0,-0.0,2.0,0.282024,0.294492,0.282024,0.268708,,,,,,,0.074697,-0.01323,-0.211282,0.124303,-9.8e-05,-0.000712
384177,0.077323,-0.019486,-0.316585,0.087266,-0.0,-0.0,2.0,0.282024,0.299254,0.282024,0.263128,,,,,,,0.077428,-0.013232,-0.211297,0.124496,-0.000103,-0.000716
384197,0.080074,-0.019657,-0.316631,0.087266,-0.0,-0.0,2.0,0.282024,0.297172,0.282024,0.265603,,,,,,,0.08006,-0.013235,-0.211311,0.148285,-0.000119,-0.000719
384217,0.082685,-0.019731,-0.316569,0.087266,-0.0,-0.0,2.0,0.282024,0.298232,0.282024,0.264351,,,,,,,0.082772,-0.013237,-0.211325,0.128116,-0.000127,-0.000711
384237,0.085278,-0.01968,-0.316623,0.087266,-0.0,-0.0,2.0,0.282024,0.299173,0.282024,0.263224,,,,,,,0.085384,-0.013239,-0.21134,0.124277,-0.000121,-0.000715
384257,0.087509,-0.019686,-0.316689,0.087266,-0.0,-0.0,2.0,0.282024,0.298753,0.282024,0.263729,,,,,,,0.087755,-0.013242,-0.211354,0.096455,-0.000122,-0.00072
384277,0.08948,-0.019616,-0.316653,0.087266,-0.0,-0.0,2.0,0.282024,0.294564,0.282024,0.268625,,,,,,,0.089708,-0.013244,-0.211368,0.100077,-0.000114,-0.000715
384297,0.091204,-0.019585,-0.31657,0.087266,-0.0,-0.0,2.0,0.282024,0.293558,0.282024,0.269768,,,,,,,0.091432,-0.013246,-0.211382,0.100138,-0.000111,-0.000706
384317,0.092433,-0.019511,-0.316568,0.087266,-0.0,-0.0,2.0,0.282024,0.290011,0.282024,0.273698,,,,,,,0.092801,-0.013248,-0.211397,0.07215,-0.000103,-0.000704
384337,0.093334,-0.01973,-0.31663,0.087266,-0.0,-0.0,2.0,0.282024,0.289323,0.282024,0.274443,,,,,,,0.093924,-0.013251,-0.211411,0.028009,-0.000125,-0.000709
384357,0.093961,-0.019754,-0.316655,0.087266,-0.0,-0.0,2.0,0.282024,0.286509,0.282024,0.277434,,,,,,,0.09457,-0.013253,-0.211425,0.02416,-0.000127,-0.00071
384377,0.094322,-0.019695,-0.316638,0.087266,-0.0,-0.0,2.0,0.282024,0.282301,0.282024,0.281747,,,,,,,0.094951,-0.013256,-0.211439,0.020167,-0.000121,-0.000707
384397,0.094583,-0.019771,-0.316737,0.087266,-0.0,-0.0,2.0,0.282024,0.283255,0.282024,0.280786,,,,,,,0.095293,-0.013258,-0.211453,0.003916,-0.000128,-0.000715
384417,0.094684,-0.019631,-0.316737,0.087266,-0.0,-0.0,2.0,0.282024,0.281535,0.282024,0.282512,,,,,,,0.095414,-0.013261,-0.211467,-0.0,-0.000114,-0.000714
384437,0.094804,-0.019606,-0.316846,0.087266,-0.0,-0.0,2.0,0.282024,0.280857,0.282024,0.283185,,,,,,,0.095433,-0.013263,-0.211482,0.020221,-0.000111,-0.000723
384457,0.094944,-0.019706,-0.316835,0.087266,-0.0,-0.0,2.0,0.282024,0.281991,0.282024,0.282058,,,,,,,0.095655,-0.013265,-0.211496,0.003833,-0.000121,-0.000721
384477,0.095305,-0.019648,-0.316819,0.087266,-0.0,-0.0,2.0,0.282024,0.283837,0.282024,0.280194,,,,,,,0.095914,-0.013268,-0.21151,0.024136,-0.000115,-0.000718
384497,0.095552,-0.019615,-0.31675,0.087266,-0.0,-0.0,2.0,0.282024,0.283656,0.282024,0.280379,,,,,,,0.096162,-0.01327,-0.211525,0.024013,-0.000112,-0.000709
384517,0.096053,-0.019652,-0.316837,0.087266,-0.0,-0.0,2.0,0.282024,0.284873,0.282024,0.279134,,,,,,,0.096663,-0.013272,-0.211539,0.023982,-0.000115,-0.000717
384537,0.096794,-0.019655,-0.316799,0.087266,-0.0,-0.0,2.0,0.282024,0.289549,0.282024,0.274199,,,,,,,0.097403,-0.013275,-0.211553,0.024245,-0.000115,-0.000711
384557,0.097536,-0.019665,-0.316645,0.087266,-0.0,-0.0,2.0,0.282024,0.289679,0.282024,0.274058,,,,,,,0.098024,-0.013277,-0.211567,0.048177,-0.000116,-0.000695
384577,0.098284,-0.019663,-0.316777,0.087266,-0.0,-0.0,2.0,0.282024,0.291588,0.282024,0.271969,,,,,,,0.098893,-0.013279,-0.211581,0.024193,-0.000115,-0.000706
384597,0.099266,-0.019621,-0.316842,0.087266,-0.0,-0.0,2.0,0.282024,0.291361,0.282024,0.27222,,,,,,,0.099755,-0.013281,-0.211596,0.048117,-0.000111,-0.000711
384617,0.100255,-0.019586,-0.316847,0.087266,-0.0,-0.0,2.0,0.282024,0.293212,0.282024,0.270159,,,,,,,0.100743,-0.013284,-0.21161,0.048207,-0.000107,-0.000711
384637,0.101136,-0.01969,-0.316796,0.087266,-0.0,-0.0,2.0,0.282024,0.291381,0.282024,0.272198,,,,,,,0.101606,-0.013286,-0.211624,0.051889,-0.000118,-0.000704
384657,0.102144,-0.019769,-0.31691,0.087266,-0.0,-0.0,2.0,0.282024,0.294309,0.282024,0.268917,,,,,,,0.102614,-0.013288,-0.211638,0.051993,-0.000125,-0.000714
384677,0.103006,-0.019753,-0.316863,0.087266,-0.0,-0.0,2.0,0.282024,0.294476,0.282024,0.268727,,,,,,,0.103495,-0.013291,-0.211652,0.048166,-0.000123,-0.000708
384697,0.103627,-0.019775,-0.316828,0.087266,-0.0,-0.0,2.0,0.282024,0.292059,0.282024,0.271448,,,,,,,0.104218,-0.013293,-0.211666,0.027893,-0.000125,-0.000703
384717,0.104236,-0.019678,-0.316856,0.087266,-0.0,-0.0,2.0,0.282024,0.291781,0.282024,0.271755,,,,,,,0.104845,-0.013295,-0.21168,0.024081,-0.000115,-0.000704
384737,0.104837,-0.019581,-0.316826,0.087266,-0.0,-0.0,2.0,0.282024,0.291208,0.282024,0.272389,,,,,,,0.105346,-0.013298,-0.211694,0.044232,-0.000105,-0.0007
384757,0.105097,-0.019662,-0.316808,0.087266,-0.0,-0.0,2.0,0.282024,0.290782,0.282024,0.272856,,,,,,,0.105827,-0.0133,-0.211708,9.9e-05,-0.000113,-0.000697
384777,0.105357,-0.019743,-0.316791,0.087266,-0.0,-0.0,2.0,0.282024,0.289513,0.282024,0.274238,,,,,,,0.106088,-0.013302,-0.211722,1.5e-05,-0.000121,-0.000694
384797,0.105598,-0.019704,-0.316779,0.087266,-0.0,-0.0,2.0,0.282024,0.28832,0.282024,0.275519,,,,,,,0.106208,-0.013305,-0.211736,0.024008,-0.000117,-0.000691
384817,0.105719,-0.019685,-0.316773,0.087266,-0.0,-0.0,2.0,0.282024,0.288019,0.282024,0.27584,,,,,,,0.106328,-0.013307,-0.21175,0.02401,-0.000115,-0.000689
384837,0.105738,-0.019805,-0.316767,0.087266,-0.0,-0.0,2.0,0.282024,0.288198,0.282024,0.275649,,,,,,,0.106468,-0.01331,-0.211763,-0.0,-0.000127,-0.000687
384857,0.105858,-0.019786,-0.316761,0.087266,-0.0,-0.0,2.0,0.282024,0.287991,0.282024,0.27587,,,,,,,0.106468,-0.013312,-0.211777,0.023974,-0.000124,-0.000685
384877,0.105979,-0.019766,-0.316755,0.087266,-0.0,-0.0,2.0,0.282024,0.290688,0.282024,0.272959,,,,,,,0.106708,-0.013315,-0.211791,9.9e-05,-0.000122,-0.000683
384897,0.106099,-0.019747,-0.316749,0.087266,-0.0,-0.0,2.0,0.282024,0.28865,0.282024,0.275166,,,,,,,0.106728,-0.013317,-0.211804,0.020141,-0.00012,-0.000681
384917,0.106226,-0.019727,-0.3168,0.087266,-0.0,-0.0,2.0,0.282024,0.291034,0.282024,0.27258,,,,,,,0.106956,-0.013319,-0.211818,6.5e-05,-0.000118,-0.000685
384937,0.106467,-0.019682,-0.316902,0.087266,-0.0,-0.0,2.0,0.282024,0.29161,0.282024,0.271945,,,,,,,0.107197,-0.013322,-0.211832,9.9e-05,-0.000113,-0.000694
384957,0.106707,-0.019643,-0.31689,0.087266,-0.0,-0.0,2.0,0.282024,0.290452,0.282024,0.273217,,,,,,,0.107337,-0.013324,-0.211846,0.020173,-0.000109,-0.000691
384977,0.106967,-0.019731,-0.316758,0.087266,-0.0,-0.0,2.0,0.282024,0.292138,0.282024,0.271359,,,,,,,0.107577,-0.013326,-0.21186,0.024058,-0.000118,-0.000677
384997,0.107208,-0.019692,-0.316746,0.087266,-0.0,-0.0,2.0,0.282024,0.291039,0.282024,0.272575,,,,,,,0.107818,-0.013329,-0.211873,0.023977,-0.000113,-0.000674
385017,0.107468,-0.019773,-0.316728,0.087266,-0.0,-0.0,2.0,0.282024,0.290815,0.282024,0.272821,,,,,,,0.108078,-0.013331,-0.211887,0.023974,-0.000121,-0.000671
385037,0.107728,-0.019854,-0.31671,0.087266,-0.0,-0.0,2.0,0.282024,0.293832,0.282024,0.269458,,,,,,,0.108458,-0.013334,-0.2119,6.7e-05,-0.000129,-0.000668
385057,0.107969,-0.019808,-0.316812,0.087266,-0.0,-0.0,2.0,0.282024,0.293781,0.282024,0.269517,,,,,,,0.108699,-0.013336,-0.211914,0.000128,-0.000124,-0.000677
385077,0.10833,-0.019757,-0.316679,0.087266,-0.0,-0.0,2.0,0.282024,0.293502,0.282024,0.269832,,,,,,,0.108939,-0.013339,-0.211927,0.024072,-0.000119,-0.000662
385097,0.108597,-0.019831,-0.316832,0.087266,-0.0,-0.0,2.0,0.282024,0.294325,0.282024,0.268899,,,,,,,0.109307,-0.013341,-0.21194,0.003917,-0.000126,-0.000676
385117,0.108818,-0.019665,-0.316941,0.087266,-0.0,-0.0,2.0,0.282024,0.292188,0.282024,0.271304,,,,,,,0.109428,-0.013343,-0.211954,0.023999,-0.000109,-0.000686
385137,0.108939,-0.019646,-0.316934,0.087266,-0.0,-0.0,2.0,0.282024,0.293563,0.282024,0.269763,,,,,,,0.109668,-0.013346,-0.211967,0.000111,-0.000107,-0.000684
385157,0.109078,-0.019747,-0.316922,0.087266,-0.0,-0.0,2.0,0.282024,0.290382,0.282024,0.273294,,,,,,,0.109669,-0.013348,-0.211981,0.027708,-0.000117,-0.000681
385177,0.109059,-0.019626,-0.316928,0.087266,-0.0,-0.0,2.0,0.282024,0.291543,0.282024,0.272019,,,,,,,0.109789,-0.01335,-0.211995,0.0,-0.000105,-0.00068
385197,0.109078,-0.019747,-0.316922,0.087266,-0.0,-0.0,2.0,0.282024,0.291775,0.282024,0.271762,,,,,,,0.109809,-0.013352,-0.212008,-0.0,-0.000117,-0.000678
385217,0.109078,-0.019747,-0.316922,0.087266,-0.0,-0.0,2.0,0.282024,0.291336,0.282024,0.272248,,,,,,,0.109809,-0.013355,-0.212022,1.6e-05,-0.000116,-0.000677
385237,0.109059,-0.019626,-0.316928,0.087266,-0.0,-0.0,2.0,0.282024,0.293673,0.282024,0.269638,,,,,,,0.109909,-0.013357,-0.212035,-0.023888,-0.000104,-0.000676
385257,0.109059,-0.019633,-0.316814,0.087266,-0.0,-0.0,2.0,0.282024,0.291691,0.282024,0.271856,,,,,,,0.109789,-0.013359,-0.212049,-2.7e-05,-0.000105,-0.000663
385277,0.109059,-0.019626,-0.316928,0.087266,-0.0,-0.0,2.0,0.282024,0.292053,0.282024,0.271455,,,,,,,0.109789,-0.013361,-0.212062,-0.0,-0.000104,-0.000673
385297,0.109199,-0.019727,-0.316916,0.087266,-0.0,-0.0,2.0,0.282024,0.292085,0.282024,0.271419,,,,,,,0.109789,-0.013363,-0.212076,0.02779,-0.000114,-0.000671
385317,0.109199,-0.019727,-0.316916,0.087266,-0.0,-0.0,2.0,0.282024,0.294535,0.282024,0.268659,,,,,,,0.109928,-0.013365,-0.212089,0.000115,-0.000113,-0.00067
385337,0.109319,-0.019708,-0.31691,0.087266,-0.0,-0.0,2.0,0.282024,0.292704,0.282024,0.270728,,,,,,,0.109929,-0.013368,-0.212103,0.023974,-0.000111,-0.000668
385357,0.109459,-0.019808,-0.316898,0.087266,-0.0,-0.0,2.0,0.282024,0.295444,0.282024,0.267616,,,,,,,0.110188,-0.01337,-0.212116,9.9e-05,-0.000121,-0.000665
385377,0.109459,-0.019808,-0.316898,0.087266,-0.0,-0.0,2.0,0.282024,0.293616,0.282024,0.269702,,,,,,,0.110189,-0.013372,-0.212129,-1e-06,-0.000121,-0.000664
385397,0.109579,-0.019789,-0.316892,0.087266,-0.0,-0.0,2.0,0.282024,0.292556,0.282024,0.270894,,,,,,,0.110189,-0.013375,-0.212142,0.023971,-0.000119,-0.000662
385417,0.109459,-0.019808,-0.316898,0.087266,-0.0,-0.0,2.0,0.282024,0.29504,0.282024,0.268081,,,,,,,0.110309,-0.013377,-0.212156,-0.023899,-0.00012,-0.000661
385437,0.109459,-0.019802,-0.317012,0.087266,-0.0,-0.0,2.0,0.282024,0.293098,0.282024,0.270286,,,,,,,0.110189,-0.01338,-0.212169,2.5e-05,-0.000119,-0.000671
385457,0.109459,-0.019808,-0.316898,0.087266,-0.0,-0.0,2.0,0.282024,0.293373,0.282024,0.269977,,,,,,,0.110189,-0.013382,-0.212182,-2.5e-05,-0.00012,-0.000658
385477,0.109459,-0.019808,-0.316898,0.087266,-0.0,-0.0,2.0,0.282024,0.291269,0.282024,0.272322,,,,,,,0.110069,-0.013384,-0.212196,0.023875,-0.00012,-0.000657
385497,0.109459,-0.019802,-0.317012,0.087266,-0.0,-0.0,2.0,0.282024,0.294864,0.282024,0.268282,,,,,,,0.110188,-0.013387,-0.212209,0.000125,-0.000119,-0.000667
385517,0.109478,-0.019929,-0.316892,0.087266,-0.0,-0.0,2.0,0.282024,0.295316,0.282024,0.267763,,,,,,,0.110189,-0.013389,-0.212222,0.003916,-0.000131,-0.000654
385537,0.109478,-0.019929,-0.316892,0.087266,-0.0,-0.0,2.0,0.282024,0.295297,0.282024,0.267786,,,,,,,0.110208,-0.013392,-0.212235,0.000115,-0.000131,-0.000653
385557,0.109478,-0.019929,-0.316892,0.087266,-0.0,-0.0,2.0,0.282024,0.293831,0.282024,0.269459,,,,,,,0.110189,-0.013394,-0.212248,0.003817,-0.000131,-0.000651
385577,0.109579,-0.019789,-0.316892,0.087266,-0.0,-0.0,2.0,0.282024,0.295686,0.282024,0.267336,,,,,,,0.110309,-0.013397,-0.212261,0.0001,-0.000116,-0.00065
385597,0.109579,-0.019789,-0.316892,0.087266,-0.0,-0.0,2.0,0.282024,0.294579,0.282024,0.268609,,,,,,,0.110329,-0.013399,-0.212274,-0.003836,-0.000116,-0.000649
385617,0.109579,-0.019789,-0.316892,0.087266,-0.0,-0.0,2.0,0.282024,0.294401,0.282024,0.268812,,,,,,,0.110309,-0.013402,-0.212287,0.0,-0.000116,-0.000647
385637,0.109459,-0.019808,-0.316898,0.087266,-0.0,-0.0,2.0,0.282024,0.293931,0.282024,0.269346,,,,,,,0.110189,-0.013404,-0.2123,0.0,-0.000118,-0.000647
385657,0.109338,-0.019828,-0.316904,0.087266,-0.0,-0.0,2.0,0.282024,0.2934,0.282024,0.269947,,,,,,,0.110069,-0.013406,-0.212313,1e-06,-0.000119,-0.000646
385677,0.109218,-0.019847,-0.31691,0.087266,-0.0,-0.0,2.0,0.282024,0.294541,0.282024,0.268652,,,,,,,0.110069,-0.013409,-0.212326,-0.023973,-0.000121,-0.000645
385697,0.109218,-0.019854,-0.316796,0.087266,-0.0,-0.0,2.0,0.282024,0.294624,0.282024,0.268557,,,,,,,0.109948,-0.013411,-0.212339,1.6e-05,-0.000121,-0.000633
385717,0.109198,-0.019734,-0.316802,0.087266,-0.0,-0.0,2.0,0.282024,0.294749,0.282024,0.268414,,,,,,,0.109929,-0.013413,-0.212351,0.0,-0.000109,-0.000632
385737,0.109218,-0.019854,-0.316796,0.087266,-0.0,-0.0,2.0,0.282024,0.296079,0.282024,0.266881,,,,,,,0.110049,-0.013415,-0.212364,-0.020139,-0.000121,-0.00063
385757,0.109319,-0.019714,-0.316795,0.087266,-0.0,-0.0,2.0,0.282024,0.295803,0.282024,0.267201,,,,,,,0.110068,-0.013418,-0.212376,-0.003819,-0.000107,-0.000629
385777,0.109338,-0.019835,-0.316789,0.087266,-0.0,-0.0,2.0,0.282024,0.295366,0.282024,0.267706,,,,,,,0.110068,-0.01342,-0.212389,-0.0,-0.000119,-0.000627
385797,0.109338,-0.019835,-0.316789,0.087266,-0.0,-0.0,2.0,0.282024,0.295407,0.282024,0.267658,,,,,,,0.110068,-0.013422,-0.212402,-0.0,-0.000118,-0.000626
385817,0.109198,-0.019734,-0.316802,0.087266,-0.0,-0.0,2.0,0.282024,0.294076,0.282024,0.269181,,,,,,,0.109929,-0.013425,-0.212414,-1.5e-05,-0.000108,-0.000626
385837,0.109078,-0.019753,-0.316808,0.087266,-0.0,-0.0,2.0,0.282024,0.294225,0.282024,0.269012,,,,,,,0.109808,-0.013427,-0.212427,1e-06,-0.00011,-0.000625
385857,0.108958,-0.019773,-0.316814,0.087266,-0.0,-0.0,2.0,0.282024,0.29384,0.282024,0.26945,,,,,,,0.109689,-0.013429,-0.212439,-9.9e-05,-0.000111,-0.000624
385877,0.108938,-0.019653,-0.31682,0.087266,-0.0,-0.0,2.0,0.282024,0.296571,0.282024,0.266308,,,,,,,0.109668,-0.013431,-0.212452,9.9e-05,-9.9e-05,-0.000624
385897,0.108938,-0.019653,-0.31682,0.087266,-0.0,-0.0,2.0,0.282024,0.297782,0.282024,0.264885,,,,,,,0.109789,-0.013433,-0.212464,-0.023891,-9.9e-05,-0.000622
385917,0.109078,-0.019753,-0.316808,0.087266,-0.0,-0.0,2.0,0.282024,0.295009,0.282024,0.268116,,,,,,,0.109689,-0.013435,-0.212476,0.023889,-0.000109,-0.00062
385937,0.109199,-0.019727,-0.316916,0.087266,-0.0,-0.0,2.0,0.282024,0.298107,0.282024,0.264499,,,,,,,0.109928,-0.013437,-0.212489,9.9e-05,-0.000106,-0.00063
385957,0.109319,-0.019708,-0.31691,0.087266,-0.0,-0.0,2.0,0.282024,0.298651,0.282024,0.26385,,,,,,,0.110049,-0.01344,-0.212501,0.000127,-0.000104,-0.000628
385977,0.109439,-0.019695,-0.316789,0.087266,-0.0,-0.0,2.0,0.282024,0.296679,0.282024,0.266182,,,,,,,0.110049,-0.013442,-0.212514,0.023945,-0.000102,-0.000614
385997,0.109439,-0.019695,-0.316789,0.087266,-0.0,-0.0,2.0,0.282024,0.297113,0.282024,0.265673,,,,,,,0.11017,-0.013444,-0.212526,-1.2e-05,-0.000102,-0.000613
386017,0.1093,-0.019594,-0.316802,0.087266,-0.0,-0.0,2.0,0.282024,0.29627,0.282024,0.266659,,,,,,,0.110049,-0.013446,-0.212539,-0.003833,-9.2e-05,-0.000613
386037,0.10916,-0.019493,-0.316814,0.087266,-0.0,-0.0,2.0,0.282024,0.294485,0.282024,0.268716,,,,,,,0.10991,-0.013447,-0.212551,-0.003934,-8.2e-05,-0.000613
386057,0.109059,-0.019633,-0.316814,0.087266,-0.0,-0.0,2.0,0.282024,0.295356,0.282024,0.267717,,,,,,,0.10977,-0.013449,-0.212563,0.003821,-9.6e-05,-0.000612
386077,0.108818,-0.019672,-0.316826,0.087266,-0.0,-0.0,2.0,0.282024,0.296399,0.282024,0.266508,,,,,,,0.109669,-0.013451,-0.212576,-0.023985,-9.9e-05,-0.000612
386097,0.108818,-0.019672,-0.316826,0.087266,-0.0,-0.0,2.0,0.282024,0.296726,0.282024,0.266127,,,,,,,0.109548,-0.013453,-0.212588,-0.0,-9.9e-05,-0.000611
386117,0.10904,-0.019513,-0.31682,0.087266,-0.0,-0.0,2.0,0.282024,0.297878,0.282024,0.264771,,,,,,,0.109669,-0.013455,-0.2126,0.020154,-8.3e-05,-0.000609
386137,0.109179,-0.019614,-0.316808,0.087266,-0.0,-0.0,2.0,0.282024,0.29746,0.282024,0.265264,,,,,,,0.10977,-0.013457,-0.212612,0.027792,-9.3e-05,-0.000606
386157,0.109179,-0.019614,-0.316808,0.087266,-0.0,-0.0,2.0,0.282024,0.299967,0.282024,0.262265,,,,,,,0.110029,-0.013458,-0.212624,-0.023876,-9.3e-05,-0.000605
386177,0.109319,-0.019714,-0.316795,0.087266,-0.0,-0.0,2.0,0.282024,0.298644,0.282024,0.263858,,,,,,,0.11003,-0.01346,-0.212636,0.003833,-0.000103,-0.000603
386197,0.1093,-0.019587,-0.316916,0.087266,-0.0,-0.0,2.0,0.282024,0.297595,0.282024,0.265106,,,,,,,0.110049,-0.013462,-0.212648,-0.00379,-9e-05,-0.000614
386217,0.109179,-0.019614,-0.316808,0.087266,-0.0,-0.0,2.0,0.282024,0.296158,0.282024,0.26679,,,,,,,0.10989,-0.013464,-0.212661,0.003804,-9.2e-05,-0.000602
386237,0.108919,-0.019532,-0.316826,0.087266,-0.0,-0.0,2.0,0.282024,0.297389,0.282024,0.265348,,,,,,,0.109789,-0.013466,-0.212673,-0.027795,-8.4e-05,-0.000602
386257,0.108818,-0.019672,-0.316826,0.087266,-0.0,-0.0,2.0,0.282024,0.295271,0.282024,0.267816,,,,,,,0.10953,-0.013468,-0.212685,0.003737,-9.8e-05,-0.000601
386277,0.108779,-0.019438,-0.316724,0.087266,-0.0,-0.0,2.0,0.282024,0.297871,0.282024,0.264779,,,,,,,0.109529,-0.013469,-0.212696,-0.003835,-7.4e-05,-0.00059
386297,0.1089,-0.019419,-0.316718,0.087266,-0.0,-0.0,2.0,0.282024,0.298029,0.282024,0.264591,,,,,,,0.10951,-0.013471,-0.212708,0.023976,-7.2e-05,-0.000588
386317,0.1089,-0.019419,-0.316718,0.087266,-0.0,-0.0,2.0,0.282024,0.300538,0.282024,0.26157,,,,,,,0.10975,-0.013472,-0.21272,-0.02389,-7.2e-05,-0.000587
