time_ms,roll,pitch,yaw,roll_rate,pitch_rate,yaw_rate,reference_roll,reference_pitch,reference_yaw,reference_throttle,throttle_1,throttle_2,throttle_3,throttle_4,roll_predicted,pitch_predicted,yaw_predicted,roll_rate_predicted,pitch_rate_predicted,yaw_rate_predicted
833788,0.00115,-0.025554,0.053396,-0.002101,0.001065,-0.001063,0.0,-0.0,-0.0,3.032258,0.327388,0.318277,0.327388,0.336168,,,,,,
833808,0.000906,-0.025548,0.053392,-0.002101,0.001065,-0.001064,0.0,-0.0,-0.0,3.032258,0.327388,0.322645,0.327388,0.33204,,,,,,
833828,0.000906,-0.025548,0.053392,-0.001064,0.0,0.0,0.0,-0.0,-0.0,3.032258,0.327388,0.327156,0.327388,0.32762,,,,,,
833848,0.001028,-0.025551,0.053394,0.0,0.0,0.0,0.0,-0.0,-0.0,3.032258,0.327388,0.327285,0.327388,0.327491,,,,,,
833868,0.001028,-0.025551,0.053394,2.7e-05,-0.001063,-0.001066,0.0,-0.0,-0.0,3.032258,0.327388,0.327304,0.327388,0.327473,,,,,,
833888,0.000902,-0.02567,0.053393,0.001092,-0.001063,-0.001066,0.0,-0.0,-0.0,3.032258,0.327388,0.322713,0.327388,0.331975,,,,,,
833908,0.000902,-0.02567,0.053393,0.001064,-0.002128,-2e-06,0.0,-0.0,-0.0,3.032258,0.327388,0.322733,0.327388,0.331955,,,,,,
833928,0.001021,-0.025795,0.053394,0.0,-0.002128,-2e-06,0.0,-0.0,-0.0,3.032258,0.327388,0.318288,0.327388,0.336158,,,,,,
833948,0.001137,-0.026043,0.053396,0.0,-0.002128,-2e-06,0.0,-0.0,-0.0,3.032258,0.327388,0.313873,0.327388,0.340186,,,,,,
833968,0.001259,-0.026046,0.053398,-0.001064,-0.001064,-1e-06,0.0,-0.0,-0.0,3.032258,0.327388,0.314013,0.327388,0.340061,,,,,,
833988,0.001262,-0.025924,0.053397,-0.001064,-0.001064,-1e-06,0.0,-0.0,-0.0,3.032258,0.327388,0.318702,0.327388,0.335773,,,,,,
834008,0.00127,-0.025558,0.053519,-0.001037,0.001066,-0.001063,0.0,-0.0,-0.0,3.032258,0.327388,0.323303,0.327388,0.331405,,,,,,
834028,0.001272,-0.025436,0.053641,-0.001037,0.00213,-0.001062,0.0,-0.0,-0.0,3.032258,0.327388,0.32333,0.327388,0.331379,,,,,,
834048,0.001275,-0.025314,0.053641,5.4e-05,0.002131,-0.002126,0.0,-0.0,-0.0,3.032258,0.327388,0.323359,0.327388,0.331351,,,,,,
834068,0.001277,-0.025314,0.053519,2.7e-05,0.001066,-0.001063,0.0,-0.0,-0.0,3.032258,0.327388,0.323274,0.327388,0.331434,,,,,,
834088,0.001277,-0.025314,0.053519,2.7e-05,1e-06,-0.001065,0.0,-0.0,-0.0,3.032258,0.327388,0.31873,0.327388,0.335747,,,,,,
834108,0.001516,-0.025564,0.0534,-0.001064,-0.001064,-2e-06,0.0,-0.0,-0.0,3.032258,0.327388,0.318985,0.327388,0.335508,,,,,,
834128,0.001631,-0.025812,0.053402,-0.001064,-0.002128,-3e-06,0.0,-0.0,-0.0,3.032258,0.327388,0.319003,0.327388,0.335491,,,,,,
834148,0.00175,-0.025937,0.053404,-0.001064,-0.003193,-6e-06,0.0,-0.0,-0.0,3.032258,0.327388,0.323824,0.327388,0.330901,,,,,,
834168,0.001627,-0.025934,0.053524,-0.001064,-0.003193,-5e-06,0.0,-0.0,-0.0,3.032258,0.327388,0.328326,0.327388,0.326446,,,,,,
834188,0.001508,-0.025808,0.053522,0.0,-0.001064,-2e-06,0.0,-0.0,-0.0,3.032258,0.327388,0.328246,0.327388,0.326527,,,,,,
834208,0.001269,-0.025558,0.053641,0.001064,0.0,0.0,0.0,-0.0,-0.0,3.032258,0.327388,0.323578,0.327388,0.331139,,,,,,
834228,0.001394,-0.025439,0.053642,0.001091,1e-06,-0.001065,0.0,-0.0,-0.0,3.032258,0.327388,0.319164,0.327388,0.335342,,,,,,
834248,0.001397,-0.025317,0.053642,0.001091,1e-06,-0.001065,0.0,-0.0,-0.0,3.032258,0.327388,0.319202,0.327388,0.335305,,,,,,
834268,0.001638,-0.025446,0.053645,2.7e-05,2e-06,-0.001065,0.0,-0.0,-0.0,3.032258,0.327388,0.314817,0.327388,0.339336,,,,,,
834288,0.00176,-0.025449,0.053647,-0.001037,2e-06,-0.001065,0.0,-0.0,-0.0,3.032258,0.327388,0.314849,0.327388,0.339307,,,,,,
834308,0.001998,-0.025699,0.05365,-0.002101,2e-06,-0.001065,0.0,-0.0,-0.0,3.032258,0.327388,0.319754,0.327388,0.334788,,,,,,
834328,0.002242,-0.025706,0.053653,-0.002128,-0.001064,-2e-06,0.0,-0.0,-0.0,3.032258,0.327388,0.324683,0.327388,0.330064,,,,,,
834348,0.002364,-0.025709,0.053655,-0.001064,-0.001064,-3e-06,0.0,-0.0,-0.0,3.032258,0.327388,0.329288,0.327388,0.325473,,,,,,
834368,0.002367,-0.025587,0.053655,2.7e-05,3e-06,-0.001065,0.0,-0.0,-0.0,3.032258,0.327388,0.329218,0.327388,0.325544,,,,,,
834388,0.002124,-0.025581,0.05353,2.7e-05,2e-06,-0.001065,0.0,-0.0,-0.0,3.032258,0.327388,0.329042,0.327388,0.325723,,,,,,
834408,0.002002,-0.025577,0.053528,0.001064,0.0,0.0,0.0,-0.0,-0.0,3.032258,0.327388,0.324514,0.327388,0.330229,,,,,,
834428,0.002121,-0.025703,0.05353,0.001064,-0.001064,-2e-06,0.0,-0.0,-0.0,3.032258,0.327388,0.320126,0.327388,0.334438,,,,,,
834448,0.002365,-0.025709,0.053533,0.0,-0.001064,-3e-06,0.0,-0.0,-0.0,3.032258,0.327388,0.320403,0.327388,0.334177,,,,,,
834468,0.002237,-0.02595,0.053532,0.0,-0.002128,-5e-06,0.0,-0.0,-0.0,3.032258,0.327388,0.315821,0.327388,0.338426,,,,,,
834488,0.002481,-0.025956,0.053535,-0.001064,-0.002128,-5e-06,0.0,-0.0,-0.0,3.032258,0.327388,0.316101,0.327388,0.338171,,,,,,
834508,0.002357,-0.025953,0.053655,-0.001037,-0.001062,-0.001067,0.0,-0.0,-0.0,3.032258,0.327388,0.320652,0.327388,0.333942,,,,,,
834528,0.00236,-0.025831,0.053655,-0.001037,3e-06,-0.001065,0.0,-0.0,-0.0,3.032258,0.327388,0.320697,0.327388,0.333899,,,,,,
834548,0.002364,-0.025709,0.053655,-0.001037,0.001067,-0.001062,0.0,-0.0,-0.0,3.032258,0.327388,0.320746,0.327388,0.333852,,,,,,
834568,0.002246,-0.025584,0.053531,-0.001037,0.001067,-0.001062,0.0,-0.0,-0.0,3.032258,0.327388,0.3251,0.327388,0.329655,,,,,,
834588,0.002368,-0.025587,0.053533,-0.001037,0.001067,-0.001062,0.0,-0.0,-0.0,3.032258,0.327388,0.325257,0.327388,0.329501,,,,,,
834608,0.00249,-0.02559,0.053534,-0.001064,0.0,0.0,0.0,-0.0,-0.0,3.032258,0.327388,0.325416,0.327388,0.329345,,,,,,
834628,0.002487,-0.025712,0.053535,0.0,-0.001064,-3e-06,0.0,-0.0,-0.0,3.032258,0.327388,0.325459,0.327388,0.329302,,,,,,
834648,0.002359,-0.025953,0.053533,0.0,-0.002128,-5e-06,0.0,-0.0,-0.0,3.032258,0.327388,0.325386,0.327388,0.329374,,,,,,
834668,0.002237,-0.02595,0.053532,0.0,-0.002128,-5e-06,0.0,-0.0,-0.0,3.032258,0.327388,0.325318,0.327388,0.329441,,,,,,
834688,0.002115,-0.025947,0.05353,0.0,-0.003193,-7e-06,0.0,-0.0,-0.0,3.032258,0.327388,0.320837,0.327388,0.333767,,,,,,
834708,0.002233,-0.026072,0.053532,0.0,-0.002128,-5e-06,0.0,-0.0,-0.0,3.032258,0.327388,0.320992,0.327388,0.33362,,,,,,
834728,0.002235,-0.02595,0.053654,0.0,-0.001064,-2e-06,0.0,-0.0,-0.0,3.032258,0.327388,0.316423,0.327388,0.337877,,,,,,
834748,0.00236,-0.025831,0.053655,-0.001064,0.0,0.0,0.0,-0.0,-0.0,3.032258,0.327388,0.321199,0.327388,0.333422,,,,,,
834768,0.00236,-0.025831,0.053655,-0.001037,0.001067,-0.001062,0.0,-0.0,-0.0,3.032258,0.327388,0.321245,0.327388,0.333379,,,,,,
834788,0.002364,-0.025709,0.053655,-0.002101,0.002131,-0.00106,0.0,-0.0,-0.0,3.032258,0.327388,0.325816,0.327388,0.32895,,,,,,
834808,0.002364,-0.025709,0.053655,-0.001037,0.001067,-0.001062,0.0,-0.0,-0.0,3.032258,0.327388,0.325863,0.327388,0.328904,,,,,,
834828,0.002245,-0.025584,0.053653,2.7e-05,0.001067,-0.001062,0.0,-0.0,-0.0,3.032258,0.327388,0.325798,0.327388,0.328968,,,,,,
834848,0.00237,-0.025465,0.053655,2.7e-05,3e-06,-0.001065,0.0,-0.0,-0.0,3.032258,0.327388,0.325841,0.327388,0.328925,,,,,,
834868,0.00212,-0.025703,0.053652,2.7e-05,-0.002126,-0.001069,0.0,-0.0,-0.0,3.032258,0.327388,0.325653,0.327388,0.329111,,,,,,
834888,0.001994,-0.025821,0.05365,2.8e-05,-0.002126,-0.001069,0.0,-0.0,-0.0,3.032258,0.327388,0.321053,0.327388,0.333561,,,,,,
834908,0.002106,-0.026191,0.053652,0.0,-0.002128,-4e-06,0.0,-0.0,-0.0,3.032258,0.327388,0.321199,0.327388,0.333423,,,,,,
834928,0.002232,-0.026072,0.053654,-0.001092,-0.002131,0.00106,0.0,-0.0,-0.0,3.032258,0.327388,0.321356,0.327388,0.333273,,,,,,
834948,0.001984,-0.026187,0.053651,-0.001092,-0.002131,0.00106,0.0,-0.0,-0.0,3.032258,0.327388,0.321281,0.327388,0.333345,,,,,,
834968,0.001994,-0.025821,0.05365,-0.001064,-0.001064,-2e-06,0.0,-0.0,-0.0,3.032258,0.327388,0.325963,0.327388,0.328805,,,,,,
834988,0.001874,-0.025696,0.053771,2.7e-05,0.001066,-0.001063,0.0,-0.0,-0.0,3.032258,0.327388,0.325777,0.327388,0.328988,,,,,,
835008,0.001881,-0.025452,0.05377,5.4e-05,0.002132,-0.002125,0.0,-0.0,-0.0,3.032258,0.327388,0.3213,0.327388,0.333326,,,,,,
835028,0.001885,-0.02533,0.053648,2.7e-05,0.001066,-0.001063,0.0,-0.0,-0.0,3.032258,0.327388,0.321346,0.327388,0.333283,,,,,,
835048,0.001882,-0.025452,0.053648,-0.001037,2e-06,-0.001065,0.0,-0.0,-0.0,3.032258,0.327388,0.321266,0.327388,0.333359,,,,,,
835068,0.001999,-0.025699,0.053528,-0.001037,-0.001062,-0.001067,0.0,-0.0,-0.0,3.032258,0.327388,0.321414,0.327388,0.333218,,,,,,
835088,0.002235,-0.02595,0.053654,-0.001064,-0.001064,-2e-06,0.0,-0.0,-0.0,3.032258,0.327388,0.321674,0.327388,0.33297,,,,,,
835108,0.002354,-0.026075,0.053655,-0.001064,-0.002128,-5e-06,0.0,-0.0,-0.0,3.032258,0.327388,0.326335,0.327388,0.328437,,,,,,
835128,0.00211,-0.026069,0.053652,-0.001064,-0.003193,-7e-06,0.0,-0.0,-0.0,3.032258,0.327388,0.326264,0.327388,0.328507,,,,,,
835148,0.002113,-0.025947,0.053652,0.0,-0.002128,-4e-06,0.0,-0.0,-0.0,3.032258,0.327388,0.330733,0.327388,0.323996,,,,,,
835168,0.001752,-0.025693,0.053769,0.001064,-0.001064,-2e-06,0.0,-0.0,-0.0,3.032258,0.327388,0.326011,0.327388,0.328758,,,,,,
835188,0.00163,-0.02569,0.053768,0.001064,0.0,0.0,0.0,-0.0,-0.0,3.032258,0.327388,0.325937,0.327388,0.328831,,,,,,
835208,0.001638,-0.025446,0.053645,2.7e-05,2e-06,-0.001065,0.0,-0.0,-0.0,3.032258,0.327388,0.321465,0.327388,0.33317,,,,,,
835228,0.001757,-0.025571,0.053647,2.7e-05,2e-06,-0.001065,0.0,-0.0,-0.0,3.032258,0.327388,0.317011,0.327388,0.337338,,,,,,
835248,0.00212,-0.025703,0.053652,-0.001037,2e-06,-0.001065,0.0,-0.0,-0.0,3.032258,0.327388,0.317276,0.327388,0.337094,,,,,,
835268,0.002116,-0.025825,0.053652,-0.002101,2e-06,-0.001065,0.0,-0.0,-0.0,3.032258,0.327388,0.32191,0.327388,0.332745,,,,,,
835288,0.002238,-0.025828,0.053654,-0.002128,-0.001064,-2e-06,0.0,-0.0,-0.0,3.032258,0.327388,0.326568,0.327388,0.328205,,,,,,
835308,0.00212,-0.025703,0.053652,-0.001064,-0.001064,-2e-06,0.0,-0.0,-0.0,3.032258,0.327388,0.32661,0.327388,0.328164,,,,,,
835328,0.002001,-0.025577,0.05365,2.7e-05,2e-06,-0.001065,0.0,-0.0,-0.0,3.032258,0.327388,0.330848,0.327388,0.323878,,,,,,
835348,0.00175,-0.025815,0.053647,2.7e-05,2e-06,-0.001065,0.0,-0.0,-0.0,3.032258,0.327388,0.330658,0.327388,0.324073,,,,,,
835368,0.001509,-0.025686,0.053644,0.001092,2e-06,-0.001065,0.0,-0.0,-0.0,3.032258,0.327388,0.326043,0.327388,0.328726,,,,,,
835388,0.001747,-0.025937,0.053647,0.001064,-0.001064,-2e-06,0.0,-0.0,-0.0,3.032258,0.327388,0.321787,0.327388,0.332862,,,,,,
835408,0.001869,-0.02594,0.053649,0.0,-0.001064,-2e-06,0.0,-0.0,-0.0,3.032258,0.327388,0.322058,0.327388,0.332604,,,,,,
835428,0.001988,-0.026065,0.053651,0.0,-0.002128,-4e-06,0.0,-0.0,-0.0,3.032258,0.327388,0.322206,0.327388,0.332461,,,,,,
835448,0.002113,-0.025947,0.053652,-0.001064,-0.001064,-2e-06,0.0,-0.0,-0.0,3.032258,0.327388,0.322363,0.327388,0.332311,,,,,,
835468,0.001988,-0.026065,0.053651,-0.001036,2e-06,-0.001065,0.0,-0.0,-0.0,3.032258,0.327388,0.322284,0.327388,0.332386,,,,,,
835488,0.002118,-0.025825,0.05353,-0.001037,2e-06,-0.001065,0.0,-0.0,-0.0,3.032258,0.327388,0.322443,0.327388,0.332234,,,,,,
835508,0.001871,-0.02594,0.053527,-0.001037,0.001066,-0.001063,0.0,-0.0,-0.0,3.032258,0.327388,0.322251,0.327388,0.332418,,,,,,
835528,0.001752,-0.025815,0.053525,-0.001037,0.001066,-0.001063,0.0,-0.0,-0.0,3.032258,0.327388,0.326679,0.327388,0.328095,,,,,,
835548,0.001747,-0.026059,0.053404,2.8e-05,0.001066,-0.001063,0.0,-0.0,-0.0,3.032258,0.327388,0.326592,0.327388,0.328182,,,,,,
835568,0.001747,-0.026059,0.053404,2.8e-05,2e-06,-0.001065,0.0,-0.0,-0.0,3.032258,0.327388,0.326624,0.327388,0.32815,,,,,,
835588,0.001622,-0.026178,0.053402,0.0,-0.001064,-2e-06,0.0,-0.0,-0.0,3.032258,0.327388,0.326542,0.327388,0.328231,,,,,,
835608,0.001748,-0.026059,0.053282,0.0,-0.002128,-4e-06,0.0,-0.0,-0.0,3.032258,0.327388,0.326692,0.327388,0.328082,,,,,,
835628,0.001748,-0.026059,0.053282,0.0,-0.002128,-4e-06,0.0,-0.0,-0.0,3.032258,0.327388,0.32234,0.327388,0.332332,,,,,,
835648,0.00163,-0.025933,0.05328,0.0,-0.002128,-3e-06,0.0,-0.0,-0.0,3.032258,0.327388,0.322263,0.327388,0.332407,,,,,,
835668,0.00163,-0.025933,0.05328,0.0,-0.001064,-2e-06,0.0,-0.0,-0.0,3.032258,0.327388,0.322296,0.327388,0.332375,,,,,,
835688,0.001755,-0.025815,0.053282,-0.001037,2e-06,-0.001065,0.0,-0.0,-0.0,3.032258,0.327388,0.322448,0.327388,0.332229,,,,,,
835708,0.001999,-0.025821,0.053285,-0.001037,0.001066,-0.001062,0.0,-0.0,-0.0,3.032258,0.327388,0.322708,0.327388,0.331979,,,,,,
835728,0.001879,-0.025696,0.053405,-0.002101,0.001066,-0.001063,0.0,-0.0,-0.0,3.032258,0.327388,0.322631,0.327388,0.332053,,,,,,
835748,0.001638,-0.025567,0.053402,-0.002101,0.001066,-0.001063,0.0,-0.0,-0.0,3.032258,0.327388,0.326939,0.327388,0.327836,,,,,,
835768,0.00176,-0.025571,0.053403,-0.001037,2e-06,-0.001065,0.0,-0.0,-0.0,3.032258,0.327388,0.331499,0.327388,0.323207,,,,,,
835788,0.001638,-0.025567,0.053402,2.7e-05,2e-06,-0.001065,0.0,-0.0,-0.0,3.032258,0.327388,0.331306,0.327388,0.323405,,,,,,
835808,0.001635,-0.025689,0.053402,0.001092,-0.001062,-0.001066,0.0,-0.0,-0.0,3.032258,0.327388,0.326916,0.327388,0.32786,,,,,,
835828,0.001387,-0.025805,0.053399,0.001064,-0.002128,-3e-06,0.0,-0.0,-0.0,3.032258,0.327388,0.322217,0.327388,0.332451,,,,,,
835848,0.001381,-0.026049,0.053399,0.0,-0.002128,-3e-06,0.0,-0.0,-0.0,3.032258,0.327388,0.322243,0.327388,0.332426,,,,,,
835868,0.00162,-0.026178,0.053524,-0.001064,-0.002128,-3e-06,0.0,-0.0,-0.0,3.032258,0.327388,0.318032,0.327388,0.336395,,,,,,
835888,0.001627,-0.025934,0.053524,-0.001064,-0.001064,-2e-06,0.0,-0.0,-0.0,3.032258,0.327388,0.318067,0.327388,0.336362,,,,,,
835908,0.001503,-0.02593,0.053644,-0.002101,2e-06,-0.001065,0.0,-0.0,-0.0,3.032258,0.327388,0.322562,0.327388,0.33212,,,,,,
835928,0.001265,-0.02568,0.053641,-0.002101,0.001066,-0.001063,0.0,-0.0,-0.0,3.032258,0.327388,0.326867,0.327388,0.327908,,,,,,
835948,0.001147,-0.025555,0.053639,-0.001037,0.00213,-0.001062,0.0,-0.0,-0.0,3.032258,0.327388,0.326781,0.327388,0.327994,,,,,,
835968,0.001023,-0.025551,0.05376,-0.001037,0.001065,-0.001063,0.0,-0.0,-0.0,3.032258,0.327388,0.326689,0.327388,0.328085,,,,,,
835988,0.000779,-0.025545,0.053757,2.7e-05,1e-06,-0.001065,0.0,-0.0,-0.0,3.032258,0.327388,0.326369,0.327388,0.328403,,,,,,
836008,0.000652,-0.025785,0.053633,2.7e-05,-0.001064,-0.001065,0.0,-0.0,-0.0,3.032258,0.327388,0.326268,0.327388,0.328503,,,,,,
836028,0.000525,-0.025904,0.053754,2.8e-05,-0.002128,-0.001066,0.0,-0.0,-0.0,3.032258,0.327388,0.32153,0.327388,0.333107,,,,,,
836048,0.000522,-0.026026,0.053754,0.0,-0.003193,-2e-06,0.0,-0.0,-0.0,3.032258,0.327388,0.321658,0.327388,0.332985,,,,,,
836068,0.000519,-0.026148,0.053754,-0.001092,-0.003193,0.001063,0.0,-0.0,-0.0,3.032258,0.327388,0.321783,0.327388,0.332866,,,,,,
836088,0.000641,-0.026152,0.053755,-0.001092,-0.002129,0.001063,0.0,-0.0,-0.0,3.032258,0.327388,0.321904,0.327388,0.33275,,,,,,
836108,0.00052,-0.026026,0.053876,-0.001064,-0.001064,-1e-06,0.0,-0.0,-0.0,3.032258,0.327388,0.321799,0.327388,0.33285,,,,,,
836128,0.000405,-0.025779,0.053874,-0.001037,0.001065,-0.001064,0.0,-0.0,-0.0,3.032258,0.327388,0.326213,0.327388,0.328557,,,,,,
836148,3.9e-05,-0.025769,0.053869,-0.001037,0.002128,-0.001064,0.0,-0.0,-0.0,3.032258,0.327388,0.325885,0.327388,0.328882,,,,,,
836168,0.000291,-0.025532,0.05375,-0.001037,0.002129,-0.001064,0.0,-0.0,-0.0,3.032258,0.327388,0.32161,0.327388,0.333031,,,,,,
836188,0.000291,-0.025532,0.05375,-0.001037,0.001065,-0.001064,0.0,-0.0,-0.0,3.032258,0.327388,0.321501,0.327388,0.333135,,,,,,
836208,0.000415,-0.025535,0.05363,-0.001037,0.0,-0.001065,0.0,-0.0,-0.0,3.032258,0.327388,0.321623,0.327388,0.333019,,,,,,
836228,0.00053,-0.025782,0.053632,-0.001064,-0.002128,-1e-06,0.0,-0.0,-0.0,3.032258,0.327388,0.326251,0.327388,0.32852,,,,,,
836248,0.000642,-0.026152,0.053634,-0.001064,-0.003193,-2e-06,0.0,-0.0,-0.0,3.032258,0.327388,0.32636,0.327388,0.328412,,,,,,
836268,0.000641,-0.026152,0.053755,-0.001064,-0.002128,-1e-06,0.0,-0.0,-0.0,3.032258,0.327388,0.326367,0.327388,0.328405,,,,,,
836288,0.000519,-0.026148,0.053754,0.0,-0.002128,-1e-06,0.0,-0.0,-0.0,3.032258,0.327388,0.326377,0.327388,0.328395,,,,,,
836308,3.4e-05,-0.026013,0.053747,0.0,-0.001064,-0.0,0.0,-0.0,-0.0,3.032258,0.327388,0.325939,0.327388,0.328828,,,,,,
836328,3.7e-05,-0.025891,0.053747,0.0,0.0,0.0,0.0,-0.0,-0.0,3.032258,0.327388,0.321431,0.327388,0.333202,,,,,,
836348,0.000162,-0.025772,0.053749,2.7e-05,0.001064,-0.001064,0.0,-0.0,-0.0,3.032258,0.327388,0.316952,0.327388,0.337391,,,,,,
836368,0.000406,-0.025779,0.053752,2.7e-05,0.001065,-0.001064,0.0,-0.0,-0.0,3.032258,0.327388,0.317074,0.327388,0.337279,,,,,,
836388,0.00065,-0.025785,0.053755,-0.001037,1e-06,-0.001065,0.0,-0.0,-0.0,3.032258,0.327388,0.321915,0.327388,0.33274,,,,,,
836408,0.000772,-0.025789,0.053757,-0.002128,-0.001064,-1e-06,0.0,-0.0,-0.0,3.032258,0.327388,0.32216,0.327388,0.332506,,,,,,
836428,0.000895,-0.025792,0.053758,-0.002101,-0.001063,-0.001066,0.0,-0.0,-0.0,3.032258,0.327388,0.326787,0.327388,0.327987,,,,,,
836448,0.000891,-0.025914,0.053758,-0.001037,-0.001063,-0.001066,0.0,-0.0,-0.0,3.032258,0.327388,0.32668,0.327388,0.328094,,,,,,
836468,0.00065,-0.025785,0.053755,-0.001037,-0.001064,-0.001065,0.0,-0.0,-0.0,3.032258,0.327388,0.32647,0.327388,0.328303,,,,,,
836488,0.000403,-0.025901,0.053752,2.8e-05,-0.001064,-0.001065,0.0,-0.0,-0.0,3.032258,0.327388,0.326252,0.327388,0.328519,,,,,,
836508,0.000284,-0.025776,0.05375,0.0,-0.001064,-0.0,0.0,-0.0,-0.0,3.032258,0.327388,0.326152,0.327388,0.328618,,,,,,
836528,0.0004,-0.026023,0.053752,0.001064,-0.001064,-0.0,0.0,-0.0,-0.0,3.032258,0.327388,0.326267,0.327388,0.328504,,,,,,
836548,0.000403,-0.025901,0.053752,0.001064,-0.001064,-0.0,0.0,-0.0,-0.0,3.032258,0.327388,0.321888,0.327388,0.332766,,,,,,
836568,0.000647,-0.025907,0.053755,0.0,-0.001064,-1e-06,0.0,-0.0,-0.0,3.032258,0.327388,0.322127,0.327388,0.332537,,,,,,
836588,0.000774,-0.025667,0.053879,2.7e-05,-0.001063,-0.001065,0.0,-0.0,-0.0,3.032258,0.327388,0.322261,0.327388,0.332409,,,,,,
836608,0.000771,-0.025789,0.053879,-0.001037,1e-06,-0.001065,0.0,-0.0,-0.0,3.032258,0.327388,0.317683,0.327388,0.336718,,,,,,
836628,0.000649,-0.025785,0.053877,-0.001037,1e-06,-0.001065,0.0,-0.0,-0.0,3.032258,0.327388,0.322172,0.327388,0.332494,,,,,,
836648,0.000771,-0.025789,0.053879,-0.001037,1e-06,-0.001065,0.0,-0.0,-0.0,3.032258,0.327388,0.3223,0.327388,0.332371,,,,,,
836668,0.000771,-0.025789,0.053879,-0.001037,1e-06,-0.001065,0.0,-0.0,-0.0,3.032258,0.327388,0.326699,0.327388,0.328075,,,,,,
836688,0.001137,-0.025799,0.053883,-0.001037,1e-06,-0.001065,0.0,-0.0,-0.0,3.032258,0.327388,0.327049,0.327388,0.327726,,,,,,
836708,0.00089,-0.025914,0.05388,-0.001064,-0.001064,-1e-06,0.0,-0.0,-0.0,3.032258,0.327388,0.331258,0.327388,0.323455,,,,,,
836728,0.000768,-0.025911,0.053879,0.0,-0.001064,-1e-06,0.0,-0.0,-0.0,3.032258,0.327388,0.331163,0.327388,0.323553,,,,,,
836748,0.000886,-0.026036,0.05388,0.001064,-0.001064,-1e-06,0.0,-0.0,-0.0,3.032258,0.327388,0.331287,0.327388,0.323425,,,,,,
836768,0.000764,-0.026033,0.053879,0.001064,-0.001064,-1e-06,0.0,-0.0,-0.0,3.032258,0.327388,0.326891,0.327388,0.327884,,,,,,
836788,0.000764,-0.026033,0.053879,0.001064,-0.001064,-1e-06,0.0,-0.0,-0.0,3.032258,0.327388,0.322408,0.327388,0.332267,,,,,,
836808,0.000764,-0.026033,0.053879,2.8e-05,-0.001063,-0.001065,0.0,-0.0,-0.0,3.032258,0.327388,0.31784,0.327388,0.336573,,,,,,
836828,0.000764,-0.026033,0.053879,-0.001037,1e-06,-0.001065,0.0,-0.0,-0.0,3.032258,0.327388,0.317858,0.327388,0.336556,,,,,,
836848,0.001012,-0.025917,0.053882,-0.002101,1e-06,-0.001065,0.0,-0.0,-0.0,3.032258,0.327388,0.31799,0.327388,0.336434,,,,,,
836868,0.001015,-0.025795,0.053882,-0.002101,1e-06,-0.001065,0.0,-0.0,-0.0,3.032258,0.327388,0.322711,0.327388,0.331976,,,,,,
836888,0.000888,-0.025914,0.054002,-0.002128,0.0,0.0,0.0,-0.0,-0.0,3.032258,0.327388,0.327104,0.327388,0.327672,,,,,,
836908,0.001135,-0.025799,0.054005,-0.001037,1e-06,-0.001065,0.0,-0.0,-0.0,3.032258,0.327388,0.331644,0.327388,0.323056,,,,,,
836928,0.001007,-0.026039,0.054004,2.8e-05,1e-06,-0.001065,0.0,-0.0,-0.0,3.032258,0.327388,0.331546,0.327388,0.323157,,,,,,
836948,0.000888,-0.025914,0.054002,0.001092,-0.001063,-0.001066,0.0,-0.0,-0.0,3.032258,0.327388,0.327043,0.327388,0.327733,,,,,,
836968,0.000885,-0.026036,0.054002,0.001064,-0.002128,-2e-06,0.0,-0.0,-0.0,3.032258,0.327388,0.322565,0.327388,0.332117,,,,,,
836988,0.000763,-0.026033,0.054001,0.0,-0.002128,-2e-06,0.0,-0.0,-0.0,3.032258,0.327388,0.322591,0.327388,0.332092,,,,,,
837008,0.001003,-0.026161,0.054004,0.0,-0.002128,-2e-06,0.0,-0.0,-0.0,3.032258,0.327388,0.318255,0.327388,0.336188,,,,,,
837028,0.001126,-0.026165,0.054006,-0.001036,-0.001063,-0.001066,0.0,-0.0,-0.0,3.032258,0.327388,0.318272,0.327388,0.336172,,,,,,
837048,0.001127,-0.026043,0.054127,-0.002101,-0.001063,-0.001066,0.0,-0.0,-0.0,3.032258,0.327388,0.322989,0.327388,0.331709,,,,,,
837068,0.001253,-0.025924,0.054129,-0.002101,1e-06,-0.001065,0.0,-0.0,-0.0,3.032258,0.327388,0.327611,0.327388,0.327165,,,,,,
837088,0.001012,-0.025795,0.054126,-0.002101,0.001065,-0.001064,0.0,-0.0,-0.0,3.032258,0.327388,0.327409,0.327388,0.327368,,,,,,
837108,0.000768,-0.025789,0.054122,-0.001037,0.001065,-0.001064,0.0,-0.0,-0.0,3.032258,0.327388,0.331616,0.327388,0.323085,,,,,,
837128,0.000646,-0.025785,0.054121,2.7e-05,0.001065,-0.001064,0.0,-0.0,-0.0,3.032258,0.327388,0.331408,0.327388,0.3233,,,,,,
837148,0.000642,-0.025907,0.054121,2.8e-05,1e-06,-0.001065,0.0,-0.0,-0.0,3.032258,0.327388,0.327003,0.327388,0.327772,,,,,,
837168,0.000641,-0.02603,0.053999,0.0,-0.001064,-1e-06,0.0,-0.0,-0.0,3.032258,0.327388,0.322398,0.327388,0.332277,,,,,,
837188,0.000763,-0.026033,0.054001,0.0,-0.003193,-2e-06,0.0,-0.0,-0.0,3.032258,0.327388,0.322648,0.327388,0.332037,,,,,,
837208,0.000878,-0.02628,0.054002,-0.001092,-0.003194,0.001062,0.0,-0.0,-0.0,3.032258,0.327388,0.32289,0.327388,0.331804,,,,,,
837228,0.00088,-0.026158,0.054124,-0.001064,-0.002128,-2e-06,0.0,-0.0,-0.0,3.032258,0.327388,0.322905,0.327388,0.33179,,,,,,
837248,0.001005,-0.026039,0.054126,-0.001064,-0.001064,-1e-06,0.0,-0.0,-0.0,3.032258,0.327388,0.323035,0.327388,0.331664,,,,,,
837268,0.000763,-0.025911,0.054244,-0.001037,0.001065,-0.001064,0.0,-0.0,-0.0,3.032258,0.327388,0.327318,0.327388,0.327458,,,,,,
837288,0.000644,-0.025785,0.054243,-0.001037,0.002129,-0.001063,0.0,-0.0,-0.0,3.032258,0.327388,0.327227,0.327388,0.327549,,,,,,
837308,0.000649,-0.025663,0.054121,-0.001037,0.002129,-0.001063,0.0,-0.0,-0.0,3.032258,0.327388,0.322638,0.327388,0.332046,,,,,,
837328,0.000771,-0.025667,0.054122,-0.001037,0.001065,-0.001064,0.0,-0.0,-0.0,3.032258,0.327388,0.322769,0.327388,0.331921,,,,,,
837348,0.000893,-0.02567,0.054124,-0.001064,-0.001064,-1e-06,0.0,-0.0,-0.0,3.032258,0.327388,0.322897,0.327388,0.331797,,,,,,
837368,0.000764,-0.025911,0.054123,-0.001064,-0.003193,-2e-06,0.0,-0.0,-0.0,3.032258,0.327388,0.322792,0.327388,0.331899,,,,,,
837388,0.000764,-0.025911,0.054123,-0.001064,-0.003193,-2e-06,0.0,-0.0,-0.0,3.032258,0.327388,0.327297,0.327388,0.327479,,,,,,
837408,0.000633,-0.026274,0.054121,0.0,-0.002128,-1e-06,0.0,-0.0,-0.0,3.032258,0.327388,0.327188,0.327388,0.327588,,,,,,
837428,0.000636,-0.026152,0.054121,0.0,-0.002128,-1e-06,0.0,-0.0,-0.0,3.032258,0.327388,0.322824,0.327388,0.331868,,,,,,
837448,0.000388,-0.026267,0.054118,0.0,-0.001064,-0.0,0.0,-0.0,-0.0,3.032258,0.327388,0.322605,0.327388,0.332078,,,,,,
837468,0.000397,-0.025901,0.05424,2.8e-05,0.0,-0.001065,0.0,-0.0,-0.0,3.032258,0.327388,0.322623,0.327388,0.332061,,,,,,
837488,0.0004,-0.025779,0.05424,2.7e-05,0.001065,-0.001064,0.0,-0.0,-0.0,3.032258,0.327388,0.322637,0.327388,0.332047,,,,,,
837508,0.000285,-0.025531,0.054238,-0.001037,0.002129,-0.001064,0.0,-0.0,-0.0,3.032258,0.327388,0.322422,0.327388,0.332254,,,,,,
837528,0.00053,-0.025538,0.054119,-0.001037,0.001065,-0.001064,0.0,-0.0,-0.0,3.032258,0.327388,0.322776,0.327388,0.331913,,,,,,
837548,0.000285,-0.025531,0.054238,-0.001037,0.0,-0.001065,0.0,-0.0,-0.0,3.032258,0.327388,0.322555,0.327388,0.332127,,,,,,
837568,0.0004,-0.025779,0.05424,-0.001037,-0.001064,-0.001065,0.0,-0.0,-0.0,3.032258,0.327388,0.322549,0.327388,0.332132,,,,,,
837588,0.000271,-0.02602,0.054238,-0.001037,-0.002128,-0.001065,0.0,-0.0,-0.0,3.032258,0.327388,0.322434,0.327388,0.332243,,,,,,
837608,0.000146,-0.026138,0.054237,-0.001064,-0.002128,-0.0,0.0,-0.0,-0.0,3.032258,0.327388,0.326821,0.327388,0.327954,,,,,,
837628,0.000151,-0.026016,0.054115,0.0,-0.002128,-0.0,0.0,-0.0,-0.0,3.032258,0.327388,0.326828,0.327388,0.327947,,,,,,
837648,0.000151,-0.026016,0.054115,0.0,-0.002128,-0.0,0.0,-0.0,-0.0,3.032258,0.327388,0.326831,0.327388,0.327944,,,,,,
837668,0.000156,-0.025772,0.054237,0.0,-0.001064,-0.0,0.0,-0.0,-0.0,3.032258,0.327388,0.326953,0.327388,0.327822,,,,,,
837688,3.7e-05,-0.025647,0.054235,0.0,0.0,0.0,0.0,-0.0,-0.0,3.032258,0.327388,0.326849,0.327388,0.327926,,,,,,
837708,3.9e-05,-0.025525,0.054357,2.7e-05,0.001064,-0.001065,0.0,-0.0,-0.0,3.032258,0.327388,0.322353,0.327388,0.33232,,,,,,
837728,4.2e-05,-0.025403,0.054357,2.7e-05,0.001064,-0.001065,0.0,-0.0,-0.0,3.032258,0.327388,0.32236,0.327388,0.332314,,,,,,
837748,-8.1e-05,-0.025522,0.054233,-0.001037,0.001064,-0.001065,0.0,-0.0,-0.0,3.032258,0.327388,0.322247,0.327388,0.332422,,,,,,
837768,-8.1e-05,-0.025522,0.054233,-0.001037,-0.0,-0.001065,0.0,-0.0,-0.0,3.032258,0.327388,0.32213,0.327388,0.332534,,,,,,
837788,3.4e-05,-0.025769,0.054235,-0.001037,-0.001064,-0.001065,0.0,-0.0,-0.0,3.032258,0.327388,0.322237,0.327388,0.332431,,,,,,
837808,0.0004,-0.025779,0.05424,-0.001064,-0.001064,-0.0,0.0,-0.0,-0.0,3.032258,0.327388,0.322579,0.327388,0.332103,,,,,,
837828,0.000275,-0.025898,0.054238,-0.001064,-0.002128,-1e-06,0.0,-0.0,-0.0,3.032258,0.327388,0.326962,0.327388,0.327814,,,,,,
837848,0.000153,-0.025894,0.054237,-0.001064,-0.002128,-0.0,0.0,-0.0,-0.0,3.032258,0.327388,0.331269,0.327388,0.323444,,,,,,
837868,-9.1e-05,-0.025888,0.054233,-0.0,-0.001064,0.0,0.0,-0.0,-0.0,3.032258,0.327388,0.331163,0.327388,0.323554,,,,,,
837888,-0.000339,-0.026003,0.05423,0.0,0.0,0.0,0.0,-0.0,-0.0,3.032258,0.327388,0.326514,0.327388,0.328259,,,,,,
837908,-0.000452,-0.025634,0.054351,0.001064,0.0,0.0,0.0,-0.0,-0.0,3.032258,0.327388,0.321897,0.327388,0.332758,,,,,,
837928,-0.000574,-0.02563,0.054349,2.7e-05,-1e-06,-0.001065,0.0,-0.0,-0.0,3.032258,0.327388,0.317177,0.327388,0.337185,,,,,,
837948,-0.000452,-0.025634,0.054351,2.7e-05,-0.0,-0.001065,0.0,-0.0,-0.0,3.032258,0.327388,0.317286,0.327388,0.337084,,,,,,
837968,-0.000456,-0.025756,0.054351,-0.001037,-0.0,-0.001065,0.0,-0.0,-0.0,3.032258,0.327388,0.317155,0.327388,0.337205,,,,,,
837988,-0.000207,-0.02564,0.054232,-0.002101,-0.0,-0.001065,0.0,-0.0,-0.0,3.032258,0.327388,0.32198,0.327388,0.332678,,,,,,
838008,-0.00021,-0.025762,0.054232,-0.002128,-0.001064,0.0,0.0,-0.0,-0.0,3.032258,0.327388,0.326593,0.327388,0.328181,,,,,,
838028,-8.5e-05,-0.025644,0.054233,-0.001064,-0.001064,0.0,0.0,-0.0,-0.0,3.032258,0.327388,0.331118,0.327388,0.323599,,,,,,
838048,-0.000329,-0.025637,0.05423,2.7e-05,-0.0,-0.001065,0.0,-0.0,-0.0,3.032258,0.327388,0.330778,0.327388,0.32395,,,,,,
838068,-0.001061,-0.025617,0.054221,2.7e-05,-1e-06,-0.001065,0.0,-0.0,-0.0,3.032258,0.327388,0.325666,0.327388,0.329098,,,,,,
838088,-0.001305,-0.02561,0.054218,0.0,0.0,0.0,0.0,-0.0,-0.0,3.032258,0.327388,0.325426,0.327388,0.329335,,,,,,
838108,-0.001427,-0.025607,0.054216,-0.0,-0.001064,2e-06,0.0,-0.0,-0.0,3.032258,0.327388,0.316263,0.327388,0.338023,,,,,,
838128,-0.001308,-0.025733,0.054218,-0.0,-0.001064,1e-06,0.0,-0.0,-0.0,3.032258,0.327388,0.311642,0.327388,0.342169,,,,,,
838148,-0.00143,-0.025729,0.054216,-0.001064,-0.002128,3e-06,0.0,-0.0,-0.0,3.032258,0.327388,0.311494,0.327388,0.342299,,,,,,
838168,-0.001432,-0.025729,0.054338,-0.002128,-0.001064,2e-06,0.0,-0.0,-0.0,3.032258,0.327388,0.316174,0.327388,0.338104,,,,,,
838188,-0.001432,-0.025729,0.054338,-0.002101,-2e-06,-0.001065,0.0,-0.0,-0.0,3.032258,0.327388,0.320762,0.327388,0.333837,,,,,,
838208,-0.001303,-0.025488,0.05434,-0.001037,-1e-06,-0.001065,0.0,-0.0,-0.0,3.032258,0.327388,0.325379,0.327388,0.32938,,,,,,
838228,-0.001422,-0.025363,0.054338,-0.001037,0.001063,-0.001066,0.0,-0.0,-0.0,3.032258,0.327388,0.325241,0.327388,0.329517,,,,,,
838248,-0.001659,-0.025112,0.054335,-0.001037,0.001062,-0.001066,0.0,-0.0,-0.0,3.032258,0.327388,0.324879,0.327388,0.329871,,,,,,
838268,-0.001541,-0.025238,0.054337,-0.001037,0.001063,-0.001066,0.0,-0.0,-0.0,3.032258,0.327388,0.324961,0.327388,0.329792,,,,,,
838288,-0.001661,-0.025235,0.054213,0.0,0.0,0.0,0.0,-0.0,-0.0,3.032258,0.327388,0.324819,0.327388,0.32993,,,,,,
838308,-0.001672,-0.0256,0.054335,-0.0,-0.001064,2e-06,0.0,-0.0,-0.0,3.032258,0.327388,0.324775,0.327388,0.329973,,,,,,
838328,-0.001798,-0.025719,0.054333,-0.001064,-0.003193,6e-06,0.0,-0.0,-0.0,3.032258,0.327388,0.324624,0.327388,0.330121,,,,,,
838348,-0.001926,-0.02596,0.054332,-0.0,-0.003193,6e-06,0.0,-0.0,-0.0,3.032258,0.327388,0.324584,0.327388,0.33016,,,,,,
838368,-0.001925,-0.025838,0.054453,-0.0,-0.002128,4e-06,0.0,-0.0,-0.0,3.032258,0.327388,0.324549,0.327388,0.330194,,,,,,
838388,-0.00204,-0.02559,0.054452,-0.0,-0.001064,2e-06,0.0,-0.0,-0.0,3.032258,0.327388,0.319855,0.327388,0.334694,,,,,,
838408,-0.002279,-0.025339,0.054571,2.7e-05,-2e-06,-0.001065,0.0,-0.0,-0.0,3.032258,0.327388,0.319587,0.327388,0.334945,,,,,,
838428,-0.002276,-0.025217,0.054571,-0.001037,0.002126,-0.001069,0.0,-0.0,-0.0,3.032258,0.327388,0.319547,0.327388,0.334982,,,,,,
838448,-0.002518,-0.025211,0.054446,-0.001037,0.002126,-0.00107,0.0,-0.0,-0.0,3.032258,0.327388,0.319157,0.327388,0.335347,,,,,,
838468,-0.002518,-0.025211,0.054446,-0.002102,0.001062,-0.001067,0.0,-0.0,-0.0,3.032258,0.327388,0.319108,0.327388,0.335393,,,,,,
838488,-0.002396,-0.025214,0.054448,-0.001037,-3e-06,-0.001065,0.0,-0.0,-0.0,3.032258,0.327388,0.319293,0.327388,0.335221,,,,,,
838508,-0.002525,-0.025455,0.054446,-0.001037,-3e-06,-0.001065,0.0,-0.0,-0.0,3.032258,0.327388,0.319121,0.327388,0.335382,,,,,,
838528,-0.002525,-0.025455,0.054446,-0.001037,-0.001067,-0.001062,0.0,-0.0,-0.0,3.032258,0.327388,0.323513,0.327388,0.331202,,,,,,
838548,-0.002772,-0.02557,0.054443,-0.001037,-0.002131,-0.001059,0.0,-0.0,-0.0,3.032258,0.327388,0.323229,0.327388,0.331477,,,,,,
838568,-0.002776,-0.025692,0.054442,-0.001064,-0.002128,6e-06,0.0,-0.0,-0.0,3.032258,0.327388,0.323172,0.327388,0.331532,,,,,,
838588,-0.002902,-0.025811,0.054563,-0.0,-0.002128,6e-06,0.0,-0.0,-0.0,3.032258,0.327388,0.322997,0.327388,0.331701,,,,,,
838608,-0.002899,-0.025689,0.054563,-0.0,-0.001064,3e-06,0.0,-0.0,-0.0,3.032258,0.327388,0.322943,0.327388,0.331753,,,,,,
838628,-0.003021,-0.025685,0.054561,-2.7e-05,-0.001061,0.001068,0.0,-0.0,-0.0,3.032258,0.327388,0.322888,0.327388,0.331806,,,,,,
838648,-0.003021,-0.025685,0.054561,-0.0,-0.001064,3e-06,0.0,-0.0,-0.0,3.032258,0.327388,0.322949,0.327388,0.331747,,,,,,
838668,-0.002897,-0.025567,0.054685,0.0,0.0,0.0,0.0,-0.0,-0.0,3.032258,0.327388,0.318433,0.327388,0.336023,,,,,,
838688,-0.003013,-0.025319,0.054684,2.7e-05,-3e-06,-0.001065,0.0,-0.0,-0.0,3.032258,0.327388,0.318148,0.327388,0.336287,,,,,,
838708,-0.003133,-0.025316,0.05456,2.7e-05,-3e-06,-0.001065,0.0,-0.0,-0.0,3.032258,0.327388,0.3133,0.327388,0.340699,,,,,,
838728,-0.003011,-0.025319,0.054562,-0.001037,0.001061,-0.001068,0.0,-0.0,-0.0,3.032258,0.327388,0.313238,0.327388,0.340753,,,,,,
838748,-0.002896,-0.025567,0.054563,-0.002101,-3e-06,-0.001065,0.0,-0.0,-0.0,3.032258,0.327388,0.317967,0.327388,0.336455,,,,,,
838768,-0.00253,-0.025577,0.054568,-0.002128,0.0,0.0,0.0,-0.0,-0.0,3.032258,0.327388,0.318258,0.327388,0.336186,,,,,,
838788,-0.002655,-0.025695,0.054566,-0.002129,-0.001064,3e-06,0.0,-0.0,-0.0,3.032258,0.327388,0.32278,0.327388,0.331909,,,,,,
838808,-0.002533,-0.025699,0.054568,-0.001064,-0.001064,3e-06,0.087266,-0.0,-0.0,3.032258,0.327388,0.224044,0.327388,0.398228,,,,,,
838828,-0.002658,-0.025817,0.054566,2.7e-05,-3e-06,-0.001065,0.087266,-0.0,-0.0,3.032258,0.327388,0.228346,0.327388,0.39629,,,,,,
838848,-0.001924,-0.025593,0.054941,0.005376,-4e-06,-0.002129,0.087266,-0.0,-0.0,3.032258,0.327388,0.24127,0.327388,0.390026,,,,,,
838868,0.000393,-0.025535,0.055336,0.010697,1e-06,-0.002129,0.087266,-0.0,-0.0,3.032258,0.327388,0.261391,0.327388,0.378877,,,,,,
838888,0.00528,-0.025425,0.055397,0.015964,-0.001064,-6e-06,0.087266,-0.0,-0.0,3.032258,0.327388,0.28782,0.327388,0.36133,,,,,,
838908,0.012977,-0.025392,0.055244,0.019129,-0.001078,0.001051,0.087266,-0.0,-0.0,3.032258,0.327388,0.318571,0.327388,0.335895,,,,,,
838928,0.022758,-0.025286,0.054631,0.022296,-0.002176,0.00208,0.087266,-0.0,-0.0,3.032258,0.327388,0.34338,0.327388,0.310259,,,,,,
838948,0.034621,-0.0251,0.053784,0.024398,-0.001174,0.003155,0.087266,-0.0,-0.0,3.032258,0.327388,0.368004,0.327388,0.278385,,,,,,
838968,0.04722,-0.024916,0.052698,0.025488,-0.0001,0.002127,0.087266,-0.0,-0.0,3.032258,0.327388,0.38424,0.327388,0.25211,,,,,,
838988,0.059815,-0.02484,0.051722,0.026551,0.000935,0.002189,0.087266,-0.0,-0.0,3.032258,0.327388,0.392896,0.327388,0.235519,,,,,,
839008,0.071557,-0.024734,0.05086,0.024447,0.002047,0.001214,0.087266,-0.0,-0.0,3.032258,0.327388,0.394014,0.327388,0.233204,,,,,,
839028,0.082198,-0.024839,0.050119,0.021254,0.002034,0.001236,0.087266,-0.0,-0.0,3.032258,0.327388,0.387469,0.327388,0.246178,,,,,,
839048,0.090869,-0.025386,0.049616,0.015936,-9.7e-05,0.00106,0.087266,-0.0,-0.0,3.032258,0.327388,0.372136,0.327388,0.272184,,,,,,
839068,0.097211,-0.026006,0.049336,0.008514,0.0,0.0,0.087266,-0.0,-0.0,3.032258,0.327388,0.354033,0.327388,0.297413,,,,,,
839088,0.101,-0.026321,0.049028,0.003196,-0.001059,-0.000107,0.087266,-0.0,-0.0,3.032258,0.327388,0.341121,0.327388,0.312825,,,,,,
839108,0.102332,-0.026717,0.049056,-0.001058,-0.002117,-0.000218,0.087266,-0.0,-0.0,3.032258,0.327388,0.325184,0.327388,0.329573,,,,,,
839128,0.102087,-0.026827,0.048938,-0.004254,-0.001059,-0.000108,0.087266,-0.0,-0.0,3.032258,0.327388,0.316215,0.327388,0.338067,,,,,,
839148,0.100374,-0.026787,0.048917,-0.00529,-0.000952,-0.001166,0.087266,-0.0,-0.0,3.032258,0.327388,0.310105,0.327388,0.343514,,,,,,
839168,0.097941,-0.026249,0.048988,-0.004229,0.000104,-0.001059,0.087266,-0.0,-0.0,3.032258,0.327388,0.303049,0.327388,0.349489,,,,,,
839188,0.095746,-0.025959,0.049073,-0.002101,0.000102,-0.00106,0.087266,-0.0,-0.0,3.032258,0.327388,0.305965,0.327388,0.347059,,,,,,
839208,0.094285,-0.02581,0.049179,-0.001037,0.0001,-0.00106,0.087266,-0.0,-0.0,3.032258,0.327388,0.309398,0.327388,0.344128,,,,,,
839228,0.093916,-0.025813,0.04942,0.001094,-0.00096,-0.00116,0.087266,-0.0,-0.0,3.032258,0.327388,0.31394,0.327388,0.340125,,,,,,
839248,0.094523,-0.025722,0.049784,0.003195,-0.001059,-0.0001,0.087266,-0.0,-0.0,3.032258,0.327388,0.323995,0.327388,0.330734,,,,,,
839268,0.096102,-0.026022,0.050181,0.004262,-0.002119,-0.000204,0.087266,-0.0,-0.0,3.032258,0.327388,0.330155,0.327388,0.324589,,,,,,
839288,0.098656,-0.026345,0.050585,0.004288,-0.000954,-0.001164,0.087266,-0.0,-0.0,3.032258,0.327388,0.336944,0.327388,0.317438,,,,,,
839308,0.101338,-0.026428,0.050978,0.005377,0.000215,-0.002118,0.087266,-0.0,-0.0,3.032258,0.327388,0.343612,0.327388,0.309993,,,,,,
839328,0.104383,-0.026527,0.051495,0.005374,0.00128,-0.002007,0.087266,-0.0,-0.0,3.032258,0.327388,0.3546,0.327388,0.296692,,,,,,
839348,0.10744,-0.0265,0.051892,0.00431,0.001286,-0.002003,0.087266,-0.0,-0.0,3.032258,0.327388,0.357517,0.327388,0.29292,,,,,,
839368,0.110002,-0.026577,0.052161,0.004282,0.001175,-0.000941,0.087266,-0.0,-0.0,3.032258,0.327388,0.359859,0.327388,0.289811,,,,,,
839388,0.112441,-0.026651,0.052429,0.004285,0.000119,-0.001058,0.087266,-0.0,-0.0,3.032258,0.327388,0.358219,0.327388,0.291995,,,,,,
839408,0.113913,-0.026566,0.05244,0.002132,-0.001057,-0.000121,0.087266,-0.0,-0.0,3.032258,0.327388,0.351888,0.327388,0.300104,,,,,,
839428,0.114888,-0.026697,0.05221,0.001043,-0.002236,0.000814,0.087266,-0.0,-0.0,3.032258,0.327388,0.34499,0.327388,0.308398,,,,,,
839448,0.115264,-0.026448,0.051954,-0.001061,-0.001057,-0.000122,0.087266,-0.0,-0.0,3.032258,0.327388,0.337403,0.327388,0.31694,,,,,,
839468,0.114904,-0.026419,0.051587,-0.002125,-0.001057,-0.000122,0.087266,-0.0,-0.0,3.032258,0.327388,0.333291,0.327388,0.321337,,,,,,
839488,0.114183,-0.026144,0.051325,-0.002125,-0.001057,-0.000121,0.087266,-0.0,-0.0,3.032258,0.327388,0.328773,0.327388,0.325995,,,,,,
839508,0.113199,-0.026349,0.051081,-0.002125,-0.001057,-0.00012,0.087266,-0.0,-0.0,3.032258,0.327388,0.328382,0.327388,0.32639,,,,,,
839528,0.112712,-0.026446,0.050841,-0.002125,-0.001057,-0.00012,0.087266,-0.0,-0.0,3.032258,0.327388,0.332807,0.327388,0.321845,,,,,,
839548,0.112343,-0.026559,0.050846,-0.002125,-0.001058,-0.000119,0.087266,-0.0,-0.0,3.032258,0.327388,0.332933,0.327388,0.321713,,,,,,
839568,0.112103,-0.026432,0.050838,-0.001064,0.0,0.0,0.087266,-0.0,-0.0,3.032258,0.327388,0.341833,0.327388,0.312023,,,,,,
839588,0.111979,-0.026436,0.050959,-0.001039,0.001176,-0.000939,0.087266,-0.0,-0.0,3.032258,0.327388,0.346331,0.327388,0.306827,,,,,,
839608,0.112227,-0.026204,0.051068,2.5e-05,0.001177,-0.000939,0.087266,-0.0,-0.0,3.032258,0.327388,0.347006,0.327388,0.306029,,,,,,
839628,0.112714,-0.026108,0.051307,0.001116,0.001297,-0.001996,0.087266,-0.0,-0.0,3.032258,0.327388,0.347875,0.327388,0.304994,,,,,,
839648,0.112832,-0.026124,0.051551,0.001095,-0.000938,-0.001178,0.087266,-0.0,-0.0,3.032258,0.327388,0.344301,0.327388,0.309198,,,,,,
839668,0.113069,-0.026266,0.051803,3.4e-05,-0.001995,-0.001298,0.087266,-0.0,-0.0,3.032258,0.327388,0.340773,0.327388,0.313216,,,,,,
839688,0.113193,-0.026153,0.051919,-0.001033,-0.000937,-0.001178,0.087266,-0.0,-0.0,3.032258,0.327388,0.337108,0.327388,0.317261,,,,,,
839708,0.113062,-0.026401,0.052054,-0.002125,-0.001057,-0.00012,0.087266,-0.0,-0.0,3.032258,0.327388,0.337355,0.327388,0.316992,,,,,,
839728,0.112822,-0.026273,0.052045,-0.00319,-0.001057,-0.00012,0.087266,-0.0,-0.0,3.032258,0.327388,0.3376,0.327388,0.316725,,,,,,
839748,0.11209,-0.026371,0.051926,-0.00319,-0.001058,-0.000119,0.087266,-0.0,-0.0,3.032258,0.327388,0.341761,0.327388,0.312104,,,,,,
839768,0.11124,-0.026337,0.051678,-0.002125,-0.001058,-0.000118,0.087266,-0.0,-0.0,3.032258,0.327388,0.341356,0.327388,0.312561,,,,,,
839788,0.110132,-0.026546,0.051553,-0.001064,0.0,0.0,0.087266,-0.0,-0.0,3.032258,0.327388,0.340933,0.327388,0.313037,,,,,,
839808,0.10916,-0.026516,0.051425,-0.001039,0.001174,-0.000942,0.087266,-0.0,-0.0,3.032258,0.327388,0.336245,0.327388,0.318194,,,,,,
839828,0.1083,-0.026494,0.051411,-0.001039,0.001173,-0.000943,0.087266,-0.0,-0.0,3.032258,0.327388,0.331566,0.327388,0.323136,,,,,,
839848,0.107693,-0.026473,0.051285,-0.0021,0.000114,-0.001058,0.087266,-0.0,-0.0,3.032258,0.327388,0.331426,0.327388,0.323282,,,,,,
839868,0.107325,-0.026471,0.051404,-0.002097,-0.000944,-0.001173,0.087266,-0.0,-0.0,3.032258,0.327388,0.331359,0.327388,0.323351,,,,,,
839888,0.107077,-0.026594,0.051531,-0.002094,-0.002003,-0.001286,0.087266,-0.0,-0.0,3.032258,0.327388,0.340106,0.327388,0.313962,,,,,,
839908,0.106828,-0.026716,0.051658,-0.002119,-0.003174,-0.000341,0.087266,-0.0,-0.0,3.032258,0.327388,0.344531,0.327388,0.308932,,,,,,
839928,0.106577,-0.0266,0.051884,-0.001058,-0.002116,-0.000226,0.087266,-0.0,-0.0,3.032258,0.327388,0.344634,0.327388,0.308812,,,,,,
839948,0.10609,-0.026479,0.052118,-0.001036,0.000113,-0.001059,0.087266,-0.0,-0.0,3.032258,0.327388,0.344544,0.327388,0.308917,,,,,,
839968,0.105604,-0.026352,0.05223,-0.001039,0.00117,-0.000946,0.087266,-0.0,-0.0,3.032258,0.327388,0.344474,0.327388,0.308998,,,,,,
839988,0.105116,-0.02634,0.052227,2.5e-05,0.00117,-0.000947,0.087266,-0.0,-0.0,3.032258,0.327388,0.340208,0.327388,0.313848,,,,,,
840008,0.104748,-0.026453,0.052231,-0.001039,0.00117,-0.000947,0.087266,-0.0,-0.0,3.032258,0.327388,0.335864,0.327388,0.318604,,,,,,
840028,0.104377,-0.026682,0.052119,-0.001061,-0.001058,-0.000111,0.087266,-0.0,-0.0,3.032258,0.327388,0.331417,0.327388,0.323291,,,,,,
840048,0.103879,-0.026906,0.051998,-0.002123,-0.002117,-0.000221,0.087266,-0.0,-0.0,3.032258,0.327388,0.335729,0.327388,0.318748,,,,,,
840068,0.103269,-0.026891,0.051994,-0.003187,-0.002117,-0.000219,0.087266,-0.0,-0.0,3.032258,0.327388,0.335465,0.327388,0.319031,,,,,,
840088,0.102782,-0.026879,0.05199,-0.002126,-0.001059,-0.000109,0.087266,-0.0,-0.0,3.032258,0.327388,0.339595,0.327388,0.314531,,,,,,
840108,0.102423,-0.026627,0.051975,-0.0021,0.000109,-0.001059,0.087266,-0.0,-0.0,3.032258,0.327388,0.339658,0.327388,0.31446,,,,,,
840128,0.101814,-0.026367,0.051949,-0.001036,0.000108,-0.001059,0.087266,-0.0,-0.0,3.032258,0.327388,0.33941,0.327388,0.314736,,,,,,
840148,0.10145,-0.026242,0.052062,2.8e-05,0.000108,-0.001059,0.087266,-0.0,-0.0,3.032258,0.327388,0.343573,0.327388,0.310038,,,,,,
840168,0.101209,-0.026114,0.052054,2.8e-05,0.000108,-0.001059,0.087266,-0.0,-0.0,3.032258,0.327388,0.339309,0.327388,0.314848,,,,,,
840188,0.101201,-0.026364,0.052189,0.0,0.0,0.0,0.087266,-0.0,-0.0,3.032258,0.327388,0.339558,0.327388,0.314572,,,,,,
840208,0.101201,-0.026364,0.052189,-0.001064,0.0,0.0,0.087266,-0.0,-0.0,3.032258,0.327388,0.339924,0.327388,0.314164,,,,,,
840228,0.101198,-0.026486,0.052195,-0.001061,-0.001059,-0.000108,0.087266,-0.0,-0.0,3.032258,0.327388,0.340175,0.327388,0.313886,,,,,,
840248,0.101073,-0.026605,0.0522,-0.001061,-0.001059,-0.000107,0.087266,-0.0,-0.0,3.032258,0.327388,0.340317,0.327388,0.313727,,,,,,
840268,0.100951,-0.026602,0.052199,-0.001033,-0.000952,-0.001166,0.087266,-0.0,-0.0,3.032258,0.327388,0.340347,0.327388,0.313693,,,,,,
840288,0.100587,-0.026587,0.052075,-0.00103,-0.002011,-0.001273,0.087266,-0.0,-0.0,3.032258,0.327388,0.340276,0.327388,0.313773,,,,,,
840308,0.100343,-0.026581,0.052073,-0.002123,-0.002118,-0.000213,0.087266,-0.0,-0.0,3.032258,0.327388,0.340291,0.327388,0.313755,,,,,,
840328,0.099978,-0.026572,0.052071,-0.002126,-0.001059,-0.000106,0.087266,-0.0,-0.0,3.032258,0.327388,0.340196,0.327388,0.313862,,,,,,
840348,0.099615,-0.026442,0.052062,-0.0021,0.000106,-0.001059,0.087266,-0.0,-0.0,3.032258,0.327388,0.34023,0.327388,0.313824,,,,,,
840368,0.099123,-0.026312,0.052165,-0.002128,0.0,0.0,0.087266,-0.0,-0.0,3.032258,0.327388,0.344216,0.327388,0.309296,,,,,,
840388,0.098758,-0.026303,0.052163,-0.001036,0.000105,-0.001059,0.087266,-0.0,-0.0,3.032258,0.327388,0.344125,0.327388,0.309401,,,,,,
840408,0.098265,-0.026419,0.052287,2.8e-05,0.000104,-0.001059,0.087266,-0.0,-0.0,3.032258,0.327388,0.33972,0.327388,0.314392,,,,,,
840428,0.098018,-0.026535,0.052292,3.1e-05,-0.000955,-0.001164,0.087266,-0.0,-0.0,3.032258,0.327388,0.339694,0.327388,0.31442,,,,,,
840448,0.097649,-0.026648,0.052295,-0.00103,-0.002015,-0.001267,0.087266,-0.0,-0.0,3.032258,0.327388,0.335285,0.327388,0.319225,,,,,,
840468,0.097646,-0.02677,0.052301,-0.001033,-0.000955,-0.001163,0.087266,-0.0,-0.0,3.032258,0.327388,0.335362,0.327388,0.319142,,,,,,
840488,0.097768,-0.026773,0.052302,-0.002126,-0.001059,-0.000104,0.087266,-0.0,-0.0,3.032258,0.327388,0.335661,0.327388,0.318822,,,,,,
840508,0.097406,-0.026642,0.052293,-0.002126,-0.001059,-0.000104,0.087266,-0.0,-0.0,3.032258,0.327388,0.339795,0.327388,0.314308,,,,,,
840528,0.097037,-0.026755,0.052297,-0.002126,-0.001059,-0.000103,0.087266,-0.0,-0.0,3.032258,0.327388,0.343853,0.327388,0.309716,,,,,,
840548,0.096547,-0.02662,0.052278,-0.001061,-0.001059,-0.000103,0.087266,-0.0,-0.0,3.032258,0.327388,0.343603,0.327388,0.310003,,,,,,
840568,0.096059,-0.026608,0.052274,0.0,0.0,0.0,0.087266,-0.0,-0.0,3.032258,0.327388,0.339252,0.327388,0.314911,,,,,,
840588,0.095581,-0.026231,0.052253,2.5e-05,0.001161,-0.000958,0.087266,-0.0,-0.0,3.032258,0.327388,0.338994,0.327388,0.315195,,,,,,
840608,0.095094,-0.026219,0.05225,2.5e-05,0.00116,-0.000959,0.087266,-0.0,-0.0,3.032258,0.327388,0.334445,0.327388,0.320119,,,,,,
840628,0.094728,-0.02621,0.052247,-0.001036,0.000101,-0.00106,0.087266,-0.0,-0.0,3.032258,0.327388,0.334267,0.327388,0.320307,,,,,,
840648,0.094479,-0.026331,0.052373,-0.001034,-0.000959,-0.00116,0.087266,-0.0,-0.0,3.032258,0.327388,0.334081,0.327388,0.320504,,,,,,
840668,0.094354,-0.02645,0.052378,-0.002123,-0.002119,-0.000201,0.087266,-0.0,-0.0,3.032258,0.327388,0.334102,0.327388,0.320482,,,,,,
840688,0.094234,-0.026331,0.052493,-0.002121,-0.003179,-0.000301,0.087266,-0.0,-0.0,3.032258,0.327388,0.338514,0.327388,0.315724,,,,,,
840708,0.094106,-0.026326,0.052483,-0.001059,-0.002119,-0.0002,0.087266,-0.0,-0.0,3.032258,0.327388,0.338502,0.327388,0.315738,,,,,,
840728,0.093864,-0.026204,0.052597,-0.001036,0.0001,-0.00106,0.087266,-0.0,-0.0,3.032258,0.327388,0.342629,0.327388,0.311118,,,,,,
840748,0.093508,-0.02583,0.052577,-0.001039,0.001159,-0.000961,0.087266,-0.0,-0.0,3.032258,0.327388,0.342438,0.327388,0.311336,,,,,,
840768,0.093265,-0.025824,0.052576,2.5e-05,0.001159,-0.000961,0.087266,-0.0,-0.0,3.032258,0.327388,0.342362,0.327388,0.311422,,,,,,
840788,0.09327,-0.025696,0.052448,2.7e-05,9.9e-05,-0.00106,0.087266,-0.0,-0.0,3.032258,0.327388,0.338157,0.327388,0.316116,,,,,,
840808,0.093385,-0.025943,0.052461,3e-05,-0.00096,-0.001159,0.087266,-0.0,-0.0,3.032258,0.327388,0.338371,0.327388,0.315882,,,,,,
840828,0.093383,-0.026059,0.052345,-0.001059,-0.002119,-0.000199,0.087266,-0.0,-0.0,3.032258,0.327388,0.334179,0.327388,0.320401,,,,,,
840848,0.093256,-0.026184,0.052471,-0.002123,-0.002119,-0.000198,0.087266,-0.0,-0.0,3.032258,0.327388,0.338457,0.327388,0.315787,,,,,,
840868,0.093253,-0.026306,0.052477,-0.002126,-0.00106,-9.9e-05,0.087266,-0.0,-0.0,3.032258,0.327388,0.342885,0.327388,0.310826,,,,,,
840888,0.092887,-0.026297,0.052474,-0.001064,0.0,0.0,0.087266,-0.0,-0.0,3.032258,0.327388,0.342661,0.327388,0.311082,,,,,,
840908,0.092525,-0.026166,0.052466,-0.001036,9.8e-05,-0.00106,0.087266,-0.0,-0.0,3.032258,0.327388,0.342454,0.327388,0.311318,,,,,,
840928,0.091794,-0.026148,0.052461,2.8e-05,9.8e-05,-0.00106,0.087266,-0.0,-0.0,3.032258,0.327388,0.341806,0.327388,0.312053,,,,,,
840948,0.091546,-0.026135,0.052328,0.0,0.0,0.0,0.087266,-0.0,-0.0,3.032258,0.327388,0.337553,0.327388,0.316776,,,,,,
840968,0.091299,-0.02625,0.052332,2.8e-05,9.7e-05,-0.00106,0.087266,-0.0,-0.0,3.032258,0.327388,0.333006,0.327388,0.321637,,,,,,
840988,0.091297,-0.026256,0.052453,-0.001036,9.7e-05,-0.00106,0.087266,-0.0,-0.0,3.032258,0.327388,0.333081,0.327388,0.321558,,,,,,
841008,0.09105,-0.026372,0.052457,-0.001062,-0.00106,-9.7e-05,0.087266,-0.0,-0.0,3.032258,0.327388,0.337358,0.327388,0.316988,,,,,,
841028,0.090932,-0.026247,0.052451,-0.001034,-0.000963,-0.001157,0.087266,-0.0,-0.0,3.032258,0.327388,0.33732,0.327388,0.31703,,,,,,
841048,0.090801,-0.026493,0.052583,-0.001034,-0.000963,-0.001157,0.087266,-0.0,-0.0,3.032258,0.327388,0.341399,0.327388,0.312513,,,,,,
841068,0.090801,-0.026493,0.052583,-0.001062,-0.00106,-9.7e-05,0.087266,-0.0,-0.0,3.032258,0.327388,0.34145,0.327388,0.312455,,,,,,
841088,0.090436,-0.026484,0.05258,-0.001062,-0.00106,-9.6e-05,0.087266,-0.0,-0.0,3.032258,0.327388,0.337054,0.327388,0.317319,,,,,,
841108,0.090439,-0.026362,0.052575,-0.001036,9.6e-05,-0.00106,0.087266,-0.0,-0.0,3.032258,0.327388,0.337116,0.327388,0.317252,,,,,,
841128,0.090314,-0.026481,0.052579,-0.001039,0.001156,-0.000964,0.087266,-0.0,-0.0,3.032258,0.327388,0.336962,0.327388,0.317419,,,,,,
841148,0.090195,-0.026356,0.052573,-0.001067,0.00106,9.6e-05,0.087266,-0.0,-0.0,3.032258,0.327388,0.337037,0.327388,0.317337,,,,,,
841168,0.09007,-0.026475,0.052577,0.0,0.0,0.0,0.087266,-0.0,-0.0,3.032258,0.327388,0.341235,0.327388,0.312698,,,,,,
841188,0.090067,-0.026597,0.052583,3.1e-05,-0.000964,-0.001156,0.087266,-0.0,-0.0,3.032258,0.327388,0.336927,0.327388,0.317457,,,,,,
841208,0.089938,-0.026838,0.052593,5e-06,-0.00212,-0.000191,0.087266,-0.0,-0.0,3.032258,0.327388,0.336969,0.327388,0.317411,,,,,,
841228,0.089695,-0.026832,0.052591,3.4e-05,-0.002025,-0.001251,0.087266,-0.0,-0.0,3.032258,0.327388,0.332471,0.327388,0.322196,,,,,,
841248,0.089569,-0.026951,0.052596,-0.001033,-0.000965,-0.001156,0.087266,-0.0,-0.0,3.032258,0.327388,0.336612,0.327388,0.317798,,,,,,
841268,0.089698,-0.02671,0.052586,-0.002128,0.0,0.0,0.087266,-0.0,-0.0,3.032258,0.327388,0.336881,0.327388,0.317506,,,,,,
841288,0.089573,-0.026829,0.05259,-0.002128,0.0,0.0,0.087266,-0.0,-0.0,3.032258,0.327388,0.336812,0.327388,0.317581,,,,,,
841308,0.089454,-0.026704,0.052584,-0.002128,0.0,0.0,0.087266,-0.0,-0.0,3.032258,0.327388,0.340882,0.327388,0.313094,,,,,,
841328,0.088961,-0.026819,0.052708,-0.001062,-0.00106,-9.5e-05,0.087266,-0.0,-0.0,3.032258,0.327388,0.340602,0.327388,0.313408,,,,,,
841348,0.088718,-0.026813,0.052706,-0.001062,-0.00106,-9.4e-05,0.087266,-0.0,-0.0,3.032258,0.327388,0.340419,0.327388,0.313612,,,,,,
841368,0.088347,-0.026803,0.052693,2.8e-05,9.4e-05,-0.00106,0.087266,-0.0,-0.0,3.032258,0.327388,0.33586,0.327388,0.318609,,,,,,
841388,0.088109,-0.026553,0.052681,2.8e-05,9.4e-05,-0.00106,0.087266,-0.0,-0.0,3.032258,0.327388,0.33567,0.327388,0.318812,,,,,,
841408,0.08774,-0.026666,0.052683,2.8e-05,9.3e-05,-0.001061,0.087266,-0.0,-0.0,3.032258,0.327388,0.331026,0.327388,0.323695,,,,,,
841428,0.087622,-0.026541,0.052677,-0.001036,9.3e-05,-0.001061,0.087266,-0.0,-0.0,3.032258,0.327388,0.330821,0.327388,0.323906,,,,,,
841448,0.087737,-0.026788,0.052689,-0.001033,-0.000967,-0.001154,0.087266,-0.0,-0.0,3.032258,0.327388,0.335164,0.327388,0.319354,,,,,,
841468,0.087739,-0.026782,0.052567,-0.001059,-0.00212,-0.000187,0.087266,-0.0,-0.0,3.032258,0.327388,0.335276,0.327388,0.319234,,,,,,
841488,0.087492,-0.026898,0.05257,-0.001088,-0.002213,0.000874,0.087266,-0.0,-0.0,3.032258,0.327388,0.339429,0.327388,0.314714,,,,,,
841508,0.087253,-0.026654,0.05268,-0.001064,0.0,0.0,0.087266,-0.0,-0.0,3.032258,0.327388,0.339221,0.327388,0.314944,,,,,,
841528,0.087006,-0.02677,0.052683,-0.001038,0.001153,-0.000968,0.087266,-0.0,-0.0,3.032258,0.327388,0.339004,0.327388,0.315184,,,,,,
841548,0.086894,-0.026401,0.052666,2.6e-05,0.001153,-0.000968,0.087266,-0.0,-0.0,3.032258,0.327388,0.33463,0.327388,0.319922,,,,,,
841568,0.086525,-0.026514,0.052669,2.6e-05,0.001152,-0.000969,0.087266,-0.0,-0.0,3.032258,0.327388,0.334317,0.327388,0.320254,,,,,,
841588,0.086403,-0.026511,0.052668,3.1e-05,-0.000968,-0.001152,0.087266,-0.0,-0.0,3.032258,0.327388,0.329725,0.327388,0.325028,,,,,,
841608,0.086274,-0.026751,0.052677,-0.001059,-0.002121,-0.000183,0.087266,-0.0,-0.0,3.032258,0.327388,0.329592,0.327388,0.325164,,,,,,
841628,0.08603,-0.026745,0.052676,-0.002121,-0.003181,-0.000274,0.087266,-0.0,-0.0,3.032258,0.327388,0.329327,0.327388,0.325434,,,,,,
841648,0.085785,-0.026745,0.052795,-0.003188,-0.002121,-0.000182,0.087266,-0.0,-0.0,3.032258,0.327388,0.33355,0.327388,0.321065,,,,,,
841668,0.085295,-0.026609,0.052777,-0.002126,-0.00106,-9.1e-05,0.087266,-0.0,-0.0,3.032258,0.327388,0.333075,0.327388,0.321564,,,,,,
841688,0.08493,-0.0266,0.052774,-0.001038,0.001151,-0.00097,0.087266,-0.0,-0.0,3.032258,0.327388,0.337021,0.327388,0.317354,,,,,,
841708,0.084327,-0.026341,0.052759,-0.001039,0.00115,-0.000971,0.087266,-0.0,-0.0,3.032258,0.327388,0.336453,0.327388,0.31797,,,,,,
841728,0.083954,-0.026576,0.052766,2.6e-05,0.00115,-0.000972,0.087266,-0.0,-0.0,3.032258,0.327388,0.335968,0.327388,0.318492,,,,,,
841748,0.08371,-0.02657,0.052765,2.8e-05,8.9e-05,-0.001061,0.087266,-0.0,-0.0,3.032258,0.327388,0.331365,0.327388,0.323345,,,,,,
841768,0.083585,-0.026688,0.052769,2e-06,-0.001061,-8.9e-05,0.087266,-0.0,-0.0,3.032258,0.327388,0.326767,0.327388,0.328008,,,,,,
841788,0.083341,-0.026682,0.052767,-0.001059,-0.002121,-0.000177,0.087266,-0.0,-0.0,3.032258,0.327388,0.326461,0.327388,0.328311,,,,,,
841808,0.083214,-0.026806,0.052893,-0.002124,-0.002121,-0.000177,0.087266,-0.0,-0.0,3.032258,0.327388,0.326378,0.327388,0.328395,,,,,,
841828,0.082974,-0.026678,0.052886,-0.002126,-0.001061,-8.8e-05,0.087266,-0.0,-0.0,3.032258,0.327388,0.330506,0.327388,0.324229,,,,,,
841848,0.082974,-0.026678,0.052886,-0.001064,0.0,0.0,0.087266,-0.0,-0.0,3.032258,0.327388,0.330421,0.327388,0.324317,,,,,,
841868,0.08261,-0.026424,0.052863,-0.001036,8.8e-05,-0.001061,0.087266,-0.0,-0.0,3.032258,0.327388,0.334367,0.327388,0.320202,,,,,,
841888,0.082363,-0.02654,0.052866,-0.001036,8.8e-05,-0.001061,0.087266,-0.0,-0.0,3.032258,0.327388,0.333945,0.327388,0.320648,,,,,,
841908,0.082366,-0.026418,0.052861,2.8e-05,8.8e-05,-0.001061,0.087266,-0.0,-0.0,3.032258,0.327388,0.333869,0.327388,0.320728,,,,,,
841928,0.082486,-0.026538,0.052745,2e-06,-0.001061,-8.8e-05,0.087266,-0.0,-0.0,3.032258,0.327388,0.333888,0.327388,0.320708,,,,,,
841948,0.082485,-0.026543,0.052867,2e-06,-0.001061,-8.8e-05,0.087266,-0.0,-0.0,3.032258,0.327388,0.333915,0.327388,0.32068,,,,,,
841968,0.082606,-0.026546,0.052868,2e-06,-0.001061,-8.8e-05,0.087266,-0.0,-0.0,3.032258,0.327388,0.329555,0.327388,0.325201,,,,,,
841988,0.082728,-0.026549,0.052869,2.8e-05,8.8e-05,-0.001061,0.087266,-0.0,-0.0,3.032258,0.327388,0.329578,0.327388,0.325178,,,,,,
842008,0.082733,-0.02655,0.052879,-0.001036,8.8e-05,-0.001061,0.087266,-0.0,-0.0,3.032258,0.327388,0.329497,0.327388,0.325261,,,,,,
842028,0.082733,-0.02655,0.052879,-0.001036,8.8e-05,-0.001061,0.087266,-0.0,-0.0,3.032258,0.327388,0.32941,0.327388,0.325349,,,,,,
842048,0.082859,-0.026432,0.052875,-0.001036,8.8e-05,-0.001061,0.087266,-0.0,-0.0,3.032258,0.327388,0.333705,0.327388,0.320901,,,,,,
842068,0.082859,-0.026432,0.052875,-0.001062,-0.001061,-8.8e-05,0.087266,-0.0,-0.0,3.032258,0.327388,0.333623,0.327388,0.320988,,,,,,
842088,0.082855,-0.026553,0.05288,2e-06,-0.001061,-8.8e-05,0.087266,-0.0,-0.0,3.032258,0.327388,0.333527,0.327388,0.321089,,,,,,
842108,0.082857,-0.026437,0.052996,2e-06,-0.001061,-8.8e-05,0.087266,-0.0,-0.0,3.032258,0.327388,0.33356,0.327388,0.321054,,,,,,
842128,0.082857,-0.026437,0.052996,0.0,0.0,0.0,0.087266,-0.0,-0.0,3.032258,0.327388,0.333479,0.327388,0.321139,,,,,,
842148,0.082858,-0.02632,0.053113,2.6e-05,0.001149,-0.000973,0.087266,-0.0,-0.0,3.032258,0.327388,0.329019,0.327388,0.325746,,,,,,
842168,0.082855,-0.026442,0.053118,2.8e-05,8.8e-05,-0.001061,0.087266,-0.0,-0.0,3.032258,0.327388,0.328944,0.327388,0.325822,,,,,,
842188,0.082735,-0.026433,0.052995,2.8e-05,8.8e-05,-0.001061,0.087266,-0.0,-0.0,3.032258,0.327388,0.32875,0.327388,0.326018,,,,,,
842208,0.082854,-0.026558,0.053002,-0.001034,-0.000973,-0.001149,0.087266,-0.0,-0.0,3.032258,0.327388,0.333053,0.327388,0.321587,,,,,,
842228,0.083097,-0.026565,0.053003,-0.001031,-0.002033,-0.001238,0.087266,-0.0,-0.0,3.032258,0.327388,0.333189,0.327388,0.321444,,,,,,
842248,0.083338,-0.026693,0.05301,-0.001059,-0.002121,-0.000177,0.087266,-0.0,-0.0,3.032258,0.327388,0.328933,0.327388,0.325833,,,,,,
842268,0.083216,-0.026689,0.053009,-0.00106,-0.002121,-0.000177,0.087266,-0.0,-0.0,3.032258,0.327388,0.328724,0.327388,0.326044,,,,,,
842288,0.082974,-0.026567,0.053124,-0.001064,0.0,0.0,0.087266,-0.0,-0.0,3.032258,0.327388,0.332929,0.327388,0.321717,,,,,,
842308,0.082975,-0.02645,0.053241,-0.001039,0.001149,-0.000973,0.087266,-0.0,-0.0,3.032258,0.327388,0.332851,0.327388,0.321799,,,,,,
842328,0.08298,-0.026323,0.053114,2.3e-05,0.002209,-0.000884,0.087266,-0.0,-0.0,3.032258,0.327388,0.332786,0.327388,0.321866,,,,,,
842348,0.082862,-0.026198,0.053108,2.5e-05,0.001149,-0.000973,0.087266,-0.0,-0.0,3.032258,0.327388,0.332611,0.327388,0.32205,,,,,,
842368,0.08298,-0.026323,0.053114,2.8e-05,8.8e-05,-0.001061,0.087266,-0.0,-0.0,3.032258,0.327388,0.328135,0.327388,0.326639,,,,,,
842388,0.083099,-0.026448,0.05312,3e-05,-0.000972,-0.001149,0.087266,-0.0,-0.0,3.032258,0.327388,0.328058,0.327388,0.326717,,,,,,
842408,0.083094,-0.026686,0.053009,-0.00106,-0.002121,-0.000177,0.087266,-0.0,-0.0,3.032258,0.327388,0.328081,0.327388,0.326693,,,,,,
842428,0.083341,-0.026571,0.053005,-0.001085,-0.00327,0.000795,0.087266,-0.0,-0.0,3.032258,0.327388,0.328208,0.327388,0.326566,,,,,,
842448,0.083336,-0.026698,0.053132,-0.001059,-0.002121,-0.000177,0.087266,-0.0,-0.0,3.032258,0.327388,0.328221,0.327388,0.326552,,,,,,
842468,0.083221,-0.026451,0.053121,-0.001036,8.8e-05,-0.001061,0.087266,-0.0,-0.0,3.032258,0.327388,0.332435,0.327388,0.322234,,,,,,
842488,0.082984,-0.026201,0.053109,-0.001041,0.002209,-0.000884,0.087266,-0.0,-0.0,3.032258,0.327388,0.332153,0.327388,0.322527,,,,,,
842508,0.08299,-0.025957,0.053099,2.3e-05,0.002209,-0.000884,0.087266,-0.0,-0.0,3.032258,0.327388,0.332091,0.327388,0.322592,,,,,,
842528,0.08299,-0.025957,0.053099,2.5e-05,0.001149,-0.000973,0.087266,-0.0,-0.0,3.032258,0.327388,0.331921,0.327388,0.322768,,,,,,
842548,0.083354,-0.026083,0.052985,2.8e-05,8.9e-05,-0.001061,0.087266,-0.0,-0.0,3.032258,0.327388,0.332183,0.327388,0.322496,,,,,,
842568,0.08347,-0.02633,0.052996,5e-06,-0.002121,-0.000178,0.087266,-0.0,-0.0,3.032258,0.327388,0.327695,0.327388,0.327081,,,,,,
842588,0.083463,-0.026574,0.053006,7e-06,-0.003182,-0.000266,0.087266,-0.0,-0.0,3.032258,0.327388,0.327714,0.327388,0.327061,,,,,,
842608,0.083824,-0.02671,0.053136,-0.001085,-0.003271,0.000793,0.087266,-0.0,-0.0,3.032258,0.327388,0.332477,0.327388,0.322189,,,,,,
842628,0.08383,-0.026466,0.053126,-0.001062,-0.00106,-8.9e-05,0.087266,-0.0,-0.0,3.032258,0.327388,0.328007,0.327388,0.326768,,,,,,
842648,0.08371,-0.026346,0.053241,-0.001036,8.9e-05,-0.001061,0.087266,-0.0,-0.0,3.032258,0.327388,0.327828,0.327388,0.326947,,,,,,
842668,0.083353,-0.026088,0.053107,-0.001039,0.001149,-0.000972,0.087266,-0.0,-0.0,3.032258,0.327388,0.327432,0.327388,0.327345,,,,,,
842688,0.083241,-0.025719,0.05309,-0.001039,0.001149,-0.000972,0.087266,-0.0,-0.0,3.032258,0.327388,0.331688,0.327388,0.323011,,,,,,
842708,0.083241,-0.025719,0.05309,-0.001037,8.8e-05,-0.001061,0.087266,-0.0,-0.0,3.032258,0.327388,0.331521,0.327388,0.323184,,,,,,
842728,0.083366,-0.0256,0.053086,2.9e-05,-0.000972,-0.00115,0.087266,-0.0,-0.0,3.032258,0.327388,0.327144,0.327388,0.327632,,,,,,
842748,0.083363,-0.025722,0.053091,7e-06,-0.003182,-0.000266,0.087266,-0.0,-0.0,3.032258,0.327388,0.327064,0.327388,0.327711,,,,,,
842768,0.083364,-0.025605,0.053208,7e-06,-0.003182,-0.000266,0.087266,-0.0,-0.0,3.032258,0.327388,0.331387,0.327388,0.323321,,,,,,
842788,0.083364,-0.025605,0.053208,5e-06,-0.002121,-0.000177,0.087266,-0.0,-0.0,3.032258,0.327388,0.326998,0.327388,0.327777,,,,,,
842808,0.083498,-0.025126,0.05331,-0.001035,-0.000972,-0.00115,0.087266,-0.0,-0.0,3.032258,0.327388,0.327036,0.327388,0.32774,,,,,,
842828,0.083259,-0.024881,0.05342,-0.001038,8.9e-05,-0.001061,0.087266,-0.0,-0.0,3.032258,0.327388,0.326741,0.327388,0.328033,,,,,,
842848,0.083272,-0.024393,0.053399,-0.001041,0.001149,-0.000972,0.087266,-0.0,-0.0,3.032258,0.327388,0.326686,0.327388,0.328088,,,,,,
842868,0.083154,-0.024268,0.053394,-0.001041,0.001149,-0.000972,0.087266,-0.0,-0.0,3.032258,0.327388,0.3264,0.327388,0.328372,,,,,,
842888,0.083155,-0.024023,0.053374,-0.001039,8.8e-05,-0.001061,0.087266,-0.0,-0.0,3.032258,0.327388,0.33076,0.327388,0.323968,,,,,,
842908,0.08316,-0.024024,0.053383,-0.001062,-0.001061,-8.8e-05,0.087266,-0.0,-0.0,3.032258,0.327388,0.330695,0.327388,0.324035,,,,,,
842928,0.083159,-0.023901,0.053368,4e-06,-0.002121,-0.000177,0.087266,-0.0,-0.0,3.032258,0.327388,0.330606,0.327388,0.324127,,,,,,
842948,0.08303,-0.024142,0.053378,4e-06,-0.002121,-0.000177,0.087266,-0.0,-0.0,3.032258,0.327388,0.330507,0.327388,0.324229,,,,,,
842968,0.082908,-0.024138,0.053377,4e-06,-0.002121,-0.000176,0.087266,-0.0,-0.0,3.032258,0.327388,0.325871,0.327388,0.328896,,,,,,
842988,0.082905,-0.02426,0.053382,2.8e-05,-0.000972,-0.001149,0.087266,-0.0,-0.0,3.032258,0.327388,0.321147,0.327388,0.333472,,,,,,
843008,0.082913,-0.024011,0.05325,-0.001039,8.8e-05,-0.001061,0.087266,-0.0,-0.0,3.032258,0.327388,0.321071,0.327388,0.333544,,,,,,
843028,0.083154,-0.02414,0.053257,-0.002131,0.001061,8.8e-05,0.087266,-0.0,-0.0,3.032258,0.327388,0.325734,0.327388,0.329031,,,,,,
843048,0.083032,-0.024136,0.053256,-0.002131,0.001061,8.8e-05,0.087266,-0.0,-0.0,3.032258,0.327388,0.325654,0.327388,0.32911,,,,,,
843068,0.08291,-0.024133,0.053255,-0.001066,0.001061,8.8e-05,0.087266,-0.0,-0.0,3.032258,0.327388,0.329911,0.327388,0.324839,,,,,,
843088,0.08291,-0.024133,0.053255,2.6e-05,8.8e-05,-0.001061,0.087266,-0.0,-0.0,3.032258,0.327388,0.334195,0.327388,0.320384,,,,,,
843108,0.082905,-0.02426,0.053382,0.00109,8.8e-05,-0.001061,0.087266,-0.0,-0.0,3.032258,0.327388,0.334013,0.327388,0.320577,,,,,,
