time_ms,roll,pitch,yaw,roll_rate,pitch_rate,yaw_rate,reference_roll,reference_pitch,reference_yaw,reference_throttle,throttle_1,throttle_2,throttle_3,throttle_4,roll_predicted,pitch_predicted,yaw_predicted,roll_rate_predicted,pitch_rate_predicted,yaw_rate_predicted
36683,0.000756,0.016101,0.048352,-0.001064,-0.001064,0.0,-0.0,-0.0,-0.0,2.0,0.282024,0.277229,0.282024,0.286705,-0.0,-271.14911,0.0,-0.0,-7.732405,-0.0
36703,0.000634,0.016104,0.048353,-0.001064,0.0,-0.001064,-0.0,-0.0,-0.0,2.0,0.282024,0.277188,0.282024,0.286744,-0.0,-271.464103,0.0,-0.0,-8.125608,-0.0
36723,0.000634,0.016104,0.048353,-0.001064,0.0,-0.001064,0.001898,-0.0,-0.0,2.0,0.282024,0.276415,0.282024,0.287477,3.1e-05,-271.795622,-1.3e-05,0.001641,-8.563411,2e-06
36743,0.000509,0.015984,0.048354,-0.001064,-0.001064,0.0,0.005559,-0.0,-0.0,2.0,0.282024,0.274838,0.282024,0.288956,8.2e-05,-272.144789,5.6e-05,0.006015,-8.999764,1.8e-05
36763,0.000509,0.015984,0.048354,0.0,-0.001064,-0.001064,0.0101,-0.0,-0.0,2.0,0.282024,0.272893,0.282024,0.290748,0.000324,-272.51076,0.000163,0.012735,-9.381393,6.2e-05
36783,0.000631,0.015981,0.048353,0.0,0.0,-0.001064,0.01216,-0.0,-0.0,2.0,0.282024,0.273513,0.282024,0.290181,0.000787,-272.890535,0.000389,0.018423,-9.655149,0.000146
36803,0.000756,0.016101,0.048352,0.0,-0.001064,0.0,0.0158,-0.0,-0.0,2.0,0.282024,0.271919,0.282024,0.291633,0.001499,-273.279111,0.000797,0.024182,-9.778691,0.000263
36823,0.001,0.016095,0.04835,0.0,-0.001064,0.0,0.019401,-0.0,-0.0,2.0,0.282024,0.270342,0.282024,0.293048,0.002642,-273.670087,0.00153,0.030009,-9.731298,0.000414
36843,0.001125,0.016214,0.048349,-0.001064,0.0,-0.001064,0.022969,-0.0,-0.0,2.0,0.282024,0.268679,0.282024,0.294517,0.004638,-274.056642,0.002982,0.035285,-9.520144,0.000596
36863,0.001127,0.016336,0.048227,-0.001064,0.0,0.0,0.026802,-0.0,-0.0,2.0,0.282024,0.265207,0.282024,0.297509,0.008957,-274.432654,0.006599,0.039315,-9.17873,0.0008
36883,0.001124,0.016214,0.048227,-0.001064,-0.001064,0.0,0.03006,-0.0,-0.0,2.0,0.282024,0.263498,0.282024,0.298945,0.028116,-274.793619,0.024878,0.037429,-8.758115,0.001009
36903,0.001002,0.016217,0.048228,-0.001064,0.0,-0.001064,0.033563,-0.0,-0.0,2.0,0.282024,0.261575,0.282024,0.300534,-0.006648,-275.12108,-0.011537,-0.086325,-8.314768,-0.002871
36923,0.001002,0.016217,0.048228,0.0,0.0,-0.001064,0.035291,-0.0,-0.0,2.0,0.282024,0.260444,0.282024,0.301454,-0.003713,-275.447271,-0.006401,0.002525,-7.898941,-0.003104
36943,0.001121,0.016092,0.048227,0.0,0.0,0.0,0.038616,-0.0,-0.0,2.0,0.282024,0.260268,0.282024,0.301597,-0.001803,-275.757762,-0.00504,0.044882,-7.552668,-0.003011
36963,0.001365,0.016086,0.048225,0.0,-0.001064,0.0,0.041876,-0.0,-0.0,2.0,0.282024,0.258488,0.282024,0.303024,0.000496,-276.055821,-0.004816,0.06661,-7.305812,-0.002774
36983,0.001734,0.016199,0.048222,0.001064,-0.001064,0.0,0.043588,-0.0,-0.0,2.0,0.282024,0.257422,0.282024,0.303867,0.003211,-276.345729,-0.005371,0.078295,-7.176684,-0.00247
37003,0.0021,0.01619,0.048219,0.0,-0.001064,-0.001064,0.048043,-0.0,-0.0,2.0,0.282024,0.256753,0.282024,0.304392,0.006489,-276.63235,-0.006724,0.087478,-7.173641,-0.002125
37023,0.002834,0.016295,0.048091,0.001064,0.0,0.0,0.051104,-0.0,-0.0,2.0,0.282024,0.255158,0.282024,0.30563,0.01082,-276.920742,-0.009227,0.094421,-7.296347,-0.001743
37043,0.003811,0.016271,0.048205,0.002128,0.0,0.0,0.054032,-0.0,-0.0,2.0,0.282024,0.255394,0.282024,0.305448,0.017254,-277.215822,-0.013926,0.098369,-7.536101,-0.001325
37063,0.004907,0.016123,0.048196,0.003193,-0.001064,-0.001064,0.056929,-0.0,-0.0,2.0,0.282024,0.25398,0.282024,0.306532,0.029227,-277.522009,-0.024296,0.097173,-7.875159,-0.000882
37083,0.006492,0.016085,0.048061,0.003193,0.0,-0.001064,0.058896,-0.0,-0.0,2.0,0.282024,0.254902,0.282024,0.305826,0.067383,-277.842744,-0.061093,0.080596,-8.285504,-0.000443
37103,0.008563,0.015913,0.047922,0.004257,0.0,0.0,0.06207,-0.0,-0.0,2.0,0.282024,0.255479,0.282024,0.305381,-0.196712,-278.14953,0.205977,-0.154962,-8.728083,-0.006117
37123,0.011004,0.015854,0.047901,0.005321,0.0,0.0,0.064572,-0.0,-0.0,2.0,0.282024,0.256519,0.282024,0.304574,-0.01804,-278.503343,0.022903,0.060834,-9.157623,-0.006745
37143,0.013934,0.015907,0.047753,0.00745,0.0,-0.001064,0.066987,-0.0,-0.0,2.0,0.282024,0.257814,0.282024,0.303558,-0.007197,-278.875356,0.014228,0.123538,-9.5206,-0.006254
37163,0.017231,0.01595,0.047601,0.008514,-0.001064,-0.001064,0.068152,-0.0,-0.0,2.0,0.282024,0.259833,0.282024,0.301947,-0.000725,-279.260278,0.012299,0.144441,-9.764401,-0.0055
37183,0.02138,0.015854,0.047328,0.008514,-0.001064,0.0,0.070605,-0.0,-0.0,2.0,0.282024,0.261655,0.282024,0.300468,0.005084,-279.652672,0.01308,0.150412,-9.850087,-0.00465
37203,0.026021,0.015991,0.047038,0.009578,0.0,0.0,0.072631,-0.0,-0.0,2.0,0.282024,0.263878,0.282024,0.298628,0.011818,-280.045888,0.016288,0.149696,-9.762786,-0.003779
37223,0.03103,0.016118,0.046873,0.010642,0.0,0.0,0.074623,-0.0,-0.0,2.0,0.282024,0.267858,0.282024,0.295234,0.02199,-280.433104,0.023696,0.144208,-9.516446,-0.002937
37243,0.036646,0.016235,0.046447,0.012771,-0.001064,-0.001064,0.07647,-0.0,-0.0,2.0,0.282024,0.268994,0.282024,0.294241,0.044793,-280.808402,0.04414,0.130522,-9.150296,-0.002163
37263,0.042623,0.016105,0.045906,0.012771,-0.001064,0.0,0.078181,-0.0,-0.0,2.0,0.282024,0.271924,0.282024,0.291629,0.224368,-281.166965,0.221581,0.077903,-8.718656,-0.001541
37283,0.04909,0.015963,0.04548,0.013835,0.0,0.001064,0.079771,-0.0,-0.0,2.0,0.282024,0.275098,0.282024,0.288714,15.359017,-281.061593,15.375215,-1.852682,-8.271835,-0.118027
37303,0.055806,0.01594,0.045054,0.014899,0.0,0.0,0.081067,-0.0,-0.0,2.0,0.282024,0.278489,0.282024,0.285497,15.577472,-280.743075,15.708019,-4.189314,-7.806479,-0.289428
37323,0.063009,0.016033,0.044486,0.015963,-0.001064,0.0,0.082357,-0.0,-0.0,2.0,0.282024,0.28207,0.282024,0.281978,15.441241,-280.440375,15.782679,-6.286362,-7.312969,-0.47011
37343,0.070456,0.016002,0.043924,0.015963,0.0,0.0,0.083501,-0.0,-0.0,2.0,0.282024,0.284358,0.282024,0.279662,15.226544,-280.165149,15.882568,-8.213747,-6.775341,-0.657791
37363,0.078517,0.015967,0.043237,0.017028,0.0,0.001064,0.084016,-0.0,-0.0,2.0,0.282024,0.288581,0.282024,0.27524,14.930901,-279.930877,16.017034,-10.021294,-6.162668,-0.850392
37383,0.086696,0.015926,0.042658,0.017028,0.0,0.001064,0.084934,-0.0,-0.0,2.0,0.282024,0.292679,0.282024,0.270756,14.546859,-279.757698,16.185828,-11.721799,-5.426754,-1.045695
37403,0.095127,0.016007,0.042075,0.018092,-0.001064,0.0,0.085429,-0.0,-0.0,2.0,0.282024,0.295652,0.282024,0.267376,14.075476,-279.665319,16.373061,-13.273204,-4.506127,-1.240919
37423,0.103563,0.016098,0.041373,0.018092,-0.001064,0.0,0.086331,-0.0,-0.0,2.0,0.282024,0.298508,0.282024,0.264022,13.533324,-279.655044,16.543813,-14.574267,-3.34056,-1.432361
37443,0.112233,0.016066,0.040662,0.018092,0.0,0.0,0.086795,-0.0,-0.0,2.0,0.282024,0.301636,0.282024,0.26022,12.943089,-279.694769,16.66538,-15.490298,-1.895708,-1.615454
37463,0.12067,0.016158,0.040072,0.018092,0.0,0.001064,0.087098,-0.0,-0.0,2.0,0.282024,0.304766,0.282024,0.256273,12.323768,-279.734645,16.741879,-15.913972,-0.185956,-1.785513
37483,0.128989,0.016007,0.039625,0.017028,0.0,0.0,0.087249,-0.0,-0.0,2.0,0.282024,0.307936,0.282024,0.252121,11.697914,-279.751883,16.819682,-15.830802,1.72593,-1.939005
37503,0.13706,0.016114,0.039032,0.017028,0.0,-0.001064,0.087266,-0.0,-0.0,2.0,0.282024,0.309816,0.282024,0.249579,11.090887,-279.780798,16.945616,-15.337947,3.761037,-2.074508
37523,0.145007,0.016105,0.038446,0.015963,0.0,0.0,0.087093,-0.0,-0.0,2.0,0.282024,0.311772,0.282024,0.246869,10.524018,-279.889282,17.116932,-14.59592,5.866604,-2.192616
37543,0.152355,0.016103,0.037995,0.014899,0.0,0.0,0.086782,-0.0,-0.0,2.0,0.282024,0.313623,0.282024,0.24424,10.009296,-280.124944,17.277781,-13.748036,8.032975,-2.294974
37563,0.159453,0.01622,0.03765,0.013835,-0.001064,0.0,0.086572,-0.0,-0.0,2.0,0.282024,0.315404,0.282024,0.241647,9.503303,-280.485644,17.335011,-12.858115,10.269264,-2.383431
37583,0.165953,0.016352,0.037319,0.012771,-0.001064,0.0,0.086024,-0.0,-0.0,2.0,0.282024,0.317146,0.282024,0.239048,8.643053,-280.8973,16.933314,-11.889172,12.551202,-2.460049
37603,0.171954,0.016373,0.036995,0.011706,0.0,-0.001064,0.085304,-0.0,-0.0,2.0,0.282024,0.318826,0.282024,0.236481,6.46331,-280.75946,15.168997,-10.713908,14.77984,-2.528112
37623,0.177337,0.016396,0.036795,0.009578,-0.001064,0.0,0.084538,-0.0,-0.0,2.0,0.282024,0.320357,0.282024,0.234087,6.13917,-280.136671,15.284672,-9.25753,16.76869,-2.593381
37643,0.181881,0.016426,0.036736,0.008514,0.0,0.0,0.083542,-0.0,-0.0,2.0,0.282024,0.320511,0.282024,0.233842,5.866426,-279.488269,15.567215,-7.558237,18.318635,-2.663495
37663,0.185682,0.01635,0.036692,0.006385,0.0,-0.001064,0.082404,-0.0,-0.0,2.0,0.282024,0.321731,0.282024,0.231889,5.39824,-278.917156,16.100829,-5.697942,19.33604,-2.746215
37683,0.188745,0.016409,0.036643,0.004257,0.0,-0.001064,0.081097,-0.0,-0.0,2.0,0.282024,0.321587,0.282024,0.232122,4.414121,-278.757391,17.186669,-3.811446,19.89055,-2.847185
37703,0.190954,0.016231,0.036751,0.002128,-0.001064,-0.001064,0.079647,-0.0,-0.0,2.0,0.282024,0.321244,0.282024,0.232673,3.782967,-279.295283,17.963458,-2.002839,20.181925,-2.968769
37723,0.192184,0.016305,0.036968,0.001064,-0.001064,-0.001064,0.078273,-0.0,-0.0,2.0,0.282024,0.320581,0.282024,0.233731,3.712216,-280.036507,18.320749,-0.285699,20.423969,-3.110998
37743,0.19243,0.016264,0.037328,-0.001064,-0.001064,-0.002128,0.076549,-0.0,-0.0,2.0,0.282024,0.319729,0.282024,0.235076,4.126258,-280.760129,18.899642,1.365847,20.64069,-3.273446
37763,0.191945,0.016251,0.03758,-0.003193,-0.001064,-0.001064,0.074695,-0.0,-0.0,2.0,0.282024,0.319913,0.282024,0.234786,6.425845,-280.704958,21.204384,2.907195,20.653329,-3.455611
37783,0.190844,0.016372,0.037823,-0.004257,-0.001064,-0.001064,0.07274,-0.0,-0.0,2.0,0.282024,0.319942,0.282024,0.234741,6.555889,-279.872388,21.185258,4.283954,20.196424,-3.655399
37803,0.189137,0.016483,0.03832,-0.005321,-0.001064,-0.001064,0.071691,-0.0,-0.0,2.0,0.282024,0.319472,0.282024,0.235477,6.757875,-279.075169,21.061623,5.472957,19.063835,-3.869068
37823,0.187051,0.016481,0.038829,-0.005321,-0.001064,-0.002128,0.068629,-0.0,-0.0,2.0,0.282024,0.319546,0.282024,0.235361,7.369767,-278.392424,20.566181,6.386958,17.296706,-4.090684
37843,0.184479,0.016502,0.039224,-0.006385,0.0,-0.001064,0.06726,-0.0,-0.0,2.0,0.282024,0.318898,0.282024,0.23637,9.632893,-278.444029,18.502556,7.016805,15.120215,-4.313452
37863,0.181541,0.016389,0.039879,-0.00745,0.0,-0.001064,0.064826,-0.0,-0.0,2.0,0.282024,0.318476,0.282024,0.237022,9.917943,-279.038962,18.513183,7.34166,12.784077,-4.531824
37883,0.178361,0.016282,0.040538,-0.008514,-0.001064,-0.002128,0.062284,-0.0,-0.0,2.0,0.282024,0.319234,0.282024,0.235848,10.172493,-279.538003,18.629426,7.290875,10.490016,-4.741701
37903,0.174683,0.016188,0.041197,-0.008514,-0.001064,-0.002128,0.059644,-0.0,-0.0,2.0,0.282024,0.318625,0.282024,0.236791,10.475963,-279.937283,18.796068,6.845875,8.360743,-4.940808
37923,0.170653,0.016227,0.041859,-0.009578,-0.001064,-0.002128,0.05827,-0.0,-0.0,2.0,0.282024,0.317461,0.282024,0.238573,10.84101,-280.238913,19.026456,5.996926,6.486418,-5.128677
37943,0.166246,0.016144,0.042651,-0.010642,-0.001064,-0.002128,0.053983,-0.0,-0.0,2.0,0.282024,0.31713,0.282024,0.239073,11.272262,-280.446922,19.340797,4.77437,4.960119,-5.306365
37963,0.161478,0.016185,0.043559,-0.011706,-0.001064,-0.002128,0.052459,-0.0,-0.0,2.0,0.282024,0.315735,0.282024,0.241158,11.761767,-280.560429,19.750878,3.270186,3.878885,-5.476017
37983,0.156212,0.01625,0.044346,-0.012771,-0.001064,-0.002128,0.049483,-0.0,-0.0,2.0,0.282024,0.315884,0.282024,0.240937,12.252647,-280.570395,20.216698,1.634908,3.31991,-5.640083
38003,0.150712,0.016186,0.045396,-0.012771,-0.001064,-0.002128,0.046412,-0.0,-0.0,2.0,0.282024,0.314718,0.282024,0.242653,12.630555,-280.477633,20.632908,0.054316,3.311162,-5.800417
38023,0.144724,0.016148,0.046331,-0.013835,-0.001064,-0.002128,0.043196,-0.0,-0.0,2.0,0.282024,0.313408,0.282024,0.244548,12.836552,-280.305013,20.940617,-1.280694,3.810821,-5.957771
38043,0.138488,0.016233,0.047372,-0.014899,-0.001064,-0.002128,0.040298,-0.0,-0.0,2.0,0.282024,0.311872,0.282024,0.246728,12.900263,-280.075947,21.163427,-2.205919,4.701117,-6.112042
38063,0.131764,0.015972,0.048453,-0.015963,-0.001064,-0.002128,0.036916,-0.0,-0.0,2.0,0.282024,0.310297,0.282024,0.248919,12.870711,-279.803069,21.344409,-2.614658,5.797375,-6.26315
38083,0.124794,0.015967,0.049509,-0.015963,-0.001064,-0.003193,0.033542,-0.0,-0.0,2.0,0.282024,0.309876,0.282024,0.249497,12.781696,-279.495368,21.521783,-2.482062,6.873591,-6.411976
38103,0.11734,0.01573,0.050714,-0.017028,-0.001064,-0.003193,0.030075,-0.0,-0.0,2.0,0.282024,0.308001,0.282024,0.252033,12.640375,-279.168113,21.735948,-1.877142,7.704421,-6.560639
38123,0.109518,0.015755,0.051898,-0.018092,-0.001064,-0.002128,0.026482,-0.0,-0.0,2.0,0.282024,0.305992,0.282024,0.254687,12.409742,-278.853569,22.051576,-0.954625,8.115459,-6.711811
38143,0.101336,0.01567,0.05322,-0.019156,-0.001064,-0.003193,0.023061,-0.0,-0.0,2.0,0.282024,0.303735,0.282024,0.257589,11.981731,-278.623469,22.589384,0.076456,8.024254,-6.867442
38163,0.092547,0.015734,0.05454,-0.02022,-0.001064,-0.003193,0.021229,-0.0,-0.0,2.0,0.282024,0.300615,0.282024,0.261476,11.35167,-278.61127,23.356491,1.001903,7.455934,-7.027791
38183,0.083512,0.015693,0.055864,-0.021285,-0.001064,-0.003193,0.017552,-0.0,-0.0,2.0,0.282024,0.297978,0.282024,0.264651,10.962865,-278.836294,23.906235,1.652243,6.533946,-7.191444
38203,0.074113,0.015795,0.057182,-0.021285,-0.001064,-0.003193,0.013928,-0.0,-0.0,2.0,0.282024,0.295105,0.282024,0.268006,10.861686,-279.145604,24.186544,1.925045,5.448479,-7.356214
38223,0.064225,0.01568,0.058518,-0.022349,0.0,-0.003193,0.010294,-0.0,-0.0,2.0,0.282024,0.293342,0.282024,0.270012,10.880157,-279.466404,24.358275,1.796465,4.411362,-7.520225
38243,0.054089,0.015582,0.059837,-0.023413,0.0,-0.003193,0.00627,-0.0,-0.0,2.0,0.282024,0.29156,0.282024,0.272,10.943314,-279.783747,24.493273,1.324913,3.620469,-7.682536
38263,0.043594,0.015506,0.061294,-0.023413,0.0,-0.003193,0.00627,-0.0,-0.0,2.0,0.282024,0.286592,0.282024,0.277347,11.027336,-280.096494,24.630589,0.642537,3.225817,-7.843075
38283,0.032851,0.015455,0.062489,-0.024477,0.0,-0.003193,2.8e-05,-0.0,-0.0,2.0,0.282024,0.283783,0.282024,0.280249,11.150367,-280.402268,24.817236,-0.069891,3.296461,-8.002119
38303,0.021746,0.015424,0.063931,-0.024477,-0.001064,-0.003193,-0.003663,-0.0,-0.0,2.0,0.282024,0.281181,0.282024,0.282864,11.416934,-280.682703,25.166548,-0.624128,3.797946,-8.159848
38323,0.010759,0.015282,0.065251,-0.025541,0.0,-0.003193,-0.00733,-0.0,-0.0,2.0,0.282024,0.277014,0.282024,0.28691,12.149234,-280.843929,25.994851,-0.872842,4.591485,-8.316394
38343,-0.000586,0.015409,0.06656,-0.025541,0.0,-0.003193,-0.010979,-0.0,-0.0,2.0,0.282024,0.27405,0.282024,0.289686,12.992946,-280.667498,26.932969,-0.758988,5.459256,-8.472258
38363,-0.012061,0.015311,0.067992,-0.025541,-0.001064,-0.003193,-0.012792,-0.0,-0.0,2.0,0.282024,0.270136,0.282024,0.293232,13.219675,-280.296885,27.240739,-0.331175,6.147566,-8.628524
38383,-0.023653,0.015354,0.06941,-0.025541,0.0,-0.003193,-0.018349,-0.0,-0.0,2.0,0.282024,0.267605,0.282024,0.295454,13.284649,-279.882477,27.37236,0.274792,6.435514,-8.78647
38403,-0.035123,0.015525,0.070586,-0.025541,-0.001064,-0.002128,-0.021957,-0.0,-0.0,2.0,0.282024,0.264171,0.282024,0.298383,13.316302,-279.455844,27.466298,0.848956,6.208986,-8.946695
38423,-0.046716,0.015597,0.07199,-0.025541,0.0,-0.003193,-0.025494,-0.0,-0.0,2.0,0.282024,0.260486,0.282024,0.30142,13.324224,-279.034699,27.570319,1.177558,5.509522,-9.108539
38443,-0.058191,0.015679,0.073393,-0.025541,0.0,-0.003193,-0.027251,-0.0,-0.0,2.0,0.282024,0.255877,0.282024,0.305074,13.251407,-278.635087,27.749364,1.122116,4.531134,-9.270489
38463,-0.069548,0.015645,0.074656,-0.025541,0.0,-0.003193,-0.031038,-0.0,-0.0,2.0,0.282024,0.252041,0.282024,0.307995,12.811895,-278.294354,28.278767,0.674154,3.559041,-9.431251
38483,-0.080666,0.015617,0.075916,-0.024477,0.0,-0.002128,-0.03404,-0.0,-0.0,2.0,0.282024,0.249521,0.282024,0.309859,11.144459,-278.295892,29.999889,-0.039968,2.873767,-9.590425
38503,-0.091661,0.015602,0.077282,-0.023413,0.0,-0.003193,-0.037432,-0.0,-0.0,2.0,0.282024,0.247114,0.282024,0.311598,10.839932,-278.681299,30.310361,-0.766916,2.663795,-9.748255
38523,-0.10217,0.0157,0.078533,-0.023413,0.0,-0.003193,-0.04071,-0.0,-0.0,2.0,0.282024,0.242934,0.282024,0.314525,10.76494,-279.087031,30.360935,-1.231787,2.956059,-9.905031
38543,-0.112685,0.015687,0.079764,-0.022349,0.0,-0.003193,-0.043921,-0.0,-0.0,2.0,0.282024,0.240384,0.282024,0.316256,10.704988,-279.50479,30.385738,-1.248237,3.601895,-10.060984
38563,-0.122595,0.015542,0.080975,-0.022349,0.0,-0.002128,-0.047239,-0.0,-0.0,2.0,0.282024,0.236162,0.282024,0.319032,10.662486,-279.937669,30.410899,-0.784732,4.336548,-10.216811
38583,-0.132129,0.015644,0.082311,-0.02022,-0.001064,-0.003193,-0.047239,-0.0,-0.0,2.0,0.282024,0.234069,0.282024,0.320368,10.663444,-280.385958,30.452998,0.013287,4.873877,-10.373828
38603,-0.1413,0.015868,0.083662,-0.019156,-0.001064,-0.004257,-0.051818,-0.0,-0.0,2.0,0.282024,0.232507,0.282024,0.321348,10.777705,-280.843438,30.573185,0.863771,5.009846,-10.533175
38623,-0.149744,0.015819,0.084853,-0.018092,0.0,-0.003193,-0.056168,-0.0,-0.0,2.0,0.282024,0.229133,0.282024,0.323415,-1105.375266,-281.237284,-1085.613398,1.44235,4.702692,-10.694739
38643,-0.157702,0.015995,0.085951,-0.017028,0.0,-0.002128,-0.05755,-0.0,-0.0,2.0,0.282024,0.22629,0.282024,0.325107,-1090.465546,-281.195286,-1070.839492,6.505043,2.786423,-10.861459
38663,-0.165282,0.016183,0.087271,-0.015963,0.0,-0.003193,-0.060261,-0.0,-0.0,2.0,0.282024,0.226316,0.282024,0.325091,-1085.289888,-280.892618,-1065.971403,8.739493,-2.02541,-11.02433
38683,-0.172139,0.016462,0.088496,-0.014899,0.001064,-0.004257,-0.061724,-0.0,-0.0,2.0,0.282024,0.223922,0.282024,0.326481,-1084.889658,-280.417156,-1065.899453,6.980163,-7.48,-11.162635
38703,-0.178385,0.016588,0.089575,-0.012771,0.0,-0.003193,-0.065514,-0.0,-0.0,2.0,0.282024,0.223081,0.282024,0.326961,-1084.659319,-279.840952,-1065.869845,2.046205,-10.969484,-11.29366
38723,-0.184018,0.016572,0.090628,-0.011706,-0.001064,-0.003193,-0.067888,-0.0,-0.0,2.0,0.282024,0.223833,0.282024,0.326532,-1084.66553,-279.202261,-1065.867992,-3.740059,-10.84584,-11.453202
38743,-0.189158,0.016674,0.091815,-0.010642,0.0,-0.003193,-0.070146,-0.0,-0.0,2.0,0.282024,0.222668,0.282024,0.327196,-1084.889913,-278.599285,-1065.858351,-7.652965,-7.145707,-11.641954
38763,-0.19382,0.01687,0.092911,-0.009578,-0.001064,-0.003193,-0.072262,-0.0,-0.0,2.0,0.282024,0.221644,0.282024,0.327773,-1085.196392,-278.084946,-1065.871795,-7.727125,-1.640988,-11.824283
38783,-0.197851,0.017041,0.09398,-0.008514,-0.001064,-0.003193,-0.073317,-0.0,-0.0,2.0,0.282024,0.220326,0.282024,0.328508,-1085.662597,-277.615459,-1065.668861,-3.833616,2.802412,-11.982538
38803,-0.201034,0.017166,0.094938,-0.006385,0.0,-0.002128,-0.075978,-0.0,-0.0,2.0,0.282024,0.220378,0.282024,0.328479,-1085.726585,-277.113951,-1065.672198,2.004037,3.706256,-12.137839
38823,-0.203605,0.017386,0.095916,-0.005321,0.0,-0.002128,-0.07687,-0.0,-0.0,2.0,0.282024,0.219754,0.282024,0.328824,-1085.561081,-276.61296,-1065.692289,6.606153,0.469973,-12.302005
38843,-0.205805,0.017469,0.09687,-0.004257,0.0,-0.003193,-0.078556,-0.0,-0.0,2.0,0.282024,0.221903,0.282024,0.327628,-1085.276954,-276.117647,-1065.773133,7.349193,-5.158043,-12.453316
38863,-0.20714,0.017621,0.097711,-0.003193,0.001064,-0.003193,-0.080123,-0.0,-0.0,2.0,0.282024,0.222345,0.282024,0.327379,-1085.13631,-275.564999,-1065.976456,3.710603,-9.873455,-12.586048
38883,-0.207755,0.017605,0.09843,-0.001064,0.0,-0.002128,-0.08185,-0.0,-0.0,2.0,0.282024,0.225359,0.282024,0.325651,-1085.980796,-275.007985,-1066.953738,-2.201638,-10.698659,-12.735228
38903,-0.207768,0.017453,0.099267,0.0,0.0,-0.002128,-0.082582,-0.0,-0.0,2.0,0.282024,0.226076,0.282024,0.325232,-1088.166717,-275.364703,-1068.969513,-6.789838,-6.898479,-12.916322
38923,-0.207515,0.017517,0.099995,0.001064,0.0,-0.002128,-0.08374,-0.0,-0.0,2.0,0.282024,0.227185,0.282024,0.324579,-1088.428538,-275.918669,-1068.937342,-7.079326,-0.591298,-13.094086
38943,-0.206894,0.017427,0.100578,0.001064,-0.001064,-0.002128,-0.0847,-0.0,-0.0,2.0,0.282024,0.226369,0.282024,0.32506,-1088.681619,-276.446228,-1069.015135,-2.689944,4.303819,-13.248296
38963,-0.205921,0.017321,0.101186,0.001064,-0.001064,-0.001064,-0.08551,-0.0,-0.0,2.0,0.282024,0.225684,0.282024,0.325461,-1088.669715,-277.000273,-1069.13447,3.650572,4.46588,-13.406049
38983,-0.205051,0.01734,0.101786,0.001064,-0.001064,-0.001064,-0.086167,-0.0,-0.0,2.0,0.282024,0.224876,0.282024,0.325931,-1088.342975,-277.5422,-1069.292103,7.635801,-0.490841,-13.572912
39003,-0.204315,0.017366,0.102402,0.001064,0.0,-0.001064,-0.086621,-0.0,-0.0,2.0,0.282024,0.223894,0.282024,0.326497,-1087.267149,-278.093044,-1070.08019,6.272738,-7.41914,-13.717549
39023,-0.203573,0.017513,0.10303,0.001064,0.0,-0.002128,-0.086998,-0.0,-0.0,2.0,0.282024,0.222881,0.282024,0.327075,-1087.919982,-278.63117,-1069.274774,0.138684,-11.504774,-13.853952
39043,-0.202698,0.017639,0.103521,0.001064,0.0,-0.002128,-0.08721,-0.0,-0.0,2.0,0.282024,0.221857,0.282024,0.327654,-1087.993685,-279.34712,-1069.315715,-6.555767,-9.551987,-14.028787
39063,-0.201972,0.017518,0.103883,0.001064,0.0,-0.001064,-0.087265,-0.0,-0.0,2.0,0.282024,0.220665,0.282024,0.32832,-1088.305903,-279.983337,-1069.319264,-8.724088,-2.559206,-14.21942
39083,-0.201218,0.017649,0.104372,0.001064,0.0,-0.001064,-0.087235,-0.0,-0.0,2.0,0.282024,0.219439,0.282024,0.328998,-1088.529756,-280.551404,-1069.195115,-4.241013,4.448799,-14.377671
39103,-0.200485,0.017649,0.104747,0.001064,-0.001064,-0.002128,-0.087013,-0.0,-0.0,2.0,0.282024,0.218086,0.282024,0.329736,-1087.607308,-281.077593,-1068.166194,3.941942,5.969486,-14.532868
39123,-0.199619,0.017641,0.105104,0.001064,-0.001064,-0.001064,-0.086703,-0.0,-0.0,2.0,0.282024,0.216754,0.282024,0.330453,-1085.455667,-280.668031,-1066.272767,9.583501,0.418021,-14.706472
39143,-0.198778,0.017391,0.105457,0.002128,-0.001064,-0.001064,-0.086188,-0.0,-0.0,2.0,0.282024,0.215276,0.282024,0.331238,-1085.035854,-280.060998,-1066.217767,7.785767,-8.141605,-14.84923
39163,-0.197912,0.017382,0.105815,0.001064,-0.001064,-0.001064,-0.085535,-0.0,-0.0,2.0,0.282024,0.213717,0.282024,0.332054,-1084.820959,-279.336912,-1066.133312,-0.623029,-12.696336,-14.979262
39183,-0.19692,0.017475,0.106066,0.002128,-0.001064,-0.001064,-0.084731,-0.0,-0.0,2.0,0.282024,0.212126,0.282024,0.332874,-1085.049782,-278.573003,-1066.019451,-9.151227,-9.002759,-15.165587
39203,-0.195937,0.017582,0.106456,0.002128,0.0,-0.001064,-0.084227,-0.0,-0.0,2.0,0.282024,0.212975,0.282024,0.332438,-1086.948645,-277.937414,-1064.517117,-10.460869,0.564866,-15.357174
39223,-0.194709,0.017541,0.106699,0.002128,0.0,-0.001064,-0.082801,-0.0,-0.0,2.0,0.282024,0.211144,0.282024,0.333373,-1085.888459,-277.439909,-1065.908441,-2.646038,8.002089,-15.499695
39243,-0.193103,0.017724,0.106972,0.002128,0.001064,-0.001064,-0.081548,-0.0,-0.0,2.0,0.282024,0.209627,0.282024,0.334135,-1085.828259,-276.737151,-1065.90644,8.17508,6.173483,-15.665298
39263,-0.191634,0.017658,0.107098,0.003193,0.0,-0.001064,-0.080876,-0.0,-0.0,2.0,0.282024,0.210699,0.282024,0.333598,-1085.41044,-276.093803,-1065.972485,12.290879,-4.309334,-15.837659
39283,-0.189904,0.017699,0.10722,0.003193,0.0,-0.001064,-0.079422,-0.0,-0.0,2.0,0.282024,0.21145,0.282024,0.333218,-1085.197719,-275.408024,-1066.297109,4.983081,-14.428811,-15.946636
39303,-0.18783,0.01759,0.107235,0.004257,0.0,-0.001064,-0.077426,-0.0,-0.0,2.0,0.282024,0.209784,0.282024,0.334057,-1090.027155,-275.09765,-1071.202983,-7.955039,-14.112834,-16.10475
39323,-0.185623,0.017473,0.107231,0.005321,-0.001064,0.0,-0.076312,-0.0,-0.0,2.0,0.282024,0.211056,0.282024,0.333418,-1088.40584,-275.292574,-1069.110514,-14.206325,-2.174132,-16.327268
39343,-0.183158,0.017597,0.107374,0.006385,-0.001064,-0.001064,-0.074337,-0.0,-0.0,2.0,0.282024,0.209661,0.282024,0.334118,-1088.988575,-275.973044,-1069.228134,-6.497933,10.947138,-16.46591
39363,-0.180103,0.017424,0.107262,0.006385,-0.002128,0.0,-0.072328,-0.0,-0.0,2.0,0.282024,0.210924,0.282024,0.333485,-1089.04128,-276.794677,-1069.353448,9.121794,11.741519,-16.621197
39383,-0.17692,0.017367,0.107162,0.00745,-0.001064,0.0,-0.070157,-0.0,-0.0,2.0,0.282024,0.209877,0.282024,0.33401,-1088.459003,-277.53131,-1069.448214,17.09314,-2.521142,-16.830377
39403,-0.173356,0.01741,0.107056,0.00745,-0.001064,0.0,-0.069029,-0.0,-0.0,2.0,0.282024,0.212033,0.282024,0.332921,-1085.721176,-278.270884,-1071.5864,7.422893,-18.688319,-16.914529
39423,-0.169427,0.017436,0.106954,0.008514,-0.001064,0.0,-0.06605,-0.0,-0.0,2.0,0.282024,0.211006,0.282024,0.333443,-1087.758069,-278.77465,-1069.525955,-12.157032,-19.206422,-17.074579
39443,-0.165129,0.017554,0.106742,0.009578,0.0,0.0,-0.063455,-0.0,-0.0,2.0,0.282024,0.212738,0.282024,0.33256,-1088.419058,-279.658519,-1069.57151,-21.161736,-0.836021,-17.358626
39463,-0.160474,0.017523,0.106402,0.009578,0.0,0.0,-0.060889,-0.0,-0.0,2.0,0.282024,0.214704,0.282024,0.331539,-1089.040477,-280.422936,-1069.36941,-7.121942,18.590202,-17.451482
39483,-0.155318,0.017589,0.106053,0.010642,0.001064,0.0,-0.058248,-0.0,-0.0,2.0,0.282024,0.216924,0.282024,0.330362,-1081.196174,-281.233131,-1061.533616,17.607569,16.368136,-17.638998
39503,-0.149808,0.01763,0.105602,0.011706,0.001064,0.0,-0.056843,-0.0,-0.0,2.0,0.282024,0.220073,0.282024,0.328648,-1242.010604,-280.782299,-1223.276329,25.717294,-8.816928,-17.892301
39523,-0.144052,0.017538,0.105121,0.012771,0.0,0.0,-0.052893,-0.0,-0.0,2.0,0.282024,0.221887,0.282024,0.327637,-1241.28355,-279.73442,-1223.366022,3.928998,-30.491246,-17.858377
39543,-0.137689,0.017409,0.104519,0.013835,0.0,0.0,-0.051093,-0.0,-0.0,2.0,0.282024,0.225258,0.282024,0.325709,-1241.500019,-278.362943,-1223.657385,-26.449964,-21.297343,-18.15462
39563,-0.130842,0.017251,0.103794,0.014899,-0.001064,0.001064,-0.048067,-0.0,-0.0,2.0,0.282024,0.2282,0.282024,0.323975,-1242.981374,-277.589253,-1223.394501,-29.398101,13.815278,-18.462081
39583,-0.12386,0.017335,0.103078,0.015963,-0.002128,0.001064,-0.04496,-0.0,-0.0,2.0,0.282024,0.231162,0.282024,0.32218,-1243.766126,-276.354768,-1223.398423,5.224418,34.918131,-18.391714
39603,-0.116276,0.017272,0.10235,0.017028,-0.002128,0.001064,-0.041725,-0.0,-0.0,2.0,0.282024,0.23242,0.282024,0.321402,-1243.04871,-274.964167,-1223.605552,39.895607,11.369123,-18.87235
39623,-0.10833,0.017183,0.101373,0.017028,-0.002128,0.002128,-0.039938,-0.0,-0.0,2.0,0.282024,0.236592,0.282024,0.318754,-1241.183761,-274.013269,-1223.340077,28.00495,-36.01362,-18.881206
39643,-0.100134,0.017212,0.100394,0.018092,-0.001064,0.002128,-0.035335,-0.0,-0.0,2.0,0.282024,0.239422,0.282024,0.316898,-1240.718484,-272.214186,-1224.165897,-24.621716,-47.113663,-18.836654
39663,-0.091451,0.017224,0.099405,0.019156,0.0,0.002128,-0.031922,-0.0,-0.0,2.0,0.282024,0.241249,0.282024,0.315673,-1231.747317,-271.813189,-1234.829092,-55.44781,1.755433,-19.699563
39683,-0.082289,0.017211,0.09818,0.019156,0.0,0.002128,-0.028493,-0.0,-0.0,2.0,0.282024,0.245157,0.282024,0.312982,-1234.94215,-271.843976,-1233.500159,-13.39993,57.354844,-19.262143
39703,-0.073128,0.017087,0.096919,0.02022,0.0,0.002128,-0.024976,-0.0,-0.0,2.0,0.282024,0.248996,0.282024,0.310241,-1224.378939,-270.598961,-1243.401859,57.96611,38.755558,-19.898836
39723,-0.063228,0.017183,0.095671,0.021285,0.0,0.002128,-0.022313,-0.0,-0.0,2.0,0.282024,0.253555,0.282024,0.306855,-1221.673444,-269.453662,-1242.875475,60.695395,-48.053392,-20.317744
39743,-0.053343,0.017041,0.094158,0.022349,-0.001064,0.002128,-0.018317,-0.0,-0.0,2.0,0.282024,0.255781,0.282024,0.305148,-1219.11627,-270.840065,-1241.299724,-30.629447,-85.831166,-19.427071
39763,-0.043206,0.017026,0.092756,0.022349,-0.001064,0.002128,-0.014724,-0.0,-0.0,2.0,0.282024,0.258342,0.282024,0.30314,-1227.177815,-273.47076,-1235.952172,-100.007568,-3.618065,-21.737229
39783,-0.032586,0.017001,0.091231,0.022349,-0.001064,0.002128,-0.011072,-0.0,-0.0,2.0,0.282024,0.262752,0.282024,0.299565,-1231.956022,-273.563287,-1238.112651,-22.875244,109.774846,-19.9961
39803,-0.021972,0.016868,0.08969,0.022349,0.0,0.002128,-0.009235,-0.0,-0.0,2.0,0.282024,0.267909,0.282024,0.29519,-1048.711704,-270.94713,-1418.641148,114.82485,68.579422,-22.074163
39823,-0.010983,0.016979,0.088028,0.023413,0.0,0.003193,-0.00542,-0.0,-0.0,2.0,0.282024,0.270796,0.282024,0.292643,-1043.332296,-269.67814,-1417.064686,96.408339,-121.658598,-22.120391
39843,0.000123,0.016979,0.086469,0.024477,-0.001064,0.002128,-0.002131,-0.0,-0.0,2.0,0.282024,0.275498,0.282024,0.28834,-1047.326505,-270.235652,-1413.348897,-103.913964,-154.720889,-20.796532
39863,0.011467,0.016864,0.084665,0.024477,-0.001064,0.002128,0.001807,-0.0,-0.0,2.0,0.282024,0.278515,0.282024,0.285471,-1054.598274,-270.282859,-1415.277833,-194.175225,102.288889,-27.464442
39883,0.023059,0.016879,0.082841,0.024477,-0.001064,0.003193,0.005511,-0.0,-0.0,2.0,0.282024,0.280282,0.282024,0.283751,-1048.015426,-270.250117,-1401.648807,98.669544,255.045513,-19.457493
39903,0.034653,0.016914,0.081016,0.024477,0.0,0.003193,0.009192,-0.0,-0.0,2.0,0.282024,0.285019,0.282024,0.278983,-1025.301464,-268.791523,-1384.452491,331.579967,-129.24062,-37.206911
39923,0.04612,0.01685,0.079179,0.024477,0.0,0.003193,0.013016,-0.0,-0.0,2.0,0.282024,0.289617,0.282024,0.274125,-1008.483091,-264.509654,-1378.56592,-170.703315,-449.093761,-19.156228
39943,0.057717,0.016923,0.077337,0.024477,0.0,0.003193,0.016196,-0.0,-0.0,2.0,0.282024,0.291709,0.282024,0.271835,-1029.694089,-261.126633,-1372.2079,-513.534386,796.076695,-55.348934
39963,0.069307,0.016776,0.07538,0.024477,0.0,0.003193,0.020085,-0.0,-0.0,2.0,0.282024,0.294964,0.282024,0.268168,-1024.557846,-259.871636,-1397.959103,1793.314143,532.220522,-192.935664
39983,0.08078,0.016775,0.073408,0.023413,0.0,0.003193,0.021883,-0.0,-0.0,2.0,0.282024,0.298965,0.282024,0.263474,8789.965459,-3286.39402,-9202.379228,-922000033.380792,-857067452.971228,84232902.299816
40003,0.092128,0.016671,0.071551,0.023413,0.0,0.003193,0.025455,-0.0,-0.0,2.0,0.282024,0.299771,0.282024,0.262502,-2.25155441883817e+25,1.928617068718023e+25,-8.797205407137123e+24,6.984278007439674e+51,-7.408635644389378e+51,-7.0401884801985455e+50
40023,0.102989,0.016481,0.069711,0.023413,0.0,0.002128,0.028942,-0.0,-0.0,2.0,0.282024,0.304195,0.282024,0.257004,,,,,,
40043,0.113737,0.016558,0.067851,0.022349,0.0,0.002128,0.030673,-0.0,-0.0,2.0,0.282024,0.306722,0.282024,0.25373,,,,,,
40063,0.124244,0.016546,0.065883,0.021285,0.0,0.003193,0.03549,-0.0,-0.0,2.0,0.282024,0.308129,0.282024,0.251863,,,,,,
40083,0.134144,0.016549,0.064282,0.02022,0.0,0.003193,0.038955,-0.0,-0.0,2.0,0.282024,0.309838,0.282024,0.249549,,,,,,
40103,0.143561,0.016712,0.062553,0.019156,0.0,0.002128,0.042167,-0.0,-0.0,2.0,0.282024,0.311511,0.282024,0.247234,,,,,,
40123,0.152483,0.016661,0.060844,0.017028,0.0,0.002128,0.045374,-0.0,-0.0,2.0,0.282024,0.313058,0.282024,0.245049,,,,,,
40143,0.160797,0.016643,0.059143,0.017028,0.0,0.003193,0.047518,-0.0,-0.0,2.0,0.282024,0.314799,0.282024,0.242535,,,,,,
40163,0.168623,0.016501,0.057822,0.015963,0.0,0.003193,0.051245,-0.0,-0.0,2.0,0.282024,0.315876,0.282024,0.24095,,,,,,
40183,0.175708,0.0164,0.056381,0.013835,0.0,0.001064,0.054177,-0.0,-0.0,2.0,0.282024,0.317002,0.282024,0.239266,,,,,,
40203,0.182196,0.016327,0.054962,0.012771,0.0,0.002128,0.056998,-0.0,-0.0,2.0,0.282024,0.316757,0.282024,0.239634,,,,,,
40223,0.188185,0.016143,0.053674,0.011706,0.0,0.002128,0.058388,-0.0,-0.0,2.0,0.282024,0.318098,0.282024,0.237601,,,,,,
40243,0.193452,0.016219,0.052499,0.009578,0.0,0.002128,0.0611,-0.0,-0.0,2.0,0.282024,0.318784,0.282024,0.236546,,,,,,
40263,0.197979,0.016308,0.05145,0.008514,0.0,0.001064,0.063379,-0.0,-0.0,2.0,0.282024,0.318158,0.282024,0.237509,,,,,,
40283,0.201895,0.016309,0.050304,0.00745,0.0,0.001064,0.06585,-0.0,-0.0,2.0,0.282024,0.318515,0.282024,0.236961,,,,,,
40303,0.205086,0.016444,0.049281,0.005321,0.0,0.001064,0.068207,-0.0,-0.0,2.0,0.282024,0.317446,0.282024,0.238595,,,,,,
40323,0.207652,0.016342,0.048408,0.004257,0.0,0.001064,0.07044,-0.0,-0.0,2.0,0.282024,0.31745,0.282024,0.238588,,,,,,
40343,0.209481,0.01637,0.047651,0.002128,0.0,0.001064,0.073023,-0.0,-0.0,2.0,0.282024,0.315849,0.282024,0.24099,,,,,,
40363,0.210577,0.016175,0.046935,0.001064,0.0,0.001064,0.074213,-0.0,-0.0,2.0,0.282024,0.315709,0.282024,0.241196,,,,,,
40383,0.211055,0.016118,0.04621,0.0,0.0,0.001064,0.076184,-0.0,-0.0,2.0,0.282024,0.315093,0.282024,0.242104,,,,,,
40403,0.210928,0.016052,0.04574,-0.001064,0.0,0.001064,0.07791,-0.0,-0.0,2.0,0.282024,0.314341,0.282024,0.243202,,,,,,
40423,0.210424,0.015994,0.045269,-0.002128,0.0,0.0,0.079495,-0.0,-0.0,2.0,0.282024,0.31349,0.282024,0.244431,,,,,,
40443,0.209435,0.01596,0.044687,-0.002128,-0.001064,0.0,0.080234,-0.0,-0.0,2.0,0.282024,0.314004,0.282024,0.243691,,,,,,
40463,0.208583,0.01602,0.04434,-0.002128,0.0,0.0,0.081149,-0.0,-0.0,2.0,0.282024,0.313232,0.282024,0.244801,,,,,,
40483,0.207596,0.016095,0.043866,-0.003193,0.0,0.0,0.082921,-0.0,-0.0,2.0,0.282024,0.313362,0.282024,0.244615,,,,,,
40503,0.20661,0.016156,0.043513,-0.002128,-0.001064,0.0,0.084045,-0.0,-0.0,2.0,0.282024,0.314946,0.282024,0.24232,,,,,,
40523,0.205624,0.016217,0.043161,-0.002128,0.0,0.0,0.084961,-0.0,-0.0,2.0,0.282024,0.314074,0.282024,0.243589,,,,,,
40543,0.204515,0.016147,0.042944,-0.003193,0.0,0.0,0.085723,-0.0,-0.0,2.0,0.282024,0.314452,0.282024,0.24304,,,,,,
40563,0.203648,0.016083,0.042601,-0.002128,0.0,0.0,0.086217,-0.0,-0.0,2.0,0.282024,0.316235,0.282024,0.240415,,,,,,
40583,0.202661,0.015996,0.042503,-0.002128,0.0,0.0,0.086828,-0.0,-0.0,2.0,0.282024,0.31543,0.282024,0.241609,,,,,,
40603,0.201552,0.015925,0.042286,-0.003193,0.0,0.0,0.086995,-0.0,-0.0,2.0,0.282024,0.315967,0.282024,0.240814,,,,,,
40623,0.200568,0.01596,0.042175,-0.003193,-0.001064,0.0,0.087213,-0.0,-0.0,2.0,0.282024,0.317757,0.282024,0.238123,,,,,,
40643,0.199474,0.015999,0.042074,-0.003193,0.0,0.0,0.087264,-0.0,-0.0,2.0,0.282024,0.317077,0.282024,0.239154,,,,,,
40663,0.198247,0.016039,0.041968,-0.003193,0.0,0.0,0.087135,-0.0,-0.0,2.0,0.282024,0.317641,0.282024,0.238299,,,,,,
40683,0.197019,0.016079,0.041862,-0.003193,-0.001064,0.0,0.086906,-0.0,-0.0,2.0,0.282024,0.318229,0.282024,0.237401,,,,,,
40703,0.195778,0.015985,0.041881,-0.003193,0.0,-0.001064,0.086451,-0.0,-0.0,2.0,0.282024,0.318879,0.282024,0.2364,,,,,,
40723,0.194187,0.016034,0.041781,-0.004257,0.0,0.0,0.085869,-0.0,-0.0,2.0,0.282024,0.318216,0.282024,0.237421,,,,,,
40743,0.192472,0.015952,0.041817,-0.005321,0.0,-0.001064,0.08552,-0.0,-0.0,2.0,0.282024,0.318657,0.282024,0.236743,,,,,,
40763,0.190624,0.015872,0.041846,-0.005321,0.0,-0.001064,0.084714,-0.0,-0.0,2.0,0.282024,0.319194,0.282024,0.23591,,,,,,
40783,0.188426,0.015911,0.042,-0.005321,0.0,-0.001064,0.084245,-0.0,-0.0,2.0,0.282024,0.318264,0.282024,0.237347,,,,,,
40803,0.18597,0.015846,0.04204,-0.006385,0.0,-0.001064,0.082722,-0.0,-0.0,2.0,0.282024,0.317586,0.282024,0.238383,,,,,,
40823,0.183275,0.015896,0.042194,-0.006385,-0.001064,-0.001064,0.081493,-0.0,-0.0,2.0,0.282024,0.317955,0.282024,0.23782,,,,,,
40843,0.180336,0.015953,0.042352,-0.00745,0.0,-0.001064,0.080105,-0.0,-0.0,2.0,0.282024,0.317048,0.282024,0.239197,,,,,,
40863,0.177022,0.016018,0.042509,-0.008514,-0.001064,-0.001064,0.078579,-0.0,-0.0,2.0,0.282024,0.317286,0.282024,0.238837,,,,,,
40883,0.173595,0.015965,0.042685,-0.008514,-0.001064,-0.001064,0.077668,-0.0,-0.0,2.0,0.282024,0.316021,0.282024,0.240735,,,,,,
40903,0.169793,0.01591,0.042981,-0.009578,0.0,-0.001064,0.075177,-0.0,-0.0,2.0,0.282024,0.31514,0.282024,0.242035,,,,,,
40923,0.165505,0.015867,0.043283,-0.009578,-0.001064,-0.001064,0.073191,-0.0,-0.0,2.0,0.282024,0.315161,0.282024,0.242005,,,,,,
40943,0.161216,0.015835,0.043464,-0.010642,0.0,-0.001064,0.071138,-0.0,-0.0,2.0,0.282024,0.313931,0.282024,0.243795,,,,,,
40963,0.15632,0.015809,0.043774,-0.010642,0.0,-0.001064,0.068938,-0.0,-0.0,2.0,0.282024,0.312519,0.282024,0.245816,,,,,,
40983,0.151302,0.015786,0.044085,-0.011706,-0.001064,-0.001064,0.067719,-0.0,-0.0,2.0,0.282024,0.311963,0.282024,0.246601,,,,,,
41003,0.146041,0.015761,0.04452,-0.012771,-0.001064,-0.001064,0.065639,-0.0,-0.0,2.0,0.282024,0.310315,0.282024,0.248895,,,,,,
41023,0.140295,0.01588,0.04483,-0.012771,-0.001064,-0.001064,0.063098,-0.0,-0.0,2.0,0.282024,0.309902,0.282024,0.249461,,,,,,
41043,0.134417,0.015873,0.045263,-0.013835,-0.001064,-0.001064,0.060471,-0.0,-0.0,2.0,0.282024,0.308161,0.282024,0.25182,,,,,,
41063,0.128304,0.015874,0.045706,-0.013835,0.0,-0.001064,0.057781,-0.0,-0.0,2.0,0.282024,0.307613,0.282024,0.252551,,,,,,
41083,0.121822,0.015764,0.046159,-0.014899,0.0,-0.001064,0.054223,-0.0,-0.0,2.0,0.282024,0.305914,0.282024,0.254788,,,,,,
41103,0.115097,0.015662,0.046612,-0.014899,0.0,-0.001064,0.052465,-0.0,-0.0,2.0,0.282024,0.304755,0.282024,0.256287,,,,,,
41123,0.108009,0.015687,0.047182,-0.015963,0.0,-0.002128,0.049099,-0.0,-0.0,2.0,0.282024,0.302678,0.282024,0.258922,,,,,,
41143,0.100799,0.015723,0.047629,-0.017028,-0.001064,-0.001064,0.046012,-0.0,-0.0,2.0,0.282024,0.300401,0.282024,0.261737,,,,,,
41163,0.093224,0.015766,0.0482,-0.017028,-0.001064,-0.001064,0.042838,-0.0,-0.0,2.0,0.282024,0.299307,0.282024,0.263063,,,,,,
41183,0.085406,0.015818,0.04877,-0.018092,-0.001064,-0.002128,0.039607,-0.0,-0.0,2.0,0.282024,0.296745,0.282024,0.266104,,,,,,
41203,0.077344,0.015879,0.049339,-0.018092,-0.001064,-0.001064,0.037956,-0.0,-0.0,2.0,0.282024,0.294799,0.282024,0.268357,,,,,,
41223,0.068921,0.015954,0.049918,-0.019156,-0.001064,-0.001064,0.034537,-0.0,-0.0,2.0,0.282024,0.293308,0.282024,0.27005,,,,,,
41243,0.060376,0.016032,0.050616,-0.019156,-0.001064,-0.002128,0.031069,-0.0,-0.0,2.0,0.282024,0.290336,0.282024,0.273344,,,,,,
41263,0.051709,0.016121,0.051188,-0.02022,-0.001064,-0.001064,0.02757,-0.0,-0.0,2.0,0.282024,0.287236,0.282024,0.27667,,,,,,
41283,0.042674,0.016099,0.051885,-0.02022,0.0,-0.002128,0.025486,-0.0,-0.0,2.0,0.282024,0.284778,0.282024,0.279231,,,,,,
41303,0.033641,0.016082,0.052584,-0.02022,-0.001064,-0.002128,0.020541,-0.0,-0.0,2.0,0.282024,0.283362,0.282024,0.280677,,,,,,
41323,0.024487,0.016074,0.053278,-0.02022,-0.001064,-0.002128,0.016946,-0.0,-0.0,2.0,0.282024,0.279834,0.282024,0.28419,,,,,,
41343,0.01521,0.016074,0.053966,-0.021285,-0.001064,-0.002128,0.013314,-0.0,-0.0,2.0,0.282024,0.279139,0.282024,0.284868,,,,,,
41363,0.005938,0.016201,0.054657,-0.021285,-0.001064,-0.001064,0.009674,-0.0,-0.0,2.0,0.282024,0.275389,0.282024,0.288442,,,,,,
41383,-0.003455,0.016338,0.055465,-0.021285,-0.001064,-0.002128,0.007862,-0.0,-0.0,2.0,0.282024,0.273756,0.282024,0.289958,,,,,,
41403,-0.012849,0.01648,0.056156,-0.021285,-0.001064,-0.002128,0.002786,-0.0,-0.0,2.0,0.282024,0.271865,0.282024,0.291682,,,,,,
41423,-0.021999,0.016622,0.05696,-0.02022,0.0,-0.002128,-0.000871,-0.0,-0.0,2.0,0.282024,0.26784,0.282024,0.29525,,,,,,
41443,-0.031153,0.016647,0.057635,-0.02022,0.0,-0.002128,-0.00272,-0.0,-0.0,2.0,0.282024,0.266072,0.282024,0.296773,,,,,,
41463,-0.040306,0.016678,0.058424,-0.02022,-0.001064,-0.001064,-0.006385,-0.0,-0.0,2.0,0.282024,0.263398,0.282024,0.299028,,,,,,
41483,-0.049338,0.016713,0.059216,-0.02022,0.0,-0.003193,-0.010908,-0.0,-0.0,2.0,0.282024,0.261061,0.282024,0.300954,,,,,,
41503,-0.058006,0.01674,0.059878,-0.019156,0.0,-0.001064,-0.013264,-0.0,-0.0,2.0,0.282024,0.259479,0.282024,0.302232,,,,,,
41523,-0.066677,0.016777,0.060666,-0.018092,-0.001064,-0.002128,-0.016948,-0.0,-0.0,2.0,0.282024,0.256746,0.282024,0.304397,,,,,,
41543,-0.074974,0.01693,0.061439,-0.018092,-0.001064,-0.002128,-0.020568,-0.0,-0.0,2.0,0.282024,0.254054,0.282024,0.306475,,,,,,
41563,-0.083033,0.017076,0.062096,-0.018092,0.0,-0.002128,-0.024108,-0.0,-0.0,2.0,0.282024,0.253062,0.282024,0.307228,,,,,,
41583,-0.090726,0.017216,0.062747,-0.017028,-0.001064,-0.001064,-0.025878,-0.0,-0.0,2.0,0.282024,0.251345,0.282024,0.308514,,,,,,
41603,-0.098172,0.017365,0.063636,-0.015963,-0.001064,-0.002128,-0.028515,-0.0,-0.0,2.0,0.282024,0.250072,0.282024,0.309455,,,,,,
41623,-0.105255,0.017496,0.064277,-0.014899,-0.001064,-0.002128,-0.03377,-0.0,-0.0,2.0,0.282024,0.248406,0.282024,0.310669,,,,,,
41643,-0.111972,0.017626,0.065035,-0.014899,-0.001064,-0.002128,-0.037116,-0.0,-0.0,2.0,0.282024,0.247726,0.282024,0.311159,,,,,,
41663,-0.118328,0.01762,0.065661,-0.013835,0.0,-0.002128,-0.040397,-0.0,-0.0,2.0,0.282024,0.247146,0.282024,0.311575,,,,,,
41683,-0.124442,0.01774,0.066424,-0.012771,0.0,-0.001064,-0.043793,-0.0,-0.0,2.0,0.282024,0.244906,0.282024,0.313158,,,,,,
41703,-0.130183,0.017852,0.067172,-0.012771,-0.001064,-0.002128,-0.046602,-0.0,-0.0,2.0,0.282024,0.244312,0.282024,0.313573,,,,,,
41723,-0.135565,0.017825,0.067788,-0.011706,-0.001064,-0.002128,-0.049694,-0.0,-0.0,2.0,0.282024,0.243998,0.282024,0.313791,,,,,,
41743,-0.140461,0.017778,0.06828,-0.010642,-0.001064,-0.001064,-0.052666,-0.0,-0.0,2.0,0.282024,0.242009,0.282024,0.315158,,,,,,
41763,-0.145107,0.017864,0.069022,-0.010642,0.0,-0.001064,-0.054161,-0.0,-0.0,2.0,0.282024,0.241201,0.282024,0.315706,,,,,,
41783,-0.149264,0.018049,0.069651,-0.009578,0.0,-0.002128,-0.056988,-0.0,-0.0,2.0,0.282024,0.241267,0.282024,0.315661,,,,,,
41803,-0.153289,0.018232,0.070267,-0.008514,0.0,-0.002128,-0.058478,-0.0,-0.0,2.0,0.282024,0.240707,0.282024,0.316039,,,,,,
41823,-0.156843,0.018271,0.070766,-0.00745,0.0,-0.002128,-0.062214,-0.0,-0.0,2.0,0.282024,0.239635,0.282024,0.316756,,,,,,
41843,-0.159904,0.018181,0.071364,-0.006385,-0.001064,-0.001064,-0.064788,-0.0,-0.0,2.0,0.282024,0.24008,0.282024,0.316459,,,,,,
41863,-0.162834,0.018333,0.071981,-0.006385,-0.001064,-0.001064,-0.067185,-0.0,-0.0,2.0,0.282024,0.240494,0.282024,0.316182,,,,,,
41883,-0.165284,0.018337,0.072469,-0.005321,0.0,-0.002128,-0.069476,-0.0,-0.0,2.0,0.282024,0.241087,0.282024,0.315783,,,,,,
41903,-0.167355,0.018451,0.072955,-0.005321,0.0,-0.002128,-0.070625,-0.0,-0.0,2.0,0.282024,0.24129,0.282024,0.315646,,,,,,
41923,-0.169314,0.018562,0.073455,-0.004257,0.0,-0.001064,-0.072851,-0.0,-0.0,2.0,0.282024,0.240231,0.282024,0.316359,,,,,,
41943,-0.170896,0.018671,0.074064,-0.003193,-0.001064,-0.001064,-0.074965,-0.0,-0.0,2.0,0.282024,0.24116,0.282024,0.315734,,,,,,
41963,-0.172244,0.018629,0.074422,-0.003193,-0.001064,-0.002128,-0.076787,-0.0,-0.0,2.0,0.282024,0.240211,0.282024,0.316372,,,,,,
41983,-0.173103,0.018581,0.074904,-0.002128,-0.001064,-0.001064,-0.078465,-0.0,-0.0,2.0,0.282024,0.239436,0.282024,0.316889,,,,,,
42003,-0.173831,0.018528,0.075373,-0.002128,0.0,-0.001064,-0.080038,-0.0,-0.0,2.0,0.282024,0.240547,0.282024,0.316147,,,,,,
42023,-0.174328,0.018457,0.075736,-0.001064,0.0,-0.001064,-0.081322,-0.0,-0.0,2.0,0.282024,0.24163,0.282024,0.315416,,,,,,
42043,-0.174566,0.018497,0.076098,-0.001064,0.0,-0.001064,-0.082612,-0.0,-0.0,2.0,0.282024,0.242846,0.282024,0.314586,,,,,,
42063,-0.174566,0.018408,0.076451,0.0,0.0,-0.001064,-0.083734,-0.0,-0.0,2.0,0.282024,0.24228,0.282024,0.314973,,,,,,
42083,-0.174315,0.018541,0.076706,0.0,-0.001064,-0.001064,-0.084694,-0.0,-0.0,2.0,0.282024,0.241767,0.282024,0.315322,,,,,,
42103,-0.174072,0.018443,0.07706,0.0,-0.001064,-0.001064,-0.085119,-0.0,-0.0,2.0,0.282024,0.240994,0.282024,0.315846,,,,,,
42123,-0.173943,0.018581,0.077314,0.0,-0.001064,-0.001064,-0.086115,-0.0,-0.0,2.0,0.282024,0.240459,0.282024,0.316206,,,,,,
42143,-0.173692,0.018714,0.077569,0.0,0.0,-0.001064,-0.086419,-0.0,-0.0,2.0,0.282024,0.239644,0.282024,0.316751,,,,,,
42163,-0.173689,0.018736,0.077811,-0.001064,0.0,-0.001064,-0.086858,-0.0,-0.0,2.0,0.282024,0.238775,0.282024,0.317327,,,,,,
42183,-0.173687,0.018746,0.077932,-0.001064,0.0,-0.001064,-0.087135,-0.0,-0.0,2.0,0.282024,0.237823,0.282024,0.317953,,,,,,
42203,-0.173684,0.018767,0.078175,0.0,-0.001064,-0.001064,-0.08726,-0.0,-0.0,2.0,0.282024,0.234879,0.282024,0.319854,,,,,,
42223,-0.173809,0.018661,0.078284,-0.001064,-0.001064,-0.001064,-0.087204,-0.0,-0.0,2.0,0.282024,0.233664,0.282024,0.320623,,,,,,
42243,-0.173691,0.018545,0.078396,0.0,-0.001064,0.0,-0.087059,-0.0,-0.0,2.0,0.282024,0.232517,0.282024,0.321341,,,,,,
42263,-0.173684,0.018677,0.078528,0.0,-0.001064,0.0,-0.086671,-0.0,-0.0,2.0,0.282024,0.231171,0.282024,0.322174,,,,,,
42283,-0.173561,0.018683,0.07865,-0.001064,0.0,-0.001064,-0.086167,-0.0,-0.0,2.0,0.282024,0.231783,0.282024,0.321797,,,,,,
42303,-0.173318,0.018674,0.078652,0.0,0.0,-0.001064,-0.085859,-0.0,-0.0,2.0,0.282024,0.23059,0.282024,0.32253,,,,,,
42323,-0.172949,0.018782,0.078665,0.0,0.0,-0.001064,-0.08512,-0.0,-0.0,2.0,0.282024,0.229219,0.282024,0.323363,,,,,,
42343,-0.172463,0.018764,0.078669,0.001064,-0.001064,0.0,-0.084681,-0.0,-0.0,2.0,0.282024,0.22806,0.282024,0.324059,,,,,,
42363,-0.171966,0.018744,0.078658,0.001064,-0.001064,0.0,-0.083292,-0.0,-0.0,2.0,0.282024,0.228392,0.282024,0.32386,,,,,,
42383,-0.171482,0.018715,0.07854,0.001064,-0.001064,0.0,-0.082132,-0.0,-0.0,2.0,0.282024,0.224763,0.282024,0.325996,,,,,,
42403,-0.170864,0.018691,0.078531,0.001064,-0.001064,0.0,-0.080806,-0.0,-0.0,2.0,0.282024,0.223115,0.282024,0.326942,,,,,,
42423,-0.170136,0.018653,0.078415,0.001064,0.0,0.0,-0.07935,-0.0,-0.0,2.0,0.282024,0.22352,0.282024,0.326711,,,,,,
42443,-0.169392,0.018746,0.078416,0.001064,0.001064,-0.001064,-0.078489,-0.0,-0.0,2.0,0.282024,0.222173,0.282024,0.327475,,,,,,
42463,-0.168286,0.018805,0.078178,0.002128,0.0,-0.001064,-0.075822,-0.0,-0.0,2.0,0.282024,0.222089,0.282024,0.327523,,,,,,
42483,-0.167194,0.018754,0.078064,0.002128,0.0,0.0,-0.074859,-0.0,-0.0,2.0,0.282024,0.220845,0.282024,0.32822,,,,,,
42503,-0.165854,0.018561,0.077807,0.003193,-0.001064,0.0,-0.072918,-0.0,-0.0,2.0,0.282024,0.221295,0.282024,0.327969,,,,,,
42523,-0.164261,0.018612,0.077692,0.003193,-0.001064,0.0,-0.070836,-0.0,-0.0,2.0,0.282024,0.219674,0.282024,0.328868,,,,,,
42543,-0.162421,0.018522,0.077433,0.004257,-0.001064,0.0,-0.068602,-0.0,-0.0,2.0,0.282024,0.220231,0.282024,0.328561,,,,,,
42563,-0.160226,0.01842,0.077191,0.004257,-0.001064,0.0,-0.066536,-0.0,-0.0,2.0,0.282024,0.218945,0.282024,0.329268,,,,,,
42583,-0.157773,0.01843,0.076945,0.005321,-0.001064,0.0,-0.064031,-0.0,-0.0,2.0,0.282024,0.217539,0.282024,0.330032,,,,,,
42603,-0.15496,0.018305,0.07669,0.005321,0.0,0.0,-0.061449,-0.0,-0.0,2.0,0.282024,0.218464,0.282024,0.329531,,,,,,
42623,-0.151774,0.018402,0.076335,0.006385,0.0,0.0,-0.058783,-0.0,-0.0,2.0,0.282024,0.219554,0.282024,0.328935,,,,,,
42643,-0.148107,0.01836,0.075971,0.00745,0.0,0.0,-0.055881,-0.0,-0.0,2.0,0.282024,0.220782,0.282024,0.328255,,,,,,
42663,-0.144187,0.01831,0.075592,0.008514,0.0,0.0,-0.053296,-0.0,-0.0,2.0,0.282024,0.222337,0.282024,0.327383,,,,,,
42683,-0.139534,0.018347,0.075102,0.009578,0.0,0.0,-0.050334,-0.0,-0.0,2.0,0.282024,0.22409,0.282024,0.326384,,,,,,
42703,-0.134644,0.018249,0.074481,0.010642,-0.001064,0.0,-0.047287,-0.0,-0.0,2.0,0.282024,0.227961,0.282024,0.324118,,,,,,
42723,-0.12914,0.018261,0.073988,0.012771,-0.001064,0.001064,-0.045701,-0.0,-0.0,2.0,0.282024,0.228908,0.282024,0.323551,,,,,,
42743,-0.123158,0.018007,0.073356,0.013835,-0.001064,0.001064,-0.042532,-0.0,-0.0,2.0,0.282024,0.23128,0.282024,0.322107,,,,,,
42763,-0.116808,0.017858,0.072607,0.013835,-0.001064,0.001064,-0.040797,-0.0,-0.0,2.0,0.282024,0.234602,0.282024,0.32003,,,,,,
42783,-0.109954,0.017946,0.071976,0.014899,-0.001064,0.001064,-0.036089,-0.0,-0.0,2.0,0.282024,0.234717,0.282024,0.319957,,,,,,
42803,-0.102629,0.017773,0.071219,0.015963,0.0,0.001064,-0.03271,-0.0,-0.0,2.0,0.282024,0.239575,0.282024,0.316797,,,,,,
42823,-0.095053,0.017834,0.070346,0.015963,0.0,0.001064,-0.029286,-0.0,-0.0,2.0,0.282024,0.242616,0.282024,0.314743,,,,,,
42843,-0.086988,0.017761,0.069448,0.018092,0.0,0.001064,-0.025805,-0.0,-0.0,2.0,0.282024,0.244058,0.282024,0.313749,,,,,,
42863,-0.078564,0.017679,0.068433,0.018092,0.0,0.001064,-0.021927,-0.0,-0.0,2.0,0.282024,0.247306,0.282024,0.31146,,,,,,
42883,-0.069775,0.017593,0.06741,0.019156,-0.001064,0.002128,-0.018758,-0.0,-0.0,2.0,0.282024,0.251052,0.282024,0.308732,,,,,,
42903,-0.060749,0.017386,0.066386,0.02022,-0.001064,0.002128,-0.015153,-0.0,-0.0,2.0,0.282024,0.252979,0.282024,0.307291,,,,,,
42923,-0.051355,0.017172,0.065221,0.02022,-0.001064,0.001064,-0.011538,-0.0,-0.0,2.0,0.282024,0.256796,0.282024,0.304358,,,,,,
42943,-0.04159,0.0172,0.064063,0.021285,0.0,0.002128,-0.009723,-0.0,-0.0,2.0,0.282024,0.261562,0.282024,0.300544,,,,,,
42963,-0.031463,0.017105,0.062891,0.021285,0.0,0.002128,-0.005796,-0.0,-0.0,2.0,0.282024,0.265524,0.282024,0.29724,,,,,,
42983,-0.021217,0.017017,0.0616,0.022349,0.0,0.001064,-0.002548,-0.0,-0.0,2.0,0.282024,0.268241,0.282024,0.2949,,,,,,
43003,-0.010478,0.017047,0.060295,0.023413,-0.001064,0.002128,0.001179,-0.0,-0.0,2.0,0.282024,0.270994,0.282024,0.292466,,,,,,
43023,0.000378,0.016964,0.058979,0.023413,-0.001064,0.002128,0.004859,-0.0,-0.0,2.0,0.282024,0.275366,0.282024,0.288464,,,,,,
43043,0.011604,0.017006,0.05766,0.024477,0.0,0.002128,0.008518,-0.0,-0.0,2.0,0.282024,0.278383,0.282024,0.285599,,,,,,
43063,0.022949,0.016938,0.056218,0.024477,0.0,0.002128,0.012682,-0.0,-0.0,2.0,0.282024,0.282734,0.282024,0.281312,,,,,,
43083,0.034291,0.016759,0.05489,0.024477,0.0,0.002128,0.015888,-0.0,-0.0,2.0,0.282024,0.286005,0.282024,0.277961,,,,,,
43103,0.045877,0.016589,0.05343,0.024477,0.0,0.002128,0.017939,-0.0,-0.0,2.0,0.282024,0.289838,0.282024,0.273886,,,,,,
43123,0.057464,0.016435,0.051971,0.024477,0.0,0.002128,0.021597,-0.0,-0.0,2.0,0.282024,0.293082,0.282024,0.270304,,,,,,
43143,0.068815,0.016424,0.050512,0.024477,0.0,0.002128,0.025156,-0.0,-0.0,2.0,0.282024,0.296297,0.282024,0.266627,,,,,,
43163,0.08017,0.016544,0.049161,0.024477,-0.001064,0.002128,0.028649,-0.0,-0.0,2.0,0.282024,0.29956,0.282024,0.262757,,,,,,
43183,0.091402,0.016438,0.047823,0.024477,0.0,0.001064,0.033069,-0.0,-0.0,2.0,0.282024,0.301138,0.282024,0.260834,,,,,,
43203,0.102517,0.016596,0.046344,0.023413,0.0,0.002128,0.035018,-0.0,-0.0,2.0,0.282024,0.304926,0.282024,0.256067,,,,,,
43223,0.113514,0.016644,0.044996,0.022349,0.0,0.002128,0.038391,-0.0,-0.0,2.0,0.282024,0.306894,0.282024,0.253503,,,,,,
43243,0.124145,0.016575,0.043896,0.022349,0.0,0.001064,0.041646,-0.0,-0.0,2.0,0.282024,0.310106,0.282024,0.249182,,,,,,
43263,0.134288,0.016543,0.042555,0.021285,0.0,0.001064,0.044829,-0.0,-0.0,2.0,0.282024,0.311928,0.282024,0.24665,,,,,,
43283,0.144063,0.016392,0.041468,0.02022,0.0,0.001064,0.046414,-0.0,-0.0,2.0,0.282024,0.314219,0.282024,0.243379,,,,,,
43303,0.153483,0.016259,0.04039,0.019156,0.0,0.001064,0.050818,-0.0,-0.0,2.0,0.282024,0.315475,0.282024,0.241542,,,,,,
43323,0.162419,0.016256,0.039429,0.018092,0.0,0.001064,0.053823,-0.0,-0.0,2.0,0.282024,0.317079,0.282024,0.23915,,,,,,
43343,0.170738,0.016262,0.038589,0.017028,0.0,0.001064,0.056662,-0.0,-0.0,2.0,0.282024,0.31857,0.282024,0.236876,,,,,,
43363,0.178462,0.016409,0.037752,0.014899,-0.001064,0.001064,0.059387,-0.0,-0.0,2.0,0.282024,0.319937,0.282024,0.234748,,,,,,
43383,0.185687,0.016437,0.037045,0.013835,0.0,0.001064,0.060803,-0.0,-0.0,2.0,0.282024,0.321609,0.282024,0.232087,,,,,,
43403,0.192183,0.016473,0.036471,0.012771,0.0,0.0,0.063051,-0.0,-0.0,2.0,0.282024,0.321589,0.282024,0.232118,,,,,,
43423,0.198182,0.016521,0.035896,0.011706,0.0,0.0,0.065769,-0.0,-0.0,2.0,0.282024,0.322499,0.282024,0.230642,,,,,,
43443,0.203341,0.016456,0.035475,0.010642,0.0,0.0,0.068144,-0.0,-0.0,2.0,0.282024,0.323269,0.282024,0.229375,,,,,,
43463,0.20799,0.016401,0.035049,0.008514,0.0,0.0,0.070371,-0.0,-0.0,2.0,0.282024,0.322735,0.282024,0.230255,,,,,,
43483,0.211803,0.01634,0.034886,0.00745,0.0,0.0,0.072498,-0.0,-0.0,2.0,0.282024,0.32319,0.282024,0.229506,,,,,,
43503,0.215117,0.016301,0.034604,0.005321,0.0,0.0,0.074257,-0.0,-0.0,2.0,0.282024,0.322406,0.282024,0.230793,,,,,,
43523,0.217451,0.016377,0.034562,0.004257,-0.001064,0.0,0.076134,-0.0,-0.0,2.0,0.282024,0.322485,0.282024,0.230664,,,,,,
43543,0.219284,0.01634,0.034536,0.002128,-0.001064,-0.001064,0.077874,-0.0,-0.0,2.0,0.282024,0.321234,0.282024,0.232689,,,,,,
43563,0.220513,0.016438,0.034507,0.001064,-0.001064,-0.001064,0.079466,-0.0,-0.0,2.0,0.282024,0.321048,0.282024,0.232987,,,,,,
43583,0.220891,0.016417,0.034627,-0.001064,-0.001064,-0.001064,0.080969,-0.0,-0.0,2.0,0.282024,0.320607,0.282024,0.23369,,,,,,
43603,0.220649,0.016409,0.034753,-0.002128,-0.001064,-0.001064,0.082107,-0.0,-0.0,2.0,0.282024,0.320073,0.282024,0.234535,,,,,,
43623,0.22003,0.016407,0.034879,-0.002128,-0.001064,-0.001064,0.083305,-0.0,-0.0,2.0,0.282024,0.319379,0.282024,0.235622,,,,,,
43643,0.219045,0.016292,0.035025,-0.003193,0.0,-0.001064,0.083855,-0.0,-0.0,2.0,0.282024,0.318765,0.282024,0.236575,,,,,,
43663,0.21782,0.01629,0.035283,-0.003193,-0.001064,-0.001064,0.084817,-0.0,-0.0,2.0,0.282024,0.319149,0.282024,0.23598,,,,,,
43683,0.216595,0.016288,0.035542,-0.003193,-0.001064,-0.001064,0.085603,-0.0,-0.0,2.0,0.282024,0.319573,0.282024,0.235319,,,,,,
43703,0.215126,0.016304,0.035683,-0.004257,-0.001064,-0.001064,0.086063,-0.0,-0.0,2.0,0.282024,0.320008,0.282024,0.234637,,,,,,
43723,0.213659,0.016295,0.036067,-0.004257,-0.001064,-0.001064,0.086652,-0.0,-0.0,2.0,0.282024,0.319159,0.282024,0.235965,,,,,,
43743,0.212178,0.016298,0.036323,-0.004257,-0.001064,-0.001064,0.087014,-0.0,-0.0,2.0,0.282024,0.319591,0.282024,0.235291,,,,,,
43763,0.210468,0.016308,0.036589,-0.004257,-0.001064,-0.001064,0.087217,-0.0,-0.0,2.0,0.282024,0.319984,0.282024,0.234674,,,,,,
43783,0.208625,0.016441,0.036839,-0.004257,-0.001064,-0.001064,0.087264,-0.0,-0.0,2.0,0.282024,0.320369,0.282024,0.234066,,,,,,
43803,0.206671,0.016323,0.037244,-0.004257,0.0,-0.001064,0.087202,-0.0,-0.0,2.0,0.282024,0.319515,0.282024,0.23541,,,,,,
43823,0.204703,0.016204,0.037643,-0.005321,-0.001064,-0.001064,0.086931,-0.0,-0.0,2.0,0.282024,0.319935,0.282024,0.234752,,,,,,
43843,0.202374,0.016216,0.038035,-0.005321,-0.001064,-0.001064,0.086533,-0.0,-0.0,2.0,0.282024,0.320263,0.282024,0.234234,,,,,,
43863,0.199923,0.016231,0.038429,-0.006385,-0.001064,-0.001064,0.08598,-0.0,-0.0,2.0,0.282024,0.319363,0.282024,0.235648,,,,,,
43883,0.197348,0.016128,0.038837,-0.006385,-0.001064,-0.001064,0.085275,-0.0,-0.0,2.0,0.282024,0.319682,0.282024,0.235149,,,,,,
43903,0.194411,0.016156,0.039239,-0.00745,-0.001064,-0.001064,0.084855,-0.0,-0.0,2.0,0.282024,0.318541,0.282024,0.236922,,,,,,
43923,0.191352,0.016054,0.039776,-0.00745,-0.001064,-0.001064,0.083509,-0.0,-0.0,2.0,0.282024,0.318878,0.282024,0.2364,,,,,,
43943,0.187917,0.016094,0.04018,-0.008514,-0.001064,-0.001064,0.082355,-0.0,-0.0,2.0,0.282024,0.317779,0.282024,0.238088,,,,,,
43963,0.184241,0.01613,0.040708,-0.008514,-0.001064,-0.001064,0.081734,-0.0,-0.0,2.0,0.282024,0.317634,0.282024,0.238309,,,,,,
43983,0.180454,0.016171,0.041245,-0.009578,-0.001064,-0.001064,0.080374,-0.0,-0.0,2.0,0.282024,0.316437,0.282024,0.240115,,,,,,
44003,0.176169,0.016224,0.041784,-0.010642,-0.001064,-0.001064,0.078498,-0.0,-0.0,2.0,0.282024,0.316466,0.282024,0.24007,,,,,,
44023,0.171753,0.016281,0.042316,-0.010642,0.0,-0.002128,0.077441,-0.0,-0.0,2.0,0.282024,0.314905,0.282024,0.24238,,,,,,
44043,0.166979,0.016238,0.04275,-0.011706,0.0,-0.001064,0.075647,-0.0,-0.0,2.0,0.282024,0.314693,0.282024,0.24269,,,,,,
44063,0.162084,0.01619,0.043306,-0.011706,0.0,-0.002128,0.073697,-0.0,-0.0,2.0,0.282024,0.31321,0.282024,0.244832,,,,,,
44083,0.156704,0.016146,0.04399,-0.012771,0.0,-0.002128,0.071617,-0.0,-0.0,2.0,0.282024,0.312836,0.282024,0.245365,,,,,,
44103,0.151191,0.016117,0.044546,-0.012771,0.0,-0.001064,0.070554,-0.0,-0.0,2.0,0.282024,0.310767,0.282024,0.248271,,,,,,
44123,0.145326,0.016212,0.045226,-0.013835,-0.001064,-0.001064,0.067596,-0.0,-0.0,2.0,0.282024,0.310462,0.282024,0.248692,,,,,,
44143,0.139327,0.016192,0.045907,-0.013835,-0.001064,-0.002128,0.065149,-0.0,-0.0,2.0,0.282024,0.308624,0.282024,0.251197,,,,,,
44163,0.133096,0.016311,0.046468,-0.013835,-0.001064,-0.002128,0.062654,-0.0,-0.0,2.0,0.282024,0.306675,0.282024,0.253792,,,,,,
44183,0.126619,0.01631,0.047161,-0.014899,-0.001064,-0.002128,0.06005,-0.0,-0.0,2.0,0.282024,0.305935,0.282024,0.254761,,,,,,
44203,0.119891,0.016318,0.047847,-0.014899,0.0,-0.002128,0.058704,-0.0,-0.0,2.0,0.282024,0.304618,0.282024,0.256463,,,,,,
44223,0.112925,0.016207,0.048671,-0.015963,0.0,-0.002128,0.054663,-0.0,-0.0,2.0,0.282024,0.302813,0.282024,0.258752,,,,,,
44243,0.105717,0.016236,0.049366,-0.015963,-0.001064,-0.002128,0.051706,-0.0,-0.0,2.0,0.282024,0.301817,0.282024,0.259996,,,,,,
44263,0.098388,0.016267,0.050182,-0.017028,-0.001064,-0.002128,0.050205,-0.0,-0.0,2.0,0.282024,0.29886,0.282024,0.263601,,,,,,
44283,0.090812,0.016186,0.051003,-0.017028,-0.001064,-0.002128,0.04715,-0.0,-0.0,2.0,0.282024,0.297653,0.282024,0.265036,,,,,,
44303,0.082878,0.016249,0.051707,-0.018092,-0.001064,-0.002128,0.044018,-0.0,-0.0,2.0,0.282024,0.294929,0.282024,0.268208,,,,,,
44323,0.074818,0.016313,0.052521,-0.019156,-0.001064,-0.002128,0.042262,-0.0,-0.0,2.0,0.282024,0.292942,0.282024,0.270462,,,,,,
44343,0.066641,0.016387,0.053342,-0.019156,-0.001064,-0.002128,0.037741,-0.0,-0.0,2.0,0.282024,0.29049,0.282024,0.273176,,,,,,
44363,0.058102,0.016595,0.054281,-0.019156,-0.001064,-0.002128,0.034237,-0.0,-0.0,2.0,0.282024,0.288856,0.282024,0.274945,,,,,,
44383,0.049555,0.016572,0.054978,-0.019156,-0.001064,-0.002128,0.030824,-0.0,-0.0,2.0,0.282024,0.287124,0.282024,0.276789,,,,,,
44403,0.040889,0.016556,0.055803,-0.019156,-0.001064,-0.002128,0.027337,-0.0,-0.0,2.0,0.282024,0.283866,0.282024,0.280164,,,,,,
44423,0.032105,0.01667,0.056622,-0.02022,-0.001064,-0.002128,0.025399,-0.0,-0.0,2.0,0.282024,0.281303,0.282024,0.282742,,,,,,
44443,0.023196,0.016672,0.057437,-0.02022,-0.001064,-0.002128,0.020431,-0.0,-0.0,2.0,0.282024,0.281288,0.282024,0.282757,,,,,,
44463,0.014284,0.016557,0.058368,-0.02022,-0.001064,-0.002128,0.016862,-0.0,-0.0,2.0,0.282024,0.277706,0.282024,0.28625,,,,,,
44483,0.005256,0.016698,0.059059,-0.02022,-0.001064,-0.002128,0.015053,-0.0,-0.0,2.0,0.282024,0.274741,0.282024,0.289046,,,,,,
44503,-0.003774,0.016722,0.059866,-0.02022,-0.001064,-0.001064,0.011423,-0.0,-0.0,2.0,0.282024,0.27242,0.282024,0.291179,,,,,,
44523,-0.012801,0.016875,0.060677,-0.02022,-0.001064,-0.002128,0.007545,-0.0,-0.0,2.0,0.282024,0.270121,0.282024,0.293245,,,,,,
44543,-0.021828,0.017034,0.061482,-0.02022,-0.001064,-0.002128,0.004328,-0.0,-0.0,2.0,0.282024,0.267453,0.282024,0.295585,,,,,,
44563,-0.03086,0.017075,0.062157,-0.02022,-0.001064,-0.002128,0.000637,-0.0,-0.0,2.0,0.282024,0.264888,0.282024,0.297779,,,,,,
44583,-0.039767,0.017122,0.063068,-0.02022,-0.001064,-0.002128,-0.00303,-0.0,-0.0,2.0,0.282024,0.262272,0.282024,0.299962,,,,,,
44603,-0.048673,0.017296,0.063864,-0.019156,-0.001064,-0.001064,-0.006738,-0.0,-0.0,2.0,0.282024,0.259577,0.282024,0.302154,,,,,,
44623,-0.057584,0.017354,0.06465,-0.02022,0.0,-0.003193,-0.01056,-0.0,-0.0,2.0,0.282024,0.2585,0.282024,0.303014,,,,,,
44643,-0.066013,0.017396,0.065195,-0.019156,-0.001064,-0.001064,-0.01382,-0.0,-0.0,2.0,0.282024,0.25564,0.282024,0.305257,,,,,,
44663,-0.074553,0.017575,0.06597,-0.018092,-0.001064,-0.002128,-0.017393,-0.0,-0.0,2.0,0.282024,0.254476,0.282024,0.306153,,,,,,
44683,-0.082609,0.017744,0.06675,-0.018092,-0.001064,-0.001064,-0.020991,-0.0,-0.0,2.0,0.282024,0.251763,0.282024,0.308203,,,,,,
44703,-0.090666,0.01792,0.067525,-0.017028,-0.001064,-0.003193,-0.024557,-0.0,-0.0,2.0,0.282024,0.248938,0.282024,0.310283,,,,,,
44723,-0.098116,0.018068,0.06805,-0.017028,0.0,-0.001064,-0.026316,-0.0,-0.0,2.0,0.282024,0.247204,0.282024,0.311533,,,,,,
44743,-0.105562,0.018233,0.068813,-0.015963,0.0,-0.001064,-0.03128,-0.0,-0.0,2.0,0.282024,0.246951,0.282024,0.311714,,,,,,
44763,-0.112532,0.018265,0.069577,-0.014899,-0.001064,-0.002128,-0.03308,-0.0,-0.0,2.0,0.282024,0.243543,0.282024,0.314106,,,,,,
44783,-0.119254,0.018286,0.070202,-0.014899,-0.001064,-0.002128,-0.036408,-0.0,-0.0,2.0,0.282024,0.242733,0.282024,0.314663,,,,,,
44803,-0.125612,0.018421,0.070844,-0.013835,0.0,-0.001064,-0.039735,-0.0,-0.0,2.0,0.282024,0.242058,0.282024,0.315125,,,,,,
