time_ms,roll,pitch,yaw,roll_rate,pitch_rate,yaw_rate,reference_roll,reference_pitch,reference_yaw,reference_throttle,throttle_1,throttle_2,throttle_3,throttle_4,roll_predicted,pitch_predicted,yaw_predicted,roll_rate_predicted,pitch_rate_predicted,yaw_rate_predicted
49731,0.050605,-0.023906,-0.004763,-0.001064,0.0,0.0,-0.0,-0.0,-0.0,2.0,0.282024,0.28048,0.282024,0.283556,0.0,-294.505369,0.0,-0.0,-7.857343,0.0
49751,0.050606,-0.023903,-0.004885,-0.001063,-0.001063,-5.4e-05,-0.0,-0.0,-0.0,2.0,0.282024,0.28105,0.282024,0.282993,0.0,-294.815106,0.0,-0.0,-7.575835,0.0
49771,0.050608,-0.023899,-0.005007,1e-06,-0.001063,-5.4e-05,0.003745,-0.0,-0.0,2.0,0.282024,0.2807,0.282024,0.283339,1.2e-05,-295.115273,-0.0,0.001173,-7.440179,0.0
49791,0.050609,-0.023774,-0.005132,0.0,0.0,0.0,0.005566,-0.0,-0.0,2.0,0.282024,0.28314,0.282024,0.280902,0.000171,-295.410733,-1.6e-05,0.006757,-7.373594,1.9e-05
49811,0.050854,-0.023648,-0.005255,0.0,0.0,0.0,0.00944,-0.0,-0.0,2.0,0.282024,0.282752,0.282024,0.281294,0.000539,-295.706675,-0.000103,0.012522,-7.46689,5.7e-05
49831,0.050857,-0.023764,-0.005496,-0.001063,-0.001063,-5.4e-05,0.012893,-0.0,-0.0,2.0,0.282024,0.282361,0.282024,0.281687,0.001269,-296.008233,-0.000372,0.018904,-7.683334,0.000122
49851,0.050857,-0.023764,-0.005496,-0.001064,0.0,0.0,0.016248,-0.0,-0.0,2.0,0.282024,0.279649,0.282024,0.284371,0.002713,-296.320111,-0.000882,0.023704,-7.916753,0.000192
49871,0.050737,-0.023762,-0.005619,-0.001039,5.4e-05,-0.001063,0.019073,-0.0,-0.0,2.0,0.282024,0.279184,0.282024,0.284824,0.005135,-296.563167,-0.003006,0.028698,-8.301756,0.000313
49891,0.05074,-0.023755,-0.005863,-0.001063,-0.001063,-5.4e-05,0.023277,-0.0,-0.0,2.0,0.282024,0.278543,0.282024,0.285445,-0.108402,-296.901662,-0.031744,0.02859,-8.737065,0.000459
49911,0.050619,-0.023753,-0.005987,1e-06,-0.001063,-5.4e-05,0.026325,-0.0,-0.0,2.0,0.282024,0.277982,0.282024,0.285985,-0.006538,-297.257194,0.0106,0.073843,-9.175123,0.000696
49931,0.050621,-0.02375,-0.006109,0.0,0.0,0.0,0.029812,-0.0,-0.0,2.0,0.282024,0.27738,0.282024,0.286561,-0.000629,-297.630231,0.007299,0.073191,-9.560595,0.001101
49951,0.050744,-0.023624,-0.006233,1e-06,-0.001063,-5.4e-05,0.033262,-0.0,-0.0,2.0,0.282024,0.279223,0.282024,0.284786,0.002843,-298.115612,0.007678,0.072692,-9.88478,0.001619
49971,0.050988,-0.023623,-0.00623,1e-06,-0.001063,-5.4e-05,0.03704,-0.0,-0.0,2.0,0.282024,0.278413,0.282024,0.28557,0.004804,-298.413148,0.008691,0.074055,-9.962859,0.001938
49991,0.050867,-0.023742,-0.00635,-0.001039,5.4e-05,-0.001063,0.039733,-0.0,-0.0,2.0,0.282024,0.277988,0.282024,0.285979,0.009131,-298.910602,0.011839,0.07563,-9.874437,0.002485
50011,0.050991,-0.023739,-0.006471,-0.001064,0.0,0.0,0.039733,-0.0,-0.0,2.0,0.282024,0.278117,0.282024,0.285855,0.013297,-299.205243,0.015389,0.073835,-9.698157,0.002811
50031,0.051115,-0.023857,-0.006588,-0.001063,-0.001063,-5.4e-05,0.043676,-0.0,-0.0,2.0,0.282024,0.274756,0.282024,0.289032,0.02456,-299.588251,0.025912,0.068602,-9.351642,0.003216
50051,0.050993,-0.023858,-0.00659,-0.001039,5.4e-05,-0.001063,0.048112,-0.0,-0.0,2.0,0.282024,0.276163,0.282024,0.287716,0.196133,-300.044814,0.196465,0.049718,-8.927694,0.003561
50071,0.051116,-0.023854,-0.00671,1e-06,-0.001063,-5.4e-05,0.051869,-0.0,-0.0,2.0,0.282024,0.275249,0.282024,0.288573,-0.072797,-300.290251,-0.070314,0.166423,-8.485083,-0.000177
50091,0.051239,-0.023976,-0.006706,1e-06,-0.001063,-5.5e-05,0.05361,-0.0,-0.0,2.0,0.282024,0.272388,0.282024,0.291208,-0.021514,-300.622926,-0.023707,0.195782,-8.075624,0.000739
50111,0.051362,-0.02385,-0.006829,1e-06,-0.001063,-5.5e-05,0.056466,-0.0,-0.0,2.0,0.282024,0.271578,0.282024,0.291941,-0.007791,-300.940618,-0.015789,0.182719,-7.742391,0.00163
50131,0.051605,-0.023727,-0.006829,2.5e-05,5.5e-05,-0.001063,0.059216,-0.0,-0.0,2.0,0.282024,0.273296,0.282024,0.29038,0.00207,-301.321692,-0.01402,0.174001,-7.515432,0.002434
50151,0.051851,-0.023723,-0.006948,0.0,0.0,0.0,0.062468,-0.0,-0.0,2.0,0.282024,0.272398,0.282024,0.291199,0.00878,-301.619329,-0.015281,0.171146,-7.412495,0.003191
50171,0.052096,-0.023718,-0.007067,1e-06,-0.001063,-5.5e-05,0.064223,-0.0,-0.0,2.0,0.282024,0.271916,0.282024,0.291636,0.016113,-301.916102,-0.018577,0.170446,-7.468018,0.004123
50191,0.052583,-0.023719,-0.006939,0.001089,5.6e-05,-0.001063,0.067141,-0.0,-0.0,2.0,0.282024,0.273536,0.282024,0.29016,0.02293,-302.141246,-0.022922,0.17,-7.597211,0.004687
50211,0.053322,-0.023833,-0.007172,0.001064,0.0,0.0,0.069089,-0.0,-0.0,2.0,0.282024,0.272982,0.282024,0.290667,0.041238,-302.527435,-0.037839,0.163113,-7.954322,0.005642
50231,0.054054,-0.02383,-0.007163,0.001064,0.0,0.0,0.070577,-0.0,-0.0,2.0,0.282024,0.272659,0.282024,0.290962,0.064915,-302.76853,-0.059935,0.149403,-8.237323,0.006207
50251,0.055154,-0.023943,-0.007268,0.00213,-0.001063,-5.9e-05,0.072821,-0.0,-0.0,2.0,0.282024,0.274481,0.282024,0.289288,0.218731,-303.102659,-0.212328,0.087199,-8.664574,0.006865
50271,0.056252,-0.023938,-0.007255,0.002155,-0.001003,-0.001123,0.074776,-0.0,-0.0,2.0,0.282024,0.274032,0.282024,0.289703,-0.131255,-303.363446,0.133422,0.330297,-9.108409,-0.011742
50291,0.057721,-0.023929,-0.00736,0.003193,0.0,0.0,0.076609,-0.0,-0.0,2.0,0.282024,0.273704,0.282024,0.290005,-0.015017,-303.828362,0.031193,0.348384,-9.62067,-0.009253
50311,0.059309,-0.023918,-0.007462,0.003194,-0.001062,-6.3e-05,0.077859,-0.0,-0.0,2.0,0.282024,0.275981,0.282024,0.287887,-0.00191,-304.119528,0.027139,0.312524,-9.861923,-0.007815
50331,0.061265,-0.02391,-0.007439,0.004258,-0.001062,-6.5e-05,0.079078,-0.0,-0.0,2.0,0.282024,0.27584,0.282024,0.28802,0.009503,-304.517481,0.028568,0.276413,-10.061118,-0.006072
50351,0.063219,-0.023771,-0.007662,0.004282,6.7e-05,-0.001062,0.08069,-0.0,-0.0,2.0,0.282024,0.278174,0.282024,0.2858,0.022794,-305.021764,0.036295,0.250575,-10.090349,-0.004493
50371,0.065543,-0.023879,-0.007753,0.004257,0.0,0.0,0.081533,-0.0,-0.0,2.0,0.282024,0.280682,0.282024,0.283357,0.037837,-305.422081,0.048969,0.228289,-9.943864,-0.003062
50391,0.068229,-0.023983,-0.007837,0.005297,-0.001134,0.000989,0.083521,-0.0,-0.0,2.0,0.282024,0.280486,0.282024,0.28355,0.057588,-305.716058,0.067511,0.202438,-9.6465,-0.001793
50411,0.070918,-0.023966,-0.007926,0.006411,7.5e-05,-0.001062,0.083521,-0.0,-0.0,2.0,0.282024,0.280995,0.282024,0.283048,0.134535,-306.094961,0.143308,0.152739,-9.246917,-0.000744
50431,0.074221,-0.024181,-0.008242,0.005321,0.0,0.0,0.085119,-0.0,-0.0,2.0,0.282024,0.283536,0.282024,0.2805,-0.174377,-306.377186,-0.169059,-0.215468,-8.804975,-0.011305
50451,0.077521,-0.024159,-0.008323,0.007452,-0.001061,-8.2e-05,0.08586,-0.0,-0.0,2.0,0.282024,0.283963,0.282024,0.280066,0.005356,-306.721389,0.014854,0.039843,-8.370576,-0.012698
50471,0.080944,-0.024254,-0.00852,0.007452,-0.001061,-8.6e-05,0.086439,-0.0,-0.0,2.0,0.282024,0.284576,0.282024,0.279438,0.005518,-307.050267,0.0107,0.163853,-7.990405,-0.012248
50491,0.084739,-0.024097,-0.008844,0.00745,0.0,0.0,0.086673,-0.0,-0.0,2.0,0.282024,0.287581,0.282024,0.276305,0.010724,-307.365217,0.007077,0.219661,-7.702442,-0.011376
50511,0.088529,-0.02406,-0.009163,0.00745,0.0,0.0,0.087111,-0.0,-0.0,2.0,0.282024,0.288369,0.282024,0.275467,0.018093,-307.670325,0.00219,0.243817,-7.531481,-0.010343
50531,0.092198,-0.024144,-0.009477,0.008488,-9.8e-05,0.00106,0.087238,-0.0,-0.0,2.0,0.282024,0.289459,0.282024,0.274296,0.030166,-308.045348,-0.006842,0.253471,-7.500945,-0.008969
50551,0.096117,-0.02422,-0.00991,0.00745,0.0,0.0,0.087233,-0.0,-0.0,2.0,0.282024,0.292465,0.282024,0.270995,0.039747,-308.270888,-0.014854,0.252384,-7.581697,-0.008128
50571,0.100037,-0.024294,-0.010343,0.007424,-0.000106,0.001059,0.08715,-0.0,-0.0,2.0,0.282024,0.29346,0.282024,0.269879,0.058001,-308.57669,-0.031494,0.242729,-7.798029,-0.007005
50591,0.103951,-0.024486,-0.010767,0.007424,-0.00011,0.001059,0.086757,-0.0,-0.0,2.0,0.282024,0.292323,0.282024,0.271154,0.09186,-308.892394,-0.064524,0.217512,-8.121944,-0.005911
50611,0.10775,-0.024428,-0.011329,0.007424,-0.000114,0.001058,0.086543,-0.0,-0.0,2.0,0.282024,0.293447,0.282024,0.269893,0.194464,-309.220663,-0.16753,0.15099,-8.524746,-0.004948
50631,0.111428,-0.024491,-0.011885,0.007424,-0.000118,0.001058,0.085996,-0.0,-0.0,2.0,0.282024,0.294677,0.282024,0.268496,-2.746791,-309.511753,2.772983,-0.200503,-8.965987,-0.012704
50651,0.115098,-0.024428,-0.012445,0.006363,-0.001179,0.000935,0.085288,-0.0,-0.0,2.0,0.282024,0.295962,0.282024,0.267017,-6.307458,-309.559658,6.354186,1.915384,-9.413778,-0.139772
50671,0.118654,-0.024487,-0.013002,0.007424,-0.000126,0.001057,0.084731,-0.0,-0.0,2.0,0.282024,0.297231,0.282024,0.265534,-6.226198,-309.942934,6.3845,4.024151,-9.877408,-0.282616
50691,0.121967,-0.024545,-0.013562,0.006359,-0.000129,0.001057,0.084057,-0.0,-0.0,2.0,0.282024,0.296429,0.282024,0.266474,-6.106346,-310.341462,6.470669,5.710352,-10.330563,-0.413207
50711,0.125272,-0.024471,-0.014248,0.00636,-0.000133,0.001056,0.082235,-0.0,-0.0,2.0,0.282024,0.297964,0.282024,0.264668,-5.923315,-310.743967,6.606299,6.997148,-10.733009,-0.533136
50731,0.128465,-0.02464,-0.014922,0.006359,-0.000136,0.001056,0.081079,-0.0,-0.0,2.0,0.282024,0.299414,0.282024,0.262934,-5.652726,-311.123351,6.819366,7.898184,-11.057082,-0.643547
50751,0.131413,-0.024817,-0.015477,0.005295,-0.000139,0.001055,0.080379,-0.0,-0.0,2.0,0.282024,0.298616,0.282024,0.263892,-5.249435,-311.422929,7.158432,8.295324,-11.303201,-0.734836
50771,0.134111,-0.024864,-0.016162,0.005295,-0.000142,0.001055,0.078196,-0.0,-0.0,2.0,0.282024,0.30033,0.282024,0.261823,-4.695105,-311.543537,7.646639,8.273788,-11.501902,-0.807669
50791,0.136694,-0.024911,-0.016851,0.004231,-0.000145,0.001055,0.076489,-0.0,-0.0,2.0,0.282024,0.301865,0.282024,0.259935,-4.131909,-311.403983,8.143018,7.985896,-11.718624,-0.865683
50811,0.138781,-0.024969,-0.017422,0.00314,-0.000294,0.002109,0.074657,-0.0,-0.0,2.0,0.282024,0.301335,0.282024,0.260591,-3.725005,-311.059096,8.478334,7.627646,-12.038313,-0.915837
50831,0.140746,-0.025027,-0.017995,0.003166,-0.000149,0.001054,0.073571,-0.0,-0.0,2.0,0.282024,0.302704,0.282024,0.258889,-3.443457,-310.608401,8.668195,7.341269,-12.533944,-0.964216
50851,0.142466,-0.024965,-0.01858,0.002132,-0.001053,-0.000151,0.071667,-0.0,-0.0,2.0,0.282024,0.302133,0.282024,0.259603,-3.193062,-310.101362,8.747312,7.13983,-13.230653,-1.011553
50871,0.143822,-0.024906,-0.019171,0.002102,-0.000153,0.001054,0.068529,-0.0,-0.0,2.0,0.282024,0.301879,0.282024,0.259919,-2.644691,-309.568863,8.466008,6.918994,-14.084023,-1.053627
50891,0.144933,-0.024849,-0.019766,0.001038,-0.000154,0.001053,0.066491,-0.0,-0.0,2.0,0.282024,0.303361,0.282024,0.258063,40.804008,-309.113689,-34.730773,4.310913,-14.95874,-1.114938
50911,0.145795,-0.025038,-0.020343,-2.6e-05,-0.000155,0.001053,0.064698,-0.0,-0.0,2.0,0.282024,0.302698,0.282024,0.258896,40.846641,-308.505213,-34.6525,0.109287,-15.525636,-1.249273
50931,0.146297,-0.024997,-0.020826,0.0,0.0,0.0,0.061566,-0.0,-0.0,2.0,0.282024,0.302294,0.282024,0.259402,40.772572,-307.880936,-34.603171,-3.638539,-15.581766,-1.419844
50951,0.146428,-0.025194,-0.021415,-0.00106,-0.001053,-0.000155,0.060243,-0.0,-0.0,2.0,0.282024,0.303621,0.282024,0.257734,40.565436,-307.262296,-34.627136,-6.945099,-15.016721,-1.622678
50971,0.146312,-0.02516,-0.021904,-0.001091,-0.000155,0.001053,0.057534,-0.0,-0.0,2.0,0.282024,0.303033,0.282024,0.258477,40.008146,-306.706893,-34.926908,-9.821077,-13.822672,-1.850131
50991,0.14583,-0.025009,-0.022408,-0.001091,-0.000155,0.001053,0.054614,-0.0,-0.0,2.0,0.282024,0.304501,0.282024,0.256613,37.907278,-306.584284,-36.657235,-12.331281,-12.074862,-2.092082
51011,0.145339,-0.02511,-0.022769,-0.002128,0.0,0.0,0.052413,-0.0,-0.0,2.0,0.282024,0.303774,0.282024,0.25754,37.219069,-307.033157,-36.820853,-14.546359,-9.860355,-2.337679
51031,0.144857,-0.02496,-0.023273,-0.002125,-0.001053,-0.000154,0.048941,-0.0,-0.0,2.0,0.282024,0.307525,0.282024,0.252668,36.722121,-307.373687,-36.641101,-16.427109,-7.23446,-2.575856
51051,0.144378,-0.025044,-0.023881,-0.001087,-0.001206,0.0009,0.046242,-0.0,-0.0,2.0,0.282024,0.306966,0.282024,0.253408,36.124282,-307.565731,-36.438663,-17.87058,-4.20199,-2.795319
51071,0.143896,-0.025025,-0.024254,-0.002128,0.0,0.0,0.0424,-0.0,-0.0,2.0,0.282024,0.308754,0.282024,0.251022,35.435834,-307.652096,-36.290093,-18.659409,-0.786754,-2.985136
51091,0.143526,-0.024872,-0.024752,-0.001064,0.0,0.0,0.040497,-0.0,-0.0,2.0,0.282024,0.312113,0.282024,0.246389,34.706199,-307.743026,-36.196123,-18.553003,2.88535,-3.137116
51111,0.143045,-0.024975,-0.025117,-0.001064,0.0,0.0,0.037193,-0.0,-0.0,2.0,0.282024,0.311744,0.282024,0.246908,33.988199,-307.892889,-36.043163,-17.456457,6.57153,-3.24979
51131,0.142566,-0.025061,-0.025725,-0.002128,0.0,0.0,0.033846,-0.0,-0.0,2.0,0.282024,0.313474,0.282024,0.244454,33.293274,-308.000582,-35.721617,-15.519573,10.010448,-3.330545
51151,0.141963,-0.025166,-0.026093,-0.002155,-0.000151,0.001054,0.029887,-0.0,-0.0,2.0,0.282024,0.317354,0.282024,0.238734,32.661353,-307.888883,-35.271655,-13.057917,13.053116,-3.393021
51171,0.141107,-0.025152,-0.026468,-0.002125,-0.001054,-0.00015,0.027163,-0.0,-0.0,2.0,0.282024,0.316911,0.282024,0.239403,32.225333,-307.495461,-34.847311,-10.376135,15.697211,-3.451852
51191,0.140015,-0.025014,-0.026983,-0.003189,-0.001054,-0.000149,0.023172,-0.0,-0.0,2.0,0.282024,0.316704,0.282024,0.239714,32.081501,-306.907385,-34.435053,-7.644658,17.988818,-3.519251
51211,0.138672,-0.025009,-0.027366,-0.004253,-0.001054,-0.000147,0.020156,-0.0,-0.0,2.0,0.282024,0.318251,0.282024,0.237367,33.91911,-306.322887,-32.259239,-4.915764,19.877809,-3.604895
51231,0.136963,-0.02501,-0.027756,-0.005317,-0.001054,-0.000145,0.018317,-0.0,-0.0,2.0,0.282024,0.31751,0.282024,0.238498,40.96476,-306.952426,-25.067867,-2.234593,21.205581,-3.716392
51251,0.134887,-0.025027,-0.028031,-0.006385,0.0,0.0,0.01402,-0.0,-0.0,2.0,0.282024,0.317191,0.282024,0.238981,40.951712,-307.823187,-25.003355,0.428096,21.739316,-3.859284
51271,0.132194,-0.024922,-0.028441,-0.007446,-0.001055,-0.00014,0.010293,-0.0,-0.0,2.0,0.282024,0.318753,0.282024,0.236594,40.993431,-308.701626,-24.94954,2.929455,21.276693,-4.035222
51291,0.129143,-0.024835,-0.02874,-0.00851,-0.001055,-0.000137,0.006643,-0.0,-0.0,2.0,0.282024,0.316161,0.282024,0.240525,41.218986,-309.55023,-25.020537,5.121365,19.901303,-4.239735
51311,0.125596,-0.024754,-0.029041,-0.008511,-0.001056,-0.000133,0.002445,-0.0,-0.0,2.0,0.282024,0.315607,0.282024,0.241347,41.182715,-310.332603,-24.749029,6.901798,17.91352,-4.463664
51331,0.12144,-0.024685,-0.029352,-0.010639,-0.001056,-0.000129,-0.001014,-0.0,-0.0,2.0,0.282024,0.31479,0.282024,0.242548,41.434388,-311.028438,-24.621641,8.225915,15.604246,-4.696507
51351,0.116917,-0.024501,-0.029675,-0.011703,-0.001057,-0.000124,-0.004541,-0.0,-0.0,2.0,0.282024,0.313845,0.282024,0.24392,41.844626,-311.592728,-24.363523,9.019803,13.123456,-4.928775
51371,0.111657,-0.024451,-0.029997,-0.012742,-0.000939,-0.001177,-0.006451,-0.0,-0.0,2.0,0.282024,0.312437,0.282024,0.245932,42.569307,-311.937656,-23.831508,9.158318,10.535027,-5.152378
51391,0.106037,-0.024287,-0.030335,-0.013832,-0.001058,-0.000113,-0.011955,-0.0,-0.0,2.0,0.282024,0.311672,0.282024,0.247009,43.518401,-311.935623,-23.104998,8.527205,7.936409,-5.361285
51411,0.0998,-0.024139,-0.030553,-0.014897,-0.001059,-0.000106,-0.013933,-0.0,-0.0,2.0,0.282024,0.309997,0.282024,0.249331,44.148837,-311.708513,-22.695359,7.108512,5.511819,-5.552964
51431,0.09296,-0.023998,-0.030905,-0.015936,-0.000961,-0.001159,-0.017546,-0.0,-0.0,2.0,0.282024,0.30852,0.282024,0.251338,44.512377,-311.459607,-22.504688,5.036679,3.506884,-5.729185
51451,0.085625,-0.023743,-0.031261,-0.017025,-0.00106,-9.1e-05,-0.021148,-0.0,-0.0,2.0,0.282024,0.306865,0.282024,0.253542,44.72284,-311.229058,-22.375418,2.576743,2.15569,-5.894842
51471,0.077803,-0.023625,-0.031494,-0.01809,-0.001061,-8.3e-05,-0.022925,-0.0,-0.0,2.0,0.282024,0.304693,0.282024,0.256367,44.80285,-311.007808,-22.257922,0.063752,1.605074,-6.055063
51491,0.069495,-0.023394,-0.031739,-0.019129,-0.000988,-0.001136,-0.025903,-0.0,-0.0,2.0,0.282024,0.302516,0.282024,0.259124,44.759296,-310.784883,-22.136937,-2.157992,1.875539,-6.21261
51511,0.060575,-0.023168,-0.032105,-0.020194,-0.000998,-0.001127,-0.029109,-0.0,-0.0,2.0,0.282024,0.30019,0.282024,0.261994,44.603102,-310.552581,-22.000257,-3.786605,2.853282,-6.367236
51531,0.051292,-0.022955,-0.032353,-0.021259,-0.001008,-0.001118,-0.035076,-0.0,-0.0,2.0,0.282024,0.298381,0.282024,0.264173,44.339151,-310.306339,-21.817634,-4.610319,4.303933,-6.517262
51551,0.041645,-0.022869,-0.032597,-0.022324,4.4e-05,-0.001064,-0.036902,-0.0,-0.0,2.0,0.282024,0.295431,0.282024,0.26763,43.923006,-310.059221,-21.502064,-4.552906,5.911079,-6.662159
51571,0.031631,-0.02267,-0.032849,-0.023413,0.0,0.0,-0.040865,-0.0,-0.0,2.0,0.282024,0.292708,0.282024,0.270724,43.184134,-309.896328,-20.844689,-3.699717,7.3422,-6.804227
51591,0.020887,-0.022605,-0.033101,-0.024477,-0.001064,-2.2e-05,-0.04437,-0.0,-0.0,2.0,0.282024,0.289782,0.282024,0.273947,42.297903,-310.021789,-19.99567,-2.275681,8.325878,-6.948046
51611,0.010017,-0.022421,-0.033105,-0.024453,-0.001054,-0.001075,-0.047518,-0.0,-0.0,2.0,0.282024,0.286447,0.282024,0.277499,41.926168,-310.38515,-19.601985,-0.580984,8.71359,-7.098162
51631,-0.001338,-0.022244,-0.033356,-0.025518,-0.001066,-0.001063,-0.049051,-0.0,-0.0,2.0,0.282024,0.282501,0.282024,0.281546,41.845054,-310.807272,-19.425099,1.073058,8.485385,-7.25677
51651,-0.013065,-0.021949,-0.033358,-0.026583,-0.001078,-0.00105,-0.052574,-0.0,-0.0,2.0,0.282024,0.281147,0.282024,0.282897,41.902554,-311.229533,-19.297725,2.408299,7.720416,-7.42286
51671,-0.024912,-0.021777,-0.033359,-0.026583,-0.00109,-0.001038,-0.054676,-0.0,-0.0,2.0,0.282024,0.276839,0.282024,0.287076,42.063709,-311.627436,-19.156938,3.207377,6.577376,-7.593017
51691,-0.037126,-0.021605,-0.033231,-0.027625,-0.001142,-0.002088,-0.05777,-0.0,-0.0,2.0,0.282024,0.274959,0.282024,0.288843,42.348419,-311.985141,-18.936,3.343155,5.281063,-7.76322
51711,-0.049589,-0.021317,-0.033228,-0.027648,-0.001116,-0.00101,-0.060453,-0.0,-0.0,2.0,0.282024,0.270329,0.282024,0.29306,42.927111,-312.273043,-18.430103,2.813672,4.099633,-7.93064
51731,-0.062049,-0.021142,-0.033089,-0.027649,-0.001128,-0.000996,-0.062139,-0.0,-0.0,2.0,0.282024,0.267633,0.282024,0.29543,44.27394,-312.327583,-17.138137,1.764676,3.296087,-8.094446
51751,-0.074765,-0.020839,-0.032707,-0.028691,-0.00122,-0.002043,-0.06503,-0.0,-0.0,2.0,0.282024,0.265141,0.282024,0.297565,44.899316,-312.042715,-16.531677,0.459679,3.054503,-8.255192
51771,-0.087604,-0.020413,-0.03243,-0.028714,-0.001153,-0.000967,-0.067452,-0.0,-0.0,2.0,0.282024,0.259576,0.282024,0.302154,45.008792,-311.697297,-16.393122,-0.760306,3.411402,-8.413486
51791,-0.100692,-0.020095,-0.03191,-0.028672,-0.00138,-0.00307,-0.069723,-0.0,-0.0,2.0,0.282024,0.256449,0.282024,0.304629,44.995258,-311.33086,-16.335029,-1.581506,4.2333,-8.56939
51811,-0.113418,-0.019893,-0.031512,-0.028694,-0.001298,-0.001995,-0.071873,-0.0,-0.0,2.0,0.282024,0.252889,0.282024,0.307359,44.932805,-310.941034,-16.299625,-1.80851,5.240762,-8.723065
51831,-0.126636,-0.019553,-0.030855,-0.028672,-0.000403,-0.003168,-0.07395,-0.0,-0.0,2.0,0.282024,0.24919,0.282024,0.3101,44.856076,-310.526185,-16.263989,-1.423275,6.083927,-8.875813
51851,-0.139613,-0.019443,-0.030209,-0.028693,-0.000296,-0.002108,-0.075187,-0.0,-0.0,2.0,0.282024,0.245003,0.282024,0.313091,44.769606,-310.092616,-16.198535,-0.597318,6.454542,-9.02998
51871,-0.152474,-0.019069,-0.029414,-0.028677,-0.001537,-0.002995,-0.07618,-0.0,-0.0,2.0,0.282024,0.240368,0.282024,0.316267,44.539701,-309.659799,-15.9549,0.360435,6.196379,-9.187432
51891,-0.165352,-0.018796,-0.028509,-0.027614,-0.001575,-0.002974,-0.07893,-0.0,-0.0,2.0,0.282024,0.236069,0.282024,0.319092,34.543143,-309.343793,-5.921592,1.084328,5.36546,-9.34807
51911,-0.177975,-0.018627,-0.0276,-0.027615,-0.001613,-0.002954,-0.079949,-0.0,-0.0,2.0,0.282024,0.234167,0.282024,0.320306,32.55215,-309.17278,-3.879247,1.242414,4.217885,-9.509862
51931,-0.190261,-0.018177,-0.026427,-0.027613,-0.000604,-0.003136,-0.081414,-0.0,-0.0,2.0,0.282024,0.228949,0.282024,0.323526,32.624428,-308.761075,-3.90849,0.900654,3.12337,-9.670782
51951,-0.202287,-0.017963,-0.025387,-0.026531,-0.000855,-0.004171,-0.082658,-0.0,-0.0,2.0,0.282024,0.226762,0.282024,0.324829,32.672552,-308.356476,-3.941116,0.216666,2.422242,-9.830247
51971,-0.21421,-0.017466,-0.024077,-0.025491,-0.001719,-0.002894,-0.083763,-0.0,-0.0,2.0,0.282024,0.221064,0.282024,0.328098,32.680189,-307.951178,-3.97395,-0.537307,2.325478,-9.988497
51991,-0.226008,-0.017086,-0.022894,-0.025475,-0.001991,-0.003911,-0.08475,-0.0,-0.0,2.0,0.282024,0.218325,0.282024,0.329606,32.64746,-307.538376,-4.00505,-1.049464,2.841284,-10.145724
52011,-0.237333,-0.016903,-0.021496,-0.024411,-0.002035,-0.003888,-0.085489,-0.0,-0.0,2.0,0.282024,0.211843,0.282024,0.333018,32.589614,-307.111639,-4.033896,-1.089221,3.763066,-10.302002
52031,-0.247919,-0.016559,-0.019953,-0.02337,-0.002847,-0.002573,-0.085846,-0.0,-0.0,2.0,0.282024,0.208654,0.282024,0.334617,32.526754,-306.665645,-4.065125,-0.606882,4.734139,-10.458063
52051,-0.25828,-0.01606,-0.018275,-0.022287,-0.002116,-0.003844,-0.086387,-0.0,-0.0,2.0,0.282024,0.205451,0.282024,0.336173,31.705075,-306.200236,-4.876096,0.229868,5.372415,-10.615522
52071,-0.268519,-0.015648,-0.016488,-0.0212,-0.000386,-0.005413,-0.086937,-0.0,-0.0,2.0,0.282024,0.202069,0.282024,0.33776,32.532838,-305.758212,-4.067284,1.098953,5.41482,-10.775701
52091,-0.278273,-0.01544,-0.01461,-0.020137,-0.000438,-0.005409,-0.087194,-0.0,-0.0,2.0,0.282024,0.198378,0.282024,0.33943,32.579224,-305.276712,-4.076051,1.589608,4.83931,-10.938119
52111,-0.287043,-0.015207,-0.012729,-0.020133,0.000535,-0.005707,-0.087266,-0.0,-0.0,2.0,0.282024,0.194579,0.282024,0.341082,32.641803,-304.801265,-4.07822,1.450498,3.894342,-11.100674
52131,-0.295312,-0.014937,-0.010724,-0.018011,-0.00053,-0.005401,-0.087182,-0.0,-0.0,2.0,0.282024,0.190795,0.282024,0.34266,32.688674,-304.332907,-4.069661,0.69718,2.997739,-11.261561
52151,-0.303115,-0.014771,-0.00874,-0.015884,-0.000573,-0.005397,-0.087007,-0.0,-0.0,2.0,0.282024,0.191244,0.282024,0.342477,32.683232,-303.867255,-4.038838,-0.362768,2.539688,-11.420432
52171,-0.310297,-0.014791,-0.00655,-0.014824,-0.001625,-0.005068,-0.087007,-0.0,-0.0,2.0,0.282024,0.187385,0.282024,0.344027,32.544471,-303.400352,-3.915105,-1.254524,2.686347,-11.57768
52191,-0.316496,-0.014552,-0.00432,-0.012697,-0.001656,-0.005057,-0.086101,-0.0,-0.0,2.0,0.282024,0.183247,0.282024,0.345616,20.832007,-303.118497,7.750893,-1.577744,3.290943,-11.733589
52211,-0.321834,-0.014141,-0.001826,-0.010571,-0.001683,-0.005048,-0.085745,-0.0,-0.0,2.0,0.282024,0.184172,0.282024,0.345267,20.020871,-302.717664,8.490154,-1.255916,3.977021,-11.888777
52231,-0.32667,-0.013837,0.000649,-0.009494,-0.002049,-0.006048,-0.084694,-0.0,-0.0,2.0,0.282024,0.180281,0.282024,0.346708,20.028423,-302.21266,8.435293,-0.345731,4.333094,-12.044829
52251,-0.330642,-0.013625,0.003229,-0.007367,-0.002073,-0.00604,-0.083727,-0.0,-0.0,2.0,0.282024,0.181399,0.282024,0.346301,20.042081,-301.699501,8.407853,0.697037,4.106092,-12.203309
52271,-0.333891,-0.013287,0.005833,-0.005241,-0.002093,-0.006033,-0.083186,-0.0,-0.0,2.0,0.282024,0.182914,0.282024,0.34574,20.078397,-301.186116,8.376241,1.33912,3.381377,-12.363871
52291,-0.336256,-0.012683,0.008602,-0.00418,-0.002107,-0.006028,-0.082004,-0.0,-0.0,2.0,0.282024,0.184389,0.282024,0.345185,20.100166,-300.676236,8.31969,1.257796,2.55877,-12.524679
52311,-0.337756,-0.012081,0.011379,-0.002056,-0.002116,-0.006025,-0.080365,-0.0,-0.0,2.0,0.282024,0.181381,0.282024,0.346308,19.942408,-300.171006,8.103007,0.529852,2.143739,-12.684453
52331,-0.338513,-0.011743,0.013999,7.1e-05,-0.00212,-0.006023,-0.079208,-0.0,-0.0,2.0,0.282024,0.183603,0.282024,0.345482,17.286438,-300.198441,5.435938,-0.342679,2.440824,-12.843026
52351,-0.338788,-0.011388,0.016745,7.3e-05,-0.001118,-0.006376,-0.078308,-0.0,-0.0,2.0,0.282024,0.181454,0.282024,0.346281,17.073156,-300.723087,5.238754,-0.816247,3.311547,-13.000438
52371,-0.33844,-0.011039,0.019497,0.001135,-0.001116,-0.006377,-0.075887,-0.0,-0.0,2.0,0.282024,0.178825,0.282024,0.347231,17.020543,-301.265285,5.205319,-0.625905,4.240837,-13.157059
52391,-0.337593,-0.011059,0.022192,0.002199,-0.001111,-0.006378,-0.074603,-0.0,-0.0,2.0,0.282024,0.176806,0.282024,0.34794,17.00161,-301.822154,5.173811,0.091562,4.610261,-13.314421
52411,-0.336868,-0.0112,0.024865,0.00114,-0.000102,-0.00673,-0.072242,-0.0,-0.0,2.0,0.282024,0.16888,0.282024,0.350556,17.031588,-302.385613,5.139725,0.810519,4.096987,-13.47377
52431,-0.336165,-0.011464,0.027522,0.002202,-0.001102,-0.006379,-0.070114,-0.0,-0.0,2.0,0.282024,0.160335,0.282024,0.353085,17.110454,-302.946315,5.090526,0.961008,2.935749,-13.634113
52451,-0.33532,-0.011611,0.030198,0.002203,-0.001096,-0.00638,-0.067849,-0.0,-0.0,2.0,0.282024,0.157155,0.282024,0.353951,17.073181,-303.498426,5.156062,0.349455,1.819218,-13.793631
52471,-0.334473,-0.0115,0.033036,0.002202,-0.001091,-0.006381,-0.066671,-0.0,-0.0,2.0,0.282024,0.15,0.282024,0.358005,17.132942,-304.055408,5.087327,-0.647625,1.461943,-13.951978
52491,-0.333386,-0.011517,0.035859,0.003266,-0.001084,-0.006382,-0.064269,-0.0,-0.0,2.0,0.282024,0.15,0.282024,0.358848,17.106214,-304.619294,5.063826,-1.292461,2.098632,-14.109397
52511,-0.332298,-0.011417,0.038704,0.003266,-0.001077,-0.006384,-0.062204,-0.0,-0.0,2.0,0.282024,0.15,0.282024,0.361276,17.055238,-305.195034,5.054931,-1.014619,3.27455,-14.265861
52531,-0.330968,-0.011306,0.041675,0.003265,-0.001069,-0.006385,-0.058513,-0.0,-0.0,2.0,0.282024,0.15,0.282024,0.362316,17.038685,-305.786342,5.067328,0.116178,4.123696,-14.422887
52551,-0.329019,-0.011355,0.044514,0.005394,-0.001056,-0.006387,-0.055301,-0.0,-0.0,2.0,0.282024,0.15,0.282024,0.364892,17.441923,-306.386931,5.451232,1.343297,3.987893,-14.58272
52571,-0.326565,-0.011322,0.047258,0.006458,-0.00104,-0.00639,-0.053613,-0.0,-0.0,2.0,0.282024,0.15,0.282024,0.36541,17.026055,-306.966836,4.981024,1.728589,2.949506,-14.744432
52591,-0.323626,-0.01119,0.050036,0.006457,-0.001022,-0.006393,-0.050521,-0.0,-0.0,2.0,0.282024,0.15,0.282024,0.36447,17.11134,-307.566824,5.020319,0.85606,1.836561,-14.905006
52611,-0.320309,-0.011198,0.052797,0.008585,-0.001,-0.006396,-0.047462,-0.0,-0.0,2.0,0.282024,0.15,0.282024,0.366762,17.124839,-308.168456,5.048401,-0.707122,1.61081,-15.063651
52631,-0.31651,-0.01125,0.055453,0.00965,-0.000976,-0.0064,-0.044086,-0.0,-0.0,2.0,0.282024,0.15,0.282024,0.367323,17.059413,-308.77736,5.083715,-1.75015,2.52352,-15.220638
52651,-0.311822,-0.011117,0.058033,0.010713,-0.000946,-0.006404,-0.041026,-0.0,-0.0,2.0,0.282024,0.15,0.282024,0.366111,16.849389,-309.398602,5.23397,-1.374779,3.790837,-15.37592
52671,-0.306407,-0.010901,0.060653,0.012841,-0.000911,-0.006409,-0.037826,-0.0,-0.0,2.0,0.282024,0.15,0.282024,0.3664,17.051555,-309.980061,4.999016,0.157662,4.180892,-15.532282
52691,-0.300373,-0.010859,0.063141,0.014969,-0.000873,-0.006415,-0.035194,-0.0,-0.0,2.0,0.282024,0.15,0.282024,0.366418,17.06787,-310.622786,5.015723,1.566782,3.124219,-15.692291
52711,-0.293379,-0.011023,0.0654,0.016023,-0.00052,-0.005402,-0.033281,-0.0,-0.0,2.0,0.282024,0.15,0.282024,0.364557,17.137719,-311.260529,4.996392,1.565301,1.366225,-15.853084
52731,-0.28562,-0.011127,0.067555,0.018144,0.000843,-0.004684,-0.028812,-0.0,-0.0,2.0,0.282024,0.15,0.282024,0.364624,17.155524,-311.896646,4.94474,0.06514,0.484968,-16.012076
52751,-0.277011,-0.011208,0.069389,0.019194,0.000151,-0.003362,-0.025318,-0.0,-0.0,2.0,0.282024,0.15,0.282024,0.362659,16.907402,-312.535051,4.704289,-1.56323,1.497609,-16.170101
52771,-0.267519,-0.011281,0.070754,0.020247,0.000464,-0.002334,-0.021746,-0.0,-0.0,2.0,0.282024,0.15,0.282024,0.358848,17.094012,-313.086647,4.961064,-1.609503,3.720694,-16.326043
52791,-0.257443,-0.011573,0.071644,0.022364,0.000758,-0.0013,-0.019972,-0.0,-0.0,2.0,0.282024,0.15,0.282024,0.35785,17.020678,-313.764786,4.91794,0.189809,5.108433,-16.481836
52811,-0.246237,-0.011732,0.07208,0.024477,0.0,0.0,-0.014827,-0.0,-0.0,2.0,0.282024,0.150877,0.282024,0.355541,17.056726,-314.454828,4.891511,2.154982,4.114901,-16.643041
52831,-0.234053,-0.011746,0.072076,0.026591,-0.000788,0.001282,-0.014827,-0.0,-0.0,2.0,0.282024,0.169635,0.282024,0.350318,17.147273,-315.135309,4.893775,2.112784,1.412604,-16.805703
52851,-0.220903,-0.011981,0.071462,0.028709,0.000466,0.002077,-0.007901,-0.0,-0.0,2.0,0.282024,0.172091,0.282024,0.349528,16.691437,-315.805014,5.412516,-0.309899,-0.415185,-16.964697
52871,-0.206764,-0.012157,0.07049,0.031886,-0.000386,0.003343,-0.005676,-0.0,-0.0,2.0,0.282024,0.18271,0.282024,0.345817,17.320487,-316.413431,4.745644,-2.9031,0.663202,-17.123161
52891,-0.191533,-0.012378,0.069278,0.034016,0.000608,0.003135,-0.00078,-0.0,-0.0,2.0,0.282024,0.19595,0.282024,0.340494,17.153525,-317.103116,4.815678,-2.741053,3.790236,-17.278174
52911,-0.175341,-0.012621,0.067953,0.036144,0.000557,0.003144,0.002924,-0.0,-0.0,2.0,0.282024,0.205059,0.282024,0.33636,17.093616,-317.818283,4.89207,0.538798,5.642529,-17.432192
52931,-0.158058,-0.012996,0.066612,0.039335,0.000503,0.003153,0.006617,-0.0,-0.0,2.0,0.282024,0.210598,0.282024,0.333649,17.301112,-318.540246,5.06731,3.768665,3.826986,-17.596268
52951,-0.139557,-0.013392,0.065144,0.0404,0.001498,0.003014,0.008408,-0.0,-0.0,2.0,0.282024,0.224005,0.282024,0.326433,8.546799,-318.849806,-3.828859,3.229647,-0.103766,-17.760052
52971,-0.120086,-0.013686,0.063315,0.043577,0.001567,0.004099,0.011001,-0.0,-0.0,2.0,0.282024,0.236563,0.282024,0.318773,1.583961,-318.445643,-10.880484,-0.941373,-1.709518,-17.917662
52991,-0.099532,-0.014223,0.061344,0.045703,0.001482,0.004131,0.014433,-0.0,-0.0,2.0,0.282024,0.242686,0.282024,0.314695,1.525448,-317.725845,-10.832691,-4.466428,1.498034,-18.07678
53011,-0.078133,-0.014616,0.059379,0.046765,0.001393,0.004161,0.019473,-0.0,-0.0,2.0,0.282024,0.2515,0.282024,0.308399,1.347909,-316.987172,-10.886829,-2.863137,6.508516,-18.226478
53031,-0.055394,-0.01501,0.057037,0.049923,0.000354,0.006376,0.02255,-0.0,-0.0,2.0,0.282024,0.263455,0.282024,0.298981,1.405427,-316.208068,-11.036963,2.780817,7.230292,-18.381593
53051,-0.03206,-0.015599,0.054923,0.052064,0.000171,0.005319,0.02497,-0.0,-0.0,2.0,0.282024,0.27292,0.282024,0.290724,0.370199,-315.586785,-9.839872,5.838197,1.674099,-18.553345
53071,-0.007265,-0.016172,0.052696,0.054189,3.9e-05,0.005322,0.029288,-0.0,-0.0,2.0,0.282024,0.281957,0.282024,0.282091,1.74101,-314.941619,-11.036188,1.51209,-4.323056,-18.710221
53091,0.018511,-0.016702,0.049972,0.056298,-0.001182,0.006365,0.032714,-0.0,-0.0,2.0,0.282024,0.291237,0.282024,0.272357,1.708111,-314.170305,-11.082358,-5.946786,-2.850019,-18.872226
53111,0.04453,-0.017403,0.047246,0.056293,-0.000284,0.00638,0.036102,-0.0,-0.0,2.0,0.282024,0.298434,0.282024,0.26411,1.442372,-313.408828,-11.042511,-6.898691,5.754467,-19.029161
53131,0.071422,-0.017791,0.044271,0.058418,0.000606,0.006446,0.03835,-0.0,-0.0,2.0,0.282024,0.305947,0.282024,0.254745,1.955292,-312.611767,-10.307654,1.697219,11.171839,-19.168879
53151,0.098568,-0.018082,0.041037,0.058395,0.001385,0.007624,0.04257,-0.0,-0.0,2.0,0.282024,0.313156,0.282024,0.244909,20.150808,-312.283677,7.676217,10.195642,4.997017,-19.356499
53171,0.125857,-0.018518,0.037699,0.058371,0.001043,0.008715,0.044317,-0.0,-0.0,2.0,0.282024,0.319023,0.282024,0.236175,20.617136,-311.497181,7.767459,6.254764,-6.760186,-19.51842
53191,0.153176,-0.018976,0.034379,0.058406,0.001129,0.006637,0.04846,-0.0,-0.0,2.0,0.282024,0.324481,0.282024,0.227351,20.685204,-310.649417,7.891052,-7.759082,-8.143336,-19.673002
53211,0.180152,-0.019439,0.030948,0.057318,0.000759,0.007712,0.050854,-0.0,-0.0,2.0,0.282024,0.328453,0.282024,0.220426,20.186843,-309.836488,7.972154,-13.700301,5.728025,-19.851548
53231,0.206662,-0.019914,0.027536,0.056229,0.000336,0.008771,0.053769,-0.0,-0.0,2.0,0.282024,0.332448,0.282024,0.212956,19.159183,-309.145914,8.561917,-0.411298,17.823089,-19.950258
53251,0.232968,-0.020178,0.024249,0.055184,0.000351,0.007741,0.056638,-0.0,-0.0,2.0,0.282024,0.338325,0.282024,0.200838,19.936517,-308.150536,8.019446,16.890062,8.798072,-20.16923
53271,0.258226,-0.020445,0.020871,0.053053,0.000156,0.007748,0.0594,-0.0,-0.0,2.0,0.282024,0.340594,0.282024,0.195717,20.608883,-307.322684,7.845846,12.374281,-13.498468,-20.332025
53291,0.283138,-0.020852,0.01754,0.051979,0.000984,0.008047,0.061133,-0.0,-0.0,2.0,0.282024,0.344937,0.282024,0.185039,19.698095,-306.419404,6.627088,-13.302417,-17.38569,-20.465627
53311,0.307597,-0.021199,0.014475,0.049854,-0.000227,0.007746,0.06302,-0.0,-0.0,2.0,0.282024,0.349293,0.282024,0.172808,17.284839,-306.809632,4.963119,-24.66814,9.317558,-20.713801
53331,0.331016,-0.020955,0.011229,0.045614,-0.002421,0.007047,0.065909,-0.0,-0.0,2.0,0.282024,0.35002,0.282024,0.170571,16.294266,-307.953665,4.567915,1.834286,32.097083,-20.695022
53351,0.350458,-0.019668,0.01047,0.031977,-0.006997,-0.002558,0.069197,-0.0,-0.0,2.0,0.282024,0.345214,0.282024,0.184313,17.082856,-309.347716,4.378094,33.692603,11.164908,-21.08786
53371,0.364861,-0.016948,0.010782,0.027737,-0.013304,-0.003943,0.070736,-0.0,-0.0,2.0,0.282024,0.328979,0.282024,0.219473,18.357363,-310.245983,4.387219,17.789178,-32.581972,-21.147533
53391,0.375826,-0.009848,0.009849,0.019185,-0.016021,-0.00289,0.073102,-0.0,-0.0,2.0,0.282024,0.326301,0.282024,0.224235,18.25488,-311.9471,4.635557,-34.813968,-30.156179,-21.362892
53411,0.383706,-2.5e-05,0.007846,0.015963,-0.018958,-0.004211,0.075054,-0.0,-0.0,2.0,0.282024,0.314857,0.282024,0.24245,16.19181,-313.034783,4.338936,-43.402977,30.96241,-21.717616
53431,0.39221,0.00856,0.006121,0.013794,-0.019905,-0.004779,0.075982,-0.0,-0.0,2.0,0.282024,0.317374,0.282024,0.238704,15.537477,-315.044824,5.188029,24.246768,60.546515,-21.373138
53451,0.397705,0.016047,0.004689,0.01059,-0.015954,-0.00324,0.078002,-0.0,-0.0,2.0,0.282024,0.31363,0.282024,0.24423,14.498625,-315.338116,8.328391,71.922766,-7.619793,-22.577428
53471,0.400455,0.023257,0.002967,0.006298,-0.00882,-0.003735,0.079564,-0.0,-0.0,2.0,0.282024,0.311246,0.282024,0.247605,16.426693,-313.576191,9.247734,-0.001898,-84.088194,-21.606343
53491,0.403595,0.026703,0.00279,0.003092,-0.000704,-0.003773,0.080942,-0.0,-0.0,2.0,0.282024,0.310655,0.282024,0.248425,17.508403,-314.266387,12.75271,-99.664099,-23.758645,-23.415675
53511,0.40646,0.024786,0.004168,-4.1e-05,0.004195,-0.001671,0.081977,-0.0,-0.0,2.0,0.282024,0.306154,0.282024,0.254475,11.741919,-315.017051,15.376787,-39.53984,115.282663,-22.004187
53531,0.406845,0.021412,0.004973,-0.003159,0.006285,0.00155,0.083473,-0.0,-0.0,2.0,0.282024,0.303563,0.282024,0.257807,13.635219,-310.684661,13.240423,122.889963,82.797059,-23.81596
53551,0.404081,0.020073,0.004369,-0.006343,0.004893,0.002093,0.084112,-0.0,-0.0,2.0,0.282024,0.302352,0.282024,0.259329,20.155616,-311.288324,11.942628,98.829657,-144.901016,-23.925504
53571,0.400074,0.018714,0.003893,-0.007419,0.003921,0.001658,0.085016,-0.0,-0.0,2.0,0.282024,0.296154,0.282024,0.266794,23.435049,-309.229037,12.910374,-153.437072,-155.432068,-24.226394
53591,0.397316,0.016074,0.003999,-0.008494,0.002944,0.001236,0.085769,-0.0,-0.0,2.0,0.282024,0.296503,0.282024,0.266388,10.567372,-307.57732,17.965062,-173.885385,228.467391,-27.152353
53611,0.394086,0.013961,0.004915,-0.00853,0.002783,-0.001148,0.086463,-0.0,-0.0,2.0,0.282024,0.298973,0.282024,0.263465,-9.758164,-310.534201,23.780445,225.285856,274.275835,-26.167131
53631,0.390116,0.012238,0.006215,-0.005349,0.005556,-0.002318,0.086463,-0.0,-0.0,2.0,0.282024,0.301411,0.282024,0.260498,-0.874727,-311.698991,15.709447,178.174831,-571.440017,-26.796917
53651,0.387624,0.009812,0.00752,-0.001077,0.005148,-0.001347,0.087123,-0.0,-0.0,2.0,0.282024,0.309971,0.282024,0.249367,-25.761416,-312.020061,32.890282,-704.610963,-354.261341,-69.082087
53671,0.387736,0.006555,0.008849,0.001055,0.005148,-0.001346,0.087239,-0.0,-0.0,2.0,0.282024,0.320772,0.282024,0.233428,-110.848784,-350.550191,-25.942637,-1401.024409,3549.302811,-332.940359
53691,0.388971,0.004034,0.009914,0.003188,0.002777,-0.001162,0.087266,-0.0,-0.0,2.0,0.282024,0.32774,0.282024,0.221703,526028.754604,-218644.175656,-70729.870123,-331641731681.2403,759228308091.0835,-180219274714.86774
53711,0.390333,0.003309,0.010625,0.004249,-0.000174,-0.002373,0.087148,-0.0,-0.0,2.0,0.282024,0.33465,0.282024,0.208589,4.010955959273112e+73,2.4946530462546003e+73,2.3225617538068272e+73,-4.411786237196061e+147,1.0099914086067084e+148,-2.3974332650707288e+147
53731,0.39182,0.003707,0.010882,0.00319,-0.001967,-0.000813,0.08667,-0.0,-0.0,2.0,0.282024,0.338567,0.282024,0.200303,,,,,,
53751,0.393813,0.004747,0.010778,0.003189,-0.001966,-0.000817,0.086434,-0.0,-0.0,2.0,0.282024,0.341716,0.282024,0.193077,,,,,,
53771,0.395949,0.005714,0.010457,0.004252,-0.001964,-0.000821,0.085821,-0.0,-0.0,2.0,0.282024,0.346759,0.282024,0.180142,,,,,,
53791,0.398082,0.006514,0.009824,0.004254,-0.000981,-0.000413,0.085294,-0.0,-0.0,2.0,0.282024,0.349985,0.282024,0.17068,,,,,,
53811,0.400068,0.006766,0.00907,0.003199,-0.000414,0.00098,0.084602,-0.0,-0.0,2.0,0.282024,0.353208,0.282024,0.159892,,,,,,
53831,0.401549,0.006663,0.008392,0.002135,-0.000416,0.00098,0.083309,-0.0,-0.0,2.0,0.282024,0.353017,0.282024,0.160581,,,,,,
53851,0.402287,0.006639,0.00736,-0.001051,-0.000833,0.001959,0.0827,-0.0,-0.0,2.0,0.282024,0.352639,0.282024,0.161919,,,,,,
53871,0.401925,0.006741,0.00631,-0.003179,-0.000833,0.001959,0.081166,-0.0,-0.0,2.0,0.282024,0.353945,0.282024,0.157176,,,,,,
53891,0.400795,0.006799,0.004928,-0.003173,-0.001246,0.00294,0.079652,-0.0,-0.0,2.0,0.282024,0.353359,0.282024,0.159346,,,,,,
53911,0.39928,0.006953,0.003069,-0.004234,-0.000261,0.003355,0.078093,-0.0,-0.0,2.0,0.282024,0.354453,0.282024,0.155239,,,,,,
53931,0.397668,0.007248,0.001066,-0.00423,0.000726,0.003768,0.077241,-0.0,-0.0,2.0,0.282024,0.358762,0.282024,0.15,,,,,,
53951,0.396035,0.006511,-0.000387,-0.004232,0.000732,0.003767,0.076013,-0.0,-0.0,2.0,0.282024,0.359718,0.282024,0.15,,,,,,
53971,0.394044,0.005483,-0.001554,-0.005306,0.001148,0.002783,0.073362,-0.0,-0.0,2.0,0.282024,0.360871,0.282024,0.15,,,,,,
53991,0.391289,0.004883,-0.002578,-0.006374,0.000172,0.002373,0.071236,-0.0,-0.0,2.0,0.282024,0.361803,0.282024,0.15,,,,,,
54011,0.388437,0.004638,-0.003676,-0.007439,0.000179,0.002373,0.069249,-0.0,-0.0,2.0,0.282024,0.362663,0.282024,0.15,,,,,,
54031,0.385562,0.004317,-0.004992,-0.007439,0.000186,0.002372,0.066254,-0.0,-0.0,2.0,0.282024,0.365345,0.282024,0.15,,,,,,
54051,0.382449,0.003557,-0.006457,-0.007436,0.000783,0.003756,0.064931,-0.0,-0.0,2.0,0.282024,0.367686,0.282024,0.15,,,,,,
54071,0.379337,0.002815,-0.008046,-0.008502,0.001783,0.004148,0.06242,-0.0,-0.0,2.0,0.282024,0.370172,0.282024,0.15,,,,,,
54091,0.375987,0.001968,-0.009737,-0.008507,0.003178,0.003543,0.059805,-0.0,-0.0,2.0,0.282024,0.371028,0.282024,0.15,,,,,,
54111,0.372284,0.000347,-0.011059,-0.009577,0.003191,0.003531,0.058284,-0.0,-0.0,2.0,0.282024,0.373241,0.282024,0.15,,,,,,
54131,0.36782,-0.001736,-0.011843,-0.011712,0.004583,0.002906,0.054381,-0.0,-0.0,2.0,0.282024,0.374119,0.282024,0.15,,,,,,
54151,0.362877,-0.003689,-0.012784,-0.012781,0.004597,0.002884,0.052596,-0.0,-0.0,2.0,0.282024,0.372921,0.282024,0.15,,,,,,
54171,0.357194,-0.005754,-0.01384,-0.013854,0.00561,0.00323,0.04833,-0.0,-0.0,2.0,0.282024,0.373604,0.282024,0.15,,,,,,
54191,0.351256,-0.008475,-0.014563,-0.014924,0.007994,0.00293,0.046,-0.0,-0.0,2.0,0.282024,0.373872,0.282024,0.15,,,,,,
54211,0.344605,-0.012339,-0.014883,-0.016003,0.009015,0.003236,0.042793,-0.0,-0.0,2.0,0.282024,0.374194,0.282024,0.15,,,,,,
54231,0.337477,-0.016559,-0.015298,-0.016016,0.009038,0.003172,0.039535,-0.0,-0.0,2.0,0.282024,0.374367,0.282024,0.15,,,,,,
54251,0.330091,-0.020895,-0.015845,-0.017092,0.009061,0.003105,0.036189,-0.0,-0.0,2.0,0.282024,0.374475,0.282024,0.15,,,,,,
54271,0.321986,-0.025376,-0.016422,-0.019259,0.008749,0.004042,0.033965,-0.0,-0.0,2.0,0.282024,0.374297,0.282024,0.15,,,,,,
54291,0.313142,-0.029482,-0.017348,-0.020318,0.006759,0.003309,0.031602,-0.0,-0.0,2.0,0.282024,0.372291,0.282024,0.15,,,,,,
54311,0.303698,-0.032855,-0.01868,-0.021404,0.004441,0.003624,0.027204,-0.0,-0.0,2.0,0.282024,0.372085,0.282024,0.15,,,,,,
54331,0.294249,-0.03478,-0.020382,-0.021423,0.00213,0.003984,0.025401,-0.0,-0.0,2.0,0.282024,0.374656,0.282024,0.15,,,,,,
54351,0.285159,-0.035613,-0.02237,-0.019276,0.000123,0.003365,0.019644,-0.0,-0.0,2.0,0.282024,0.376247,0.282024,0.15,,,,,,
54371,0.276945,-0.036104,-0.024283,-0.017149,0.000151,0.003364,0.017317,-0.0,-0.0,2.0,0.282024,0.38048,0.282024,0.15,,,,,,
54391,0.269589,-0.035972,-0.026384,-0.01502,0.000175,0.003363,0.013728,-0.0,-0.0,2.0,0.282024,0.384973,0.282024,0.15,,,,,,
54411,0.262974,-0.035461,-0.02864,-0.013934,-0.001858,0.002808,0.010058,-0.0,-0.0,2.0,0.282024,0.387955,0.282024,0.15,,,,,,
54431,0.257453,-0.034607,-0.030672,-0.012859,-0.002871,0.002547,0.005849,-0.0,-0.0,2.0,0.282024,0.392721,0.282024,0.15,,,,,,
54451,0.251788,-0.033267,-0.031933,-0.012813,-0.003622,0.001267,0.003089,-0.0,-0.0,2.0,0.282024,0.394264,0.282024,0.15,,,,,,
54471,0.24587,-0.03174,-0.032858,-0.013802,-0.004129,-0.001037,0.000177,-0.0,-0.0,2.0,0.282024,0.394235,0.282024,0.15,,,,,,
54491,0.239703,-0.030265,-0.033416,-0.014861,-0.005169,-0.001264,-0.00381,-0.0,-0.0,2.0,0.282024,0.394301,0.282024,0.15,,,,,,
54511,0.233164,-0.028312,-0.034029,-0.015942,-0.003106,-0.000738,-0.006801,-0.0,-0.0,2.0,0.282024,0.395597,0.282024,0.15,,,,,,
54531,0.226012,-0.026856,-0.03458,-0.016993,-0.000799,-0.001276,-0.011921,-0.0,-0.0,2.0,0.282024,0.395601,0.282024,0.15,,,,,,
