time_ms,roll,pitch,yaw,roll_rate,pitch_rate,yaw_rate,reference_roll,reference_pitch,reference_yaw,reference_throttle,throttle_1,throttle_2,throttle_3,throttle_4,roll_predicted,pitch_predicted,yaw_predicted,roll_rate_predicted,pitch_rate_predicted,yaw_rate_predicted
277938,0.003933,0.012484,-0.074393,-0.001064,-0.001064,-4e-06,0.0,-0.0,-0.0,2.0,0.282024,0.275639,0.282024,0.288208,,,,,,
277958,0.003933,0.012484,-0.074393,-1.3e-05,4e-06,-0.001064,5.6e-05,-0.0,-0.0,2.0,0.282024,0.275671,0.282024,0.288178,,,,,,
277978,0.003933,0.012484,-0.074393,-1.3e-05,4e-06,-0.001064,0.00373,-0.0,-0.0,2.0,0.282024,0.275492,0.282024,0.288346,,,,,,
277998,0.003938,0.012362,-0.074393,-0.0,-0.001064,-4e-06,0.007439,-0.0,-0.0,2.0,0.282024,0.273557,0.282024,0.290141,,,,,,
278018,0.003938,0.012362,-0.074393,-1.3e-05,4e-06,-0.001064,0.01007,-0.0,-0.0,2.0,0.282024,0.270457,0.282024,0.292946,,,,,,
278038,0.003932,0.012484,-0.074515,0.0,0.0,0.0,0.01007,-0.0,-0.0,2.0,0.282024,0.272102,0.282024,0.291468,,,,,,
278058,0.004054,0.012489,-0.074516,-0.0,-0.001064,-4e-06,0.017015,-0.0,-0.0,2.0,0.282024,0.268426,0.282024,0.294738,,,,,,
278078,0.004176,0.012494,-0.074517,-0.0,-0.001064,-4e-06,0.018867,-0.0,-0.0,2.0,0.282024,0.267339,0.282024,0.295684,,,,,,
278098,0.004172,0.012616,-0.074517,-1.3e-05,4e-06,-0.001064,0.024592,-0.0,-0.0,2.0,0.282024,0.264094,0.282024,0.298447,,,,,,
278118,0.004415,0.012625,-0.07464,0.0,0.0,0.0,0.026734,-0.0,-0.0,2.0,0.282024,0.262828,0.282024,0.299502,,,,,,
278138,0.004664,0.012512,-0.074519,0.001064,-0.001064,-5e-06,0.030238,-0.0,-0.0,2.0,0.282024,0.260777,0.282024,0.301185,,,,,,
278158,0.005152,0.01253,-0.074644,0.001051,-0.001059,-0.00107,0.033741,-0.0,-0.0,2.0,0.282024,0.258776,0.282024,0.302794,,,,,,
278178,0.005766,0.012431,-0.074647,0.001051,6e-06,-0.001064,0.037096,-0.0,-0.0,2.0,0.282024,0.258766,0.282024,0.302802,,,,,,
278198,0.006868,0.01235,-0.074774,0.002128,0.0,0.0,0.03897,-0.0,-0.0,2.0,0.282024,0.259808,0.282024,0.301968,,,,,,
278218,0.008209,0.0124,-0.074782,0.003193,-0.001064,-9e-06,0.041621,-0.0,-0.0,2.0,0.282024,0.260511,0.282024,0.3014,,,,,,
278238,0.009926,0.01222,-0.074789,0.004244,-0.001054,-0.001075,0.044922,-0.0,-0.0,2.0,0.282024,0.259246,0.282024,0.302419,,,,,,
278258,0.01237,0.012191,-0.074936,0.004244,1.3e-05,-0.001064,0.049074,-0.0,-0.0,2.0,0.282024,0.259738,0.282024,0.302024,,,,,,
278278,0.015306,0.012058,-0.075192,0.006385,0.0,0.0,0.051026,-0.0,-0.0,2.0,0.282024,0.26348,0.282024,0.29896,,,,,,
278298,0.01836,0.01205,-0.075204,0.00745,0.0,0.0,0.054431,-0.0,-0.0,2.0,0.282024,0.264669,0.282024,0.297964,,,,,,
278318,0.022145,0.012071,-0.07534,0.008501,-0.00104,-0.001088,0.057259,-0.0,-0.0,2.0,0.282024,0.264766,0.282024,0.297882,,,,,,
278338,0.026667,0.012,-0.07561,0.009578,-0.001064,-2.8e-05,0.059986,-0.0,-0.0,2.0,0.282024,0.268872,0.282024,0.294348,,,,,,
278358,0.031555,0.011944,-0.07588,0.010642,0.0,0.0,0.062875,-0.0,-0.0,2.0,0.282024,0.271285,0.282024,0.292205,,,,,,
278378,0.037047,0.012034,-0.076135,0.012771,0.0,0.0,0.062875,-0.0,-0.0,2.0,0.282024,0.275472,0.282024,0.288364,,,,,,
278398,0.043153,0.012149,-0.076417,0.013834,-0.001063,-4.6e-05,0.067255,-0.0,-0.0,2.0,0.282024,0.279401,0.282024,0.284612,,,,,,
278418,0.049635,0.011915,-0.076795,0.014886,-0.00101,-0.001116,0.068962,-0.0,-0.0,2.0,0.282024,0.281535,0.282024,0.282512,,,,,,
278438,0.056721,0.011952,-0.077187,0.014912,-6e-05,0.001063,0.071665,-0.0,-0.0,2.0,0.282024,0.285095,0.282024,0.278905,,,,,,
278458,0.064052,0.011878,-0.077555,0.015976,-6.8e-05,0.001062,0.072977,-0.0,-0.0,2.0,0.282024,0.289436,0.282024,0.274321,,,,,,
278478,0.071629,0.011939,-0.077949,0.017027,-0.001061,-7.6e-05,0.075067,-0.0,-0.0,2.0,0.282024,0.293437,0.282024,0.269905,,,,,,
278498,0.079572,0.011899,-0.078438,0.017028,0.0,0.0,0.076875,-0.0,-0.0,2.0,0.282024,0.29475,0.282024,0.268414,,,,,,
278518,0.087763,0.011873,-0.078933,0.01704,-9.3e-05,0.00106,0.078579,-0.0,-0.0,2.0,0.282024,0.299265,0.282024,0.263113,,,,,,
278538,0.095833,0.01184,-0.079299,0.018104,-0.000102,0.001059,0.08014,-0.0,-0.0,2.0,0.282024,0.302259,0.282024,0.259445,,,,,,
278558,0.104148,0.011942,-0.079676,0.017026,-0.001058,-0.000111,0.081147,-0.0,-0.0,2.0,0.282024,0.30564,0.282024,0.255144,,,,,,
278578,0.112224,0.011922,-0.080161,0.017015,0.000119,-0.001058,0.08258,-0.0,-0.0,2.0,0.282024,0.308743,0.282024,0.251037,,,,,,
278598,0.120299,0.011906,-0.080637,0.01704,-0.000128,0.001057,0.08355,-0.0,-0.0,2.0,0.282024,0.310672,0.282024,0.248402,,,,,,
278618,0.128012,0.011864,-0.080866,0.015963,0.0,0.0,0.084294,-0.0,-0.0,2.0,0.282024,0.313947,0.282024,0.243773,,,,,,
278638,0.135476,0.011935,-0.081096,0.014899,0.0,0.0,0.08525,-0.0,-0.0,2.0,0.282024,0.317038,0.282024,0.239211,,,,,,
278658,0.142464,0.011737,-0.081186,0.013833,-0.001053,-0.000151,0.085977,-0.0,-0.0,2.0,0.282024,0.317336,0.282024,0.238762,,,,,,
278678,0.148961,0.011642,-0.081282,0.012758,0.000158,-0.001053,0.08653,-0.0,-0.0,2.0,0.282024,0.318933,0.282024,0.236316,,,,,,
278698,0.154953,0.01176,-0.08126,0.01064,-0.001051,-0.000164,0.086758,-0.0,-0.0,2.0,0.282024,0.320477,0.282024,0.233896,,,,,,
278718,0.160234,0.011608,-0.081237,0.010628,-0.000881,-0.00122,0.087053,-0.0,-0.0,2.0,0.282024,0.321721,0.282024,0.231905,,,,,,
278738,0.16489,0.011663,-0.081101,0.0085,-0.000875,-0.001225,0.087264,-0.0,-0.0,2.0,0.282024,0.321452,0.282024,0.232339,,,,,,
278758,0.168804,0.011942,-0.081112,0.006371,-0.00087,-0.001228,0.087254,-0.0,-0.0,2.0,0.282024,0.321023,0.282024,0.233027,,,,,,
278778,0.171991,0.011938,-0.080974,0.005319,-0.001049,-0.000182,0.087152,-0.0,-0.0,2.0,0.282024,0.32168,0.282024,0.231972,,,,,,
278798,0.174307,0.012131,-0.080731,0.003178,-0.000864,-0.001233,0.086818,-0.0,-0.0,2.0,0.282024,0.320769,0.282024,0.233433,,,,,,
278818,0.175777,0.012179,-0.080607,0.001049,-0.000862,-0.001234,0.086319,-0.0,-0.0,2.0,0.282024,0.320948,0.282024,0.233147,,,,,,
278838,0.176523,0.012076,-0.080482,-1.5e-05,-0.000861,-0.001235,0.085669,-0.0,-0.0,2.0,0.282024,0.319557,0.282024,0.235345,,,,,,
278858,0.176526,0.012055,-0.080239,-0.002143,-0.000861,-0.001235,0.084872,-0.0,-0.0,2.0,0.282024,0.317918,0.282024,0.237877,,,,,,
278878,0.175667,0.011999,-0.079993,-0.003207,-0.000862,-0.001234,0.084362,-0.0,-0.0,2.0,0.282024,0.317162,0.282024,0.239025,,,,,,
278898,0.174443,0.011929,-0.07975,-0.004272,-0.000863,-0.001233,0.083211,-0.0,-0.0,2.0,0.282024,0.317894,0.282024,0.237914,,,,,,
278918,0.172601,0.01209,-0.079656,-0.004272,-0.000866,-0.001231,0.082508,-0.0,-0.0,2.0,0.282024,0.31681,0.282024,0.239556,,,,,,
278938,0.170634,0.012113,-0.079417,-0.005334,0.000181,-0.001049,0.080825,-0.0,-0.0,2.0,0.282024,0.316071,0.282024,0.240659,,,,,,
278958,0.16819,0.012118,-0.079196,-0.0064,-0.000871,-0.001227,0.079842,-0.0,-0.0,2.0,0.282024,0.314825,0.282024,0.242496,,,,,,
278978,0.165366,0.012231,-0.078975,-0.007462,0.000175,-0.00105,0.078138,-0.0,-0.0,2.0,0.282024,0.315102,0.282024,0.242092,,,,,,
278998,0.162172,0.012218,-0.078852,-0.007462,0.000172,-0.00105,0.076432,-0.0,-0.0,2.0,0.282024,0.313823,0.282024,0.243952,,,,,,
279018,0.158751,0.012065,-0.078614,-0.008526,0.000168,-0.001051,0.074609,-0.0,-0.0,2.0,0.282024,0.312477,0.282024,0.245876,,,,,,
279038,0.154828,0.012015,-0.078375,-0.009591,0.000164,-0.001052,0.072507,-0.0,-0.0,2.0,0.282024,0.312436,0.282024,0.245933,,,,,,
279058,0.150671,0.011967,-0.078272,-0.009591,0.00016,-0.001052,0.07136,-0.0,-0.0,2.0,0.282024,0.310423,0.282024,0.248746,,,,,,
279078,0.146135,0.012026,-0.078164,-0.010655,0.000155,-0.001053,0.068989,-0.0,-0.0,2.0,0.282024,0.308757,0.282024,0.251018,,,,,,
279098,0.141366,0.011824,-0.077917,-0.011719,0.00015,-0.001054,0.067383,-0.0,-0.0,2.0,0.282024,0.308052,0.282024,0.251965,,,,,,
279118,0.136337,0.011996,-0.077938,-0.011719,0.000145,-0.001054,0.063882,-0.0,-0.0,2.0,0.282024,0.306602,0.282024,0.253888,,,,,,
279138,0.130955,0.011895,-0.077698,-0.012783,0.000139,-0.001055,0.062219,-0.0,-0.0,2.0,0.282024,0.305607,0.282024,0.255188,,,,,,
279158,0.125323,0.011922,-0.077708,-0.012783,0.000133,-0.001056,0.059607,-0.0,-0.0,2.0,0.282024,0.303448,0.282024,0.257953,,,,,,
279178,0.119575,0.011816,-0.077586,-0.012771,0.0,0.0,0.056785,-0.0,-0.0,2.0,0.282024,0.302731,0.282024,0.258856,,,,,,
279198,0.113457,0.011818,-0.077469,-0.013836,-0.001057,-0.00012,0.05388,-0.0,-0.0,2.0,0.282024,0.301839,0.282024,0.259968,,,,,,
279218,0.10735,0.011699,-0.077355,-0.013849,-0.000944,-0.001172,0.051152,-0.0,-0.0,2.0,0.282024,0.299381,0.282024,0.262975,,,,,,
279238,0.101109,0.011704,-0.077352,-0.014913,-0.000951,-0.001166,0.049008,-0.0,-0.0,2.0,0.282024,0.298048,0.282024,0.264569,,,,,,
279258,0.094503,0.011689,-0.077224,-0.014913,-0.000959,-0.00116,0.046943,-0.0,-0.0,2.0,0.282024,0.294934,0.282024,0.268202,,,,,,
279278,0.088147,0.01169,-0.077226,-0.014912,9.4e-05,-0.00106,0.042283,-0.0,-0.0,2.0,0.282024,0.294601,0.282024,0.268583,,,,,,
279298,0.081542,0.011799,-0.077107,-0.014912,8.7e-05,-0.001061,0.039103,-0.0,-0.0,2.0,0.282024,0.293424,0.282024,0.26992,,,,,,
279318,0.074942,0.011664,-0.076959,-0.014912,8e-05,-0.001061,0.03503,-0.0,-0.0,2.0,0.282024,0.292647,0.282024,0.270792,,,,,,
279338,0.068341,0.011656,-0.076947,-0.014912,-0.000989,-0.001134,0.033185,-0.0,-0.0,2.0,0.282024,0.290788,0.282024,0.27285,,,,,,
279358,0.061623,0.01164,-0.076823,-0.014912,-0.000997,-0.001128,0.029745,-0.0,-0.0,2.0,0.282024,0.28959,0.282024,0.274154,,,,,,
279378,0.055145,0.011634,-0.076679,-0.0149,-0.001063,-5.9e-05,0.02627,-0.0,-0.0,2.0,0.282024,0.28845,0.282024,0.27538,,,,,,
279398,0.048671,0.011626,-0.076423,-0.014912,5.2e-05,-0.001063,0.022516,-0.0,-0.0,2.0,0.282024,0.287433,0.282024,0.276462,,,,,,
279418,0.042316,0.011625,-0.07627,-0.013848,-0.001018,-0.001108,0.019712,-0.0,-0.0,2.0,0.282024,0.28756,0.282024,0.276328,,,,,,
279438,0.035964,0.011624,-0.076004,-0.013848,-0.001025,-0.001102,0.016281,-0.0,-0.0,2.0,0.282024,0.286382,0.282024,0.277567,,,,,,
279458,0.029851,0.011757,-0.075859,-0.013848,-0.001032,-0.001096,0.013338,-0.0,-0.0,2.0,0.282024,0.285045,0.282024,0.278956,,,,,,
279478,0.023867,0.011771,-0.075477,-0.013848,-0.001039,-0.001089,0.008828,-0.0,-0.0,2.0,0.282024,0.284497,0.282024,0.27952,,,,,,
279498,0.017881,0.011788,-0.0752,-0.012783,-0.001045,-0.001083,0.00653,-0.0,-0.0,2.0,0.282024,0.284449,0.282024,0.279569,,,,,,
279518,0.01214,0.011816,-0.074933,-0.012783,1.3e-05,-0.001064,0.00255,-0.0,-0.0,2.0,0.282024,0.283709,0.282024,0.280325,,,,,,
279538,0.006643,0.011853,-0.07465,-0.012771,-0.001064,-7e-06,-0.001161,-0.0,-0.0,2.0,0.282024,0.282934,0.282024,0.28111,,,,,,
279558,0.001152,0.01177,-0.074133,-0.011719,1e-06,-0.001064,-0.004912,-0.0,-0.0,2.0,0.282024,0.283777,0.282024,0.280256,,,,,,
279578,-0.004228,0.011937,-0.073857,-0.011719,-0.001069,-0.00106,-0.008671,-0.0,-0.0,2.0,0.282024,0.283036,0.282024,0.281007,,,,,,
279598,-0.009359,0.011993,-0.073579,-0.011719,-0.001074,-0.001054,-0.011315,-0.0,-0.0,2.0,0.282024,0.281882,0.282024,0.282166,,,,,,
279618,-0.014485,0.011929,-0.073178,-0.011719,-0.00108,-0.001049,-0.016304,-0.0,-0.0,2.0,0.282024,0.281845,0.282024,0.282203,,,,,,
279638,-0.019375,0.012119,-0.072773,-0.010655,-0.001085,-0.001043,-0.01835,-0.0,-0.0,2.0,0.282024,0.282063,0.282024,0.281985,,,,,,
279658,-0.024262,0.012191,-0.072258,-0.010668,-0.001116,-0.002102,-0.02274,-0.0,-0.0,2.0,0.282024,0.280212,0.282024,0.283819,,,,,,
279678,-0.029144,0.012141,-0.07185,-0.010655,-0.001095,-0.001033,-0.026265,-0.0,-0.0,2.0,0.282024,0.281159,0.282024,0.282885,,,,,,
279698,-0.03391,0.012219,-0.071452,-0.010655,-3.6e-05,-0.001064,-0.029781,-0.0,-0.0,2.0,0.282024,0.28052,0.282024,0.283517,,,,,,
279718,-0.038673,0.012301,-0.070917,-0.010655,-0.001105,-0.001022,-0.031584,-0.0,-0.0,2.0,0.282024,0.279007,0.282024,0.284996,,,,,,
279738,-0.043434,0.012261,-0.070516,-0.010668,-0.001156,-0.00208,-0.035225,-0.0,-0.0,2.0,0.282024,0.278361,0.282024,0.28562,,,,,,
279758,-0.0482,0.012345,-0.07011,-0.010655,-5.1e-05,-0.001063,-0.038516,-0.0,-0.0,2.0,0.282024,0.277568,0.282024,0.286381,,,,,,
279778,-0.052967,0.01243,-0.069701,-0.010655,-0.001119,-0.001006,-0.041616,-0.0,-0.0,2.0,0.282024,0.276638,0.282024,0.287266,,,,,,
279798,-0.05785,0.012394,-0.06917,-0.010655,-0.001124,-0.001001,-0.044347,-0.0,-0.0,2.0,0.282024,0.275416,0.282024,0.288416,,,,,,
279818,-0.062615,0.012487,-0.068635,-0.011733,-0.000133,-0.002124,-0.04809,-0.0,-0.0,2.0,0.282024,0.274786,0.282024,0.289005,,,,,,
279838,-0.06762,0.012451,-0.068098,-0.010655,-0.001134,-0.00099,-0.049747,-0.0,-0.0,2.0,0.282024,0.271214,0.282024,0.292269,,,,,,
279858,-0.072508,0.012543,-0.067555,-0.010655,-0.001139,-0.000984,-0.053021,-0.0,-0.0,2.0,0.282024,0.270174,0.282024,0.293198,,,,,,
279878,-0.077395,0.012638,-0.067011,-0.011733,-0.000165,-0.002122,-0.055892,-0.0,-0.0,2.0,0.282024,0.268932,0.282024,0.294295,,,,,,
279898,-0.082408,0.012732,-0.066474,-0.010656,-8.8e-05,-0.001061,-0.058758,-0.0,-0.0,2.0,0.282024,0.269294,0.282024,0.293977,,,,,,
279918,-0.087169,0.012713,-0.065931,-0.010668,-0.001245,-0.002028,-0.060107,-0.0,-0.0,2.0,0.282024,0.26726,0.282024,0.295752,,,,,,
279938,-0.091938,0.012825,-0.06527,-0.010668,-0.001255,-0.002022,-0.062643,-0.0,-0.0,2.0,0.282024,0.265759,0.282024,0.29704,,,,,,
279958,-0.096708,0.012933,-0.064729,-0.01067,-0.000206,-0.002119,-0.064915,-0.0,-0.0,2.0,0.282024,0.264124,0.282024,0.298422,,,,,,
279978,-0.101232,0.01318,-0.064049,-0.010655,-0.001166,-0.000951,-0.06812,-0.0,-0.0,2.0,0.282024,0.263053,0.282024,0.299315,,,,,,
279998,-0.10575,0.013063,-0.063397,-0.009604,-0.001283,-0.002004,-0.069597,-0.0,-0.0,2.0,0.282024,0.262827,0.282024,0.299502,,,,,,
280018,-0.110153,0.013198,-0.062733,-0.009606,-0.000234,-0.002116,-0.07204,-0.0,-0.0,2.0,0.282024,0.261362,0.282024,0.300708,,,,,,
280038,-0.114192,0.013339,-0.062194,-0.009591,-0.001179,-0.000936,-0.074117,-0.0,-0.0,2.0,0.282024,0.259888,0.282024,0.301904,,,,,,
280058,-0.118224,0.013489,-0.06152,-0.008541,-0.001308,-0.001988,-0.075983,-0.0,-0.0,2.0,0.282024,0.260072,0.282024,0.301755,,,,,,
280078,-0.12214,0.013645,-0.060857,-0.008526,-0.001186,-0.000927,-0.077816,-0.0,-0.0,2.0,0.282024,0.258422,0.282024,0.303076,,,,,,
280098,-0.125809,0.01369,-0.060204,-0.008541,-0.001323,-0.001978,-0.078699,-0.0,-0.0,2.0,0.282024,0.256355,0.282024,0.304702,,,,,,
280118,-0.129239,0.013859,-0.059668,-0.008543,-0.000274,-0.002111,-0.080459,-0.0,-0.0,2.0,0.282024,0.254896,0.282024,0.305831,,,,,,
280138,-0.13266,0.014036,-0.058998,-0.007464,-0.000141,-0.001055,-0.081622,-0.0,-0.0,2.0,0.282024,0.254931,0.282024,0.305804,,,,,,
280158,-0.136086,0.014094,-0.058345,-0.006415,-0.000289,-0.002109,-0.083044,-0.0,-0.0,2.0,0.282024,0.253173,0.282024,0.307145,,,,,,
280178,-0.139143,0.014044,-0.057706,-0.007477,-0.001349,-0.00196,-0.084167,-0.0,-0.0,2.0,0.282024,0.251436,0.282024,0.308447,,,,,,
280198,-0.142074,0.014112,-0.057172,-0.006413,-0.001355,-0.001957,-0.084647,-0.0,-0.0,2.0,0.282024,0.24938,0.282024,0.309962,,,,,,
280218,-0.144648,0.014201,-0.056532,-0.0064,-0.000153,-0.001053,-0.085482,-0.0,-0.0,2.0,0.282024,0.249617,0.282024,0.309788,,,,,,
280238,-0.146973,0.01442,-0.055876,-0.005336,-0.000156,-0.001053,-0.086141,-0.0,-0.0,2.0,0.282024,0.249853,0.282024,0.309616,,,,,,
280258,-0.149051,0.014517,-0.055354,-0.004285,-0.001369,-0.001947,-0.086729,-0.0,-0.0,2.0,0.282024,0.250195,0.282024,0.309364,,,,,,
280278,-0.151005,0.014497,-0.054844,-0.004285,-0.001372,-0.001944,-0.086729,-0.0,-0.0,2.0,0.282024,0.248331,0.282024,0.310723,,,,,,
280298,-0.152353,0.014617,-0.054335,-0.004272,-0.000162,-0.001052,-0.087204,-0.0,-0.0,2.0,0.282024,0.247042,0.282024,0.311649,,,,,,
280318,-0.153442,0.014501,-0.053838,-0.003208,-0.000163,-0.001052,-0.087266,-0.0,-0.0,2.0,0.282024,0.249564,0.282024,0.309827,,,,,,
280338,-0.154426,0.014633,-0.053335,-0.001095,-0.000327,-0.002103,-0.087137,-0.0,-0.0,2.0,0.282024,0.250035,0.282024,0.309482,,,,,,
280358,-0.154914,0.014769,-0.052953,-0.001093,-0.00138,-0.001939,-0.08702,-0.0,-0.0,2.0,0.282024,0.248918,0.282024,0.310298,,,,,,
280378,-0.155152,0.014669,-0.052593,-1.3e-05,-0.001216,-0.000887,-0.086668,-0.0,-0.0,2.0,0.282024,0.249737,0.282024,0.309701,,,,,,
280398,-0.154785,0.014708,-0.052235,-1.3e-05,-0.001216,-0.000888,-0.086147,-0.0,-0.0,2.0,0.282024,0.248809,0.282024,0.310377,,,,,,
280418,-0.154299,0.014872,-0.05187,-1.6e-05,-0.000164,-0.001052,-0.085461,-0.0,-0.0,2.0,0.282024,0.247874,0.282024,0.311053,,,,,,
280438,-0.153802,0.014903,-0.051626,0.001033,-0.000326,-0.002104,-0.084816,-0.0,-0.0,2.0,0.282024,0.248921,0.282024,0.310296,,,,,,
280458,-0.153071,0.014942,-0.051395,0.001049,-0.000162,-0.001052,-0.083952,-0.0,-0.0,2.0,0.282024,0.248017,0.282024,0.31095,,,,,,
280478,-0.152448,0.014856,-0.051163,0.001049,-0.000162,-0.001052,-0.083019,-0.0,-0.0,2.0,0.282024,0.24701,0.282024,0.311672,,,,,,
280498,-0.151839,0.014891,-0.05093,0.001051,-0.001213,-0.000891,-0.081537,-0.0,-0.0,2.0,0.282024,0.24564,0.282024,0.312643,,,,,,
280518,-0.151102,0.015041,-0.050803,0.001051,-0.001212,-0.000892,-0.080003,-0.0,-0.0,2.0,0.282024,0.244298,0.282024,0.313582,,,,,,
280538,-0.150493,0.015067,-0.050692,-1.3e-05,-0.001212,-0.000893,-0.078414,-0.0,-0.0,2.0,0.282024,0.242821,0.282024,0.314603,,,,,,
280558,-0.149753,0.015096,-0.050574,0.001064,0.0,0.0,-0.077574,-0.0,-0.0,2.0,0.282024,0.241869,0.282024,0.315253,,,,,,
280578,-0.149022,0.015115,-0.050586,0.001051,-0.00121,-0.000895,-0.075823,-0.0,-0.0,2.0,0.282024,0.240333,0.282024,0.31629,,,,,,
280598,-0.148282,0.015144,-0.050468,0.001051,-0.00121,-0.000895,-0.07397,-0.0,-0.0,2.0,0.282024,0.238737,0.282024,0.317352,,,,,,
280618,-0.147303,0.014927,-0.050502,0.002131,-0.001053,0.000156,-0.071315,-0.0,-0.0,2.0,0.282024,0.236715,0.282024,0.318675,,,,,,
280638,-0.146202,0.015078,-0.050503,0.002131,-0.001053,0.000155,-0.069677,-0.0,-0.0,2.0,0.282024,0.235382,0.282024,0.319533,,,,,,
280658,-0.144854,0.015113,-0.050516,0.002128,0.0,0.0,-0.068166,-0.0,-0.0,2.0,0.282024,0.236371,0.282024,0.318897,,,,,,
280678,-0.143393,0.015153,-0.050541,0.003177,-0.000152,-0.001053,-0.065408,-0.0,-0.0,2.0,0.282024,0.236686,0.282024,0.318694,,,,,,
280698,-0.141681,0.01519,-0.050681,0.003177,-0.00015,-0.001054,-0.062919,-0.0,-0.0,2.0,0.282024,0.235172,0.282024,0.319667,,,,,,
280718,-0.139726,0.015234,-0.050826,0.004257,0.0,0.0,-0.060194,-0.0,-0.0,2.0,0.282024,0.235769,0.282024,0.319285,,,,,,
280738,-0.137515,0.015162,-0.050974,0.005323,-0.001054,0.000146,-0.057485,-0.0,-0.0,2.0,0.282024,0.234407,0.282024,0.320154,,,,,,
280758,-0.134944,0.014979,-0.051145,0.005323,-0.001055,0.000143,-0.056004,-0.0,-0.0,2.0,0.282024,0.234071,0.282024,0.320367,,,,,,
280778,-0.132007,0.015041,-0.051416,0.005323,-0.001055,0.00014,-0.053243,-0.0,-0.0,2.0,0.282024,0.235284,0.282024,0.319596,,,,,,
280798,-0.128831,0.014998,-0.051587,0.006385,0.0,0.0,-0.05031,-0.0,-0.0,2.0,0.282024,0.238623,0.282024,0.317428,,,,,,
280818,-0.125285,0.015078,-0.051868,0.00745,0.0,0.0,-0.048613,-0.0,-0.0,2.0,0.282024,0.238768,0.282024,0.317332,,,,,,
280838,-0.121371,0.01504,-0.052282,0.008514,0.0,0.0,-0.043752,-0.0,-0.0,2.0,0.282024,0.239289,0.282024,0.316987,,,,,,
280858,-0.117336,0.015006,-0.052697,0.009578,0.0,0.0,-0.041603,-0.0,-0.0,2.0,0.282024,0.241549,0.282024,0.315471,,,,,,
280878,-0.112692,0.014991,-0.05312,0.010644,-0.001057,0.00012,-0.03794,-0.0,-0.0,2.0,0.282024,0.241207,0.282024,0.315702,,,,,,
280898,-0.107675,0.014744,-0.05356,0.010644,-0.001058,0.000114,-0.034509,-0.0,-0.0,2.0,0.282024,0.241255,0.282024,0.315669,,,,,,
280918,-0.102299,0.014753,-0.053989,0.011708,-0.001059,0.000109,-0.03282,-0.0,-0.0,2.0,0.282024,0.246628,0.282024,0.311944,,,,,,
280938,-0.096674,0.01477,-0.05441,0.011706,0.0,0.0,-0.029467,-0.0,-0.0,2.0,0.282024,0.247149,0.282024,0.311572,,,,,,
280958,-0.090686,0.014672,-0.054971,0.012771,0.0,0.0,-0.025382,-0.0,-0.0,2.0,0.282024,0.249422,0.282024,0.309931,,,,,,
280978,-0.084336,0.014709,-0.055528,0.013851,9e-05,0.001061,-0.021781,-0.0,-0.0,2.0,0.282024,0.252185,0.282024,0.307888,,,,,,
280998,-0.077735,0.014507,-0.056217,0.0149,-0.001061,8.3e-05,-0.019585,-0.0,-0.0,2.0,0.282024,0.255911,0.282024,0.305047,,,,,,
281018,-0.070647,0.014323,-0.056906,0.0149,-0.001062,7.5e-05,-0.014704,-0.0,-0.0,2.0,0.282024,0.256489,0.282024,0.304597,,,,,,
281038,-0.063072,0.014154,-0.057718,0.015978,6.7e-05,0.001062,-0.010162,-0.0,-0.0,2.0,0.282024,0.259393,0.282024,0.302301,,,,,,
281058,-0.055496,0.013993,-0.058402,0.017042,5.9e-05,0.001063,-0.008355,-0.0,-0.0,2.0,0.282024,0.263792,0.282024,0.298699,,,,,,
281078,-0.047439,0.013973,-0.059093,0.017042,0.001113,0.001013,-0.004589,-0.0,-0.0,2.0,0.282024,0.26557,0.282024,0.297201,,,,,,
281098,-0.039015,0.013964,-0.060015,0.018107,4.2e-05,0.001064,-0.000706,-0.0,-0.0,2.0,0.282024,0.269297,0.282024,0.293974,,,,,,
281118,-0.030464,0.013722,-0.060946,0.019171,3.2e-05,0.001064,0.00308,-0.0,-0.0,2.0,0.282024,0.271385,0.282024,0.292115,,,,,,
281138,-0.021426,0.013502,-0.061884,0.019171,-0.001041,0.001087,0.006007,-0.0,-0.0,2.0,0.282024,0.274196,0.282024,0.289552,,,,,,
281158,-0.012269,0.013415,-0.062801,0.019171,-0.001051,0.001077,0.009163,-0.0,-0.0,2.0,0.282024,0.280262,0.282024,0.28377,,,,,,
281178,-0.003113,0.013335,-0.063843,0.01917,3e-06,0.001064,0.011347,-0.0,-0.0,2.0,0.282024,0.28349,0.282024,0.280548,,,,,,
281198,0.006283,0.013395,-0.06489,0.020249,-1.3e-05,0.002129,0.016835,-0.0,-0.0,2.0,0.282024,0.283639,0.282024,0.280396,,,,,,
281218,0.015687,0.013218,-0.065915,0.020234,-1.7e-05,0.001064,0.021033,-0.0,-0.0,2.0,0.282024,0.287656,0.282024,0.276226,,,,,,
281238,0.02509,0.013053,-0.067063,0.020248,-5.3e-05,0.002128,0.022901,-0.0,-0.0,2.0,0.282024,0.289635,0.282024,0.274106,,,,,,
281258,0.034489,0.01314,-0.068095,0.019184,-7.3e-05,0.002127,0.026575,-0.0,-0.0,2.0,0.282024,0.293877,0.282024,0.269407,,,,,,
281278,0.043773,0.012987,-0.069114,0.01917,-4.7e-05,0.001063,0.03103,-0.0,-0.0,2.0,0.282024,0.296151,0.282024,0.266797,,,,,,
281298,0.052813,0.012841,-0.070364,0.01917,-5.6e-05,0.001063,0.03103,-0.0,-0.0,2.0,0.282024,0.298925,0.282024,0.263523,,,,,,
281318,0.061853,0.012702,-0.071482,0.018119,-0.000132,0.002125,0.034339,-0.0,-0.0,2.0,0.282024,0.301699,0.282024,0.260141,,,,,,
281338,0.070776,0.012565,-0.072482,0.018119,-0.000151,0.002123,0.040258,-0.0,-0.0,2.0,0.282024,0.303248,0.282024,0.258205,,,,,,
281358,0.079333,0.012423,-0.073471,0.018105,-8.4e-05,0.001061,0.042032,-0.0,-0.0,2.0,0.282024,0.305069,0.282024,0.255883,,,,,,
281378,0.08752,0.012403,-0.074577,0.017041,-9.3e-05,0.00106,0.045659,-0.0,-0.0,2.0,0.282024,0.305969,0.282024,0.254717,,,,,,
281398,0.095341,0.012372,-0.075555,0.01599,-0.000203,0.002119,0.048747,-0.0,-0.0,2.0,0.282024,0.306947,0.282024,0.253434,,,,,,
281418,0.102802,0.012213,-0.07652,0.014912,-0.000109,0.001059,0.05183,-0.0,-0.0,2.0,0.282024,0.307824,0.282024,0.252271,,,,,,
281438,0.109535,0.012149,-0.077379,0.013848,-0.000116,0.001058,0.054817,-0.0,-0.0,2.0,0.282024,0.308458,0.282024,0.251421,,,,,,
281458,0.115889,0.012205,-0.078349,0.012784,-0.000123,0.001057,0.056652,-0.0,-0.0,2.0,0.282024,0.309467,0.282024,0.250056,,,,,,
281478,0.121763,0.012119,-0.079187,0.011719,-0.000129,0.001056,0.058189,-0.0,-0.0,2.0,0.282024,0.310447,0.282024,0.248713,,,,,,
281498,0.127146,0.012132,-0.079909,0.009604,-0.00027,0.002111,0.06139,-0.0,-0.0,2.0,0.282024,0.310475,0.282024,0.248673,,,,,,
281518,0.1318,0.012105,-0.080391,0.008514,0.0,0.0,0.064732,-0.0,-0.0,2.0,0.282024,0.308763,0.282024,0.251011,,,,,,
281538,0.135965,0.011938,-0.08085,0.00745,0.0,0.0,0.064732,-0.0,-0.0,2.0,0.282024,0.311156,0.282024,0.24773,,,,,,
281558,0.139644,0.011745,-0.081189,0.006385,0.0,0.0,0.068985,-0.0,-0.0,2.0,0.282024,0.308657,0.282024,0.251153,,,,,,
281578,0.142718,0.011503,-0.081167,0.005321,0.0,0.0,0.071176,-0.0,-0.0,2.0,0.282024,0.30822,0.282024,0.251741,,,,,,
281598,0.145292,0.011354,-0.08102,0.004245,0.000154,-0.001053,0.073521,-0.0,-0.0,2.0,0.282024,0.307485,0.282024,0.252722,,,,,,
281618,0.147266,0.01119,-0.081014,0.003181,0.000156,-0.001053,0.074777,-0.0,-0.0,2.0,0.282024,0.306988,0.282024,0.253379,,,,,,
281638,0.148732,0.011117,-0.080869,0.002115,-0.000895,-0.00121,0.076495,-0.0,-0.0,2.0,0.282024,0.30608,0.282024,0.254571,,,,,,
281658,0.149832,0.011274,-0.080762,0.001051,-0.000893,-0.001211,0.078132,-0.0,-0.0,2.0,0.282024,0.30501,0.282024,0.255959,,,,,,
281678,0.150305,0.01164,-0.080542,-2e-06,-0.001052,-0.000159,0.079106,-0.0,-0.0,2.0,0.282024,0.303964,0.282024,0.257298,,,,,,
281698,0.150296,0.011874,-0.080439,-0.001079,-0.000893,-0.001212,0.081069,-0.0,-0.0,2.0,0.282024,0.302248,0.282024,0.259459,,,,,,
281718,0.15004,0.012211,-0.080226,-0.001079,-0.000893,-0.001211,0.082619,-0.0,-0.0,2.0,0.282024,0.30205,0.282024,0.259706,,,,,,
281738,0.149673,0.0123,-0.079996,-0.002143,-0.000894,-0.001211,0.083241,-0.0,-0.0,2.0,0.282024,0.302204,0.282024,0.259514,,,,,,
281758,0.149052,0.012388,-0.079875,-0.002141,0.000158,-0.001053,0.084276,-0.0,-0.0,2.0,0.282024,0.302049,0.282024,0.259707,,,,,,
281778,0.148688,0.012365,-0.079757,-0.001077,0.000158,-0.001053,0.085182,-0.0,-0.0,2.0,0.282024,0.300584,0.282024,0.261514,,,,,,
281798,0.148212,0.012094,-0.079622,-0.001077,0.000157,-0.001053,0.085955,-0.0,-0.0,2.0,0.282024,0.30206,0.282024,0.259694,,,,,,
281818,0.147858,0.011827,-0.079485,-0.001064,0.0,0.0,0.085955,-0.0,-0.0,2.0,0.282024,0.302455,0.282024,0.259201,,,,,,
281838,0.147729,0.011812,-0.079351,-0.001079,-0.000896,-0.001209,0.086904,-0.0,-0.0,2.0,0.282024,0.302519,0.282024,0.259121,,,,,,
281858,0.147482,0.011916,-0.079241,-0.001079,-0.000896,-0.001209,0.087126,-0.0,-0.0,2.0,0.282024,0.302863,0.282024,0.258691,,,,,,
281878,0.147477,0.012037,-0.07925,-2e-06,-0.001053,-0.000156,0.08722,-0.0,-0.0,2.0,0.282024,0.304807,0.282024,0.256221,,,,,,
281898,0.14759,0.012276,-0.079145,-1.3e-05,0.000156,-0.001053,0.087249,-0.0,-0.0,2.0,0.282024,0.305373,0.282024,0.25549,,,,,,
281918,0.147833,0.012286,-0.079143,0.0,0.0,0.0,0.087095,-0.0,-0.0,2.0,0.282024,0.306058,0.282024,0.2546,,,,,,
281938,0.147955,0.01229,-0.079142,-1.3e-05,0.000157,-0.001053,0.086789,-0.0,-0.0,2.0,0.282024,0.306778,0.282024,0.253656,,,,,,
281958,0.147961,0.01216,-0.079012,-1.3e-05,0.000157,-0.001053,0.086334,-0.0,-0.0,2.0,0.282024,0.307531,0.282024,0.25266,,,,,,
281978,0.148217,0.012058,-0.079136,-2e-06,-0.001053,-0.000157,0.086044,-0.0,-0.0,2.0,0.282024,0.308304,0.282024,0.251628,,,,,,
281998,0.148101,0.011922,-0.079007,-0.001066,-0.001053,-0.000157,0.085543,-0.0,-0.0,2.0,0.282024,0.309007,0.282024,0.25068,,,,,,
282018,0.147971,0.011916,-0.078994,-0.001079,-0.000896,-0.00121,0.084158,-0.0,-0.0,2.0,0.282024,0.308657,0.282024,0.251153,,,,,,
282038,0.147961,0.01216,-0.079012,-0.001079,-0.000896,-0.00121,0.083169,-0.0,-0.0,2.0,0.282024,0.309635,0.282024,0.249827,,,,,,
282058,0.147595,0.012155,-0.079136,-0.001079,-0.000896,-0.001209,0.082273,-0.0,-0.0,2.0,0.282024,0.310439,0.282024,0.248723,,,,,,
282078,0.147226,0.012253,-0.079027,-0.001064,0.0,0.0,0.08081,-0.0,-0.0,2.0,0.282024,0.311459,0.282024,0.247308,,,,,,
282098,0.146739,0.012234,-0.079031,-0.002128,0.0,0.0,0.079317,-0.0,-0.0,2.0,0.282024,0.311055,0.282024,0.24787,,,,,,
282118,0.146127,0.012088,-0.079013,-0.002143,-0.000898,-0.001208,0.0777,-0.0,-0.0,2.0,0.282024,0.313482,0.282024,0.244443,,,,,,
282138,0.145397,0.01206,-0.079019,-0.00213,-0.001053,-0.000154,0.076429,-0.0,-0.0,2.0,0.282024,0.312883,0.282024,0.245298,,,,,,
282158,0.144538,0.012017,-0.07889,-0.003207,-0.0009,-0.001207,0.076429,-0.0,-0.0,2.0,0.282024,0.313116,0.282024,0.244967,,,,,,
282178,0.143566,0.011971,-0.078777,-0.003207,-0.000901,-0.001206,0.072389,-0.0,-0.0,2.0,0.282024,0.314985,0.282024,0.242263,,,,,,
282198,0.142337,0.012036,-0.07866,-0.003207,-0.000902,-0.001205,0.070619,-0.0,-0.0,2.0,0.282024,0.314432,0.282024,0.24307,,,,,,
282218,0.140863,0.012101,-0.078666,-0.00427,0.000149,-0.001054,0.069519,-0.0,-0.0,2.0,0.282024,0.313508,0.282024,0.244405,,,,,,
282238,0.139147,0.012147,-0.078552,-0.005336,-0.000906,-0.001202,0.066463,-0.0,-0.0,2.0,0.282024,0.314671,0.282024,0.242722,,,,,,
282258,0.137068,0.012172,-0.078319,-0.005336,-0.000909,-0.0012,0.06402,-0.0,-0.0,2.0,0.282024,0.314056,0.282024,0.243615,,,,,,
282278,0.134618,0.012068,-0.078187,-0.006398,0.000143,-0.001055,0.061439,-0.0,-0.0,2.0,0.282024,0.313345,0.282024,0.244639,,,,,,
282298,0.131934,0.011957,-0.07807,-0.0064,-0.000915,-0.001195,0.058777,-0.0,-0.0,2.0,0.282024,0.313965,0.282024,0.243747,,,,,,
282318,0.128756,0.011818,-0.07782,-0.007462,0.000137,-0.001055,0.056986,-0.0,-0.0,2.0,0.282024,0.312603,0.282024,0.245696,,,,,,
282338,0.125324,0.011914,-0.077587,-0.008526,0.000133,-0.001056,0.055295,-0.0,-0.0,2.0,0.282024,0.311068,0.282024,0.247853,,,,,,
282358,0.121532,0.011876,-0.077346,-0.009591,0.000129,-0.001056,0.051821,-0.0,-0.0,2.0,0.282024,0.31013,0.282024,0.249149,,,,,,
282378,0.117253,0.01182,-0.077106,-0.009592,-0.000932,-0.001181,0.050327,-0.0,-0.0,2.0,0.282024,0.308106,0.282024,0.251893,,,,,,
282398,0.112605,0.011866,-0.076751,-0.010655,0.00012,-0.001058,0.045411,-0.0,-0.0,2.0,0.282024,0.30739,0.282024,0.252848,,,,,,
282418,0.107581,0.012021,-0.076388,-0.011721,-0.000944,-0.001172,0.041649,-0.0,-0.0,2.0,0.282024,0.307433,0.282024,0.25279,,,,,,
282438,0.102205,0.011927,-0.076145,-0.012785,-0.00095,-0.001167,0.04002,-0.0,-0.0,2.0,0.282024,0.306372,0.282024,0.25419,,,,,,
282458,0.096334,0.012055,-0.075792,-0.012783,0.000102,-0.001059,0.036618,-0.0,-0.0,2.0,0.282024,0.304392,0.282024,0.256752,,,,,,
282478,0.09034,0.012057,-0.075414,-0.013849,-0.000964,-0.001156,0.033175,-0.0,-0.0,2.0,0.282024,0.302337,0.282024,0.259348,,,,,,
282498,0.083991,0.011922,-0.07492,-0.014913,-0.000971,-0.00115,0.029569,-0.0,-0.0,2.0,0.282024,0.300135,0.282024,0.262061,,,,,,
282518,0.077388,0.011906,-0.074534,-0.014913,-0.000979,-0.001143,0.029569,-0.0,-0.0,2.0,0.282024,0.29764,0.282024,0.265052,,,,,,
282538,0.070543,0.012002,-0.074041,-0.01599,-0.000912,-0.002198,0.023194,-0.0,-0.0,2.0,0.282024,0.297881,0.282024,0.264767,,,,,,
282558,0.063575,0.012097,-0.073541,-0.01599,-0.000927,-0.002192,0.020351,-0.0,-0.0,2.0,0.282024,0.294918,0.282024,0.26822,,,,,,
282578,0.056359,0.012308,-0.073038,-0.015976,6e-05,-0.001063,0.015632,-0.0,-0.0,2.0,0.282024,0.294173,0.282024,0.269071,,,,,,
282598,0.049026,0.012397,-0.072525,-0.017041,-0.001011,-0.001115,0.013419,-0.0,-0.0,2.0,0.282024,0.290603,0.282024,0.273053,,,,,,
282618,0.041702,0.012364,-0.071894,-0.017054,-0.000975,-0.002171,0.009672,-0.0,-0.0,2.0,0.282024,0.289253,0.282024,0.274519,,,,,,
282638,0.034128,0.01245,-0.071259,-0.017055,-0.000991,-0.002164,0.005842,-0.0,-0.0,2.0,0.282024,0.2878,0.282024,0.276073,,,,,,
282658,0.026552,0.01254,-0.070725,-0.017041,-0.001036,-0.001092,0.003563,-0.0,-0.0,2.0,0.282024,0.285523,0.282024,0.278462,,,,,,
282678,0.018985,0.012512,-0.069966,-0.017054,-0.001024,-0.002148,-0.001504,-0.0,-0.0,2.0,0.282024,0.284527,0.282024,0.279489,,,,,,
282698,0.011542,0.01237,-0.069309,-0.017054,2.5e-05,-0.002128,-0.003817,-0.0,-0.0,2.0,0.282024,0.282219,0.282024,0.281829,,,,,,
282718,0.004095,0.012355,-0.068648,-0.01599,-0.001055,-0.002133,-0.008907,-0.0,-0.0,2.0,0.282024,0.28284,0.282024,0.281205,,,,,,
282738,-0.003359,0.012589,-0.067872,-0.01599,-0.001071,-0.002125,-0.011263,-0.0,-0.0,2.0,0.282024,0.278816,0.282024,0.28518,,,,,,
282758,-0.010443,0.012718,-0.067214,-0.015977,-0.001075,-0.001053,-0.015232,-0.0,-0.0,2.0,0.282024,0.278989,0.282024,0.285013,,,,,,
282778,-0.017772,0.012844,-0.066438,-0.01599,-0.001102,-0.002109,-0.018849,-0.0,-0.0,2.0,0.282024,0.277178,0.282024,0.286753,,,,,,
282798,-0.024982,0.013101,-0.065643,-0.015991,-0.001117,-0.002101,-0.022444,-0.0,-0.0,2.0,0.282024,0.275364,0.282024,0.288465,,,,,,
282818,-0.031945,0.013247,-0.06498,-0.015991,-0.001132,-0.002094,-0.024216,-0.0,-0.0,2.0,0.282024,0.272693,0.282024,0.290931,,,,,,
282838,-0.038898,0.013155,-0.064181,-0.014913,-4.1e-05,-0.001064,-0.028584,-0.0,-0.0,2.0,0.282024,0.272965,0.282024,0.290683,,,,,,
282858,-0.045735,0.013194,-0.06339,-0.014927,-0.00116,-0.002078,-0.028584,-0.0,-0.0,2.0,0.282024,0.267543,0.282024,0.295507,,,,,,
282878,-0.052453,0.013243,-0.062606,-0.014941,-0.000167,-0.003189,-0.035959,-0.0,-0.0,2.0,0.282024,0.269477,0.282024,0.293815,,,,,,
282898,-0.059042,0.013177,-0.061812,-0.013849,-6.3e-05,-0.001062,-0.037635,-0.0,-0.0,2.0,0.282024,0.268442,0.282024,0.294724,,,,,,
282918,-0.065512,0.013246,-0.06089,-0.013862,-0.001201,-0.002054,-0.041776,-0.0,-0.0,2.0,0.282024,0.266992,0.282024,0.295983,,,,,,
282938,-0.07162,0.013332,-0.059979,-0.013862,-0.001214,-0.002047,-0.044993,-0.0,-0.0,2.0,0.282024,0.265174,0.282024,0.297537,,,,,,
282958,-0.077734,0.013535,-0.059304,-0.013863,-0.001226,-0.00204,-0.046633,-0.0,-0.0,2.0,0.282024,0.264292,0.282024,0.298281,,,,,,
282978,-0.083475,0.013762,-0.058375,-0.0128,-0.000177,-0.002121,-0.049728,-0.0,-0.0,2.0,0.282024,0.262499,0.282024,0.299774,,,,,,
282998,-0.088977,0.014002,-0.057456,-0.011735,-0.001249,-0.002026,-0.053107,-0.0,-0.0,2.0,0.282024,0.262776,0.282024,0.299545,,,,,,
283018,-0.094225,0.013887,-0.056554,-0.011749,-0.00136,-0.003079,-0.054702,-0.0,-0.0,2.0,0.282024,0.260373,0.282024,0.301512,,,,,,
283038,-0.09911,0.01391,-0.055649,-0.011736,-0.000211,-0.002118,-0.058294,-0.0,-0.0,2.0,0.282024,0.259231,0.282024,0.302431,,,,,,
283058,-0.10375,0.014058,-0.054852,-0.010672,-0.00022,-0.002117,-0.060312,-0.0,-0.0,2.0,0.282024,0.25915,0.282024,0.302496,,,,,,
283078,-0.108263,0.013861,-0.05384,-0.009606,-0.001288,-0.002001,-0.061771,-0.0,-0.0,2.0,0.282024,0.258797,0.282024,0.302778,,,,,,
283098,-0.112421,0.014037,-0.052935,-0.008557,-0.001416,-0.003053,-0.06632,-0.0,-0.0,2.0,0.282024,0.258491,0.282024,0.303021,,,,,,
283118,-0.116207,0.014219,-0.052145,-0.008544,-0.000247,-0.002114,-0.067671,-0.0,-0.0,2.0,0.282024,0.258479,0.282024,0.303031,,,,,,
283138,-0.119874,0.014293,-0.051251,-0.008544,-0.000255,-0.002113,-0.070142,-0.0,-0.0,2.0,0.282024,0.259116,0.282024,0.302523,,,,,,
283158,-0.123296,0.014627,-0.050214,-0.007479,-0.001318,-0.001982,-0.072286,-0.0,-0.0,2.0,0.282024,0.257822,0.282024,0.303551,,,,,,
283178,-0.126354,0.014723,-0.049326,-0.00643,-0.001458,-0.003033,-0.074285,-0.0,-0.0,2.0,0.282024,0.256661,0.282024,0.304464,,,,,,
283198,-0.12928,0.014702,-0.048439,-0.007496,-0.000412,-0.003166,-0.075254,-0.0,-0.0,2.0,0.282024,0.254984,0.282024,0.305763,,,,,,
283218,-0.131715,0.014575,-0.047567,-0.006416,-0.00028,-0.00211,-0.07661,-0.0,-0.0,2.0,0.282024,0.255631,0.282024,0.305264,,,,,,
283238,-0.134283,0.014577,-0.046572,-0.005352,-0.000285,-0.00211,-0.078615,-0.0,-0.0,2.0,0.282024,0.256531,0.282024,0.304565,,,,,,
283258,-0.136724,0.014697,-0.045683,-0.004301,-0.001489,-0.003018,-0.080722,-0.0,-0.0,2.0,0.282024,0.255726,0.282024,0.305191,,,,,,
283278,-0.138676,0.014709,-0.04481,-0.004301,-0.001495,-0.003015,-0.081563,-0.0,-0.0,2.0,0.282024,0.254481,0.282024,0.30615,,,,,,
283298,-0.140508,0.014847,-0.04393,-0.005352,-0.000298,-0.002108,-0.083149,-0.0,-0.0,2.0,0.282024,0.255572,0.282024,0.30531,,,,,,
283318,-0.142209,0.014998,-0.042922,-0.004289,-0.000302,-0.002107,-0.083688,-0.0,-0.0,2.0,0.282024,0.254232,0.282024,0.30634,,,,,,
283338,-0.143675,0.015157,-0.041926,-0.003241,-0.000457,-0.00316,-0.084656,-0.0,-0.0,2.0,0.282024,0.255161,0.282024,0.305627,,,,,,
283358,-0.145018,0.015189,-0.041061,-0.002176,-0.000461,-0.00316,-0.08565,-0.0,-0.0,2.0,0.282024,0.254317,0.282024,0.306274,,,,,,
283378,-0.146104,0.014975,-0.040333,-0.002158,-0.001363,-0.001951,-0.086083,-0.0,-0.0,2.0,0.282024,0.253263,0.282024,0.307077,,,,,,
283398,-0.146835,0.014909,-0.039365,-0.003222,-0.001364,-0.00195,-0.086754,-0.0,-0.0,2.0,0.282024,0.254432,0.282024,0.306187,,,,,,
283418,-0.147438,0.014968,-0.038382,-0.00216,-0.000313,-0.002106,-0.086754,-0.0,-0.0,2.0,0.282024,0.255251,0.282024,0.305558,,,,,,
283438,-0.147921,0.015152,-0.037393,-0.001112,-0.000471,-0.003158,-0.087173,-0.0,-0.0,2.0,0.282024,0.25453,0.282024,0.306112,,,,,,
283458,-0.148158,0.01508,-0.036668,-4.8e-05,-0.000471,-0.003158,-0.087263,-0.0,-0.0,2.0,0.282024,0.25378,0.282024,0.306684,,,,,,
283478,-0.147907,0.015026,-0.035829,-1.6e-05,-0.000157,-0.001053,-0.087151,-0.0,-0.0,2.0,0.282024,0.253156,0.282024,0.307157,,,,,,
283498,-0.14777,0.0151,-0.034851,-2.9e-05,-0.001366,-0.001949,-0.087037,-0.0,-0.0,2.0,0.282024,0.254362,0.282024,0.30624,,,,,,
283518,-0.147523,0.015289,-0.033994,-4.8e-05,-0.000469,-0.003158,-0.086673,-0.0,-0.0,2.0,0.282024,0.25357,0.282024,0.306844,,,,,,
283538,-0.147152,0.015359,-0.033147,-3.2e-05,-0.000312,-0.002106,-0.08644,-0.0,-0.0,2.0,0.282024,0.252982,0.282024,0.307289,,,,,,
283558,-0.147024,0.015433,-0.032175,-3.2e-05,-0.000312,-0.002106,-0.085737,-0.0,-0.0,2.0,0.282024,0.251944,0.282024,0.308068,,,,,,
283578,-0.146888,0.015498,-0.031319,-3.3e-05,-0.000312,-0.002106,-0.08466,-0.0,-0.0,2.0,0.282024,0.24871,0.282024,0.310449,,,,,,
283598,-0.14676,0.015563,-0.030469,-3.3e-05,-0.000311,-0.002106,-0.083987,-0.0,-0.0,2.0,0.282024,0.24767,0.282024,0.311199,,,,,,
283618,-0.146509,0.015508,-0.029629,-0.001097,-0.000311,-0.002106,-0.082637,-0.0,-0.0,2.0,0.282024,0.248218,0.282024,0.310804,,,,,,
283638,-0.146384,0.015694,-0.02877,-3.3e-05,-0.00031,-0.002106,-0.08191,-0.0,-0.0,2.0,0.282024,0.247096,0.282024,0.31161,,,,,,
283658,-0.146378,0.015757,-0.027918,-3.1e-05,-0.001363,-0.001951,-0.080538,-0.0,-0.0,2.0,0.282024,0.245495,0.282024,0.312745,,,,,,
283678,-0.146241,0.01582,-0.027063,-3.1e-05,-0.001363,-0.001951,-0.079042,-0.0,-0.0,2.0,0.282024,0.243862,0.282024,0.313885,,,,,,
283698,-0.145992,0.015886,-0.026214,-3.3e-05,-0.00031,-0.002106,-0.077417,-0.0,-0.0,2.0,0.282024,0.242185,0.282024,0.315038,,,,,,
283718,-0.14562,0.015954,-0.025366,-3.4e-05,-0.000309,-0.002106,-0.07524,-0.0,-0.0,2.0,0.282024,0.240193,0.282024,0.316384,,,,,,
283738,-0.145118,0.016022,-0.024516,0.001028,0.000745,-0.00226,-0.073789,-0.0,-0.0,2.0,0.282024,0.240767,0.282024,0.315998,,,,,,
283758,-0.144627,0.016213,-0.023661,0.001013,-0.00046,-0.00316,-0.072803,-0.0,-0.0,2.0,0.282024,0.239567,0.282024,0.316802,,,,,,
283778,-0.14389,0.016154,-0.022949,0.002094,-0.000305,-0.002107,-0.070144,-0.0,-0.0,2.0,0.282024,0.237431,0.282024,0.31821,,,,,,
283798,-0.142779,0.016089,-0.022358,0.002114,-0.001205,-0.000902,-0.06731,-0.0,-0.0,2.0,0.282024,0.23536,0.282024,0.319547,,,,,,
283818,-0.141547,0.016165,-0.021516,0.003161,-0.001354,-0.001957,-0.06611,-0.0,-0.0,2.0,0.282024,0.23436,0.282024,0.320184,,,,,,
283838,-0.140192,0.016111,-0.020807,0.002094,-0.000297,-0.002108,-0.063519,-0.0,-0.0,2.0,0.282024,0.2347,0.282024,0.319968,,,,,,
283858,-0.138351,0.016061,-0.020102,0.004223,-0.000294,-0.002108,-0.060931,-0.0,-0.0,2.0,0.282024,0.237482,0.282024,0.318176,,,,,,
283878,-0.136388,0.016133,-0.01939,0.004223,-0.000289,-0.002109,-0.05954,-0.0,-0.0,2.0,0.282024,0.236862,0.282024,0.318579,,,,,,
283898,-0.134061,0.016199,-0.018804,0.005287,-0.000284,-0.00211,-0.056385,-0.0,-0.0,2.0,0.282024,0.235334,0.282024,0.319564,,,,,,
283918,-0.131359,0.016024,-0.018235,0.006354,-0.001334,-0.001971,-0.052507,-0.0,-0.0,2.0,0.282024,0.235676,0.282024,0.319345,,,,,,
283938,-0.128413,0.015849,-0.017667,0.007418,-0.001328,-0.001975,-0.050452,-0.0,-0.0,2.0,0.282024,0.237335,0.282024,0.318272,,,,,,
283958,-0.124868,0.015923,-0.017093,0.007435,-0.001188,-0.000924,-0.046536,-0.0,-0.0,2.0,0.282024,0.236083,0.282024,0.319083,,,,,,
283978,-0.12107,0.015753,-0.016533,0.008481,-0.000257,-0.002113,-0.044783,-0.0,-0.0,2.0,0.282024,0.240543,0.282024,0.316149,,,,,,
283998,-0.116908,0.015949,-0.015953,0.009544,-0.000248,-0.002114,-0.041148,-0.0,-0.0,2.0,0.282024,0.239905,0.282024,0.316577,,,,,,
284018,-0.112374,0.015894,-0.015511,0.010609,-0.000239,-0.002115,-0.037876,-0.0,-0.0,2.0,0.282024,0.24179,0.282024,0.315307,,,,,,
284038,-0.107481,0.015841,-0.015074,0.011673,-0.000228,-0.002116,-0.036212,-0.0,-0.0,2.0,0.282024,0.244909,0.282024,0.313156,,,,,,
284058,-0.102222,0.015661,-0.014767,0.012754,-0.000109,-0.001059,-0.031124,-0.0,-0.0,2.0,0.282024,0.244122,0.282024,0.313705,,,,,,
284078,-0.096473,0.015366,-0.014347,0.012756,-0.001162,-0.000957,-0.031124,-0.0,-0.0,2.0,0.282024,0.248717,0.282024,0.310444,,,,,,
284098,-0.090477,0.015186,-0.014041,0.012756,-0.001156,-0.000964,-0.024075,-0.0,-0.0,2.0,0.282024,0.249206,0.282024,0.310089,,,,,,
284118,-0.083999,0.015002,-0.013861,0.013819,-8.9e-05,-0.001061,-0.022318,-0.0,-0.0,2.0,0.282024,0.25123,0.282024,0.3086,,,,,,
284138,-0.077278,0.014946,-0.013555,0.014883,-8.2e-05,-0.001061,-0.018051,-0.0,-0.0,2.0,0.282024,0.255709,0.282024,0.305204,,,,,,
284158,-0.070308,0.014883,-0.013369,0.015948,-7.5e-05,-0.001062,-0.01557,-0.0,-0.0,2.0,0.282024,0.257553,0.282024,0.303764,,,,,,
284178,-0.062978,0.014695,-0.013313,0.017012,-6.7e-05,-0.001062,-0.011777,-0.0,-0.0,2.0,0.282024,0.258942,0.282024,0.302662,,,,,,
284198,-0.055529,0.014509,-0.013257,0.015949,-0.001122,-0.001004,-0.008124,-0.0,-0.0,2.0,0.282024,0.262284,0.282024,0.299951,,,,,,
284218,-0.047588,0.014323,-0.013201,0.017028,-0.001063,5.1e-05,-0.005594,-0.0,-0.0,2.0,0.282024,0.264712,0.282024,0.297928,,,,,,
284238,-0.039403,0.014015,-0.013146,0.017013,-0.001105,-0.001022,-0.002704,-0.0,-0.0,2.0,0.282024,0.268843,0.282024,0.294374,,,,,,
284258,-0.031345,0.013949,-0.013206,0.018077,-3.3e-05,-0.001064,0.002383,-0.0,-0.0,2.0,0.282024,0.271723,0.282024,0.291811,,,,,,
284278,-0.02292,0.013762,-0.01327,0.019141,-2.4e-05,-0.001064,0.005066,-0.0,-0.0,2.0,0.282024,0.27434,0.282024,0.289419,,,,,,
284298,-0.014618,0.013574,-0.013331,0.018077,-1.6e-05,-0.001064,0.009557,-0.0,-0.0,2.0,0.282024,0.276012,0.282024,0.287857,,,,,,
284318,-0.005949,0.013388,-0.01339,0.018092,0.001064,-6e-06,0.013542,-0.0,-0.0,2.0,0.282024,0.27647,0.282024,0.287425,,,,,,
284338,0.002597,0.013202,-0.013447,0.018092,0.0,0.0,0.017249,-0.0,-0.0,2.0,0.282024,0.280323,0.282024,0.28371,,,,,,
284358,0.01102,0.013136,-0.013501,0.018078,1.2e-05,-0.001064,0.019133,-0.0,-0.0,2.0,0.282024,0.283405,0.282024,0.280633,,,,,,
284378,0.019444,0.012949,-0.013677,0.018078,-0.001043,-0.001085,0.022724,-0.0,-0.0,2.0,0.282024,0.285672,0.282024,0.278308,,,,,,
284398,0.027747,0.012883,-0.013728,0.018092,0.0,0.0,0.026962,-0.0,-0.0,2.0,0.282024,0.286028,0.282024,0.277937,,,,,,
284418,0.035927,0.012815,-0.013777,0.017014,3.8e-05,-0.001064,0.026962,-0.0,-0.0,2.0,0.282024,0.289957,0.282024,0.273757,,,,,,
284438,0.043985,0.012749,-0.013945,0.017028,0.0,0.0,0.031075,-0.0,-0.0,2.0,0.282024,0.291871,0.282024,0.271656,,,,,,
284458,0.051558,0.012556,-0.013986,0.01595,5.5e-05,-0.001063,0.036007,-0.0,-0.0,2.0,0.282024,0.291697,0.282024,0.271849,,,,,,
284478,0.059249,0.012489,-0.014147,0.014886,6.3e-05,-0.001062,0.040071,-0.0,-0.0,2.0,0.282024,0.293509,0.282024,0.269824,,,,,,
284498,0.066577,0.01242,-0.014308,0.014899,0.0,0.0,0.043301,-0.0,-0.0,2.0,0.282024,0.294078,0.282024,0.269179,,,,,,
284518,0.073543,0.012214,-0.014095,0.013822,7.8e-05,-0.001061,0.044899,-0.0,-0.0,2.0,0.282024,0.296748,0.282024,0.266102,,,,,,
284538,0.08026,0.012263,-0.014255,0.013822,8.5e-05,-0.001061,0.048224,-0.0,-0.0,2.0,0.282024,0.297054,0.282024,0.265743,,,,,,
284558,0.086741,0.012063,-0.014282,0.012758,9.2e-05,-0.00106,0.051565,-0.0,-0.0,2.0,0.282024,0.298785,0.282024,0.26369,,,,,,
284578,0.092851,0.011859,-0.014303,0.012771,0.0,0.0,0.053887,-0.0,-0.0,2.0,0.282024,0.29931,0.282024,0.263059,,,,,,
284598,0.098716,0.011892,-0.014211,0.011694,0.000105,-0.001059,0.056532,-0.0,-0.0,2.0,0.282024,0.299626,0.282024,0.262678,,,,,,
284618,0.104094,0.011805,-0.014233,0.011693,-0.000948,-0.001169,0.058639,-0.0,-0.0,2.0,0.282024,0.301473,0.282024,0.260422,,,,,,
284638,0.109355,0.01184,-0.014262,0.01063,0.000116,-0.001058,0.062046,-0.0,-0.0,2.0,0.282024,0.301248,0.282024,0.260698,,,,,,
284658,0.114366,0.011865,-0.014165,0.009578,0.0,0.0,0.064749,-0.0,-0.0,2.0,0.282024,0.301225,0.282024,0.260727,,,,,,
284678,0.119013,0.011766,-0.014059,0.008512,-0.001057,-0.000126,0.067229,-0.0,-0.0,2.0,0.282024,0.302613,0.282024,0.259003,,,,,,
284698,0.123414,0.011794,-0.014081,0.0085,-0.000925,-0.001187,0.068385,-0.0,-0.0,2.0,0.282024,0.303058,0.282024,0.258445,,,,,,
284718,0.127449,0.01182,-0.014101,0.0085,-0.00092,-0.001191,0.070605,-0.0,-0.0,2.0,0.282024,0.304359,0.282024,0.256795,,,,,,
284738,0.131242,0.011722,-0.014113,0.006385,0.0,0.0,0.07201,-0.0,-0.0,2.0,0.282024,0.304462,0.282024,0.256663,,,,,,
284758,0.134669,0.011744,-0.01413,0.006384,-0.001055,-0.000143,0.074632,-0.0,-0.0,2.0,0.282024,0.303864,0.282024,0.257425,,,,,,
284778,0.137609,0.011754,-0.014024,0.005309,0.000146,-0.001054,0.075949,-0.0,-0.0,2.0,0.282024,0.303654,0.282024,0.257693,,,,,,
284798,0.140426,0.011781,-0.01416,0.005307,-0.000905,-0.001203,0.078155,-0.0,-0.0,2.0,0.282024,0.303024,0.282024,0.258487,,,,,,
284818,0.142749,0.011673,-0.014162,0.004255,-0.001053,-0.000151,0.079234,-0.0,-0.0,2.0,0.282024,0.304123,0.282024,0.257096,,,,,,
284838,0.144706,0.011677,-0.01405,0.003193,0.0,0.0,0.0808,-0.0,-0.0,2.0,0.282024,0.30338,0.282024,0.258039,,,,,,
284858,0.146418,0.011818,-0.014189,0.002127,-0.001053,-0.000155,0.082121,-0.0,-0.0,2.0,0.282024,0.302654,0.282024,0.258951,,,,,,
284878,0.147645,0.011704,-0.014186,0.002114,-0.000896,-0.001209,0.08329,-0.0,-0.0,2.0,0.282024,0.303263,0.282024,0.258187,,,,,,
284898,0.148374,0.011839,-0.01432,0.001064,0.0,0.0,0.084381,-0.0,-0.0,2.0,0.282024,0.302208,0.282024,0.259509,,,,,,
284918,0.148993,0.011722,-0.014315,-2e-06,-0.001052,-0.000158,0.085255,-0.0,-0.0,2.0,0.282024,0.301189,0.282024,0.260771,,,,,,
284938,0.149115,0.011714,-0.014194,-0.001078,-0.000894,-0.001211,0.085971,-0.0,-0.0,2.0,0.282024,0.301471,0.282024,0.260423,,,,,,
284958,0.14887,0.011843,-0.014324,-0.001077,0.000158,-0.001053,0.086281,-0.0,-0.0,2.0,0.282024,0.300309,0.282024,0.261849,,,,,,
284978,0.148375,0.011718,-0.01431,-0.002141,0.000157,-0.001053,0.086721,-0.0,-0.0,2.0,0.282024,0.298983,0.282024,0.263453,,,,,,
284998,0.14801,0.011603,-0.014422,-0.00213,-0.001053,-0.000157,0.087115,-0.0,-0.0,2.0,0.282024,0.300675,0.282024,0.261403,,,,,,
285018,0.147401,0.011599,-0.01442,-0.001066,-0.001053,-0.000156,0.087258,-0.0,-0.0,2.0,0.282024,0.30088,0.282024,0.261151,,,,,,
285038,0.147027,0.011483,-0.014529,-0.001078,-0.000897,-0.001209,0.08726,-0.0,-0.0,2.0,0.282024,0.301246,0.282024,0.260702,,,,,,
285058,0.146782,0.011612,-0.014659,-0.001066,-0.001053,-0.000156,0.087134,-0.0,-0.0,2.0,0.282024,0.301726,0.282024,0.260108,,,,,,
285078,0.146659,0.011742,-0.014789,-0.001066,-0.001053,-0.000156,0.086855,-0.0,-0.0,2.0,0.282024,0.302327,0.282024,0.259361,,,,,,
285098,0.146658,0.011751,-0.014911,0.0,0.0,0.0,0.08638,-0.0,-0.0,2.0,0.282024,0.303073,0.282024,0.258425,,,,,,
285118,0.146657,0.01176,-0.015033,-2e-06,-0.001053,-0.000156,0.08638,-0.0,-0.0,2.0,0.282024,0.305059,0.282024,0.255897,,,,,,
285138,0.146779,0.011648,-0.015146,-2e-06,-0.001053,-0.000156,0.085252,-0.0,-0.0,2.0,0.282024,0.306141,0.282024,0.254492,,,,,,
285158,0.146901,0.011536,-0.015259,0.0,0.0,0.0,0.084567,-0.0,-0.0,2.0,0.282024,0.307034,0.282024,0.253318,,,,,,
285178,0.1469,0.011545,-0.015381,-0.001064,0.0,0.0,0.083302,-0.0,-0.0,2.0,0.282024,0.308129,0.282024,0.251862,,,,,,
285198,0.1469,0.011432,-0.015493,-0.001064,0.0,0.0,0.08203,-0.0,-0.0,2.0,0.282024,0.307813,0.282024,0.252285,,,,,,
285218,0.146657,0.011318,-0.015606,-0.001064,0.0,0.0,0.081388,-0.0,-0.0,2.0,0.282024,0.30855,0.282024,0.251297,,,,,,
285238,0.146291,0.011324,-0.015726,-0.001066,-0.001053,-0.000155,0.07998,-0.0,-0.0,2.0,0.282024,0.309567,0.282024,0.249919,,,,,,
285258,0.145804,0.011321,-0.015725,-0.00213,-0.001053,-0.000155,0.078396,-0.0,-0.0,2.0,0.282024,0.309199,0.282024,0.25042,,,,,,
285278,0.145063,0.011446,-0.01585,-0.00213,-0.001053,-0.000154,0.077409,-0.0,-0.0,2.0,0.282024,0.309889,0.282024,0.24948,,,,,,
285298,0.144209,0.011571,-0.015979,-0.003194,-0.001053,-0.000153,0.075691,-0.0,-0.0,2.0,0.282024,0.310847,0.282024,0.248159,,,,,,
285318,0.143225,0.011572,-0.016094,-0.003205,0.000152,-0.001053,0.073848,-0.0,-0.0,2.0,0.282024,0.310399,0.282024,0.248779,,,,,,
285338,0.141876,0.011693,-0.016218,-0.003193,0.0,0.0,0.071873,-0.0,-0.0,2.0,0.282024,0.309855,0.282024,0.249526,,,,,,
285358,0.140172,0.011559,-0.016204,-0.004257,0.0,0.0,0.068938,-0.0,-0.0,2.0,0.282024,0.310982,0.282024,0.247972,,,,,,
285378,0.138329,0.011431,-0.016306,-0.005321,0.0,0.0,0.067593,-0.0,-0.0,2.0,0.282024,0.309985,0.282024,0.249348,,,,,,
285398,0.136006,0.011423,-0.016418,-0.005321,0.0,0.0,0.064558,-0.0,-0.0,2.0,0.282024,0.310908,0.282024,0.248076,,,,,,
285418,0.133439,0.011412,-0.016529,-0.006387,-0.001055,-0.000142,0.061991,-0.0,-0.0,2.0,0.282024,0.311526,0.282024,0.247214,,,,,,
285438,0.13062,0.011512,-0.016522,-0.007451,-0.001055,-0.000139,0.059335,-0.0,-0.0,2.0,0.282024,0.309248,0.282024,0.250353,,,,,,
285458,0.127444,0.011618,-0.016639,-0.008515,-0.001056,-0.000135,0.05659,-0.0,-0.0,2.0,0.282024,0.309683,0.282024,0.249761,,,,,,
285478,0.123772,0.011719,-0.016751,-0.008515,-0.001056,-0.000131,0.054834,-0.0,-0.0,2.0,0.282024,0.308044,0.282024,0.251976,,,,,,
285498,0.119858,0.011689,-0.016731,-0.009592,-0.000929,-0.001184,0.052419,-0.0,-0.0,2.0,0.282024,0.306563,0.282024,0.25394,,,,,,
285518,0.115577,0.011785,-0.01684,-0.010644,-0.001057,-0.000123,0.049644,-0.0,-0.0,2.0,0.282024,0.306499,0.282024,0.254024,,,,,,
285538,0.111053,0.011756,-0.016939,-0.010642,0.0,0.0,0.045404,-0.0,-0.0,2.0,0.282024,0.305522,0.282024,0.255297,,,,,,
285558,0.106035,0.011716,-0.016912,-0.011706,0.0,0.0,0.043219,-0.0,-0.0,2.0,0.282024,0.303401,0.282024,0.258012,,,,,,
285578,0.100902,0.011682,-0.017009,-0.011706,0.0,0.0,0.039522,-0.0,-0.0,2.0,0.282024,0.301851,0.282024,0.259953,,,,,,
285598,0.095404,0.011639,-0.016982,-0.012771,0.0,0.0,0.036157,-0.0,-0.0,2.0,0.282024,0.301466,0.282024,0.260429,,,,,,
285618,0.089538,0.011714,-0.016958,-0.013848,-0.000965,-0.001155,0.032617,-0.0,-0.0,2.0,0.282024,0.299483,0.282024,0.262851,,,,,,
285638,0.083428,0.011792,-0.017055,-0.0149,-0.001061,-8.9e-05,0.030878,-0.0,-0.0,2.0,0.282024,0.298013,0.282024,0.26461,,,,,,
285658,0.076952,0.011867,-0.017148,-0.0149,-0.001061,-8.2e-05,0.028913,-0.0,-0.0,2.0,0.282024,0.294916,0.282024,0.268222,,,,,,
285678,0.070228,0.012051,-0.016996,-0.014913,-0.000987,-0.001136,0.02547,-0.0,-0.0,2.0,0.282024,0.292316,0.282024,0.271161,,,,,,
285698,0.06339,0.012122,-0.017087,-0.015964,-0.001062,-6.7e-05,0.019586,-0.0,-0.0,2.0,0.282024,0.292288,0.282024,0.271192,,,,,,
285718,0.056183,0.012185,-0.01705,-0.015963,0.0,0.0,0.017483,-0.0,-0.0,2.0,0.282024,0.290317,0.282024,0.273365,,,,,,
285738,0.048975,0.01225,-0.017133,-0.017028,0.0,0.0,0.012812,-0.0,-0.0,2.0,0.282024,0.287931,0.282024,0.275934,,,,,,
285758,0.04165,0.01219,-0.017092,-0.017028,-0.001063,-4.4e-05,0.009193,-0.0,-0.0,2.0,0.282024,0.286505,0.282024,0.277438,,,,,,
285778,0.034081,0.012247,-0.016929,-0.017041,-0.001027,-0.0011,0.00544,-0.0,-0.0,2.0,0.282024,0.284981,0.282024,0.279022,,,,,,
285798,0.026509,0.01243,-0.01701,-0.017028,-0.001064,-2.8e-05,0.003576,-0.0,-0.0,2.0,0.282024,0.28245,0.282024,0.281597,,,,,,
285818,0.018939,0.012489,-0.016965,-0.017028,-0.001064,-2e-05,0.000869,-0.0,-0.0,2.0,0.282024,0.280296,0.282024,0.283737,,,,,,
285838,0.01137,0.012548,-0.016921,-0.017028,-0.001064,-1.2e-05,-0.002863,-0.0,-0.0,2.0,0.282024,0.278569,0.282024,0.285419,,,,,,
285858,0.003799,0.012728,-0.016872,-0.017028,-0.001064,-4e-06,-0.007605,-0.0,-0.0,2.0,0.282024,0.277282,0.282024,0.286654,,,,,,
285878,-0.00377,0.012786,-0.016824,-0.017028,-0.001064,4e-06,-0.011947,-0.0,-0.0,2.0,0.282024,0.275773,0.282024,0.288082,,,,,,
285898,-0.011462,0.012843,-0.016898,-0.017041,-0.001076,-0.001052,-0.014591,-0.0,-0.0,2.0,0.282024,0.273296,0.282024,0.29038,,,,,,
285918,-0.01891,0.013023,-0.016845,-0.017028,0.0,0.0,-0.018185,-0.0,-0.0,2.0,0.282024,0.271339,0.282024,0.292156,,,,,,
285938,-0.02648,0.013083,-0.016672,-0.017027,-0.001064,2.8e-05,-0.021766,-0.0,-0.0,2.0,0.282024,0.26925,0.282024,0.294015,,,,,,
285958,-0.033927,0.013019,-0.016622,-0.017041,-0.0011,-0.001028,-0.025334,-0.0,-0.0,2.0,0.282024,0.267131,0.282024,0.295864,,,,,,
285978,-0.041254,0.013076,-0.016691,-0.015963,-0.001063,4.4e-05,-0.029052,-0.0,-0.0,2.0,0.282024,0.266898,0.282024,0.296065,,,,,,
285998,-0.04858,0.013259,-0.016512,-0.015963,-0.001063,5.2e-05,-0.029052,-0.0,-0.0,2.0,0.282024,0.262802,0.282024,0.299524,,,,,,
286018,-0.055543,0.013322,-0.016461,-0.015963,-0.001063,5.9e-05,-0.033477,-0.0,-0.0,2.0,0.282024,0.261187,0.282024,0.300851,,,,,,
286038,-0.062502,0.013509,-0.016279,-0.014928,-0.000133,-0.002124,-0.037319,-0.0,-0.0,2.0,0.282024,0.261072,0.282024,0.300945,,,,,,
286058,-0.069099,0.013575,-0.016228,-0.014899,0.0,0.0,-0.040264,-0.0,-0.0,2.0,0.282024,0.258746,0.282024,0.302818,,,,,,
286078,-0.075573,0.01365,-0.015932,-0.013848,-0.001142,-0.000981,-0.044425,-0.0,-0.0,2.0,0.282024,0.259008,0.282024,0.302609,,,,,,
286098,-0.081802,0.013602,-0.015763,-0.013848,-0.001148,-0.000974,-0.04752,-0.0,-0.0,2.0,0.282024,0.256881,0.282024,0.304291,,,,,,
286118,-0.087666,0.01368,-0.015592,-0.012785,-9.3e-05,-0.00106,-0.050623,-0.0,-0.0,2.0,0.282024,0.254932,0.282024,0.305803,,,,,,
286138,-0.093164,0.013639,-0.015428,-0.012771,0.0,0.0,-0.052082,-0.0,-0.0,2.0,0.282024,0.255978,0.282024,0.304995,,,,,,
286158,-0.09854,0.013856,-0.015009,-0.01172,-0.001164,-0.000954,-0.055432,-0.0,-0.0,2.0,0.282024,0.254342,0.282024,0.306256,,,,,,
286178,-0.10355,0.013949,-0.01472,-0.010655,-0.001169,-0.000949,-0.056965,-0.0,-0.0,2.0,0.282024,0.253739,0.282024,0.306716,,,,,,
286198,-0.108194,0.014046,-0.014434,-0.009591,-0.001173,-0.000943,-0.060257,-0.0,-0.0,2.0,0.282024,0.252434,0.282024,0.307701,,,,,,
286218,-0.112472,0.014148,-0.01415,-0.009591,-0.001177,-0.000938,-0.063619,-0.0,-0.0,2.0,0.282024,0.253261,0.282024,0.307078,,,,,,
286238,-0.116506,0.01413,-0.013874,-0.008514,0.0,0.0,-0.065138,-0.0,-0.0,2.0,0.282024,0.253144,0.282024,0.307166,,,,,,
286258,-0.120297,0.014244,-0.013472,-0.007463,-0.001184,-0.000929,-0.067927,-0.0,-0.0,2.0,0.282024,0.253856,0.282024,0.306626,,,,,,
286278,-0.123721,0.014363,-0.013072,-0.007478,-0.001319,-0.001981,-0.070209,-0.0,-0.0,2.0,0.282024,0.25263,0.282024,0.307553,,,,,,
286298,-0.126896,0.014476,-0.012794,-0.007463,-0.00119,-0.000921,-0.072347,-0.0,-0.0,2.0,0.282024,0.251442,0.282024,0.308442,,,,,,
286318,-0.129954,0.014477,-0.012404,-0.007465,-0.000138,-0.001055,-0.073918,-0.0,-0.0,2.0,0.282024,0.249906,0.282024,0.309576,,,,,,
286338,-0.132639,0.014612,-0.011886,-0.006401,-0.000141,-0.001055,-0.075616,-0.0,-0.0,2.0,0.282024,0.250582,0.282024,0.30908,,,,,,
286358,-0.135211,0.014741,-0.011493,-0.005352,-0.000287,-0.002109,-0.077578,-0.0,-0.0,2.0,0.282024,0.251484,0.282024,0.308411,,,,,,
286378,-0.137653,0.014619,-0.011237,-0.004286,-0.001346,-0.001962,-0.078875,-0.0,-0.0,2.0,0.282024,0.250174,0.282024,0.30938,,,,,,
286398,-0.139729,0.014631,-0.010854,-0.005334,-0.001202,-0.000906,-0.079712,-0.0,-0.0,2.0,0.282024,0.248753,0.282024,0.310418,,,,,,
286418,-0.141683,0.014652,-0.010351,-0.005334,-0.001204,-0.000903,-0.081492,-0.0,-0.0,2.0,0.282024,0.249892,0.282024,0.309587,,,,,,
286438,-0.143515,0.014798,-0.00984,-0.004288,-0.000304,-0.002107,-0.082729,-0.0,-0.0,2.0,0.282024,0.248811,0.282024,0.310375,,,,,,
286458,-0.145226,0.014936,-0.009452,-0.004291,0.000745,-0.00226,-0.083824,-0.0,-0.0,2.0,0.282024,0.247757,0.282024,0.311137,,,,,,
286478,-0.146693,0.014954,-0.009074,-0.003208,-0.000156,-0.001053,-0.08477,-0.0,-0.0,2.0,0.282024,0.248678,0.282024,0.310472,,,,,,
286498,-0.147916,0.014852,-0.008708,-0.002144,-0.000157,-0.001053,-0.085225,-0.0,-0.0,2.0,0.282024,0.247481,0.282024,0.311334,,,,,,
286518,-0.149018,0.014883,-0.008213,-0.002142,-0.00121,-0.000895,-0.086157,-0.0,-0.0,2.0,0.282024,0.246602,0.282024,0.311962,,,,,,
286538,-0.149624,0.014907,-0.007842,-0.002142,-0.001211,-0.000894,-0.086499,-0.0,-0.0,2.0,0.282024,0.247692,0.282024,0.311184,,,,,,
286558,-0.150229,0.014809,-0.007481,-0.00108,-0.000159,-0.001052,-0.087026,-0.0,-0.0,2.0,0.282024,0.248852,0.282024,0.310346,,,,,,
286578,-0.150592,0.014835,-0.007112,-1.3e-05,-0.001212,-0.000893,-0.087197,-0.0,-0.0,2.0,0.282024,0.247996,0.282024,0.310965,,,,,,
286598,-0.150589,0.014862,-0.006747,-1.3e-05,-0.001212,-0.000893,-0.087265,-0.0,-0.0,2.0,0.282024,0.249244,0.282024,0.310061,,,,,,
286618,-0.150464,0.014769,-0.006392,-1.1e-05,-0.002264,-0.000733,-0.08717,-0.0,-0.0,2.0,0.282024,0.248513,0.282024,0.310591,,,,,,
286638,-0.150219,0.014919,-0.00602,-1.3e-05,-0.001212,-0.000893,-0.087065,-0.0,-0.0,2.0,0.282024,0.247846,0.282024,0.311072,,,,,,
286658,-0.149729,0.014949,-0.005659,-1.6e-05,-0.000159,-0.001052,-0.086736,-0.0,-0.0,2.0,0.282024,0.24719,0.282024,0.311543,,,,,,
286678,-0.149361,0.014978,-0.005297,-1.6e-05,-0.000158,-0.001052,-0.08607,-0.0,-0.0,2.0,0.282024,0.248219,0.282024,0.310804,,,,,,
286698,-0.149237,0.015006,-0.004932,-3.2e-05,-0.000316,-0.002105,-0.085432,-0.0,-0.0,2.0,0.282024,0.245178,0.282024,0.312968,,,,,,
286718,-0.148981,0.015033,-0.004568,-1.6e-05,-0.000158,-0.001053,-0.084815,-0.0,-0.0,2.0,0.282024,0.242166,0.282024,0.315051,,,,,,
286738,-0.148858,0.01493,-0.004335,-1.3e-05,-0.00121,-0.000895,-0.084276,-0.0,-0.0,2.0,0.282024,0.241108,0.282024,0.315769,,,,,,
286758,-0.148854,0.015088,-0.003839,-0.00108,-0.000158,-0.001053,-0.082892,-0.0,-0.0,2.0,0.282024,0.239395,0.282024,0.316916,,,,,,
286778,-0.148973,0.015115,-0.003473,-0.00108,-0.000158,-0.001053,-0.081682,-0.0,-0.0,2.0,0.282024,0.237713,0.282024,0.318025,,,,,,
286798,-0.148971,0.015011,-0.003238,-1.6e-05,-0.000158,-0.001053,-0.080313,-0.0,-0.0,2.0,0.282024,0.238108,0.282024,0.317766,,,,,,
286818,-0.148848,0.014908,-0.003005,-1.3e-05,-0.00121,-0.000895,-0.078809,-0.0,-0.0,2.0,0.282024,0.236345,0.282024,0.318914,,,,,,
286838,-0.148601,0.014814,-0.002651,-1.3e-05,-0.00121,-0.000895,-0.077874,-0.0,-0.0,2.0,0.282024,0.235,0.282024,0.319777,,,,,,
286858,-0.148356,0.014712,-0.002418,-1.1e-05,-0.002262,-0.000738,-0.075504,-0.0,-0.0,2.0,0.282024,0.232679,0.282024,0.321241,,,,,,
286878,-0.147866,0.014862,-0.002048,-1.3e-05,-0.001209,-0.000896,-0.0743,-0.0,-0.0,2.0,0.282024,0.231234,0.282024,0.322135,,,,,,
286898,-0.14749,0.015002,-0.001798,-1.6e-05,-0.000156,-0.001053,-0.073204,-0.0,-0.0,2.0,0.282024,0.231955,0.282024,0.32169,,,,,,
286918,-0.146757,0.015152,-0.001429,0.001048,-0.000156,-0.001053,-0.070156,-0.0,-0.0,2.0,0.282024,0.229404,0.282024,0.323251,,,,,,
286938,-0.146025,0.015172,-0.001192,0.001048,-0.000155,-0.001053,-0.06758,-0.0,-0.0,2.0,0.282024,0.229335,0.282024,0.323293,,,,,,
286958,-0.145162,0.01519,-0.000955,0.002112,-0.000154,-0.001053,-0.065129,-0.0,-0.0,2.0,0.282024,0.227182,0.282024,0.324581,,,,,,
286978,-0.144056,0.014966,-0.000737,0.003179,-0.001206,-0.000901,-0.063839,-0.0,-0.0,2.0,0.282024,0.225956,0.282024,0.325302,,,,,,
286998,-0.142462,0.014864,-0.000514,0.003179,-0.001205,-0.000902,-0.061259,-0.0,-0.0,2.0,0.282024,0.224142,0.282024,0.326354,,,,,,
287018,-0.140626,0.014753,-0.000415,0.003179,-0.001203,-0.000905,-0.061259,-0.0,-0.0,2.0,0.282024,0.226571,0.282024,0.324942,,,,,,
287038,-0.138668,0.014773,-0.000186,0.004241,-0.000147,-0.001054,-0.056092,-0.0,-0.0,2.0,0.282024,0.225501,0.282024,0.325568,,,,,,
287058,-0.136345,0.014784,-8.2e-05,0.004241,-0.000145,-0.001054,-0.052389,-0.0,-0.0,2.0,0.282024,0.225657,0.282024,0.325477,,,,,,
287078,-0.133526,0.014916,2.7e-05,0.005303,0.000913,-0.001197,-0.050409,-0.0,-0.0,2.0,0.282024,0.227333,0.282024,0.324492,,,,,,
287098,-0.130473,0.01492,4e-06,0.007434,-0.000138,-0.001055,-0.046593,-0.0,-0.0,2.0,0.282024,0.227906,0.282024,0.324151,,,,,,
287118,-0.127046,0.014801,-2.9e-05,0.007434,-0.000135,-0.001056,-0.044996,-0.0,-0.0,2.0,0.282024,0.228042,0.282024,0.324069,,,,,,
287138,-0.123133,0.014676,-0.000188,0.008516,-0.001056,0.000131,-0.041731,-0.0,-0.0,2.0,0.282024,0.22958,0.282024,0.323145,,,,,,
287158,-0.118977,0.014429,-0.000355,0.010644,-0.001057,0.000126,-0.038438,-0.0,-0.0,2.0,0.282024,0.231256,0.282024,0.322122,,,,,,
287178,-0.114089,0.014305,-0.00052,0.010644,-0.001057,0.000121,-0.035114,-0.0,-0.0,2.0,0.282024,0.231208,0.282024,0.322151,,,,,,
287198,-0.108829,0.014175,-0.000808,0.011708,-0.001058,0.000116,-0.035114,-0.0,-0.0,2.0,0.282024,0.23578,0.282024,0.319278,,,,,,
287218,-0.103454,0.014169,-0.00109,0.012771,0.0,0.0,-0.027931,-0.0,-0.0,2.0,0.282024,0.235747,0.282024,0.319299,,,,,,
287238,-0.097465,0.014158,-0.001499,0.012771,0.0,0.0,-0.02549,-0.0,-0.0,2.0,0.282024,0.239138,0.282024,0.317087,,,,,,
287258,-0.090994,0.014146,-0.002034,0.012771,0.0,0.0,-0.023462,-0.0,-0.0,2.0,0.282024,0.243053,0.282024,0.314443,,,,,,
287278,-0.084522,0.014141,-0.002446,0.014899,0.0,0.0,-0.018803,-0.0,-0.0,2.0,0.282024,0.245327,0.282024,0.312863,,,,,,
287298,-0.077315,0.014008,-0.003113,0.015963,0.0,0.0,-0.015015,-0.0,-0.0,2.0,0.282024,0.246618,0.282024,0.311951,,,,,,
