time_ms,roll,pitch,yaw,reference_roll,reference_pitch,reference_yaw,reference_throttle,throttle_1,throttle_2,throttle_3,throttle_4,roll_predicted,pitch_predicted,yaw_predicted,roll_rate_predicted,pitch_rate_predicted,yaw_rate_predicted,value1,value2,value3,value4,value5,value6
100637,0.005519,-0.020295,-0.286703,0.0,-0.0,-0.0,2.0,0.282024,0.285139,0.282024,0.278859,0.064786,-224.2841,27.625558,0.074651,-3.00374,-0.852721,0.00651,-0.014765,-0.187656,-0.0244,-4e-05,-9.2e-05
100657,0.005174,-0.020469,-0.286707,0.087266,-0.0,-0.0,2.0,0.282024,0.259203,0.282024,0.302453,0.133246,-224.340857,27.696706,0.046558,-2.793385,-0.852953,0.006025,-0.014766,-0.187658,-0.024051,-4.7e-05,-9.2e-05
100677,0.004794,-0.0204,-0.286711,0.087266,-0.0,-0.0,2.0,0.282024,0.264319,0.282024,0.298258,0.230237,-224.391525,27.796291,-0.014799,-2.57949,-0.85292,0.005767,-0.014767,-0.18766,-0.024078,-3.9e-05,-0.000104
100697,0.004795,-0.0204,-0.286827,0.087266,-0.0,-0.0,2.0,0.282024,0.261243,0.282024,0.300805,0.366426,-224.434867,27.937607,-0.242887,-2.359421,-0.85445,0.005423,-0.014768,-0.187662,-0.000324,-5.4e-05,-9.2e-05
100717,0.005054,-0.020486,-0.286824,0.087266,-0.0,-0.0,2.0,0.282024,0.275352,0.282024,0.288476,0.555301,-224.468964,28.136437,-0.532015,-2.130802,-0.861237,0.005663,-0.014769,-0.187664,0.000114,-5.1e-05,-0.000103
100737,0.0059,-0.020363,-0.286815,0.087266,-0.0,-0.0,2.0,0.282024,0.280706,0.282024,0.283333,0.803547,-224.491225,28.400731,-0.90189,-1.892364,-0.875372,0.006147,-0.01477,-0.187666,0.048228,-4e-05,-0.000102
100757,0.006763,-0.020362,-0.286805,0.087266,-0.0,-0.0,2.0,0.282024,0.286735,0.282024,0.277198,1.084606,-224.499474,28.705704,-1.369676,-1.641701,-0.898459,0.007009,-0.01477,-0.187668,0.048342,-4e-05,-0.000101
100777,0.007765,-0.020464,-0.286794,0.087266,-0.0,-0.0,2.0,0.282024,0.294476,0.282024,0.268726,1.333536,-224.494413,28.988162,-1.895553,-1.375876,-0.928281,0.008114,-0.014771,-0.18767,0.024376,-3.8e-05,-0.0001
100797,0.00875,-0.020445,-0.286898,0.087266,-0.0,-0.0,2.0,0.282024,0.288089,0.282024,0.275765,1.5008,-224.480211,29.199037,-2.38603,-1.093394,-0.958693,0.008961,-0.014772,-0.187672,0.051801,-3.6e-05,-0.00011
100817,0.009493,-0.02046,-0.287005,0.087266,-0.0,-0.0,2.0,0.282024,0.286592,0.282024,0.277348,1.584399,-224.461541,29.334901,-2.759944,-0.795785,-0.983867,0.009859,-0.014773,-0.187674,0.024507,-4.9e-05,-0.00012
100837,0.009891,-0.020649,-0.286999,0.087266,-0.0,-0.0,2.0,0.282024,0.280311,0.282024,0.283722,1.604147,-224.441397,29.41291,-2.990814,-0.487097,-1.001302,0.0105,-0.014774,-0.187676,0.024177,-6.5e-05,-0.000119
100857,0.01015,-0.020735,-0.286996,0.087266,-0.0,-0.0,2.0,0.282024,0.269952,0.282024,0.293395,1.579238,-224.421085,29.449413,-3.093134,-0.172196,-1.011207,0.010743,-0.014775,-0.187679,-0.000232,-6.3e-05,-0.000119
100877,0.010013,-0.020631,-0.287114,0.087266,-0.0,-0.0,2.0,0.282024,0.261398,0.282024,0.300679,1.523422,-224.400813,29.45574,-3.095296,0.144509,-1.014852,0.010761,-0.014776,-0.187681,0.023979,-7.3e-05,-0.00013
100897,0.009891,-0.020649,-0.286999,0.087266,-0.0,-0.0,2.0,0.282024,0.266394,0.282024,0.296497,1.446307,-224.380147,29.439609,-3.007339,0.459455,-1.014744,0.01076,-0.014778,-0.187684,-0.003375,-6.2e-05,-0.00013
100917,0.010013,-0.020631,-0.287114,0.087266,-0.0,-0.0,2.0,0.282024,0.261259,0.282024,0.300792,1.355655,-224.358261,29.406853,-2.835485,0.769284,-1.014246,0.010604,-0.014779,-0.187686,0.00346,-6.4e-05,-0.000118
100937,0.010132,-0.020614,-0.286996,0.087266,-0.0,-0.0,2.0,0.282024,0.264892,0.282024,0.297776,1.257682,-224.334187,29.362454,-2.637827,1.071849,-1.01353,0.010742,-0.01478,-0.187689,0.020831,-4.8e-05,-0.000129
100957,0.010512,-0.020683,-0.286991,0.087266,-0.0,-0.0,2.0,0.282024,0.275762,0.282024,0.288092,1.157163,-224.306994,29.310875,-2.435572,1.366378,-1.01264,0.011122,-0.014782,-0.187691,0.024047,-6.7e-05,-0.000117
100977,0.011394,-0.020801,-0.287095,0.087266,-0.0,-0.0,2.0,0.282024,0.275548,0.282024,0.288293,1.058049,-224.275892,29.256018,-2.232748,1.6524,-1.011618,0.011622,-0.014783,-0.187694,0.051699,-8.3e-05,-0.000116
100997,0.012257,-0.020799,-0.287083,0.087266,-0.0,-0.0,2.0,0.282024,0.281084,0.282024,0.28296,0.963476,-224.240286,29.201059,-2.034622,1.929457,-1.010504,0.012486,-0.014784,-0.187696,0.0518,-8.2e-05,-0.000126
101017,0.013519,-0.020987,-0.287233,0.087266,-0.0,-0.0,2.0,0.282024,0.290194,0.282024,0.273498,0.875603,-224.199794,29.148324,-1.847342,2.19716,-1.009333,0.013625,-0.014786,-0.187699,0.072729,-8.9e-05,-0.000136
101037,0.014884,-0.021035,-0.287328,0.087266,-0.0,-0.0,2.0,0.282024,0.291,0.282024,0.272617,0.795621,-224.154227,29.099286,-1.674966,2.455162,-1.008131,0.01487,-0.014788,-0.187701,0.072505,-9.5e-05,-0.000139
101057,0.01611,-0.020981,-0.28731,0.087266,-0.0,-0.0,2.0,0.282024,0.288847,0.282024,0.274956,0.723932,-224.10355,29.054697,-1.519207,2.703081,-1.006921,0.016218,-0.01479,-0.187704,0.051576,-0.000102,-0.000136
101077,0.017215,-0.020944,-0.287293,0.087266,-0.0,-0.0,2.0,0.282024,0.293684,0.282024,0.269626,0.660378,-224.047842,29.014766,-1.380234,2.940438,-1.005718,0.017582,-0.014792,-0.187707,0.048437,-9.4e-05,-0.000157
101097,0.01846,-0.021008,-0.287504,0.087266,-0.0,-0.0,2.0,0.282024,0.285641,0.282024,0.278339,0.604452,-223.987262,28.979353,-1.257315,3.166618,-1.004532,0.018567,-0.014794,-0.18771,0.075864,-0.000102,-0.000155
101117,0.019098,-0.021164,-0.287377,0.087266,-0.0,-0.0,2.0,0.282024,0.276569,0.282024,0.287331,0.555469,-223.922024,28.948119,-1.14921,3.380865,-1.003372,0.019448,-0.014796,-0.187713,0.048237,-0.000104,-0.000154
101137,0.019478,-0.021232,-0.28737,0.087266,-0.0,-0.0,2.0,0.282024,0.272868,0.282024,0.290772,0.512683,-223.852381,28.920635,-1.054448,3.582282,-1.002241,0.02007,-0.014798,-0.187717,-0.000122,-0.00011,-0.000153
101157,0.019738,-0.021316,-0.287481,0.087266,-0.0,-0.0,2.0,0.282024,0.265156,0.282024,0.297552,0.475355,-223.778614,28.896451,-0.971525,3.769851,-1.001142,0.02033,-0.0148,-0.18772,0.024062,-0.000117,-0.000163
101177,0.019841,-0.021178,-0.28748,0.087266,-0.0,-0.0,2.0,0.282024,0.259984,0.282024,0.301826,0.442797,-223.701032,28.875138,-0.899007,3.942465,-1.000078,0.02045,-0.014803,-0.187723,0.02754,-0.000127,-0.000151
101197,0.019961,-0.021162,-0.287362,0.087266,-0.0,-0.0,2.0,0.282024,0.266083,0.282024,0.296764,0.414388,-223.619963,28.856305,-0.835593,4.098967,-0.999049,0.020709,-0.014805,-0.187726,-0.003586,-0.000113,-0.000151
101217,0.020463,-0.021211,-0.287469,0.087266,-0.0,-0.0,2.0,0.282024,0.267024,0.282024,0.295955,0.389577,-223.535757,28.839612,-0.780121,4.238189,-0.998054,0.020934,-0.014808,-0.187729,0.024146,-0.000107,-0.000161
101237,0.021189,-0.021107,-0.287509,0.087266,-0.0,-0.0,2.0,0.282024,0.269638,0.282024,0.293674,0.367878,-223.448786,28.824764,-0.731575,4.359005,-0.997095,0.021434,-0.01481,-0.187732,0.048511,-0.00011,-0.000165
101257,0.022311,-0.021191,-0.287488,0.087266,-0.0,-0.0,2.0,0.282024,0.280948,0.282024,0.283095,0.34887,-223.359438,28.811517,-0.689067,4.460377,-0.99617,0.022436,-0.014812,-0.187736,0.044858,-0.000108,-0.000163
101277,0.023692,-0.021361,-0.287462,0.087266,-0.0,-0.0,2.0,0.282024,0.292539,0.282024,0.270913,0.332181,-223.26812,28.799667,-0.651821,4.541403,-0.995278,0.023782,-0.014814,-0.187739,0.051999,-0.000125,-0.00016
101297,0.02554,-0.021338,-0.287542,0.087266,-0.0,-0.0,2.0,0.282024,0.295604,0.282024,0.267431,0.317485,-223.175251,28.78905,-0.619155,4.601359,-0.99442,0.025266,-0.014817,-0.187742,0.124184,-0.000123,-0.000156
101317,0.027386,-0.021318,-0.28739,0.087266,-0.0,-0.0,2.0,0.282024,0.298035,0.282024,0.264584,0.304489,-223.081263,28.77954,-0.590463,4.639741,-0.993594,0.027131,-0.014819,-0.187745,0.120911,-0.00012,-0.000164
101337,0.029375,-0.021399,-0.287516,0.087266,-0.0,-0.0,2.0,0.282024,0.303171,0.282024,0.258302,0.292929,-222.986591,28.771041,-0.565199,4.656286,-0.9928,0.029223,-0.014822,-0.187748,0.075855,-0.00013,-0.000165
101357,0.031206,-0.021252,-0.287709,0.087266,-0.0,-0.0,2.0,0.282024,0.296529,0.282024,0.266357,0.282558,-222.891676,28.763493,-0.542854,4.650998,-0.992038,0.030966,-0.014825,-0.187752,0.120818,-0.000125,-0.000172
101377,0.032569,-0.021303,-0.287563,0.087266,-0.0,-0.0,2.0,0.282024,0.290372,0.282024,0.273305,0.273144,-222.796952,28.756864,-0.522948,4.624151,-0.991307,0.032555,-0.014827,-0.187755,0.072478,-0.000118,-0.000169
101397,0.03357,-0.021404,-0.287539,0.087266,-0.0,-0.0,2.0,0.282024,0.286623,0.282024,0.277315,0.264454,-222.702847,28.75116,-0.505005,4.576282,-0.990608,0.03392,-0.01483,-0.187759,0.024271,-0.000126,-0.000177
101417,0.034192,-0.021435,-0.28764,0.087266,-0.0,-0.0,2.0,0.282024,0.272663,0.282024,0.290958,0.256252,-222.609776,28.746423,-0.488543,4.508181,-0.98994,0.034559,-0.014832,-0.187762,0.048431,-0.000139,-0.000175
101437,0.03433,-0.02154,-0.28752,0.087266,-0.0,-0.0,2.0,0.282024,0.260979,0.282024,0.30102,0.248285,-222.518135,28.74274,-0.473046,4.420856,-0.989305,0.034922,-0.014835,-0.187765,0.02406,-0.000136,-0.000163
101457,0.034312,-0.02142,-0.287522,0.087266,-0.0,-0.0,2.0,0.282024,0.256895,0.282024,0.30428,0.240267,-222.428301,28.740255,-0.457944,4.315502,-0.988702,0.035043,-0.014838,-0.187769,0.003463,-0.000147,-0.000162
101477,0.034434,-0.0214,-0.287635,0.087266,-0.0,-0.0,2.0,0.282024,0.252982,0.282024,0.307288,0.231869,-222.340628,28.739184,-0.442577,4.19346,-0.988134,0.035043,-0.014841,-0.187772,9.8e-05,-0.000135,-0.000174
101497,0.034678,-0.021366,-0.287682,0.087266,-0.0,-0.0,2.0,0.282024,0.263084,0.282024,0.29929,0.222685,-222.255445,28.739839,-0.426151,4.056165,-0.987602,0.035284,-0.014843,-0.187775,0.000749,-0.000131,-0.000178
101517,0.035541,-0.021364,-0.287661,0.087266,-0.0,-0.0,2.0,0.282024,0.270165,0.282024,0.293206,0.212199,-222.173056,28.742671,-0.407671,3.9051,-0.987108,0.035787,-0.014846,-0.187779,0.024173,-0.000134,-0.000176
101537,0.036784,-0.021429,-0.287631,0.087266,-0.0,-0.0,2.0,0.282024,0.284844,0.282024,0.279163,0.199726,-222.093745,28.748327,-0.385842,3.741744,-0.986656,0.036891,-0.014848,-0.187782,0.072683,-0.000126,-0.000184
101557,0.038908,-0.021611,-0.287692,0.087266,-0.0,-0.0,2.0,0.282024,0.295831,0.282024,0.267168,0.184324,-222.017777,28.757746,-0.358917,3.567524,-0.986249,0.038496,-0.014851,-0.187786,0.100302,-0.000138,-0.000179
101577,0.041258,-0.021641,-0.287683,0.087266,-0.0,-0.0,2.0,0.282024,0.301736,0.282024,0.260095,0.164639,-221.945411,28.772325,-0.32444,3.383759,-0.985892,0.040623,-0.014854,-0.187789,0.124377,-0.000154,-0.00019
101597,0.043849,-0.021628,-0.287845,0.087266,-0.0,-0.0,2.0,0.282024,0.315303,0.282024,0.241796,0.138649,-221.876913,28.794187,-0.278834,3.191609,-0.985592,0.043333,-0.014857,-0.187793,0.124176,-0.000151,-0.000182
101617,0.046459,-0.021739,-0.287939,0.087266,-0.0,-0.0,2.0,0.282024,0.318222,0.282024,0.237411,0.103199,-221.812586,28.826677,-0.216654,2.992005,-0.985356,0.046063,-0.01486,-0.187797,0.124554,-0.00016,-0.000203
101637,0.048913,-0.021627,-0.288037,0.087266,-0.0,-0.0,2.0,0.282024,0.310244,0.282024,0.248992,0.053136,-221.752815,28.875272,-0.12925,2.785562,-0.985195,0.048412,-0.014863,-0.187801,0.121579,-0.00015,-0.000212
101657,0.050397,-0.021657,-0.287993,0.087266,-0.0,-0.0,2.0,0.282024,0.293793,0.282024,0.269502,-0.020368,-221.698175,28.949337,-0.002207,2.57244,-0.985127,0.050385,-0.014866,-0.187805,0.099901,-0.00016,-0.000206
101677,0.051382,-0.021633,-0.288079,0.087266,-0.0,-0.0,2.0,0.282024,0.285868,0.282024,0.278104,-0.133021,-221.649627,29.065476,0.187589,2.352111,-0.985306,0.051749,-0.01487,-0.187809,0.024265,-0.000157,-0.000215
101697,0.05152,-0.021736,-0.288073,0.087266,-0.0,-0.0,2.0,0.282024,0.268961,0.282024,0.29427,-0.313001,-221.608966,29.253095,0.438685,2.123386,-0.989221,0.05225,-0.014873,-0.187814,-0.003386,-0.000151,-0.000213
101717,0.051158,-0.021789,-0.288083,0.087266,-0.0,-0.0,2.0,0.282024,0.254525,0.282024,0.306116,-0.602484,-221.579659,29.555767,0.797179,1.884583,-1.002113,0.05213,-0.014876,-0.187818,-0.024053,-0.000167,-0.000213
101737,0.050795,-0.021842,-0.288093,0.087266,-0.0,-0.0,2.0,0.282024,0.251135,0.282024,0.308671,-1.008727,-221.567162,29.983476,1.342003,1.631415,-1.029976,0.051767,-0.014879,-0.187822,-0.051578,-0.000161,-0.000214
101757,0.050899,-0.021704,-0.288093,0.087266,-0.0,-0.0,2.0,0.282024,0.253356,0.282024,0.307006,-1.395043,-221.574031,30.40343,2.064253,1.356651,-1.073237,0.051508,-0.014883,-0.187826,-1.4e-05,-0.000161,-0.000214
101777,0.051762,-0.021701,-0.288066,0.087266,-0.0,-0.0,2.0,0.282024,0.26663,0.282024,0.296295,-1.61832,-221.593676,30.674814,2.77332,1.054525,-1.119769,0.051888,-0.014886,-0.187831,0.072261,-0.000162,-0.000211
101797,0.053508,-0.021817,-0.288062,0.087266,-0.0,-0.0,2.0,0.282024,0.287757,0.282024,0.276118,-1.697877,-221.617832,30.815023,3.281076,0.726806,-1.156479,0.053235,-0.014889,-0.187835,0.0967,-0.000153,-0.000212
101817,0.055975,-0.02183,-0.287867,0.087266,-0.0,-0.0,2.0,0.282024,0.304371,0.282024,0.256779,-1.69136,-221.642507,30.877127,3.550347,0.381581,-1.179643,0.055323,-0.014892,-0.187839,0.124079,-0.000157,-0.000192
101837,0.059033,-0.021628,-0.287938,0.087266,-0.0,-0.0,2.0,0.282024,0.31877,0.282024,0.236568,-1.634762,-221.666614,30.892593,3.630681,0.028012,-1.19137,0.058173,-0.014896,-0.187843,0.148247,-0.000163,-0.000187
101857,0.062264,-0.021774,-0.287876,0.087266,-0.0,-0.0,2.0,0.282024,0.331176,0.282024,0.215395,-1.547803,-221.690436,30.877764,3.583043,-0.326596,-1.194865,0.061506,-0.014899,-0.187847,0.169339,-0.000149,-0.000204
101877,0.065599,-0.021777,-0.287925,0.087266,-0.0,-0.0,2.0,0.282024,0.327673,0.282024,0.221823,-1.442458,-221.714895,30.842277,3.429068,-0.677063,-1.19439,0.064704,-0.014902,-0.187851,0.151816,-0.000165,-0.000186
101897,0.068294,-0.021631,-0.287881,0.087266,-0.0,-0.0,2.0,0.282024,0.318699,0.282024,0.236677,-1.327873,-221.741218,30.793142,3.196553,-1.019029,-1.193599,0.067672,-0.014905,-0.187855,0.149133,-0.000158,-0.000192
101917,0.07002,-0.021625,-0.287816,0.087266,-0.0,-0.0,2.0,0.282024,0.311656,0.282024,0.247032,-1.21093,-221.770623,30.736236,2.953139,-1.350351,-1.192556,0.070144,-0.014908,-0.187858,0.069173,-0.00014,-0.000184
101937,0.070887,-0.021622,-0.287834,0.087266,-0.0,-0.0,2.0,0.282024,0.287243,0.282024,0.276663,-1.096604,-221.804134,30.676507,2.716955,-1.670579,-1.191318,0.071352,-0.014911,-0.187862,0.051896,-0.000148,-0.000179
101957,0.070783,-0.021761,-0.287835,0.087266,-0.0,-0.0,2.0,0.282024,0.262453,0.282024,0.299812,-0.988573,-221.842501,30.61782,2.490489,-1.9795,-1.189937,0.071613,-0.014914,-0.187866,0.000871,-0.000148,-0.000184
101977,0.070159,-0.021723,-0.287923,0.087266,-0.0,-0.0,2.0,0.282024,0.244296,0.282024,0.313584,-0.889234,-221.886197,30.56283,2.278285,-2.276871,-1.188456,0.071239,-0.014917,-0.187869,-0.020778,-0.000154,-0.000197
101997,0.069543,-0.021683,-0.288231,0.087266,-0.0,-0.0,2.0,0.282024,0.23777,0.282024,0.317988,-0.799738,-221.935441,30.513056,2.084826,-2.562478,-1.186911,0.070515,-0.01492,-0.187873,-0.04815,-0.000153,-0.000223
102017,0.069406,-0.021575,-0.288355,0.087266,-0.0,-0.0,2.0,0.282024,0.246528,0.282024,0.312015,-0.720244,-221.990265,30.469105,1.911866,-2.836084,-1.185329,0.070033,-0.014923,-0.187878,0.024091,-0.000154,-0.000234
102037,0.070287,-0.021689,-0.288434,0.087266,-0.0,-0.0,2.0,0.282024,0.273496,0.282024,0.290196,-0.650268,-222.050563,30.430962,1.758941,-3.097323,-1.183731,0.070515,-0.014926,-0.187882,0.04843,-0.000145,-0.000243
102057,0.072258,-0.021647,-0.288411,0.087266,-0.0,-0.0,2.0,0.282024,0.29726,0.282024,0.2655,-0.588978,-222.116146,30.398249,1.624531,-3.345647,-1.182129,0.071981,-0.014929,-0.187887,0.10098,-0.000144,-0.000241
102077,0.075213,-0.021581,-0.288463,0.087266,-0.0,-0.0,2.0,0.282024,0.319462,0.282024,0.235492,-0.535399,-222.186764,30.370421,1.506718,-3.58031,-1.180534,0.074451,-0.014932,-0.187892,0.149397,-0.000141,-0.000247
102097,0.07879,-0.02154,-0.288601,0.087266,-0.0,-0.0,2.0,0.282024,0.331487,0.282024,0.214803,-0.488548,-222.262128,30.346885,1.40349,-3.800382,-1.178954,0.077665,-0.014935,-0.187897,0.19761,-0.000138,-0.000249
102117,0.082888,-0.02168,-0.288525,0.087266,-0.0,-0.0,2.0,0.282024,0.337601,0.282024,0.202414,-0.447497,-222.341918,30.327075,1.312907,-4.004776,-1.177393,0.081505,-0.014938,-0.187902,0.220692,-0.000141,-0.000249
102137,0.086602,-0.021752,-0.28841,0.087266,-0.0,-0.0,2.0,0.282024,0.341644,0.282024,0.19325,-0.411407,-222.425791,30.310484,1.233197,-4.192295,-1.175856,0.085581,-0.014941,-0.187907,0.177112,-0.000159,-0.000241
102157,0.089677,-0.021676,-0.288208,0.087266,-0.0,-0.0,2.0,0.282024,0.334396,0.282024,0.209102,-0.379535,-222.513379,30.296675,1.16279,-4.361674,-1.174346,0.089053,-0.014944,-0.187912,0.149526,-0.000159,-0.000231
102177,0.091642,-0.02164,-0.288002,0.087266,-0.0,-0.0,2.0,0.282024,0.316054,0.282024,0.240685,-0.351231,-222.604289,30.285291,1.100312,-4.511647,-1.172866,0.091525,-0.014947,-0.187916,0.076104,-0.000166,-0.000197
102197,0.092004,-0.021592,-0.287871,0.087266,-0.0,-0.0,2.0,0.282024,0.289406,0.282024,0.274354,-0.325921,-222.698108,30.276041,1.044564,-4.640999,-1.171419,0.09275,-0.01495,-0.18792,9.7e-05,-0.000154,-0.00017
102217,0.091261,-0.021583,-0.28779,0.087266,-0.0,-0.0,2.0,0.282024,0.256897,0.282024,0.304279,-0.3031,-222.794401,30.268705,0.994433,-4.748635,-1.170011,0.092493,-0.014953,-0.187923,-0.051655,-0.000136,-0.000184
102237,0.089779,-0.021544,-0.288092,0.087266,-0.0,-0.0,2.0,0.282024,0.234906,0.282024,0.319837,-0.28233,-222.892714,30.263122,0.946775,-4.833605,-1.168809,0.091356,-0.014956,-0.187927,-0.092876,-0.000143,-0.000201
102257,0.088309,-0.021624,-0.288337,0.087266,-0.0,-0.0,2.0,0.282024,0.222638,0.282024,0.327213,-0.263246,-222.992578,30.25919,0.901068,-4.895123,-1.167937,0.089764,-0.014958,-0.187931,-0.07231,-0.000139,-0.000214
102277,0.087568,-0.02161,-0.288371,0.087266,-0.0,-0.0,2.0,0.282024,0.238377,0.282024,0.317589,-0.245486,-223.093511,30.256861,0.858166,-4.932715,-1.167439,0.088557,-0.014961,-0.187936,-0.051648,-0.000142,-0.00023
102297,0.088068,-0.021654,-0.288462,0.087266,-0.0,-0.0,2.0,0.282024,0.260341,0.282024,0.301538,-0.22867,-223.195022,30.256144,0.818171,-4.946254,-1.167308,0.088298,-0.014964,-0.18794,0.051672,-0.00015,-0.00024
102317,0.090178,-0.021709,-0.28853,0.087266,-0.0,-0.0,2.0,0.282024,0.298156,0.282024,0.26444,-0.212405,-223.29662,30.257109,0.780689,-4.935943,-1.167503,0.089665,-0.014967,-0.187945,0.124086,-0.000148,-0.000248
102337,0.093761,-0.021666,-0.288697,0.087266,-0.0,-0.0,2.0,0.282024,0.327221,0.282024,0.222623,-0.196271,-223.397816,30.259898,0.745094,-4.902306,-1.167959,0.092515,-0.01497,-0.18795,0.173695,-0.000151,-0.000267
102357,0.098223,-0.021732,-0.288926,0.087266,-0.0,-0.0,2.0,0.282024,0.347679,0.282024,0.177554,-0.179807,-223.49813,30.264739,0.710631,-4.846163,-1.168602,0.096597,-0.014973,-0.187955,0.22548,-0.000159,-0.000278
102377,0.103414,-0.021702,-0.288934,0.087266,-0.0,-0.0,2.0,0.282024,0.362072,0.282024,0.15,-0.162479,-223.597091,30.271974,0.676431,-4.7686,-1.16934,0.101558,-0.014976,-0.187961,0.246061,-0.000158,-0.000274
102397,0.107996,-0.021773,-0.288675,0.087266,-0.0,-0.0,2.0,0.282024,0.365283,0.282024,0.15,-0.143645,-223.69424,30.282087,0.641476,-4.670924,-1.17007,0.106629,-0.014979,-0.187967,0.217359,-0.000146,-0.00027
102417,0.111587,-0.021873,-0.288295,0.087266,-0.0,-0.0,2.0,0.282024,0.350923,0.282024,0.167702,-0.122499,-223.78913,30.295767,0.604527,-4.55461,-1.170667,0.110825,-0.014982,-0.187972,0.149822,-0.000164,-0.000235
102437,0.113293,-0.021766,-0.287857,0.087266,-0.0,-0.0,2.0,0.282024,0.320717,0.282024,0.233514,-0.097984,-223.881318,30.313992,0.564021,-4.421238,-1.170976,0.113418,-0.014986,-0.187976,0.07248,-0.000159,-0.000176
102457,0.112905,-0.021726,-0.287367,0.087266,-0.0,-0.0,2.0,0.282024,0.281183,0.282024,0.282862,-0.068663,-223.970358,30.338167,0.517903,-4.272424,-1.170802,0.114125,-0.014989,-0.187979,-0.048191,-0.000147,-0.00013
102477,0.110777,-0.021559,-0.28721,0.087266,-0.0,-0.0,2.0,0.282024,0.237893,0.282024,0.317907,-0.032515,-224.055775,30.370347,0.458827,-4.10972,-1.170201,0.112878,-0.014991,-0.187982,-0.147993,-0.000136,-0.000123
102497,0.107419,-0.021441,-0.287178,0.087266,-0.0,-0.0,2.0,0.282024,0.178076,0.282024,0.347496,0.013282,-224.137036,30.41362,0.375097,-3.934266,-1.16969,0.1099,-0.014994,-0.187984,-0.172348,-0.000134,-0.000106
102517,0.103577,-0.021419,-0.2867,0.087266,-0.0,-0.0,2.0,0.282024,0.15,0.282024,0.358781,0.073065,-224.213475,30.472728,0.265227,-3.746922,-1.169307,0.106283,-0.014997,-0.187986,-0.196519,-0.000117,-7e-05
102537,0.100234,-0.021457,-0.285957,0.087266,-0.0,-0.0,2.0,0.282024,0.15,0.282024,0.356835,0.153794,-224.284184,30.555114,0.119474,-3.548309,-1.169075,0.102578,-0.014999,-0.187987,-0.173731,-0.000123,-3e-06
102557,0.097787,-0.021731,-0.285156,0.087266,-0.0,-0.0,2.0,0.282024,0.182473,0.282024,0.345905,0.266522,-224.347799,30.672594,-0.081707,-3.338432,-1.169024,0.099631,-0.015002,-0.187986,-0.125447,-0.000142,7.5e-05
102577,0.097159,-0.02171,-0.284905,0.087266,-0.0,-0.0,2.0,0.282024,0.233287,0.282024,0.32086,0.428034,-224.402122,30.843157,-0.354372,-3.116336,-1.170149,0.098029,-0.015005,-0.187984,-0.024237,-0.00016,0.000121
102597,0.098393,-0.021619,-0.285593,0.087266,-0.0,-0.0,2.0,0.282024,0.279367,0.282024,0.284646,0.659524,-224.443577,31.089235,-0.690314,-2.880822,-1.177098,0.098269,-0.015008,-0.187982,0.07371,-0.000146,7.3e-05
102617,0.101365,-0.021477,-0.287107,0.087266,-0.0,-0.0,2.0,0.282024,0.317991,0.282024,0.237765,0.967094,-224.467147,31.41847,-1.135681,-2.629767,-1.193789,0.100376,-0.015011,-0.187981,0.170446,-0.000127,-5.8e-05
102637,0.106178,-0.021178,-0.288746,0.087266,-0.0,-0.0,2.0,0.282024,0.349802,0.282024,0.171249,1.298251,-224.469136,31.780751,-1.704563,-2.358851,-1.221798,0.104319,-0.015013,-0.187984,0.246287,-0.000103,-0.00023
102657,0.112139,-0.021191,-0.290246,0.087266,-0.0,-0.0,2.0,0.282024,0.369536,0.282024,0.15,1.559744,-224.452408,32.084835,-2.31863,-2.063646,-1.256421,0.109625,-0.015015,-0.187989,0.325462,-9.6e-05,-0.000382
102677,0.119142,-0.021561,-0.291241,0.087266,-0.0,-0.0,2.0,0.282024,0.389321,0.282024,0.15,1.714418,-224.425043,32.293462,-2.849058,-1.743505,-1.288995,0.116247,-0.015017,-0.187998,0.373696,-0.000123,-0.000482
102697,0.126421,-0.022157,-0.291724,0.087266,-0.0,-0.0,2.0,0.282024,0.398238,0.282024,0.15,1.783071,-224.39388,32.425023,-3.220719,-1.402902,-1.313808,0.123483,-0.01502,-0.188008,0.35477,-0.000171,-0.000543
102717,0.133245,-0.023075,-0.291909,0.087266,-0.0,-0.0,2.0,0.282024,0.39583,0.282024,0.15,1.794469,-224.362568,32.504956,-3.432589,-1.048967,-1.329857,0.130539,-0.015024,-0.188019,0.353157,-0.000246,-0.000572
102737,0.139338,-0.023961,-0.292405,0.087266,-0.0,-0.0,2.0,0.282024,0.390576,0.282024,0.15,1.768631,-224.332581,32.550234,-3.518061,-0.688636,-1.338543,0.137131,-0.015029,-0.188031,0.284652,-0.000358,-0.000607
102757,0.144183,-0.024773,-0.293036,0.087266,-0.0,-0.0,2.0,0.282024,0.37638,0.282024,0.15,1.717823,-224.304206,32.570786,-3.513366,-0.32738,-1.341679,0.142615,-0.015037,-0.188044,0.253442,-0.000431,-0.000666
102777,0.147589,-0.025041,-0.293968,0.087266,-0.0,-0.0,2.0,0.282024,0.354853,0.282024,0.153669,1.649719,-224.277068,32.572551,-3.429352,0.030749,-1.34189,0.14678,-0.015046,-0.188058,0.153608,-0.000466,-0.000744
102797,0.148813,-0.024766,-0.29515,0.087266,-0.0,-0.0,2.0,0.282024,0.324388,0.282024,0.227508,1.569952,-224.250389,32.559471,-3.279508,0.382084,-1.34173,0.149188,-0.015055,-0.188073,0.026191,-0.000467,-0.000861
102817,0.147963,-0.024674,-0.296535,0.087266,-0.0,-0.0,2.0,0.282024,0.286778,0.282024,0.277152,1.482577,-224.223195,32.534608,-3.10906,0.724485,-1.341247,0.149433,-0.015064,-0.188091,-0.075447,-0.000435,-0.000994
102837,0.145244,-0.024509,-0.297893,0.087266,-0.0,-0.0,2.0,0.282024,0.235589,0.282024,0.319401,1.39062,-224.194462,32.500662,-2.929974,1.057097,-1.340488,0.147558,-0.015073,-0.188112,-0.171783,-0.000412,-0.001126
102857,0.141395,-0.024301,-0.298931,0.087266,-0.0,-0.0,2.0,0.282024,0.176594,0.282024,0.348013,1.296803,-224.163206,32.460178,-2.743553,1.37922,-1.339498,0.144119,-0.015081,-0.188136,-0.225579,-0.0004,-0.001237
102877,0.137212,-0.024442,-0.299225,0.087266,-0.0,-0.0,2.0,0.282024,0.15,0.282024,0.356278,1.203644,-224.128556,32.415555,-2.553826,1.690124,-1.338323,0.140038,-0.015089,-0.188161,-0.221985,-0.000409,-0.001298
102897,0.133398,-0.024698,-0.298737,0.087266,-0.0,-0.0,2.0,0.282024,0.15536,0.282024,0.354421,1.113317,-224.089811,32.36897,-2.366327,1.989148,-1.337007,0.135965,-0.015098,-0.188187,-0.192707,-0.000435,-0.001253
102917,0.130683,-0.024962,-0.297365,0.087266,-0.0,-0.0,2.0,0.282024,0.185133,0.282024,0.344901,1.027539,-224.046459,32.322261,-2.18566,2.275717,-1.335591,0.132529,-0.015106,-0.188211,-0.12238,-0.000465,-0.001133
102937,0.129414,-0.025018,-0.295675,0.087266,-0.0,-0.0,2.0,0.282024,0.234289,0.282024,0.320228,0.94752,-223.998188,32.276852,-2.01507,2.549282,-1.334107,0.130535,-0.015116,-0.188233,-0.053757,-0.000463,-0.000965
102957,0.129822,-0.024679,-0.294177,0.087266,-0.0,-0.0,2.0,0.282024,0.277123,0.282024,0.286806,0.873976,-223.944858,32.233735,-1.856674,2.809274,-1.332586,0.130098,-0.015125,-0.188251,0.018712,-0.000435,-0.000816
102977,0.131591,-0.024221,-0.293279,0.087266,-0.0,-0.0,2.0,0.282024,0.305324,0.282024,0.255553,0.807194,-223.88648,32.193509,-1.711619,3.055068,-1.331049,0.131134,-0.015133,-0.188266,0.116602,-0.000394,-0.000703
102997,0.134713,-0.023661,-0.292693,0.087266,-0.0,-0.0,2.0,0.282024,0.336823,0.282024,0.204081,0.747123,-223.823179,32.156455,-1.580232,3.285958,-1.329514,0.133745,-0.015141,-0.18828,0.142786,-0.000331,-0.000646
103017,0.138964,-0.02318,-0.292076,0.087266,-0.0,-0.0,2.0,0.282024,0.357633,0.282024,0.15,0.693474,-223.755169,32.122615,-1.462223,3.50115,-1.327995,0.137495,-0.015147,-0.188292,0.192816,-0.000286,-0.00058
103037,0.143888,-0.0231,-0.291268,0.087266,-0.0,-0.0,2.0,0.282024,0.369427,0.282024,0.15,0.645817,-223.682728,32.09188,-1.356897,3.699769,-1.326499,0.142022,-0.015153,-0.188304,0.270168,-0.000265,-0.000504
103057,0.149208,-0.023219,-0.290295,0.087266,-0.0,-0.0,2.0,0.282024,0.380339,0.282024,0.15,0.603642,-223.606183,32.064043,-1.263332,3.880877,-1.325035,0.147324,-0.015158,-0.188313,0.249832,-0.000277,-0.000418
103077,0.154332,-0.023599,-0.289591,0.087266,-0.0,-0.0,2.0,0.282024,0.381595,0.282024,0.15,0.566416,-223.525896,32.038857,-1.180505,4.043504,-1.323607,0.152569,-0.015164,-0.188321,0.247999,-0.000315,-0.000318
103097,0.158448,-0.023865,-0.289137,0.087266,-0.0,-0.0,2.0,0.282024,0.370491,0.282024,0.15,0.533612,-223.442256,32.016059,-1.107377,4.186694,-1.322218,0.157185,-0.015171,-0.188327,0.225709,-0.000347,-0.000275
103117,0.161317,-0.023901,-0.289415,0.087266,-0.0,-0.0,2.0,0.282024,0.353394,0.282024,0.159217,0.504731,-223.355675,31.995397,-1.042943,4.309543,-1.32087,0.160796,-0.015178,-0.188332,0.127529,-0.000359,-0.000283
103137,0.162549,-0.02378,-0.290069,0.087266,-0.0,-0.0,2.0,0.282024,0.325293,0.282024,0.225972,0.479306,-223.266584,31.976637,-0.986258,4.411251,-1.319564,0.162797,-0.015185,-0.188338,0.048165,-0.000342,-0.000339
103157,0.161783,-0.023458,-0.291007,0.087266,-0.0,-0.0,2.0,0.282024,0.296068,0.282024,0.266894,0.456908,-223.175425,31.959574,-0.93645,4.491165,-1.318301,0.163151,-0.015191,-0.188346,-0.075465,-0.000314,-0.000427
103177,0.159295,-0.023272,-0.291964,0.087266,-0.0,-0.0,2.0,0.282024,0.250492,0.282024,0.309146,0.437145,-223.082648,31.944034,-0.892715,4.548822,-1.31708,0.161397,-0.015197,-0.188355,-0.14781,-0.000288,-0.000536
103197,0.155621,-0.0234,-0.292875,0.087266,-0.0,-0.0,2.0,0.282024,0.209088,0.282024,0.334403,0.419656,-222.988711,31.929876,-0.854311,4.583981,-1.315901,0.158308,-0.015203,-0.188366,-0.197996,-0.000283,-0.00062
103217,0.151463,-0.023771,-0.29312,0.087266,-0.0,-0.0,2.0,0.282024,0.170151,0.282024,0.350155,0.404104,-222.894071,31.916992,-0.820549,4.596649,-1.314765,0.154282,-0.015209,-0.188379,-0.22216,-0.000319,-0.00066
103237,0.147426,-0.024178,-0.292659,0.087266,-0.0,-0.0,2.0,0.282024,0.164365,0.282024,0.35193,0.390172,-222.799179,31.905313,-0.790617,4.587092,-1.313683,0.150124,-0.015216,-0.188392,-0.194654,-0.000369,-0.000635
103257,0.144092,-0.024389,-0.291693,0.087266,-0.0,-0.0,2.0,0.282024,0.191322,0.282024,0.342444,0.377564,-222.704479,31.894806,-0.762234,4.555807,-1.312783,0.146429,-0.015223,-0.188404,-0.170524,-0.000392,-0.00055
103277,0.14198,-0.024544,-0.290524,0.087266,-0.0,-0.0,2.0,0.282024,0.223357,0.282024,0.326804,0.366004,-222.6104,31.885485,-0.735572,4.503503,-1.312126,0.143584,-0.015231,-0.188414,-0.100149,-0.000401,-0.000424
103297,0.141435,-0.024325,-0.2896,0.087266,-0.0,-0.0,2.0,0.282024,0.26285,0.282024,0.299484,0.35518,-222.517354,31.877413,-0.711114,4.431165,-1.31172,0.142202,-0.015239,-0.188422,-0.003822,-0.000397,-0.000316
103317,0.14231,-0.023588,-0.289466,0.087266,-0.0,-0.0,2.0,0.282024,0.300418,0.282024,0.261717,0.344732,-222.425732,31.870721,-0.688729,4.34001,-1.311535,0.142473,-0.015247,-0.188428,0.044621,-0.000329,-0.000281
103337,0.144685,-0.022831,-0.289908,0.087266,-0.0,-0.0,2.0,0.282024,0.327104,0.282024,0.222829,0.334235,-222.3359,31.865623,-0.667886,4.231422,-1.311511,0.144097,-0.015253,-0.188434,0.144387,-0.000258,-0.000309
103357,0.148001,-0.022521,-0.290653,0.087266,-0.0,-0.0,2.0,0.282024,0.34953,0.282024,0.172085,0.323179,-222.248201,31.862452,-0.64781,4.1069,-1.311571,0.147005,-0.015257,-0.188441,0.170474,-0.000205,-0.000398
103377,0.152203,-0.022312,-0.291491,0.087266,-0.0,-0.0,2.0,0.282024,0.364711,0.282024,0.15,0.31091,-222.16295,31.861713,-0.627502,3.968,-1.31162,0.150828,-0.015261,-0.188449,0.198081,-0.000188,-0.000471
103397,0.156673,-0.022322,-0.292004,0.087266,-0.0,-0.0,2.0,0.282024,0.36929,0.282024,0.15,0.296555,-222.080444,31.864163,-0.605677,3.81628,-1.311538,0.155039,-0.015265,-0.188459,0.246054,-0.000177,-0.000522
103417,0.160483,-0.022819,-0.292352,0.087266,-0.0,-0.0,2.0,0.282024,0.371836,0.282024,0.15,0.278878,-222.000962,31.87096,-0.580615,3.653247,-1.311171,0.159415,-0.015269,-0.18847,0.177769,-0.00021,-0.000567
103437,0.16319,-0.023468,-0.292778,0.087266,-0.0,-0.0,2.0,0.282024,0.356794,0.282024,0.15,0.256049,-221.924785,31.883915,-0.546132,3.48027,-1.31057,0.162735,-0.015274,-0.188482,0.109145,-0.000283,-0.000611
103457,0.164093,-0.02439,-0.293326,0.087266,-0.0,-0.0,2.0,0.282024,0.330956,0.282024,0.215811,0.225266,-221.852215,31.905991,-0.49367,3.2983,-1.31004,0.16462,-0.01528,-0.188494,0.031312,-0.000365,-0.000655
103477,0.16322,-0.025098,-0.293809,0.087266,-0.0,-0.0,2.0,0.282024,0.298023,0.282024,0.264599,0.181728,-221.783625,31.942271,-0.419279,3.107975,-1.309596,0.164637,-0.015288,-0.188507,-0.044441,-0.00044,-0.000703
103497,0.16096,-0.025638,-0.294476,0.087266,-0.0,-0.0,2.0,0.282024,0.260001,0.282024,0.301812,0.116541,-221.719564,32.002066,-0.31023,2.909542,-1.309255,0.163026,-0.015297,-0.188522,-0.146272,-0.000503,-0.000766
103517,0.157276,-0.02579,-0.295109,0.087266,-0.0,-0.0,2.0,0.282024,0.221131,0.282024,0.328061,0.011977,-221.660994,32.103875,-0.139745,2.702407,-1.309043,0.159981,-0.015307,-0.188538,-0.19603,-0.000524,-0.00083
103537,0.152909,-0.025593,-0.295298,0.087266,-0.0,-0.0,2.0,0.282024,0.177402,0.282024,0.347732,-0.170251,-221.609929,32.287427,0.126473,2.484458,-1.310386,0.155781,-0.015318,-0.188555,-0.222182,-0.000526,-0.000857
103557,0.148608,-0.025062,-0.294918,0.087266,-0.0,-0.0,2.0,0.282024,0.180778,0.282024,0.346528,-0.512553,-221.571262,32.63701,0.514662,2.252495,-1.321363,0.151515,-0.015328,-0.188572,-0.229254,-0.00047,-0.000841
103577,0.144796,-0.024601,-0.29409,0.087266,-0.0,-0.0,2.0,0.282024,0.188104,0.282024,0.343743,-1.089494,-221.556105,33.230578,1.178228,1.999658,-1.353676,0.147306,-0.015337,-0.188588,-0.177641,-0.000413,-0.000758
103597,0.142251,-0.02435,-0.292746,0.087266,-0.0,-0.0,2.0,0.282024,0.224413,0.282024,0.326198,-1.614721,-221.572427,33.788104,2.159522,1.711222,-1.41187,0.144114,-0.015345,-0.188602,-0.124187,-0.000381,-0.000626
103617,0.140974,-0.024267,-0.291469,0.087266,-0.0,-0.0,2.0,0.282024,0.255697,0.282024,0.305214,-1.835684,-221.605253,34.060977,3.08235,1.375304,-1.471923,0.142095,-0.015352,-0.188614,-0.029708,-0.000363,-0.000494
103637,0.141428,-0.024135,-0.290586,0.087266,-0.0,-0.0,2.0,0.282024,0.296671,0.282024,0.266192,-1.881639,-221.640839,34.174507,3.659482,0.998546,-1.513595,0.141797,-0.01536,-0.188623,0.023992,-0.000357,-0.000396
103657,0.143278,-0.024123,-0.290279,0.087266,-0.0,-0.0,2.0,0.282024,0.322618,0.282024,0.230446,-1.848113,-221.675,34.217089,3.911579,0.597991,-1.536327,0.142879,-0.015367,-0.188631,0.099799,-0.00035,-0.000351
103677,0.146241,-0.024032,-0.290409,0.087266,-0.0,-0.0,2.0,0.282024,0.347565,0.282024,0.177878,-1.774154,-221.707097,34.221985,3.948997,0.188861,-1.545949,0.145358,-0.015374,-0.188638,0.168572,-0.000331,-0.000353
103697,0.150046,-0.023805,-0.290596,0.087266,-0.0,-0.0,2.0,0.282024,0.362389,0.282024,0.15,-1.677245,-221.737768,34.203002,3.859091,-0.218779,-1.547636,0.148819,-0.01538,-0.188645,0.198,-0.000335,-0.000377
103717,0.154275,-0.023892,-0.290665,0.087266,-0.0,-0.0,2.0,0.282024,0.37459,0.282024,0.15,-1.567117,-221.768219,34.167433,3.660626,-0.618366,-1.547225,0.152909,-0.015387,-0.188653,0.194704,-0.00032,-0.000397
103737,0.157919,-0.024199,-0.290642,0.087266,-0.0,-0.0,2.0,0.282024,0.369604,0.282024,0.15,-1.450774,-221.799897,34.120423,3.417896,-1.005209,-1.546425,0.15688,-0.015394,-0.18866,0.199621,-0.000344,-0.000387
103757,0.160538,-0.02427,-0.290885,0.087266,-0.0,-0.0,2.0,0.282024,0.357458,0.282024,0.15,-1.33312,-221.834198,34.066371,3.175143,-1.377828,-1.545306,0.160137,-0.015401,-0.188668,0.105426,-0.000374,-0.000401
103777,0.161185,-0.024389,-0.291224,0.087266,-0.0,-0.0,2.0,0.282024,0.33183,0.282024,0.214148,-1.217978,-221.872321,34.00915,2.937565,-1.735895,-1.543934,0.161794,-0.015408,-0.188676,0.000231,-0.000378,-0.000431
103797,0.160084,-0.024413,-0.291539,0.087266,-0.0,-0.0,2.0,0.282024,0.300949,0.282024,0.261067,-1.10845,-221.915193,33.951988,2.707067,-2.079045,-1.542372,0.161658,-0.015416,-0.188685,-0.072032,-0.00037,-0.000469
103817,0.157207,-0.024201,-0.292014,0.087266,-0.0,-0.0,2.0,0.282024,0.25668,0.282024,0.304448,-1.006747,-221.963433,33.897313,2.489119,-2.406916,-1.540673,0.159568,-0.015423,-0.188695,-0.17187,-0.000368,-0.000517
103837,0.152886,-0.024228,-0.29235,0.087266,-0.0,-0.0,2.0,0.282024,0.208697,0.282024,0.334596,-0.914106,-222.017378,33.846705,2.288301,-2.719232,-1.538883,0.15585,-0.01543,-0.188705,-0.225618,-0.000352,-0.000543
103857,0.147804,-0.024281,-0.292166,0.087266,-0.0,-0.0,2.0,0.282024,0.171446,0.282024,0.349738,-0.830921,-222.077135,33.800988,2.106579,-3.015714,-1.537036,0.15114,-0.015437,-0.188716,-0.27018,-0.000365,-0.000551
103877,0.14274,-0.024495,-0.291385,0.087266,-0.0,-0.0,2.0,0.282024,0.15,0.282024,0.356655,-0.756975,-222.142632,33.760406,1.944053,-3.295973,-1.53516,0.145956,-0.015445,-0.188727,-0.24988,-0.000374,-0.000473
103897,0.13825,-0.024536,-0.289934,0.087266,-0.0,-0.0,2.0,0.282024,0.165255,0.282024,0.351666,-0.691668,-222.213676,33.724819,1.799809,-3.559447,-1.533275,0.141105,-0.015452,-0.188736,-0.201836,-0.000379,-0.000339
103917,0.135077,-0.024259,-0.288341,0.087266,-0.0,-0.0,2.0,0.282024,0.205793,0.282024,0.336009,-0.634198,-222.289991,33.69387,1.672393,-3.805394,-1.531394,0.137208,-0.01546,-0.188741,-0.15364,-0.000358,-0.000171
103937,0.133592,-0.023575,-0.287218,0.087266,-0.0,-0.0,2.0,0.282024,0.250164,0.282024,0.309387,-0.583691,-222.371243,33.667103,1.560097,-4.0329,-1.52953,0.134765,-0.015467,-0.188744,-0.057214,-0.000309,-4.4e-05
103957,0.13371,-0.022704,-0.287141,0.087266,-0.0,-0.0,2.0,0.282024,0.297103,0.282024,0.265685,-0.539283,-222.457053,33.644047,1.461164,-4.240918,-1.52769,0.134252,-0.015472,-0.188744,-0.006883,-0.000216,-2.7e-05
103977,0.13569,-0.02174,-0.287974,0.087266,-0.0,-0.0,2.0,0.282024,0.328583,0.282024,0.220191,-0.500159,-222.547014,33.624254,1.373581,-4.428319,-1.525902,0.135239,-0.015476,-0.188745,0.092985,-0.000128,-8.5e-05
103997,0.138832,-0.021061,-0.289227,0.087266,-0.0,-0.0,2.0,0.282024,0.350686,0.282024,0.168466,-0.465614,-222.64069,33.607333,1.291361,-4.59387,-1.524516,0.137734,-0.015478,-0.188748,0.194345,-5.1e-05,-0.0002
104017,0.143292,-0.020937,-0.290177,0.087266,-0.0,-0.0,2.0,0.282024,0.377963,0.282024,0.15,-0.435074,-222.737623,33.592951,1.214402,-4.73625,-1.523752,0.141779,-0.015479,-0.188753,0.198238,-1.9e-05,-0.00031
104037,0.14839,-0.020977,-0.290832,0.087266,-0.0,-0.0,2.0,0.282024,0.387579,0.282024,0.15,-0.407982,-222.837332,33.580839,1.144177,-4.854382,-1.523712,0.146497,-0.015479,-0.188759,0.24977,-2.4e-05,-0.000387
104057,0.153301,-0.021427,-0.291234,0.087266,-0.0,-0.0,2.0,0.282024,0.391986,0.282024,0.15,-0.383793,-222.939316,33.570787,1.080896,-4.94747,-1.524416,0.151649,-0.01548,-0.188767,0.249797,-6.5e-05,-0.000426
104077,0.157784,-0.022318,-0.291513,0.087266,-0.0,-0.0,2.0,0.282024,0.387837,0.282024,0.15,-0.361986,-223.043064,33.562651,1.024036,-5.015006,-1.525829,0.15644,-0.015482,-0.188776,0.208813,-0.00014,-0.000453
104097,0.161294,-0.023331,-0.292026,0.087266,-0.0,-0.0,2.0,0.282024,0.376513,0.282024,0.15,-0.342067,-223.148056,33.556353,0.9728,-5.056776,-1.527892,0.160432,-0.015485,-0.188785,0.1607,-0.000239,-0.00049
104117,0.163213,-0.024459,-0.292596,0.087266,-0.0,-0.0,2.0,0.282024,0.357583,0.282024,0.15,-0.323551,-223.253772,33.551884,0.92632,-5.072889,-1.530533,0.16324,-0.015491,-0.188796,0.081463,-0.000343,-0.000548
104137,0.163245,-0.025358,-0.293507,0.087266,-0.0,-0.0,2.0,0.282024,0.327247,0.282024,0.222577,-0.305946,-223.359695,33.549314,0.883705,-5.063783,-1.533674,0.164283,-0.015498,-0.188807,-0.016813,-0.000449,-0.000633
104157,0.161505,-0.025915,-0.294583,0.087266,-0.0,-0.0,2.0,0.282024,0.287815,0.282024,0.276057,-0.288728,-223.465314,33.548806,0.84404,-5.030223,-1.537226,0.163302,-0.015508,-0.188821,-0.092665,-0.000511,-0.000736
104177,0.157786,-0.025788,-0.295697,0.087266,-0.0,-0.0,2.0,0.282024,0.246818,0.282024,0.311809,-0.271312,-223.57013,33.550645,0.806338,-4.97328,-1.541091,0.160647,-0.015518,-0.188836,-0.19599,-0.000525,-0.000845
104197,0.152894,-0.025249,-0.29669,0.087266,-0.0,-0.0,2.0,0.282024,0.200906,0.282024,0.338294,-0.252999,-223.673661,33.555272,0.769478,-4.89429,-1.545157,0.156274,-0.015528,-0.188854,-0.247796,-0.000478,-0.000952
104217,0.14751,-0.024814,-0.297303,0.087266,-0.0,-0.0,2.0,0.282024,0.169912,0.282024,0.35023,-0.232914,-223.775435,33.563359,0.732121,-4.794799,-1.549288,0.151122,-0.015537,-0.188873,-0.301359,-0.000408,-0.001025
104237,0.142133,-0.02457,-0.296918,0.087266,-0.0,-0.0,2.0,0.282024,0.155545,0.282024,0.354374,-0.20989,-223.874989,33.575914,0.692575,-4.676498,-1.553318,0.145608,-0.015545,-0.188894,-0.273865,-0.000382,-0.000996
104257,0.137394,-0.024522,-0.295775,0.087266,-0.0,-0.0,2.0,0.282024,0.162689,0.282024,0.352418,-0.182282,-223.971857,33.594475,0.648577,-4.541135,-1.557036,0.14037,-0.015553,-0.188913,-0.222355,-0.000379,-0.000905
104277,0.13393,-0.024791,-0.294173,0.087266,-0.0,-0.0,2.0,0.282024,0.212938,0.282024,0.332457,-0.147641,-224.065546,33.621448,0.596942,-4.390423,-1.560153,0.136266,-0.01556,-0.18893,-0.170564,-0.000398,-0.000757
104297,0.132299,-0.024894,-0.292621,0.087266,-0.0,-0.0,2.0,0.282024,0.258084,0.282024,0.303344,-0.102098,-224.155481,33.660745,0.53292,-4.225921,-1.56226,0.133662,-0.015568,-0.188944,-0.074297,-0.000416,-0.000575
104317,0.132123,-0.024752,-0.291382,0.087266,-0.0,-0.0,2.0,0.282024,0.295998,0.282024,0.266975,-0.039138,-224.240913,33.719038,0.448998,-4.048881,-1.562732,0.13276,-0.015576,-0.188955,-0.005303,-0.000395,-0.000453
104337,0.133497,-0.024095,-0.29075,0.087266,-0.0,-0.0,2.0,0.282024,0.326766,0.282024,0.223423,0.052864,-224.320702,33.808408,0.308465,-3.859769,-1.56226,0.133418,-0.015584,-0.188963,0.06871,-0.000347,-0.000379
104357,0.136241,-0.023456,-0.290422,0.087266,-0.0,-0.0,2.0,0.282024,0.348528,0.282024,0.175092,0.195722,-224.392809,33.952048,0.068782,-3.656693,-1.562005,0.135403,-0.01559,-0.18897,0.144495,-0.000275,-0.000349
104377,0.139993,-0.022914,-0.290072,0.087266,-0.0,-0.0,2.0,0.282024,0.370765,0.282024,0.15,0.432104,-224.45307,34.194665,-0.285401,-3.435997,-1.564295,0.138765,-0.015595,-0.188977,0.194492,-0.00021,-0.000315
104397,0.14452,-0.022635,-0.289533,0.087266,-0.0,-0.0,2.0,0.282024,0.384676,0.282024,0.15,0.826435,-224.492631,34.602827,-0.775841,-3.193506,-1.578115,0.143034,-0.015599,-0.188983,0.222109,-0.000184,-0.000261
104417,0.148989,-0.022736,-0.289021,0.087266,-0.0,-0.0,2.0,0.282024,0.385125,0.282024,0.15,1.346238,-224.498059,35.147564,-1.509948,-2.920953,-1.611943,0.147477,-0.015603,-0.188988,0.24606,-0.00018,-0.000204
104437,0.152865,-0.023031,-0.28871,0.087266,-0.0,-0.0,2.0,0.282024,0.382153,0.282024,0.15,1.737382,-224.46926,35.579453,-2.404728,-2.605489,-1.661562,0.151705,-0.015607,-0.188991,0.220214,-0.000194,-0.000161
104457,0.156018,-0.023394,-0.288902,0.087266,-0.0,-0.0,2.0,0.282024,0.37362,0.282024,0.15,1.916504,-224.424772,35.81613,-3.163337,-2.242632,-1.707441,0.15534,-0.015611,-0.188995,0.153449,-0.000241,-0.000172
104477,0.157691,-0.023703,-0.28955,0.087266,-0.0,-0.0,2.0,0.282024,0.354371,0.282024,0.155555,1.970806,-224.377514,35.940568,-3.637841,-1.842893,-1.738499,0.157772,-0.015616,-0.188998,0.053745,-0.000281,-0.000222
104497,0.157375,-0.02393,-0.290418,0.087266,-0.0,-0.0,2.0,0.282024,0.325335,0.282024,0.2259,1.961313,-224.332219,36.008149,-3.863159,-1.422342,-1.755475,0.158449,-0.015622,-0.189003,-0.020438,-0.000306,-0.000304
104517,0.155311,-0.024032,-0.291604,0.087266,-0.0,-0.0,2.0,0.282024,0.289395,0.282024,0.274365,1.916904,-224.29021,36.043267,-3.921368,-0.994372,-1.762622,0.157274,-0.015628,-0.18901,-0.122183,-0.000322,-0.000418
104537,0.151517,-0.02416,-0.292748,0.087266,-0.0,-0.0,2.0,0.282024,0.249577,0.282024,0.309817,1.851558,-224.251438,36.056936,-3.869901,-0.567896,-1.764112,0.154342,-0.015635,-0.18902,-0.196049,-0.000327,-0.000534
104557,0.14637,-0.024391,-0.293697,0.087266,-0.0,-0.0,2.0,0.282024,0.199088,0.282024,0.339114,1.773113,-224.21518,36.054717,-3.725282,-0.149343,-1.764574,0.149799,-0.015641,-0.189031,-0.270182,-0.000345,-0.000633
104577,0.140474,-0.024649,-0.294173,0.087266,-0.0,-0.0,2.0,0.282024,0.15,0.282024,0.357596,1.686445,-224.180369,36.039955,-3.550973,0.257258,-1.764571,0.144145,-0.015648,-0.189044,-0.292645,-0.000367,-0.000695
104597,0.134687,-0.024947,-0.293768,0.087266,-0.0,-0.0,2.0,0.282024,0.15,0.282024,0.36035,1.594498,-224.145813,36.015128,-3.37025,0.65073,-1.764157,0.138266,-0.015656,-0.189058,-0.27405,-0.000395,-0.000677
104617,0.129578,-0.024932,-0.292692,0.087266,-0.0,-0.0,2.0,0.282024,0.151539,0.282024,0.355381,1.499628,-224.110307,35.982383,-3.182228,1.030418,-1.763388,0.132701,-0.015664,-0.189071,-0.227651,-0.000407,-0.00058
104637,0.125802,-0.024742,-0.291121,0.087266,-0.0,-0.0,2.0,0.282024,0.20418,0.282024,0.336776,1.40406,-224.072711,35.94375,-2.988152,1.3955,-1.762321,0.128192,-0.015672,-0.189082,-0.177708,-0.000394,-0.000437
104657,0.123584,-0.024176,-0.289746,0.087266,-0.0,-0.0,2.0,0.282024,0.25133,0.282024,0.308526,1.309846,-224.032017,35.901184,-2.792909,1.745172,-1.761013,0.125249,-0.01568,-0.189089,-0.105358,-0.000343,-0.000289
104677,0.123192,-0.023301,-0.288953,0.087266,-0.0,-0.0,2.0,0.282024,0.293386,0.282024,0.269963,1.218768,-223.987404,35.856498,-2.601278,2.078753,-1.759516,0.123994,-0.015686,-0.189094,-0.007206,-0.000261,-0.000195
104697,0.124412,-0.022389,-0.288807,0.087266,-0.0,-0.0,2.0,0.282024,0.323705,0.282024,0.228651,1.132263,-223.938262,35.811273,-2.41689,2.395639,-1.757881,0.12435,-0.015691,-0.189098,0.068712,-0.000178,-0.000159
104717,0.126942,-0.021877,-0.289011,0.087266,-0.0,-0.0,2.0,0.282024,0.349218,0.282024,0.173035,1.051382,-223.884198,35.766783,-2.242472,2.695244,-1.756147,0.126198,-0.015693,-0.189101,0.148048,-0.000107,-0.000165
104737,0.13073,-0.021547,-0.289124,0.087266,-0.0,-0.0,2.0,0.282024,0.373497,0.282024,0.15,0.976779,-223.825018,35.72397,-2.07996,2.976971,-1.754351,0.129485,-0.015695,-0.189105,0.19801,-6.5e-05,-0.000195
104757,0.135285,-0.021358,-0.289112,0.087266,-0.0,-0.0,2.0,0.282024,0.3858,0.282024,0.15,0.908749,-223.760701,35.683448,-1.930491,3.240177,-1.752521,0.133652,-0.015696,-0.189108,0.225595,-4.9e-05,-0.00019
104777,0.139745,-0.021435,-0.288915,0.087266,-0.0,-0.0,2.0,0.282024,0.390613,0.282024,0.15,0.84729,-223.691366,35.645561,-1.794484,3.484164,-1.75068,0.138241,-0.015697,-0.189112,0.249642,-5.3e-05,-0.000174
104797,0.144026,-0.021899,-0.288867,0.087266,-0.0,-0.0,2.0,0.282024,0.389087,0.282024,0.15,0.792183,-223.617238,35.610431,-1.671795,3.708177,-1.748846,0.142728,-0.015698,-0.189115,0.199825,-7.5e-05,-0.000165
104817,0.147567,-0.022323,-0.28921,0.087266,-0.0,-0.0,2.0,0.282024,0.381981,0.282024,0.15,0.743061,-223.538627,35.57803,-1.561891,3.911413,-1.747032,0.14664,-0.0157,-0.189119,0.153495,-0.000129,-0.000186
104837,0.149619,-0.022702,-0.289835,0.087266,-0.0,-0.0,2.0,0.282024,0.364345,0.282024,0.15,0.699474,-223.455898,35.548231,-1.463995,4.093054,-1.745248,0.149459,-0.015703,-0.189123,0.101768,-0.000172,-0.000238
104857,0.149976,-0.023314,-0.290746,0.087266,-0.0,-0.0,2.0,0.282024,0.335806,0.282024,0.206216,0.660931,-223.369466,35.52085,-1.377203,4.252305,-1.7435,0.150652,-0.015707,-0.189128,0.031073,-0.000226,-0.000326
104877,0.148353,-0.023856,-0.291805,0.087266,-0.0,-0.0,2.0,0.282024,0.305102,0.282024,0.255841,0.626936,-223.279772,35.495677,-1.300541,4.388442,-1.741795,0.15015,-0.015712,-0.189135,-0.09268,-0.000285,-0.000415
104897,0.144732,-0.02433,-0.292907,0.087266,-0.0,-0.0,2.0,0.282024,0.260862,0.282024,0.301116,0.597027,-223.187283,35.472504,-1.22913,4.500805,-1.740421,0.14753,-0.015718,-0.189145,-0.192519,-0.000336,-0.000532
104917,0.139621,-0.024794,-0.293942,0.087266,-0.0,-0.0,2.0,0.282024,0.205475,0.282024,0.336161,0.570836,-223.092478,35.451134,-1.161971,4.58872,-1.739633,0.143051,-0.015725,-0.189156,-0.246194,-0.000375,-0.000644
104937,0.133623,-0.025182,-0.294519,0.087266,-0.0,-0.0,2.0,0.282024,0.163854,0.282024,0.35208,0.547988,-222.995847,35.431389,-1.101018,4.651827,-1.739551,0.137543,-0.015733,-0.18917,-0.318309,-0.00041,-0.000717
104957,0.127578,-0.025379,-0.294351,0.087266,-0.0,-0.0,2.0,0.282024,0.15,0.282024,0.362372,0.528086,-222.897887,35.413117,-1.046952,4.690141,-1.740208,0.131295,-0.015741,-0.189184,-0.298093,-0.000442,-0.000711
104977,0.121839,-0.025209,-0.29336,0.087266,-0.0,-0.0,2.0,0.282024,0.15,0.282024,0.359685,0.510733,-222.799086,35.396196,-0.999584,4.704008,-1.741581,0.125334,-0.01575,-0.189198,-0.298178,-0.000439,-0.000634
104997,0.11702,-0.024668,-0.291916,0.087266,-0.0,-0.0,2.0,0.282024,0.17783,0.282024,0.347582,0.495542,-222.699923,35.380544,-0.958359,4.694074,-1.743619,0.120039,-0.015758,-0.18921,-0.227513,-0.000386,-0.00049
105017,0.114059,-0.024104,-0.290227,0.087266,-0.0,-0.0,2.0,0.282024,0.23362,0.282024,0.320651,0.482128,-222.60086,35.366121,-0.922589,4.661264,-1.74626,0.116097,-0.015765,-0.189218,-0.15355,-0.000338,-0.000318
105037,0.112686,-0.023402,-0.288795,0.087266,-0.0,-0.0,2.0,0.282024,0.274125,0.282024,0.289617,0.470099,-222.502337,35.352941,-0.891539,4.606758,-1.749434,0.113859,-0.015772,-0.189223,-0.055634,-0.000261,-0.000171
105057,0.112831,-0.022798,-0.288184,0.087266,-0.0,-0.0,2.0,0.282024,0.30669,0.282024,0.253772,0.459034,-222.404767,35.341088,-0.864442,4.53196,-1.753065,0.113242,-0.015776,-0.189226,-0.00856,-0.000185,-8.5e-05
105077,0.114353,-0.022212,-0.28806,0.087266,-0.0,-0.0,2.0,0.282024,0.33356,0.282024,0.210775,0.448461,-222.308535,35.33074,-0.840463,4.438453,-1.757071,0.114014,-0.01578,-0.189228,0.092893,-0.000129,-7.3e-05
105097,0.117297,-0.022005,-0.28835,0.087266,-0.0,-0.0,2.0,0.282024,0.362791,0.282024,0.15,0.437805,-222.213994,35.32221,-0.818656,4.327952,-1.761359,0.116431,-0.015782,-0.189229,0.144885,-0.0001,-8.7e-05
105117,0.121242,-0.021894,-0.288573,0.087266,-0.0,-0.0,2.0,0.282024,0.375661,0.282024,0.15,0.426319,-222.121467,35.316023,-0.797879,4.202246,-1.76582,0.119858,-0.015784,-0.189231,0.201356,-9.3e-05,-0.000116
105137,0.125555,-0.021736,-0.288706,0.087266,-0.0,-0.0,2.0,0.282024,0.386246,0.282024,0.15,0.412948,-222.031251,35.313049,-0.776648,4.063127,-1.770316,0.124078,-0.015786,-0.189234,0.242482,-7.5e-05,-0.000123
105157,0.12981,-0.022076,-0.288757,0.087266,-0.0,-0.0,2.0,0.282024,0.391899,0.282024,0.15,0.396069,-221.943624,35.314773,-0.75288,3.912328,-1.774665,0.128547,-0.015787,-0.189236,0.19814,-9.6e-05,-0.000146
105177,0.133609,-0.02259,-0.289103,0.087266,-0.0,-0.0,2.0,0.282024,0.38529,0.282024,0.15,0.372941,-221.858861,35.323853,-0.72338,3.751423,-1.778596,0.13257,-0.01579,-0.189239,0.175809,-0.000146,-0.000163
105197,0.136531,-0.02297,-0.289738,0.087266,-0.0,-0.0,2.0,0.282024,0.376243,0.282024,0.15,0.338388,-221.777279,35.345468,-0.682729,3.581711,-1.781674,0.135965,-0.015793,-0.189243,0.153341,-0.00018,-0.000213
105217,0.137851,-0.023445,-0.290597,0.087266,-0.0,-0.0,2.0,0.282024,0.356591,0.282024,0.15,0.281159,-221.699341,35.391015,-0.620549,3.404005,-1.783097,0.138165,-0.015797,-0.189248,0.055442,-0.000233,-0.0003
105237,0.137597,-0.024034,-0.291609,0.087266,-0.0,-0.0,2.0,0.282024,0.331909,0.282024,0.213997,0.171442,-221.625995,35.490794,-0.491693,3.218026,-1.782611,0.138765,-0.015802,-0.189254,-0.042655,-0.000286,-0.000399
105257,0.135346,-0.024544,-0.292771,0.087266,-0.0,-0.0,2.0,0.282024,0.298508,0.282024,0.264021,-0.098054,-221.560228,35.7542,-0.172718,3.018808,-1.783542,0.137522,-0.015808,-0.189263,-0.140571,-0.000353,-0.000509
105277,0.13119,-0.024727,-0.294023,0.087266,-0.0,-0.0,2.0,0.282024,0.245663,0.282024,0.312626,-1.077236,-221.518862,36.735494,0.509667,2.794725,-1.808499,0.134146,-0.015815,-0.189274,-0.223757,-0.000366,-0.000632
105297,0.125545,-0.024902,-0.295196,0.087266,-0.0,-0.0,2.0,0.282024,0.193982,0.282024,0.341335,-2.198365,-221.556296,37.878079,1.890905,2.512804,-1.886173,0.129233,-0.015823,-0.189288,-0.296163,-0.000377,-0.000751
105317,0.119372,-0.024958,-0.295651,0.087266,-0.0,-0.0,2.0,0.282024,0.15,0.282024,0.356684,-2.293648,-221.616009,38.021721,3.196122,2.146732,-1.967008,0.123208,-0.01583,-0.189303,-0.321904,-0.000393,-0.000806
105337,0.11305,-0.024961,-0.295241,0.087266,-0.0,-0.0,2.0,0.282024,0.15,0.282024,0.361625,-2.248013,-221.672176,38.048971,4.216289,1.698416,-2.036334,0.116906,-0.015838,-0.18932,-0.321992,-0.000402,-0.000798
105357,0.107431,-0.02477,-0.29409,0.087266,-0.0,-0.0,2.0,0.282024,0.15,0.282024,0.359411,-2.157744,-221.723182,38.046691,4.606103,1.196205,-2.068594,0.110806,-0.015846,-0.189335,-0.253715,-0.000372,-0.000694
105377,0.103016,-0.024416,-0.292405,0.087266,-0.0,-0.0,2.0,0.282024,0.192287,0.282024,0.342046,-2.048317,-221.769079,38.029311,4.623649,0.678483,-2.078033,0.105768,-0.015853,-0.189348,-0.201802,-0.00034,-0.000538
105397,0.100187,-0.023941,-0.290631,0.087266,-0.0,-0.0,2.0,0.282024,0.238614,0.282024,0.317433,-1.929237,-221.810946,38.000314,4.445558,0.166743,-2.078837,0.102094,-0.01586,-0.189357,-0.12962,-0.0003,-0.000351
105417,0.09908,-0.023307,-0.289337,0.087266,-0.0,-0.0,2.0,0.282024,0.287065,0.282024,0.27685,-1.805596,-221.850457,37.961268,4.171492,-0.327356,-2.078815,0.100235,-0.015865,-0.189363,-0.079448,-0.000231,-0.000224
105437,0.099334,-0.022561,-0.288775,0.087266,-0.0,-0.0,2.0,0.282024,0.311736,0.282024,0.24692,-1.680258,-221.889474,37.913879,3.903122,-0.80032,-2.078212,0.099756,-0.01587,-0.189367,0.016928,-0.000162,-0.000128
105457,0.101004,-0.02221,-0.288356,0.087266,-0.0,-0.0,2.0,0.282024,0.338815,0.282024,0.199756,-1.555233,-221.929801,37.860267,3.646264,-1.25254,-2.077127,0.100786,-0.015873,-0.189369,0.089441,-0.000105,-0.0001
105477,0.103924,-0.021897,-0.288385,0.087266,-0.0,-0.0,2.0,0.282024,0.362595,0.282024,0.15,-1.432854,-221.973059,37.802831,3.391245,-1.683931,-2.075651,0.103186,-0.015875,-0.189371,0.144776,-7.8e-05,-9.2e-05
105497,0.107712,-0.021588,-0.2883,0.087266,-0.0,-0.0,2.0,0.282024,0.375107,0.282024,0.15,-1.315543,-222.020593,37.744016,3.140784,-2.093899,-2.07387,0.106484,-0.015876,-0.189373,0.197718,-6.3e-05,-8.4e-05
105517,0.111673,-0.021621,-0.288185,0.087266,-0.0,-0.0,2.0,0.282024,0.385094,0.282024,0.15,-1.205337,-222.073404,37.686022,2.901687,-2.48197,-2.071861,0.11041,-0.015877,-0.189374,0.19653,-4.2e-05,-6.9e-05
105537,0.11529,-0.021815,-0.288308,0.087266,-0.0,-0.0,2.0,0.282024,0.383174,0.282024,0.15,-1.103648,-222.132136,37.630586,2.678599,-2.847854,-2.069692,0.114251,-0.015878,-0.189376,0.175945,-6e-05,-6.9e-05
105557,0.118408,-0.021943,-0.288687,0.087266,-0.0,-0.0,2.0,0.282024,0.375839,0.282024,0.15,-1.011226,-222.197111,37.57888,2.473872,-3.191289,-2.067416,0.117645,-0.015879,-0.189377,0.148352,-8.3e-05,-0.000106
105577,0.120304,-0.022113,-0.289364,0.087266,-0.0,-0.0,2.0,0.282024,0.364589,0.282024,0.15,-0.928233,-222.268384,37.531537,2.288467,-3.511934,-2.065075,0.120265,-0.015881,-0.18938,0.100135,-9.3e-05,-0.000159
105597,0.120728,-0.022354,-0.290417,0.087266,-0.0,-0.0,2.0,0.282024,0.339057,0.282024,0.199217,-0.854378,-222.345808,37.488762,2.12232,-3.809317,-2.062705,0.121422,-0.015883,-0.189384,0.027742,-0.000112,-0.000267
105617,0.119448,-0.022726,-0.291567,0.087266,-0.0,-0.0,2.0,0.282024,0.308487,0.282024,0.251382,-0.78907,-222.429094,37.450455,1.973451,-4.082819,-2.060403,0.121004,-0.015886,-0.18939,-0.044597,-0.000154,-0.000378
