time_ms,roll,pitch,yaw,roll_rate,pitch_rate,yaw_rate,reference_roll,reference_pitch,reference_yaw,reference_throttle,throttle_1,throttle_2,throttle_3,throttle_4,roll_predicted,pitch_predicted,yaw_predicted,roll_rate_predicted,pitch_rate_predicted,yaw_rate_predicted
47358,0.009075,0.003511,-0.047262,-0.001064,-0.001064,-1e-05,-0.0,-0.0,-0.0,2.0,0.282024,0.284193,0.282024,0.279831,-6.3e-05,-544.92959,-0.000119,-1.1e-05,-10.63538,-2.3e-05
47378,0.008831,0.003505,-0.04714,-0.001064,-0.001064,-9e-06,-0.0,-0.0,-0.0,2.0,0.282024,0.284086,0.282024,0.27994,8e-05,-545.348359,2.3e-05,9.4e-05,-10.193159,-2.3e-05
47398,0.00895,0.00363,-0.047141,-0.001068,-0.001055,-0.001074,0.001893,-0.0,-0.0,2.0,0.282024,0.283304,0.282024,0.280736,3.2e-05,-545.749827,-3.7e-05,0.001141,-9.791591,-2.2e-05
47418,0.00895,0.00363,-0.047141,0.0,0.0,0.0,0.005571,-0.0,-0.0,2.0,0.282024,0.283512,0.282024,0.280525,0.000119,-546.136609,-6.4e-05,0.005744,-9.492613,-7e-06
47438,0.00895,0.00363,-0.047141,-0.0,-0.001064,-1e-05,0.009961,-0.0,-0.0,2.0,0.282024,0.28158,0.282024,0.282467,0.000415,-546.51349,-0.000147,0.012511,-9.337149,3.7e-05
47458,0.009194,0.003636,-0.047141,-4e-06,1e-05,-0.001064,0.009961,-0.0,-0.0,2.0,0.282024,0.279843,0.282024,0.284181,0.000996,-546.886567,-0.000374,0.016597,-9.344376,0.000116
47478,0.009316,0.003638,-0.047141,-4e-06,1e-05,-0.001064,0.013698,-0.0,-0.0,2.0,0.282024,0.280083,0.282024,0.283946,0.001938,-547.262386,-0.000907,0.021486,-9.512747,0.000217
47498,0.009319,0.003516,-0.047141,0.0,0.0,0.0,0.020369,-0.0,-0.0,2.0,0.282024,0.277088,0.282024,0.286839,0.003904,-547.64713,-0.002304,0.029674,-9.820594,0.000354
47518,0.009319,0.003516,-0.047141,-0.001068,1e-05,-0.001064,0.022563,-0.0,-0.0,2.0,0.282024,0.274194,0.282024,0.289554,0.011291,-548.04581,-0.008855,0.034035,-10.226129,0.00054
47538,0.009319,0.003516,-0.047141,-0.001064,-0.001064,-1e-05,0.026912,-0.0,-0.0,2.0,0.282024,0.272191,0.282024,0.291387,-0.020469,-548.46106,0.023491,0.047112,-10.668552,0.00072
47558,0.009316,0.003638,-0.047141,-0.0,-0.001064,-1e-05,0.028977,-0.0,-0.0,2.0,0.282024,0.27315,0.282024,0.290513,-0.003695,-548.89408,0.00825,0.070905,-11.073333,0.001105
47578,0.009314,0.003761,-0.047142,-0.0,-0.001064,-1e-05,0.032512,-0.0,-0.0,2.0,0.282024,0.271501,0.282024,0.292011,0.000191,-549.341838,0.00686,0.074765,-11.363973,0.001582
47598,0.009558,0.003766,-0.047142,-0.001068,1e-05,-0.001064,0.035889,-0.0,-0.0,2.0,0.282024,0.270042,0.282024,0.293316,0.003122,-549.798748,0.007391,0.077166,-11.48009,0.00209
47618,0.009802,0.003772,-0.047143,0.0,0.0,0.0,0.039335,-0.0,-0.0,2.0,0.282024,0.26853,0.282024,0.294648,0.006672,-550.257306,0.009358,0.079196,-11.395705,0.002616
47638,0.009805,0.00365,-0.047142,-4e-06,-0.001054,-0.001075,0.042938,-0.0,-0.0,2.0,0.282024,0.266816,0.282024,0.296135,0.01295,-550.709613,0.014294,0.079983,-11.128658,0.003145
47658,0.010049,0.003656,-0.047142,-0.001064,0.0,0.0,0.045202,-0.0,-0.0,2.0,0.282024,0.26584,0.282024,0.296971,0.033889,-551.149065,0.03387,0.073648,-10.735333,0.003653
47678,0.010415,0.003665,-0.047265,-0.0,-0.001064,-1.1e-05,0.047484,-0.0,-0.0,2.0,0.282024,0.264924,0.282024,0.297749,-0.16386,-551.540036,-0.16131,0.184939,-10.293405,-0.002215
47698,0.010537,0.003668,-0.047265,0.0,0.0,0.0,0.051302,-0.0,-0.0,2.0,0.282024,0.263128,0.282024,0.299253,-0.024726,-551.943504,-0.026932,0.2385,-9.876602,-0.000837
47718,0.011022,0.003802,-0.047388,0.001064,-0.001064,-1.2e-05,0.054494,-0.0,-0.0,2.0,0.282024,0.261793,0.282024,0.300355,-0.007759,-552.333241,-0.016449,0.202546,-9.550016,0.000447
47738,0.011631,0.003818,-0.047632,0.00106,-0.001052,-0.001077,0.057309,-0.0,-0.0,2.0,0.282024,0.26275,0.282024,0.299567,0.000919,-552.711905,-0.014553,0.182911,-9.359591,0.001527
47758,0.012489,0.003717,-0.047763,0.001064,0.0,0.0,0.058716,-0.0,-0.0,2.0,0.282024,0.262481,0.282024,0.299789,0.008067,-553.085315,-0.015827,0.17392,-9.329376,0.00251
47778,0.013706,0.00387,-0.048009,0.002128,-0.001064,-1.5e-05,0.061433,-0.0,-0.0,2.0,0.282024,0.263769,0.282024,0.298719,0.016329,-553.459969,-0.020077,0.170231,-9.46243,0.003459
47798,0.015051,0.003781,-0.048132,0.003193,-0.001064,-1.6e-05,0.063203,-0.0,-0.0,2.0,0.282024,0.265567,0.282024,0.297203,0.029739,-553.842163,-0.030359,0.164886,-9.741618,0.004407
47818,0.016637,0.003821,-0.048377,0.003193,0.0,0.0,0.065249,-0.0,-0.0,2.0,0.282024,0.265345,0.282024,0.297392,0.068017,-554.237063,-0.066054,0.14642,-10.129668,0.005336
47838,0.018711,0.003875,-0.048745,0.004257,-0.001064,-2e-05,0.067518,-0.0,-0.0,2.0,0.282024,0.267245,0.282024,0.295765,-0.465424,-554.634824,0.471373,-0.025644,-10.569865,0.003954
47858,0.021032,0.003812,-0.048989,0.005321,-0.001064,-2.2e-05,0.070714,-0.0,-0.0,2.0,0.282024,0.268788,0.282024,0.294422,-0.037788,-555.051406,0.040506,0.239289,-10.993293,0.001174
47878,0.02347,0.003996,-0.049244,0.006385,-0.001064,-2.5e-05,0.072141,-0.0,-0.0,2.0,0.282024,0.269266,0.282024,0.294002,-0.012875,-555.496333,0.021463,0.264252,-11.323792,0.002835
47898,0.026398,0.004073,-0.049611,0.006385,-0.001064,-2.8e-05,0.074502,-0.0,-0.0,2.0,0.282024,0.269533,0.282024,0.293766,-0.000539,-555.952399,0.017286,0.258027,-11.493807,0.004597
47918,0.029694,0.00404,-0.050098,0.006385,-0.001064,-3.2e-05,0.076344,-0.0,-0.0,2.0,0.282024,0.272158,0.282024,0.291417,0.009858,-556.412366,0.01863,0.245631,-11.465915,0.006312
47938,0.033231,0.004259,-0.050597,0.007454,-0.001099,0.001028,0.078052,-0.0,-0.0,2.0,0.282024,0.27491,0.282024,0.288889,0.023436,-556.868199,0.026127,0.230481,-11.24552,0.007922
47958,0.037015,0.004359,-0.05085,0.008514,-0.001063,-3.9e-05,0.079647,-0.0,-0.0,2.0,0.282024,0.277778,0.282024,0.28618,0.055467,-557.312649,0.05337,0.207055,-10.879825,0.00938
47978,0.041158,0.004596,-0.051338,0.008514,-0.001063,-4.4e-05,0.08083,-0.0,-0.0,2.0,0.282024,0.279109,0.282024,0.284897,-11.938585,-557.737409,-11.945713,0.101545,-10.443042,0.010555
47998,0.045792,0.004853,-0.052079,0.009583,-0.001112,0.001014,0.082064,-0.0,-0.0,2.0,0.282024,0.282473,0.282024,0.281574,-12.526277,-558.128471,-12.581137,2.57037,-10.018643,-0.141382
48018,0.050429,0.004983,-0.052451,0.009583,-0.001117,0.001009,0.082678,-0.0,-0.0,2.0,0.282024,0.286026,0.282024,0.277938,-12.43627,-558.522464,-12.63782,4.601454,-9.707425,-0.280205
48038,0.055433,0.005246,-0.052835,0.010648,-0.001122,0.001004,0.083787,-0.0,-0.0,2.0,0.282024,0.287685,0.282024,0.276195,-12.274017,-558.898912,-12.735047,6.311272,-9.590576,-0.408692
48058,0.06043,0.005637,-0.053333,0.010636,-0.000998,-0.001127,0.085016,-0.0,-0.0,2.0,0.282024,0.289304,0.282024,0.274464,-12.023833,-559.248832,-12.89637,7.78804,-9.713078,-0.528106
48078,0.065673,0.005914,-0.053827,0.010642,-0.001062,-7e-05,0.085835,-0.0,-0.0,2.0,0.282024,0.291188,0.282024,0.272411,-11.646591,-559.540639,-13.162904,9.081284,-10.08279,-0.638499
48098,0.071168,0.006074,-0.054203,0.010648,-0.001137,0.000986,0.086426,-0.0,-0.0,2.0,0.282024,0.293245,0.282024,0.270121,-11.099692,-559.696193,-13.575492,10.191215,-10.666603,-0.739247
48118,0.076295,0.006335,-0.054218,0.010642,-0.001061,-8.1e-05,0.086661,-0.0,-0.0,2.0,0.282024,0.295256,0.282024,0.267832,-10.457807,-559.605795,-14.051141,11.070674,-11.386908,-0.829782
48138,0.081543,0.006481,-0.054338,0.010635,-0.000974,-0.001147,0.087025,-0.0,-0.0,2.0,0.282024,0.297265,0.282024,0.265495,-9.906842,-559.264369,-14.37892,11.646225,-12.127349,-0.910459
48158,0.086795,0.006628,-0.054467,0.010635,-0.000968,-0.001152,0.087025,-0.0,-0.0,2.0,0.282024,0.299415,0.282024,0.262933,-9.44113,-558.784772,-14.491223,11.873051,-12.772601,-0.983166
48178,0.091689,0.006516,-0.054462,0.009578,0.0,0.0,0.087265,-0.0,-0.0,2.0,0.282024,0.299625,0.282024,0.26268,-8.855118,-558.287494,-14.317572,11.791994,-13.273986,-1.050998
48198,0.096457,0.006523,-0.054461,0.008514,0.0,0.0,0.087084,-0.0,-0.0,2.0,0.282024,0.301609,0.282024,0.260253,-7.550616,-558.034408,-13.36763,11.537561,-13.681708,-1.116889
48218,0.100983,0.006518,-0.054338,0.008506,-0.000952,-0.001166,0.086887,-0.0,-0.0,2.0,0.282024,0.301842,0.282024,0.259964,-6.454099,-558.446509,-12.651009,11.275014,-14.119527,-1.182168
48238,0.105139,0.006386,-0.05432,0.007442,-0.000947,-0.00117,0.086377,-0.0,-0.0,2.0,0.282024,0.303715,0.282024,0.257615,-6.021221,-559.015275,-12.701977,11.094342,-14.742838,-1.246084
48258,0.109052,0.006491,-0.054324,0.00745,0.0,0.0,0.085773,-0.0,-0.0,2.0,0.282024,0.303866,0.282024,0.257423,-5.563871,-559.539707,-12.996857,11.000214,-15.633492,-1.306536
48278,0.112481,0.006455,-0.0542,0.006385,-0.001057,-0.000119,0.085417,-0.0,-0.0,2.0,0.282024,0.303713,0.282024,0.257617,-4.82493,-559.852668,-13.625516,10.920307,-16.756415,-1.361339
48298,0.115533,0.006537,-0.054197,0.005313,-0.000934,-0.00118,0.084558,-0.0,-0.0,2.0,0.282024,0.303623,0.282024,0.257731,-3.93718,-559.639972,-14.404642,10.727252,-17.958002,-1.409732
48318,0.118099,0.006606,-0.054195,0.004249,-0.000931,-0.001182,0.083986,-0.0,-0.0,2.0,0.282024,0.303236,0.282024,0.258221,-3.418775,-558.999503,-14.769006,10.304137,-19.002713,-1.453667
48338,0.119933,0.006655,-0.054196,0.003185,-0.000929,-0.001184,0.082116,-0.0,-0.0,2.0,0.282024,0.303063,0.282024,0.258439,-3.017379,-558.230854,-14.80943,9.643273,-19.730785,-1.497682
48358,0.121399,0.006817,-0.054206,0.00212,-0.000928,-0.001185,0.081365,-0.0,-0.0,2.0,0.282024,0.302284,0.282024,0.259414,1.663664,-557.617141,-10.458758,8.88035,-20.209275,-1.546411
48378,0.122492,0.00696,-0.054087,0.001063,-0.001056,-0.00013,0.079721,-0.0,-0.0,2.0,0.282024,0.301723,0.282024,0.260112,27.614721,-557.723749,15.198549,3.981127,-20.478522,-1.588743
48398,0.122732,0.007089,-0.054093,-8e-06,-0.000926,-0.001187,0.07885,-0.0,-0.0,2.0,0.282024,0.300505,0.282024,0.26161,25.64301,-557.638877,13.151935,-1.123305,-20.240527,-1.722793
48418,0.122733,0.007081,-0.053971,-0.001073,-0.000926,-0.001187,0.076496,-0.0,-0.0,2.0,0.282024,0.298115,0.282024,0.264489,6.140408,-558.312484,-6.263108,-4.207462,-19.526884,-1.81598
48438,0.122246,0.007068,-0.053974,-0.002129,-0.001056,-0.00013,0.075189,-0.0,-0.0,2.0,0.282024,0.298451,0.282024,0.26409,5.99317,-559.080665,-6.174189,-5.6531,-18.724255,-1.871589
48458,0.121393,0.007046,-0.053978,-0.002136,0.000129,-0.001056,0.073218,-0.0,-0.0,2.0,0.282024,0.298904,0.282024,0.263548,5.710061,-559.793458,-5.96422,-6.599816,-18.067056,-1.953491
48478,0.120533,0.007022,-0.053972,-0.002128,0.0,0.0,0.071147,-0.0,-0.0,2.0,0.282024,0.2977,0.282024,0.264982,4.889456,-560.33979,-5.248822,-7.157613,-17.528503,-2.064612
48498,0.119684,0.006878,-0.053968,-0.002128,0.0,0.0,0.068966,-0.0,-0.0,2.0,0.282024,0.299924,0.282024,0.262317,3.326931,-560.115334,-3.848958,-6.899732,-16.978017,-2.228398
48518,0.118828,0.006977,-0.05398,-0.002129,-0.001057,-0.000126,0.067724,-0.0,-0.0,2.0,0.282024,0.300091,0.282024,0.262115,2.952886,-559.451618,-3.698406,-6.205912,-16.287703,-2.416609
48538,0.118211,0.006967,-0.054094,-0.002129,-0.001057,-0.000126,0.065863,-0.0,-0.0,2.0,0.282024,0.300593,0.282024,0.261503,2.707024,-558.811731,-3.779045,-5.621627,-15.354861,-2.59168
48558,0.11772,0.007084,-0.054225,-0.001065,-0.001057,-0.000125,0.062769,-0.0,-0.0,2.0,0.282024,0.303293,0.282024,0.258148,2.315205,-558.250589,-4.066791,-5.093224,-14.196507,-2.755722
48578,0.117104,0.007311,-0.054242,-0.001065,-0.001057,-0.000124,0.060411,-0.0,-0.0,2.0,0.282024,0.302337,0.282024,0.259348,1.151367,-557.933274,-5.135457,-4.429307,-12.936665,-2.923212
48598,0.116738,0.007308,-0.054365,-0.002129,-0.001057,-0.000124,0.056908,-0.0,-0.0,2.0,0.282024,0.303575,0.282024,0.257792,0.018721,-558.258964,-6.169058,-3.467681,-11.760965,-3.110418
48618,0.11624,0.007423,-0.054486,-0.001065,-0.001057,-0.000123,0.053912,-0.0,-0.0,2.0,0.282024,0.30621,0.282024,0.254402,-0.204914,-558.722502,-6.302373,-2.664713,-10.822905,-3.289931
48638,0.11563,0.007414,-0.054611,-0.002129,-0.001057,-0.000123,0.05244,-0.0,-0.0,2.0,0.282024,0.304921,0.282024,0.256074,-0.311271,-559.16475,-6.330681,-2.006752,-10.178492,-3.463245
48658,0.115017,0.00752,-0.05462,-0.002129,-0.001057,-0.000122,0.049279,-0.0,-0.0,2.0,0.282024,0.305924,0.282024,0.254775,-0.384058,-559.589864,-6.329897,-1.483036,-9.832708,-3.632216
48678,0.114401,0.007747,-0.054637,-0.002138,-0.000936,-0.001179,0.046122,-0.0,-0.0,2.0,0.282024,0.306909,0.282024,0.253484,-0.450062,-560.007709,-6.306116,-1.087312,-9.753428,-3.798187
48698,0.113542,0.007723,-0.05463,-0.002137,0.000121,-0.001057,0.04418,-0.0,-0.0,2.0,0.282024,0.307332,0.282024,0.252924,-0.560509,-560.426002,-6.221052,-0.815459,-9.879026,-3.962149
48718,0.112568,0.00769,-0.054512,-0.003201,0.00012,-0.001058,0.04051,-0.0,-0.0,2.0,0.282024,0.306767,0.282024,0.25367,-2.641634,-560.82511,-4.159704,-0.657248,-10.123788,-4.124878
48738,0.111462,0.007775,-0.054391,-0.003194,-0.001058,-0.000118,0.036122,-0.0,-0.0,2.0,0.282024,0.308051,0.282024,0.251967,70.359521,-560.816107,-77.184972,-0.645086,-10.400973,-4.287051
48758,0.110115,0.007732,-0.054265,-0.003202,-0.000941,-0.001175,0.034197,-0.0,-0.0,2.0,0.282024,0.308288,0.282024,0.25165,68.34988,-560.938151,-75.273062,-5.796182,-10.119662,-4.461496
48778,0.108529,0.007799,-0.054034,-0.004266,-0.000943,-0.001173,0.030217,-0.0,-0.0,2.0,0.282024,0.307595,0.282024,0.252575,68.416695,-561.35176,-75.65045,-9.985177,-8.406321,-4.661558
48798,0.106936,0.007871,-0.053914,-0.00533,-0.000945,-0.001172,0.027816,-0.0,-0.0,2.0,0.282024,0.30791,0.282024,0.252155,68.065606,-561.692602,-75.778416,-12.912106,-5.397178,-4.868017
48818,0.104855,0.007931,-0.053795,-0.00533,-0.000947,-0.00117,0.024189,-0.0,-0.0,2.0,0.282024,0.308524,0.282024,0.251332,67.573426,-561.935673,-75.873031,-14.342896,-1.406297,-5.057684
48838,0.102528,0.008107,-0.053683,-0.00533,0.000109,-0.001059,0.020654,-0.0,-0.0,2.0,0.282024,0.305746,0.282024,0.255006,67.007245,-562.144133,-75.902896,-14.248516,3.098523,-5.213782
48858,0.100203,0.008161,-0.053564,-0.006385,0.0,0.0,0.018817,-0.0,-0.0,2.0,0.282024,0.305554,0.282024,0.255256,66.45521,-562.431516,-75.910465,-12.811453,7.626405,-5.333323
48878,0.097388,0.008324,-0.053452,-0.006395,-0.000956,-0.001163,0.01405,-0.0,-0.0,2.0,0.282024,0.306321,0.282024,0.254256,65.946401,-562.8441,-76.02109,-10.319922,11.768331,-5.427304
48898,0.094207,0.008479,-0.053339,-0.007459,-0.000959,-0.00116,0.010722,-0.0,-0.0,2.0,0.282024,0.304749,0.282024,0.256294,65.282807,-563.292014,-76.476912,-7.059295,15.187775,-5.515574
48918,0.090895,0.008751,-0.053221,-0.008524,-0.000963,-0.001156,0.007839,-0.0,-0.0,2.0,0.282024,0.302934,0.282024,0.258601,63.970355,-563.342948,-77.738545,-3.297412,17.552544,-5.620355
48938,0.087106,0.008885,-0.052984,-0.009589,-0.002028,-0.001245,0.003221,-0.0,-0.0,2.0,0.282024,0.303264,0.282024,0.258185,63.449255,-562.709239,-78.340594,0.627064,18.510069,-5.759588
48958,0.082945,0.00901,-0.052737,-0.009588,-0.000972,-0.001149,-0.000719,-0.0,-0.0,2.0,0.282024,0.301521,0.282024,0.260361,63.508738,-561.974198,-78.579868,4.234565,17.802109,-5.939737
48978,0.078542,0.009251,-0.052501,-0.010653,-0.000977,-0.001144,-0.004402,-0.0,-0.0,2.0,0.282024,0.299562,0.282024,0.262755,63.985794,-561.330716,-79.00323,7.039444,15.509019,-6.151617
48998,0.073895,0.009361,-0.052128,-0.011716,7.9e-05,-0.001061,-0.008098,-0.0,-0.0,2.0,0.282024,0.299177,0.282024,0.26322,65.601895,-561.128673,-80.421715,8.694866,12.054188,-6.374869
49018,0.068889,0.009341,-0.051757,-0.011716,7.3e-05,-0.001062,-0.009922,-0.0,-0.0,2.0,0.282024,0.296185,0.282024,0.266758,66.476159,-561.548987,-80.993192,9.033517,8.035616,-6.588611
49038,0.063757,0.009324,-0.051497,-0.012781,6.8e-05,-0.001062,-0.012179,-0.0,-0.0,2.0,0.282024,0.293263,0.282024,0.2701,66.870744,-561.9195,-81.063734,8.02075,4.094397,-6.780732
49058,0.058141,0.009292,-0.051122,-0.012781,-0.001001,-0.001124,-0.01853,-0.0,-0.0,2.0,0.282024,0.293586,0.282024,0.269736,67.177375,-562.213106,-81.115984,5.828899,0.821426,-6.95136
49078,0.052403,0.009259,-0.050744,-0.012781,-0.001007,-0.001119,-0.020358,-0.0,-0.0,2.0,0.282024,0.29195,0.282024,0.271568,67.369262,-562.482464,-81.197962,2.843225,-1.28817,-7.109798
49098,0.046543,0.009106,-0.050473,-0.013845,-0.001014,-0.001113,-0.023487,-0.0,-0.0,2.0,0.282024,0.289027,0.282024,0.274761,67.40769,-562.756517,-81.308862,-0.375488,-1.916135,-7.266687
49118,0.040432,0.009314,-0.050217,-0.013845,-0.00102,-0.001106,-0.02835,-0.0,-0.0,2.0,0.282024,0.288512,0.282024,0.275314,67.281504,-563.033868,-81.443606,-3.194881,-1.008327,-7.426414
49138,0.03433,0.009158,-0.04995,-0.013845,-0.001027,-0.0011,-0.03191,-0.0,-0.0,2.0,0.282024,0.287424,0.282024,0.276471,67.004449,-563.311658,-81.608412,-5.055319,1.18857,-7.585197
49158,0.028223,0.009246,-0.049685,-0.013835,0.0,0.0,-0.033645,-0.0,-0.0,2.0,0.282024,0.283735,0.282024,0.280298,66.544432,-563.605883,-81.885307,-5.59773,4.164153,-7.73628
49178,0.021997,0.009214,-0.049546,-0.013845,-0.001041,-0.001087,-0.036997,-0.0,-0.0,2.0,0.282024,0.284287,0.282024,0.279735,64.476097,-563.851633,-83.76162,-4.733507,7.238795,-7.877829
49198,0.015648,0.009177,-0.049272,-0.013845,-0.001047,-0.001081,-0.040577,-0.0,-0.0,2.0,0.282024,0.281251,0.282024,0.282794,63.478531,-563.437219,-84.59513,-2.647522,9.68264,-8.016905
49218,0.009419,0.009267,-0.049128,-0.013845,1e-05,-0.001064,-0.0425,-0.0,-0.0,2.0,0.282024,0.279334,0.282024,0.284678,63.441173,-562.915947,-84.559053,0.069194,10.865561,-8.165469
49238,0.003068,0.009356,-0.04898,-0.013835,-0.001064,-3e-06,-0.045896,-0.0,-0.0,2.0,0.282024,0.279879,0.282024,0.284146,63.491406,-562.371864,-84.542075,2.692143,10.456357,-8.33074
49258,-0.003158,0.009326,-0.048707,-0.013845,-0.001068,-0.001061,-0.048785,-0.0,-0.0,2.0,0.282024,0.278368,0.282024,0.285614,63.630111,-561.854146,-84.541184,4.48782,8.552281,-8.508934
49278,-0.009146,0.009547,-0.048432,-0.013845,-0.001074,-0.001054,-0.052577,-0.0,-0.0,2.0,0.282024,0.277377,0.282024,0.286563,63.827284,-561.397107,-84.551247,4.939895,5.699638,-8.688331
49298,-0.015252,0.009646,-0.048031,-0.013845,-0.00108,-0.001048,-0.054248,-0.0,-0.0,2.0,0.282024,0.275363,0.282024,0.288466,63.98564,-561.001389,-84.520979,3.927554,2.732122,-8.859316
49318,-0.021238,0.009872,-0.047626,-0.013845,-0.001087,-0.001041,-0.057691,-0.0,-0.0,2.0,0.282024,0.274197,0.282024,0.289551,65.255798,-560.692489,-85.662114,1.766838,0.502416,-9.021275
49338,-0.027104,0.010103,-0.047227,-0.012781,-0.001093,-0.001035,-0.060416,-0.0,-0.0,2.0,0.282024,0.272747,0.282024,0.290882,64.417311,-560.363904,-84.790144,-0.893373,-0.373043,-9.179775
49358,-0.032846,0.010338,-0.046817,-0.012781,-0.001099,-0.001029,-0.061731,-0.0,-0.0,2.0,0.282024,0.272614,0.282024,0.291003,64.36014,-559.994271,-84.807711,-3.166771,0.303337,-9.338317
49378,-0.038587,0.010454,-0.046414,-0.012781,-0.001104,-0.001022,-0.063565,-0.0,-0.0,2.0,0.282024,0.270794,0.282024,0.292645,64.210709,-559.615971,-84.804846,-4.310585,2.229508,-9.494478
49398,-0.044084,0.010577,-0.04601,-0.012781,-0.00111,-0.001016,-0.06731,-0.0,-0.0,2.0,0.282024,0.26995,0.282024,0.293397,64.033256,-559.213607,-84.780813,-3.949757,4.697632,-9.644892
49418,-0.049584,0.010825,-0.0456,-0.012782,-0.001116,-0.00101,-0.070197,-0.0,-0.0,2.0,0.282024,0.270688,0.282024,0.29274,63.904905,-558.76796,-84.737467,-2.220388,6.835257,-9.792316
49438,-0.054961,0.011076,-0.045188,-0.011718,-0.001121,-0.001004,-0.071532,-0.0,-0.0,2.0,0.282024,0.266815,0.282024,0.296136,63.899498,-558.280561,-84.658465,0.273084,7.902741,-9.945132
49458,-0.059971,0.011213,-0.044901,-0.011718,-0.001126,-0.000999,-0.074083,-0.0,-0.0,2.0,0.282024,0.267617,0.282024,0.295443,64.240439,-557.78616,-84.340041,2.648894,7.533363,-10.109063
49478,-0.065231,0.011463,-0.044736,-0.011718,-0.001131,-0.000993,-0.075049,-0.0,-0.0,2.0,0.282024,0.26556,0.282024,0.29721,67.04822,-557.835944,-81.656573,4.047505,5.87779,-10.280765
49498,-0.070241,0.011597,-0.044566,-0.011706,-0.001062,7.5e-05,-0.076878,-0.0,-0.0,2.0,0.282024,0.264021,0.282024,0.298509,67.198411,-558.296747,-81.671815,3.924262,3.596956,-10.451336
49518,-0.075128,0.011739,-0.044274,-0.010654,-0.001141,-0.000981,-0.078561,-0.0,-0.0,2.0,0.282024,0.264474,0.282024,0.298128,67.344987,-558.732361,-81.65631,2.293649,1.637221,-10.61544
49538,-0.079776,0.011883,-0.044111,-0.010654,-0.001146,-0.000976,-0.080158,-0.0,-0.0,2.0,0.282024,0.262989,0.282024,0.299368,67.407965,-559.161712,-81.632183,-0.175039,0.836173,-10.774899
49558,-0.084417,0.011905,-0.043944,-0.010655,-9e-05,-0.001061,-0.080158,-0.0,-0.0,2.0,0.282024,0.260729,0.282024,0.301223,67.361938,-559.59623,-81.607894,-2.433828,1.522703,-10.932564
49578,-0.088576,0.011933,-0.04391,-0.009578,0.0,0.0,-0.082809,-0.0,-0.0,2.0,0.282024,0.262002,0.282024,0.300183,67.234637,-560.04428,-81.590173,-3.502786,3.335436,-11.087079
49598,-0.09285,0.01197,-0.043622,-0.008513,-0.00106,9.9e-05,-0.083688,-0.0,-0.0,2.0,0.282024,0.262394,0.282024,0.299861,67.088986,-560.519947,-81.579307,-2.920633,5.355171,-11.237189
49618,-0.096883,0.011891,-0.04335,-0.008525,-0.001162,-0.000956,-0.084317,-0.0,-0.0,2.0,0.282024,0.258628,0.282024,0.302912,66.571098,-560.911815,-81.160146,-1.014124,6.530679,-11.38776
49638,-0.100667,0.011812,-0.043193,-0.009591,-0.000107,-0.001059,-0.085428,-0.0,-0.0,2.0,0.282024,0.259385,0.282024,0.302307,67.018591,-561.425644,-81.620161,1.254535,6.219805,-11.545513
49658,-0.104214,0.011733,-0.043168,-0.008514,0.0,0.0,-0.086124,-0.0,-0.0,2.0,0.282024,0.260026,0.282024,0.301792,67.114151,-561.942122,-81.648352,2.802346,4.515193,-11.710168
49678,-0.107756,0.011796,-0.042763,-0.007461,-0.001173,-0.000944,-0.086654,-0.0,-0.0,2.0,0.282024,0.258502,0.282024,0.303013,67.240231,-562.434181,-81.689695,2.854742,2.231379,-11.87484
49698,-0.111064,0.011973,-0.042605,-0.007461,-0.001176,-0.00094,-0.087011,-0.0,-0.0,2.0,0.282024,0.25699,0.282024,0.304206,67.316037,-562.910869,-81.761711,1.399881,0.540992,-12.035426
49718,-0.114122,0.012156,-0.04244,-0.007461,-0.001178,-0.000936,-0.087011,-0.0,-0.0,2.0,0.282024,0.255487,0.282024,0.305376,67.240857,-563.384006,-81.904825,-0.75584,0.384709,-12.193929
49738,-0.117065,0.012343,-0.042284,-0.00745,0.0,0.0,-0.087225,-0.0,-0.0,2.0,0.282024,0.256202,0.282024,0.304821,66.558283,-563.839528,-82.558864,-2.374841,1.920785,-12.351439
49758,-0.119756,0.012542,-0.042,-0.006384,-0.001057,0.000127,-0.087192,-0.0,-0.0,2.0,0.282024,0.254789,0.282024,0.305913,79.899341,-564.125027,-69.118671,-2.402894,4.347832,-12.505558
49778,-0.122447,0.012748,-0.041594,-0.005331,-0.002242,-0.000796,-0.086999,-0.0,-0.0,2.0,0.282024,0.25543,0.282024,0.305419,79.699284,-564.667036,-69.249776,-0.793221,6.253994,-12.658276
49798,-0.124897,0.013068,-0.041426,-0.005333,-0.001189,-0.000923,-0.086753,-0.0,-0.0,2.0,0.282024,0.251904,0.282024,0.308098,79.682863,-565.237545,-69.282103,1.472384,6.454812,-12.816898
49818,-0.127231,0.01327,-0.041273,-0.006398,-0.001191,-0.000921,-0.086174,-0.0,-0.0,2.0,0.282024,0.250407,0.282024,0.309209,79.767176,-565.80476,-69.29912,2.947557,4.73197,-12.982602
49838,-0.129435,0.013481,-0.040992,-0.005321,0.0,0.0,-0.085509,-0.0,-0.0,2.0,0.282024,0.251044,0.282024,0.308738,79.877043,-566.348194,-69.285092,2.573862,2.073337,-13.147502
49858,-0.131517,0.013696,-0.040712,-0.004271,-0.00014,-0.001055,-0.08469,-0.0,-0.0,2.0,0.282024,0.249487,0.282024,0.309883,79.790035,-566.873668,-69.106042,0.442794,0.130654,-13.307394
49878,-0.133718,0.013787,-0.040438,-0.004284,-0.001338,-0.001968,-0.083996,-0.0,-0.0,2.0,0.282024,0.247978,0.282024,0.310977,78.581608,-567.20608,-67.9171,-2.176075,0.164982,-13.465779
49898,-0.135426,0.013515,-0.040317,-0.004269,-0.001198,-0.000911,-0.083198,-0.0,-0.0,2.0,0.282024,0.248874,0.282024,0.31033,79.930944,-567.595326,-69.40083,-3.600016,2.184957,-13.622622
49918,-0.137014,0.013368,-0.040189,-0.004255,-0.001054,0.000145,-0.08168,-0.0,-0.0,2.0,0.282024,0.247186,0.282024,0.311546,79.796835,-568.157996,-69.403122,-2.62354,4.813519,-13.7746
49938,-0.138482,0.013354,-0.039933,-0.004257,0.0,0.0,-0.080478,-0.0,-0.0,2.0,0.282024,0.247972,0.282024,0.310982,79.727355,-568.75299,-69.386112,0.227745,6.131235,-13.927865
49958,-0.139945,0.013453,-0.039783,-0.003205,-0.001202,-0.000905,-0.079703,-0.0,-0.0,2.0,0.282024,0.248989,0.282024,0.310247,79.789181,-569.360357,-69.366403,3.046818,5.067534,-14.090899
49978,-0.140927,0.013432,-0.039777,-0.002141,-0.001203,-0.000904,-0.077647,-0.0,-0.0,2.0,0.282024,0.247397,0.282024,0.311395,79.940248,-569.950288,-69.354008,3.786856,2.267433,-14.25762
49998,-0.14178,0.013414,-0.039765,-0.002126,-0.001054,0.00015,-0.075842,-0.0,-0.0,2.0,0.282024,0.245967,0.282024,0.312412,80.170275,-570.521332,-69.255975,1.764955,-0.194399,-14.418493
50018,-0.142277,0.013535,-0.039635,-0.002126,-0.001053,0.000151,-0.073957,-0.0,-0.0,2.0,0.282024,0.244644,0.282024,0.313341,80.15678,-571.100517,-69.293522,-1.624464,-0.273692,-14.576773
50038,-0.142522,0.01366,-0.039501,-0.001079,-0.000151,-0.001054,-0.071941,-0.0,-0.0,2.0,0.282024,0.245659,0.282024,0.312629,80.039939,-571.686258,-69.323767,-3.773222,2.339841,-14.734009
50058,-0.142525,0.013773,-0.039614,-1.5e-05,-0.000151,-0.001054,-0.071941,-0.0,-0.0,2.0,0.282024,0.247884,0.282024,0.311045,79.905266,-572.292728,-69.395928,-2.844931,5.709174,-14.884508
50078,-0.142282,0.013769,-0.039739,0.0,0.0,0.0,-0.067861,-0.0,-0.0,2.0,0.282024,0.248075,0.282024,0.310908,79.97675,-572.930631,-69.58739,0.582936,6.972277,-15.036795
50098,-0.141912,0.013534,-0.039762,0.001064,0.0,0.0,-0.066412,-0.0,-0.0,2.0,0.282024,0.245266,0.282024,0.312906,76.159296,-573.364861,-65.714388,3.705317,4.720985,-15.202028
50118,-0.141537,0.013411,-0.03989,2e-06,-0.001054,0.00015,-0.064134,-0.0,-0.0,2.0,0.282024,0.24423,0.282024,0.31363,79.796525,-573.280628,-69.186216,3.497675,0.476787,-15.367649
50138,-0.141291,0.013285,-0.040024,2e-06,-0.001054,0.00015,-0.062789,-0.0,-0.0,2.0,0.282024,0.243628,0.282024,0.314047,80.255996,-573.803585,-69.552473,-0.233604,-2.173321,-15.525439
50158,-0.141046,0.013169,-0.040035,-0.001062,-0.001054,0.00015,-0.059405,-0.0,-0.0,2.0,0.282024,0.241897,0.282024,0.315235,80.177283,-574.431968,-69.547885,-4.24665,-0.658062,-15.685753
50178,-0.140929,0.013407,-0.040142,-0.001062,-0.001054,0.000149,-0.056389,-0.0,-0.0,2.0,0.282024,0.240284,0.282024,0.316323,79.97898,-575.063801,-69.51106,-4.727304,4.000201,-15.841107
50198,-0.140932,0.013528,-0.040133,2e-06,-0.001054,0.00015,-0.053202,-0.0,-0.0,2.0,0.282024,0.238454,0.282024,0.317539,79.889541,-575.731536,-69.393864,-0.702859,7.668519,-15.988542
50218,-0.140932,0.013528,-0.040133,-1.2e-05,-0.001203,-0.000904,-0.050245,-0.0,-0.0,2.0,0.282024,0.234374,0.282024,0.320175,80.548703,-576.400891,-68.737047,4.548325,6.660146,-16.15304
50238,-0.140689,0.013525,-0.040258,2e-06,-0.001054,0.000149,-0.04719,-0.0,-0.0,2.0,0.282024,0.232759,0.282024,0.321191,82.626243,-576.422356,-66.882144,6.101942,1.421317,-16.32684
50258,-0.140566,0.013536,-0.040138,2e-06,-0.001054,0.000149,-0.04719,-0.0,-0.0,2.0,0.282024,0.235249,0.282024,0.319618,83.492719,-575.84539,-66.231817,1.933423,-3.24861,-16.484257
50278,-0.140325,0.013672,-0.040011,0.0,0.0,0.0,-0.041329,-0.0,-0.0,2.0,0.282024,0.231918,0.282024,0.321713,83.447251,-575.16988,-66.265315,-4.612984,-2.353836,-16.643781
50298,-0.139949,0.013557,-0.040018,-1.4e-05,-0.000148,-0.001054,-0.03945,-0.0,-0.0,2.0,0.282024,0.233472,0.282024,0.320744,83.20916,-574.501952,-66.333135,-7.00641,4.02202,-16.801992
50318,-0.139586,0.013687,-0.040014,0.00105,-0.000148,-0.001054,-0.035029,-0.0,-0.0,2.0,0.282024,0.23111,0.282024,0.322212,83.156562,-573.801939,-66.594777,-2.093371,9.77149,-16.939728
50338,-0.138858,0.013824,-0.040016,0.001064,0.0,0.0,-0.032799,-0.0,-0.0,2.0,0.282024,0.23018,0.282024,0.322781,113.033172,-573.47826,-96.477945,5.769095,8.314421,-17.103504
50358,-0.137994,0.013721,-0.040029,0.00213,-0.001054,0.000146,-0.029052,-0.0,-0.0,2.0,0.282024,0.228477,0.282024,0.323809,111.300057,-573.792392,-94.462762,8.016979,-0.048739,-17.284193
50378,-0.13702,0.013742,-0.040042,0.00213,-0.001054,0.000145,-0.025374,-0.0,-0.0,2.0,0.282024,0.229341,0.282024,0.32329,111.728815,-574.488437,-94.701604,1.1979,-6.989194,-17.433379
50398,-0.135673,0.01377,-0.040054,0.003195,-0.001054,0.000144,-0.021841,-0.0,-0.0,2.0,0.282024,0.225434,0.282024,0.325607,111.646226,-575.229994,-94.827052,-8.247555,-4.195382,-17.601479
50418,-0.134201,0.013679,-0.040075,0.00213,-0.001055,0.000142,-0.01826,-0.0,-0.0,2.0,0.282024,0.229238,0.282024,0.323352,111.249276,-575.945001,-94.860898,-9.412511,6.783655,-17.760464
50438,-0.132483,0.013472,-0.040107,0.003178,-0.000141,-0.001055,-0.015549,-0.0,-0.0,2.0,0.282024,0.228637,0.282024,0.323714,109.325827,-576.725576,-96.525,0.799494,14.192397,-17.884514
50458,-0.130405,0.013508,-0.040249,0.004257,0.0,0.0,-0.012725,-0.0,-0.0,2.0,0.282024,0.23065,0.282024,0.322494,111.037094,-577.353619,-94.984719,12.174479,8.236066,-18.083656
50478,-0.128082,0.013427,-0.040402,0.004243,-0.000136,-0.001056,-0.010716,-0.0,-0.0,2.0,0.282024,0.233322,0.282024,0.320838,111.586563,-578.098743,-94.878049,10.428611,-6.306426,-18.263365
50498,-0.125517,0.013467,-0.040672,0.006385,0.0,0.0,-0.006614,-0.0,-0.0,2.0,0.282024,0.23242,0.282024,0.321402,111.685421,-578.891262,-94.582139,-5.050634,-12.442444,-18.396963
50518,-0.122578,0.013392,-0.040946,0.006387,-0.001056,0.00013,-0.001806,-0.0,-0.0,2.0,0.282024,0.231316,0.282024,0.322085,109.756024,-579.532262,-92.97564,-17.083771,-0.383767,-18.60669
50538,-0.119279,0.013334,-0.041111,0.006387,-0.001057,0.000127,0.002156,-0.0,-0.0,2.0,0.282024,0.233366,0.282024,0.320811,107.669074,-578.892403,-91.504482,-8.970284,17.741663,-18.70573
50558,-0.115852,0.013272,-0.04139,0.007453,-0.002114,0.000246,0.005893,-0.0,-0.0,2.0,0.282024,0.235592,0.282024,0.319398,107.618373,-577.793377,-91.488447,12.831689,18.658078,-18.857121
50578,-0.112059,0.013225,-0.041551,0.008515,-0.001058,0.000119,0.00826,-0.0,-0.0,2.0,0.282024,0.236414,0.282024,0.318869,108.338669,-576.8799,-91.493648,21.838452,-2.909791,-19.130185
50598,-0.108023,0.013177,-0.041836,0.00745,0.0,0.0,0.012237,-0.0,-0.0,2.0,0.282024,0.238809,0.282024,0.317305,90.482677,-576.041262,-110.022718,2.2704,-22.34402,-19.191449
50618,-0.103625,0.013023,-0.042016,0.009578,0.0,0.0,0.015861,-0.0,-0.0,2.0,0.282024,0.241564,0.282024,0.31546,90.05631,-574.90285,-110.103454,-24.984448,-11.228691,-19.450554
50638,-0.099101,0.012987,-0.042304,0.010641,0.001059,-0.000105,0.019457,-0.0,-0.0,2.0,0.282024,0.242079,0.282024,0.31511,89.04813,-574.057547,-110.276293,-22.428984,22.309398,-19.587432
50658,-0.09409,0.012964,-0.042596,0.010642,0.0,0.0,0.02146,-0.0,-0.0,2.0,0.282024,0.245993,0.282024,0.312394,89.662761,-573.434668,-111.347092,14.070876,34.321395,-19.59492
50678,-0.088833,0.012819,-0.043017,0.011708,-0.00106,9.4e-05,0.024166,-0.0,-0.0,2.0,0.282024,0.249597,0.282024,0.309803,101.925544,-572.908209,-122.612023,38.550796,0.874999,-20.098928
50698,-0.08321,0.012689,-0.043317,0.012772,-0.001061,8.8e-05,0.030422,-0.0,-0.0,2.0,0.282024,0.249234,0.282024,0.310068,103.374151,-571.794177,-122.815543,9.735222,-39.989712,-19.988923
50718,-0.077224,0.012686,-0.043736,0.012772,-0.001061,8.2e-05,0.032259,-0.0,-0.0,2.0,0.282024,0.251416,0.282024,0.308462,103.567446,-570.046429,-121.979619,-42.558906,-25.759124,-20.394194
50738,-0.071116,0.012693,-0.044032,0.012772,-0.001062,7.6e-05,0.034715,-0.0,-0.0,2.0,0.282024,0.25544,0.282024,0.305412,100.803254,-569.066084,-122.770283,-41.573312,37.976257,-20.609674
50758,-0.064646,0.012709,-0.044337,0.013835,0.0,0.0,0.038986,-0.0,-0.0,2.0,0.282024,0.258619,0.282024,0.30292,99.102413,-567.301674,-120.954951,28.137001,61.219081,-20.304866
50778,-0.05805,0.012729,-0.044632,0.014899,0.0,0.0,0.042322,-0.0,-0.0,2.0,0.282024,0.260271,0.282024,0.301595,99.445924,-568.338895,-119.080329,72.803964,-6.944811,-21.576299
50798,-0.051327,0.012509,-0.044933,0.014887,-0.001117,-0.001008,0.045495,-0.0,-0.0,2.0,0.282024,0.264047,0.282024,0.298486,102.466185,-569.651465,-117.593238,5.639535,-82.466503,-20.588365
50818,-0.044366,0.012418,-0.045236,0.0149,-0.001063,4.7e-05,0.047826,-0.0,-0.0,2.0,0.282024,0.266282,0.282024,0.296593,101.423172,-566.973365,-115.701356,-92.843054,-35.517536,-22.180501
50838,-0.037159,0.012337,-0.045416,0.0149,-0.001063,4e-05,0.050237,-0.0,-0.0,2.0,0.282024,0.268567,0.282024,0.294615,103.046732,-567.937373,-121.323192,-57.6812,99.022258,-21.51533
50858,-0.029956,0.012378,-0.045589,0.014899,0.0,0.0,0.054278,-0.0,-0.0,2.0,0.282024,0.27006,0.282024,0.293299,133.968737,-569.726393,-93.140287,93.6497,101.892699,-21.768581
50878,-0.022509,0.012424,-0.045884,0.015963,0.0,0.0,0.056442,-0.0,-0.0,2.0,0.282024,0.274436,0.282024,0.28933,135.417233,-568.761324,-96.889707,129.206485,-90.144768,-24.444321
50898,-0.015304,0.012346,-0.04606,0.015963,0.0,0.0,0.057998,-0.0,-0.0,2.0,0.282024,0.277011,0.282024,0.286913,139.782974,-571.412374,-96.635682,-84.584328,-174.385925,-20.924571
50918,-0.007854,0.012273,-0.046226,0.01595,-0.001073,-0.001056,0.061247,-0.0,-0.0,2.0,0.282024,0.277039,0.282024,0.286886,131.768101,-572.684735,-97.76054,-222.732681,83.898229,-29.495598
50938,-0.000287,0.012326,-0.04664,0.014899,0.0,0.0,0.063786,-0.0,-0.0,2.0,0.282024,0.279302,0.282024,0.284709,126.166328,-573.818965,-101.762651,91.240967,290.398232,-18.888898
50958,0.006793,0.012369,-0.046804,0.013835,0.0,0.0,0.066262,-0.0,-0.0,2.0,0.282024,0.283175,0.282024,0.280866,108.036109,-573.816855,-77.484068,379.361301,-126.877878,-41.419095
50978,0.013876,0.012292,-0.046972,0.014899,-0.001064,-1.5e-05,0.06866,-0.0,-0.0,2.0,0.282024,0.283392,0.282024,0.280646,98.912857,-575.319336,-83.437103,-219.80057,-522.517816,-22.206516
50998,0.020834,0.012335,-0.04725,0.014886,-0.001042,-0.001086,0.069787,-0.0,-0.0,2.0,0.282024,0.284154,0.282024,0.279871,66.14988,-572.811654,-80.05016,-166.571852,1605.53143,-25.448352
51018,0.027676,0.012133,-0.04753,0.013835,0.0,0.0,0.071383,-0.0,-0.0,2.0,0.282024,0.286431,0.282024,0.277516,499.764285,-583.851385,343.304845,6455.367839,-5018.071879,-876.222723
51038,0.03439,0.012173,-0.047809,0.013835,0.0,0.0,0.074701,-0.0,-0.0,2.0,0.282024,0.287137,0.282024,0.276775,160535.891814,14117.115858,109913.380492,-56491692473.96094,-80243786019.94188,3409139179.728837
51058,0.040745,0.01196,-0.047957,0.013835,0.0,0.0,0.076356,-0.0,-0.0,2.0,0.282024,0.287452,0.282024,0.276442,1.5340662705999247e+64,-6.429378082310938e+63,-7.914089659492255e+63,-3.442861254064165e+129,-4.890421917353707e+129,2.0776848049183484e+128
51078,0.046975,0.01187,-0.048225,0.012758,5e-05,-0.001063,0.078529,-0.0,-0.0,2.0,0.282024,0.289861,0.282024,0.273861,,,,,,
51098,0.053084,0.011659,-0.048607,0.011706,0.0,0.0,0.079312,-0.0,-0.0,2.0,0.282024,0.292129,0.282024,0.27137,,,,,,
51118,0.058829,0.01156,-0.048876,0.011719,-6.3e-05,0.001062,0.080775,-0.0,-0.0,2.0,0.282024,0.292169,0.282024,0.271326,,,,,,
51138,0.064329,0.011335,-0.049128,0.010642,0.0,0.0,0.08215,-0.0,-0.0,2.0,0.282024,0.292143,0.282024,0.271354,,,,,,
51158,0.069463,0.011232,-0.049633,0.010642,0.0,0.0,0.083351,-0.0,-0.0,2.0,0.282024,0.293807,0.282024,0.269487,,,,,,
51178,0.074474,0.011002,-0.049999,0.009578,0.0,0.0,0.083351,-0.0,-0.0,2.0,0.282024,0.294188,0.282024,0.269054,,,,,,
51198,0.079243,0.010891,-0.050377,0.00959,-8.4e-05,0.001061,0.084455,-0.0,-0.0,2.0,0.282024,0.295687,0.282024,0.267335,,,,,,
51218,0.083401,0.010643,-0.050737,0.008514,0.0,0.0,0.085627,-0.0,-0.0,2.0,0.282024,0.295211,0.282024,0.267885,,,,,,
51238,0.087438,0.010516,-0.05111,0.00745,0.0,0.0,0.086153,-0.0,-0.0,2.0,0.282024,0.294951,0.282024,0.268182,,,,,,
51258,0.091107,0.010265,-0.051588,0.006385,0.0,0.0,0.086802,-0.0,-0.0,2.0,0.282024,0.296215,0.282024,0.266722,,,,,,
51278,0.094412,0.01,-0.051943,0.006396,-0.0001,0.00106,0.087006,-0.0,-0.0,2.0,0.282024,0.29577,0.282024,0.267239,,,,,,
51298,0.097478,0.009731,-0.052306,0.005321,0.0,0.0,0.087212,-0.0,-0.0,2.0,0.282024,0.295242,0.282024,0.267849,,,,,,
51318,0.100298,0.009334,-0.052652,0.005321,0.0,0.0,0.087264,-0.0,-0.0,2.0,0.282024,0.296383,0.282024,0.266527,,,,,,
51338,0.102872,0.009048,-0.052881,0.004257,0.0,0.0,0.087206,-0.0,-0.0,2.0,0.282024,0.297463,0.282024,0.265262,,,,,,
51358,0.104955,0.008871,-0.053116,0.003193,0.0,0.0,0.086974,-0.0,-0.0,2.0,0.282024,0.295009,0.282024,0.268116,,,,,,
51378,0.10692,0.008563,-0.053223,0.003193,0.0,0.0,0.086565,-0.0,-0.0,2.0,0.282024,0.29599,0.282024,0.266984,,,,,,
51398,0.108517,0.008368,-0.053336,0.003193,0.0,0.0,0.08611,-0.0,-0.0,2.0,0.282024,0.296833,0.282024,0.266001,,,,,,
51418,0.109742,0.008157,-0.053319,0.00212,0.000117,-0.001058,0.085264,-0.0,-0.0,2.0,0.282024,0.295983,0.282024,0.266992,,,,,,
51438,0.11097,0.008067,-0.053318,0.001064,0.0,0.0,0.084315,-0.0,-0.0,2.0,0.282024,0.29516,0.282024,0.267943,,,,,,
51458,0.111705,0.007964,-0.053309,0.001064,0.0,0.0,0.083795,-0.0,-0.0,2.0,0.282024,0.295678,0.282024,0.267345,,,,,,
51478,0.112073,0.007852,-0.053301,-8e-06,0.000119,-0.001058,0.082673,-0.0,-0.0,2.0,0.282024,0.294583,0.282024,0.268604,,,,,,
51498,0.112561,0.007865,-0.053299,-0.001073,-0.000938,-0.001177,0.081409,-0.0,-0.0,2.0,0.282024,0.29532,0.282024,0.267758,,,,,,
51518,0.112561,0.007858,-0.053178,-0.001065,-0.001057,-0.00012,0.080681,-0.0,-0.0,2.0,0.282024,0.295608,0.282024,0.267427,,,,,,
51538,0.112318,0.007852,-0.053178,-0.001073,0.000119,-0.001058,0.079528,-0.0,-0.0,2.0,0.282024,0.294271,0.282024,0.26896,,,,,,
51558,0.112189,0.008092,-0.053193,-0.001074,-0.000938,-0.001177,0.076789,-0.0,-0.0,2.0,0.282024,0.295352,0.282024,0.267722,,,,,,
51578,0.111946,0.008086,-0.053193,-0.001073,0.000119,-0.001058,0.075805,-0.0,-0.0,2.0,0.282024,0.295671,0.282024,0.267354,,,,,,
51598,0.111702,0.00808,-0.053194,-0.001064,0.0,0.0,0.073449,-0.0,-0.0,2.0,0.282024,0.296529,0.282024,0.266357,,,,,,
51618,0.11158,0.008076,-0.053195,-0.001065,-0.001058,-0.000119,0.071152,-0.0,-0.0,2.0,0.282024,0.29742,0.282024,0.265311,,,,,,
51638,0.111462,0.007945,-0.053067,-0.001074,-0.000939,-0.001176,0.068928,-0.0,-0.0,2.0,0.282024,0.299974,0.282024,0.262257,,,,,,
51658,0.111336,0.00807,-0.053195,-0.001064,0.0,0.0,0.067784,-0.0,-0.0,2.0,0.282024,0.298707,0.282024,0.263784,,,,,,
51678,0.111336,0.00807,-0.053195,-0.001065,-0.001058,-0.000118,0.066095,-0.0,-0.0,2.0,0.282024,0.299393,0.282024,0.26296,,,,,,
51698,0.111336,0.00807,-0.053195,-0.001074,-0.000939,-0.001176,0.063269,-0.0,-0.0,2.0,0.282024,0.300522,0.282024,0.261589,,,,,,
51718,0.111212,0.008182,-0.053081,-0.001074,-0.00094,-0.001176,0.060861,-0.0,-0.0,2.0,0.282024,0.301441,0.282024,0.260461,,,,,,
51738,0.111089,0.008185,-0.053203,-0.001073,0.000118,-0.001058,0.056882,-0.0,-0.0,2.0,0.282024,0.302997,0.282024,0.258522,,,,,,
51758,0.110849,0.008057,-0.053197,-0.001064,0.0,0.0,0.054799,-0.0,-0.0,2.0,0.282024,0.303732,0.282024,0.257593,,,,,,
51778,0.110602,0.007928,-0.053181,-0.001065,-0.001058,-0.000117,0.05175,-0.0,-0.0,2.0,0.282024,0.304829,0.282024,0.256192,,,,,,
51798,0.110111,0.008038,-0.05319,-0.001074,-0.000941,-0.001175,0.048671,-0.0,-0.0,2.0,0.282024,0.305863,0.282024,0.254855,,,,,,
51818,0.109745,0.008035,-0.053313,-0.002138,-0.000941,-0.001174,0.047106,-0.0,-0.0,2.0,0.282024,0.306332,0.282024,0.254242,,,,,,
51838,0.109254,0.008144,-0.053321,-0.002129,-0.001058,-0.000116,0.043858,-0.0,-0.0,2.0,0.282024,0.305789,0.282024,0.25495,,,,,,
51858,0.108517,0.008368,-0.053336,-0.002128,0.0,0.0,0.039756,-0.0,-0.0,2.0,0.282024,0.30711,0.282024,0.253219,,,,,,
51878,0.107776,0.00847,-0.053336,-0.003194,-0.001058,-0.000114,0.039756,-0.0,-0.0,2.0,0.282024,0.306806,0.282024,0.25362,,,,,,
51898,0.106679,0.008442,-0.053339,-0.003203,-0.000945,-0.001172,0.035697,-0.0,-0.0,2.0,0.282024,0.306346,0.282024,0.254224,,,,,,
51918,0.10533,0.008521,-0.053218,-0.004267,-0.000946,-0.00117,0.031144,-0.0,-0.0,2.0,0.282024,0.305992,0.282024,0.254686,,,,,,
51938,0.103859,0.008592,-0.052975,-0.004267,-0.000948,-0.001169,0.02687,-0.0,-0.0,2.0,0.282024,0.307076,0.282024,0.253263,,,,,,
51958,0.102029,0.008654,-0.052742,-0.005331,-0.00095,-0.001167,0.023389,-0.0,-0.0,2.0,0.282024,0.306101,0.282024,0.254544,,,,,,
51978,0.099822,0.008944,-0.052391,-0.00534,0.000212,-0.002118,0.021451,-0.0,-0.0,2.0,0.282024,0.304347,0.282024,0.25681,,,,,,
51998,0.097257,0.008872,-0.052265,-0.006395,0.000103,-0.001059,0.017733,-0.0,-0.0,2.0,0.282024,0.304818,0.282024,0.256206,,,,,,
52018,0.094562,0.008906,-0.051891,-0.007459,0.0001,-0.00106,0.013584,-0.0,-0.0,2.0,0.282024,0.303755,0.282024,0.257563,,,,,,
52038,0.091507,0.008939,-0.051648,-0.00745,0.0,0.0,0.013584,-0.0,-0.0,2.0,0.282024,0.302538,0.282024,0.259097,,,,,,
52058,0.087965,0.00896,-0.051406,-0.008524,-0.000967,-0.001154,0.007248,-0.0,-0.0,2.0,0.282024,0.302,0.282024,0.259768,,,,,,
52078,0.0843,0.008978,-0.051162,-0.008524,-0.000971,-0.00115,0.005252,-0.0,-0.0,2.0,0.282024,0.30133,0.282024,0.260598,,,,,,
52098,0.080261,0.009115,-0.051034,-0.009588,-0.000975,-0.001146,-0.000383,-0.0,-0.0,2.0,0.282024,0.300321,0.282024,0.261835,,,,,,
52118,0.075861,0.009239,-0.050793,-0.010653,-0.000981,-0.001142,-0.002899,-0.0,-0.0,2.0,0.282024,0.299544,0.282024,0.262778,,,,,,
52138,0.071091,0.009358,-0.050661,-0.011717,-0.000986,-0.001137,-0.006983,-0.0,-0.0,2.0,0.282024,0.29758,0.282024,0.265123,,,,,,
52158,0.066203,0.009476,-0.050537,-0.011706,0.0,0.0,-0.010661,-0.0,-0.0,2.0,0.282024,0.295382,0.282024,0.267688,,,,,,
52178,0.060823,0.009578,-0.050278,-0.012781,6.5e-05,-0.001062,-0.014292,-0.0,-0.0,2.0,0.282024,0.294658,0.282024,0.268518,,,,,,
52198,0.055325,0.009682,-0.050148,-0.012782,-0.001004,-0.001121,-0.018075,-0.0,-0.0,2.0,0.282024,0.292217,0.282024,0.271272,,,,,,
52218,0.049587,0.009655,-0.04989,-0.012781,-0.00101,-0.001116,-0.018075,-0.0,-0.0,2.0,0.282024,0.289797,0.282024,0.273931,,,,,,
52238,0.043726,0.009627,-0.049629,-0.013845,4.7e-05,-0.001063,-0.024533,-0.0,-0.0,2.0,0.282024,0.290049,0.282024,0.273656,,,,,,
52258,0.037619,0.009712,-0.049123,-0.013846,-0.001023,-0.001104,-0.027519,-0.0,-0.0,2.0,0.282024,0.285159,0.282024,0.278838,,,,,,
52278,0.031395,0.009556,-0.048853,-0.013845,-0.00103,-0.001097,-0.030175,-0.0,-0.0,2.0,0.282024,0.285408,0.282024,0.278581,,,,,,
52298,0.024919,0.00976,-0.048464,-0.01491,-0.001037,-0.00109,-0.033696,-0.0,-0.0,2.0,0.282024,0.284121,0.282024,0.279905,,,,,,
52318,0.018571,0.009725,-0.048068,-0.01491,-0.001044,-0.001084,-0.03714,-0.0,-0.0,2.0,0.282024,0.281022,0.282024,0.283021,,,,,,
52338,0.012219,0.009938,-0.04768,-0.01491,-0.001051,-0.001077,-0.040456,-0.0,-0.0,2.0,0.282024,0.27967,0.282024,0.28435,,,,,,
52358,0.005621,0.010145,-0.047278,-0.01491,-0.001058,-0.00107,-0.042072,-0.0,-0.0,2.0,0.282024,0.279293,0.282024,0.284718,,,,,,
52378,-0.000856,0.010481,-0.04688,-0.013857,-0.001066,-0.002128,-0.04661,-0.0,-0.0,2.0,0.282024,0.276553,0.282024,0.287346,,,,,,
52398,-0.00709,0.010824,-0.046601,-0.014911,-0.001072,-0.001057,-0.049083,-0.0,-0.0,2.0,0.282024,0.276724,0.282024,0.287184,,,,,,
52418,-0.013568,0.011164,-0.046202,-0.013847,-0.001079,-0.00105,-0.051942,-0.0,-0.0,2.0,0.282024,0.275075,0.282024,0.288735,,,,,,
52438,-0.0198,0.011514,-0.045547,-0.013847,-0.001085,-0.001043,-0.055521,-0.0,-0.0,2.0,0.282024,0.27192,0.282024,0.291632,,,,,,
52458,-0.025791,0.011993,-0.04501,-0.01386,-0.001119,-0.0021,-0.057273,-0.0,-0.0,2.0,0.282024,0.271895,0.282024,0.291655,,,,,,
52478,-0.032019,0.012104,-0.04448,-0.013847,-0.001098,-0.00103,-0.060094,-0.0,-0.0,2.0,0.282024,0.272235,0.282024,0.291348,,,,,,
52498,-0.037998,0.012106,-0.043706,-0.01386,-0.001144,-0.002087,-0.062696,-0.0,-0.0,2.0,0.282024,0.268686,0.282024,0.294511,,,,,,
52518,-0.043856,0.012114,-0.042932,-0.013861,-9.3e-05,-0.002127,-0.065249,-0.0,-0.0,2.0,0.282024,0.267114,0.282024,0.295878,,,,,,
52538,-0.049716,0.012121,-0.042399,-0.012796,-0.000106,-0.002126,-0.066739,-0.0,-0.0,2.0,0.282024,0.267028,0.282024,0.295953,,,,,,
52558,-0.055574,0.012137,-0.04162,-0.012796,-0.000118,-0.002125,-0.068578,-0.0,-0.0,2.0,0.282024,0.265074,0.282024,0.297621,,,,,,
52578,-0.061066,0.012161,-0.040965,-0.012783,-0.001127,-0.000997,-0.070708,-0.0,-0.0,2.0,0.282024,0.263443,0.282024,0.298991,,,,,,
52598,-0.066805,0.012305,-0.040301,-0.012809,-0.001275,-0.003115,-0.073538,-0.0,-0.0,2.0,0.282024,0.262044,0.282024,0.300149,,,,,,
52618,-0.072065,0.012707,-0.039638,-0.011719,-0.001138,-0.000985,-0.074835,-0.0,-0.0,2.0,0.282024,0.26006,0.282024,0.301765,,,,,,
52638,-0.077315,0.012868,-0.038974,-0.011733,-0.001225,-0.00204,-0.077258,-0.0,-0.0,2.0,0.282024,0.260736,0.282024,0.301217,,,,,,
52658,-0.082447,0.013039,-0.038194,-0.010669,-0.001236,-0.002034,-0.078169,-0.0,-0.0,2.0,0.282024,0.258607,0.282024,0.302929,,,,,,
52678,-0.087455,0.013333,-0.037523,-0.010671,-0.000186,-0.002121,-0.079834,-0.0,-0.0,2.0,0.282024,0.25692,0.282024,0.30426,,,,,,
52698,-0.091974,0.013273,-0.036879,-0.010656,-9.8e-05,-0.00106,-0.081269,-0.0,-0.0,2.0,0.282024,0.257453,0.282024,0.303842,,,,,,
52718,-0.096492,0.013222,-0.036111,-0.009606,-0.000205,-0.002119,-0.082431,-0.0,-0.0,2.0,0.282024,0.25785,0.282024,0.30353,,,,,,
52738,-0.100641,0.013302,-0.035335,-0.008541,-0.001273,-0.002011,-0.083249,-0.0,-0.0,2.0,0.282024,0.256163,0.282024,0.304851,,,,,,
52758,-0.104674,0.013389,-0.034565,-0.008541,-0.001281,-0.002006,-0.084658,-0.0,-0.0,2.0,0.282024,0.254823,0.282024,0.305887,,,,,,
52778,-0.108337,0.013599,-0.033908,-0.008541,-0.001288,-0.002001,-0.085104,-0.0,-0.0,2.0,0.282024,0.255326,0.282024,0.3055,,,,,,
52798,-0.111762,0.013823,-0.033136,-0.007464,-0.000119,-0.001058,-0.086038,-0.0,-0.0,2.0,0.282024,0.256136,0.282024,0.304873,,,,,,
52818,-0.115059,0.014051,-0.032359,-0.006413,-0.001302,-0.001992,-0.086593,-0.0,-0.0,2.0,0.282024,0.254706,0.282024,0.305977,,,,,,
52838,-0.117997,0.014288,-0.031591,-0.006414,-0.001307,-0.001989,-0.086975,-0.0,-0.0,2.0,0.282024,0.255544,0.282024,0.305331,,,,,,
52858,-0.120681,0.01428,-0.030956,-0.006414,-0.001313,-0.001985,-0.087105,-0.0,-0.0,2.0,0.282024,0.254263,0.282024,0.306316,,,,,,
52878,-0.123242,0.01429,-0.030079,-0.0064,-0.000131,-0.001056,-0.087256,-0.0,-0.0,2.0,0.282024,0.255119,0.282024,0.30566,,,,,,
52898,-0.12556,0.014428,-0.029196,-0.005352,-0.000267,-0.002112,-0.087251,-0.0,-0.0,2.0,0.282024,0.253899,0.282024,0.306593,,,,,,
52918,-0.127756,0.01444,-0.028445,-0.004303,-0.000407,-0.003167,-0.087115,-0.0,-0.0,2.0,0.282024,0.252725,0.282024,0.307482,,,,,,
52938,-0.129585,0.01433,-0.027827,-0.004285,-0.00133,-0.001973,-0.086657,-0.0,-0.0,2.0,0.282024,0.25153,0.282024,0.308377,,,,,,
52958,-0.131416,0.014351,-0.02708,-0.004285,-0.001334,-0.001971,-0.08635,-0.0,-0.0,2.0,0.282024,0.252603,0.282024,0.307574,,,,,,
52978,-0.133003,0.014506,-0.026206,-0.004285,-0.001337,-0.001969,-0.085653,-0.0,-0.0,2.0,0.282024,0.251381,0.282024,0.308488,,,,,,
52998,-0.134464,0.014908,-0.025312,-0.003224,-0.000285,-0.002109,-0.08485,-0.0,-0.0,2.0,0.282024,0.252331,0.282024,0.307779,,,,,,
53018,-0.135928,0.014937,-0.024569,-0.00324,-0.000433,-0.003164,-0.083915,-0.0,-0.0,2.0,0.282024,0.25111,0.282024,0.308689,,,,,,
53038,-0.137029,0.014965,-0.023951,-0.00216,-0.000291,-0.002109,-0.083391,-0.0,-0.0,2.0,0.282024,0.250257,0.282024,0.309319,,,,,,
53058,-0.137754,0.015014,-0.02309,-0.002144,-0.000146,-0.001054,-0.082604,-0.0,-0.0,2.0,0.282024,0.249454,0.282024,0.309908,,,,,,
53078,-0.138599,0.01494,-0.022237,-0.00216,-0.000294,-0.002108,-0.081638,-0.0,-0.0,2.0,0.282024,0.25068,0.282024,0.309007,,,,,,
53098,-0.138968,0.014979,-0.021628,-0.001096,-0.000295,-0.002108,-0.079189,-0.0,-0.0,2.0,0.282024,0.251372,0.282024,0.308495,,,,,,
53118,-0.139208,0.015018,-0.021016,-3.2e-05,-0.000295,-0.002108,-0.078165,-0.0,-0.0,2.0,0.282024,0.25071,0.282024,0.308985,,,,,,
53138,-0.139566,0.014951,-0.020168,-2.9e-05,-0.00135,-0.00196,-0.075834,-0.0,-0.0,2.0,0.282024,0.249297,0.282024,0.310022,,,,,,
53158,-0.13944,0.014995,-0.019561,-0.001094,-0.00135,-0.00196,-0.074885,-0.0,-0.0,2.0,0.282024,0.24886,0.282024,0.31034,,,,,,
53178,-0.139184,0.01517,-0.018821,-3.2e-05,-0.000295,-0.002108,-0.072827,-0.0,-0.0,2.0,0.282024,0.250092,0.282024,0.30944,,,,,,
53198,-0.138935,0.015094,-0.018223,-3.2e-05,-0.000295,-0.002108,-0.070742,-0.0,-0.0,2.0,0.282024,0.24912,0.282024,0.310151,,,,,,
53218,-0.138565,0.015148,-0.017496,-3.2e-05,-0.000294,-0.002108,-0.069656,-0.0,-0.0,2.0,0.282024,0.24874,0.282024,0.310427,,,,,,
53238,-0.138439,0.015192,-0.016889,-3.2e-05,-0.000294,-0.002108,-0.067476,-0.0,-0.0,2.0,0.282024,0.247646,0.282024,0.311217,,,,,,
53258,-0.138434,0.014982,-0.016418,-0.001094,-0.001348,-0.001961,-0.064557,-0.0,-0.0,2.0,0.282024,0.243827,0.282024,0.313909,,,,,,
53278,-0.138551,0.015023,-0.015808,-0.001078,-0.001201,-0.000907,-0.062162,-0.0,-0.0,2.0,0.282024,0.242444,0.282024,0.314861,,,,,,
53298,-0.138548,0.015057,-0.015321,-0.001078,-0.001201,-0.000907,-0.05879,-0.0,-0.0,2.0,0.282024,0.240571,0.282024,0.316131,,,,,,
53318,-0.138666,0.01522,-0.014702,-0.001096,-0.000294,-0.002108,-0.05693,-0.0,-0.0,2.0,0.282024,0.241774,0.282024,0.315318,,,,,,
53338,-0.138541,0.015377,-0.014208,-3e-05,-0.001348,-0.001961,-0.053745,-0.0,-0.0,2.0,0.282024,0.240071,0.282024,0.316466,,,,,,
53358,-0.138417,0.015403,-0.013844,-3e-05,-0.001348,-0.001961,-0.050805,-0.0,-0.0,2.0,0.282024,0.238517,0.282024,0.317497,,,,,,
53378,-0.138039,0.015317,-0.013366,-1.4e-05,-0.001201,-0.000908,-0.049249,-0.0,-0.0,2.0,0.282024,0.237847,0.282024,0.317937,,,,,,
53398,-0.13767,0.015354,-0.012883,-1.4e-05,-0.0012,-0.000908,-0.044585,-0.0,-0.0,2.0,0.282024,0.23534,0.282024,0.31956,,,,,,
53418,-0.137302,0.015382,-0.012521,-3.2e-05,-0.000291,-0.002109,-0.044585,-0.0,-0.0,2.0,0.282024,0.235589,0.282024,0.3194,,,,,,
53438,-0.136934,0.01541,-0.012159,-1.6e-05,-0.000145,-0.001054,-0.040685,-0.0,-0.0,2.0,0.282024,0.235939,0.282024,0.319175,,,,,,
53458,-0.136558,0.015559,-0.011787,0.001031,-0.00029,-0.002109,-0.035778,-0.0,-0.0,2.0,0.282024,0.233307,0.282024,0.320847,,,,,,
53478,-0.135947,0.015588,-0.011428,0.001048,-0.000144,-0.001055,-0.033558,-0.0,-0.0,2.0,0.282024,0.23236,0.282024,0.321439,,,,,,
53498,-0.135334,0.015496,-0.011077,0.00105,-0.001198,-0.000911,-0.029799,-0.0,-0.0,2.0,0.282024,0.230489,0.282024,0.322592,,,,,,
53518,-0.13447,0.015404,-0.010726,0.00105,-0.001197,-0.000912,-0.026247,-0.0,-0.0,2.0,0.282024,0.22887,0.282024,0.323573,,,,,,
53538,-0.133371,0.015436,-0.010371,0.002114,-0.001196,-0.000913,-0.022686,-0.0,-0.0,2.0,0.282024,0.227367,0.282024,0.324471,,,,,,
53558,-0.132143,0.015467,-0.010015,0.002114,-0.001195,-0.000915,-0.018655,-0.0,-0.0,2.0,0.282024,0.228182,0.282024,0.323986,,,,,,
53578,-0.13067,0.0155,-0.009662,0.003176,-0.000139,-0.001055,-0.018655,-0.0,-0.0,2.0,0.282024,0.231517,0.282024,0.321961,,,,,,
53598,-0.128956,0.015648,-0.009424,0.003176,-0.000137,-0.001056,-0.012272,-0.0,-0.0,2.0,0.282024,0.228754,0.282024,0.323643,,,,,,
53618,-0.127117,0.01556,-0.009082,0.00424,-0.000135,-0.001056,-0.010434,-0.0,-0.0,2.0,0.282024,0.231245,0.282024,0.322129,,,,,,
53638,-0.124914,0.015344,-0.008872,0.005305,-0.000133,-0.001056,-0.004862,-0.0,-0.0,2.0,0.282024,0.229226,0.282024,0.323359,,,,,,
53658,-0.122346,0.015243,-0.00878,0.005307,-0.001186,-0.000926,-0.002897,-0.0,-0.0,2.0,0.282024,0.232061,0.282024,0.321625,,,,,,
53678,-0.119526,0.015029,-0.008573,0.005307,-0.001184,-0.00093,0.00092,-0.0,-0.0,2.0,0.282024,0.233909,0.282024,0.320469,,,,,,
53698,-0.11635,0.014931,-0.008484,0.006387,-0.001057,0.000124,0.004636,-0.0,-0.0,2.0,0.282024,0.233589,0.282024,0.32067,,,,,,
53718,-0.113043,0.014961,-0.008266,0.007434,-0.00012,-0.001058,0.008303,-0.0,-0.0,2.0,0.282024,0.235787,0.282024,0.319274,,,,,,
53738,-0.109379,0.014987,-0.008175,0.007434,-0.000116,-0.001058,0.010591,-0.0,-0.0,2.0,0.282024,0.238937,0.282024,0.31722,,,,,,
53758,-0.105344,0.015129,-0.0082,0.008498,-0.000112,-0.001058,0.0136,-0.0,-0.0,2.0,0.282024,0.239517,0.282024,0.316835,,,,,,
53778,-0.101064,0.015028,-0.008241,0.009562,-0.000107,-0.001059,0.019598,-0.0,-0.0,2.0,0.282024,0.240913,0.282024,0.3159,,,,,,
53798,-0.096419,0.014928,-0.008283,0.010626,-0.000102,-0.001059,0.021717,-0.0,-0.0,2.0,0.282024,0.244557,0.282024,0.313402,,,,,,
53818,-0.091408,0.014825,-0.00845,0.010644,-0.00106,9.7e-05,0.026442,-0.0,-0.0,2.0,0.282024,0.244745,0.282024,0.313271,,,,,,
53838,-0.086031,0.01448,-0.00863,0.011708,-0.00106,9.1e-05,0.02816,-0.0,-0.0,2.0,0.282024,0.248936,0.282024,0.310285,,,,,,
53858,-0.080289,0.014382,-0.008801,0.012772,-0.001061,8.5e-05,0.031624,-0.0,-0.0,2.0,0.282024,0.25014,0.282024,0.309405,,,,,,
53878,-0.074304,0.01428,-0.009094,0.012772,-0.001061,7.9e-05,0.035094,-0.0,-0.0,2.0,0.282024,0.253609,0.282024,0.306814,,,,,,
53898,-0.067958,0.014427,-0.009383,0.012771,0.0,0.0,0.038423,-0.0,-0.0,2.0,0.282024,0.257262,0.282024,0.303993,,,,,,
53918,-0.061486,0.014327,-0.009801,0.014899,0.0,0.0,0.042077,-0.0,-0.0,2.0,0.282024,0.260742,0.282024,0.301213,,,,,,
53938,-0.05477,0.014231,-0.01022,0.0149,-0.001063,5.8e-05,0.043996,-0.0,-0.0,2.0,0.282024,0.263101,0.282024,0.299276,,,,,,
53958,-0.047815,0.014258,-0.010761,0.014915,-0.001012,0.001114,0.048011,-0.0,-0.0,2.0,0.282024,0.26453,0.282024,0.29808,,,,,,
53978,-0.040614,0.014045,-0.011308,0.0149,-0.001063,4.3e-05,0.050156,-0.0,-0.0,2.0,0.282024,0.26699,0.282024,0.295985,,,,,,
53998,-0.033288,0.013835,-0.011851,0.0149,-0.001064,3.5e-05,0.053372,-0.0,-0.0,2.0,0.282024,0.270863,0.282024,0.292584,,,,,,
54018,-0.025968,0.013751,-0.012517,0.015978,2.8e-05,0.001064,0.056228,-0.0,-0.0,2.0,0.282024,0.272966,0.282024,0.290682,,,,,,
54038,-0.018524,0.013672,-0.013058,0.015963,0.0,0.0,0.058989,-0.0,-0.0,2.0,0.282024,0.275121,0.282024,0.288693,,,,,,
54058,-0.011082,0.013596,-0.013844,0.015978,1.2e-05,0.001064,0.060329,-0.0,-0.0,2.0,0.282024,0.27599,0.282024,0.287878,,,,,,
54078,-0.003517,0.013525,-0.014627,0.015978,4e-06,0.001064,0.064272,-0.0,-0.0,2.0,0.282024,0.277657,0.282024,0.286296,,,,,,
54098,0.003802,0.01358,-0.015409,0.014914,-0.001068,0.00106,0.066295,-0.0,-0.0,2.0,0.282024,0.281869,0.282024,0.282179,,,,,,
54118,0.010999,0.013639,-0.016192,0.014914,-0.001076,0.001053,0.068248,-0.0,-0.0,2.0,0.282024,0.282332,0.282024,0.281716,,,,,,
54138,0.018073,0.013703,-0.017093,0.014913,-0.001083,0.001045,0.069531,-0.0,-0.0,2.0,0.282024,0.284891,0.282024,0.279114,,,,,,
54158,0.024907,0.013406,-0.01799,0.013849,-2.7e-05,0.001064,0.072137,-0.0,-0.0,2.0,0.282024,0.28493,0.282024,0.279075,,,,,,
54178,0.031616,0.013479,-0.018888,0.012799,-6.7e-05,0.002128,0.074308,-0.0,-0.0,2.0,0.282024,0.286893,0.282024,0.277031,,,,,,
54198,0.037961,0.013309,-0.019779,0.013849,-4e-05,0.001064,0.07618,-0.0,-0.0,2.0,0.282024,0.287037,0.282024,0.27688,,,,,,
54218,0.044061,0.013265,-0.020669,0.012785,-4.7e-05,0.001063,0.077902,-0.0,-0.0,2.0,0.282024,0.288912,0.282024,0.274886,,,,,,
54238,0.050036,0.013352,-0.021803,0.011721,-5.3e-05,0.001063,0.078952,-0.0,-0.0,2.0,0.282024,0.28927,0.282024,0.2745,,,,,,
54258,0.055648,0.013194,-0.022806,0.011735,-0.000118,0.002125,0.080179,-0.0,-0.0,2.0,0.282024,0.291128,0.282024,0.272477,,,,,,
54278,0.060897,0.013157,-0.02369,0.010669,-0.001192,0.00206,0.08149,-0.0,-0.0,2.0,0.282024,0.29102,0.282024,0.272596,,,,,,
54298,0.06602,0.013126,-0.024691,0.010656,-7e-05,0.001062,0.08321,-0.0,-0.0,2.0,0.282024,0.290709,0.282024,0.272936,,,,,,
54318,0.070898,0.0131,-0.02581,0.009592,-7.5e-05,0.001062,0.083941,-0.0,-0.0,2.0,0.282024,0.292476,0.282024,0.270983,,,,,,
54338,0.075536,0.013074,-0.02681,0.009606,-0.000161,0.002123,0.084983,-0.0,-0.0,2.0,0.282024,0.293955,0.282024,0.269319,,,,,,
54358,0.079684,0.012922,-0.027797,0.007463,-8.5e-05,0.001061,0.085744,-0.0,-0.0,2.0,0.282024,0.293665,0.282024,0.269648,,,,,,
54378,0.083714,0.012895,-0.028793,0.007463,-8.9e-05,0.001061,0.086353,-0.0,-0.0,2.0,0.282024,0.293342,0.282024,0.270011,,,,,,
54398,0.087372,0.012872,-0.029902,0.007477,-0.000186,0.002121,0.086609,-0.0,-0.0,2.0,0.282024,0.294778,0.282024,0.268381,,,,,,
54418,0.09055,0.012719,-0.030887,0.006399,-9.6e-05,0.00106,0.086876,-0.0,-0.0,2.0,0.282024,0.294269,0.282024,0.268962,,,,,,
54438,0.093596,0.012816,-0.031998,0.005348,-0.000199,0.002119,0.087245,-0.0,-0.0,2.0,0.282024,0.293639,0.282024,0.269676,,,,,,
54458,0.096159,0.012658,-0.032974,0.004284,-0.000204,0.002119,0.087258,-0.0,-0.0,2.0,0.282024,0.294699,0.282024,0.268472,,,,,,
54478,0.098354,0.01262,-0.033954,0.003206,-0.000105,0.001059,0.0872,-0.0,-0.0,2.0,0.282024,0.293938,0.282024,0.269339,,,,,,
54498,0.100305,0.012585,-0.035055,0.003219,-0.000213,0.002118,0.08691,-0.0,-0.0,2.0,0.282024,0.293146,0.282024,0.270233,,,,,,
54518,0.101769,0.012538,-0.036033,0.002155,-0.000216,0.002118,0.086502,-0.0,-0.0,2.0,0.282024,0.293926,0.282024,0.269351,,,,,,
54538,0.102981,0.012609,-0.037009,0.002155,-0.000219,0.002117,0.085937,-0.0,-0.0,2.0,0.282024,0.29292,0.282024,0.270486,,,,,,
54558,0.103957,0.012556,-0.037986,0.001076,-0.001169,0.000948,0.085218,-0.0,-0.0,2.0,0.282024,0.291918,0.282024,0.271604,,,,,,
54578,0.104564,0.012374,-0.038948,1.3e-05,-0.000111,0.001058,0.084644,-0.0,-0.0,2.0,0.282024,0.292391,0.282024,0.271078,,,,,,
54598,0.105051,0.012435,-0.03993,2.6e-05,-0.000223,0.002117,0.084131,-0.0,-0.0,2.0,0.282024,0.291093,0.282024,0.272515,,,,,,
54618,0.105171,0.012245,-0.040892,2.6e-05,-0.000223,0.002117,0.082804,-0.0,-0.0,2.0,0.282024,0.289933,0.282024,0.273783,,,,,,
54638,0.105046,0.012165,-0.041738,-0.001051,-0.000112,0.001058,0.081168,-0.0,-0.0,2.0,0.282024,0.290572,0.282024,0.273086,,,,,,
54658,0.104916,0.01222,-0.042834,-0.001051,-0.000111,0.001058,0.080155,-0.0,-0.0,2.0,0.282024,0.290946,0.282024,0.272677,,,,,,
54678,0.104669,0.012138,-0.04368,-0.001039,-0.000222,0.002117,0.078405,-0.0,-0.0,2.0,0.282024,0.2916,0.282024,0.271956,,,,,,
54698,0.104543,0.012058,-0.044526,-0.001051,-0.000111,0.001058,0.076678,-0.0,-0.0,2.0,0.282024,0.292251,0.282024,0.271233,,,,,,
54718,0.104538,0.012096,-0.045256,1.3e-05,-0.000111,0.001058,0.075735,-0.0,-0.0,2.0,0.282024,0.294369,0.282024,0.268848,,,,,,
54738,0.104536,0.012006,-0.045859,0.0,0.0,0.0,0.073746,-0.0,-0.0,2.0,0.282024,0.293474,0.282024,0.269863,,,,,,
54758,0.104666,0.011798,-0.046463,1.2e-05,-0.000111,0.001058,0.072368,-0.0,-0.0,2.0,0.282024,0.295815,0.282024,0.267187,,,,,,
54778,0.104911,0.011694,-0.0467,0.0,0.0,0.0,0.069983,-0.0,-0.0,2.0,0.282024,0.296877,0.282024,0.265951,,,,,,
54798,0.105035,0.011581,-0.046816,0.0,0.0,0.0,0.068603,-0.0,-0.0,2.0,0.282024,0.297473,0.282024,0.26525,,,,,,
54818,0.105153,0.011712,-0.046944,-1.4e-05,-0.000947,-0.00117,0.065237,-0.0,-0.0,2.0,0.282024,0.298911,0.282024,0.26354,,,,,,
54838,0.105275,0.011715,-0.046944,-1.4e-05,-0.000947,-0.00117,0.062195,-0.0,-0.0,2.0,0.282024,0.300192,0.282024,0.261992,,,,,,
54858,0.105149,0.011943,-0.046713,-0.001078,-0.000947,-0.00117,0.060647,-0.0,-0.0,2.0,0.282024,0.299072,0.282024,0.263345,,,,,,
54878,0.105025,0.012056,-0.046598,-0.001078,-0.000947,-0.00117,0.057872,-0.0,-0.0,2.0,0.282024,0.300146,0.282024,0.262048,,,,,,
54898,0.10466,0.012042,-0.046476,-0.001078,-0.000947,-0.00117,0.055085,-0.0,-0.0,2.0,0.282024,0.301124,0.282024,0.260851,,,,,,
54918,0.104166,0.01203,-0.046467,-0.001077,0.000111,-0.001059,0.051924,-0.0,-0.0,2.0,0.282024,0.300551,0.282024,0.261554,,,,,,
54938,0.103683,0.011884,-0.046218,-0.00213,-0.001059,-0.00011,0.050257,-0.0,-0.0,2.0,0.282024,0.302685,0.282024,0.258913,,,,,,
54958,0.103197,0.011867,-0.046096,-0.002142,-0.000949,-0.001168,0.046738,-0.0,-0.0,2.0,0.282024,0.302223,0.282024,0.259491,,,,,,
54978,0.102829,0.011975,-0.04598,-0.001077,0.000109,-0.001059,0.045102,-0.0,-0.0,2.0,0.282024,0.30273,0.282024,0.258857,,,,,,
54998,0.102214,0.01196,-0.045972,-0.002142,-0.00095,-0.001167,0.039868,-0.0,-0.0,2.0,0.282024,0.306216,0.282024,0.254393,,,,,,
55018,0.101846,0.012068,-0.045856,-0.00213,-0.001059,-0.000108,0.037774,-0.0,-0.0,2.0,0.282024,0.305269,0.282024,0.255625,,,,,,
55038,0.101359,0.012051,-0.045734,-0.00213,-0.001059,-0.000108,0.034411,-0.0,-0.0,2.0,0.282024,0.306379,0.282024,0.25418,,,,,,
55058,0.100504,0.012148,-0.045619,-0.002143,-0.000952,-0.001166,0.031005,-0.0,-0.0,2.0,0.282024,0.307378,0.282024,0.252863,,,,,,
55078,0.099767,0.012131,-0.04561,-0.002141,0.000106,-0.001059,0.027465,-0.0,-0.0,2.0,0.282024,0.306856,0.282024,0.253554,,,,,,
55098,0.098914,0.012112,-0.04561,-0.003193,0.0,0.0,0.023821,-0.0,-0.0,2.0,0.282024,0.307967,0.282024,0.252079,,,,,,
55118,0.097696,0.012079,-0.045487,-0.003193,0.0,0.0,0.021278,-0.0,-0.0,2.0,0.282024,0.308464,0.282024,0.251413,,,,,,
55138,0.096228,0.01204,-0.045356,-0.004271,-0.000957,-0.001162,0.01916,-0.0,-0.0,2.0,0.282024,0.307103,0.282024,0.253228,,,,,,
55158,0.094515,0.012002,-0.045347,-0.005335,-0.000959,-0.00116,0.014082,-0.0,-0.0,2.0,0.282024,0.308434,0.282024,0.251454,,,,,,
55178,0.092434,0.012078,-0.045343,-0.005322,-0.00106,-9.8e-05,0.011749,-0.0,-0.0,2.0,0.282024,0.306917,0.282024,0.253473,,,,,,
