time_ms,roll,pitch,yaw,reference_roll,reference_pitch,reference_yaw,reference_throttle,throttle_1,throttle_2,throttle_3,throttle_4,roll_predicted,pitch_predicted,yaw_predicted,roll_rate_predicted,pitch_rate_predicted,yaw_rate_predicted,value1,value2,value3,value4,value5,value6
146403,-0.004718,0.00103,-0.133771,0.0,-0.0,-0.0,3.0,0.3261,0.322062,0.3261,0.330072,,,,,,,-0.005806,-0.002951,-0.117222,-0.043583,-1.3e-05,-0.00086
146423,-0.004475,0.001046,-0.133771,0.000939,-0.0,-0.0,3.0,0.3261,0.32613,0.3261,0.32607,,,,,,,-0.005442,-0.002951,-0.117239,-0.043352,-1.1e-05,-0.00087
146443,-0.004458,0.000802,-0.133772,0.002786,-0.0,-0.0,3.0,0.3261,0.32043,0.3261,0.331639,,,,,,,-0.005449,-0.002951,-0.117257,0.004755,-9e-06,-0.000869
146463,-0.00458,0.000794,-0.133772,0.003708,-0.0,-0.0,3.0,0.3261,0.319553,0.3261,0.332474,,,,,,,-0.005448,-0.002951,-0.117274,0.049961,5e-06,-0.000855
146483,-0.00458,0.000794,-0.133772,0.00502,-0.0,-0.0,3.0,0.3261,0.320381,0.3261,0.331687,,,,,,,-0.005335,-0.002951,-0.117291,0.025118,2.9e-05,-0.000853
146503,-0.004328,0.000689,-0.133772,0.007038,-0.0,-0.0,3.0,0.3261,0.319618,0.3261,0.332412,,,,,,,-0.005218,-0.002951,-0.117309,0.000935,4.1e-05,-0.000863
146523,-0.003841,0.000721,-0.133773,0.009651,-0.0,-0.0,3.0,0.3261,0.312766,0.3261,0.338732,,,,,,,-0.005318,-0.00295,-0.117326,0.043556,4.2e-05,-0.000862
146543,-0.003606,0.000859,-0.133894,0.011305,-0.0,-0.0,3.0,0.3261,0.311284,0.3261,0.340054,,,,,,,-0.005065,-0.00295,-0.117343,0.04027,5.6e-05,-0.00086
146563,-0.003257,0.001127,-0.133894,0.01257,-0.0,-0.0,3.0,0.3261,0.313791,0.3261,0.337809,,,,,,,-0.004681,-0.002949,-0.11736,0.017972,2.1e-05,-0.00087
146583,-0.002891,0.001152,-0.133894,0.014733,-0.0,-0.0,3.0,0.3261,0.31807,0.3261,0.333871,,,,,,,-0.00409,-0.002949,-0.117378,-0.002039,2.4e-05,-0.000881
146603,-0.002412,0.001306,-0.133894,0.016543,-0.0,-0.0,3.0,0.3261,0.319288,0.3261,0.332724,,,,,,,-0.0036,-0.002948,-0.117395,0.00364,-2.1e-05,-0.000879
146623,-0.001787,0.001104,-0.133895,0.018339,-0.0,-0.0,3.0,0.3261,0.320752,0.3261,0.331332,,,,,,,-0.003011,-0.002948,-0.117413,0.031048,-1.6e-05,-0.000878
146643,-0.000934,0.001161,-0.134017,0.019241,-0.0,-0.0,3.0,0.3261,0.317156,0.3261,0.334724,,,,,,,-0.002519,-0.002948,-0.11743,0.078434,-2.4e-05,-0.000876
146663,-0.000187,0.000966,-0.134258,0.020251,-0.0,-0.0,3.0,0.3261,0.313385,0.3261,0.338176,,,,,,,-0.001908,-0.002948,-0.117448,0.076594,-8e-06,-0.000886
146683,0.000803,0.000788,-0.134379,0.021815,-0.0,-0.0,3.0,0.3261,0.312429,0.3261,0.339034,,,,,,,-0.001177,-0.002947,-0.117465,0.049886,2.1e-05,-0.000884
146703,0.001794,0.00061,-0.134525,0.025095,-0.0,-0.0,3.0,0.3261,0.316443,0.3261,0.335384,,,,,,,-7.7e-05,-0.002947,-0.117483,-0.021083,2.6e-05,-0.000895
146723,0.002647,0.000668,-0.134645,0.026575,-0.0,-0.0,3.0,0.3261,0.315807,0.3261,0.33597,,,,,,,0.000796,-0.002947,-0.117502,0.020216,4.5e-05,-0.000907
146743,0.003386,0.000596,-0.134766,0.028028,-0.0,-0.0,3.0,0.3261,0.321454,0.3261,0.330658,,,,,,,0.001898,-0.002947,-0.11752,0.047186,1.7e-05,-0.00093
146763,0.003995,0.000637,-0.134766,0.02925,-0.0,-0.0,3.0,0.3261,0.325325,0.3261,0.326873,,,,,,,0.002997,-0.002947,-0.117539,0.024883,1.1e-05,-0.00094
146783,0.005099,0.000589,-0.134885,0.030994,-0.0,-0.0,3.0,0.3261,0.325414,0.3261,0.326784,,,,,,,0.003857,-0.002947,-0.117558,0.075146,-1.8e-05,-0.00095
146803,0.006439,0.00068,-0.135005,0.032726,-0.0,-0.0,3.0,0.3261,0.31955,0.3261,0.332477,,,,,,,0.004727,-0.002948,-0.117577,0.120151,-2.2e-05,-0.00096
146823,0.007909,0.000657,-0.135004,0.034419,-0.0,-0.0,3.0,0.3261,0.308874,0.3261,0.342171,,,,,,,0.005473,-0.002948,-0.117596,0.189058,-2.7e-05,-0.00097
146843,0.009248,0.000748,-0.135123,0.035683,-0.0,-0.0,3.0,0.3261,0.307092,0.3261,0.34371,,,,,,,0.0067,-0.002948,-0.117615,0.140394,-2e-05,-0.000968
146863,0.010596,0.000717,-0.13512,0.037179,-0.0,-0.0,3.0,0.3261,0.310535,0.3261,0.340716,,,,,,,0.008165,-0.002948,-0.117634,0.022618,-1.5e-05,-0.000966
146883,0.012188,0.000703,-0.135238,0.039663,-0.0,-0.0,3.0,0.3261,0.319887,0.3261,0.332157,,,,,,,0.009864,-0.002949,-0.117654,-0.021499,-1.7e-05,-0.000976
146903,0.013771,0.00081,-0.135235,0.041168,-0.0,-0.0,3.0,0.3261,0.322475,0.3261,0.329672,,,,,,,0.011455,-0.002949,-0.117673,0.002024,-1.7e-05,-0.000974
146923,0.015006,0.00065,-0.135376,0.042017,-0.0,-0.0,3.0,0.3261,0.323976,0.3261,0.328206,,,,,,,0.013038,-0.002949,-0.117693,0.05209,-2.9e-05,-0.000983
146943,0.016581,0.00088,-0.135494,0.043476,-0.0,-0.0,3.0,0.3261,0.329087,0.3261,0.323076,,,,,,,0.014742,-0.002949,-0.117712,0.054051,-3e-05,-0.000983
146963,0.018441,0.000518,-0.135606,0.045072,-0.0,-0.0,3.0,0.3261,0.332662,0.3261,0.319355,,,,,,,0.016552,-0.00295,-0.117732,0.082432,-2.9e-05,-0.000993
146983,0.020268,0.000643,-0.135721,0.046631,-0.0,-0.0,3.0,0.3261,0.326721,0.3261,0.325478,,,,,,,0.018162,-0.00295,-0.117752,0.124138,-1.6e-05,-0.001002
147003,0.022371,0.000298,-0.13583,0.048175,-0.0,-0.0,3.0,0.3261,0.324456,0.3261,0.327733,,,,,,,0.019863,-0.00295,-0.117772,0.148195,-4e-06,-0.001012
147023,0.024451,0.000319,-0.135966,0.050071,-0.0,-0.0,3.0,0.3261,0.324347,0.3261,0.327841,,,,,,,0.021849,-0.002951,-0.117793,0.142538,-2e-06,-0.001021
147043,0.026416,0.000208,-0.135954,0.051325,-0.0,-0.0,3.0,0.3261,0.322979,0.3261,0.329181,,,,,,,0.02382,-0.002951,-0.117813,0.116679,-2e-06,-0.001032
147063,0.02873,0.000367,-0.136065,0.052912,-0.0,-0.0,3.0,0.3261,0.327694,0.3261,0.324495,,,,,,,0.026027,-0.002952,-0.117834,0.095085,-2.4e-05,-0.001041
147083,0.030686,0.00038,-0.136174,0.054272,-0.0,-0.0,3.0,0.3261,0.326016,0.3261,0.326184,,,,,,,0.028122,-0.002953,-0.117855,0.095049,-4.6e-05,-0.00105
147103,0.032888,0.00041,-0.136306,0.055311,-0.0,-0.0,3.0,0.3261,0.324055,0.3261,0.328128,,,,,,,0.029972,-0.002954,-0.117876,0.119252,-6.9e-05,-0.001061
147123,0.034715,0.000537,-0.136417,0.056833,-0.0,-0.0,3.0,0.3261,0.329042,0.3261,0.323122,,,,,,,0.032289,-0.002955,-0.117897,0.051528,-8e-05,-0.001057
147143,0.036566,0.000299,-0.13652,0.058196,-0.0,-0.0,3.0,0.3261,0.331208,0.3261,0.320881,,,,,,,0.03435,-0.002956,-0.117918,0.031449,-7.9e-05,-0.001066
147163,0.038533,0.000191,-0.136649,0.059556,-0.0,-0.0,3.0,0.3261,0.33457,0.3261,0.317321,,,,,,,0.036422,-0.002957,-0.11794,0.058151,-8.8e-05,-0.001076
147183,0.040376,7.5e-05,-0.136753,0.060223,-0.0,-0.0,3.0,0.3261,0.332493,0.3261,0.319533,,,,,,,0.038253,-0.002958,-0.117961,0.102383,-6.1e-05,-0.001097
147203,0.042213,8.1e-05,-0.136883,0.061137,-0.0,-0.0,3.0,0.3261,0.329845,0.3261,0.322296,,,,,,,0.039971,-0.00296,-0.117983,0.14666,-4.7e-05,-0.001105
147223,0.044186,-0.000148,-0.136982,0.062417,-0.0,-0.0,3.0,0.3261,0.330543,0.3261,0.321574,,,,,,,0.041934,-0.002961,-0.118005,0.12091,-3.4e-05,-0.001117
147243,0.046632,-9.9e-05,-0.137105,0.06359,-0.0,-0.0,3.0,0.3261,0.327851,0.3261,0.324337,,,,,,,0.04379,-0.002962,-0.118028,0.143378,-5.7e-05,-0.001124
147263,0.048824,5.4e-05,-0.137208,0.065637,-0.0,-0.0,3.0,0.3261,0.324731,0.3261,0.327462,,,,,,,0.045892,-0.002963,-0.11805,0.11733,-6.7e-05,-0.001134
147283,0.05114,0.000214,-0.137214,0.066503,-0.0,-0.0,3.0,0.3261,0.323197,0.3261,0.328969,,,,,,,0.047857,-0.002965,-0.118073,0.115698,-6.6e-05,-0.00113
147303,0.052974,0.000221,-0.137315,0.067882,-0.0,-0.0,3.0,0.3261,0.329756,0.3261,0.322387,,,,,,,0.050306,-0.002966,-0.118096,0.048106,-8.8e-05,-0.00114
147323,0.054809,0.000228,-0.137416,0.068456,-0.0,-0.0,3.0,0.3261,0.334606,0.3261,0.317282,,,,,,,0.052484,-0.002968,-0.118118,0.027289,-7.3e-05,-0.001148
147343,0.056525,0.000228,-0.137542,0.069598,-0.0,-0.0,3.0,0.3261,0.339817,0.3261,0.311551,,,,,,,0.054657,-0.002969,-0.118141,0.034801,-8.2e-05,-0.001145
147363,0.058359,0.000235,-0.137641,0.070689,-0.0,-0.0,3.0,0.3261,0.336752,0.3261,0.314954,,,,,,,0.056361,-0.00297,-0.118164,0.125055,-4.2e-05,-0.001166
147383,0.060091,-8e-06,-0.137759,0.071324,-0.0,-0.0,3.0,0.3261,0.331793,0.3261,0.320269,,,,,,,0.057973,-0.002971,-0.118188,0.193575,-5.2e-05,-0.001175
147403,0.062039,0.00013,-0.137859,0.0723,-0.0,-0.0,3.0,0.3261,0.327645,0.3261,0.324545,,,,,,,0.059577,-0.002972,-0.118211,0.189284,-4.1e-05,-0.001183
147423,0.06378,-0.000235,-0.137971,0.073514,-0.0,-0.0,3.0,0.3261,0.32347,0.3261,0.328702,,,,,,,0.061303,-0.002973,-0.118235,0.097098,-6.8e-05,-0.001193
147443,0.065723,3e-05,-0.13822,0.07412,-0.0,-0.0,3.0,0.3261,0.323726,0.3261,0.328451,,,,,,,0.062915,-0.002975,-0.118259,0.069498,-7e-05,-0.001201
147463,0.0672,-0.000108,-0.138316,0.075724,-0.0,-0.0,3.0,0.3261,0.323847,0.3261,0.328332,,,,,,,0.064639,-0.002976,-0.118283,0.022714,-8.4e-05,-0.00121
147483,0.068534,0.000111,-0.13845,0.07631,-0.0,-0.0,3.0,0.3261,0.332582,0.3261,0.319439,,,,,,,0.066467,-0.002978,-0.118307,0.00045,-8.3e-05,-0.001218
147503,0.069629,0.000191,-0.138557,0.077254,-0.0,-0.0,3.0,0.3261,0.337999,0.3261,0.313581,,,,,,,0.068153,-0.00298,-0.118332,0.004777,-7.1e-05,-0.001228
147523,0.071098,0.000176,-0.138656,0.078106,-0.0,-0.0,3.0,0.3261,0.342287,0.3261,0.30874,,,,,,,0.069716,-0.002981,-0.118357,0.08014,-6.9e-05,-0.001235
147543,0.072814,0.000177,-0.138776,0.078906,-0.0,-0.0,3.0,0.3261,0.334686,0.3261,0.317196,,,,,,,0.070956,-0.002982,-0.118381,0.148445,-6.9e-05,-0.001256
147563,0.074783,7e-05,-0.138768,0.079316,-0.0,-0.0,3.0,0.3261,0.326914,0.3261,0.325283,,,,,,,0.072191,-0.002983,-0.118406,0.24095,-6.9e-05,-0.001254
147583,0.076999,-0.000143,-0.138726,0.079831,-0.0,-0.0,3.0,0.3261,0.322511,0.3261,0.329636,,,,,,,0.073817,-0.002985,-0.118432,0.188985,-8.4e-05,-0.001261
147603,0.079089,-0.000237,-0.138834,0.080844,-0.0,-0.0,3.0,0.3261,0.327235,0.3261,0.32496,,,,,,,0.076016,-0.002986,-0.118457,0.07276,-8.5e-05,-0.001258
147623,0.08117,-0.000209,-0.138946,0.081411,-0.0,-0.0,3.0,0.3261,0.332888,0.3261,0.319115,,,,,,,0.078231,-0.002988,-0.118482,0.000952,-9.6e-05,-0.001264
147643,0.083004,-0.000198,-0.139035,0.082279,-0.0,-0.0,3.0,0.3261,0.341572,0.3261,0.309561,,,,,,,0.080546,-0.00299,-0.118507,-0.022166,-8e-05,-0.001273
147663,0.084842,-0.000187,-0.139149,0.082697,-0.0,-0.0,3.0,0.3261,0.347696,0.3261,0.30236,,,,,,,0.082735,-0.002992,-0.118533,0.052494,-8.6e-05,-0.001268
147683,0.086558,-0.000184,-0.139265,0.083265,-0.0,-0.0,3.0,0.3261,0.351043,0.3261,0.298248,,,,,,,0.084934,-0.002994,-0.118558,0.053541,-8.2e-05,-0.001277
147703,0.088397,-0.000172,-0.139377,0.083797,-0.0,-0.0,3.0,0.3261,0.345684,0.3261,0.304771,,,,,,,0.086529,-0.002995,-0.118584,0.147772,-9.1e-05,-0.001282
147723,0.090239,-0.000287,-0.139338,0.084295,-0.0,-0.0,3.0,0.3261,0.335178,0.3261,0.316665,,,,,,,0.087899,-0.002997,-0.118609,0.192535,-0.000104,-0.001291
147743,0.091947,-0.000162,-0.139457,0.084645,-0.0,-0.0,3.0,0.3261,0.329617,0.3261,0.322531,,,,,,,0.089373,-0.002999,-0.118635,0.169003,-0.000106,-0.0013
147763,0.093177,-0.000192,-0.139577,0.084914,-0.0,-0.0,3.0,0.3261,0.327934,0.3261,0.324253,,,,,,,0.090856,-0.003001,-0.118661,0.094329,-9.7e-05,-0.001308
147783,0.094167,-0.000361,-0.13967,0.085452,-0.0,-0.0,3.0,0.3261,0.329862,0.3261,0.322279,,,,,,,0.092195,-0.003003,-0.118687,-0.001651,-6.7e-05,-0.001307
147803,0.094897,-0.00031,-0.139658,0.085452,-0.0,-0.0,3.0,0.3261,0.333448,0.3261,0.31852,,,,,,,0.093293,-0.003005,-0.118714,-0.022516,-8.3e-05,-0.001314
147823,0.095375,-0.000154,-0.139656,0.085951,-0.0,-0.0,3.0,0.3261,0.333082,0.3261,0.318909,,,,,,,0.094031,-0.003007,-0.11874,0.021084,-6.4e-05,-0.00131
147843,0.095989,-0.000105,-0.139792,0.08625,-0.0,-0.0,3.0,0.3261,0.335388,0.3261,0.316439,,,,,,,0.094774,-0.003008,-0.118766,0.048107,-9.5e-05,-0.001307
147863,0.09671,6.8e-05,-0.139785,0.086615,-0.0,-0.0,3.0,0.3261,0.335625,0.3261,0.316182,,,,,,,0.095499,-0.00301,-0.118792,0.050555,-0.000101,-0.001315
147883,0.097578,-0.000116,-0.139759,0.086836,-0.0,-0.0,3.0,0.3261,0.330724,0.3261,0.321386,,,,,,,0.095995,-0.003012,-0.118819,0.075476,-0.000121,-0.00131
147903,0.098574,-0.000284,-0.139876,0.086922,-0.0,-0.0,3.0,0.3261,0.332147,0.3261,0.319898,,,,,,,0.096852,-0.003014,-0.118845,0.077039,-0.000127,-0.001308
147923,0.099799,-0.00032,-0.139849,0.087066,-0.0,-0.0,3.0,0.3261,0.333349,0.3261,0.318625,,,,,,,0.097817,-0.003016,-0.118871,0.075184,-9.5e-05,-0.001317
147943,0.101038,-0.000471,-0.139961,0.087172,-0.0,-0.0,3.0,0.3261,0.335933,0.3261,0.315847,,,,,,,0.099042,-0.003018,-0.118897,0.074658,-8.5e-05,-0.001326
147963,0.102384,-0.000498,-0.139931,0.087242,-0.0,-0.0,3.0,0.3261,0.336869,0.3261,0.314825,,,,,,,0.100281,-0.00302,-0.118924,0.068537,-6.4e-05,-0.001334
147983,0.103728,-0.000397,-0.140053,0.087265,-0.0,-0.0,3.0,0.3261,0.338404,0.3261,0.313131,,,,,,,0.101633,-0.003022,-0.11895,0.070316,-7.8e-05,-0.001331
148003,0.105297,-2.9e-05,-0.140303,0.087258,-0.0,-0.0,3.0,0.3261,0.339311,0.3261,0.312119,,,,,,,0.102987,-0.003023,-0.118977,0.068738,-8e-05,-0.001337
148023,0.106649,-5e-05,-0.140417,0.08723,-0.0,-0.0,3.0,0.3261,0.337974,0.3261,0.313608,,,,,,,0.104331,-0.003025,-0.119004,0.070271,-8.2e-05,-0.001346
148043,0.107743,2.8e-05,-0.140397,0.087117,-0.0,-0.0,3.0,0.3261,0.341972,0.3261,0.309103,,,,,,,0.1058,-0.003027,-0.119031,0.024519,-8.5e-05,-0.001343
148063,0.108498,-0.000279,-0.140484,0.08699,-0.0,-0.0,3.0,0.3261,0.347454,0.3261,0.302652,,,,,,,0.107245,-0.003028,-0.119058,-0.039683,-0.000101,-0.001349
148083,0.109365,-0.000346,-0.140366,0.086823,-0.0,-0.0,3.0,0.3261,0.347971,0.3261,0.302027,,,,,,,0.108232,-0.00303,-0.119085,0.003821,-8e-05,-0.001359
148103,0.110103,-0.000416,-0.140345,0.086723,-0.0,-0.0,3.0,0.3261,0.340166,0.3261,0.311158,,,,,,,0.108742,-0.003032,-0.119112,0.074528,-0.00011,-0.001352
148123,0.110703,-0.000252,-0.14034,0.086454,-0.0,-0.0,3.0,0.3261,0.338534,0.3261,0.312986,,,,,,,0.109354,-0.003034,-0.119139,0.071928,-9.3e-05,-0.001349
148143,0.111187,-8.8e-05,-0.140483,0.086182,-0.0,-0.0,3.0,0.3261,0.333198,0.3261,0.318786,,,,,,,0.109729,-0.003036,-0.119166,0.073006,-0.000102,-0.001348
148163,0.111681,-0.000176,-0.140467,0.086182,-0.0,-0.0,3.0,0.3261,0.335773,0.3261,0.316021,,,,,,,0.11033,-0.003038,-0.119193,0.000872,-7.6e-05,-0.001346
148183,0.112176,-0.000256,-0.140571,0.085837,-0.0,-0.0,3.0,0.3261,0.332714,0.3261,0.319299,,,,,,,0.110582,-0.003039,-0.119219,-0.000962,-7.4e-05,-0.001343
148203,0.112298,-0.000247,-0.140569,0.085249,-0.0,-0.0,3.0,0.3261,0.333789,0.3261,0.318157,,,,,,,0.110952,-0.003041,-0.119246,-0.003496,-6e-05,-0.00134
148223,0.112289,-0.000126,-0.140575,0.08496,-0.0,-0.0,3.0,0.3261,0.337981,0.3261,0.313601,,,,,,,0.111331,-0.003042,-0.119273,-0.028211,-6.9e-05,-0.001348
148243,0.112532,-0.000108,-0.140571,0.084455,-0.0,-0.0,3.0,0.3261,0.344904,0.3261,0.305694,,,,,,,0.111806,-0.003044,-0.1193,-0.069336,-9.2e-05,-0.001344
148263,0.112903,-7.5e-05,-0.140709,0.083974,-0.0,-0.0,3.0,0.3261,0.343143,0.3261,0.307752,,,,,,,0.111932,-0.003046,-0.119327,0.029608,-0.000123,-0.001352
148283,0.113277,-0.000171,-0.140695,0.083455,-0.0,-0.0,3.0,0.3261,0.34096,0.3261,0.310258,,,,,,,0.112171,-0.003048,-0.119354,0.075369,-0.000107,-0.001349
148303,0.113762,-0.00013,-0.140806,0.083181,-0.0,-0.0,3.0,0.3261,0.337656,0.3261,0.313959,,,,,,,0.11242,-0.00305,-0.119381,0.097648,-0.000104,-0.001358
148323,0.114379,-0.000208,-0.140787,0.082372,-0.0,-0.0,3.0,0.3261,0.33588,0.3261,0.315905,,,,,,,0.11278,-0.003051,-0.119408,0.070041,-6.5e-05,-0.001357
148343,0.114759,-0.000303,-0.140798,0.081882,-0.0,-0.0,3.0,0.3261,0.333796,0.3261,0.31815,,,,,,,0.113155,-0.003053,-0.119435,0.021435,-6.4e-05,-0.001354
148363,0.115236,-0.00014,-0.140915,0.081102,-0.0,-0.0,3.0,0.3261,0.338009,0.3261,0.31357,,,,,,,0.113659,-0.003055,-0.119463,-0.027259,-7.4e-05,-0.00135
148383,0.115228,-2.6e-05,-0.140802,0.080635,-0.0,-0.0,3.0,0.3261,0.338917,0.3261,0.31256,,,,,,,0.114029,-0.003056,-0.11949,-0.05015,-7.2e-05,-0.001349
148403,0.114976,7.9e-05,-0.140814,0.080189,-0.0,-0.0,3.0,0.3261,0.343719,0.3261,0.307082,,,,,,,0.11427,-0.003058,-0.119517,-0.049835,-7.1e-05,-0.001346
148423,0.114605,5.2e-05,-0.140796,0.079152,-0.0,-0.0,3.0,0.3261,0.346837,0.3261,0.303395,,,,,,,0.114361,-0.003059,-0.119543,-0.042207,-8.2e-05,-0.00133
148443,0.114371,-9.3e-05,-0.140673,0.078304,-0.0,-0.0,3.0,0.3261,0.345276,0.3261,0.305254,,,,,,,0.114122,-0.00306,-0.11957,0.005385,-9.4e-05,-0.001339
148463,0.114371,-9.3e-05,-0.140673,0.077465,-0.0,-0.0,3.0,0.3261,0.338974,0.3261,0.312497,,,,,,,0.113631,-0.003062,-0.119597,0.07651,-9.4e-05,-0.001337
148483,0.114492,-8.5e-05,-0.140671,0.076603,-0.0,-0.0,3.0,0.3261,0.332029,0.3261,0.320021,,,,,,,0.113163,-0.003064,-0.119624,0.093411,-8.5e-05,-0.001321
148503,0.114249,-0.000102,-0.140676,0.076113,-0.0,-0.0,3.0,0.3261,0.327812,0.3261,0.324376,,,,,,,0.112917,-0.003065,-0.11965,0.043656,-6.4e-05,-0.001333
148523,0.114015,-0.000241,-0.140674,0.07535,-0.0,-0.0,3.0,0.3261,0.333858,0.3261,0.318083,,,,,,,0.112916,-0.003067,-0.119676,-0.074611,-5.6e-05,-0.00132
148543,0.113884,-0.000128,-0.140683,0.074132,-0.0,-0.0,3.0,0.3261,0.340151,0.3261,0.311175,,,,,,,0.112899,-0.003068,-0.119703,-0.07291,-4.4e-05,-0.001318
148563,0.113641,-0.000145,-0.140688,0.073612,-0.0,-0.0,3.0,0.3261,0.342637,0.3261,0.308337,,,,,,,0.112793,-0.003069,-0.119729,-0.027524,-5.5e-05,-0.001314
148583,0.113268,-5.6e-05,-0.140582,0.07265,-0.0,-0.0,3.0,0.3261,0.346718,0.3261,0.303538,,,,,,,0.112792,-0.003071,-0.119755,-0.002273,-6.6e-05,-0.001311
148603,0.113372,0.000202,-0.140713,0.071266,-0.0,-0.0,3.0,0.3261,0.350493,0.3261,0.298932,,,,,,,0.112787,-0.003072,-0.119781,-0.021261,-9.2e-05,-0.001307
148623,0.113632,-1.7e-05,-0.140815,0.070187,-0.0,-0.0,3.0,0.3261,0.344429,0.3261,0.306252,,,,,,,0.11254,-0.003074,-0.119808,0.051129,-0.000103,-0.001303
148643,0.113754,-8e-06,-0.140813,0.069078,-0.0,-0.0,3.0,0.3261,0.339753,0.3261,0.311623,,,,,,,0.112424,-0.003075,-0.119834,0.071655,-9e-05,-0.001314
148663,0.113528,-0.000268,-0.140804,0.067937,-0.0,-0.0,3.0,0.3261,0.340699,0.3261,0.310555,,,,,,,0.112538,-0.003077,-0.11986,0.001427,-7.9e-05,-0.001312
148683,0.113398,-0.000155,-0.140813,0.066922,-0.0,-0.0,3.0,0.3261,0.341938,0.3261,0.309142,,,,,,,0.112421,-0.003078,-0.119886,-0.051272,-4.4e-05,-0.001324
148703,0.113172,-0.000416,-0.140804,0.06622,-0.0,-0.0,3.0,0.3261,0.345904,0.3261,0.30451,,,,,,,0.112415,-0.00308,-0.119913,-0.095306,-5.8e-05,-0.001321
148723,0.112789,-0.000192,-0.140946,0.064534,-0.0,-0.0,3.0,0.3261,0.345472,0.3261,0.305022,,,,,,,0.112064,-0.003081,-0.119939,-0.074577,-6e-05,-0.001319
148743,0.112044,-0.000122,-0.140941,0.063599,-0.0,-0.0,3.0,0.3261,0.348617,0.3261,0.301242,,,,,,,0.111824,-0.003083,-0.119965,-0.073455,-7.3e-05,-0.001317
148763,0.111428,-4.4e-05,-0.14096,0.062818,-0.0,-0.0,3.0,0.3261,0.349183,0.3261,0.30055,,,,,,,0.111313,-0.003084,-0.119991,-0.046598,-7.7e-05,-0.0013
148783,0.110941,-7.9e-05,-0.14097,0.061055,-0.0,-0.0,3.0,0.3261,0.346449,0.3261,0.30386,,,,,,,0.110588,-0.003086,-0.120018,-0.022412,-9.3e-05,-0.001298
148803,0.110197,-1.6e-05,-0.140844,0.059732,-0.0,-0.0,3.0,0.3261,0.342849,0.3261,0.308092,,,,,,,0.109851,-0.003087,-0.120044,-0.022594,-8.6e-05,-0.001297
148823,0.109459,5.4e-05,-0.140865,0.058364,-0.0,-0.0,3.0,0.3261,0.34239,0.3261,0.308622,,,,,,,0.109106,-0.003089,-0.12007,-0.024281,-6.7e-05,-0.001295
148843,0.10873,-5e-06,-0.140759,0.056987,-0.0,-0.0,3.0,0.3261,0.34125,0.3261,0.309929,,,,,,,0.108251,-0.00309,-0.120095,-0.000195,-7.2e-05,-0.001294
148863,0.107629,-7.6e-05,-0.140874,0.056257,-0.0,-0.0,3.0,0.3261,0.33987,0.3261,0.311492,,,,,,,0.107405,-0.003091,-0.120121,-0.026127,-6.6e-05,-0.001294
148883,0.106664,-0.000267,-0.140886,0.055198,-0.0,-0.0,3.0,0.3261,0.339872,0.3261,0.311489,,,,,,,0.106413,-0.003093,-0.120147,-0.050471,-5e-05,-0.001292
148903,0.105677,-0.000215,-0.140885,0.05333,-0.0,-0.0,3.0,0.3261,0.338661,0.3261,0.312845,,,,,,,0.105332,-0.003094,-0.120173,-0.074764,-7e-05,-0.001291
148923,0.104825,-0.000275,-0.140901,0.052152,-0.0,-0.0,3.0,0.3261,0.338077,0.3261,0.313494,,,,,,,0.104235,-0.003096,-0.120199,-0.052014,-7.8e-05,-0.001276
148943,0.103464,-0.000127,-0.140913,0.050026,-0.0,-0.0,3.0,0.3261,0.337158,0.3261,0.314508,,,,,,,0.103158,-0.003097,-0.120224,-0.053754,-9.7e-05,-0.001275
148963,0.102127,-0.000228,-0.140817,0.049086,-0.0,-0.0,3.0,0.3261,0.344646,0.3261,0.305997,,,,,,,0.102273,-0.003099,-0.12025,-0.118621,-0.000106,-0.001272
148983,0.101389,-0.000158,-0.140836,0.047595,-0.0,-0.0,3.0,0.3261,0.350927,0.3261,0.298392,,,,,,,0.101396,-0.003101,-0.120275,-0.091772,-9.9e-05,-0.001271
149003,0.100523,-0.000104,-0.140711,0.046053,-0.0,-0.0,3.0,0.3261,0.348466,0.3261,0.301426,,,,,,,0.100415,-0.003103,-0.120301,0.001713,-9e-05,-0.001258
149023,0.099785,-3.4e-05,-0.14073,0.044465,-0.0,-0.0,3.0,0.3261,0.345383,0.3261,0.305128,,,,,,,0.099432,-0.003104,-0.120326,0.02252,-7.2e-05,-0.001256
149043,0.099038,0.000158,-0.140755,0.043668,-0.0,-0.0,3.0,0.3261,0.342881,0.3261,0.308056,,,,,,,0.098577,-0.003106,-0.120351,0.023146,-7.8e-05,-0.001255
149063,0.098563,-0.000126,-0.140605,0.042166,-0.0,-0.0,3.0,0.3261,0.345366,0.3261,0.305148,,,,,,,0.09795,-0.003107,-0.120376,-0.001012,-5.9e-05,-0.00124
149083,0.097955,-0.000169,-0.140616,0.040103,-0.0,-0.0,3.0,0.3261,0.344804,0.3261,0.305811,,,,,,,0.097339,-0.003108,-0.120401,-0.047199,-6.5e-05,-0.001239
149103,0.09686,-0.000247,-0.140634,0.038884,-0.0,-0.0,3.0,0.3261,0.341578,0.3261,0.309554,,,,,,,0.096388,-0.00311,-0.120426,-0.053043,-6e-05,-0.001239
149123,0.095378,-0.000107,-0.140645,0.036684,-0.0,-0.0,3.0,0.3261,0.345783,0.3261,0.304654,,,,,,,0.09553,-0.003111,-0.12045,-0.146472,-6.9e-05,-0.001236
149143,0.093782,-9.8e-05,-0.140652,0.034766,-0.0,-0.0,3.0,0.3261,0.350766,0.3261,0.298592,,,,,,,0.094412,-0.003113,-0.120475,-0.165445,-7.8e-05,-0.001236
149163,0.091949,-0.000111,-0.140566,0.033921,-0.0,-0.0,3.0,0.3261,0.35129,0.3261,0.297938,,,,,,,0.092942,-0.003114,-0.1205,-0.116026,-9.8e-05,-0.001232
149183,0.089989,-0.000127,-0.140577,0.032222,-0.0,-0.0,3.0,0.3261,0.344935,0.3261,0.305657,,,,,,,0.090976,-0.003116,-0.120524,-0.068107,-9.9e-05,-0.001218
149203,0.088029,-0.000149,-0.140467,0.030505,-0.0,-0.0,3.0,0.3261,0.336683,0.3261,0.31503,,,,,,,0.088665,-0.003118,-0.120548,-0.024612,-8.9e-05,-0.001208
149223,0.086216,-0.000527,-0.140339,0.029576,-0.0,-0.0,3.0,0.3261,0.331701,0.3261,0.320366,,,,,,,0.086471,-0.003119,-0.120573,-0.026443,-9.2e-05,-0.001207
149243,0.084496,-0.000404,-0.140375,0.027668,-0.0,-0.0,3.0,0.3261,0.328532,0.3261,0.323644,,,,,,,0.084407,-0.003121,-0.120597,-0.07683,-9.7e-05,-0.001194
149263,0.082666,-0.000538,-0.140256,0.025033,-0.0,-0.0,3.0,0.3261,0.333344,0.3261,0.318632,,,,,,,0.082698,-0.003123,-0.12062,-0.125124,-9.9e-05,-0.001181
149283,0.080827,-0.000545,-0.140262,0.023417,-0.0,-0.0,3.0,0.3261,0.337093,0.3261,0.31458,,,,,,,0.080982,-0.003126,-0.120644,-0.149266,-8.7e-05,-0.001182
149303,0.079359,-0.000526,-0.140288,0.02175,-0.0,-0.0,3.0,0.3261,0.345392,0.3261,0.305117,,,,,,,0.079502,-0.003128,-0.120667,-0.123038,-9.6e-05,-0.001179
149323,0.077634,-0.000408,-0.140175,0.019937,-0.0,-0.0,3.0,0.3261,0.349429,0.3261,0.300247,,,,,,,0.078151,-0.00313,-0.120691,-0.073621,-0.000104,-0.001166
149343,0.076408,-0.000372,-0.140196,0.019044,-0.0,-0.0,3.0,0.3261,0.353234,0.3261,0.295483,,,,,,,0.076911,-0.003132,-0.120714,-0.068377,-0.000125,-0.001162
149363,0.075305,-0.000332,-0.140095,0.01723,-0.0,-0.0,3.0,0.3261,0.348213,0.3261,0.301733,,,,,,,0.075435,-0.003134,-0.120737,0.003161,-0.00012,-0.001162
149383,0.074327,-0.000401,-0.140082,0.015435,-0.0,-0.0,3.0,0.3261,0.34097,0.3261,0.310247,,,,,,,0.073859,-0.003136,-0.120761,0.070654,-0.000117,-0.00115
149403,0.072988,-0.0005,-0.139979,0.014432,-0.0,-0.0,3.0,0.3261,0.338115,0.3261,0.313452,,,,,,,0.072626,-0.003138,-0.120784,-0.025743,-9.3e-05,-0.001136
149423,0.071524,-0.000607,-0.139852,0.012846,-0.0,-0.0,3.0,0.3261,0.33842,0.3261,0.313114,,,,,,,0.071296,-0.00314,-0.120806,-0.101774,-8e-05,-0.001135
149443,0.069933,-0.000601,-0.139756,0.009591,-0.0,-0.0,3.0,0.3261,0.342955,0.3261,0.30797,,,,,,,0.06994,-0.003142,-0.120829,-0.171921,-6.8e-05,-0.001123
149463,0.067956,-0.000373,-0.139767,0.009591,-0.0,-0.0,3.0,0.3261,0.343991,0.3261,0.306765,,,,,,,0.068366,-0.003144,-0.120851,-0.150727,-7.8e-05,-0.001108
149483,0.065518,-0.000544,-0.13977,0.006496,-0.0,-0.0,3.0,0.3261,0.347395,0.3261,0.302724,,,,,,,0.06664,-0.003146,-0.120873,-0.121352,-0.000102,-0.001108
149503,0.063293,-0.00021,-0.13981,0.004359,-0.0,-0.0,3.0,0.3261,0.348078,0.3261,0.301897,,,,,,,0.064553,-0.003148,-0.120895,-0.118758,-0.000116,-0.001105
149523,0.061229,-0.000481,-0.139683,0.003436,-0.0,-0.0,3.0,0.3261,0.345348,0.3261,0.305169,,,,,,,0.062337,-0.00315,-0.120918,-0.092039,-0.000118,-0.001094
149543,0.059021,-0.000392,-0.139714,0.001586,-0.0,-0.0,3.0,0.3261,0.336266,0.3261,0.315485,,,,,,,0.059779,-0.003152,-0.12094,-0.049003,-0.00011,-0.001092
149563,0.056566,-0.000322,-0.1396,-0.00025,-0.0,-0.0,3.0,0.3261,0.333778,0.3261,0.318169,,,,,,,0.057454,-0.003154,-0.120961,-0.122504,-9.2e-05,-0.001091
149583,0.054111,-0.000253,-0.139484,-0.002629,-0.0,-0.0,3.0,0.3261,0.329349,0.3261,0.322807,,,,,,,0.054766,-0.003156,-0.120983,-0.123675,-8.7e-05,-0.001081
149603,0.051434,-0.000443,-0.139389,-0.002629,-0.0,-0.0,3.0,0.3261,0.330796,0.3261,0.321311,,,,,,,0.052302,-0.003158,-0.121005,-0.1705,-6.9e-05,-0.001067
149623,0.048744,-0.000512,-0.13927,-0.005945,-0.0,-0.0,3.0,0.3261,0.335653,0.3261,0.316151,,,,,,,0.049858,-0.003159,-0.121026,-0.194348,-7.5e-05,-0.001053
149643,0.045805,-0.000475,-0.13918,-0.005945,-0.0,-0.0,3.0,0.3261,0.334628,0.3261,0.317259,,,,,,,0.047177,-0.003161,-0.121047,-0.195308,-8.2e-05,-0.00103
149663,0.042986,-0.000433,-0.138941,-0.009436,-0.0,-0.0,3.0,0.3261,0.33336,0.3261,0.318614,,,,,,,0.044244,-0.003163,-0.121067,-0.171872,-8.9e-05,-0.001016
149683,0.040401,-0.000248,-0.138821,-0.010497,-0.0,-0.0,3.0,0.3261,0.333131,0.3261,0.318857,,,,,,,0.041435,-0.003165,-0.121087,-0.123322,-0.000107,-0.001003
149703,0.037819,-6.1e-05,-0.138846,-0.012323,-0.0,-0.0,3.0,0.3261,0.333178,0.3261,0.318808,,,,,,,0.038842,-0.003167,-0.121107,-0.120128,-0.000101,-0.000989
149723,0.035367,1.1e-05,-0.138745,-0.01414,-0.0,-0.0,3.0,0.3261,0.335441,0.3261,0.316381,,,,,,,0.036385,-0.003168,-0.121127,-0.119172,-9.4e-05,-0.000977
149743,0.033051,-0.000152,-0.138613,-0.015951,-0.0,-0.0,3.0,0.3261,0.337983,0.3261,0.313599,,,,,,,0.034032,-0.00317,-0.121147,-0.118358,-6.1e-05,-0.000963
149763,0.030721,-7.1e-05,-0.138509,-0.01694,-0.0,-0.0,3.0,0.3261,0.333349,0.3261,0.318626,,,,,,,0.031476,-0.003171,-0.121166,-0.028141,-5.1e-05,-0.000951
149783,0.028397,-0.000112,-0.138377,-0.019926,-0.0,-0.0,3.0,0.3261,0.334611,0.3261,0.317276,,,,,,,0.029263,-0.003172,-0.121185,-0.052369,-3e-05,-0.00095
149803,0.026432,-5e-06,-0.138269,-0.020833,-0.0,-0.0,3.0,0.3261,0.332161,0.3261,0.319883,,,,,,,0.026948,-0.003173,-0.121204,-0.075804,-4.7e-05,-0.000935
149823,0.024475,-1.9e-05,-0.138158,-0.022317,-0.0,-0.0,3.0,0.3261,0.33229,0.3261,0.319746,,,,,,,0.024874,-0.003174,-0.121222,-0.146895,-5.2e-05,-0.000923
149843,0.02225,0.000315,-0.138052,-0.024803,-0.0,-0.0,3.0,0.3261,0.329571,0.3261,0.322579,,,,,,,0.022557,-0.003175,-0.12124,-0.124531,-5.5e-05,-0.00091
149863,0.019553,0.000372,-0.137918,-0.025846,-0.0,-0.0,3.0,0.3261,0.333227,0.3261,0.318755,,,,,,,0.020455,-0.003176,-0.121258,-0.170337,-3.5e-05,-0.000883
149883,0.016849,0.00055,-0.137687,-0.027591,-0.0,-0.0,3.0,0.3261,0.338771,0.3261,0.312723,,,,,,,0.018228,-0.003176,-0.121276,-0.191806,-1.4e-05,-0.00087
149903,0.014161,0.000486,-0.137574,-0.029329,-0.0,-0.0,3.0,0.3261,0.340101,0.3261,0.311231,,,,,,,0.015758,-0.003177,-0.121293,-0.165018,-6e-06,-0.000845
149923,0.011334,0.000657,-0.137315,-0.031071,-0.0,-0.0,3.0,0.3261,0.333986,0.3261,0.317947,,,,,,,0.012828,-0.003177,-0.12131,-0.074785,1.3e-05,-0.000832
149943,0.008639,0.000715,-0.137079,-0.032054,-0.0,-0.0,3.0,0.3261,0.325758,0.3261,0.326442,,,,,,,0.009776,-0.003176,-0.121327,-0.051578,5e-06,-0.000816
149963,0.005943,0.000775,-0.136962,-0.033541,-0.0,-0.0,3.0,0.3261,0.323174,0.3261,0.328992,,,,,,,0.006963,-0.003176,-0.121343,-0.077544,2.2e-05,-0.000791
149983,0.003377,0.000721,-0.136842,-0.035956,-0.0,-0.0,3.0,0.3261,0.318806,0.3261,0.33318,,,,,,,0.004025,-0.003176,-0.121358,-0.123066,1.2e-05,-0.000778
150003,0.000567,0.000651,-0.136842,-0.037585,-0.0,-0.0,3.0,0.3261,0.319969,0.3261,0.332079,,,,,,,0.001333,-0.003175,-0.121374,-0.170801,1.6e-05,-0.000752
150023,-0.002494,0.000686,-0.1366,-0.03855,-0.0,-0.0,3.0,0.3261,0.322855,0.3261,0.329302,,,,,,,-0.001359,-0.003175,-0.121389,-0.219908,3.3e-05,-0.000738
150043,-0.005677,0.000713,-0.136475,-0.039658,-0.0,-0.0,3.0,0.3261,0.326488,0.3261,0.325712,,,,,,,-0.004187,-0.003174,-0.121404,-0.218078,3.8e-05,-0.000725
150063,-0.008999,0.000976,-0.136347,-0.042236,-0.0,-0.0,3.0,0.3261,0.329735,0.3261,0.32241,,,,,,,-0.007127,-0.003174,-0.121418,-0.195992,5.5e-05,-0.000723
150083,-0.01219,0.001126,-0.136217,-0.04384,-0.0,-0.0,3.0,0.3261,0.330838,0.3261,0.321267,,,,,,,-0.010199,-0.003173,-0.121432,-0.144056,3.6e-05,-0.000709
150103,-0.01539,0.001399,-0.135963,-0.045421,-0.0,-0.0,3.0,0.3261,0.324243,0.3261,0.327943,,,,,,,-0.013499,-0.003172,-0.121446,-0.098139,4e-05,-0.000694
150123,-0.01807,0.001218,-0.135833,-0.047048,-0.0,-0.0,3.0,0.3261,0.314513,0.3261,0.337153,,,,,,,-0.017042,-0.003171,-0.12146,-0.050784,3e-05,-0.000668
150143,-0.020895,0.001395,-0.135577,-0.047048,-0.0,-0.0,3.0,0.3261,0.309438,0.3261,0.341679,,,,,,,-0.020104,-0.00317,-0.121473,-0.09895,4.4e-05,-0.000641
150163,-0.02381,0.001075,-0.135566,-0.048767,-0.0,-0.0,3.0,0.3261,0.306683,0.3261,0.344061,,,,,,,-0.023165,-0.003168,-0.121486,-0.170986,5.7e-05,-0.000626
150183,-0.026873,0.001115,-0.135332,-0.050267,-0.0,-0.0,3.0,0.3261,0.314438,0.3261,0.337222,,,,,,,-0.025862,-0.003167,-0.121498,-0.219261,7.4e-05,-0.000598
150203,-0.029934,0.001154,-0.135191,-0.052465,-0.0,-0.0,3.0,0.3261,0.322058,0.3261,0.330076,,,,,,,-0.028573,-0.003166,-0.12151,-0.241524,9.2e-05,-0.000586
150223,-0.032873,0.001201,-0.13505,-0.05356,-0.0,-0.0,3.0,0.3261,0.328273,0.3261,0.323908,,,,,,,-0.031275,-0.003164,-0.121522,-0.193459,0.0001,-0.000559
150243,-0.035585,0.001511,-0.134783,-0.055234,-0.0,-0.0,3.0,0.3261,0.331797,0.3261,0.320265,,,,,,,-0.033855,-0.003163,-0.121533,-0.143921,9.6e-05,-0.000544
150263,-0.037788,0.001487,-0.13467,-0.056639,-0.0,-0.0,3.0,0.3261,0.330304,0.3261,0.321822,,,,,,,-0.036441,-0.003161,-0.121544,-0.071184,0.000106,-0.000529
150283,-0.039509,0.001618,-0.134532,-0.05803,-0.0,-0.0,3.0,0.3261,0.322639,0.3261,0.329512,,,,,,,-0.038995,-0.003159,-0.121554,-0.003657,0.000103,-0.000516
150303,-0.041214,0.001506,-0.134398,-0.059518,-0.0,-0.0,3.0,0.3261,0.315369,0.3261,0.336372,,,,,,,-0.041294,-0.003157,-0.121565,0.015413,0.0001,-0.000513
150323,-0.043057,0.001629,-0.134258,-0.060411,-0.0,-0.0,3.0,0.3261,0.315989,0.3261,0.335803,,,,,,,-0.043124,-0.003155,-0.121575,-0.05577,9.8e-05,-0.000498
150343,-0.044895,0.00163,-0.134145,-0.060411,-0.0,-0.0,3.0,0.3261,0.320957,0.3261,0.331135,,,,,,,-0.044725,-0.003153,-0.121584,-0.126277,0.000109,-0.000498
150363,-0.046737,0.001748,-0.134244,-0.062113,-0.0,-0.0,3.0,0.3261,0.324025,0.3261,0.328158,,,,,,,-0.046446,-0.003151,-0.121594,-0.170083,9.6e-05,-0.000495
150383,-0.048832,0.001974,-0.134217,-0.064161,-0.0,-0.0,3.0,0.3261,0.325401,0.3261,0.326798,,,,,,,-0.048297,-0.003148,-0.121604,-0.166939,9.6e-05,-0.00048
150403,-0.051165,0.002061,-0.134214,-0.065116,-0.0,-0.0,3.0,0.3261,0.324265,0.3261,0.327922,,,,,,,-0.050392,-0.003146,-0.121613,-0.144078,0.000119,-0.000467
150423,-0.053487,0.002031,-0.134068,-0.066577,-0.0,-0.0,3.0,0.3261,0.32454,0.3261,0.32765,,,,,,,-0.052615,-0.003143,-0.121623,-0.119248,0.000142,-0.000451
150443,-0.056169,0.001857,-0.133824,-0.067756,-0.0,-0.0,3.0,0.3261,0.321664,0.3261,0.330456,,,,,,,-0.054944,-0.00314,-0.121632,-0.142812,0.00015,-0.000423
150463,-0.058742,0.001932,-0.133669,-0.068898,-0.0,-0.0,3.0,0.3261,0.322448,0.3261,0.329698,,,,,,,-0.057384,-0.003138,-0.121641,-0.12075,0.000147,-0.00041
150483,-0.061302,0.001768,-0.133424,-0.06946,-0.0,-0.0,3.0,0.3261,0.317323,0.3261,0.334568,,,,,,,-0.060082,-0.003135,-0.121649,-0.074867,0.000167,-0.000393
150503,-0.063876,0.001848,-0.133147,-0.070941,-0.0,-0.0,3.0,0.3261,0.311865,0.3261,0.339538,,,,,,,-0.062869,-0.003132,-0.121657,-0.054727,0.000149,-0.000392
150523,-0.066339,0.002054,-0.13301,-0.070941,-0.0,-0.0,3.0,0.3261,0.305821,0.3261,0.344796,,,,,,,-0.06568,-0.003129,-0.121664,-0.056551,0.000154,-0.000378
150543,-0.068697,0.002512,-0.132865,-0.072859,-0.0,-0.0,3.0,0.3261,0.306807,0.3261,0.343955,,,,,,,-0.068124,-0.003126,-0.121671,-0.10479,0.000161,-0.000361
150563,-0.070904,0.002614,-0.132708,-0.073895,-0.0,-0.0,3.0,0.3261,0.306107,0.3261,0.344552,,,,,,,-0.070591,-0.003123,-0.121678,-0.125901,0.000169,-0.000334
150583,-0.073116,0.002711,-0.132694,-0.074616,-0.0,-0.0,3.0,0.3261,0.309111,0.3261,0.341965,,,,,,,-0.072799,-0.003119,-0.121685,-0.148519,0.000165,-0.000321
150603,-0.075323,0.002812,-0.132535,-0.075711,-0.0,-0.0,3.0,0.3261,0.315312,0.3261,0.336424,,,,,,,-0.074777,-0.003115,-0.121691,-0.19109,0.000163,-0.000305
150623,-0.077535,0.00291,-0.132519,-0.076158,-0.0,-0.0,3.0,0.3261,0.323732,0.3261,0.328445,,,,,,,-0.076523,-0.003111,-0.121697,-0.211851,0.000187,-0.000303
150643,-0.079357,0.002671,-0.132401,-0.077055,-0.0,-0.0,3.0,0.3261,0.325271,0.3261,0.326926,,,,,,,-0.078501,-0.003107,-0.121703,-0.135848,0.000176,-0.000288
150663,-0.081191,0.002676,-0.132249,-0.077899,-0.0,-0.0,3.0,0.3261,0.322715,0.3261,0.329438,,,,,,,-0.080456,-0.003103,-0.121709,-0.044746,0.000191,-0.000274
150683,-0.082787,0.002692,-0.132244,-0.078362,-0.0,-0.0,3.0,0.3261,0.317453,0.3261,0.334447,,,,,,,-0.082414,-0.003099,-0.121714,0.001069,0.000204,-0.000258
150703,-0.084263,0.002843,-0.132092,-0.078993,-0.0,-0.0,3.0,0.3261,0.314574,0.3261,0.337098,,,,,,,-0.084135,-0.003095,-0.121719,-0.004575,0.000254,-0.000243
150723,-0.085713,0.002508,-0.131983,-0.079941,-0.0,-0.0,3.0,0.3261,0.312286,0.3261,0.339162,,,,,,,-0.085728,-0.003091,-0.121724,-0.050796,0.000254,-0.000227
150743,-0.087197,0.002776,-0.131945,-0.080972,-0.0,-0.0,3.0,0.3261,0.308652,0.3261,0.342364,,,,,,,-0.087427,-0.003086,-0.121729,-0.079195,0.000266,-0.000225
150763,-0.088801,0.002919,-0.131812,-0.081463,-0.0,-0.0,3.0,0.3261,0.313622,0.3261,0.337962,,,,,,,-0.088779,-0.003081,-0.121734,-0.126486,0.000279,-0.000221
150783,-0.090635,0.002925,-0.131657,-0.082164,-0.0,-0.0,3.0,0.3261,0.317024,0.3261,0.334846,,,,,,,-0.090243,-0.003076,-0.121738,-0.15186,0.000281,-0.000208
150803,-0.092733,0.003158,-0.131509,-0.082771,-0.0,-0.0,3.0,0.3261,0.317549,0.3261,0.334357,,,,,,,-0.09196,-0.003071,-0.121742,-0.150442,0.000269,-0.000207
150823,-0.094694,0.003156,-0.131374,-0.083331,-0.0,-0.0,3.0,0.3261,0.316484,0.3261,0.335346,,,,,,,-0.093917,-0.003066,-0.121746,-0.07498,0.000233,-0.000205
150843,-0.096543,0.003406,-0.131205,-0.083604,-0.0,-0.0,3.0,0.3261,0.313153,0.3261,0.338384,,,,,,,-0.095878,-0.003061,-0.12175,-0.02667,0.000222,-0.000192
150863,-0.098382,0.003413,-0.13107,-0.083985,-0.0,-0.0,3.0,0.3261,0.303545,0.3261,0.346712,,,,,,,-0.098078,-0.003056,-0.121753,-0.002941,0.000221,-0.000164
150883,-0.100221,0.003413,-0.131055,-0.084386,-0.0,-0.0,3.0,0.3261,0.300813,0.3261,0.348968,,,,,,,-0.100042,-0.003051,-0.121756,-0.049174,0.000219,-0.000149
150903,-0.101925,0.003307,-0.130903,-0.085158,-0.0,-0.0,3.0,0.3261,0.300981,0.3261,0.348831,,,,,,,-0.101889,-0.003046,-0.121759,-0.120988,0.000241,-0.000134
150923,-0.103399,0.003338,-0.130773,-0.085469,-0.0,-0.0,3.0,0.3261,0.305591,0.3261,0.344991,,,,,,,-0.103497,-0.003041,-0.121762,-0.166997,0.000253,-0.000131
150943,-0.105003,0.003477,-0.130755,-0.085789,-0.0,-0.0,3.0,0.3261,0.309382,0.3261,0.341728,,,,,,,-0.104973,-0.003036,-0.121765,-0.165356,0.000256,-0.000116
150963,-0.106714,0.003492,-0.130596,-0.086009,-0.0,-0.0,3.0,0.3261,0.314794,0.3261,0.336898,,,,,,,-0.106336,-0.00303,-0.121767,-0.118146,0.000272,-0.000114
150983,-0.108196,0.003639,-0.130579,-0.086306,-0.0,-0.0,3.0,0.3261,0.31825,0.3261,0.333702,,,,,,,-0.107688,-0.003025,-0.121769,-0.093607,0.000276,-9.9e-05
151003,-0.109412,0.003559,-0.130555,-0.086558,-0.0,-0.0,3.0,0.3261,0.317963,0.3261,0.33397,,,,,,,-0.109053,-0.003019,-0.121771,-0.04285,0.000269,-9.9e-05
151023,-0.11027,0.003502,-0.130562,-0.086773,-0.0,-0.0,3.0,0.3261,0.313659,0.3261,0.337928,,,,,,,-0.110394,-0.003014,-0.121773,0.026296,0.000274,-8.4e-05
151043,-0.110863,0.003225,-0.130443,-0.086886,-0.0,-0.0,3.0,0.3261,0.309214,0.3261,0.341875,,,,,,,-0.111501,-0.003008,-0.121775,0.047733,0.000292,-7.1e-05
151063,-0.111722,0.003298,-0.130298,-0.087074,-0.0,-0.0,3.0,0.3261,0.309876,0.3261,0.341296,,,,,,,-0.11221,-0.003003,-0.121776,-0.026373,0.000285,-6.9e-05
151083,-0.112451,0.003128,-0.130314,-0.087171,-0.0,-0.0,3.0,0.3261,0.311269,0.3261,0.340068,,,,,,,-0.112961,-0.002997,-0.121778,-0.075199,0.000315,-5.5e-05
151103,-0.113432,0.003185,-0.130288,-0.087234,-0.0,-0.0,3.0,0.3261,0.313322,0.3261,0.338232,,,,,,,-0.113682,-0.002992,-0.121779,-0.0987,0.000296,-5.4e-05
151123,-0.11442,0.003242,-0.130285,-0.087256,-0.0,-0.0,3.0,0.3261,0.314578,0.3261,0.337094,,,,,,,-0.114538,-0.002986,-0.12178,-0.075823,0.000303,-5.2e-05
151143,-0.115409,0.003429,-0.130131,-0.08726,-0.0,-0.0,3.0,0.3261,0.315014,0.3261,0.336697,,,,,,,-0.115401,-0.002981,-0.121781,-0.074943,0.000297,-5.2e-05
151163,-0.116398,0.003608,-0.130097,-0.087214,-0.0,-0.0,3.0,0.3261,0.313987,0.3261,0.337631,,,,,,,-0.116382,-0.002975,-0.121782,-0.051482,0.000303,-5e-05
151183,-0.117386,0.003665,-0.130094,-0.08713,-0.0,-0.0,3.0,0.3261,0.312346,0.3261,0.339109,,,,,,,-0.117364,-0.002969,-0.121783,-0.052767,0.000308,-4.9e-05
151203,-0.118245,0.003738,-0.129948,-0.087009,-0.0,-0.0,3.0,0.3261,0.311771,0.3261,0.339622,,,,,,,-0.118344,-0.002963,-0.121784,-0.049807,0.000289,-4.8e-05
151223,-0.119103,0.003681,-0.129954,-0.086893,-0.0,-0.0,3.0,0.3261,0.30408,0.3261,0.346264,,,,,,,-0.119554,-0.002958,-0.121785,0.019203,0.000283,-4.6e-05
151243,-0.119955,0.003633,-0.129815,-0.08675,-0.0,-0.0,3.0,0.3261,0.302687,0.3261,0.347426,,,,,,,-0.12053,-0.002952,-0.121786,0.043326,0.000265,-4.7e-05
151263,-0.120684,0.003585,-0.1298,-0.086452,-0.0,-0.0,3.0,0.3261,0.304042,0.3261,0.346297,,,,,,,-0.121264,-0.002946,-0.121786,-0.004165,0.00027,-3.2e-05
151283,-0.121316,0.003787,-0.129796,-0.086318,-0.0,-0.0,3.0,0.3261,0.302515,0.3261,0.347568,,,,,,,-0.122008,-0.002941,-0.121787,-0.024656,0.000252,-3.4e-05
151303,-0.121916,0.003626,-0.12979,-0.086075,-0.0,-0.0,3.0,0.3261,0.303486,0.3261,0.346761,,,,,,,-0.122632,-0.002935,-0.121787,-0.046392,0.000259,-3.1e-05
151323,-0.12241,0.003708,-0.129893,-0.085627,-0.0,-0.0,3.0,0.3261,0.30473,0.3261,0.345719,,,,,,,-0.123232,-0.00293,-0.121788,-0.071304,0.000254,-3e-05
151343,-0.123147,0.00366,-0.1299,-0.08526,-0.0,-0.0,3.0,0.3261,0.306503,0.3261,0.344215,,,,,,,-0.123727,-0.002924,-0.121788,-0.096088,0.000261,-3e-05
151363,-0.123763,0.003741,-0.12988,-0.084845,-0.0,-0.0,3.0,0.3261,0.312526,0.3261,0.338947,,,,,,,-0.124113,-0.002919,-0.121789,-0.113807,0.000245,-2.9e-05
151383,-0.124119,0.003596,-0.129879,-0.084397,-0.0,-0.0,3.0,0.3261,0.318304,0.3261,0.333651,,,,,,,-0.12437,-0.002913,-0.12179,-0.086096,0.000231,-4.2e-05
151403,-0.12437,0.003694,-0.129987,-0.084104,-0.0,-0.0,3.0,0.3261,0.312125,0.3261,0.339306,,,,,,,-0.124976,-0.002908,-0.12179,0.00554,0.000242,-4.1e-05
151423,-0.124742,0.003669,-0.130002,-0.083695,-0.0,-0.0,3.0,0.3261,0.309396,0.3261,0.341716,,,,,,,-0.125344,-0.002903,-0.121791,0.028023,0.000252,-3.9e-05
151443,-0.124993,0.003767,-0.13011,-0.083013,-0.0,-0.0,3.0,0.3261,0.305785,0.3261,0.344827,,,,,,,-0.125724,-0.002898,-0.121792,0.003029,0.000272,-3.9e-05
151463,-0.125099,0.003516,-0.130122,-0.082494,-0.0,-0.0,3.0,0.3261,0.303366,0.3261,0.346861,,,,,,,-0.1261,-0.002892,-0.121793,0.003536,0.000282,-3.8e-05
151483,-0.125213,0.003386,-0.130127,-0.081832,-0.0,-0.0,3.0,0.3261,0.301912,0.3261,0.348066,,,,,,,-0.126337,-0.002886,-0.121794,-0.02247,0.000292,-2.4e-05
151503,-0.125448,0.003249,-0.13013,-0.081155,-0.0,-0.0,3.0,0.3261,0.302048,0.3261,0.347954,,,,,,,-0.126561,-0.002881,-0.121794,-0.024707,0.000276,-3.6e-05
151523,-0.125691,0.00324,-0.130004,-0.080463,-0.0,-0.0,3.0,0.3261,0.306256,0.3261,0.344425,,,,,,,-0.126672,-0.002876,-0.121795,-0.026737,0.000275,-3.6e-05
151543,-0.126064,0.003338,-0.129988,-0.079717,-0.0,-0.0,3.0,0.3261,0.312794,0.3261,0.338707,,,,,,,-0.126564,-0.002871,-0.121796,-0.069282,0.000262,-3.6e-05
151563,-0.126315,0.003444,-0.129975,-0.079339,-0.0,-0.0,3.0,0.3261,0.314139,0.3261,0.337494,,,,,,,-0.126687,-0.002866,-0.121797,-0.022198,0.000262,-3.6e-05
151583,-0.126445,0.003557,-0.129965,-0.078555,-0.0,-0.0,3.0,0.3261,0.313322,0.3261,0.338233,,,,,,,-0.126829,-0.00286,-0.121797,0.028488,0.000262,-3.7e-05
151603,-0.126306,0.003307,-0.130224,-0.077917,-0.0,-0.0,3.0,0.3261,0.30631,0.3261,0.34438,,,,,,,-0.127192,-0.002855,-0.121798,0.07338,0.000273,-3.5e-05
151623,-0.126306,0.003307,-0.130224,-0.076768,-0.0,-0.0,3.0,0.3261,0.303643,0.3261,0.34663,,,,,,,-0.127186,-0.00285,-0.121799,0.047363,0.000284,-3.4e-05
151643,-0.126177,0.003193,-0.130234,-0.076015,-0.0,-0.0,3.0,0.3261,0.300342,0.3261,0.349352,,,,,,,-0.12731,-0.002844,-0.1218,-0.001947,0.000304,-4.4e-05
151663,-0.126055,0.003201,-0.130237,-0.075395,-0.0,-0.0,3.0,0.3261,0.302539,0.3261,0.347549,,,,,,,-0.127181,-0.002839,-0.121801,-0.051706,0.000302,-5.8e-05
151683,-0.125934,0.003209,-0.130239,-0.074055,-0.0,-0.0,3.0,0.3261,0.304414,0.3261,0.345984,,,,,,,-0.127044,-0.002834,-0.121802,-0.028155,0.000291,-5.7e-05
151703,-0.12595,0.003452,-0.130224,-0.073072,-0.0,-0.0,3.0,0.3261,0.30792,0.3261,0.342998,,,,,,,-0.126791,-0.002828,-0.121804,-0.005232,0.000281,-5.8e-05
151723,-0.125958,0.003574,-0.130217,-0.072053,-0.0,-0.0,3.0,0.3261,0.312142,0.3261,0.339291,,,,,,,-0.12644,-0.002823,-0.121805,-0.024323,0.00027,-5.9e-05
151743,-0.125471,0.003606,-0.130227,-0.071532,-0.0,-0.0,3.0,0.3261,0.309061,0.3261,0.342008,,,,,,,-0.126448,-0.002818,-0.121806,0.047374,0.000272,-6e-05
151763,-0.125107,0.00363,-0.130236,-0.070445,-0.0,-0.0,3.0,0.3261,0.302364,0.3261,0.347693,,,,,,,-0.126313,-0.002812,-0.121807,0.093045,0.000261,-7.4e-05
151783,-0.124491,0.003541,-0.130377,-0.069505,-0.0,-0.0,3.0,0.3261,0.296483,0.3261,0.352447,,,,,,,-0.126189,-0.002807,-0.121808,0.114516,0.000274,-7.3e-05
151803,-0.124126,0.003558,-0.130506,-0.068093,-0.0,-0.0,3.0,0.3261,0.296582,0.3261,0.352369,,,,,,,-0.12569,-0.002802,-0.12181,0.041966,0.000274,-8.5e-05
151823,-0.123502,0.003469,-0.130623,-0.067435,-0.0,-0.0,3.0,0.3261,0.299022,0.3261,0.350421,,,,,,,-0.125216,-0.002796,-0.121812,0.020956,0.000275,-8.6e-05
151843,-0.122772,0.003517,-0.130639,-0.066366,-0.0,-0.0,3.0,0.3261,0.303569,0.3261,0.346692,,,,,,,-0.124468,-0.002791,-0.121814,0.020402,0.000266,-0.00011
151863,-0.122294,0.003671,-0.130642,-0.064741,-0.0,-0.0,3.0,0.3261,0.29991,0.3261,0.349703,,,,,,,-0.123973,-0.002786,-0.121816,0.04207,0.00027,-0.000111
151883,-0.121808,0.003818,-0.130742,-0.063506,-0.0,-0.0,3.0,0.3261,0.301827,0.3261,0.348136,,,,,,,-0.123354,-0.002781,-0.121818,0.0432,0.000248,-0.000126
151903,-0.1212,0.003858,-0.130756,-0.062219,-0.0,-0.0,3.0,0.3261,0.304415,0.3261,0.345984,,,,,,,-0.122634,-0.002775,-0.12182,0.048024,0.00024,-0.000125
151923,-0.120471,0.003906,-0.130771,-0.060908,-0.0,-0.0,3.0,0.3261,0.304984,0.3261,0.345504,,,,,,,-0.121917,-0.00277,-0.121822,0.050327,0.000244,-0.000127
151943,-0.119855,0.003825,-0.130792,-0.060071,-0.0,-0.0,3.0,0.3261,0.298669,0.3261,0.350705,,,,,,,-0.121429,-0.002764,-0.121825,0.074917,0.000236,-0.000128
151963,-0.119231,0.003737,-0.130909,-0.058653,-0.0,-0.0,3.0,0.3261,0.298565,0.3261,0.350788,,,,,,,-0.120813,-0.002759,-0.121827,0.051468,0.000238,-0.000139
151983,-0.118493,0.003656,-0.131052,-0.057348,-0.0,-0.0,3.0,0.3261,0.301008,0.3261,0.348808,,,,,,,-0.120072,-0.002754,-0.12183,0.025982,0.000241,-0.00014
152003,-0.117885,0.003697,-0.131065,-0.056626,-0.0,-0.0,3.0,0.3261,0.298349,0.3261,0.350961,,,,,,,-0.119467,-0.002749,-0.121833,0.026556,0.000244,-0.000153
152023,-0.11714,0.003609,-0.131305,-0.05539,-0.0,-0.0,3.0,0.3261,0.297725,0.3261,0.35146,,,,,,,-0.118851,-0.002744,-0.121836,0.003228,0.000234,-0.000167
152043,-0.11628,0.003537,-0.13145,-0.05339,-0.0,-0.0,3.0,0.3261,0.297912,0.3261,0.351311,,,,,,,-0.118106,-0.002739,-0.121839,0.001635,0.000238,-0.000165
152063,-0.115437,0.003716,-0.131461,-0.051891,-0.0,-0.0,3.0,0.3261,0.299492,0.3261,0.350041,,,,,,,-0.117247,-0.002734,-0.121843,0.00014,0.000243,-0.000179
152083,-0.114571,0.003651,-0.131461,-0.050405,-0.0,-0.0,3.0,0.3261,0.304817,0.3261,0.345645,,,,,,,-0.11617,-0.002729,-0.121846,-0.043277,0.000247,-0.000192
152103,-0.113598,0.003709,-0.131602,-0.048888,-0.0,-0.0,3.0,0.3261,0.309341,0.3261,0.341764,,,,,,,-0.11507,-0.002724,-0.12185,-0.039922,0.00023,-0.000193
152123,-0.112359,0.003547,-0.131616,-0.047789,-0.0,-0.0,3.0,0.3261,0.313235,0.3261,0.33831,,,,,,,-0.113855,-0.002719,-0.121854,0.010245,0.000215,-0.000197
152143,-0.110899,0.003637,-0.131766,-0.046565,-0.0,-0.0,3.0,0.3261,0.309309,0.3261,0.341792,,,,,,,-0.112748,-0.002714,-0.121858,0.079437,0.000223,-0.000209
152163,-0.109295,0.0035,-0.131787,-0.044571,-0.0,-0.0,3.0,0.3261,0.307863,0.3261,0.343047,,,,,,,-0.111398,-0.002709,-0.121862,0.126716,0.00022,-0.000222
152183,-0.107586,0.003607,-0.131917,-0.043709,-0.0,-0.0,3.0,0.3261,0.304251,0.3261,0.346121,,,,,,,-0.109926,-0.002704,-0.121866,0.077557,0.000228,-0.000224
152203,-0.105858,0.003343,-0.13221,-0.042214,-0.0,-0.0,3.0,0.3261,0.303296,0.3261,0.34692,,,,,,,-0.108333,-0.002699,-0.121871,0.053266,0.000237,-0.000236
152223,-0.10414,0.003329,-0.132346,-0.040052,-0.0,-0.0,3.0,0.3261,0.302472,0.3261,0.347604,,,,,,,-0.106731,-0.002695,-0.121876,0.025856,0.000245,-0.000251
152243,-0.102658,0.003177,-0.132482,-0.038414,-0.0,-0.0,3.0,0.3261,0.305474,0.3261,0.34509,,,,,,,-0.105014,-0.00269,-0.121881,0.027456,0.000231,-0.000264
152263,-0.101563,0.003244,-0.132623,-0.036739,-0.0,-0.0,3.0,0.3261,0.309984,0.3261,0.341201,,,,,,,-0.10329,-0.002685,-0.121886,-0.020575,0.000228,-0.000277
152283,-0.100452,0.003068,-0.132775,-0.035066,-0.0,-0.0,3.0,0.3261,0.314213,0.3261,0.337426,,,,,,,-0.101828,-0.002681,-0.121892,-0.016182,0.000199,-0.000305
152303,-0.098856,0.003047,-0.132906,-0.034131,-0.0,-0.0,3.0,0.3261,0.315789,0.3261,0.335987,,,,,,,-0.100476,-0.002677,-0.121898,0.055798,0.000186,-0.000318
152323,-0.097396,0.003139,-0.133053,-0.032655,-0.0,-0.0,3.0,0.3261,0.310716,0.3261,0.340557,,,,,,,-0.099136,-0.002673,-0.121904,0.151717,0.000185,-0.000319
152343,-0.09567,0.00301,-0.13307,-0.030476,-0.0,-0.0,3.0,0.3261,0.302563,0.3261,0.347529,,,,,,,-0.097904,-0.002669,-0.121911,0.170565,0.000206,-0.00032
152363,-0.094075,0.002995,-0.133079,-0.02955,-0.0,-0.0,3.0,0.3261,0.298963,0.3261,0.350468,,,,,,,-0.096434,-0.002665,-0.121918,0.144723,0.000227,-0.000319
152383,-0.092233,0.002868,-0.133242,-0.027823,-0.0,-0.0,3.0,0.3261,0.301935,0.3261,0.348047,,,,,,,-0.094729,-0.002661,-0.121924,0.07271,0.000247,-0.000332
152403,-0.090646,0.002969,-0.133364,-0.025497,-0.0,-0.0,3.0,0.3261,0.302177,0.3261,0.347848,,,,,,,-0.093005,-0.002656,-0.121931,0.02297,0.000256,-0.000331
152423,-0.089421,0.002929,-0.13339,-0.023715,-0.0,-0.0,3.0,0.3261,0.301733,0.3261,0.348213,,,,,,,-0.091519,-0.002652,-0.121938,0.044628,0.000242,-0.000346
152443,-0.08819,0.002884,-0.133511,-0.021906,-0.0,-0.0,3.0,0.3261,0.310264,0.3261,0.340955,,,,,,,-0.089805,-0.002648,-0.121945,0.023411,0.000227,-0.000359
152463,-0.086843,0.002847,-0.133658,-0.020128,-0.0,-0.0,3.0,0.3261,0.311817,0.3261,0.33958,,,,,,,-0.088337,-0.002644,-0.121952,0.050155,0.0002,-0.000374
152483,-0.085248,0.002827,-0.133785,-0.019146,-0.0,-0.0,3.0,0.3261,0.311576,0.3261,0.339795,,,,,,,-0.086873,-0.00264,-0.12196,0.123814,0.000187,-0.000399
152503,-0.083292,0.002826,-0.134061,-0.017554,-0.0,-0.0,3.0,0.3261,0.301737,0.3261,0.34821,,,,,,,-0.085636,-0.002636,-0.121968,0.1918,0.000184,-0.000413
152523,-0.081323,0.00271,-0.134197,-0.01529,-0.0,-0.0,3.0,0.3261,0.296934,0.3261,0.352089,,,,,,,-0.08404,-0.002633,-0.121976,0.19003,0.000194,-0.000425
152543,-0.079368,0.002715,-0.134351,-0.01431,-0.0,-0.0,3.0,0.3261,0.298877,0.3261,0.350537,,,,,,,-0.082079,-0.002629,-0.121985,0.117198,0.000204,-0.000438
152563,-0.077278,0.002607,-0.134486,-0.01255,-0.0,-0.0,3.0,0.3261,0.303229,0.3261,0.346976,,,,,,,-0.080007,-0.002626,-0.121994,0.070649,0.000216,-0.00045
152583,-0.075326,0.002739,-0.134489,-0.010054,-0.0,-0.0,3.0,0.3261,0.308207,0.3261,0.34275,,,,,,,-0.077784,-0.002622,-0.122003,0.045806,0.000192,-0.000465
152603,-0.07324,0.002631,-0.134647,-0.008208,-0.0,-0.0,3.0,0.3261,0.308183,0.3261,0.342771,,,,,,,-0.075824,-0.002618,-0.122012,0.092745,0.000194,-0.000477
152623,-0.071166,0.002767,-0.134771,-0.006373,-0.0,-0.0,3.0,0.3261,0.311811,0.3261,0.339586,,,,,,,-0.073606,-0.002615,-0.122022,0.118034,0.000161,-0.000479
152643,-0.06921,0.002773,-0.134922,-0.004535,-0.0,-0.0,3.0,0.3261,0.31505,0.3261,0.336664,,,,,,,-0.071297,-0.002612,-0.122032,0.098735,0.00015,-0.000506
152663,-0.066877,0.002678,-0.135176,-0.003495,-0.0,-0.0,3.0,0.3261,0.311319,0.3261,0.340023,,,,,,,-0.069341,-0.002609,-0.122042,0.147822,0.00014,-0.000518
152683,-0.064555,0.00271,-0.135329,-0.002108,-0.0,-0.0,3.0,0.3261,0.305541,0.3261,0.345033,,,,,,,-0.067367,-0.002606,-0.122052,0.167708,0.000141,-0.000544
152703,-0.062352,0.00273,-0.135576,0.000187,-0.0,-0.0,3.0,0.3261,0.302547,0.3261,0.347541,,,,,,,-0.065288,-0.002603,-0.122063,0.165924,0.000154,-0.00057
152723,-0.060152,0.002754,-0.135726,0.001848,-0.0,-0.0,3.0,0.3261,0.303272,0.3261,0.34694,,,,,,,-0.063076,-0.0026,-0.122075,0.14097,0.000155,-0.000593
152743,-0.058184,0.002636,-0.135972,0.003015,-0.0,-0.0,3.0,0.3261,0.304032,0.3261,0.346305,,,,,,,-0.060869,-0.002597,-0.122087,0.0942,0.000143,-0.000607
152763,-0.055976,0.002539,-0.136123,0.005732,-0.0,-0.0,3.0,0.3261,0.306421,0.3261,0.344285,,,,,,,-0.058674,-0.002594,-0.122099,0.075659,0.00012,-0.000619
152783,-0.053768,0.002442,-0.136273,0.007547,-0.0,-0.0,3.0,0.3261,0.303179,0.3261,0.347017,,,,,,,-0.0567,-0.002591,-0.122111,0.120739,0.00011,-0.000632
152803,-0.051687,0.002459,-0.136393,0.00938,-0.0,-0.0,3.0,0.3261,0.305756,0.3261,0.344851,,,,,,,-0.054485,-0.002589,-0.122124,0.074041,8.6e-05,-0.000646
152823,-0.049722,0.002346,-0.136539,0.011199,-0.0,-0.0,3.0,0.3261,0.310126,0.3261,0.341076,,,,,,,-0.052169,-0.002587,-0.122137,0.028973,8.8e-05,-0.000657
152843,-0.047522,0.002371,-0.136683,0.012341,-0.0,-0.0,3.0,0.3261,0.31429,0.3261,0.337356,,,,,,,-0.049978,-0.002585,-0.12215,0.032335,7.8e-05,-0.00067
152863,-0.045197,0.002405,-0.136803,0.013732,-0.0,-0.0,3.0,0.3261,0.317303,0.3261,0.334587,,,,,,,-0.047666,-0.002582,-0.122163,0.081634,8.3e-05,-0.000681
152883,-0.042519,0.002587,-0.136947,0.015879,-0.0,-0.0,3.0,0.3261,0.316,0.3261,0.335793,,,,,,,-0.045352,-0.00258,-0.122177,0.151808,0.000101,-0.000694
152903,-0.039926,0.002273,-0.137073,0.016779,-0.0,-0.0,3.0,0.3261,0.31355,0.3261,0.338027,,,,,,,-0.0429,-0.002578,-0.122191,0.196951,0.000106,-0.000707
152923,-0.037108,0.002217,-0.137341,0.018942,-0.0,-0.0,3.0,0.3261,0.311636,0.3261,0.339742,,,,,,,-0.040331,-0.002576,-0.122205,0.173288,0.00011,-0.000717
152943,-0.034144,0.001806,-0.137613,0.020972,-0.0,-0.0,3.0,0.3261,0.313332,0.3261,0.338223,,,,,,,-0.037513,-0.002573,-0.122219,0.126454,0.000103,-0.000743
152963,-0.031081,0.001768,-0.137853,0.022374,-0.0,-0.0,3.0,0.3261,0.311959,0.3261,0.339454,,,,,,,-0.034783,-0.002572,-0.122234,0.143301,9.8e-05,-0.000755
152983,-0.028255,0.001593,-0.138116,0.02435,-0.0,-0.0,3.0,0.3261,0.316466,0.3261,0.335363,,,,,,,-0.031721,-0.00257,-0.12225,0.119973,9.3e-05,-0.000778
153003,-0.025576,0.001775,-0.138372,0.026104,-0.0,-0.0,3.0,0.3261,0.326071,0.3261,0.326129,,,,,,,-0.028418,-0.002569,-0.122266,0.073551,8.9e-05,-0.000802
153023,-0.023115,0.001576,-0.13863,0.027881,-0.0,-0.0,3.0,0.3261,0.328611,0.3261,0.323563,,,,,,,-0.025497,-0.002568,-0.122282,0.077007,8.4e-05,-0.000827
153043,-0.020306,0.001648,-0.138764,0.028751,-0.0,-0.0,3.0,0.3261,0.329491,0.3261,0.322661,,,,,,,-0.022801,-0.002566,-0.122299,0.150614,5.7e-05,-0.000851
153063,-0.017366,0.001605,-0.13902,0.031083,-0.0,-0.0,3.0,0.3261,0.324924,0.3261,0.327271,,,,,,,-0.020117,-0.002565,-0.122316,0.221477,6.5e-05,-0.000887
153083,-0.014418,0.001442,-0.139274,0.03258,-0.0,-0.0,3.0,0.3261,0.316161,0.3261,0.335644,,,,,,,-0.01763,-0.002564,-0.122334,0.261596,5.9e-05,-0.000899
153103,-0.011722,0.001384,-0.139404,0.034507,-0.0,-0.0,3.0,0.3261,0.310028,0.3261,0.341163,,,,,,,-0.015041,-0.002563,-0.122352,0.213612,3.9e-05,-0.00091
153123,-0.008896,0.001214,-0.139533,0.036085,-0.0,-0.0,3.0,0.3261,0.311186,0.3261,0.340141,,,,,,,-0.012345,-0.002563,-0.12237,0.143332,3e-05,-0.000921
153143,-0.006347,0.001514,-0.139659,0.037577,-0.0,-0.0,3.0,0.3261,0.312417,0.3261,0.339045,,,,,,,-0.009628,-0.002562,-0.122389,0.094054,1.1e-05,-0.000944
153163,-0.003895,0.001441,-0.139784,0.039379,-0.0,-0.0,3.0,0.3261,0.31535,0.3261,0.33639,,,,,,,-0.007063,-0.002562,-0.122408,0.070849,1.5e-05,-0.000954
153183,-0.001581,0.001603,-0.139907,0.0402,-0.0,-0.0,3.0,0.3261,0.322217,0.3261,0.329922,,,,,,,-0.004377,-0.002561,-0.122427,0.050917,-3e-06,-0.000965
153203,0.00062,0.001634,-0.14015,0.04183,-0.0,-0.0,3.0,0.3261,0.329393,0.3261,0.322762,,,,,,,-0.001594,-0.002561,-0.122447,0.057738,-8e-06,-0.000987
153223,0.003072,0.001562,-0.140392,0.043441,-0.0,-0.0,3.0,0.3261,0.324348,0.3261,0.327839,,,,,,,0.000599,-0.002561,-0.122466,0.13114,-1.5e-05,-0.000998
153243,0.005776,0.001386,-0.140633,0.044402,-0.0,-0.0,3.0,0.3261,0.322498,0.3261,0.329649,,,,,,,0.002926,-0.00256,-0.122486,0.177049,-9e-06,-0.001008
153263,0.00849,0.001088,-0.14087,0.046911,-0.0,-0.0,3.0,0.3261,0.316448,0.3261,0.335379,,,,,,,0.005254,-0.00256,-0.122507,0.197614,8e-06,-0.00103
153283,0.011072,0.000904,-0.140986,0.047667,-0.0,-0.0,3.0,0.3261,0.316088,0.3261,0.335712,,,,,,,0.007842,-0.00256,-0.122528,0.169951,1.3e-05,-0.001039
153303,0.013778,0.000729,-0.141125,0.049342,-0.0,-0.0,3.0,0.3261,0.321019,0.3261,0.331077,,,,,,,0.010659,-0.00256,-0.122549,0.118253,4.4e-05,-0.001064
153323,0.016587,0.000806,-0.141238,0.050229,-0.0,-0.0,3.0,0.3261,0.32733,0.3261,0.324865,,,,,,,0.013606,-0.00256,-0.12257,0.096684,1.5e-05,-0.001085
153343,0.019274,0.000875,-0.14135,0.05223,-0.0,-0.0,3.0,0.3261,0.324954,0.3261,0.327241,,,,,,,0.016189,-0.00256,-0.122592,0.140208,2.3e-05,-0.001094
153363,0.022067,0.001197,-0.141489,0.053811,-0.0,-0.0,3.0,0.3261,0.328229,0.3261,0.323953,,,,,,,0.019018,-0.002561,-0.122614,0.164717,-5e-06,-0.001102
153383,0.024989,0.001405,-0.141599,0.055265,-0.0,-0.0,3.0,0.3261,0.330441,0.3261,0.32168,,,,,,,0.021945,-0.002561,-0.122636,0.169036,-2.1e-05,-0.001113
153403,0.027929,0.00137,-0.141705,0.056678,-0.0,-0.0,3.0,0.3261,0.327476,0.3261,0.324717,,,,,,,0.024759,-0.002561,-0.122658,0.126247,-5.1e-05,-0.001122
153423,0.030991,0.001345,-0.141834,0.057414,-0.0,-0.0,3.0,0.3261,0.327462,0.3261,0.324731,,,,,,,0.027564,-0.002561,-0.122681,0.173744,-4.1e-05,-0.00113
153443,0.033704,0.00105,-0.141933,0.058888,-0.0,-0.0,3.0,0.3261,0.327281,0.3261,0.324914,,,,,,,0.030493,-0.002561,-0.122703,0.152677,-4.6e-05,-0.001141
153463,0.03628,0.000993,-0.142181,0.060172,-0.0,-0.0,3.0,0.3261,0.32965,0.3261,0.322498,,,,,,,0.033306,-0.002561,-0.122726,0.126715,-2.6e-05,-0.001149
153483,0.038628,0.000673,-0.142278,0.060943,-0.0,-0.0,3.0,0.3261,0.332306,0.3261,0.31973,,,,,,,0.036108,-0.002562,-0.122749,0.079913,-8e-06,-0.00116
153503,0.041325,0.000626,-0.142522,0.062135,-0.0,-0.0,3.0,0.3261,0.330257,0.3261,0.321871,,,,,,,0.038456,-0.002562,-0.122772,0.123317,-1.3e-05,-0.001179
153523,0.043899,0.000568,-0.142619,0.063963,-0.0,-0.0,3.0,0.3261,0.325837,0.3261,0.326363,,,,,,,0.040802,-0.002563,-0.122796,0.140785,4e-06,-0.00119
153543,0.046223,0.000617,-0.142866,0.065214,-0.0,-0.0,3.0,0.3261,0.32099,0.3261,0.331104,,,,,,,0.043041,-0.002564,-0.12282,0.161643,-2.7e-05,-0.001209
153563,0.048292,0.000768,-0.142969,0.066421,-0.0,-0.0,3.0,0.3261,0.326143,0.3261,0.326058,,,,,,,0.045608,-0.002565,-0.122844,0.093247,-3.5e-05,-0.001231
153583,0.050494,0.000807,-0.143095,0.067599,-0.0,-0.0,3.0,0.3261,0.331816,0.3261,0.320245,,,,,,,0.048045,-0.002565,-0.122869,0.029151,-6.9e-05,-0.001238
153603,0.052816,0.000854,-0.143192,0.068189,-0.0,-0.0,3.0,0.3261,0.334768,0.3261,0.317108,,,,,,,0.050356,-0.002566,-0.122894,0.08018,-7.4e-05,-0.001247
153623,0.055027,0.000775,-0.143432,0.068985,-0.0,-0.0,3.0,0.3261,0.330459,0.3261,0.321661,,,,,,,0.052443,-0.002567,-0.122919,0.150885,-8.1e-05,-0.001256
153643,0.057247,0.000571,-0.143547,0.070503,-0.0,-0.0,3.0,0.3261,0.330553,0.3261,0.321563,,,,,,,0.054646,-0.002569,-0.122944,0.171991,-6.4e-05,-0.001263
153663,0.059464,0.000364,-0.143514,0.071137,-0.0,-0.0,3.0,0.3261,0.328924,0.3261,0.323243,,,,,,,0.05685,-0.00257,-0.12297,0.148375,-6.1e-05,-0.001261
153683,0.061928,0.000178,-0.143624,0.072624,-0.0,-0.0,3.0,0.3261,0.32853,0.3261,0.323646,,,,,,,0.05905,-0.002571,-0.122995,0.123114,-4.5e-05,-0.001268
153703,0.064361,0.000357,-0.143717,0.07356,-0.0,-0.0,3.0,0.3261,0.32708,0.3261,0.325116,,,,,,,0.061288,-0.002573,-0.12302,0.116348,-4.1e-05,-0.001278
153723,0.066565,0.000394,-0.143714,0.074539,-0.0,-0.0,3.0,0.3261,0.327991,0.3261,0.324195,,,,,,,0.063625,-0.002574,-0.123046,0.092239,-4.9e-05,-0.001287
153743,0.068628,0.000674,-0.143961,0.075476,-0.0,-0.0,3.0,0.3261,0.332171,0.3261,0.319872,,,,,,,0.065966,-0.002575,-0.123072,0.044774,-7e-05,-0.001305
153763,0.070705,0.000706,-0.144052,0.076389,-0.0,-0.0,3.0,0.3261,0.339044,0.3261,0.312418,,,,,,,0.068381,-0.002576,-0.123098,0.05254,-7.6e-05,-0.001313
153783,0.073039,0.000634,-0.144161,0.076836,-0.0,-0.0,3.0,0.3261,0.34197,0.3261,0.309105,,,,,,,0.070696,-0.002578,-0.123124,0.106217,-0.000106,-0.00132
153803,0.075137,0.000428,-0.144387,0.077989,-0.0,-0.0,3.0,0.3261,0.337125,0.3261,0.314545,,,,,,,0.072775,-0.002579,-0.12315,0.151923,-8.8e-05,-0.001329
153823,0.077601,0.000245,-0.144487,0.07863,-0.0,-0.0,3.0,0.3261,0.333261,0.3261,0.318719,,,,,,,0.07474,-0.002581,-0.123177,0.196849,-8.4e-05,-0.001335
153843,0.080057,0.000183,-0.14459,0.079048,-0.0,-0.0,3.0,0.3261,0.332553,0.3261,0.319469,,,,,,,0.07707,-0.002582,-0.123204,0.143889,-4.4e-05,-0.001345
153863,0.082643,4e-06,-0.144564,0.07985,-0.0,-0.0,3.0,0.3261,0.334687,0.3261,0.317194,,,,,,,0.079533,-0.002584,-0.123231,0.072044,-5.3e-05,-0.001353
153883,0.085067,0.000308,-0.144653,0.080823,-0.0,-0.0,3.0,0.3261,0.336241,0.3261,0.315512,,,,,,,0.08201,-0.002585,-0.123258,0.044452,-6e-05,-0.001361
153903,0.087261,0.000473,-0.144766,0.081503,-0.0,-0.0,3.0,0.3261,0.340234,0.3261,0.311082,,,,,,,0.084465,-0.002587,-0.123285,0.046411,-7.8e-05,-0.001368
153923,0.089212,0.00062,-0.144883,0.082143,-0.0,-0.0,3.0,0.3261,0.345184,0.3261,0.305363,,,,,,,0.086901,-0.002588,-0.123312,0.07518,-9.5e-05,-0.001362
153943,0.091051,0.000632,-0.144874,0.082748,-0.0,-0.0,3.0,0.3261,0.348717,0.3261,0.30112,,,,,,,0.089199,-0.00259,-0.12334,0.08054,-9e-05,-0.00137
153963,0.09302,0.000536,-0.144978,0.083083,-0.0,-0.0,3.0,0.3261,0.346573,0.3261,0.303711,,,,,,,0.091146,-0.002591,-0.123367,0.130382,-9.8e-05,-0.001362
153983,0.095105,0.000444,-0.144932,0.083692,-0.0,-0.0,3.0,0.3261,0.33681,0.3261,0.31489,,,,,,,0.09263,-0.002593,-0.123395,0.196815,-8.4e-05,-0.001371
154003,0.096943,0.000461,-0.145042,0.083976,-0.0,-0.0,3.0,0.3261,0.330111,0.3261,0.322022,,,,,,,0.09423,-0.002594,-0.123422,0.169119,-6.1e-05,-0.001381
154023,0.098651,0.000592,-0.145159,0.084422,-0.0,-0.0,3.0,0.3261,0.331501,0.3261,0.320575,,,,,,,0.096086,-0.002595,-0.12345,0.069315,-5e-05,-0.001388
154043,0.100255,0.000471,-0.145266,0.085042,-0.0,-0.0,3.0,0.3261,0.335468,0.3261,0.316352,,,,,,,0.097911,-0.002596,-0.123477,5.6e-05,-3.9e-05,-0.001397
154063,0.101601,0.000453,-0.145356,0.085354,-0.0,-0.0,3.0,0.3261,0.338095,0.3261,0.313474,,,,,,,0.099515,-0.002597,-0.123505,0.001939,-6.3e-05,-0.001393
154083,0.102832,0.000427,-0.145474,0.085744,-0.0,-0.0,3.0,0.3261,0.342674,0.3261,0.308295,,,,,,,0.1011,-0.002599,-0.123533,0.027199,-6.2e-05,-0.001401
154103,0.104174,0.000538,-0.145716,0.086071,-0.0,-0.0,3.0,0.3261,0.343344,0.3261,0.307518,,,,,,,0.102459,-0.0026,-0.123561,0.07322,-7.4e-05,-0.001406
154123,0.105512,0.000637,-0.145691,0.086355,-0.0,-0.0,3.0,0.3261,0.342074,0.3261,0.308986,,,,,,,0.103803,-0.002601,-0.12359,0.073169,-6.4e-05,-0.001415
154143,0.106977,0.000744,-0.14569,0.086617,-0.0,-0.0,3.0,0.3261,0.3385,0.3261,0.313025,,,,,,,0.105023,-0.002603,-0.123618,0.100247,-7.7e-05,-0.001423
154163,0.108573,0.000745,-0.1458,0.086784,-0.0,-0.0,3.0,0.3261,0.337744,0.3261,0.313862,,,,,,,0.106353,-0.002604,-0.123647,0.123091,-5.4e-05,-0.00143
