time_ms,roll,pitch,yaw,reference_roll,reference_pitch,reference_yaw,reference_throttle,throttle_1,throttle_2,throttle_3,throttle_4,roll_predicted,pitch_predicted,yaw_predicted,roll_rate_predicted,pitch_rate_predicted,yaw_rate_predicted,value1,value2,value3,value4,value5,value6
63917,0.002195,-0.019786,-0.282368,-0.0,-0.0,-0.0,2.0,0.282024,0.275265,0.282024,0.288558,-0.0,-220.678,-0.0,-0.0,-5.537151,-0.0,0.00303,-0.014613,-0.181665,0.003307,7e-06,-0.000257
63937,0.001953,-0.01982,-0.28237,0.087266,-0.0,-0.0,2.0,0.282024,0.249447,0.282024,0.309913,0.000216,-220.789923,-4e-06,0.084556,-5.698102,-0.001059,0.002667,-0.014612,-0.18167,0.003322,2e-06,-0.000257
63957,0.001591,-0.019872,-0.282373,0.087266,-0.0,-0.0,2.0,0.282024,0.249686,0.282024,0.309738,0.003151,-220.90519,-0.000261,0.197332,-5.875386,-0.001277,0.002443,-0.014612,-0.181676,-0.00352,1.1e-05,-0.000257
63977,0.001834,-0.019837,-0.282487,0.087266,-0.0,-0.0,2.0,0.282024,0.256919,0.282024,0.304262,0.008271,-221.024113,-0.001493,0.196507,-6.067121,-0.000923,0.002443,-0.014612,-0.181681,0.024227,0.0,-0.000273
63997,0.002559,-0.019735,-0.282531,0.087266,-0.0,-0.0,2.0,0.282024,0.259752,0.282024,0.302013,0.015088,-221.146961,-0.004868,0.169044,-6.271036,-0.000587,0.002805,-0.014612,-0.181686,0.048303,7e-06,-0.000272
64017,0.00356,-0.01984,-0.282522,0.087266,-0.0,-0.0,2.0,0.282024,0.263552,0.282024,0.2989,0.026722,-221.273946,-0.013617,0.148821,-6.484432,-0.000286,0.003669,-0.014612,-0.181692,0.072316,9e-06,-0.00027
64037,0.004907,-0.019771,-0.282508,0.087266,-0.0,-0.0,2.0,0.282024,0.271789,0.282024,0.291751,0.062374,-221.405186,-0.046855,0.113589,-6.704163,-1.9e-05,0.005016,-0.014612,-0.181697,0.051633,2e-06,-0.000268
64057,0.006617,-0.019651,-0.282606,0.087266,-0.0,-0.0,2.0,0.282024,0.269765,0.282024,0.293561,-0.235727,-221.53212,0.252729,-0.198309,-6.926628,-0.012434,0.006258,-0.014612,-0.181703,0.120801,1.2e-05,-0.000278
64077,0.008344,-0.019652,-0.282586,0.087266,-0.0,-0.0,2.0,0.282024,0.272739,0.282024,0.290889,-0.025935,-221.671233,0.041231,0.111136,-7.147998,-0.023785,0.007967,-0.014612,-0.181708,0.120882,2.4e-05,-0.000275
64097,0.01007,-0.019653,-0.282566,0.087266,-0.0,-0.0,2.0,0.282024,0.276249,0.282024,0.287634,-0.012191,-221.815806,0.030681,0.244993,-7.364127,-0.025074,0.009936,-0.014611,-0.181713,0.075948,1.2e-05,-0.000273
64117,0.012039,-0.019618,-0.282657,0.087266,-0.0,-0.0,2.0,0.282024,0.280163,0.282024,0.283868,-0.005007,-221.964652,0.028277,0.232959,-7.570206,-0.024533,0.011904,-0.014611,-0.181719,0.076047,1.5e-05,-0.000281
64137,0.014233,-0.019428,-0.282743,0.087266,-0.0,-0.0,2.0,0.282024,0.281693,0.282024,0.282355,-0.000606,-222.117517,0.028246,0.19849,-7.761283,-0.024042,0.013873,-0.01461,-0.181725,0.120849,3.4e-05,-0.000289
64157,0.016341,-0.019498,-0.28288,0.087266,-0.0,-0.0,2.0,0.282024,0.279892,0.282024,0.284133,0.002572,-222.274061,0.029142,0.187793,-7.932502,-0.023598,0.015962,-0.01461,-0.18173,0.096691,3.7e-05,-0.000286
64177,0.01831,-0.019463,-0.282966,0.087266,-0.0,-0.0,2.0,0.282024,0.280082,0.282024,0.283948,0.005397,-222.43385,0.030536,0.185723,-8.079228,-0.023159,0.018053,-0.014609,-0.181736,0.100322,3.1e-05,-0.000311
64197,0.020158,-0.019444,-0.283052,0.087266,-0.0,-0.0,2.0,0.282024,0.27907,0.282024,0.284935,0.008151,-222.596361,0.03231,0.181912,-8.197249,-0.022718,0.020023,-0.014608,-0.181743,0.076032,3.2e-05,-0.000319
64217,0.022006,-0.019426,-0.283138,0.087266,-0.0,-0.0,2.0,0.282024,0.276014,0.282024,0.287856,0.010936,-222.760991,0.034439,0.176531,-8.283008,-0.022282,0.021767,-0.014608,-0.181749,0.096786,3.4e-05,-0.000327
64237,0.02363,-0.019565,-0.283159,0.087266,-0.0,-0.0,2.0,0.282024,0.274139,0.282024,0.289604,0.013859,-222.927071,0.036945,0.170932,-8.333823,-0.021856,0.023476,-0.014607,-0.181755,0.100507,3.4e-05,-0.000328
64257,0.025097,-0.019478,-0.283133,0.087266,-0.0,-0.0,2.0,0.282024,0.273133,0.282024,0.290529,0.017054,-223.093887,0.039895,0.165078,-8.348051,-0.021442,0.025084,-0.014606,-0.181762,0.075741,3e-05,-0.000313
64277,0.02646,-0.019532,-0.282991,0.087266,-0.0,-0.0,2.0,0.282024,0.272715,0.282024,0.290911,0.020679,-223.260698,0.04341,0.158485,-8.3252,-0.021043,0.026569,-0.014606,-0.181768,0.048246,3.7e-05,-0.000322
64297,0.027825,-0.01958,-0.283196,0.087266,-0.0,-0.0,2.0,0.282024,0.268891,0.282024,0.294331,0.024941,-223.426763,0.04768,0.150727,-8.265969,-0.020663,0.027795,-0.014605,-0.181775,0.076018,3.2e-05,-0.00033
64317,0.029051,-0.019528,-0.283172,0.087266,-0.0,-0.0,2.0,0.282024,0.271023,0.282024,0.29244,0.03015,-223.591361,0.053013,0.141302,-8.172204,-0.020306,0.029175,-0.014604,-0.181781,0.072517,2.7e-05,-0.000315
64337,0.030415,-0.01958,-0.283144,0.087266,-0.0,-0.0,2.0,0.282024,0.271504,0.282024,0.292008,0.036806,-223.753812,0.059922,0.129401,-8.046786,-0.019978,0.030522,-0.014604,-0.181788,0.072499,3.4e-05,-0.000323
64357,0.031764,-0.019509,-0.283284,0.087266,-0.0,-0.0,2.0,0.282024,0.271857,0.282024,0.29169,0.04579,-223.913495,0.069327,0.113633,-7.893455,-0.019687,0.031889,-0.014603,-0.181794,0.072516,2.9e-05,-0.000336
64377,0.033474,-0.019386,-0.283364,0.087266,-0.0,-0.0,2.0,0.282024,0.27148,0.282024,0.292029,0.058851,-224.069852,0.083046,0.091407,-7.716599,-0.019443,0.033235,-0.014603,-0.181801,0.096746,3.8e-05,-0.000344
64397,0.035096,-0.019524,-0.283327,0.087266,-0.0,-0.0,2.0,0.282024,0.270776,0.282024,0.292661,0.080034,-224.222384,0.105263,0.057251,-7.521016,-0.019263,0.034842,-0.014602,-0.181808,0.096478,3.6e-05,-0.00034
64417,0.036825,-0.019521,-0.283454,0.087266,-0.0,-0.0,2.0,0.282024,0.276483,0.282024,0.287413,0.121359,-224.370566,0.148282,-0.002827,-7.311683,-0.01918,0.036674,-0.014601,-0.181815,0.100095,3.8e-05,-0.000352
64437,0.038898,-0.019343,-0.283639,0.087266,-0.0,-0.0,2.0,0.282024,0.277769,0.282024,0.286189,0.240978,-224.513356,0.270949,-0.13277,-7.093537,-0.019699,0.038521,-0.0146,-0.181822,0.124325,4.2e-05,-0.00037
64457,0.041007,-0.019412,-0.283638,0.087266,-0.0,-0.0,2.0,0.282024,0.279324,0.282024,0.284688,3.051135,-224.635719,3.087093,-0.554224,-6.871216,-0.039565,0.040613,-0.014599,-0.181829,0.12416,4.7e-05,-0.000369
64477,0.043233,-0.019462,-0.28358,0.087266,-0.0,-0.0,2.0,0.282024,0.281372,0.282024,0.282674,3.155923,-224.502428,3.212432,-1.816315,-6.646303,-0.120795,0.04284,-0.014599,-0.181836,0.124165,4.2e-05,-0.000363
64497,0.045567,-0.019372,-0.283687,0.087266,-0.0,-0.0,2.0,0.282024,0.284781,0.282024,0.279228,3.097219,-224.371207,3.198929,-3.000446,-6.41591,-0.204333,0.04519,-0.014598,-0.181844,0.124424,3.9e-05,-0.000384
64517,0.047932,-0.019523,-0.283736,0.087266,-0.0,-0.0,2.0,0.282024,0.283789,0.282024,0.280243,3.039619,-224.244629,3.210355,-4.114817,-6.177614,-0.28987,0.047416,-0.014597,-0.181851,0.124259,3.3e-05,-0.000366
64537,0.050161,-0.019574,-0.283723,0.087266,-0.0,-0.0,2.0,0.282024,0.28325,0.282024,0.280791,2.969073,-224.1231,3.232068,-5.167243,-5.928797,-0.377115,0.049768,-0.014596,-0.181859,0.100099,2.9e-05,-0.000375
64557,0.052267,-0.019638,-0.283776,0.087266,-0.0,-0.0,2.0,0.282024,0.283297,0.282024,0.280743,2.885545,-224.007245,3.262025,-5.813793,-5.668872,-0.441827,0.052012,-0.014596,-0.181866,0.120718,2.6e-05,-0.000379
64577,0.05448,-0.019564,-0.283878,0.087266,-0.0,-0.0,2.0,0.282024,0.285166,0.282024,0.278831,2.796855,-223.89787,3.29951,-6.019929,-5.407597,-0.478445,0.054224,-0.014595,-0.181874,0.096758,3.1e-05,-0.000377
64597,0.056572,-0.019511,-0.283866,0.087266,-0.0,-0.0,2.0,0.282024,0.279712,0.282024,0.284309,2.707573,-223.795559,3.342994,-6.023117,-5.154421,-0.500536,0.056192,-0.014595,-0.181881,0.100109,2.3e-05,-0.000382
64617,0.058315,-0.019626,-0.283924,0.087266,-0.0,-0.0,2.0,0.282024,0.280779,0.282024,0.283262,2.618718,-223.700602,3.391013,-5.951334,-4.914225,-0.5157,0.058181,-0.014594,-0.181889,0.099947,1.4e-05,-0.00038
64637,0.060166,-0.019604,-0.284031,0.087266,-0.0,-0.0,2.0,0.282024,0.28062,0.282024,0.283418,2.530053,-223.6131,3.442532,-5.855313,-4.689014,-0.527039,0.060027,-0.014594,-0.181897,0.097382,2.8e-05,-0.00039
64657,0.061754,-0.019499,-0.283981,0.087266,-0.0,-0.0,2.0,0.282024,0.27655,0.282024,0.28735,2.441141,-223.533056,3.496868,-5.75086,-4.479404,-0.535624,0.061637,-0.014593,-0.181905,0.072487,2.5e-05,-0.000396
64677,0.063242,-0.019532,-0.283981,0.087266,-0.0,-0.0,2.0,0.282024,0.276538,0.282024,0.287361,2.351779,-223.460422,3.553553,-5.624549,-4.285378,-0.543018,0.063225,-0.014593,-0.181913,0.075905,2.4e-05,-0.00039
64697,0.064709,-0.01944,-0.284049,0.087266,-0.0,-0.0,2.0,0.282024,0.275829,0.282024,0.288029,2.262209,-223.395088,3.612204,-5.482822,-4.106574,-0.549929,0.064696,-0.014592,-0.181921,0.075907,3.3e-05,-0.000401
64717,0.066158,-0.019231,-0.284003,0.087266,-0.0,-0.0,2.0,0.282024,0.272878,0.282024,0.290762,2.17256,-223.336899,3.672477,-5.339211,-3.942165,-0.556387,0.066042,-0.014591,-0.181929,0.096423,5.4e-05,-0.000396
64737,0.067508,-0.019161,-0.284008,0.087266,-0.0,-0.0,2.0,0.282024,0.276757,0.282024,0.287154,2.082927,-223.285676,3.734061,-5.194275,-3.791057,-0.562426,0.067633,-0.01459,-0.181936,0.048424,6.1e-05,-0.000395
64757,0.069095,-0.019055,-0.283954,0.087266,-0.0,-0.0,2.0,0.282024,0.277525,0.282024,0.286423,1.993519,-223.241221,3.796646,-5.046306,-3.65209,-0.568076,0.069082,-0.014589,-0.181944,0.075899,7.1e-05,-0.000389
64777,0.070808,-0.018933,-0.283945,0.087266,-0.0,-0.0,2.0,0.282024,0.279561,0.282024,0.284457,1.904636,-223.203313,3.859917,-4.895403,-3.52408,-0.573365,0.070669,-0.014587,-0.181952,0.097479,9.5e-05,-0.000388
64797,0.072602,-0.018551,-0.283889,0.087266,-0.0,-0.0,2.0,0.282024,0.279367,0.282024,0.284645,1.816619,-223.171705,3.923549,-4.742493,-3.405821,-0.578316,0.072382,-0.014585,-0.18196,0.096527,0.000107,-0.000381
64817,0.074556,-0.018393,-0.283871,0.087266,-0.0,-0.0,2.0,0.282024,0.283193,0.282024,0.280848,1.729821,-223.146126,3.987209,-4.588487,-3.296109,-0.582951,0.074314,-0.014583,-0.181967,0.097529,0.000135,-0.000379
64837,0.076609,-0.018097,-0.2838,0.087266,-0.0,-0.0,2.0,0.282024,0.283731,0.282024,0.280302,1.644598,-223.126273,4.05056,-4.434239,-3.193755,-0.587292,0.076251,-0.01458,-0.181975,0.120657,0.000164,-0.000371
64857,0.078926,-0.017883,-0.283882,0.087266,-0.0,-0.0,2.0,0.282024,0.287678,0.282024,0.276202,1.56129,-223.111822,4.113275,-4.28062,-3.097607,-0.591357,0.078446,-0.014577,-0.181982,0.0967,0.000181,-0.000368
64877,0.081242,-0.017673,-0.283846,0.087266,-0.0,-0.0,2.0,0.282024,0.289355,0.282024,0.274408,1.480208,-223.102422,4.175041,-4.128497,-3.006556,-0.595162,0.080745,-0.014573,-0.18199,0.124187,0.000204,-0.000375
64897,0.08368,-0.01744,-0.28392,0.087266,-0.0,-0.0,2.0,0.282024,0.29376,0.282024,0.26954,1.401624,-223.097703,4.235571,-3.978688,-2.919546,-0.598724,0.083298,-0.014568,-0.181997,0.097817,0.000238,-0.00037
64917,0.086238,-0.01719,-0.283988,0.087266,-0.0,-0.0,2.0,0.282024,0.291898,0.282024,0.271626,1.325761,-223.09728,4.294606,-3.83192,-2.835586,-0.602056,0.085632,-0.014564,-0.182005,0.145852,0.000251,-0.000376
64937,0.088831,-0.01718,-0.284043,0.087266,-0.0,-0.0,2.0,0.282024,0.292849,0.282024,0.270566,1.252793,-223.100756,4.351928,-3.688818,-2.753749,-0.605173,0.088196,-0.014559,-0.182012,0.124172,0.000262,-0.000393
64957,0.091406,-0.017049,-0.284101,0.087266,-0.0,-0.0,2.0,0.282024,0.296953,0.282024,0.265861,1.182836,-223.107727,4.407354,-3.549889,-2.673181,-0.608086,0.090909,-0.014553,-0.18202,0.124275,0.000264,-0.000397
64977,0.093758,-0.017068,-0.284277,0.087266,-0.0,-0.0,2.0,0.282024,0.293014,0.282024,0.270381,1.115958,-223.117792,4.460744,-3.415522,-2.593106,-0.610807,0.093261,-0.014548,-0.182028,0.148214,0.000263,-0.000402
64997,0.096126,-0.017213,-0.284329,0.087266,-0.0,-0.0,2.0,0.282024,0.29427,0.282024,0.26896,1.052173,-223.13055,4.511994,-3.285988,-2.512824,-0.613345,0.095733,-0.014543,-0.182036,0.100117,0.000258,-0.000408
65017,0.098357,-0.017254,-0.284389,0.087266,-0.0,-0.0,2.0,0.282024,0.29203,0.282024,0.27148,0.991456,-223.145611,4.561036,-3.161446,-2.431719,-0.61571,0.097964,-0.014537,-0.182045,0.124088,0.000256,-0.000424
65037,0.100346,-0.017336,-0.284341,0.087266,-0.0,-0.0,2.0,0.282024,0.293622,0.282024,0.269695,0.933743,-223.162595,4.607836,-3.041959,-2.349253,-0.617911,0.100211,-0.014532,-0.182053,0.072624,0.000247,-0.000418
65057,0.102214,-0.017436,-0.284297,0.087266,-0.0,-0.0,2.0,0.282024,0.290656,0.282024,0.272994,0.878939,-223.181138,4.652385,-2.927501,-2.264973,-0.619955,0.10208,-0.014528,-0.182061,0.075965,0.000225,-0.000413
65077,0.103841,-0.01757,-0.284262,0.087266,-0.0,-0.0,2.0,0.282024,0.289538,0.282024,0.274211,0.826926,-223.20089,4.694697,-2.817979,-2.178502,-0.621851,0.103828,-0.014523,-0.18207,0.072525,0.000225,-0.000408
65097,0.105461,-0.017705,-0.284174,0.087266,-0.0,-0.0,2.0,0.282024,0.288707,0.282024,0.275105,0.777567,-223.221521,4.734807,-2.71324,-2.089546,-0.623604,0.105431,-0.014519,-0.182078,0.075942,0.000211,-0.000399
65117,0.106847,-0.017874,-0.284147,0.087266,-0.0,-0.0,2.0,0.282024,0.285301,0.282024,0.278692,0.730716,-223.242717,4.772763,-2.613091,-1.997883,-0.625221,0.106835,-0.014515,-0.182086,0.075856,0.000182,-0.000395
65137,0.108233,-0.018044,-0.28412,0.087266,-0.0,-0.0,2.0,0.282024,0.286796,0.282024,0.277133,0.686219,-223.264186,4.808624,-2.517305,-1.903363,-0.626709,0.108335,-0.014511,-0.182093,0.053146,0.000164,-0.000391
65157,0.10975,-0.018316,-0.284028,0.087266,-0.0,-0.0,2.0,0.282024,0.286987,0.282024,0.276932,0.64392,-223.285653,4.842462,-2.425639,-1.805906,-0.628073,0.10972,-0.014508,-0.182101,0.051785,0.000146,-0.000371
65177,0.111136,-0.018485,-0.283998,0.087266,-0.0,-0.0,2.0,0.282024,0.285281,0.282024,0.278713,0.603665,-223.306862,4.87435,-2.337838,-1.705492,-0.629317,0.111107,-0.014505,-0.182109,0.075748,0.000132,-0.000378
65197,0.112763,-0.018612,-0.284072,0.087266,-0.0,-0.0,2.0,0.282024,0.289931,0.282024,0.273785,0.565307,-223.327578,4.904371,-2.253647,-1.602164,-0.630448,0.112751,-0.014503,-0.182116,0.072437,0.000119,-0.000396
65217,0.114408,-0.018853,-0.284253,0.087266,-0.0,-0.0,2.0,0.282024,0.289096,0.282024,0.274687,0.528702,-223.347583,4.932611,-2.172815,-1.496013,-0.63147,0.11425,-0.0145,-0.182124,0.101301,9.4e-05,-0.000391
65237,0.116173,-0.019082,-0.284312,0.087266,-0.0,-0.0,2.0,0.282024,0.292984,0.282024,0.270415,0.49372,-223.366676,4.959157,-2.095102,-1.387181,-0.632388,0.116022,-0.014499,-0.182132,0.075946,6.9e-05,-0.000396
65257,0.118042,-0.019166,-0.284485,0.087266,-0.0,-0.0,2.0,0.282024,0.295145,0.282024,0.26796,0.460238,-223.384675,4.984101,-2.020281,-1.275852,-0.633206,0.117891,-0.014497,-0.18214,0.075954,6.1e-05,-0.000424
65277,0.119928,-0.019377,-0.284534,0.087266,-0.0,-0.0,2.0,0.282024,0.295275,0.282024,0.26781,0.428147,-223.401416,5.007537,-1.948146,-1.162248,-0.633929,0.119674,-0.014496,-0.182148,0.100006,2.8e-05,-0.000428
65297,0.121831,-0.019709,-0.284574,0.087266,-0.0,-0.0,2.0,0.282024,0.294258,0.282024,0.268975,0.397348,-223.416749,5.029562,-1.878508,-1.046624,-0.634562,0.121543,-0.014496,-0.182157,0.075827,1.7e-05,-0.000433
65317,0.123587,-0.019817,-0.284684,0.087266,-0.0,-0.0,2.0,0.282024,0.296329,0.282024,0.266591,0.367754,-223.430543,5.050273,-1.811201,-0.929262,-0.635108,0.123429,-0.014496,-0.182166,0.075909,-4e-06,-0.000437
65337,0.125352,-0.020045,-0.284734,0.087266,-0.0,-0.0,2.0,0.282024,0.296613,0.282024,0.26626,0.339293,-223.442682,5.069773,-1.74608,-0.810469,-0.635573,0.125194,-0.014496,-0.182175,0.075943,-2.7e-05,-0.000441
65357,0.126894,-0.020436,-0.284672,0.087266,-0.0,-0.0,2.0,0.282024,0.294459,0.282024,0.268746,0.3119,-223.453063,5.088163,-1.683023,-0.690572,-0.635961,0.126839,-0.014497,-0.182183,0.075817,-5.2e-05,-0.000434
65377,0.12829,-0.020716,-0.284688,0.087266,-0.0,-0.0,2.0,0.282024,0.294301,0.282024,0.268926,0.285522,-223.461602,5.105546,-1.621926,-0.569912,-0.636277,0.128381,-0.014498,-0.182192,0.075811,-9e-05,-0.000438
65397,0.129814,-0.020987,-0.284631,0.087266,-0.0,-0.0,2.0,0.282024,0.294086,0.282024,0.26917,0.260118,-223.468227,5.122028,-1.562706,-0.448847,-0.636524,0.129784,-0.0145,-0.182201,0.075811,-0.000119,-0.000433
65417,0.131079,-0.021172,-0.284593,0.087266,-0.0,-0.0,2.0,0.282024,0.293793,0.282024,0.269503,0.23565,-223.472881,5.137713,-1.505295,-0.327744,-0.636707,0.131171,-0.014503,-0.182209,0.048346,-0.000125,-0.000429
65437,0.132173,-0.021013,-0.284584,0.087266,-0.0,-0.0,2.0,0.282024,0.293429,0.282024,0.269914,0.21209,-223.47552,5.152704,-1.44964,-0.206977,-0.63683,0.132411,-0.014505,-0.182218,0.051777,-0.000143,-0.000419
65457,0.133292,-0.021096,-0.284508,0.087266,-0.0,-0.0,2.0,0.282024,0.293615,0.282024,0.269703,0.189414,-223.476116,5.167105,-1.395697,-0.086928,-0.636898,0.133539,-0.014508,-0.182226,0.048333,-0.000139,-0.000416
65477,0.134386,-0.020937,-0.284498,0.087266,-0.0,-0.0,2.0,0.282024,0.293119,0.282024,0.270262,0.1676,-223.474651,5.181015,-1.343432,0.032018,-0.636916,0.134607,-0.014511,-0.182235,0.02939,-0.000125,-0.000415
65497,0.13535,-0.020796,-0.284443,0.087266,-0.0,-0.0,2.0,0.282024,0.29165,0.282024,0.271901,0.146629,-223.471121,5.194529,-1.292813,0.149473,-0.636886,0.135597,-0.014513,-0.182243,0.048205,-0.000109,-0.000408
65517,0.13634,-0.020767,-0.284547,0.087266,-0.0,-0.0,2.0,0.282024,0.292235,0.282024,0.271251,0.126483,-223.465533,5.207739,-1.243812,0.265048,-0.636814,0.136587,-0.014515,-0.182251,0.048238,-0.000106,-0.000418
65537,0.137348,-0.020866,-0.284528,0.087266,-0.0,-0.0,2.0,0.282024,0.292392,0.282024,0.271076,0.107141,-223.457908,5.220732,-1.196398,0.378352,-0.636703,0.137569,-0.014517,-0.182259,0.048217,-0.000103,-0.000411
65557,0.138347,-0.020966,-0.284456,0.087266,-0.0,-0.0,2.0,0.282024,0.293079,0.282024,0.270308,0.088581,-223.448275,5.233586,-1.150538,0.488998,-0.636557,0.138577,-0.01452,-0.182268,0.048214,-0.000113,-0.000408
65577,0.139354,-0.021066,-0.284435,0.087266,-0.0,-0.0,2.0,0.282024,0.293402,0.282024,0.269944,0.070779,-223.436678,5.246375,-1.106192,0.596599,-0.636381,0.139558,-0.014522,-0.182276,0.05337,-0.000122,-0.000417
65597,0.140336,-0.021036,-0.284487,0.087266,-0.0,-0.0,2.0,0.282024,0.294227,0.282024,0.269009,0.053708,-223.423167,5.259167,-1.063315,0.700772,-0.636177,0.140566,-0.014524,-0.182284,0.051689,-0.000132,-0.000409
65617,0.141343,-0.021136,-0.284465,0.087266,-0.0,-0.0,2.0,0.282024,0.294794,0.282024,0.268363,0.037336,-223.407805,5.272019,-1.021853,0.801141,-0.63595,0.141573,-0.014527,-0.182292,0.048211,-0.000129,-0.000406
65637,0.142316,-0.020994,-0.284459,0.087266,-0.0,-0.0,2.0,0.282024,0.297888,0.282024,0.264759,0.021629,-223.390663,5.284986,-0.981747,0.897336,-0.635702,0.142675,-0.01453,-0.1823,0.050047,-0.000125,-0.000404
65657,0.143418,-0.020947,-0.284502,0.087266,-0.0,-0.0,2.0,0.282024,0.296702,0.282024,0.266155,0.006548,-223.371822,5.298113,-0.942927,0.988995,-0.635437,0.143666,-0.014532,-0.182308,0.048202,-0.000122,-0.000408
65677,0.144409,-0.020926,-0.284487,0.087266,-0.0,-0.0,2.0,0.282024,0.296461,0.282024,0.266436,-0.007946,-223.35137,5.311439,-0.905319,1.075767,-0.635158,0.144639,-0.014535,-0.182316,0.051661,-0.00012,-0.000405
65697,0.14527,-0.020914,-0.284544,0.087266,-0.0,-0.0,2.0,0.282024,0.295432,0.282024,0.26763,-0.021897,-223.329405,5.325001,-0.868842,1.157314,-0.634867,0.1455,-0.014537,-0.182324,0.048206,-0.000107,-0.0004
65717,0.145898,-0.020955,-0.284435,0.087266,-0.0,-0.0,2.0,0.282024,0.296034,0.282024,0.266934,-0.035351,-223.306031,5.338825,-0.833409,1.233314,-0.634569,0.146369,-0.014539,-0.182332,0.027646,-0.00012,-0.000398
65737,0.146639,-0.020969,-0.284382,0.087266,-0.0,-0.0,2.0,0.282024,0.293794,0.282024,0.269501,-0.048354,-223.28136,5.352937,-0.798932,1.303463,-0.634265,0.14699,-0.014541,-0.18234,0.027535,-0.000123,-0.000393
65757,0.147147,-0.02101,-0.284511,0.087266,-0.0,-0.0,2.0,0.282024,0.294046,0.282024,0.269216,-0.060951,-223.255512,5.367357,-0.765318,1.367477,-0.633958,0.147627,-0.014544,-0.182348,0.025917,-0.000125,-0.000404
65777,0.147526,-0.021077,-0.284481,0.087266,-0.0,-0.0,2.0,0.282024,0.293782,0.282024,0.269515,-0.073191,-223.228611,5.382101,-0.732474,1.425094,-0.63365,0.148135,-0.014546,-0.182356,0.000116,-0.000132,-0.0004
65797,0.147767,-0.021041,-0.284466,0.087266,-0.0,-0.0,2.0,0.282024,0.291597,0.282024,0.27196,-0.08512,-223.200787,5.397182,-0.700308,1.476081,-0.633344,0.148359,-0.014549,-0.182364,0.003537,-0.000128,-0.000398
65817,0.14799,-0.020886,-0.28446,0.087266,-0.0,-0.0,2.0,0.282024,0.290945,0.282024,0.272677,-0.096781,-223.172175,5.412612,-0.66873,1.520231,-0.633042,0.148618,-0.014552,-0.182372,-1e-06,-0.000124,-0.000396
65837,0.148128,-0.020988,-0.284444,0.087266,-0.0,-0.0,2.0,0.282024,0.28996,0.282024,0.273753,-0.108219,-223.142915,5.428396,-0.637651,1.55737,-0.632745,0.148738,-0.014554,-0.18238,0.023997,-0.00012,-0.000405
65857,0.148378,-0.020944,-0.284596,0.087266,-0.0,-0.0,2.0,0.282024,0.291263,0.282024,0.272328,-0.119473,-223.11315,5.444542,-0.606988,1.587354,-0.632456,0.148979,-0.014556,-0.182388,-1e-06,-0.000119,-0.000392
65877,0.148516,-0.021047,-0.28458,0.087266,-0.0,-0.0,2.0,0.282024,0.291147,0.282024,0.272456,-0.13058,-223.083025,5.461051,-0.576662,1.610077,-0.632177,0.149126,-0.014559,-0.182396,1.1e-05,-0.000128,-0.000406
65897,0.148654,-0.021158,-0.284448,0.087266,-0.0,-0.0,2.0,0.282024,0.291085,0.282024,0.272524,-0.141575,-223.052687,5.477923,-0.546602,1.625469,-0.631908,0.149247,-0.014561,-0.182404,-0.0,-0.000126,-0.000405
65917,0.148757,-0.021011,-0.284565,0.087266,-0.0,-0.0,2.0,0.282024,0.291386,0.282024,0.272192,-0.152487,-223.022285,5.495157,-0.516742,1.633495,-0.631651,0.149367,-0.014564,-0.182412,0.003449,-0.000136,-0.000402
65937,0.148895,-0.021114,-0.284549,0.087266,-0.0,-0.0,2.0,0.282024,0.292091,0.282024,0.271412,-0.163341,-222.991968,5.512746,-0.487027,1.634162,-0.631408,0.149505,-0.014566,-0.18242,0.023997,-0.000132,-0.0004
65957,0.149016,-0.021105,-0.284426,0.087266,-0.0,-0.0,2.0,0.282024,0.294414,0.282024,0.268797,-0.174158,-222.961884,5.530683,-0.457409,1.627512,-0.63118,0.149728,-0.014569,-0.182428,0.00354,-0.00013,-0.000398
65977,0.149239,-0.02094,-0.284536,0.087266,-0.0,-0.0,2.0,0.282024,0.293508,0.282024,0.269824,-0.184952,-222.932178,5.548955,-0.427851,1.613625,-0.630967,0.149849,-0.014571,-0.182436,0.024002,-0.000114,-0.000397
65997,0.149497,-0.021025,-0.284512,0.087266,-0.0,-0.0,2.0,0.282024,0.294585,0.282024,0.268602,-0.195733,-222.902995,5.567545,-0.398328,1.59262,-0.63077,0.150107,-0.014574,-0.182444,0.023996,-0.000122,-0.000394
66017,0.149635,-0.021128,-0.284496,0.087266,-0.0,-0.0,2.0,0.282024,0.29622,0.282024,0.266717,-0.206504,-222.874474,5.586434,-0.368827,1.564649,-0.63059,0.150348,-0.014576,-0.182452,0.003548,-0.000132,-0.000391
66037,0.149903,-0.021213,-0.284524,0.087266,-0.0,-0.0,2.0,0.282024,0.295065,0.282024,0.268052,-0.217261,-222.846752,5.605595,-0.339346,1.529899,-0.630426,0.150486,-0.014579,-0.182459,-1e-06,-0.00013,-0.00039
66057,0.150006,-0.021084,-0.284409,0.087266,-0.0,-0.0,2.0,0.282024,0.29441,0.282024,0.268801,-0.227994,-222.81996,5.624998,-0.309899,1.488589,-0.63028,0.150616,-0.014582,-0.182467,0.003444,-0.000141,-0.000381
66077,0.150006,-0.021075,-0.284525,0.087266,-0.0,-0.0,2.0,0.282024,0.29536,0.282024,0.267712,-0.238687,-222.794222,5.644605,-0.280513,1.440968,-0.630151,0.150754,-0.014584,-0.182475,-0.003438,-0.000126,-0.000392
66097,0.150126,-0.021057,-0.284517,0.087266,-0.0,-0.0,2.0,0.282024,0.296122,0.282024,0.266831,-0.249316,-222.769657,5.664375,-0.251228,1.38731,-0.630038,0.150857,-0.014587,-0.182483,-4e-06,-0.000124,-0.00039
66117,0.150006,-0.021084,-0.284409,0.087266,-0.0,-0.0,2.0,0.282024,0.295209,0.282024,0.267886,-0.259851,-222.746376,5.684259,-0.2221,1.327916,-0.629941,0.150857,-0.014589,-0.18249,0.0,-0.000125,-0.000378
66137,0.149997,-0.021084,-0.284358,0.087266,-0.0,-0.0,2.0,0.282024,0.293429,0.282024,0.269913,-0.270254,-222.724482,5.704202,-0.193197,1.263106,-0.62986,0.150737,-0.014592,-0.182498,-0.003545,-0.000114,-0.000379
66157,0.149876,-0.021102,-0.284365,0.087266,-0.0,-0.0,2.0,0.282024,0.295977,0.282024,0.266999,-0.280485,-222.70407,5.724143,-0.164603,1.19322,-0.629794,0.150736,-0.014594,-0.182506,2e-06,-0.000125,-0.000389
66177,0.150006,-0.021075,-0.284525,0.087266,-0.0,-0.0,2.0,0.282024,0.296816,0.282024,0.266022,-0.290495,-222.685226,5.744017,-0.136411,1.118616,-0.629741,0.150727,-0.014597,-0.182513,-0.018716,-0.00014,-0.000376
66197,0.150006,-0.021084,-0.284409,0.087266,-0.0,-0.0,2.0,0.282024,0.297449,0.282024,0.265277,-0.300233,-222.668026,5.763754,-0.108725,1.039663,-0.629701,0.150754,-0.014599,-0.182521,-0.003435,-0.000126,-0.000376
66217,0.150006,-0.021084,-0.284409,0.087266,-0.0,-0.0,2.0,0.282024,0.296904,0.282024,0.265918,-0.309645,-222.65254,5.78328,-0.08166,0.956744,-0.629671,0.150736,-0.014602,-0.182528,-8e-06,-0.000125,-0.000375
66237,0.150126,-0.021057,-0.284517,0.087266,-0.0,-0.0,2.0,0.282024,0.29886,0.282024,0.263601,-0.318673,-222.638825,5.802517,-0.055331,0.87025,-0.629652,0.150857,-0.014604,-0.182536,-0.024,-0.000124,-0.000386
66257,0.149989,-0.020954,-0.284533,0.087266,-0.0,-0.0,2.0,0.282024,0.298352,0.282024,0.264207,-0.327262,-222.626932,5.821389,-0.029861,0.780581,-0.629641,0.150857,-0.014607,-0.182544,-0.003452,-0.00011,-0.000385
66277,0.149886,-0.021102,-0.284416,0.087266,-0.0,-0.0,2.0,0.282024,0.297591,0.282024,0.26511,-0.335357,-222.616901,5.839818,-0.005369,0.688141,-0.629636,0.150719,-0.014609,-0.182551,0.003461,-0.000125,-0.000373
66297,0.149756,-0.02112,-0.284373,0.087266,-0.0,-0.0,2.0,0.282024,0.296593,0.282024,0.266282,-0.342906,-222.608763,5.857729,0.018029,0.59334,-0.629637,0.150607,-0.014612,-0.182559,-0.024095,-0.000128,-0.000368
66317,0.149635,-0.021137,-0.28438,0.087266,-0.0,-0.0,2.0,0.282024,0.298762,0.282024,0.263718,-0.349862,-222.602543,5.875051,0.040224,0.49659,-0.629641,0.150504,-0.014614,-0.182566,-0.003452,-0.000128,-0.000368
66337,0.149635,-0.021128,-0.284496,0.087266,-0.0,-0.0,2.0,0.282024,0.298653,0.282024,0.263848,-0.356182,-222.598256,5.891719,0.061121,0.398308,-0.629647,0.150366,-0.014617,-0.182574,-0.0,-0.000128,-0.000379
66357,0.149635,-0.021128,-0.284496,0.087266,-0.0,-0.0,2.0,0.282024,0.299748,0.282024,0.26253,-0.361835,-222.595909,5.907673,0.080635,0.298909,-0.629655,0.150366,-0.014619,-0.182581,-6e-06,-0.000128,-0.000378
66377,0.149756,-0.02112,-0.284373,0.087266,-0.0,-0.0,2.0,0.282024,0.300184,0.282024,0.262002,-0.366794,-222.595503,5.922864,0.0987,0.19881,-0.629661,0.150366,-0.014622,-0.182589,6e-06,-0.000129,-0.000366
66397,0.149738,-0.020999,-0.284381,0.087266,-0.0,-0.0,2.0,0.282024,0.301255,0.282024,0.26069,-0.371043,-222.597032,5.93725,0.115268,0.098428,-0.629666,0.150486,-0.014624,-0.182596,-0.024006,-0.000127,-0.000377
66417,0.149635,-0.021128,-0.284496,0.087266,-0.0,-0.0,2.0,0.282024,0.30012,0.282024,0.262079,-0.374576,-222.600481,5.9508,0.130313,-0.001821,-0.629668,0.150366,-0.014627,-0.182603,0.024,-0.000125,-0.000375
66437,0.149532,-0.021275,-0.284379,0.087266,-0.0,-0.0,2.0,0.282024,0.300972,0.282024,0.261039,-0.377396,-222.605832,5.963494,0.143826,-0.101524,-0.629667,0.150366,-0.014629,-0.182611,0.003452,-0.00014,-0.000363
66457,0.149274,-0.02119,-0.284403,0.087266,-0.0,-0.0,2.0,0.282024,0.298539,0.282024,0.263984,-0.379517,-222.61306,5.975324,0.155823,-0.200267,-0.629661,0.150142,-0.014632,-0.182618,-0.003537,-0.000131,-0.000365
66477,0.149153,-0.021208,-0.28441,0.087266,-0.0,-0.0,2.0,0.282024,0.298607,0.282024,0.263903,-0.380958,-222.622132,5.986289,0.166335,-0.297641,-0.62965,0.149902,-0.014635,-0.182625,-0.003551,-0.000134,-0.000365
66497,0.149033,-0.021226,-0.284418,0.087266,-0.0,-0.0,2.0,0.282024,0.300775,0.282024,0.261279,-0.38175,-222.633011,5.996403,0.175415,-0.39324,-0.629633,0.149763,-0.014638,-0.182633,-2e-06,-0.000135,-0.000377
66517,0.148895,-0.021114,-0.284549,0.087266,-0.0,-0.0,2.0,0.282024,0.300907,0.282024,0.261118,-0.381929,-222.645656,6.005685,0.18313,-0.486662,-0.62961,0.149626,-0.01464,-0.18264,-1.7e-05,-0.000124,-0.000378
66537,0.148757,-0.021011,-0.284565,0.087266,-0.0,-0.0,2.0,0.282024,0.301442,0.282024,0.260459,-0.381536,-222.660017,6.014165,0.18956,-0.577511,-0.629582,0.149488,-0.014643,-0.182648,0.003452,-0.000127,-0.000366
66557,0.148637,-0.021038,-0.284457,0.087266,-0.0,-0.0,2.0,0.282024,0.300619,0.282024,0.261471,-0.380618,-222.676039,6.02188,0.194798,-0.665397,-0.629547,0.149368,-0.014645,-0.182655,-0.003548,-0.000104,-0.000368
66577,0.148637,-0.021038,-0.284457,0.087266,-0.0,-0.0,2.0,0.282024,0.303695,0.282024,0.25764,-0.379222,-222.693662,6.028872,0.198944,-0.749937,-0.629507,0.149367,-0.014647,-0.182662,-0.0,-0.000116,-0.000366
66597,0.148654,-0.021158,-0.284448,0.087266,-0.0,-0.0,2.0,0.282024,0.307201,0.282024,0.253098,-0.377399,-222.712821,6.035189,0.202101,-0.83076,-0.629461,0.149504,-0.01465,-0.18267,-0.023892,-0.000128,-0.000365
66617,0.148775,-0.021141,-0.284441,0.087266,-0.0,-0.0,2.0,0.282024,0.305795,0.282024,0.254942,-0.375199,-222.733443,6.040884,0.204378,-0.907503,-0.62941,0.149505,-0.014652,-0.182677,-1e-06,-0.000126,-0.000363
66637,0.148775,-0.021141,-0.284441,0.087266,-0.0,-0.0,2.0,0.282024,0.306365,0.282024,0.254198,-0.372671,-222.755451,6.046011,0.205878,-0.979818,-0.629353,0.149504,-0.014655,-0.182684,0.0001,-0.000127,-0.000351
66657,0.148757,-0.02102,-0.284449,0.087266,-0.0,-0.0,2.0,0.282024,0.305454,0.282024,0.255385,-0.369863,-222.778759,6.050627,0.206707,-1.047369,-0.629292,0.149505,-0.014657,-0.182691,0.0,-0.000125,-0.000362
66677,0.148637,-0.021038,-0.284457,0.087266,-0.0,-0.0,2.0,0.282024,0.302978,0.282024,0.258546,-0.366818,-222.80328,6.054791,0.206962,-1.109841,-0.629227,0.149368,-0.01466,-0.182699,-0.003551,-0.000102,-0.000375
66697,0.148499,-0.020926,-0.284589,0.087266,-0.0,-0.0,2.0,0.282024,0.306857,0.282024,0.253552,-0.363578,-222.828916,6.05856,0.206734,-1.166934,-0.629158,0.149349,-0.014662,-0.182706,-0.023914,-0.000104,-0.000364
66717,0.148231,-0.02085,-0.284445,0.087266,-0.0,-0.0,2.0,0.282024,0.304409,0.282024,0.25673,-0.360177,-222.855569,6.061993,0.206107,-1.218373,-0.629086,0.149082,-0.014664,-0.182713,0.003445,-0.000107,-0.000347
66737,0.148008,-0.021015,-0.284336,0.087266,-0.0,-0.0,2.0,0.282024,0.304566,0.282024,0.25653,-0.35665,-222.883131,6.065146,0.205153,-1.263904,-0.629012,0.148841,-0.014666,-0.18272,0.003449,-0.00011,-0.000348
66757,0.14787,-0.020912,-0.284351,0.087266,-0.0,-0.0,2.0,0.282024,0.305919,0.282024,0.254782,-0.353021,-222.911493,6.068078,0.203938,-1.303299,-0.628935,0.148721,-0.014668,-0.182727,-0.020562,-0.000114,-0.000348
66777,0.14787,-0.020912,-0.284351,0.087266,-0.0,-0.0,2.0,0.282024,0.306039,0.282024,0.254625,-0.349313,-222.940539,6.070844,0.202515,-1.336361,-0.628856,0.148618,-0.01467,-0.182734,-0.003531,-0.000101,-0.000349
66797,0.14787,-0.020922,-0.284235,0.087266,-0.0,-0.0,2.0,0.282024,0.307637,0.282024,0.252519,-0.345544,-222.970149,6.073497,0.200925,-1.362919,-0.628776,0.1486,-0.014672,-0.182741,-0.003446,-9e-05,-0.000337
66817,0.147991,-0.020904,-0.284228,0.087266,-0.0,-0.0,2.0,0.282024,0.30783,0.282024,0.252263,-0.341724,-223.000202,6.076092,0.1992,-1.382836,-0.628695,0.148583,-0.014674,-0.182748,0.023985,-8.8e-05,-0.000336
66837,0.147991,-0.020904,-0.284228,0.087266,-0.0,-0.0,2.0,0.282024,0.309118,0.282024,0.25053,-0.337861,-223.030573,6.07868,0.197362,-1.396007,-0.628614,0.148721,-0.014676,-0.182755,1.4e-05,-0.0001,-0.000334
66857,0.14787,-0.020922,-0.284235,0.087266,-0.0,-0.0,2.0,0.282024,0.308939,0.282024,0.250773,-0.333957,-223.061133,6.081312,0.195421,-1.402361,-0.628533,0.148721,-0.014678,-0.182761,0.0,-0.0001,-0.000334
66877,0.14775,-0.020939,-0.284243,0.087266,-0.0,-0.0,2.0,0.282024,0.307304,0.282024,0.252962,-0.33001,-223.091753,6.084037,0.193377,-1.401864,-0.628453,0.148601,-0.01468,-0.182768,-0.0001,-0.000101,-0.000334
66897,0.147629,-0.020957,-0.28425,0.087266,-0.0,-0.0,2.0,0.282024,0.308807,0.282024,0.25095,-0.326014,-223.122304,6.086906,0.191222,-1.394513,-0.628373,0.14848,-0.014682,-0.182775,0.0,-0.000103,-0.000334
66917,0.147371,-0.020872,-0.284273,0.087266,-0.0,-0.0,2.0,0.282024,0.307668,0.282024,0.252478,-0.32196,-223.152655,6.089965,0.188939,-1.380345,-0.628296,0.148222,-0.014684,-0.182781,-0.024002,-9.6e-05,-0.000336
66937,0.147086,-0.020666,-0.284254,0.087266,-0.0,-0.0,2.0,0.282024,0.30654,0.282024,0.25397,-0.317834,-223.182675,6.093262,0.186502,-1.359427,-0.62822,0.147955,-0.014686,-0.182788,-0.024117,-8.7e-05,-0.000333
66957,0.146828,-0.02059,-0.284161,0.087266,-0.0,-0.0,2.0,0.282024,0.307073,0.282024,0.253267,-0.31362,-223.212236,6.096843,0.18388,-1.331862,-0.628146,0.147696,-0.014688,-0.182795,-0.00011,-7.8e-05,-0.000322
66977,0.146466,-0.020643,-0.284183,0.087266,-0.0,-0.0,2.0,0.282024,0.308512,0.282024,0.251348,-0.309301,-223.24121,6.100754,0.181035,-1.297787,-0.628075,0.147438,-0.014689,-0.182801,-0.023996,-7.1e-05,-0.000324
66997,0.146225,-0.020679,-0.284198,0.087266,-0.0,-0.0,2.0,0.282024,0.307367,0.282024,0.252878,-0.304856,-223.269471,6.105039,0.177925,-1.257366,-0.628007,0.147077,-0.01469,-0.182808,-0.003548,-6.2e-05,-0.000326
67017,0.145837,-0.020611,-0.284177,0.087266,-0.0,-0.0,2.0,0.282024,0.308999,0.282024,0.250691,-0.300265,-223.296897,6.109741,0.174503,-1.210796,-0.627943,0.146818,-0.014692,-0.182814,-0.049791,-6.9e-05,-0.000323
67037,0.145459,-0.020553,-0.284091,0.087266,-0.0,-0.0,2.0,0.282024,0.30822,0.282024,0.25174,-0.295506,-223.323367,6.114901,0.170721,-1.158299,-0.627882,0.146448,-0.014693,-0.182821,-0.024102,-7.3e-05,-0.000312
67057,0.145097,-0.020597,-0.284229,0.087266,-0.0,-0.0,2.0,0.282024,0.306525,0.282024,0.253989,-0.290558,-223.348767,6.120559,0.166531,-1.100122,-0.627826,0.145949,-0.014695,-0.182827,-0.000119,-6.6e-05,-0.000326
67077,0.144718,-0.020529,-0.284259,0.087266,-0.0,-0.0,2.0,0.282024,0.309476,0.282024,0.250043,-0.285402,-223.372984,6.126751,0.161886,-1.036535,-0.627773,0.14569,-0.014696,-0.182834,-0.048025,-6.1e-05,-0.000318
67097,0.14421,-0.020488,-0.284129,0.087266,-0.0,-0.0,2.0,0.282024,0.307877,0.282024,0.2522,-0.280019,-223.395911,6.133512,0.15674,-0.967828,-0.627726,0.145208,-0.014697,-0.18284,-0.027536,-5.4e-05,-0.000332
67117,0.143711,-0.02043,-0.284282,0.087266,-0.0,-0.0,2.0,0.282024,0.307385,0.282024,0.252854,-0.274394,-223.417445,6.140872,0.151055,-0.89431,-0.627683,0.1447,-0.014698,-0.182847,-0.02755,-4.9e-05,-0.00033
67137,0.143211,-0.02038,-0.284318,0.087266,-0.0,-0.0,2.0,0.282024,0.307626,0.282024,0.252534,-0.268517,-223.437491,6.148855,0.144798,-0.816303,-0.627645,0.1442,-0.014699,-0.182853,-0.024107,-5.5e-05,-0.000332
67157,0.142583,-0.020357,-0.284195,0.087266,-0.0,-0.0,2.0,0.282024,0.305164,0.282024,0.255761,-0.262378,-223.455956,6.157483,0.137943,-0.734146,-0.627612,0.143581,-0.0147,-0.18286,-0.027652,-4e-05,-0.000336
67177,0.141859,-0.020463,-0.284238,0.087266,-0.0,-0.0,2.0,0.282024,0.306474,0.282024,0.254056,-0.255978,-223.472754,6.16677,0.130476,-0.648189,-0.627584,0.142952,-0.014701,-0.182866,-0.048115,-5.2e-05,-0.000323
67197,0.141119,-0.020448,-0.284289,0.087266,-0.0,-0.0,2.0,0.282024,0.306318,0.282024,0.25426,-0.249319,-223.487807,6.176723,0.122395,-0.558792,-0.627561,0.142211,-0.014702,-0.182873,-0.024104,-4.8e-05,-0.000327
67217,0.140387,-0.020554,-0.28428,0.087266,-0.0,-0.0,2.0,0.282024,0.306226,0.282024,0.254381,-0.242413,-223.501042,6.187342,0.11371,-0.466324,-0.627543,0.141479,-0.014703,-0.182879,-0.027552,-4.7e-05,-0.000326
67237,0.13975,-0.020401,-0.284331,0.087266,-0.0,-0.0,2.0,0.282024,0.305027,0.282024,0.255938,-0.235277,-223.512392,6.198622,0.104448,-0.371161,-0.627529,0.140739,-0.014704,-0.182886,-0.024206,-5.7e-05,-0.00033
67257,0.139035,-0.020636,-0.284198,0.087266,-0.0,-0.0,2.0,0.282024,0.305839,0.282024,0.254885,-0.227935,-223.521799,6.210546,0.094648,-0.273689,-0.627519,0.140128,-0.014705,-0.182892,-0.02421,-6.7e-05,-0.000316
67277,0.138415,-0.020604,-0.284241,0.087266,-0.0,-0.0,2.0,0.282024,0.305274,0.282024,0.255619,-0.220417,-223.529212,6.223092,0.084365,-0.174296,-0.627512,0.139388,-0.014707,-0.182899,-0.024209,-6.5e-05,-0.00032
67297,0.137666,-0.020589,-0.28424,0.087266,-0.0,-0.0,2.0,0.282024,0.307335,0.282024,0.25292,-0.212762,-223.534588,6.236231,0.073669,-0.07338,-0.627509,0.138767,-0.014708,-0.182905,-0.049816,-6.4e-05,-0.00032
67317,0.137046,-0.020557,-0.284282,0.087266,-0.0,-0.0,2.0,0.282024,0.308803,0.282024,0.250956,-0.205012,-223.53789,6.249923,0.062645,0.028659,-0.627508,0.138156,-0.014709,-0.182912,-0.02411,-7e-05,-0.000322
67337,0.136564,-0.020619,-0.284425,0.087266,-0.0,-0.0,2.0,0.282024,0.308651,0.282024,0.251161,-0.197216,-223.539093,6.264127,0.051386,0.131414,-0.62751,0.137536,-0.01471,-0.182918,-0.024113,-6.7e-05,-0.000325
67357,0.136064,-0.020569,-0.284461,0.087266,-0.0,-0.0,2.0,0.282024,0.30957,0.282024,0.249915,-0.189425,-223.538179,6.278794,0.039998,0.234473,-0.627512,0.137054,-0.014712,-0.182925,-0.02411,-7.3e-05,-0.000339
67377,0.135574,-0.02064,-0.284437,0.087266,-0.0,-0.0,2.0,0.282024,0.309526,0.282024,0.249975,-0.181694,-223.535139,6.293871,0.028594,0.33742,-0.627515,0.136546,-0.014713,-0.182932,-0.024117,-6.8e-05,-0.000337
67397,0.135074,-0.02059,-0.284472,0.087266,-0.0,-0.0,2.0,0.282024,0.309601,0.282024,0.249873,-0.174077,-223.529973,6.309303,0.017291,0.439835,-0.627517,0.136046,-0.014715,-0.182938,-0.020678,-7.5e-05,-0.000339
67417,0.134592,-0.020669,-0.284383,0.087266,-0.0,-0.0,2.0,0.282024,0.309914,0.282024,0.249446,-0.166629,-223.522692,6.325034,0.006205,0.541293,-0.627519,0.135564,-0.014716,-0.182945,-0.024121,-7e-05,-0.000342
67437,0.133981,-0.020757,-0.284366,0.087266,-0.0,-0.0,2.0,0.282024,0.307716,0.282024,0.252414,-0.159405,-223.513316,6.34101,-0.004547,0.641366,-0.62752,0.134962,-0.014717,-0.182952,-0.025859,-7.9e-05,-0.000328
67457,0.133481,-0.020707,-0.284401,0.087266,-0.0,-0.0,2.0,0.282024,0.310122,0.282024,0.24916,-0.152453,-223.501875,6.357176,-0.014852,0.739623,-0.627518,0.134453,-0.014719,-0.182958,-0.024113,-7.4e-05,-0.000331
67477,0.132879,-0.020795,-0.284435,0.087266,-0.0,-0.0,2.0,0.282024,0.309318,0.282024,0.250258,-0.145822,-223.488407,6.373483,-0.024608,0.835632,-0.627514,0.133851,-0.014721,-0.182965,-0.024113,-8.3e-05,-0.000333
67497,0.13213,-0.020789,-0.284316,0.087266,-0.0,-0.0,2.0,0.282024,0.309226,0.282024,0.250384,-0.139551,-223.472963,6.389884,-0.033717,0.92896,-0.627506,0.13324,-0.014722,-0.182972,-0.024146,-9.2e-05,-0.000319
67517,0.13151,-0.020748,-0.284473,0.087266,-0.0,-0.0,2.0,0.282024,0.310056,0.282024,0.249251,-0.133677,-223.455601,6.406339,-0.042096,1.019179,-0.627496,0.13262,-0.014724,-0.182978,-0.04813,-9e-05,-0.000335
67537,0.130907,-0.020844,-0.28439,0.087266,-0.0,-0.0,2.0,0.282024,0.310398,0.282024,0.248781,-0.128231,-223.43639,6.422812,-0.049672,1.105859,-0.627482,0.131999,-0.014726,-0.182985,-0.024124,-8.5e-05,-0.000338
67557,0.130158,-0.020821,-0.284502,0.087266,-0.0,-0.0,2.0,0.282024,0.308993,0.282024,0.250699,-0.123238,-223.415408,6.439274,-0.056384,1.188579,-0.627465,0.131268,-0.014728,-0.182992,-0.024122,-9.5e-05,-0.000336
67577,0.129417,-0.020807,-0.284549,0.087266,-0.0,-0.0,2.0,0.282024,0.309047,0.282024,0.250627,-0.118717,-223.392742,6.455702,-0.062184,1.266927,-0.627443,0.130527,-0.014729,-0.182998,-0.051582,-8.3e-05,-0.000341
67597,0.128548,-0.02081,-0.284551,0.087266,-0.0,-0.0,2.0,0.282024,0.309139,0.282024,0.250501,-0.114681,-223.368489,6.47208,-0.067034,1.340502,-0.627419,0.129769,-0.014731,-0.183005,-0.049732,-8.1e-05,-0.00034
67617,0.127687,-0.020812,-0.284605,0.087266,-0.0,-0.0,2.0,0.282024,0.305943,0.282024,0.25475,-0.111139,-223.342751,6.488395,-0.07091,1.408916,-0.627392,0.12878,-0.014733,-0.183012,-0.044797,-9.5e-05,-0.000345
67637,0.126697,-0.020833,-0.284613,0.087266,-0.0,-0.0,2.0,0.282024,0.307721,0.282024,0.252407,-0.108096,-223.315642,6.504643,-0.073795,1.471799,-0.627361,0.127918,-0.014734,-0.183019,-0.04815,-8.3e-05,-0.00035
67657,0.125594,-0.020879,-0.284562,0.087266,-0.0,-0.0,2.0,0.282024,0.305903,0.282024,0.254803,-0.105553,-223.287282,6.520823,-0.075682,1.528804,-0.627328,0.126928,-0.014736,-0.183026,-0.048249,-8.6e-05,-0.000339
67677,0.124604,-0.020899,-0.284569,0.087266,-0.0,-0.0,2.0,0.282024,0.305177,0.282024,0.255744,-0.103507,-223.257796,6.536938,-0.076572,1.579607,-0.627294,0.125818,-0.014738,-0.183033,-0.048244,-9e-05,-0.000339
67697,0.123476,-0.020824,-0.284474,0.087266,-0.0,-0.0,2.0,0.282024,0.304621,0.282024,0.25646,-0.101954,-223.227319,6.552997,-0.07647,1.623913,-0.627258,0.124715,-0.01474,-0.183039,-0.051725,-8.2e-05,-0.000334
67717,0.122253,-0.02088,-0.284544,0.087266,-0.0,-0.0,2.0,0.282024,0.304667,0.282024,0.2564,-0.100885,-223.195988,6.56901,-0.07539,1.661457,-0.627221,0.123605,-0.014741,-0.183046,-0.048242,-9.8e-05,-0.000334
67737,0.121246,-0.020787,-0.284441,0.087266,-0.0,-0.0,2.0,0.282024,0.304749,0.282024,0.256295,-0.100292,-223.163948,6.584991,-0.073346,1.69201,-0.627184,0.122477,-0.014743,-0.183053,-0.048262,-9e-05,-0.000324
67757,0.120143,-0.020832,-0.284388,0.087266,-0.0,-0.0,2.0,0.282024,0.304604,0.282024,0.256481,-0.100166,-223.131347,6.600953,-0.070357,1.715378,-0.627148,0.121374,-0.014745,-0.183059,-0.048243,-9.4e-05,-0.000329
67777,0.119153,-0.020845,-0.284509,0.087266,-0.0,-0.0,2.0,0.282024,0.305825,0.282024,0.254904,-0.100494,-223.098336,6.616915,-0.066443,1.731408,-0.627113,0.120384,-0.014747,-0.183066,-0.051691,-8.3e-05,-0.00033
67797,0.118171,-0.020872,-0.284449,0.087266,-0.0,-0.0,2.0,0.282024,0.306006,0.282024,0.254668,-0.101264,-223.065069,6.632894,-0.061628,1.739988,-0.62708,0.119402,-0.014749,-0.183072,-0.051693,-8.6e-05,-0.000323
67817,0.117164,-0.020764,-0.284576,0.087266,-0.0,-0.0,2.0,0.282024,0.307046,0.282024,0.253303,-0.102464,-223.031702,6.648905,-0.055937,1.741049,-0.62705,0.118395,-0.01475,-0.183079,-0.024122,-8.6e-05,-0.000323
67837,0.116423,-0.020749,-0.284618,0.087266,-0.0,-0.0,2.0,0.282024,0.306809,0.282024,0.253615,-0.104079,-222.998393,6.664967,-0.049395,1.734563,-0.627022,0.117533,-0.014752,-0.183085,-0.048266,-8.8e-05,-0.000327
67857,0.115571,-0.020879,-0.284494,0.087266,-0.0,-0.0,2.0,0.282024,0.306668,0.282024,0.253802,-0.106094,-222.965296,6.681095,-0.04203,1.72055,-0.626999,0.116672,-0.014754,-0.183092,-0.025709,-8.6e-05,-0.000326
67877,0.11483,-0.020857,-0.284652,0.087266,-0.0,-0.0,2.0,0.282024,0.307897,0.282024,0.252173,-0.108495,-222.93257,6.697303,-0.033873,1.699069,-0.626979,0.115941,-0.014755,-0.183099,-0.048237,-9.8e-05,-0.000341
67897,0.114107,-0.020963,-0.284688,0.087266,-0.0,-0.0,2.0,0.282024,0.30804,0.282024,0.251981,-0.111262,-222.900366,6.713602,-0.024954,1.670223,-0.626964,0.1152,-0.014757,-0.183105,-0.048197,-9.6e-05,-0.000345
67917,0.113238,-0.020972,-0.284569,0.087266,-0.0,-0.0,2.0,0.282024,0.306297,0.282024,0.254287,-0.114377,-222.868836,6.730002,-0.01531,1.634156,-0.626953,0.114331,-0.014759,-0.183112,-0.024247,-9.5e-05,-0.000331
67937,0.112376,-0.020974,-0.284616,0.087266,-0.0,-0.0,2.0,0.282024,0.306358,0.282024,0.254208,-0.117819,-222.838129,6.746508,-0.00498,1.591052,-0.626948,0.113486,-0.014761,-0.183119,-0.027673,-9.5e-05,-0.000335
67957,0.111404,-0.021115,-0.284612,0.087266,-0.0,-0.0,2.0,0.282024,0.308863,0.282024,0.250875,-0.121563,-222.808386,6.763123,0.005993,1.541129,-0.626947,0.112745,-0.014763,-0.183126,-0.077015,-9.7e-05,-0.000335
67977,0.110404,-0.021014,-0.284671,0.087266,-0.0,-0.0,2.0,0.282024,0.30822,0.282024,0.25174,-0.125584,-222.779746,6.779842,0.017557,1.484639,-0.626952,0.111755,-0.014765,-0.183132,-0.04816,-0.000109,-0.000338
67997,0.109311,-0.021172,-0.284672,0.087266,-0.0,-0.0,2.0,0.282024,0.302362,0.282024,0.259317,-0.12985,-222.752341,6.79666,0.029659,1.421867,-0.626961,0.110533,-0.014767,-0.183139,-0.02434,-0.000112,-0.000344
68017,0.108208,-0.021203,-0.284846,0.087266,-0.0,-0.0,2.0,0.282024,0.304716,0.282024,0.256337,-0.13433,-222.726295,6.813562,0.042234,1.353123,-0.626975,0.109543,-0.01477,-0.183146,-0.072239,-0.000117,-0.000356
68037,0.106978,-0.021265,-0.284742,0.087266,-0.0,-0.0,2.0,0.282024,0.302324,0.282024,0.259364,-0.138985,-222.701728,6.830532,0.055212,1.278743,-0.626994,0.108319,-0.014772,-0.183153,-0.049691,-0.000121,-0.000344
68057,0.105719,-0.021079,-0.284816,0.087266,-0.0,-0.0,2.0,0.282024,0.301837,0.282024,0.259971,-0.143776,-222.678749,6.847544,0.068514,1.199084,-0.627016,0.107089,-0.014774,-0.18316,-0.075831,-0.000116,-0.000351
68077,0.104368,-0.021151,-0.284832,0.087266,-0.0,-0.0,2.0,0.282024,0.302812,0.282024,0.258755,-0.148658,-222.657461,6.86457,0.082054,1.114522,-0.627041,0.10583,-0.014777,-0.183167,-0.070166,-0.000121,-0.000351
68097,0.103127,-0.021086,-0.284899,0.087266,-0.0,-0.0,2.0,0.282024,0.300595,0.282024,0.2615,-0.153585,-222.637957,6.881575,0.095737,1.025448,-0.627069,0.104462,-0.014779,-0.183174,-0.044935,-0.000115,-0.000357
68117,0.101896,-0.021147,-0.284792,0.087266,-0.0,-0.0,2.0,0.282024,0.301301,0.282024,0.260633,-0.158505,-222.620321,6.898518,0.109462,0.932265,-0.627098,0.103248,-0.014781,-0.183181,-0.079285,-9.8e-05,-0.000348
68137,0.100769,-0.021063,-0.284801,0.087266,-0.0,-0.0,2.0,0.282024,0.30261,0.282024,0.259007,-0.163366,-222.604629,6.915355,0.12312,0.835388,-0.627128,0.102006,-0.014783,-0.183188,-0.051719,-0.000102,-0.000352
68157,0.099786,-0.021083,-0.28485,0.087266,-0.0,-0.0,2.0,0.282024,0.301298,0.282024,0.260637,-0.168115,-222.590946,6.932039,0.136601,0.73524,-0.627158,0.10088,-0.014785,-0.183195,-0.020905,-0.000116,-0.000339
68177,0.098941,-0.021212,-0.284771,0.087266,-0.0,-0.0,2.0,0.282024,0.307159,0.282024,0.253154,-0.172697,-222.579331,6.948519,0.149791,0.632251,-0.627187,0.100155,-0.014788,-0.183202,-0.051705,-0.000104,-0.000343
68197,0.098176,-0.021076,-0.284763,0.087266,-0.0,-0.0,2.0,0.282024,0.306855,0.282024,0.253555,-0.17706,-222.569828,6.964744,0.162575,0.526857,-0.627214,0.099286,-0.01479,-0.183209,-0.04818,-0.000116,-0.000341
68217,0.097555,-0.021043,-0.284795,0.087266,-0.0,-0.0,2.0,0.282024,0.305941,0.282024,0.254753,-0.181154,-222.562477,6.980662,0.174842,0.419497,-0.627238,0.098528,-0.014792,-0.183216,-0.020804,-0.000112,-0.000344
68237,0.096952,-0.02113,-0.284821,0.087266,-0.0,-0.0,2.0,0.282024,0.307858,0.282024,0.252225,-0.184929,-222.557306,6.996224,0.186488,0.310615,-0.627258,0.097924,-0.014794,-0.183223,-0.02767,-9.8e-05,-0.000335
68257,0.096428,-0.020965,-0.284686,0.087266,-0.0,-0.0,2.0,0.282024,0.309519,0.282024,0.249985,-0.188345,-222.554333,7.011384,0.197414,0.200655,-0.627273,0.097441,-0.014796,-0.18323,-0.032301,-9.2e-05,-0.000332
68277,0.095807,-0.020932,-0.284717,0.087266,-0.0,-0.0,2.0,0.282024,0.307895,0.282024,0.252176,-0.191365,-222.553569,7.0261,0.207536,0.090065,-0.627283,0.096797,-0.014798,-0.183236,-0.024138,-0.000101,-0.000334
68297,0.095324,-0.021002,-0.284738,0.087266,-0.0,-0.0,2.0,0.282024,0.308888,0.282024,0.250842,-0.193958,-222.555015,7.040337,0.216779,-0.020705,-0.627286,0.096297,-0.0148,-0.183243,-0.024151,-9.6e-05,-0.000336
68317,0.094842,-0.021072,-0.284758,0.087266,-0.0,-0.0,2.0,0.282024,0.309174,0.282024,0.250453,-0.196102,-222.558663,7.054064,0.225087,-0.131207,-0.627282,0.095814,-0.014802,-0.18325,-0.024137,-0.000102,-0.000337
68337,0.094232,-0.021165,-0.284617,0.087266,-0.0,-0.0,2.0,0.282024,0.307619,0.282024,0.252544,-0.197783,-222.564498,7.067261,0.232417,-0.240989,-0.62727,0.095193,-0.014804,-0.183257,-0.020785,-0.000112,-0.000328
68357,0.093473,-0.021029,-0.284658,0.087266,-0.0,-0.0,2.0,0.282024,0.30741,0.282024,0.252821,-0.198993,-222.572495,7.079914,0.238745,-0.349601,-0.627251,0.094583,-0.014806,-0.183263,-0.048181,-0.00011,-0.000325
68377,0.092732,-0.021014,-0.284693,0.087266,-0.0,-0.0,2.0,0.282024,0.307033,0.282024,0.253321,-0.199733,-222.582622,7.092017,0.244063,-0.456594,-0.627223,0.093842,-0.014808,-0.18327,-0.051628,-9.6e-05,-0.000329
68397,0.091864,-0.021015,-0.284683,0.087266,-0.0,-0.0,2.0,0.282024,0.30656,0.282024,0.253943,-0.200012,-222.594837,7.103574,0.248378,-0.561518,-0.627187,0.093083,-0.01481,-0.183276,-0.048198,-9.4e-05,-0.000332
68417,0.090984,-0.020897,-0.284728,0.087266,-0.0,-0.0,2.0,0.282024,0.304597,0.282024,0.256489,-0.199842,-222.609093,7.114596,0.251713,-0.663929,-0.627143,0.092215,-0.014812,-0.183283,-0.051633,-8.2e-05,-0.00033
68437,0.090001,-0.020916,-0.284773,0.087266,-0.0,-0.0,2.0,0.282024,0.305783,0.282024,0.254958,-0.199244,-222.625331,7.125099,0.254102,-0.763382,-0.627091,0.091353,-0.014814,-0.183289,-0.075674,-8.4e-05,-0.000334
68457,0.088892,-0.020953,-0.28477,0.087266,-0.0,-0.0,2.0,0.282024,0.299594,0.282024,0.262717,-0.198241,-222.643488,7.135107,0.255591,-0.859441,-0.627031,0.090112,-0.014815,-0.183296,-0.046063,-9.9e-05,-0.000333
68477,0.087788,-0.02099,-0.284819,0.087266,-0.0,-0.0,2.0,0.282024,0.301981,0.282024,0.259792,-0.19686,-222.66349,7.144651,0.256234,-0.951674,-0.626964,0.089123,-0.014817,-0.183303,-0.072245,-9.1e-05,-0.000338
68497,0.086804,-0.021015,-0.284747,0.087266,-0.0,-0.0,2.0,0.282024,0.302019,0.282024,0.259744,-0.195129,-222.685257,7.153764,0.256089,-1.039659,-0.626889,0.088037,-0.014819,-0.183309,-0.075782,-9.4e-05,-0.000342
68517,0.085678,-0.020931,-0.284748,0.087266,-0.0,-0.0,2.0,0.282024,0.299497,0.282024,0.262834,-0.193078,-222.708701,7.162484,0.25522,-1.122984,-0.626809,0.08691,-0.014821,-0.183316,-0.04849,-9.7e-05,-0.000329
68537,0.084798,-0.020812,-0.284791,0.087266,-0.0,-0.0,2.0,0.282024,0.302664,0.282024,0.258939,-0.190736,-222.733726,7.17085,0.25369,-1.201251,-0.626722,0.08603,-0.014823,-0.183323,-0.0482,-8.4e-05,-0.000344
68557,0.083936,-0.020808,-0.284944,0.087266,-0.0,-0.0,2.0,0.282024,0.304173,0.282024,0.257032,-0.188132,-222.760229,7.178905,0.251562,-1.274078,-0.626631,0.085167,-0.014825,-0.18333,-0.051651,-7.3e-05,-0.000336
68577,0.083189,-0.020798,-0.284809,0.087266,-0.0,-0.0,2.0,0.282024,0.303055,0.282024,0.258448,-0.185291,-222.7881,7.186693,0.248895,-1.341101,-0.626535,0.0843,-0.014826,-0.183336,-0.051729,-7.3e-05,-0.000334
68597,0.082568,-0.020764,-0.284837,0.087266,-0.0,-0.0,2.0,0.282024,0.303063,0.282024,0.258439,-0.182239,-222.817221,7.194258,0.245744,-1.401979,-0.626436,0.083541,-0.014827,-0.183343,-0.020813,-8.1e-05,-0.000335
68617,0.081964,-0.020852,-0.28486,0.087266,-0.0,-0.0,2.0,0.282024,0.306074,0.282024,0.254579,-0.178995,-222.84747,7.201643,0.242159,-1.456398,-0.626333,0.083057,-0.014829,-0.18335,-0.048209,-7.8e-05,-0.000337
68637,0.081458,-0.020806,-0.284716,0.087266,-0.0,-0.0,2.0,0.282024,0.306208,0.282024,0.254404,-0.175579,-222.878716,7.208894,0.238184,-1.50407,-0.626229,0.082453,-0.014831,-0.183356,-0.027578,-7.3e-05,-0.000328
68657,0.080855,-0.020893,-0.284738,0.087266,-0.0,-0.0,2.0,0.282024,0.306165,0.282024,0.254461,-0.172005,-222.910825,7.216052,0.233855,-1.544738,-0.626123,0.081948,-0.014832,-0.183363,-0.024147,-8e-05,-0.000324
68677,0.080475,-0.02083,-0.284641,0.087266,-0.0,-0.0,2.0,0.282024,0.306383,0.282024,0.254175,-0.168284,-222.943655,7.223163,0.229201,-1.578182,-0.626017,0.081448,-0.014834,-0.183369,-0.024272,-7.5e-05,-0.000314
68697,0.079854,-0.020797,-0.284667,0.087266,-0.0,-0.0,2.0,0.282024,0.304618,0.282024,0.256462,-0.164424,-222.977064,7.230266,0.224243,-1.604217,-0.625911,0.080844,-0.014835,-0.183376,-0.027704,-7.2e-05,-0.000316
68717,0.079233,-0.020759,-0.28481,0.087266,-0.0,-0.0,2.0,0.282024,0.303161,0.282024,0.258315,-0.16043,-223.010902,7.237403,0.218996,-1.622697,-0.625805,0.080223,-0.014837,-0.183382,-0.027678,-6.8e-05,-0.000329
68737,0.078492,-0.020743,-0.284841,0.087266,-0.0,-0.0,2.0,0.282024,0.303623,0.282024,0.257731,-0.156302,-223.04502,7.244615,0.213466,-1.633518,-0.625702,0.079584,-0.014838,-0.183389,-0.02405,-6.4e-05,-0.000331
68757,0.077745,-0.020727,-0.284821,0.087266,-0.0,-0.0,2.0,0.282024,0.301429,0.282024,0.260475,-0.152041,-223.079263,7.251939,0.207654,-1.636618,-0.6256,0.078839,-0.014839,-0.183395,-0.048311,-6.4e-05,-0.000329
68777,0.076882,-0.020728,-0.284856,0.087266,-0.0,-0.0,2.0,0.282024,0.300474,0.282024,0.261648,-0.147641,-223.113478,7.259414,0.201554,-1.631976,-0.625501,0.077993,-0.014841,-0.183402,-0.051745,-6.4e-05,-0.000332
68797,0.075778,-0.020765,-0.284899,0.087266,-0.0,-0.0,2.0,0.282024,0.30029,0.282024,0.261872,-0.143097,-223.14751,7.267076,0.195154,-1.619617,-0.625406,0.077131,-0.014842,-0.183409,-0.072336,-7.8e-05,-0.000335
68817,0.074911,-0.020771,-0.284766,0.087266,-0.0,-0.0,2.0,0.282024,0.298267,0.282024,0.264308,-0.1384,-223.181204,7.27496,0.188439,-1.599607,-0.625314,0.076005,-0.014843,-0.183415,-0.02082,-7.8e-05,-0.000332
68837,0.073928,-0.020786,-0.28492,0.087266,-0.0,-0.0,2.0,0.282024,0.297879,0.282024,0.264769,-0.133542,-223.214408,7.2831,0.181388,-1.572053,-0.625227,0.075039,-0.014845,-0.183422,-0.051732,-6.9e-05,-0.000336
