time_ms,roll,pitch,yaw,reference_roll,reference_pitch,reference_yaw,reference_throttle,throttle_1,throttle_2,throttle_3,throttle_4,roll_predicted,pitch_predicted,yaw_predicted,roll_rate_predicted,pitch_rate_predicted,yaw_rate_predicted,value1,value2,value3,value4,value5,value6
259880,-0.003622,-0.016245,-0.004913,-0.0,-0.0,-0.0,3.0,0.3261,0.324048,0.3261,0.328135,0.0,-2002.074188,-0.0,0.0,-13.145608,0.0,-0.003893,-0.015541,-0.009414,-0.002657,-0.00021,0.001176
259900,-0.003623,-0.016123,-0.004913,0.000966,-0.0,-0.0,3.0,0.3261,0.323757,0.3261,0.328421,3e-06,-2002.33577,-0.0,0.001113,-12.961393,1e-06,-0.003868,-0.015546,-0.009391,-0.00333,-0.00021,0.001162
259920,-0.003501,-0.016,-0.004912,0.002822,-0.0,-0.0,3.0,0.3261,0.322678,0.3261,0.329475,5.6e-05,-2002.593452,1.4e-05,0.004426,-12.751443,8e-06,-0.003887,-0.01555,-0.009367,0.0078,-0.000209,0.00116
259940,-0.0035,-0.015878,-0.005034,0.003739,-0.0,-0.0,3.0,0.3261,0.322336,0.3261,0.329807,-0.001078,-2002.846827,-0.001232,0.007344,-12.529952,2.9e-05,-0.003836,-0.015554,-0.009344,0.009852,-0.000221,0.001157
259960,-0.003256,-0.016122,-0.005032,0.006414,-0.0,-0.0,3.0,0.3261,0.320297,0.3261,0.331766,4.8e-05,-2003.09577,-0.00028,0.0122,-12.311192,6.2e-05,-0.003848,-0.015558,-0.009321,0.006611,-0.00022,0.001155
259980,-0.003011,-0.016121,-0.00503,0.006414,-0.0,-0.0,3.0,0.3261,0.320459,0.3261,0.331612,0.000257,-2003.340439,-0.000348,0.014592,-12.108552,0.00011,-0.003823,-0.015562,-0.009298,0.002352,-0.000208,0.001153
260000,-0.003011,-0.016366,-0.005031,0.008334,-0.0,-0.0,3.0,0.3261,0.31964,0.3261,0.332391,0.000453,-2003.581248,-0.000472,0.016027,-11.9338,0.000162,-0.003763,-0.015566,-0.009275,0.000621,-0.000207,0.00115
260020,-0.003011,-0.016243,-0.005031,0.01135,-0.0,-0.0,3.0,0.3261,0.318861,0.3261,0.333128,0.000703,-2003.81883,-0.00063,0.021157,-11.796587,0.000223,-0.003635,-0.01557,-0.009252,0.003984,-0.000207,0.00116
260040,-0.00289,-0.016365,-0.004908,0.012709,-0.0,-0.0,3.0,0.3261,0.318863,0.3261,0.333126,0.001079,-2004.053994,-0.00084,0.025966,-11.704164,0.000302,-0.003446,-0.015574,-0.009229,0.005624,-0.000206,0.001158
260060,-0.002524,-0.016364,-0.004905,0.014694,-0.0,-0.0,3.0,0.3261,0.318697,0.3261,0.333282,0.00156,-2004.287675,-0.001132,0.028863,-11.661232,0.000395,-0.003206,-0.015579,-0.009206,0.005858,-0.000218,0.001156
260080,-0.002035,-0.016363,-0.004901,0.016508,-0.0,-0.0,3.0,0.3261,0.318402,0.3261,0.33356,0.002175,-2004.520883,-0.001539,0.031927,-11.669898,0.000497,-0.002946,-0.015583,-0.009183,0.016058,-0.000218,0.001154
260100,-0.001424,-0.01624,-0.005018,0.018306,-0.0,-0.0,3.0,0.3261,0.31822,0.3261,0.33373,0.002993,-2004.754651,-0.002128,0.034737,-11.729676,0.00061,-0.002585,-0.015588,-0.00916,0.030392,-0.000229,0.001141
260120,-0.00057,-0.016237,-0.005011,0.02017,-0.0,-0.0,3.0,0.3261,0.317677,0.3261,0.334238,0.004147,-2004.98998,-0.003033,0.037055,-11.837504,0.000732,-0.002136,-0.015593,-0.009137,0.038592,-0.000228,0.001127
260140,0.000408,-0.016357,-0.005125,0.021552,-0.0,-0.0,3.0,0.3261,0.317499,0.3261,0.334404,0.005941,-2005.227794,-0.004564,0.03793,-11.987799,0.000863,-0.001577,-0.015597,-0.009114,0.040048,-0.000228,0.001125
260160,0.001752,-0.016353,-0.005236,0.021552,-0.0,-0.0,3.0,0.3261,0.319164,0.3261,0.332842,0.009267,-2005.468883,-0.007647,0.034586,-12.172557,0.000995,-0.000825,-0.015602,-0.009092,0.04662,-0.000227,0.001123
260180,0.002729,-0.016473,-0.005228,0.024885,-0.0,-0.0,3.0,0.3261,0.319072,0.3261,0.332929,0.018546,-2005.713856,-0.016774,0.027533,-12.381534,0.001109,0.000137,-0.015606,-0.009069,0.040057,-0.000239,0.001122
260200,0.004071,-0.016347,-0.005217,0.02678,-0.0,-0.0,3.0,0.3261,0.32022,0.3261,0.33184,0.724051,-2005.962918,-0.72221,-0.023571,-12.602589,0.001177,0.001218,-0.015611,-0.009047,0.047797,-0.000238,0.001109
260220,0.005415,-0.016588,-0.005205,0.028213,-0.0,-0.0,3.0,0.3261,0.322174,0.3261,0.329963,-0.006531,-2006.200811,0.006033,-0.104159,-12.822615,-0.011646,0.002539,-0.015616,-0.009025,0.062764,-0.000261,0.001096
260240,0.007003,-0.016705,-0.005314,0.030136,-0.0,-0.0,3.0,0.3261,0.323034,0.3261,0.329128,-0.003866,-2006.458835,0.002702,0.08014,-13.028025,-0.012058,0.003999,-0.015621,-0.009003,0.077115,-0.000272,0.001095
260260,0.008957,-0.016699,-0.005419,0.031856,-0.0,-0.0,3.0,0.3261,0.323686,0.3261,0.328491,-0.001261,-2006.720777,0.00183,0.096353,-13.204894,-0.011693,0.005572,-0.015626,-0.008981,0.08468,-0.000271,0.001082
260280,0.011277,-0.016814,-0.005521,0.032706,-0.0,-0.0,3.0,0.3261,0.324999,0.3261,0.327196,0.000404,-2006.985966,0.001924,0.070079,-13.34069,-0.011359,0.007266,-0.015631,-0.008959,0.099301,-0.00027,0.001082
260300,0.013231,-0.016809,-0.005506,0.0344,-0.0,-0.0,3.0,0.3261,0.324948,0.3261,0.327247,0.001541,-2007.253501,0.002411,0.06364,-13.425466,-0.0111,0.009075,-0.015636,-0.008938,0.099882,-0.000245,0.001069
260320,0.015307,-0.01668,-0.005611,0.035404,-0.0,-0.0,3.0,0.3261,0.325359,0.3261,0.326839,0.002751,-2007.522307,0.00317,0.067272,-13.452835,-0.010844,0.010921,-0.015641,-0.008917,0.10297,-0.000232,0.001068
260340,0.017382,-0.016552,-0.005595,0.037992,-0.0,-0.0,3.0,0.3261,0.325652,0.3261,0.326547,0.004284,-2007.791213,0.004287,0.07026,-13.420665,-0.010574,0.012893,-0.015646,-0.008896,0.098929,-0.000218,0.001055
260360,0.019335,-0.016668,-0.005577,0.03891,-0.0,-0.0,3.0,0.3261,0.326362,0.3261,0.325838,0.006398,-2008.059037,0.005995,0.070645,-13.331338,-0.010296,0.014892,-0.015651,-0.008875,0.094108,-0.000229,0.001055
260380,0.021411,-0.016661,-0.005681,0.04112,-0.0,-0.0,3.0,0.3261,0.327029,0.3261,0.325168,0.00961,-2008.324678,0.00885,0.068738,-13.191514,-0.010024,0.016942,-0.015656,-0.008854,0.098499,-0.000265,0.001043
260400,0.023243,-0.016654,-0.005788,0.042249,-0.0,-0.0,3.0,0.3261,0.328021,0.3261,0.324164,0.015569,-2008.587191,0.014488,0.063805,-13.011433,-0.009764,0.019066,-0.015662,-0.008833,0.09718,-0.000288,0.001031
260420,0.025566,-0.01689,-0.005888,0.044067,-0.0,-0.0,3.0,0.3261,0.328305,0.3261,0.323875,0.032121,-2008.845837,0.030817,0.048327,-12.803886,-0.009539,0.021144,-0.015667,-0.008812,0.107772,-0.000311,0.001019
260440,0.027642,-0.017125,-0.005989,0.045655,-0.0,-0.0,3.0,0.3261,0.328523,0.3261,0.323652,0.749129,-2009.099615,0.747823,-0.044824,-12.583028,-0.009426,0.023282,-0.015673,-0.008792,0.109542,-0.000322,0.001019
260460,0.029963,-0.017238,-0.006089,0.047206,-0.0,-0.0,3.0,0.3261,0.328341,0.3261,0.323838,-0.017754,-2009.33245,-0.016274,-0.065229,-12.362621,-0.024981,0.025369,-0.015679,-0.008771,0.11272,-0.00032,0.001007
260480,0.032039,-0.017351,-0.006191,0.047977,-0.0,-0.0,3.0,0.3261,0.32889,0.3261,0.323277,-0.009271,-2009.578103,-0.007715,0.132366,-12.156019,-0.026044,0.027503,-0.015684,-0.008752,0.10746,-0.000282,0.000993
260500,0.034117,-0.017342,-0.006295,0.048846,-0.0,-0.0,3.0,0.3261,0.328702,0.3261,0.32347,-0.004498,-2009.819817,-0.005481,0.143959,-11.97537,-0.025523,0.029548,-0.01569,-0.008732,0.101204,-0.000269,0.000981
260520,0.035948,-0.017214,-0.006281,0.051637,-0.0,-0.0,3.0,0.3261,0.328473,0.3261,0.323704,-0.001618,-2010.058176,-0.005092,0.113185,-11.830656,-0.025066,0.031601,-0.015696,-0.008713,0.101925,-0.000267,0.000968
260540,0.037779,-0.017083,-0.006389,0.052705,-0.0,-0.0,3.0,0.3261,0.328493,0.3261,0.323683,0.000422,-2010.293959,-0.005428,0.107028,-11.7296,-0.024687,0.033607,-0.015702,-0.008693,0.093402,-0.000278,0.000944
260560,0.039611,-0.017074,-0.006495,0.054128,-0.0,-0.0,3.0,0.3261,0.328463,0.3261,0.323714,0.002406,-2010.528079,-0.006211,0.110299,-11.67741,-0.024315,0.035537,-0.015708,-0.008674,0.090568,-0.0003,0.000932
260580,0.041445,-0.017187,-0.0066,0.055187,-0.0,-0.0,3.0,0.3261,0.32862,0.3261,0.323553,0.004628,-2010.761538,-0.007447,0.111449,-11.676681,-0.023934,0.037422,-0.015715,-0.008656,0.092601,-0.000324,0.000932
260600,0.043155,-0.0173,-0.006704,0.056796,-0.0,-0.0,3.0,0.3261,0.328595,0.3261,0.32358,0.007277,-2010.995367,-0.009283,0.110425,-11.727396,-0.023553,0.039294,-0.015721,-0.008637,0.094991,-0.000346,0.00092
260620,0.044987,-0.017412,-0.006806,0.05818,-0.0,-0.0,3.0,0.3261,0.328374,0.3261,0.323805,0.010729,-2011.230576,-0.012056,0.108473,-11.826952,-0.023173,0.041127,-0.015727,-0.008619,0.091346,-0.000345,0.00092
260640,0.046943,-0.017527,-0.006787,0.059535,-0.0,-0.0,3.0,0.3261,0.328698,0.3261,0.323474,0.015807,-2011.468102,-0.016576,0.103978,-11.970206,-0.0228,0.042951,-0.015734,-0.0086,0.091677,-0.000331,0.000907
260660,0.048897,-0.017517,-0.006891,0.060933,-0.0,-0.0,3.0,0.3261,0.329179,0.3261,0.322981,0.02479,-2011.70875,-0.025146,0.094159,-12.149557,-0.022443,0.04481,-0.01574,-0.008582,0.094396,-0.000318,0.000907
260680,0.050852,-0.01751,-0.006874,0.061937,-0.0,-0.0,3.0,0.3261,0.329944,0.3261,0.322194,0.047555,-2011.953114,-0.04773,0.069397,-12.355117,-0.022132,0.046713,-0.015746,-0.008564,0.102914,-0.000292,0.000894
260700,0.053048,-0.017379,-0.006857,0.061937,-0.0,-0.0,3.0,0.3261,0.331156,0.3261,0.320936,0.288049,-2012.200902,-0.288545,-0.039379,-12.57501,-0.021969,0.048694,-0.015752,-0.008547,0.10575,-0.00029,0.000882
260720,0.055371,-0.017367,-0.006959,0.064153,-0.0,-0.0,3.0,0.3261,0.330969,0.3261,0.321131,-0.076235,-2012.392326,0.073872,0.466429,-12.797037,-0.054567,0.050699,-0.015759,-0.008529,0.104221,-0.000301,0.000882
260740,0.057568,-0.017232,-0.007065,0.065244,-0.0,-0.0,3.0,0.3261,0.331899,0.3261,0.320158,-0.02338,-2012.649599,0.02846,0.339391,-13.010121,-0.052862,0.052785,-0.015765,-0.008511,0.104035,-0.000311,0.00087
260760,0.059647,-0.01722,-0.007169,0.066863,-0.0,-0.0,3.0,0.3261,0.332595,0.3261,0.319425,-0.011909,-2012.911241,0.021183,0.166393,-13.19905,-0.05186,0.054943,-0.015771,-0.008494,0.105168,-0.000322,0.000871
260780,0.061599,-0.017212,-0.007151,0.068021,-0.0,-0.0,3.0,0.3261,0.333252,0.3261,0.318729,-0.007316,-2013.176424,0.018927,0.146384,-13.350756,-0.05127,0.057123,-0.015778,-0.008476,0.105767,-0.000332,0.000872
260800,0.063923,-0.017321,-0.007249,0.068591,-0.0,-0.0,3.0,0.3261,0.334637,0.3261,0.317249,-0.003916,-2013.4443,0.018246,0.162801,-13.454378,-0.050667,0.059338,-0.015784,-0.008459,0.105328,-0.000306,0.000859
260820,0.066119,-0.017433,-0.007225,0.069721,-0.0,-0.0,3.0,0.3261,0.335531,0.3261,0.316283,-0.000675,-2013.713839,0.018532,0.164007,-13.502147,-0.050016,0.06158,-0.01579,-0.008442,0.107718,-0.000304,0.000859
260840,0.06832,-0.017424,-0.007206,0.070858,-0.0,-0.0,3.0,0.3261,0.336227,0.3261,0.315528,0.002642,-2013.983886,0.019682,0.158196,-13.490365,-0.049374,0.063815,-0.015796,-0.008425,0.117376,-0.000302,0.000835
260860,0.070643,-0.017532,-0.007303,0.071567,-0.0,-0.0,3.0,0.3261,0.336224,0.3261,0.31553,0.006482,-2014.253248,0.021874,0.152447,-13.419886,-0.048756,0.066014,-0.015802,-0.008408,0.120762,-0.000324,0.000825
260880,0.073208,-0.017634,-0.007518,0.073054,-0.0,-0.0,3.0,0.3261,0.336357,0.3261,0.315386,0.011686,-2014.520776,0.025756,0.146513,-13.296032,-0.048165,0.06822,-0.015809,-0.008392,0.124117,-0.000322,0.000813
260900,0.075653,-0.017618,-0.007619,0.073584,-0.0,-0.0,3.0,0.3261,0.33707,0.3261,0.314605,0.020288,-2014.785455,0.033254,0.136154,-13.128025,-0.047608,0.070488,-0.015815,-0.008376,0.115131,-0.000332,0.000801
260920,0.077732,-0.017605,-0.007722,0.074465,-0.0,-0.0,3.0,0.3261,0.337549,0.3261,0.314078,0.039962,-2015.046438,0.052073,0.112925,-12.928034,-0.047113,0.072743,-0.015822,-0.00836,0.10632,-0.000331,0.000801
260940,0.079685,-0.01759,-0.007825,0.075714,-0.0,-0.0,3.0,0.3261,0.33791,0.3261,0.313679,0.162898,-2015.302762,0.17458,0.034126,-12.709986,-0.046761,0.074953,-0.015829,-0.008344,0.102544,-0.000329,0.000789
260960,0.081519,-0.017582,-0.007809,0.076599,-0.0,-0.0,3.0,0.3261,0.338712,0.3261,0.312789,-0.079387,-2015.539765,-0.065304,0.073487,-12.488055,-0.065739,0.077154,-0.015835,-0.008328,0.099049,-0.000315,0.000777
260980,0.083354,-0.017447,-0.00792,0.077465,-0.0,-0.0,3.0,0.3261,0.339245,0.3261,0.312194,-0.030833,-2015.787583,-0.018456,0.281145,-12.276263,-0.068388,0.079289,-0.015841,-0.008313,0.100859,-0.000312,0.000765
261000,0.085428,-0.017309,-0.008027,0.078292,-0.0,-0.0,3.0,0.3261,0.339518,0.3261,0.311887,-0.017034,-2016.031602,-0.00906,0.261795,-12.08719,-0.067368,0.081351,-0.015848,-0.008297,0.10133,-0.000298,0.000753
261020,0.087264,-0.017545,-0.008001,0.0787,-0.0,-0.0,3.0,0.3261,0.339506,0.3261,0.311901,-0.010126,-2016.272113,-0.006093,0.208779,-11.931358,-0.066522,0.083325,-0.015854,-0.008282,0.097362,-0.000345,0.000743
261040,0.089101,-0.017775,-0.008095,0.079329,-0.0,-0.0,3.0,0.3261,0.339226,0.3261,0.312215,-0.005674,-2016.509816,-0.005302,0.195026,-11.817333,-0.065819,0.085167,-0.015861,-0.008267,0.100615,-0.000355,0.000744
261060,0.09081,-0.018004,-0.008189,0.080275,-0.0,-0.0,3.0,0.3261,0.338646,0.3261,0.312862,-0.001851,-2016.745592,-0.005627,0.196124,-11.751188,-0.065142,0.086946,-0.015868,-0.008253,0.094911,-0.000353,0.000732
261080,0.092524,-0.017991,-0.008296,0.080838,-0.0,-0.0,3.0,0.3261,0.338484,0.3261,0.313042,0.001998,-2016.980423,-0.006829,0.194358,-11.736313,-0.064466,0.088645,-0.015875,-0.008238,0.088159,-0.00034,0.000731
261100,0.093987,-0.017733,-0.008415,0.081581,-0.0,-0.0,3.0,0.3261,0.338479,0.3261,0.313048,0.006222,-2017.215341,-0.008982,0.189292,-11.773419,-0.063801,0.090296,-0.015881,-0.008224,0.075665,-0.000314,0.000717
261120,0.095213,-0.0176,-0.008532,0.082093,-0.0,-0.0,3.0,0.3261,0.338725,0.3261,0.312773,0.011338,-2017.45137,-0.012446,0.182726,-11.860583,-0.063152,0.091872,-0.015888,-0.008209,0.065557,-0.000312,0.000705
261140,0.096188,-0.017345,-0.008656,0.082693,-0.0,-0.0,3.0,0.3261,0.338853,0.3261,0.312631,0.01836,-2017.68947,-0.018147,0.173399,-11.99328,-0.062524,0.093348,-0.015895,-0.008196,0.061667,-0.00031,0.000693
261160,0.097171,-0.017578,-0.008758,0.083263,-0.0,-0.0,3.0,0.3261,0.33889,0.3261,0.312591,0.029854,-2017.930478,-0.028631,0.157884,-12.164457,-0.061927,0.094709,-0.015901,-0.008182,0.064893,-0.000344,0.00067
261180,0.098636,-0.017686,-0.008859,0.083792,-0.0,-0.0,3.0,0.3261,0.338956,0.3261,0.312516,0.055404,-2018.175009,-0.05356,0.126165,-12.364675,-0.061395,0.095989,-0.015908,-0.008168,0.066678,-0.000342,0.00067
261200,0.100108,-0.018038,-0.00895,0.084377,-0.0,-0.0,3.0,0.3261,0.339055,0.3261,0.312406,0.190352,-2018.422884,-0.188557,0.025524,-12.582361,-0.06103,0.097249,-0.015915,-0.008155,0.069275,-0.000377,0.000659
261220,0.101578,-0.018146,-0.009052,0.084727,-0.0,-0.0,3.0,0.3261,0.339362,0.3261,0.312062,0.129803,-2018.550981,-0.131691,0.477832,-12.804801,-0.103582,0.098512,-0.015922,-0.008142,0.078753,-0.000375,0.000647
261240,0.103043,-0.018253,-0.009153,0.084963,-0.0,-0.0,3.0,0.3261,0.339469,0.3261,0.311943,0.004437,-2018.808106,0.00283,0.313949,-13.024965,-0.10198,0.099812,-0.015929,-0.008129,0.076373,-0.000372,0.000623
261260,0.104635,-0.018238,-0.00926,0.085532,-0.0,-0.0,3.0,0.3261,0.339997,0.3261,0.311349,0.002793,-2019.070154,0.010185,0.185219,-13.227405,-0.101005,0.101165,-0.015936,-0.008117,0.069197,-0.00037,0.000611
261280,0.105856,-0.018218,-0.009491,0.085791,-0.0,-0.0,3.0,0.3261,0.341083,0.3261,0.310119,0.003041,-2019.336037,0.014516,0.183231,-13.398364,-0.100305,0.102585,-0.015944,-0.008105,0.063483,-0.000367,0.000586
261300,0.10696,-0.018084,-0.00961,0.086142,-0.0,-0.0,3.0,0.3261,0.342206,0.3261,0.308834,0.004795,-2019.605027,0.018144,0.201151,-13.525707,-0.099549,0.10403,-0.015951,-0.008093,0.060742,-0.000353,0.000573
261320,0.108059,-0.017942,-0.009849,0.086418,-0.0,-0.0,3.0,0.3261,0.342778,0.3261,0.308175,0.007603,-2019.87617,0.021917,0.20113,-13.59987,-0.098743,0.10542,-0.015959,-0.008082,0.062914,-0.000363,0.000562
261340,0.109408,-0.018049,-0.009952,0.086656,-0.0,-0.0,3.0,0.3261,0.343236,0.3261,0.307644,0.011298,-2020.148347,0.026333,0.193183,-13.615102,-0.097949,0.10676,-0.015966,-0.008071,0.070261,-0.00036,0.000538
261360,0.110879,-0.018156,-0.010054,0.08676,-0.0,-0.0,3.0,0.3261,0.343398,0.3261,0.307456,0.016283,-2020.420356,0.031975,0.184284,-13.570193,-0.097189,0.108061,-0.015973,-0.00806,0.071649,-0.000394,0.000528
261380,0.112101,-0.018378,-0.010271,0.086957,-0.0,-0.0,3.0,0.3261,0.343331,0.3261,0.307533,0.023602,-2020.690997,0.03994,0.17296,-13.468608,-0.096471,0.109317,-0.015981,-0.00805,0.067109,-0.000416,0.000505
261400,0.113086,-0.018602,-0.010492,0.086957,-0.0,-0.0,3.0,0.3261,0.342873,0.3261,0.308064,0.0358,-2020.959152,0.052842,0.154718,-13.318111,-0.095812,0.110459,-0.015989,-0.00804,0.062391,-0.000426,0.000494
261420,0.113941,-0.018711,-0.010598,0.087171,-0.0,-0.0,3.0,0.3261,0.342379,0.3261,0.308635,0.061194,-2021.223812,0.079143,0.120437,-13.129925,-0.095252,0.111507,-0.015997,-0.00803,0.049642,-0.000399,0.000468
261440,0.114431,-0.018694,-0.010836,0.087232,-0.0,-0.0,3.0,0.3261,0.342001,0.3261,0.30907,0.152057,-2021.483723,0.171427,0.03195,-12.917574,-0.094886,0.112425,-0.016005,-0.008021,0.037184,-0.000384,0.000442
261460,0.114925,-0.018441,-0.010969,0.087266,-0.0,-0.0,3.0,0.3261,0.341635,0.3261,0.309488,6.266654,-2021.731064,6.28877,-0.56675,-12.695311,-0.119284,0.113191,-0.016013,-0.008012,0.029108,-0.00037,0.000429
261480,0.115293,-0.018424,-0.011209,0.087249,-0.0,-0.0,3.0,0.3261,0.341648,0.3261,0.309474,6.254136,-2021.983309,6.297673,-1.872474,-12.472894,-0.197226,0.113865,-0.016021,-0.008004,0.020486,-0.00038,0.000405
261500,0.115539,-0.01853,-0.011443,0.087193,-0.0,-0.0,3.0,0.3261,0.341781,0.3261,0.309322,6.218193,-2022.231104,6.309964,-3.112862,-12.256933,-0.279767,0.114431,-0.016029,-0.007995,0.025356,-0.000402,0.000382
261520,0.115908,-0.018757,-0.011668,0.087097,-0.0,-0.0,3.0,0.3261,0.341328,0.3261,0.309839,6.16328,-2022.474337,6.331652,-4.298366,-12.052877,-0.366529,0.114893,-0.016037,-0.007988,0.026111,-0.000424,0.000371
261540,0.116153,-0.018748,-0.011788,0.087036,-0.0,-0.0,3.0,0.3261,0.341063,0.3261,0.310141,6.087763,-2022.712517,6.364811,-5.4399,-11.863614,-0.4572,0.115304,-0.016046,-0.007981,0.021304,-0.000434,0.000347
261560,0.116521,-0.018731,-0.012027,0.086914,-0.0,-0.0,3.0,0.3261,0.340704,0.3261,0.310549,5.988275,-2022.944395,6.412623,-6.547786,-11.688953,-0.55153,0.11562,-0.016054,-0.007974,0.019188,-0.000432,0.000334
261580,0.116774,-0.018967,-0.012134,0.086692,-0.0,-0.0,3.0,0.3261,0.340365,0.3261,0.310933,5.859282,-2023.16739,6.480073,-7.630598,-11.525197,-0.649322,0.115883,-0.016063,-0.007967,0.008063,-0.000443,0.000322
261600,0.116775,-0.01896,-0.012256,0.086571,-0.0,-0.0,3.0,0.3261,0.340256,0.3261,0.311056,5.692333,-2023.37666,6.574686,-8.693993,-11.364862,-0.750409,0.116072,-0.016071,-0.007961,0.006364,-0.000441,0.000297
261620,0.116655,-0.019076,-0.012372,0.086209,-0.0,-0.0,3.0,0.3261,0.340173,0.3261,0.31115,5.475583,-2023.563684,6.706932,-9.739612,-11.196602,-0.854626,0.116202,-0.01608,-0.007955,0.006148,-0.000439,0.000284
261640,0.1169,-0.018945,-0.012499,0.085957,-0.0,-0.0,3.0,0.3261,0.340364,0.3261,0.310935,5.1956,-2023.714514,6.888311,-10.764229,-11.005447,-0.961771,0.116303,-0.016089,-0.00795,0.006766,-0.000425,0.000271
261660,0.117022,-0.019066,-0.01249,0.085627,-0.0,-0.0,3.0,0.3261,0.340639,0.3261,0.310623,4.847285,-2023.809375,7.122312,-11.461726,-10.776186,-1.051416,0.116414,-0.016098,-0.007944,4.9e-05,-0.000424,0.00027
261680,0.117143,-0.018943,-0.012496,0.085252,-0.0,-0.0,3.0,0.3261,0.340528,0.3261,0.310748,4.460048,-2023.828808,7.386885,-11.375918,-10.521535,-1.094989,0.116459,-0.016107,-0.007939,0.002268,-0.000436,0.00027
261700,0.117021,-0.018944,-0.012497,0.084843,-0.0,-0.0,3.0,0.3261,0.34106,0.3261,0.310145,4.092164,-2023.769725,7.633966,-10.718956,-10.262686,-1.137057,0.116554,-0.016115,-0.007933,0.003057,-0.000447,0.000271
261720,0.117021,-0.018944,-0.012497,0.084294,-0.0,-0.0,3.0,0.3261,0.341287,0.3261,0.309886,3.782958,-2023.650046,7.827094,-10.011087,-9.997945,-1.181727,0.116619,-0.016125,-0.007928,0.00472,-0.000458,0.000271
261740,0.117144,-0.019065,-0.012489,0.083907,-0.0,-0.0,3.0,0.3261,0.341711,0.3261,0.309402,3.533947,-2023.493529,7.961113,-9.376196,-9.718182,-1.22009,0.116699,-0.016133,-0.007923,-0.00112,-0.000458,0.000283
261760,0.117141,-0.018828,-0.012381,0.083576,-0.0,-0.0,3.0,0.3261,0.34218,0.3261,0.308864,3.329549,-2023.318625,8.046404,-8.835254,-9.416143,-1.250064,0.116764,-0.016142,-0.007917,0.000563,-0.000445,0.000281
261780,0.117142,-0.01895,-0.012374,0.08306,-0.0,-0.0,3.0,0.3261,0.342377,0.3261,0.308637,3.15277,-2023.137313,8.093905,-8.399165,-9.087195,-1.273839,0.116806,-0.016151,-0.007912,0.009864,-0.000444,0.000281
261800,0.117386,-0.018948,-0.012371,0.082292,-0.0,-0.0,3.0,0.3261,0.34257,0.3261,0.308415,2.988936,-2022.957326,8.110586,-8.06042,-8.727578,-1.295618,0.11686,-0.016159,-0.007906,0.011776,-0.00043,0.00028
261820,0.117632,-0.019312,-0.012347,0.081601,-0.0,-0.0,3.0,0.3261,0.342781,0.3261,0.308171,2.82648,-2022.784181,8.099215,-7.738136,-8.337248,-1.315666,0.116925,-0.016168,-0.0079,0.006373,-0.000454,0.000281
261840,0.117753,-0.019189,-0.012353,0.081266,-0.0,-0.0,3.0,0.3261,0.34317,0.3261,0.307721,2.655976,-2022.622452,8.059093,-7.398652,-7.920762,-1.333991,0.117008,-0.016177,-0.007895,0.00396,-0.000441,0.00028
261860,0.117633,-0.019304,-0.012469,0.080576,-0.0,-0.0,3.0,0.3261,0.343617,0.3261,0.307201,2.468369,-2022.476528,7.986659,-7.030781,-7.485018,-1.350569,0.117099,-0.016186,-0.007889,-0.002144,-0.000452,0.00028
261880,0.11751,-0.019183,-0.012477,0.079855,-0.0,-0.0,3.0,0.3261,0.343968,0.3261,0.306792,2.254653,-2022.351141,7.876316,-6.619335,-7.038152,-1.365383,0.117138,-0.016195,-0.007884,0.0002,-0.000439,0.000278
261900,0.117266,-0.019064,-0.012487,0.079418,-0.0,-0.0,3.0,0.3261,0.343897,0.3261,0.306874,2.007787,-2022.251615,7.722793,-6.144628,-6.589202,-1.378413,0.117155,-0.016204,-0.007878,-0.007348,-0.000438,0.000265
261920,0.117021,-0.018822,-0.012504,0.078166,-0.0,-0.0,3.0,0.3261,0.344429,0.3261,0.306252,1.72789,-2022.183361,7.526735,-5.61185,-6.147525,-1.390743,0.117088,-0.016213,-0.007873,-0.008872,-0.000437,0.000265
261940,0.1169,-0.018945,-0.012499,0.077713,-0.0,-0.0,3.0,0.3261,0.344565,0.3261,0.306092,1.428766,-2022.149945,7.302221,-5.052274,-5.720505,-1.404959,0.116966,-0.016222,-0.007868,-0.00181,-0.000448,0.000265
261960,0.117023,-0.019187,-0.012483,0.076538,-0.0,-0.0,3.0,0.3261,0.344739,0.3261,0.305888,1.13784,-2022.150304,7.076772,-4.475408,-5.313801,-1.421099,0.116819,-0.016231,-0.007862,-0.001077,-0.000459,0.000265
261980,0.116902,-0.01931,-0.012477,0.075948,-0.0,-0.0,3.0,0.3261,0.344948,0.3261,0.305642,0.8816,-2022.177978,6.876958,-3.913833,-4.931703,-1.437434,0.116692,-0.016239,-0.007857,0.002546,-0.000446,0.000264
262000,0.117024,-0.019309,-0.012476,0.074955,-0.0,-0.0,3.0,0.3261,0.344832,0.3261,0.305779,0.671241,-2022.22402,6.714518,-3.40605,-4.576409,-1.451613,0.11654,-0.016248,-0.007852,-0.000198,-0.000446,0.000263
262020,0.11678,-0.019311,-0.012479,0.073978,-0.0,-0.0,3.0,0.3261,0.34528,0.3261,0.30525,0.503883,-2022.280536,6.587655,-2.975179,-4.248003,-1.462081,0.116431,-0.016257,-0.007846,-0.011411,-0.000446,0.000274
262040,0.116528,-0.01919,-0.012486,0.072988,-0.0,-0.0,3.0,0.3261,0.345994,0.3261,0.304402,0.371052,-2022.342036,6.48921,-2.623686,-3.945173,-1.46852,0.116303,-0.016266,-0.007841,-0.014696,-0.000432,0.000261
262060,0.11604,-0.019072,-0.012499,0.072482,-0.0,-0.0,3.0,0.3261,0.34638,0.3261,0.303942,0.264218,-2022.405136,6.411908,-2.345596,-3.666039,-1.471725,0.116169,-0.016275,-0.007836,-0.021397,-0.000419,0.000259
262080,0.115429,-0.018833,-0.01252,0.070921,-0.0,-0.0,3.0,0.3261,0.346886,0.3261,0.303336,0.17634,-2022.467869,6.349981,-2.146056,-3.408061,-1.474104,0.115947,-0.016283,-0.007831,-0.018467,-0.000418,0.000246
262100,0.115065,-0.018829,-0.012646,0.070921,-0.0,-0.0,3.0,0.3261,0.346487,0.3261,0.303815,0.102133,-2022.52913,6.299233,-1.986543,-3.168698,-1.476138,0.115639,-0.016292,-0.007826,-0.013102,-0.00043,0.000258
262120,0.114699,-0.018961,-0.012521,0.069625,-0.0,-0.0,3.0,0.3261,0.346549,0.3261,0.30374,0.038265,-2022.588331,6.2567,-1.845893,-2.946901,-1.477892,0.11528,-0.0163,-0.007821,-0.016834,-0.00043,0.000257
262140,0.114084,-0.019208,-0.012512,0.067839,-0.0,-0.0,3.0,0.3261,0.346077,0.3261,0.304304,-0.017559,-2022.645195,6.220266,-1.723298,-2.741917,-1.47941,0.114775,-0.016309,-0.007815,-0.019895,-0.000454,0.000258
262160,0.113354,-0.019458,-0.012507,0.067026,-0.0,-0.0,3.0,0.3261,0.345,0.3261,0.305581,-0.067032,-2022.699633,6.188405,-1.614719,-2.552924,-1.480731,0.114133,-0.016317,-0.00781,-0.026346,-0.000453,0.000256
262180,0.112379,-0.019594,-0.012389,0.06574,-0.0,-0.0,3.0,0.3261,0.344354,0.3261,0.30634,-0.111349,-2022.751673,6.160009,-1.516787,-2.379243,-1.481884,0.113399,-0.016326,-0.007805,-0.040525,-0.000442,0.000266
262200,0.111152,-0.019359,-0.012415,0.064516,-0.0,-0.0,3.0,0.3261,0.343682,0.3261,0.307125,-0.1514,-2022.801414,6.134257,-1.428433,-2.220206,-1.482896,0.112526,-0.016335,-0.0078,-0.057876,-0.00043,0.000263
262220,0.109558,-0.019133,-0.012322,0.063252,-0.0,-0.0,3.0,0.3261,0.343258,0.3261,0.307618,-0.18785,-2022.849,6.110538,-1.347773,-2.075182,-1.483786,0.111488,-0.016344,-0.007795,-0.070352,-0.000418,0.000261
262240,0.107722,-0.019025,-0.012347,0.061968,-0.0,-0.0,3.0,0.3261,0.342953,0.3261,0.307972,-0.221196,-2022.894597,6.08839,-1.273601,-1.943593,-1.484572,0.1103,-0.016353,-0.007789,-0.071276,-0.000431,0.000272
262260,0.106136,-0.018921,-0.012249,0.061968,-0.0,-0.0,3.0,0.3261,0.341469,0.3261,0.309678,-0.251814,-2022.938388,6.067465,-1.203562,-1.824909,-1.485268,0.108931,-0.016362,-0.007784,-0.070737,-0.000419,0.000269
262280,0.104668,-0.019053,-0.012257,0.060509,-0.0,-0.0,3.0,0.3261,0.341053,0.3261,0.310153,-0.279964,-2022.980559,6.047496,-1.138584,-1.718719,-1.485887,0.107469,-0.01637,-0.007778,-0.070987,-0.00042,0.000279
262300,0.103075,-0.018949,-0.012157,0.059258,-0.0,-0.0,3.0,0.3261,0.340278,0.3261,0.311032,-0.30591,-2023.021299,6.028282,-1.079758,-1.624492,-1.486439,0.105923,-0.016378,-0.007773,-0.075694,-0.000421,0.000289
262320,0.101733,-0.019087,-0.012044,0.057058,-0.0,-0.0,3.0,0.3261,0.340054,0.3261,0.311284,-0.329861,-2023.060796,6.00967,-1.025963,-1.541756,-1.486935,0.104293,-0.016387,-0.007767,-0.074656,-0.000434,0.0003
262340,0.100263,-0.019103,-0.011936,0.056158,-0.0,-0.0,3.0,0.3261,0.339913,0.3261,0.311444,-0.351994,-2023.099232,5.99155,-0.975284,-1.470074,-1.487384,0.102722,-0.016395,-0.007761,-0.071798,-0.00041,0.000309
262360,0.098799,-0.01912,-0.01183,0.054547,-0.0,-0.0,3.0,0.3261,0.340222,0.3261,0.311094,-0.372408,-2023.136782,5.97384,-0.927128,-1.40917,-1.487791,0.101213,-0.016403,-0.007754,-0.081108,-0.000399,0.000318
262380,0.097084,-0.018894,-0.011737,0.053096,-0.0,-0.0,3.0,0.3261,0.340336,0.3261,0.310966,-0.391219,-2023.173619,5.956483,-0.882824,-1.358727,-1.488163,0.099675,-0.016411,-0.007748,-0.082695,-0.000376,0.000326
262400,0.095611,-0.018543,-0.011646,0.051627,-0.0,-0.0,3.0,0.3261,0.340726,0.3261,0.310525,-0.408532,-2023.209911,5.939445,-0.841561,-1.318448,-1.488505,0.098149,-0.016419,-0.007742,-0.077532,-0.000364,0.000336
262420,0.094269,-0.018559,-0.011539,0.050043,-0.0,-0.0,3.0,0.3261,0.341401,0.3261,0.309756,-0.424436,-2023.245816,5.922706,-0.803217,-1.288089,-1.488823,0.096694,-0.016427,-0.007735,-0.077736,-0.000377,0.000347
262440,0.092677,-0.018574,-0.011432,0.049005,-0.0,-0.0,3.0,0.3261,0.341582,0.3261,0.309549,-0.439018,-2023.281492,5.906261,-0.767059,-1.267434,-1.48912,0.095266,-0.016434,-0.007728,-0.075349,-0.000389,0.000345
262460,0.091337,-0.018828,-0.011435,0.04715,-0.0,-0.0,3.0,0.3261,0.341935,0.3261,0.309145,-0.45234,-2023.31709,5.890118,-0.733714,-1.256334,-1.4894,0.093832,-0.016442,-0.007721,-0.069208,-0.000391,0.000368
262480,0.09011,-0.018846,-0.011202,0.046128,-0.0,-0.0,3.0,0.3261,0.342245,0.3261,0.308789,-0.464497,-2023.352758,5.874294,-0.702858,-1.254598,-1.489667,0.092454,-0.01645,-0.007713,-0.06474,-0.000403,0.000379
262500,0.088889,-0.01886,-0.011093,0.04461,-0.0,-0.0,3.0,0.3261,0.342514,0.3261,0.30848,-0.475551,-2023.388641,5.858814,-0.673856,-1.262134,-1.489922,0.091115,-0.016458,-0.007706,-0.064827,-0.000391,0.000376
262520,0.087542,-0.018746,-0.011111,0.042582,-0.0,-0.0,3.0,0.3261,0.342931,0.3261,0.307997,-0.485582,-2023.424882,5.843714,-0.648114,-1.278834,-1.49017,0.089787,-0.016465,-0.007698,-0.065444,-0.00038,0.000385
262540,0.086077,-0.018761,-0.011004,0.040986,-0.0,-0.0,3.0,0.3261,0.342904,0.3261,0.308029,-0.494691,-2023.46162,5.829036,-0.62459,-1.304572,-1.490412,0.088433,-0.016473,-0.007691,-0.065087,-0.00038,0.000383
262560,0.084852,-0.018646,-0.01102,0.04016,-0.0,-0.0,3.0,0.3261,0.342691,0.3261,0.308275,-0.502947,-2023.498996,5.814829,-0.601359,-1.339327,-1.49065,0.087067,-0.01648,-0.007683,-0.061097,-0.000368,0.000393
262580,0.083387,-0.018661,-0.010914,0.038506,-0.0,-0.0,3.0,0.3261,0.342475,0.3261,0.308524,-0.510404,-2023.537149,5.801152,-0.579717,-1.383145,-1.490886,0.085702,-0.016488,-0.007675,-0.0746,-0.000357,0.000402
262600,0.081551,-0.018555,-0.010814,0.036732,-0.0,-0.0,3.0,0.3261,0.342068,0.3261,0.308993,-0.517169,-2023.576219,5.788068,-0.560921,-1.435981,-1.491122,0.084207,-0.016495,-0.007667,-0.080985,-0.000345,0.000411
262620,0.079591,-0.018333,-0.010598,0.035163,-0.0,-0.0,3.0,0.3261,0.341484,0.3261,0.309661,-0.523357,-2023.616346,5.775655,-0.543491,-1.497804,-1.49136,0.082611,-0.016502,-0.007658,-0.087868,-0.000347,0.000433
262640,0.077639,-0.018472,-0.010491,0.033926,-0.0,-0.0,3.0,0.3261,0.341016,0.3261,0.310195,-0.52907,-2023.657671,5.763999,-0.526368,-1.568658,-1.491601,0.080922,-0.016509,-0.00765,-0.092133,-0.000348,0.000443
262660,0.075315,-0.018495,-0.010269,0.03172,-0.0,-0.0,3.0,0.3261,0.340631,0.3261,0.310632,-0.534413,-2023.700337,5.753203,-0.510787,-1.648615,-1.491845,0.079123,-0.016516,-0.007641,-0.103803,-0.000361,0.000465
262680,0.073113,-0.01839,-0.010172,0.030506,-0.0,-0.0,3.0,0.3261,0.339208,0.3261,0.312235,-0.539549,-2023.744489,5.743387,-0.495968,-1.737666,-1.492095,0.077092,-0.016523,-0.007632,-0.10866,-0.00035,0.000473
262700,0.070793,-0.018413,-0.009952,0.028111,-0.0,-0.0,3.0,0.3261,0.338437,0.3261,0.313094,-0.544623,-2023.79027,5.734696,-0.481588,-1.835896,-1.49235,0.0749,-0.01653,-0.007622,-0.101976,-0.000352,0.000495
262720,0.068469,-0.018434,-0.00973,0.027241,-0.0,-0.0,3.0,0.3261,0.336797,0.3261,0.314905,-0.549845,-2023.837829,5.72731,-0.466721,-1.943317,-1.492613,0.072627,-0.016537,-0.007612,-0.107089,-0.000341,0.000503
262740,0.066145,-0.018328,-0.009633,0.025479,-0.0,-0.0,3.0,0.3261,0.335558,0.3261,0.316254,-0.555419,-2023.88731,5.721453,-0.450536,-2.060052,-1.492882,0.070236,-0.016543,-0.007602,-0.115704,-0.00033,0.000511
262760,0.063581,-0.018225,-0.009541,0.023719,-0.0,-0.0,3.0,0.3261,0.334879,0.3261,0.316988,-0.561648,-2023.93886,5.717418,-0.434302,-2.186128,-1.493157,0.067793,-0.01655,-0.007591,-0.122899,-0.000319,0.000532
262780,0.061015,-0.018364,-0.009438,0.021938,-0.0,-0.0,3.0,0.3261,0.33449,0.3261,0.317407,-0.56893,-2023.992621,5.715589,-0.41647,-2.321539,-1.493438,0.065326,-0.016556,-0.007581,-0.129408,-0.000308,0.000552
262800,0.058323,-0.018141,-0.009226,0.020545,-0.0,-0.0,3.0,0.3261,0.334259,0.3261,0.317654,-0.577783,-2024.04873,5.716498,-0.395289,-2.466304,-1.493724,0.062853,-0.016562,-0.00757,-0.135621,-0.000297,0.000561
262820,0.055514,-0.018041,-0.009013,0.018204,-0.0,-0.0,3.0,0.3261,0.334597,0.3261,0.317291,-0.588916,-2024.107311,5.720895,-0.370542,-2.620451,-1.49401,0.060362,-0.016568,-0.007558,-0.134156,-0.000286,0.000569
262840,0.053192,-0.01793,-0.009037,0.01685,-0.0,-0.0,3.0,0.3261,0.334577,0.3261,0.317313,-0.603408,-2024.168469,5.729889,-0.339848,-2.783923,-1.494294,0.057857,-0.016574,-0.007547,-0.121775,-0.000299,0.000578
262860,0.050872,-0.017945,-0.008937,0.01458,-0.0,-0.0,3.0,0.3261,0.335215,0.3261,0.316625,-0.622874,-2024.232272,5.745192,-0.302696,-2.95673,-1.494746,0.055463,-0.016581,-0.007535,-0.115996,-0.000312,0.000588
262880,0.049039,-0.017953,-0.008953,0.013293,-0.0,-0.0,3.0,0.3261,0.334969,0.3261,0.316891,-0.650061,-2024.29873,5.769586,-0.260339,-3.138658,-1.495929,0.053084,-0.016587,-0.007524,-0.107258,-0.000312,0.000585
262900,0.047085,-0.017966,-0.00885,0.011441,-0.0,-0.0,3.0,0.3261,0.335219,0.3261,0.316621,-0.689739,-2024.367724,5.807939,-0.205153,-3.329505,-1.498391,0.050821,-0.016592,-0.007512,-0.098335,-0.000301,0.000594
262920,0.045133,-0.018098,-0.008865,0.009594,-0.0,-0.0,3.0,0.3261,0.335176,0.3261,0.316667,-0.75096,-2024.438872,5.869548,-0.126789,-3.529307,-1.502898,0.048649,-0.016598,-0.0075,-0.102696,-0.000277,0.000602
262940,0.043297,-0.017867,-0.008642,0.007771,-0.0,-0.0,3.0,0.3261,0.335754,0.3261,0.316042,-0.853163,-2024.511144,5.974349,-0.006433,-3.738562,-1.510836,0.046561,-0.016603,-0.007488,-0.1024,-0.000254,0.00061
262960,0.041222,-0.017878,-0.008662,0.006849,-0.0,-0.0,3.0,0.3261,0.335968,0.3261,0.315809,-1.044726,-2024.581642,6.171693,0.19658,-3.958825,-1.525162,0.044585,-0.016609,-0.007476,-0.108766,-0.000242,0.000607
262980,0.039142,-0.017523,-0.008565,0.005373,-0.0,-0.0,3.0,0.3261,0.336428,0.3261,0.315308,-1.460186,-2024.640784,6.59823,0.584086,-4.19447,-1.553168,0.042635,-0.016614,-0.007464,-0.108846,-0.000255,0.000604
263000,0.036945,-0.017533,-0.008585,0.003283,-0.0,-0.0,3.0,0.3261,0.337156,0.3261,0.314511,-2.288029,-2024.656273,7.447542,1.39116,-4.457905,-1.611709,0.040705,-0.01662,-0.007452,-0.098857,-0.000267,0.000614
263020,0.034991,-0.017669,-0.008357,0.001584,-0.0,-0.0,3.0,0.3261,0.33739,0.3261,0.314252,-2.911549,-2024.598042,8.110426,2.329831,-4.76954,-1.68336,0.038789,-0.016625,-0.007439,-0.089303,-0.000292,0.000624
263040,0.033405,-0.017798,-0.008369,-0.000842,-0.0,-0.0,3.0,0.3261,0.337613,0.3261,0.314007,-3.10921,-2024.505772,8.365651,3.178113,-5.131203,-1.753536,0.036876,-0.01663,-0.007427,-0.090468,-0.00028,0.000633
263060,0.031693,-0.017807,-0.008261,-0.002788,-0.0,-0.0,3.0,0.3261,0.337327,0.3261,0.314322,-3.16309,-2024.400379,8.49417,3.936202,-5.539102,-1.822151,0.034934,-0.016635,-0.007414,-0.087395,-0.000269,0.000642
263080,0.029495,-0.017819,-0.00816,-0.003717,-0.0,-0.0,3.0,0.3261,0.336096,0.3261,0.31567,-3.161332,-2024.285446,8.582847,4.494114,-5.987154,-1.881721,0.032968,-0.01664,-0.007401,-0.090724,-0.000257,0.000651
263100,0.02754,-0.017707,-0.008057,-0.005556,-0.0,-0.0,3.0,0.3261,0.335591,0.3261,0.316219,-3.134063,-2024.161804,8.657198,4.708826,-6.455379,-1.921822,0.03095,-0.016645,-0.007388,-0.099512,-0.000233,0.000647
263120,0.025341,-0.017474,-0.007958,-0.007387,-0.0,-0.0,3.0,0.3261,0.335147,0.3261,0.316699,-3.094962,-2024.030061,8.726522,4.730399,-6.921255,-1.951527,0.02888,-0.01665,-0.007375,-0.113826,-0.000234,0.000656
263140,0.022654,-0.017486,-0.007859,-0.008298,-0.0,-0.0,3.0,0.3261,0.334594,0.3261,0.317295,-3.049608,-2023.891009,8.795157,4.664453,-7.370699,-1.977512,0.026749,-0.016655,-0.007362,-0.119339,-0.000235,0.000665
263160,0.02009,-0.017375,-0.007883,-0.010277,-0.0,-0.0,3.0,0.3261,0.33405,0.3261,0.317879,-2.999791,-2023.745679,8.865745,4.559529,-7.795149,-2.002961,0.024491,-0.01666,-0.007348,-0.121135,-0.000235,0.000673
263180,0.017646,-0.017387,-0.007661,-0.01207,-0.0,-0.0,3.0,0.3261,0.33361,0.3261,0.318348,-2.945485,-2023.595356,8.940406,4.434071,-8.188701,-2.029162,0.022162,-0.016665,-0.007335,-0.120927,-0.000224,0.000694
263200,0.014958,-0.017278,-0.007441,-0.014926,-0.0,-0.0,3.0,0.3261,0.333153,0.3261,0.318834,-2.885621,-2023.441635,9.021278,4.293911,-8.546934,-2.056577,0.019727,-0.016669,-0.007321,-0.12119,-0.000224,0.000703
263220,0.012515,-0.017044,-0.007342,-0.016206,-0.0,-0.0,3.0,0.3261,0.332029,0.3261,0.320022,-2.818336,-2023.286501,9.110836,4.140549,-8.866521,-2.085348,0.017196,-0.016674,-0.007306,-0.118724,-0.000213,0.000724
263240,0.009827,-0.017055,-0.00712,-0.018219,-0.0,-0.0,3.0,0.3261,0.330842,0.3261,0.321263,-2.740931,-2023.132462,9.212169,3.972707,-9.145361,-2.115384,0.014605,-0.016677,-0.007292,-0.128671,-0.000201,0.000732
263260,0.007017,-0.017066,-0.0069,-0.020003,-0.0,-0.0,3.0,0.3261,0.329844,0.3261,0.322297,-2.649812,-2022.982744,9.329216,3.78622,-9.382492,-2.146339,0.011913,-0.016681,-0.007277,-0.135651,-0.00019,0.000752
263280,0.003964,-0.017077,-0.006682,-0.020902,-0.0,-0.0,3.0,0.3261,0.328521,0.3261,0.323655,-2.540432,-2022.841578,9.466912,3.576284,-9.578094,-2.177753,0.009152,-0.016685,-0.007262,-0.140651,-0.000179,0.000773
263300,0.001032,-0.016965,-0.006585,-0.022678,-0.0,-0.0,3.0,0.3261,0.327675,0.3261,0.324516,-2.407587,-2022.714551,9.630957,3.335309,-9.733392,-2.208909,0.006313,-0.016688,-0.007246,-0.143377,-0.000167,0.000793
263320,-0.001901,-0.016852,-0.006243,-0.025004,-0.0,-0.0,3.0,0.3261,0.327069,0.3261,0.325127,-2.24674,-2022.608893,9.826601,3.053797,-9.85026,-2.238885,0.003416,-0.016692,-0.00723,-0.147956,-0.000143,0.000825
263340,-0.004834,-0.016738,-0.005901,-0.025004,-0.0,-0.0,3.0,0.3261,0.32571,0.3261,0.32649,-2.057169,-2022.533234,10.055545,2.725804,-9.930978,-2.266926,0.000493,-0.016695,-0.007214,-0.151726,-0.000132,0.000846
263360,-0.007767,-0.016501,-0.005558,-0.028183,-0.0,-0.0,3.0,0.3261,0.325803,0.3261,0.326397,-1.84666,-2022.496049,10.311209,2.349763,-9.978334,-2.292533,-0.002448,-0.016698,-0.007196,-0.147989,-0.000144,0.000878
263380,-0.0107,-0.016263,-0.005215,-0.029911,-0.0,-0.0,3.0,0.3261,0.325751,0.3261,0.326449,-1.633698,-2022.502442,10.576516,1.937909,-9.995686,-2.316122,-0.005325,-0.016701,-0.007179,-0.142502,-0.000132,0.000911
263400,-0.01351,-0.016268,-0.004993,-0.031114,-0.0,-0.0,3.0,0.3261,0.325328,0.3261,0.32687,-1.44095,-2022.551205,10.830113,1.521278,-9.98809,-2.33944,-0.008156,-0.016704,-0.00716,-0.14537,-0.000145,0.000931
263420,-0.016077,-0.016272,-0.004648,-0.032949,-0.0,-0.0,3.0,0.3261,0.325314,0.3261,0.326884,-1.284007,-2022.635274,11.057442,1.135752,-9.962937,-2.364707,-0.010984,-0.016706,-0.007141,-0.141313,-0.000121,0.000964
263440,-0.018887,-0.016276,-0.004427,-0.034645,-0.0,-0.0,3.0,0.3261,0.325351,0.3261,0.326847,-1.166977,-2022.745276,11.255256,0.808764,-9.929484,-2.393748,-0.013734,-0.016708,-0.007122,-0.132456,-0.000121,0.000996
263460,-0.021331,-0.016155,-0.004079,-0.036323,-0.0,-0.0,3.0,0.3261,0.325007,0.3261,0.327189,-1.086424,-2022.872721,11.427982,0.552218,-9.897665,-2.42749,-0.016448,-0.01671,-0.007102,-0.124673,-8.4e-05,0.001017
263480,-0.02353,-0.016278,-0.003854,-0.037983,-0.0,-0.0,3.0,0.3261,0.325008,0.3261,0.327188,-1.036713,-2023.011154,11.582816,0.364497,-9.876735,-2.466036,-0.019068,-0.016711,-0.007081,-0.119565,-6e-05,0.00105
263500,-0.025851,-0.015914,-0.003746,-0.03905,-0.0,-0.0,3.0,0.3261,0.32443,0.3261,0.327759,-1.013038,-2023.155952,11.727146,0.237876,-9.874394,-2.50911,-0.021613,-0.016713,-0.00706,-0.123686,-3.5e-05,0.001058
263520,-0.028296,-0.015793,-0.003519,-0.040301,-0.0,-0.0,3.0,0.3261,0.324198,0.3261,0.327987,-1.012506,-2023.303692,11.867942,0.163664,-9.896491,-2.556378,-0.024104,-0.016714,-0.007039,-0.125827,-4.8e-05,0.001066
263540,-0.03086,-0.015551,-0.003414,-0.042337,-0.0,-0.0,3.0,0.3261,0.324633,0.3261,0.327558,-1.03446,-2023.45149,12.012072,0.13485,-9.947045,-2.607613,-0.02652,-0.016715,-0.007017,-0.126552,-3.5e-05,0.001075
263560,-0.033424,-0.015554,-0.003433,-0.043778,-0.0,-0.0,3.0,0.3261,0.324378,0.3261,0.32781,-1.080651,-2023.596372,12.166996,0.149172,-10.028479,-2.662906,-0.028929,-0.016717,-0.006996,-0.130993,-6e-05,0.00107
263580,-0.035989,-0.015558,-0.003453,-0.044593,-0.0,-0.0,3.0,0.3261,0.32418,0.3261,0.328005,-1.155484,-2023.734565,12.341585,0.209702,-10.142135,-2.722721,-0.031339,-0.016718,-0.006974,-0.128334,-8.5e-05,0.001078
263600,-0.038429,-0.015806,-0.003477,-0.046892,-0.0,-0.0,3.0,0.3261,0.324447,0.3261,0.327742,-1.266147,-2023.860619,12.546729,0.322837,-10.288774,-2.787783,-0.033749,-0.016719,-0.006953,-0.118605,-9.7e-05,0.001074
263620,-0.040627,-0.015928,-0.003374,-0.04844,-0.0,-0.0,3.0,0.3261,0.323745,0.3261,0.328433,-1.421513,-2023.966291,12.794605,0.494653,-10.469024,-2.858852,-0.036173,-0.01672,-0.006931,-0.112104,-8.5e-05,0.001082
263640,-0.042948,-0.016054,-0.003395,-0.049967,-0.0,-0.0,3.0,0.3261,0.32316,0.3261,0.329005,-1.627403,-2024.039686,13.093641,0.648387,-10.681019,-2.931137,-0.038573,-0.016721,-0.006909,-0.11341,-7.3e-05,0.001091
263660,-0.045146,-0.016054,-0.003291,-0.05071,-0.0,-0.0,3.0,0.3261,0.321468,0.3261,0.330645,-1.87493,-2024.066473,13.436072,0.757325,-10.915526,-3.002953,-0.041048,-0.016722,-0.006888,-0.116089,-4.8e-05,0.001099
263680,-0.04759,-0.015932,-0.003185,-0.052484,-0.0,-0.0,3.0,0.3261,0.321099,0.3261,0.331,-2.129085,-2024.036357,13.78791,0.822493,-11.161252,-3.074421,-0.04348,-0.016723,-0.006866,-0.12003,-1.1e-05,0.001108
263700,-0.050156,-0.015563,-0.002952,-0.054179,-0.0,-0.0,3.0,0.3261,0.320997,0.3261,0.331098,-2.346375,-2023.950927,14.10695,0.845212,-11.405915,-3.14567,-0.045881,-0.016724,-0.006844,-0.128235,1e-06,0.001104
263720,-0.052601,-0.015319,-0.002843,-0.055069,-0.0,-0.0,3.0,0.3261,0.320921,0.3261,0.33117,-2.505931,-2023.822177,14.374101,0.827138,-11.63671,-3.216836,-0.048267,-0.016725,-0.006822,-0.129822,1e-06,0.001112
263740,-0.055287,-0.015073,-0.002734,-0.056334,-0.0,-0.0,3.0,0.3261,0.32039,0.3261,0.331677,-2.610973,-2023.664058,14.595101,0.770401,-11.841065,-3.288059,-0.050666,-0.016726,-0.006799,-0.127538,-1.1e-05,0.00112
263760,-0.05761,-0.014951,-0.002626,-0.056334,-0.0,-0.0,3.0,0.3261,0.319718,0.3261,0.332318,-2.672489,-2023.487661,14.784504,0.677856,-12.00747,-3.359484,-0.053065,-0.016726,-0.006777,-0.114691,-2.3e-05,0.001128
263780,-0.059807,-0.015192,-0.002527,-0.058939,-0.0,-0.0,3.0,0.3261,0.320062,0.3261,0.331991,-2.699555,-2023.301089,14.956469,0.553237,-12.126261,-3.431249,-0.055407,-0.016726,-0.006754,-0.113993,-4.7e-05,0.001148
263800,-0.061641,-0.015435,-0.002427,-0.060432,-0.0,-0.0,3.0,0.3261,0.319685,0.3261,0.332348,-2.696925,-2023.110738,15.123137,0.401129,-12.190292,-3.503479,-0.057757,-0.016727,-0.006731,-0.106146,-4.7e-05,0.001156
263820,-0.06396,-0.015554,-0.002326,-0.061744,-0.0,-0.0,3.0,0.3261,0.319046,0.3261,0.332953,-2.664952,-2022.922535,15.295723,0.226816,-12.195429,-3.576279,-0.060024,-0.016727,-0.006708,-0.104231,-4.6e-05,0.001177
263840,-0.06604,-0.01567,-0.002102,-0.063033,-0.0,-0.0,3.0,0.3261,0.318603,0.3261,0.33337,-2.599628,-2022.743037,15.486118,0.036028,-12.140766,-3.649729,-0.06226,-0.016727,-0.006684,-0.106786,-9e-06,0.001186
263860,-0.068115,-0.015544,-0.001992,-0.064303,-0.0,-0.0,3.0,0.3261,0.318742,0.3261,0.33324,-2.492614,-2022.580627,15.708134,-0.165348,-12.028544,-3.723878,-0.064411,-0.016727,-0.00666,-0.115129,1.5e-05,0.001195
263880,-0.070438,-0.015175,-0.001875,-0.065274,-0.0,-0.0,3.0,0.3261,0.318534,0.3261,0.333436,-2.332903,-2022.446888,15.976689,-0.371594,-11.863765,-3.798741,-0.066559,-0.016727,-0.006636,-0.116648,5.2e-05,0.001204
263900,-0.072762,-0.014928,-0.001762,-0.066755,-0.0,-0.0,3.0,0.3261,0.31848,0.3261,0.333486,-2.114803,-2022.357194,16.300422,-0.577496,-11.653597,-3.874307,-0.06871,-0.016727,-0.006612,-0.111011,5.2e-05,0.001213
263920,-0.074958,-0.014562,-0.001764,-0.067596,-0.0,-0.0,3.0,0.3261,0.317977,0.3261,0.333957,-1.855655,-2022.327254,16.664377,-0.77865,-11.406703,-3.950539,-0.070857,-0.016726,-0.006588,-0.105328,6.5e-05,0.001209
263940,-0.077038,-0.014554,-0.001536,-0.06833,-0.0,-0.0,3.0,0.3261,0.317209,0.3261,0.334674,-1.603597,-2022.363082,17.022525,-0.971568,-11.132631,-4.02738,-0.073004,-0.016725,-0.006564,-0.106878,5.3e-05,0.001217
263960,-0.079117,-0.01455,-0.001429,-0.069689,-0.0,-0.0,3.0,0.3261,0.316338,0.3261,0.335481,-1.404886,-2022.454206,17.330627,-1.153551,-10.841178,-4.104764,-0.075211,-0.016725,-0.00654,-0.103208,4e-05,0.001212
263980,-0.081191,-0.014671,-0.001448,-0.070785,-0.0,-0.0,3.0,0.3261,0.315296,0.3261,0.336439,-1.272136,-2022.581669,17.5782,-1.322559,-10.541628,-4.182617,-0.077426,-0.016724,-0.006515,-0.102726,1.6e-05,0.00122
264000,-0.083392,-0.014667,-0.001343,-0.07184,-0.0,-0.0,3.0,0.3261,0.314506,0.3261,0.33716,-1.195193,-2022.729094,17.777779,-1.477098,-10.24206,-4.260864,-0.079623,-0.016723,-0.006491,-0.106415,2.9e-05,0.001228
264020,-0.085715,-0.014667,-0.00136,-0.07287,-0.0,-0.0,3.0,0.3261,0.313622,0.3261,0.337962,-1.160454,-2022.885694,17.945739,-1.61604,-9.948963,-4.339434,-0.081835,-0.016722,-0.006466,-0.113196,4.1e-05,0.001237
264040,-0.087793,-0.014667,-0.001375,-0.073562,-0.0,-0.0,3.0,0.3261,0.313322,0.3261,0.338232,-1.157988,-2023.044803,18.095364,-1.738455,-9.667137,-4.418259,-0.084041,-0.016721,-0.006441,-0.112981,4.2e-05,0.001245
264060,-0.089995,-0.014418,-0.001258,-0.074828,-0.0,-0.0,3.0,0.3261,0.313113,0.3261,0.33842,-1.182016,-2023.202054,18.236643,-1.843488,-9.399753,-4.497274,-0.086199,-0.016719,-0.006416,-0.117599,6.7e-05,0.001254
264080,-0.092192,-0.014528,-0.001035,-0.075374,-0.0,-0.0,3.0,0.3261,0.312531,0.3261,0.338943,-1.229999,-2023.354132,18.3775,-1.930283,-9.148506,-4.576422,-0.088355,-0.016718,-0.006391,-0.115361,7.9e-05,0.001262
264100,-0.094515,-0.014522,-0.00093,-0.076516,-0.0,-0.0,3.0,0.3261,0.312269,0.3261,0.339177,-1.301846,-2023.497966,18.52489,-1.997948,-8.913834,-4.655647,-0.090487,-0.016716,-0.006366,-0.110304,9.2e-05,0.001271
264120,-0.096594,-0.014516,-0.000823,-0.077071,-0.0,-0.0,3.0,0.3261,0.311681,0.3261,0.339701,-1.399323,-2023.630135,18.685473,-2.045561,-8.695153,-4.734896,-0.092608,-0.016714,-0.00634,-0.102025,9.2e-05,0.00128
264140,-0.098309,-0.014382,-0.000586,-0.078033,-0.0,-0.0,3.0,0.3261,0.311878,0.3261,0.339526,-1.525337,-2023.746394,18.865682,-2.072199,-8.491115,-4.814121,-0.094622,-0.016712,-0.006315,-0.096655,0.000117,0.001289
264160,-0.099773,-0.014253,-0.000468,-0.078842,-0.0,-0.0,3.0,0.3261,0.312229,0.3261,0.339213,-1.682479,-2023.841373,19.070766,-2.077015,-8.299848,-4.893271,-0.096519,-0.01671,-0.006289,-0.091269,0.000118,0.001298
264180,-0.101364,-0.014008,-0.000467,-0.079609,-0.0,-0.0,3.0,0.3261,0.312509,0.3261,0.338963,-1.870166,-2023.908753,19.30225,-2.059309,-8.119184,-4.972298,-0.098299,-0.016708,-0.006263,-0.082264,0.000131,0.001319
264200,-0.102834,-0.014002,-0.000356,-0.079983,-0.0,-0.0,3.0,0.3261,0.312163,0.3261,0.339272,-2.080777,-2023.942437,19.554282,-2.018618,-7.946841,-5.051155,-0.099998,-0.016706,-0.006237,-0.075446,0.000119,0.001315
264220,-0.103811,-0.013994,-0.000241,-0.08083,-0.0,-0.0,3.0,0.3261,0.312493,0.3261,0.338977,-2.298106,-2023.938856,19.812228,-1.954781,-7.780569,-5.129795,-0.101589,-0.016704,-0.00621,-0.064856,0.000131,0.001324
264240,-0.104664,-0.01375,-0.000234,-0.081569,-0.0,-0.0,3.0,0.3261,0.313167,0.3261,0.338372,-2.502347,-2023.899057,20.057758,-1.868047,-7.618287,-5.208174,-0.102981,-0.016701,-0.006184,-0.059804,0.000143,0.001321
264260,-0.105768,-0.013743,-0.00012,-0.081965,-0.0,-0.0,3.0,0.3261,0.313723,0.3261,0.33787,-2.678859,-2023.828508,20.277698,-1.759216,-7.458213,-5.28625,-0.104191,-0.016699,-0.006158,-0.056705,0.000144,0.00133
264280,-0.106988,-0.013613,0.0,-0.082519,-0.0,-0.0,3.0,0.3261,0.314191,0.3261,0.337447,-2.822228,-2023.734688,20.468179,-1.629741,-7.299008,-5.363987,-0.105287,-0.016696,-0.006131,-0.056712,0.000144,0.001326
264300,-0.10797,-0.013613,-6e-06,-0.083309,-0.0,-0.0,3.0,0.3261,0.314743,0.3261,0.336945,-2.933788,-2023.624708,20.632224,-1.481744,-7.139871,-5.441353,-0.106316,-0.016694,-0.006104,-0.05531,0.000132,0.001335
264320,-0.108824,-0.013484,0.000116,-0.083843,-0.0,-0.0,3.0,0.3261,0.315418,0.3261,0.336327,-3.017475,-2023.504267,20.77568,-1.317956,-6.980576,-5.518324,-0.10727,-0.016691,-0.006078,-0.048789,0.000132,0.001332
264340,-0.109556,-0.013598,0.000227,-0.084333,-0.0,-0.0,3.0,0.3261,0.316234,0.3261,0.335577,-3.077214,-2023.377628,20.904713,-1.141635,-6.821455,-5.594885,-0.108112,-0.016688,-0.006051,-0.041963,0.00012,0.00134
264360,-0.110294,-0.01372,0.000215,-0.08479,-0.0,-0.0,3.0,0.3261,0.316079,0.3261,0.33572,-3.115905,-2023.24798,21.024906,-0.956472,-6.663331,-5.671029,-0.10894,-0.016685,-0.006024,-0.032345,9.6e-05,0.001348
264380,-0.110783,-0.013712,0.000333,-0.085075,-0.0,-0.0,3.0,0.3261,0.315605,0.3261,0.336156,-3.135194,-2023.117841,21.141212,-0.766476,-6.507434,-5.74676,-0.109737,-0.016683,-0.005997,-0.034023,0.000109,0.001357
264400,-0.11127,-0.013834,0.000323,-0.085321,-0.0,-0.0,3.0,0.3261,0.315266,0.3261,0.336466,-3.135507,-2022.989394,21.258197,-0.575856,-6.355287,-5.822089,-0.110506,-0.01668,-0.005969,-0.032974,0.000121,0.001367
264420,-0.111887,-0.013827,0.000441,-0.085763,-0.0,-0.0,3.0,0.3261,0.315172,0.3261,0.336553,-3.116119,-2022.864787,21.380361,-0.388879,-6.208591,-5.897037,-0.111218,-0.016676,-0.005942,-0.0373,0.000134,0.001376
264440,-0.112985,-0.013818,0.000555,-0.085945,-0.0,-0.0,3.0,0.3261,0.314633,0.3261,0.337045,-3.075215,-2022.746403,21.51241,-0.20974,-6.069111,-5.971629,-0.111926,-0.016673,-0.005915,-0.045076,0.000159,0.001387
264460,-0.113839,-0.013688,0.000678,-0.086422,-0.0,-0.0,3.0,0.3261,0.314676,0.3261,0.337005,-3.01002,-2022.637153,21.659386,-0.042423,-5.938568,-6.045898,-0.112674,-0.01667,-0.005887,-0.044576,0.000171,0.001396
264480,-0.114944,-0.013559,0.000799,-0.086573,-0.0,-0.0,3.0,0.3261,0.314576,0.3261,0.337096,-2.917243,-2022.540762,21.826418,0.109413,-5.818545,-6.119881,-0.11341,-0.016667,-0.005859,-0.044613,0.000195,0.001394
264500,-0.115797,-0.013307,0.000929,-0.086786,-0.0,-0.0,3.0,0.3261,0.314419,0.3261,0.337239,-2.794253,-2022.461965,22.017682,0.242535,-5.710412,-6.193619,-0.114183,-0.016663,-0.005831,-0.039841,0.000208,0.001404
264520,-0.116536,-0.013184,0.000931,-0.086962,-0.0,-0.0,3.0,0.3261,0.313617,0.3261,0.337966,-2.641483,-2022.406346,22.234109,0.354195,-5.615274,-6.267152,-0.115002,-0.016659,-0.005803,-0.040834,0.000208,0.001401
264540,-0.117146,-0.013176,0.001049,-0.087096,-0.0,-0.0,3.0,0.3261,0.312652,0.3261,0.338834,-2.465611,-2022.379422,22.470279,0.442185,-5.533947,-6.340523,-0.115891,-0.016656,-0.005775,-0.03655,0.000196,0.001409
264560,-0.117633,-0.013054,0.001053,-0.087149,-0.0,-0.0,3.0,0.3261,0.312124,0.3261,0.339307,-2.280856,-2022.384836,22.713189,0.504877,-5.466949,-6.413776,-0.116744,-0.016652,-0.005747,-0.029522,0.000208,0.001406
264580,-0.118365,-0.013045,0.00117,-0.087218,-0.0,-0.0,3.0,0.3261,0.311619,0.3261,0.339757,-2.104983,-2022.422616,22.94629,0.54131,-5.414514,-6.486952,-0.117525,-0.016648,-0.005719,-0.028154,0.000208,0.001415
264600,-0.118983,-0.013038,0.001288,-0.087266,-0.0,-0.0,3.0,0.3261,0.311424,0.3261,0.33993,-1.951906,-2022.489085,23.156937,0.551252,-5.376589,-6.560094,-0.118238,-0.016644,-0.005691,-0.035954,0.00022,0.001412
264620,-0.119714,-0.013036,0.001283,-0.087259,-0.0,-0.0,3.0,0.3261,0.311173,0.3261,0.340153,-1.827652,-2022.57857,23.340481,0.535214,-5.352806,-6.633241,-0.118937,-0.01664,-0.005663,-0.043906,0.000208,0.001408
264640,-0.120323,-0.012913,0.001286,-0.087237,-0.0,-0.0,3.0,0.3261,0.311705,0.3261,0.33968,-1.731911,-2022.685347,23.498777,0.4944,-5.34246,-6.70643,-0.11959,-0.016636,-0.005634,-0.035721,0.000207,0.001405
264660,-0.120939,-0.012791,0.00129,-0.087133,-0.0,-0.0,3.0,0.3261,0.31241,0.3261,0.339051,-1.661546,-2022.804657,23.636752,0.43065,-5.344491,-6.779699,-0.120103,-0.016632,-0.005606,-0.031372,0.000195,0.001401
264680,-0.121183,-0.013034,0.001273,-0.08701,-0.0,-0.0,3.0,0.3261,0.312657,0.3261,0.33883,-1.613102,-2022.932859,23.759997,0.346382,-5.357485,-6.853079,-0.120588,-0.016628,-0.005578,-0.020804,0.00017,0.001397
264700,-0.121305,-0.012912,0.00128,-0.08685,-0.0,-0.0,3.0,0.3261,0.312866,0.3261,0.338642,-1.583937,-2023.067194,23.873789,0.244539,-5.37969,-6.926601,-0.120979,-0.016624,-0.00555,-0.01299,0.000158,0.001406
264720,-0.121183,-0.013278,0.001259,-0.08665,-0.0,-0.0,3.0,0.3261,0.313,0.3261,0.338522,-1.572584,-2023.205464,23.98296,0.128536,-5.409043,-7.000291,-0.121277,-0.01662,-0.005521,-0.007874,0.000146,0.001402
264740,-0.121061,-0.013156,0.001267,-0.086537,-0.0,-0.0,3.0,0.3261,0.313419,0.3261,0.338145,-1.578857,-2023.345726,24.092148,0.0022,-5.443204,-7.074171,-0.121452,-0.016616,-0.005493,-0.002809,0.00017,0.001401
264760,-0.121061,-0.013278,0.001259,-0.086338,-0.0,-0.0,3.0,0.3261,0.313788,0.3261,0.337812,-1.603944,-2023.486006,24.206205,-0.13029,-5.479615,-7.148258,-0.121516,-0.016612,-0.005465,-0.000923,0.000194,0.001399
264780,-0.121061,-0.013278,0.001259,-0.086017,-0.0,-0.0,3.0,0.3261,0.313748,0.3261,0.337847,-1.650638,-2023.623983,24.330728,-0.264487,-5.515563,-7.22256,-0.121535,-0.016608,-0.005437,-0.003914,0.000206,0.001409
264800,-0.121305,-0.0134,0.00125,-0.085799,-0.0,-0.0,3.0,0.3261,0.313569,0.3261,0.338009,-1.723692,-2023.756585,24.472656,-0.395765,-5.548275,-7.297081,-0.121557,-0.016604,-0.005409,-0.006794,0.000205,0.001394
264820,-0.12155,-0.01327,0.001378,-0.085182,-0.0,-0.0,3.0,0.3261,0.313277,0.3261,0.338273,-1.830154,-2023.879414,24.640795,-0.51944,-5.575026,-7.371816,-0.121605,-0.0166,-0.005381,-0.001877,0.000205,0.001404
264840,-0.121671,-0.013148,0.001384,-0.084905,-0.0,-0.0,3.0,0.3261,0.313061,0.3261,0.338467,-1.978943,-2023.985977,24.845535,-0.630908,-5.593269,-7.44675,-0.121646,-0.016596,-0.005353,-0.004233,0.000218,0.001414
264860,-0.121793,-0.013026,0.001391,-0.084465,-0.0,-0.0,3.0,0.3261,0.312343,0.3261,0.339111,-2.177612,-2024.066992,25.095725,-0.725801,-5.600773,-7.52186,-0.12174,-0.016592,-0.005325,-0.008571,0.00023,0.001411
264880,-0.122037,-0.013025,0.001389,-0.083978,-0.0,-0.0,3.0,0.3261,0.311562,0.3261,0.339807,-2.42331,-2024.11097,25.389741,-0.800135,-5.595732,-7.597114,-0.121891,-0.016588,-0.005297,-0.007756,0.000229,0.001409
264900,-0.122159,-0.013025,0.001389,-0.083461,-0.0,-0.0,3.0,0.3261,0.310722,0.3261,0.340552,-2.691593,-2024.108189,25.704372,-0.850436,-5.576839,-7.672474,-0.122089,-0.016583,-0.005269,-0.009078,0.000217,0.001405
264920,-0.122159,-0.012896,0.001518,-0.083135,-0.0,-0.0,3.0,0.3261,0.310786,0.3261,0.340495,-2.942392,-2024.057115,26.000847,-0.87397,-5.543312,-7.747895,-0.122261,-0.016579,-0.005241,-0.004048,0.000216,0.00139
264940,-0.122159,-0.012896,0.001518,-0.082675,-0.0,-0.0,3.0,0.3261,0.310416,0.3261,0.340821,-3.146917,-2023.965869,26.251808,-0.869142,-5.494948,-7.823326,-0.122403,-0.016575,-0.005214,0.003578,0.000215,0.001387
264960,-0.122159,-0.012774,0.001525,-0.081839,-0.0,-0.0,3.0,0.3261,0.309835,0.3261,0.341332,-3.300164,-2023.846314,26.453897,-0.835776,-5.432207,-7.898719,-0.122488,-0.016571,-0.005186,0.005994,0.000215,0.001384
264980,-0.122159,-0.012896,0.001518,-0.08135,-0.0,-0.0,3.0,0.3261,0.309411,0.3261,0.341703,-3.410185,-2023.708558,26.617094,-0.775105,-5.356245,-7.974025,-0.12255,-0.016567,-0.005158,-0.002779,0.000215,0.001381
265000,-0.122159,-0.012896,0.001518,-0.080478,-0.0,-0.0,3.0,0.3261,0.308628,0.3261,0.342385,-3.486709,-2023.559609,26.753417,-0.68965,-5.268862,-8.049202,-0.122649,-0.016563,-0.00513,-0.007186,0.000214,0.001379
265020,-0.122159,-0.012774,0.001525,-0.07998,-0.0,-0.0,3.0,0.3261,0.308862,0.3261,0.342181,-3.536973,-2023.40409,26.872898,-0.583107,-5.17238,-8.124215,-0.122678,-0.016559,-0.005103,-0.002594,0.000202,0.001375
265040,-0.122038,-0.012652,0.001534,-0.079132,-0.0,-0.0,3.0,0.3261,0.3091,0.3261,0.341974,-3.565279,-2023.245187,26.983392,-0.460196,-5.069481,-8.199038,-0.122615,-0.016554,-0.005075,-0.000867,0.000214,0.001385
265060,-0.121916,-0.012653,0.001534,-0.078342,-0.0,-0.0,3.0,0.3261,0.309291,0.3261,0.341808,-3.573438,-2023.085339,27.091399,-0.326456,-4.963011,-8.273657,-0.122489,-0.01655,-0.005047,-0.000897,0.000213,0.00137
265080,-0.121915,-0.012538,0.00142,-0.077518,-0.0,-0.0,3.0,0.3261,0.309052,0.3261,0.342016,-3.561089,-2022.926758,27.202995,-0.187973,-4.85579,-8.348065,-0.122362,-0.016545,-0.00502,0.002519,0.000212,0.001368
265100,-0.121793,-0.012782,0.001406,-0.076621,-0.0,-0.0,3.0,0.3261,0.308711,0.3261,0.342313,-3.525692,-2022.771868,27.324752,-0.051061,-4.750435,-8.422269,-0.122237,-0.016541,-0.004992,0.005979,0.000175,0.001363
265120,-0.121671,-0.012904,0.001399,-0.075974,-0.0,-0.0,3.0,0.3261,0.307822,0.3261,0.343083,-3.462167,-2022.623821,27.464695,0.078083,-4.64921,-8.496282,-0.122153,-0.016537,-0.004965,0.010537,0.000187,0.001361
265140,-0.121306,-0.013149,0.001387,-0.075308,-0.0,-0.0,3.0,0.3261,0.307231,0.3261,0.343591,-3.362349,-2022.487224,27.633234,0.193726,-4.553924,-8.570126,-0.122058,-0.016532,-0.004938,0.011283,0.000174,0.001358
265160,-0.121062,-0.013149,0.001389,-0.073924,-0.0,-0.0,3.0,0.3261,0.306468,0.3261,0.344245,-3.215121,-2022.369182,27.843289,0.290909,-4.46588,-8.643828,-0.121924,-0.016528,-0.00491,0.007417,0.000186,0.001356
265180,-0.12094,-0.013027,0.001397,-0.073253,-0.0,-0.0,3.0,0.3261,0.305997,0.3261,0.344646,-3.010094,-2022.280397,28.106781,0.365672,-4.385874,-8.71742,-0.121794,-0.016524,-0.004883,0.003637,0.000211,0.001367
265200,-0.121062,-0.012905,0.001403,-0.072098,-0.0,-0.0,3.0,0.3261,0.305201,0.3261,0.345322,-2.749989,-2022.234682,28.422386,0.415144,-4.314254,-8.790936,-0.121666,-0.016519,-0.004856,-0.0001,0.000222,0.001365
265220,-0.121184,-0.012905,0.001403,-0.071031,-0.0,-0.0,3.0,0.3261,0.304864,0.3261,0.345605,-2.467153,-2022.24352,28.759113,0.43754,-4.251055,-8.864409,-0.121546,-0.016515,-0.004829,-1.3e-05,0.000233,0.001351
265240,-0.121184,-0.013027,0.001395,-0.069959,-0.0,-0.0,3.0,0.3261,0.304457,0.3261,0.345948,-2.212892,-2022.307121,29.067036,0.43234,-4.196172,-8.937875,-0.121432,-0.016511,-0.004802,0.000273,0.000221,0.001347
265260,-0.12094,-0.012906,0.001404,-0.069403,-0.0,-0.0,3.0,0.3261,0.304478,0.3261,0.345931,-2.017827,-2022.413816,29.317019,0.400577,-4.149476,-9.011366,-0.12131,-0.016506,-0.004775,0.007381,0.000207,0.001332
265280,-0.120452,-0.013036,0.001278,-0.067868,-0.0,-0.0,3.0,0.3261,0.30441,0.3261,0.345988,-1.88135,-2022.549221,29.51136,0.344784,-4.110818,-9.084913,-0.121114,-0.016502,-0.004748,0.01611,0.000195,0.001329
265300,-0.119835,-0.013036,0.001282,-0.067868,-0.0,-0.0,3.0,0.3261,0.305044,0.3261,0.345454,-1.790599,-2022.702503,29.664893,0.268686,-4.080021,-9.15854,-0.120828,-0.016498,-0.004721,0.029008,0.000194,0.001327
265320,-0.119225,-0.013166,0.001157,-0.06577,-0.0,-0.0,3.0,0.3261,0.303806,0.3261,0.346494,-1.733657,-2022.866809,29.791917,0.176886,-4.056909,-9.232269,-0.120465,-0.016494,-0.004695,0.028979,0.000207,0.001337
265340,-0.118495,-0.013038,0.001291,-0.06465,-0.0,-0.0,3.0,0.3261,0.304072,0.3261,0.346271,-1.702644,-2023.037878,29.90335,0.074589,-4.041328,-9.306113,-0.119993,-0.01649,-0.004668,0.029486,0.000231,0.001336
265360,-0.117635,-0.012917,0.001304,-0.063689,-0.0,-0.0,3.0,0.3261,0.304214,0.3261,0.346153,-1.69334,-2023.212848,30.007534,-0.032676,-4.033154,-9.380083,-0.119439,-0.016486,-0.004642,0.027804,0.000242,0.001323
265380,-0.117025,-0.012797,0.001315,-0.06223,-0.0,-0.0,3.0,0.3261,0.304944,0.3261,0.345539,-1.704537,-2023.38947,30.111614,-0.139345,-4.032262,-9.454179,-0.118741,-0.016481,-0.004616,0.025343,0.000253,0.001321
265400,-0.116415,-0.012805,0.001197,-0.060914,-0.0,-0.0,3.0,0.3261,0.304938,0.3261,0.345543,-1.737898,-2023.565521,30.222944,-0.240095,-4.038475,-9.528401,-0.118036,-0.016477,-0.004589,0.036683,0.00024,0.001318
265420,-0.115555,-0.012805,0.001203,-0.05958,-0.0,-0.0,3.0,0.3261,0.304891,0.3261,0.345583,-1.798592,-2023.738211,30.350693,-0.330105,-4.051493,-9.602738,-0.117263,-0.016473,-0.004563,0.039265,0.000215,0.001303
265440,-0.11458,-0.012929,0.001202,-0.058909,-0.0,-0.0,3.0,0.3261,0.305046,0.3261,0.345452,-1.896939,-2023.903275,30.508096,-0.405291,-4.070814,-9.677178,-0.11648,-0.016469,-0.004537,0.041323,0.00019,0.001299
265460,-0.113477,-0.013052,0.001203,-0.05721,-0.0,-0.0,3.0,0.3261,0.304714,0.3261,0.345732,-2.051115,-2024.05333,30.71552,-0.462506,-4.095673,-9.751702,-0.115665,-0.016465,-0.004511,0.049692,0.000177,0.001297
265480,-0.112379,-0.013183,0.001081,-0.055969,-0.0,-0.0,3.0,0.3261,0.304356,0.3261,0.346033,-2.288072,-2024.174889,31.001629,-0.499679,-4.124988,-9.82629,-0.114799,-0.016462,-0.004486,0.056361,0.000164,0.001282
265500,-0.111275,-0.013305,0.001082,-0.054486,-0.0,-0.0,3.0,0.3261,0.304228,0.3261,0.346141,-2.626979,-2024.245154,31.387016,-0.515819,-4.157321,-9.900917,-0.113829,-0.016458,-0.00446,0.056698,0.000176,0.001281
265520,-0.110177,-0.013192,0.000974,-0.052884,-0.0,-0.0,3.0,0.3261,0.304084,0.3261,0.346262,-3.022361,-2024.238441,31.827534,-0.510712,-4.190781,-9.97556,-0.112793,-0.016455,-0.004435,0.047915,0.000187,0.001267
265540,-0.109317,-0.012949,0.000993,-0.052884,-0.0,-0.0,3.0,0.3261,0.304836,0.3261,0.345629,-3.359812,-2024.151658,32.210118,-0.484831,-4.222839,-10.050192,-0.111759,-0.016451,-0.004409,0.046262,0.000211,0.001267
265560,-0.108464,-0.012706,0.001012,-0.050493,-0.0,-0.0,3.0,0.3261,0.304267,0.3261,0.346108,-3.586546,-2024.009587,32.483516,-0.440172,-4.250352,-10.124787,-0.11073,-0.016448,-0.004384,0.05199,0.000209,0.001253
