time_ms,roll,pitch,yaw,reference_roll,reference_pitch,reference_yaw,reference_throttle,throttle_1,throttle_2,throttle_3,throttle_4,roll_predicted,pitch_predicted,yaw_predicted,roll_rate_predicted,pitch_rate_predicted,yaw_rate_predicted,value1,value2,value3,value4,value5,value6
119006,0.004428,-0.000311,-0.959273,0.0,-0.0,-0.0,3.0,0.336475,0.318095,0.315257,0.333847,0.0,0.0,-0.002283,-0.0,-0.0,-0.000122,-0.003841,-0.000142,-0.816721,-1.7e-05,5.9e-05,-0.008462
119026,0.004324,-0.00064,-0.959481,0.0,-0.0,-0.0,3.0,0.339953,0.318126,0.311398,0.333818,0.0,0.0,-0.002285,-0.0,-0.0,-0.000122,-0.003876,-0.00014,-0.81689,-0.001716,3.7e-05,-0.008446
119046,0.004437,-0.000857,-0.959688,0.000952,-0.0,-0.0,3.0,0.342205,0.317747,0.308835,0.334173,3e-06,0.0,-0.002288,0.001097,-0.0,-0.000122,-0.003922,-0.000139,-0.817059,0.000444,1.5e-05,-0.008435
119066,0.004658,-0.001016,-0.959811,0.002805,-0.0,-0.0,3.0,0.341393,0.31681,0.309765,0.335044,4.2e-05,0.0,-0.00229,0.004397,-0.0,-0.000122,-0.003948,-0.000138,-0.817228,2.7e-05,2.6e-05,-0.008439
119086,0.004606,-0.001181,-0.960019,0.004861,-0.0,-0.0,3.0,0.341444,0.316072,0.309707,0.335726,0.000158,0.0,-0.002293,0.008909,-0.0,-0.000122,-0.003939,-0.000137,-0.817396,-9.2e-05,2.6e-05,-0.008428
119106,0.004606,-0.00118,-0.960081,0.005974,-0.0,-0.0,3.0,0.339172,0.315599,0.312275,0.336161,0.000363,0.0,-0.002295,0.012209,-0.0,-0.000122,-0.003922,-0.000136,-0.817565,0.001154,3.1e-05,-0.008432
119126,0.00455,-0.001072,-0.960288,0.008196,-0.0,-0.0,3.0,0.338627,0.31472,0.312883,0.336966,0.000622,0.0,-0.002297,0.015282,-0.0,-0.000122,-0.003881,-0.000135,-0.817734,-0.000937,5.3e-05,-0.008436
119146,0.004385,-0.00102,-0.960351,0.009126,-0.0,-0.0,3.0,0.337171,0.314219,0.314494,0.337421,0.000951,0.0,-0.0023,0.018179,-0.0,-0.000122,-0.003863,-0.000134,-0.817902,-0.001961,6.4e-05,-0.008425
119166,0.004493,-0.000963,-0.960557,0.010999,-0.0,-0.0,3.0,0.33486,0.313319,0.317008,0.338235,0.001326,0.0,-0.002302,0.0206,-0.0,-0.000122,-0.003855,-0.000133,-0.818071,0.000118,8.6e-05,-0.008429
119186,0.00471,-0.000849,-0.960826,0.013535,-0.0,-0.0,3.0,0.332809,0.31221,0.319199,0.33923,0.00176,-0.0,-0.002305,0.02478,-0.0,-0.000122,-0.003826,-0.000132,-0.81824,0.001913,0.000108,-0.008439
119206,0.004654,-0.000741,-0.961095,0.015381,-0.0,-0.0,3.0,0.33235,0.31122,0.319683,0.340111,0.002286,-0.0,-0.002307,0.029018,-0.0,-0.000122,-0.003789,-0.00013,-0.818409,0.003663,0.000103,-0.008449
119226,0.004979,-0.000571,-0.961301,0.016287,-0.0,-0.0,3.0,0.333255,0.31108,0.318726,0.340235,0.002883,-0.0,-0.00231,0.030998,-0.0,-0.000122,-0.00373,-0.000129,-0.818578,0.006649,7.6e-05,-0.008459
119246,0.005195,-0.000457,-0.961424,0.018081,-0.0,-0.0,3.0,0.334135,0.310587,0.317787,0.34067,0.003509,-0.0,-0.002312,0.032614,-1e-06,-0.000122,-0.003619,-0.000128,-0.818747,0.007378,7e-05,-0.008469
119266,0.005416,-0.000617,-0.96163,0.020012,-0.0,-0.0,3.0,0.336713,0.309707,0.314997,0.341444,0.004178,-0.0,-0.002315,0.035641,-1e-06,-0.000122,-0.003498,-0.000127,-0.818916,0.00727,4.9e-05,-0.008458
119286,0.005581,-0.000668,-0.961836,0.021392,-0.0,-0.0,3.0,0.337054,0.308879,0.314622,0.342166,0.00491,-0.0,-0.002317,0.038291,-1e-06,-0.000122,-0.003385,-0.000126,-0.819085,0.009452,4.9e-05,-0.008462
119306,0.005962,-0.000607,-0.961896,0.023517,-0.0,-0.0,3.0,0.338084,0.307767,0.313486,0.34313,0.005688,-0.0,-0.00232,0.040847,-1e-06,-0.000122,-0.003254,-0.000124,-0.819254,0.009142,5.5e-05,-0.008451
119326,0.006343,-0.000545,-0.962101,0.025234,-0.0,-0.0,3.0,0.338774,0.307256,0.31272,0.34357,0.006523,-0.0,-0.002322,0.043734,-1e-06,-0.000122,-0.003091,-0.000123,-0.819423,0.01064,5.5e-05,-0.008455
119346,0.006673,-0.000648,-0.962162,0.026208,-0.0,-0.0,3.0,0.338247,0.30725,0.313306,0.343575,0.00741,-0.0,-0.002324,0.045239,-1e-06,-0.000122,-0.002877,-0.000122,-0.819592,0.012917,6.1e-05,-0.008444
119366,0.00711,-0.000694,-0.962428,0.028791,-0.0,-0.0,3.0,0.339609,0.306651,0.311785,0.344089,0.008321,-0.0,-0.002327,0.047517,-1e-06,-0.000122,-0.002596,-0.00012,-0.819761,0.013584,5.1e-05,-0.008447
119386,0.007661,-0.000957,-0.962632,0.030524,-0.0,-0.0,3.0,0.341748,0.306581,0.309359,0.344148,0.009294,-0.0,-0.002329,0.050855,-1e-06,-0.000122,-0.002263,-0.000119,-0.81993,0.015085,1.9e-05,-0.008451
119406,0.008372,-0.000998,-0.962834,0.03139,-0.0,-0.0,3.0,0.340336,0.307284,0.310966,0.343546,0.010323,-0.0,-0.002332,0.0521,-1e-06,-0.000122,-0.001865,-0.000118,-0.820099,0.022296,2.6e-05,-0.008446
119426,0.009356,-0.001034,-0.963096,0.033094,-0.0,-0.0,3.0,0.339414,0.307692,0.312004,0.343195,0.011365,-0.0,-0.002334,0.052918,-2e-06,-0.000122,-0.001353,-0.000117,-0.820268,0.027191,4.4e-05,-0.008455
119446,0.01039,-0.000905,-0.96321,0.035169,-0.0,-0.0,3.0,0.338862,0.307969,0.312621,0.342955,0.012434,-0.0,-0.002337,0.055341,-2e-06,-0.000122,-0.000738,-0.000116,-0.820437,0.033702,4.6e-05,-0.008458
119466,0.011534,-0.000719,-0.963468,0.03623,-0.0,-0.0,3.0,0.337314,0.308949,0.314337,0.342106,0.013556,-0.0,-0.002339,0.057166,-2e-06,-0.000122,1e-06,-0.000115,-0.820606,0.040699,7e-05,-0.008467
119486,0.012956,-0.000801,-0.963867,0.038036,-0.0,-0.0,3.0,0.338223,0.309853,0.313333,0.341316,0.014702,-0.0,-0.002342,0.058341,-2e-06,-0.000122,0.000872,-0.000113,-0.820776,0.047442,7.2e-05,-0.008475
119506,0.014598,-0.001042,-0.964117,0.039488,-0.0,-0.0,3.0,0.339094,0.310792,0.312363,0.340489,0.015878,-0.0,-0.002344,0.059932,-2e-06,-0.000122,0.001862,-0.000112,-0.820946,0.054105,5.3e-05,-0.008483
119526,0.016293,-0.001119,-0.964302,0.041225,-0.0,-0.0,3.0,0.338548,0.311806,0.312971,0.33959,0.017084,-0.0,-0.002346,0.061518,-2e-06,-0.000122,0.002988,-0.000111,-0.821115,0.06333,5.1e-05,-0.008491
119546,0.018208,-0.001354,-0.964543,0.042653,-0.0,-0.0,3.0,0.338903,0.313069,0.312575,0.33846,0.018323,-0.0,-0.002349,0.06297,-3e-06,-0.000122,0.004264,-0.00011,-0.821285,0.071301,3.8e-05,-0.008513
119566,0.020227,-0.001259,-0.964778,0.044401,-0.0,-0.0,3.0,0.336543,0.31407,0.315183,0.337556,0.019588,-0.0,-0.002351,0.064364,-3e-06,-0.000122,0.005683,-0.00011,-0.821455,0.078012,4.2e-05,-0.008519
119586,0.022189,-0.001055,-0.965009,0.045982,-0.0,-0.0,3.0,0.333941,0.31535,0.317995,0.33639,0.020884,-0.0,-0.002354,0.065897,-3e-06,-0.000122,0.007258,-0.000109,-0.821626,0.081054,6.7e-05,-0.00852
119606,0.024095,-0.000744,-0.965177,0.04753,-0.0,-0.0,3.0,0.332893,0.316342,0.319109,0.335477,0.022208,-0.0,-0.002356,0.067163,-3e-06,-0.000122,0.00893,-0.000108,-0.821796,0.083528,8.2e-05,-0.008526
119626,0.026221,-0.000591,-0.965398,0.048357,-0.0,-0.0,3.0,0.333698,0.317703,0.318254,0.334213,0.023554,-0.0,-0.002359,0.06747,-3e-06,-0.000122,0.010677,-0.000107,-0.821967,0.088012,8.1e-05,-0.008531
119646,0.028076,-0.000442,-0.965768,0.049622,-0.0,-0.0,3.0,0.334073,0.318858,0.317854,0.333131,0.024899,-0.0,-0.002361,0.067381,-3e-06,-0.000122,0.012514,-0.000105,-0.822138,0.094208,9.1e-05,-0.008536
119666,0.0301,-0.000617,-0.965986,0.0512,-0.0,-0.0,3.0,0.335317,0.319171,0.316515,0.332835,0.026248,-0.0,-0.002364,0.068258,-3e-06,-0.000122,0.014388,-0.000104,-0.822309,0.096278,7.3e-05,-0.008555
119686,0.032067,-0.000683,-0.966201,0.052265,-0.0,-0.0,3.0,0.336731,0.319293,0.314977,0.332719,0.027618,-0.0,-0.002366,0.069024,-4e-06,-0.000122,0.016262,-0.000103,-0.82248,0.09536,4.4e-05,-0.00856
119706,0.033655,-0.000811,-0.96657,0.054423,-0.0,-0.0,3.0,0.337707,0.31881,0.313903,0.333176,0.029,-0.0,-0.002369,0.070285,-4e-06,-0.000122,0.018129,-0.000102,-0.822651,0.092296,2.1e-05,-0.008565
119726,0.035241,-0.000938,-0.966792,0.055683,-0.0,-0.0,3.0,0.336683,0.318447,0.315029,0.333517,0.030416,-0.0,-0.002371,0.071776,-4e-06,-0.000122,0.019944,-0.000102,-0.822822,0.088423,1.9e-05,-0.008585
119746,0.036771,-0.00096,-0.966951,0.057073,-0.0,-0.0,3.0,0.339711,0.317762,0.31167,0.334158,0.031853,-0.0,-0.002373,0.072276,-4e-06,-0.000122,0.021685,-0.000101,-0.822994,0.083373,-6e-06,-0.008584
119766,0.037749,-0.000717,-0.967186,0.058466,-0.0,-0.0,3.0,0.338335,0.316895,0.313208,0.334965,0.033299,-0.0,-0.002376,0.07278,-4e-06,-0.000122,0.023332,-0.000101,-0.823166,0.080918,3e-05,-0.008589
119786,0.038897,-0.000797,-0.967417,0.059816,-0.0,-0.0,3.0,0.340922,0.315402,0.310302,0.336342,0.034756,-0.0,-0.002378,0.07335,-4e-06,-0.000122,0.024855,-9.9e-05,-0.823337,0.072797,3.8e-05,-0.00859
119806,0.040046,-0.00088,-0.967585,0.060549,-0.0,-0.0,3.0,0.340351,0.314393,0.310949,0.337262,0.036222,-0.0,-0.002381,0.073151,-5e-06,-0.000122,0.026258,-9.8e-05,-0.823509,0.065519,5.6e-05,-0.008596
119826,0.040649,-0.000972,-0.967833,0.062292,-0.0,-0.0,3.0,0.339355,0.313084,0.31207,0.338446,0.037679,-0.0,-0.002383,0.073325,-5e-06,-0.000122,0.027568,-9.7e-05,-0.823681,0.058046,6.9e-05,-0.008597
119846,0.041253,-0.001065,-0.968019,0.063184,-0.0,-0.0,3.0,0.337913,0.311882,0.313676,0.339523,0.039149,-0.0,-0.002386,0.073815,-5e-06,-0.000122,0.028739,-9.5e-05,-0.823853,0.052539,5.5e-05,-0.008604
119866,0.04202,-0.001207,-0.968261,0.064231,-0.0,-0.0,3.0,0.336864,0.311144,0.314831,0.340178,0.040621,-0.0,-0.002388,0.073461,-5e-06,-0.000122,0.029816,-9.5e-05,-0.824025,0.049771,4.6e-05,-0.00859
119886,0.042781,-0.00108,-0.968293,0.065979,-0.0,-0.0,3.0,0.335596,0.310209,0.316213,0.341003,0.042087,-0.0,-0.002391,0.073977,-5e-06,-0.000122,0.03083,-9.4e-05,-0.824197,0.049363,4.3e-05,-0.00859
119906,0.043657,-0.001167,-0.968467,0.066742,-0.0,-0.0,3.0,0.336149,0.3095,0.315612,0.341625,0.04357,-0.0,-0.002393,0.074337,-6e-06,-0.000122,0.031784,-9.3e-05,-0.824368,0.049772,4e-05,-0.008596
119926,0.044959,-0.000752,-0.968682,0.068143,-0.0,-0.0,3.0,0.332985,0.309237,0.319012,0.341855,0.045051,-0.0,-0.002395,0.074148,-6e-06,-0.000122,0.032735,-9.3e-05,-0.82454,0.051625,7e-05,-0.008595
119946,0.046318,-0.000447,-0.968832,0.069295,-0.0,-0.0,3.0,0.333513,0.309488,0.318452,0.341636,0.046534,-0.0,-0.002398,0.074374,-6e-06,-0.000122,0.033736,-9.2e-05,-0.824712,0.053557,8.9e-05,-0.0086
119966,0.04785,-0.000462,-0.969183,0.069855,-0.0,-0.0,3.0,0.333529,0.310416,0.318434,0.340821,0.048017,-0.0,-0.0024,0.073731,-6e-06,-0.000122,0.034807,-9e-05,-0.824884,0.057574,9.2e-05,-0.008597
119986,0.049761,-0.000417,-0.969308,0.070973,-0.0,-0.0,3.0,0.335338,0.311784,0.316492,0.339609,0.049482,-0.0,-0.002403,0.072932,-6e-06,-0.000122,0.036,-8.9e-05,-0.825056,0.064408,8.5e-05,-0.0086
120006,0.051512,-0.000591,-0.9695,0.071697,-0.0,-0.0,3.0,0.338339,0.313502,0.313204,0.33807,0.050936,-0.0,-0.002405,0.072447,-6e-06,-0.000122,0.037344,-8.7e-05,-0.825229,0.070775,5.7e-05,-0.008617
120026,0.05365,-0.000978,-0.969613,0.072871,-0.0,-0.0,3.0,0.33964,0.314829,0.31175,0.336866,0.052378,-0.0,-0.002408,0.072094,-7e-06,-0.000122,0.038805,-8.6e-05,-0.825401,0.081496,2.4e-05,-0.00861
120046,0.056108,-0.000916,-0.969908,0.07356,-0.0,-0.0,3.0,0.337931,0.316932,0.313655,0.334931,0.053817,-0.0,-0.00241,0.07168,-7e-06,-0.000122,0.040456,-8.5e-05,-0.825573,0.087274,2.4e-05,-0.00861
120066,0.058622,-0.000966,-0.96999,0.074955,-0.0,-0.0,3.0,0.336365,0.319012,0.315376,0.332985,0.055244,-0.0,-0.002413,0.071499,-7e-06,-0.000122,0.042293,-8.5e-05,-0.825745,0.093529,3.5e-05,-0.008617
120086,0.060966,-0.000686,-0.970278,0.075646,-0.0,-0.0,3.0,0.335505,0.321381,0.316312,0.330729,0.056673,-0.0,-0.002415,0.071352,-7e-06,-0.000122,0.044302,-8.4e-05,-0.825918,0.101092,4.6e-05,-0.008613
120106,0.063584,-0.0004,-0.970546,0.076711,-0.0,-0.0,3.0,0.336248,0.323467,0.315505,0.328705,0.058093,-0.0,-0.002418,0.070791,-7e-06,-0.000122,0.046459,-8.3e-05,-0.82609,0.108141,6.4e-05,-0.008622
120126,0.066099,-0.000443,-0.970818,0.077582,-0.0,-0.0,3.0,0.339258,0.325174,0.312178,0.327023,0.059504,-0.0,-0.00242,0.070409,-7e-06,-0.000122,0.048727,-8.1e-05,-0.826263,0.112994,6.5e-05,-0.008632
120146,0.068561,-0.000646,-0.971151,0.07841,-0.0,-0.0,3.0,0.340554,0.326523,0.310719,0.325676,0.060906,-0.0,-0.002422,0.069833,-8e-06,-0.000122,0.051061,-8e-05,-0.826435,0.119194,6.1e-05,-0.00864
120166,0.070861,-0.000802,-0.971427,0.078813,-0.0,-0.0,3.0,0.34025,0.327632,0.311063,0.324558,0.062295,-0.0,-0.002425,0.068693,-8e-06,-0.000122,0.053436,-7.8e-05,-0.826608,0.120323,6.8e-05,-0.008649
120186,0.073106,-0.001123,-0.971557,0.079754,-0.0,-0.0,3.0,0.340184,0.327558,0.311138,0.324634,0.063657,-0.0,-0.002427,0.067687,-8e-06,-0.000122,0.055766,-7.7e-05,-0.826781,0.114711,4.6e-05,-0.008661
120206,0.074695,-0.001238,-0.97187,0.080373,-0.0,-0.0,3.0,0.337613,0.327261,0.314008,0.324934,0.065005,-0.0,-0.00243,0.067055,-8e-06,-0.000122,0.058011,-7.6e-05,-0.826955,0.107244,4e-05,-0.008674
120226,0.075947,-0.000985,-0.971992,0.080741,-0.0,-0.0,3.0,0.334162,0.326418,0.317759,0.325782,0.066337,-0.0,-0.002432,0.065798,-8e-06,-0.000122,0.060095,-7.5e-05,-0.827128,0.098098,6.1e-05,-0.008674
120246,0.07676,-0.000687,-0.97214,0.081695,-0.0,-0.0,3.0,0.334204,0.324554,0.317713,0.327637,0.067642,-0.0,-0.002435,0.064854,-8e-06,-0.000122,0.061954,-7.4e-05,-0.827301,0.086854,7.4e-05,-0.008671
120266,0.07724,-0.00029,-0.972163,0.082202,-0.0,-0.0,3.0,0.334169,0.32235,0.31775,0.329793,0.068934,-0.0,-0.002437,0.06421,-9e-06,-0.000122,0.063551,-7.3e-05,-0.827475,0.073201,9.2e-05,-0.008649
120286,0.077511,-9e-06,-0.972287,0.082875,-0.0,-0.0,3.0,0.332418,0.319641,0.319612,0.332391,0.070209,-0.0,-0.00244,0.063247,-9e-06,-0.000122,0.06486,-7.1e-05,-0.827648,0.057399,0.000142,-0.008657
120306,0.07735,-0.000226,-0.972362,0.083437,-0.0,-0.0,3.0,0.335815,0.316533,0.315975,0.335301,0.071466,-0.0,-0.002442,0.062302,-9e-06,-0.000122,0.065861,-6.9e-05,-0.827821,0.037822,0.00012,-0.008649
120326,0.077187,-0.000169,-0.97258,0.083956,-0.0,-0.0,3.0,0.33539,0.313927,0.316436,0.337686,0.072703,-0.0,-0.002445,0.061247,-9e-06,-0.000122,0.066561,-6.7e-05,-0.827994,0.027604,0.000104,-0.008653
120346,0.076866,-0.000605,-0.972729,0.084203,-0.0,-0.0,3.0,0.339975,0.312249,0.311374,0.339195,0.073918,-0.0,-0.002447,0.059852,-9e-06,-0.000122,0.067083,-6.5e-05,-0.828167,0.018398,5.4e-05,-0.008637
120366,0.076709,-0.000821,-0.97295,0.08478,-0.0,-0.0,3.0,0.341808,0.3107,0.309291,0.340571,0.075103,-0.0,-0.002449,0.058549,-9e-06,-0.000122,0.067439,-6.4e-05,-0.828339,0.012957,1.1e-05,-0.008642
120386,0.076931,-0.000979,-0.972937,0.085283,-0.0,-0.0,3.0,0.341554,0.310032,0.309582,0.341159,0.076266,-0.0,-0.002452,0.05764,-9e-06,-0.000122,0.067711,-6.3e-05,-0.828512,0.012938,1.2e-05,-0.008629
120406,0.077422,-0.000852,-0.97311,0.085479,-0.0,-0.0,3.0,0.338627,0.310065,0.312883,0.34113,0.07741,-0.0,-0.002454,0.056342,-9e-06,-0.000122,0.067976,-6.2e-05,-0.828684,0.015933,5.2e-05,-0.008628
120426,0.078292,-0.000661,-0.973255,0.085808,-0.0,-0.0,3.0,0.33772,0.310561,0.313889,0.340694,0.078524,-0.0,-0.002457,0.054792,-1e-05,-0.000122,0.068292,-6e-05,-0.828857,0.018971,8e-05,-0.008607
120446,0.079157,-0.000198,-0.973396,0.086065,-0.0,-0.0,3.0,0.332946,0.311495,0.319054,0.339867,0.079608,-0.0,-0.002459,0.053387,-1e-05,-0.000122,0.068691,-5.9e-05,-0.829029,0.025987,0.000143,-0.008609
120466,0.080298,4e-06,-0.973581,0.086413,-0.0,-0.0,3.0,0.333895,0.312903,0.318044,0.338609,0.080665,-0.0,-0.002462,0.052099,-1e-05,-0.000122,0.069225,-5.6e-05,-0.829201,0.032856,0.000158,-0.008626
120486,0.081667,-0.000225,-0.973754,0.086652,-0.0,-0.0,3.0,0.33783,0.314788,0.313768,0.336904,0.081697,-0.0,-0.002464,0.050826,-1e-05,-0.000122,0.069923,-5.3e-05,-0.829374,0.039895,0.000112,-0.008622
120506,0.083479,-0.000495,-0.974042,0.086851,-0.0,-0.0,3.0,0.337763,0.317118,0.313842,0.334759,0.082703,-0.0,-0.002467,0.049402,-1e-05,-0.000122,0.070797,-5.2e-05,-0.829546,0.051227,7.9e-05,-0.008634
120526,0.085293,-0.00077,-0.974266,0.086935,-0.0,-0.0,3.0,0.336453,0.31972,0.315281,0.332315,0.083679,-0.0,-0.002469,0.047826,-1e-05,-0.000122,0.071888,-5e-05,-0.829719,0.061687,6.8e-05,-0.00863
120546,0.087366,-0.000762,-0.974376,0.087114,-0.0,-0.0,3.0,0.335559,0.321935,0.316253,0.330194,0.084624,-0.0,-0.002472,0.046283,-1e-05,-0.000122,0.073167,-4.9e-05,-0.829892,0.06819,5.2e-05,-0.008641
120566,0.08949,-0.000318,-0.974558,0.087114,-0.0,-0.0,3.0,0.333629,0.324735,0.318328,0.327458,0.085538,-0.0,-0.002474,0.044718,-1e-05,-0.000122,0.074642,-4.8e-05,-0.830065,0.077103,6.9e-05,-0.008649
120586,0.091397,1.6e-05,-0.974816,0.087114,-0.0,-0.0,3.0,0.333627,0.32708,0.31833,0.325117,0.086419,-0.0,-0.002476,0.042991,-1.1e-05,-0.000122,0.076287,-4.7e-05,-0.830238,0.08442,0.000103,-0.008649
120606,0.093405,0.000406,-0.974913,0.087265,-0.0,-0.0,3.0,0.336878,0.329078,0.314815,0.323085,0.087267,-0.0,-0.002479,0.041482,-1.1e-05,-0.000122,0.078055,-4.4e-05,-0.83041,0.089278,0.00012,-0.008641
120626,0.095483,0.000418,-0.975155,0.087254,-0.0,-0.0,3.0,0.340306,0.330876,0.311,0.321228,0.088086,-0.0,-0.002481,0.040051,-1.1e-05,-0.000122,0.0799,-4.1e-05,-0.830583,0.093953,0.000126,-0.008641
120646,0.097305,-0.000126,-0.975365,0.087174,-0.0,-0.0,3.0,0.342349,0.331859,0.30867,0.3202,0.088875,-0.0,-0.002484,0.038376,-1.1e-05,-0.000122,0.081772,-3.8e-05,-0.830756,0.09526,0.00012,-0.008628
120666,0.098899,-0.000514,-0.975442,0.087125,-0.0,-0.0,3.0,0.341193,0.3321,0.309994,0.319947,0.08963,-0.0,-0.002486,0.036677,-1.1e-05,-0.000122,0.083603,-3.5e-05,-0.830928,0.09051,0.000104,-0.00864
120686,0.100109,-0.000685,-0.975754,0.087001,-0.0,-0.0,3.0,0.340375,0.33194,0.310921,0.320115,0.090351,-0.0,-0.002489,0.035013,-1.1e-05,-0.000122,0.085336,-3.3e-05,-0.831101,0.083326,8.6e-05,-0.008633
120706,0.1005,-0.001161,-0.975789,0.086839,-0.0,-0.0,3.0,0.339908,0.330781,0.311449,0.321327,0.091039,-0.0,-0.002491,0.033281,-1.1e-05,-0.000122,0.086897,-3.2e-05,-0.831274,0.070371,5e-05,-0.008632
120726,0.100821,-0.000713,-0.975899,0.086606,-0.0,-0.0,3.0,0.33423,0.329183,0.317685,0.322977,0.091692,-0.0,-0.002494,0.031468,-1.1e-05,-0.000122,0.0882,-3.1e-05,-0.831447,0.057027,6.8e-05,-0.008632
120746,0.100485,-0.00034,-0.975922,0.086414,-0.0,-0.0,3.0,0.332015,0.327304,0.320037,0.32489,0.092308,-0.0,-0.002496,0.029683,-1.1e-05,-0.000122,0.089247,-3e-05,-0.831619,0.041824,0.000106,-0.008621
120766,0.09998,8.9e-05,-0.976019,0.086153,-0.0,-0.0,3.0,0.332303,0.324245,0.319733,0.327941,0.092889,-0.0,-0.002499,0.027937,-1.1e-05,-0.000122,0.089935,-2.8e-05,-0.831792,0.024893,0.000132,-0.008608
120786,0.099533,0.00041,-0.976112,0.085913,-0.0,-0.0,3.0,0.333733,0.321646,0.318216,0.330474,0.093435,-0.0,-0.002501,0.026195,-1.1e-05,-0.000122,0.090309,-2.5e-05,-0.831964,0.012212,0.000158,-0.008601
120806,0.098933,0.000512,-0.976371,0.085405,-0.0,-0.0,3.0,0.336965,0.31998,0.31472,0.332069,0.093946,-0.0,-0.002504,0.02422,-1.1e-05,-0.000122,0.090475,-2.2e-05,-0.832136,0.000211,0.000162,-0.008596
120826,0.098231,1.4e-05,-0.976562,0.085189,-0.0,-0.0,3.0,0.340731,0.318529,0.310519,0.33344,0.094416,-0.0,-0.002506,0.022314,-1.1e-05,-0.000122,0.09046,-1.9e-05,-0.832308,-0.006117,0.000123,-0.008604
120846,0.098076,-0.0002,-0.976787,0.084771,-0.0,-0.0,3.0,0.340307,0.318131,0.310998,0.333813,0.094851,-0.0,-0.002508,0.020616,-1.1e-05,-0.000122,0.090343,-1.7e-05,-0.83248,-0.005894,9.1e-05,-0.008616
120866,0.097929,-0.000962,-0.976874,0.084311,-0.0,-0.0,3.0,0.342359,0.318286,0.308658,0.333668,0.09525,-0.0,-0.002511,0.018702,-1.1e-05,-0.000122,0.090224,-1.5e-05,-0.832652,-0.008615,4.7e-05,-0.008608
120886,0.098154,-0.001112,-0.977065,0.083818,-0.0,-0.0,3.0,0.339537,0.318613,0.311866,0.333361,0.09561,-0.0,-0.002513,0.016718,-1.2e-05,-0.000122,0.09008,-1.4e-05,-0.832824,-0.003622,3.1e-05,-0.008589
120906,0.098524,-0.00077,-0.977086,0.08351,-0.0,-0.0,3.0,0.336651,0.319651,0.315064,0.332381,0.095932,-0.0,-0.002516,0.014997,-1.2e-05,-0.000122,0.090019,-1.3e-05,-0.832996,0.004589,6e-05,-0.008587
120926,0.09901,-0.000373,-0.977184,0.083075,-0.0,-0.0,3.0,0.334091,0.320557,0.317834,0.331519,0.096221,-0.0,-0.002518,0.013436,-1.2e-05,-0.000122,0.090053,-1.1e-05,-0.833168,0.006148,0.00011,-0.008574
120946,0.099373,0.000242,-0.977201,0.082061,-0.0,-0.0,3.0,0.331212,0.321782,0.320877,0.330342,0.096477,-0.0,-0.002521,0.011093,-1.2e-05,-0.000122,0.090157,-9e-06,-0.833339,0.009066,0.000155,-0.008574
120966,0.099964,0.000702,-0.977348,0.082061,-0.0,-0.0,3.0,0.330284,0.322843,0.321842,0.329314,0.096681,-0.0,-0.002523,0.009231,-1.2e-05,-0.000122,0.090353,-7e-06,-0.833511,0.012954,0.000196,-0.008579
120986,0.100353,0.000516,-0.977792,0.080954,-0.0,-0.0,3.0,0.338028,0.32426,0.313548,0.327926,0.096858,-0.0,-0.002526,0.00748,-1.2e-05,-0.000122,0.090636,-3e-06,-0.833683,0.01225,0.000153,-0.008581
121006,0.100747,4.9e-05,-0.978034,0.080134,-0.0,-0.0,3.0,0.339992,0.325515,0.311354,0.326684,0.096989,-0.0,-0.002528,0.00479,-1.2e-05,-0.000122,0.090953,0.0,-0.833854,0.014778,0.000112,-0.008587
121026,0.101091,-0.000582,-0.978283,0.079763,-0.0,-0.0,3.0,0.341191,0.326321,0.309995,0.325879,0.09707,-0.0,-0.002531,0.002937,-1.2e-05,-0.000122,0.091308,2e-06,-0.834026,0.016857,7.1e-05,-0.008608
121046,0.101324,-0.001004,-0.978478,0.078996,-0.0,-0.0,3.0,0.341097,0.327124,0.310102,0.325072,0.09712,-0.0,-0.002533,0.001414,-1.2e-05,-0.000122,0.091686,4e-06,-0.834198,0.016294,3.5e-05,-0.008615
121066,0.101431,-0.000933,-0.978735,0.078191,-0.0,-0.0,3.0,0.340486,0.327314,0.310796,0.32488,0.097135,-0.0,-0.002535,-0.000636,-1.2e-05,-0.000122,0.092019,4e-06,-0.83437,0.015604,9e-06,-0.008616
121086,0.101641,-0.000537,-0.978916,0.077149,-0.0,-0.0,3.0,0.335527,0.327841,0.316288,0.324347,0.097108,-0.0,-0.002538,-0.003033,-1.2e-05,-0.000122,0.092324,5e-06,-0.834543,0.014957,6.6e-05,-0.008622
121106,0.101301,-0.000159,-0.978999,0.077149,-0.0,-0.0,3.0,0.335456,0.327318,0.316365,0.324876,0.097033,-0.0,-0.00254,-0.004385,-1.2e-05,-0.000122,0.092576,7e-06,-0.834715,0.00834,0.000109,-0.008612
121126,0.101346,0.000287,-0.979194,0.075584,-0.0,-0.0,3.0,0.334887,0.327192,0.316979,0.325004,0.096941,-0.0,-0.002543,-0.006139,-1.2e-05,-0.000122,0.092689,9e-06,-0.834887,0.007386,0.000153,-0.008594
121146,0.101289,0.000394,-0.979197,0.074812,-0.0,-0.0,3.0,0.336004,0.32725,0.31577,0.324945,0.096797,-0.0,-0.002545,-0.008907,-1.2e-05,-0.000122,0.09277,1.3e-05,-0.835059,0.006211,0.00018,-0.008597
121166,0.101351,2e-05,-0.979259,0.074102,-0.0,-0.0,3.0,0.337654,0.326871,0.313962,0.325327,0.096606,-0.0,-0.002548,-0.010638,-1.2e-05,-0.000122,0.092791,1.6e-05,-0.835231,0.002259,0.000153,-0.008589
121186,0.101576,-0.000129,-0.979449,0.073024,-0.0,-0.0,3.0,0.33785,0.327374,0.313746,0.32482,0.096384,-0.0,-0.00255,-0.012421,-1.2e-05,-0.000122,0.092791,1.8e-05,-0.835403,0.001714,0.000109,-0.008594
121206,0.101318,-0.000668,-0.979751,0.072001,-0.0,-0.0,3.0,0.337385,0.328079,0.314259,0.324105,0.096121,-0.0,-0.002553,-0.014643,-1.2e-05,-0.000122,0.092824,2e-05,-0.835575,-0.001616,7.1e-05,-0.008585
121226,0.1011,-0.000778,-0.979832,0.070949,-0.0,-0.0,3.0,0.337678,0.328354,0.313935,0.323825,0.095815,-0.0,-0.002555,-0.016799,-1.1e-05,-0.000122,0.09281,2.1e-05,-0.835747,-0.004252,3.4e-05,-0.008597
121246,0.100817,-0.000507,-0.979912,0.069789,-0.0,-0.0,3.0,0.337545,0.328892,0.314082,0.323276,0.095465,-0.0,-0.002558,-0.018972,-1.1e-05,-0.000122,0.092767,2.2e-05,-0.835918,-0.005918,3.9e-05,-0.008581
121266,0.10054,-0.000234,-0.980139,0.068833,-0.0,-0.0,3.0,0.337343,0.329443,0.314305,0.32271,0.095072,-0.0,-0.00256,-0.020965,-1.1e-05,-0.000122,0.0927,2.3e-05,-0.83609,-0.004391,8.3e-05,-0.008584
121286,0.100364,9.4e-05,-0.980208,0.067557,-0.0,-0.0,3.0,0.335861,0.329661,0.315926,0.322486,0.094641,-0.0,-0.002563,-0.023002,-1.1e-05,-0.000122,0.092598,2.6e-05,-0.836262,-0.006962,0.000137,-0.008574
121306,0.100197,0.00042,-0.980364,0.066985,-0.0,-0.0,3.0,0.333318,0.329786,0.318659,0.322357,0.094169,-0.0,-0.002565,-0.024555,-1.1e-05,-0.000122,0.092455,2.8e-05,-0.836433,-0.004399,0.000181,-0.008576
121326,0.099811,0.000365,-0.980519,0.065933,-0.0,-0.0,3.0,0.335058,0.329918,0.316795,0.322221,0.093672,-0.0,-0.002567,-0.025744,-1.1e-05,-0.000122,0.092299,3.2e-05,-0.836605,-0.007467,0.000176,-0.008589
121346,0.099761,0.000214,-0.980794,0.064227,-0.0,-0.0,3.0,0.337486,0.330367,0.314147,0.321757,0.093145,-0.0,-0.00257,-0.028232,-1.1e-05,-0.000122,0.092096,3.5e-05,-0.836777,-0.009068,0.000132,-0.008588
121366,0.099614,-0.000273,-0.981023,0.062968,-0.0,-0.0,3.0,0.341474,0.331123,0.309672,0.32097,0.092561,-0.0,-0.002572,-0.031047,-1.1e-05,-0.000122,0.091898,3.7e-05,-0.836948,-0.009061,6.7e-05,-0.008594
121386,0.099353,-0.00082,-0.981117,0.061668,-0.0,-0.0,3.0,0.342089,0.331774,0.308968,0.320289,0.091927,-0.0,-0.002575,-0.033147,-1.1e-05,-0.000122,0.091705,3.9e-05,-0.83712,-0.009298,2.8e-05,-0.008586
121406,0.099033,-0.000985,-0.981355,0.060357,-0.0,-0.0,3.0,0.341131,0.332236,0.310064,0.319803,0.091252,-0.0,-0.002577,-0.035108,-1.1e-05,-0.000122,0.091497,3.9e-05,-0.837292,-0.009423,1.7e-05,-0.008577
121426,0.098858,-0.000657,-0.981424,0.059674,-0.0,-0.0,3.0,0.335917,0.332299,0.315864,0.319737,0.09054,-0.0,-0.00258,-0.03637,-1.1e-05,-0.000122,0.091268,4e-05,-0.837463,-0.012411,7.6e-05,-0.008577
121446,0.098248,-0.000292,-0.98147,0.058689,-0.0,-0.0,3.0,0.334334,0.332771,0.317574,0.319238,0.089809,0.0,-0.002582,-0.03717,-1.1e-05,-0.000122,0.091038,4.2e-05,-0.837635,-0.0147,0.000125,-0.008569
121466,0.097849,0.000193,-0.981555,0.056899,-0.0,-0.0,3.0,0.332381,0.333148,0.319651,0.318839,0.089057,0.0,-0.002585,-0.039275,-1.1e-05,-0.000122,0.090744,4.4e-05,-0.837806,-0.01681,0.000156,-0.008561
121486,0.097239,0.000571,-0.981868,0.055821,-0.0,-0.0,3.0,0.33183,0.333406,0.32023,0.318565,0.088255,0.0,-0.002587,-0.041604,-1.1e-05,-0.000122,0.090424,4.7e-05,-0.837977,-0.019953,0.000183,-0.008569
121506,0.096583,0.000503,-0.981985,0.053877,-0.0,-0.0,3.0,0.336445,0.333712,0.315289,0.318239,0.087412,0.0,-0.00259,-0.043868,-1e-05,-0.000122,0.09003,5e-05,-0.838149,-0.021981,0.000154,-0.008568
121526,0.095784,-5.8e-05,-0.98227,0.053028,-0.0,-0.0,3.0,0.338598,0.333418,0.312916,0.318552,0.08652,0.0,-0.002592,-0.04574,-1e-05,-0.000122,0.089571,5.3e-05,-0.83832,-0.025176,0.000104,-0.008579
121546,0.094918,-0.000508,-0.982471,0.051533,-0.0,-0.0,3.0,0.340523,0.333126,0.310755,0.318863,0.0856,0.0,-0.002595,-0.046992,-1e-05,-0.000122,0.089029,5.5e-05,-0.838492,-0.029545,5.8e-05,-0.008576
121566,0.093728,-0.00087,-0.982576,0.05002,-0.0,-0.0,3.0,0.341221,0.332619,0.309961,0.3194,0.08465,0.0,-0.002597,-0.048963,-1e-05,-0.000122,0.088382,5.6e-05,-0.838663,-0.035522,2.8e-05,-0.008574
121586,0.092688,-0.001006,-0.982576,0.048499,-0.0,-0.0,3.0,0.338434,0.332144,0.313098,0.319901,0.083658,0.0,-0.002599,-0.051048,-1e-05,-0.000122,0.087616,5.7e-05,-0.838835,-0.040028,2.5e-05,-0.008551
121606,0.09164,-0.0006,-0.982653,0.047718,-0.0,-0.0,3.0,0.335214,0.331528,0.316627,0.320547,0.082628,0.0,-0.002602,-0.052132,-1e-05,-0.000122,0.086773,5.8e-05,-0.839006,-0.044288,6e-05,-0.008543
121626,0.090149,-0.000154,-0.982617,0.045423,-0.0,-0.0,3.0,0.335988,0.331369,0.315787,0.320714,0.081582,0.0,-0.002604,-0.053949,-1e-05,-0.000122,0.085833,5.9e-05,-0.839177,-0.047271,9.5e-05,-0.008541
121646,0.088886,0.000137,-0.982711,0.044615,-0.0,-0.0,3.0,0.335595,0.330028,0.316214,0.322107,0.080486,0.0,-0.002607,-0.055938,-1e-05,-0.000122,0.084762,6.1e-05,-0.839347,-0.05221,0.000128,-0.00852
121666,0.087845,0.000271,-0.98279,0.042361,-0.0,-0.0,3.0,0.335193,0.330248,0.31665,0.32188,0.079362,0.0,-0.002609,-0.057726,-9e-06,-0.000122,0.083644,6.4e-05,-0.839518,-0.057925,0.000156,-0.008514
121686,0.086488,-3.6e-05,-0.982959,0.041512,-0.0,-0.0,3.0,0.337558,0.330069,0.314068,0.322065,0.078193,0.0,-0.002612,-0.059452,-9e-06,-0.000122,0.082505,6.7e-05,-0.839688,-0.061687,0.000136,-0.008514
121706,0.084973,-0.000565,-0.983142,0.039221,-0.0,-0.0,3.0,0.339122,0.330571,0.312331,0.321544,0.077,0.0,-0.002614,-0.06117,-9e-06,-0.000122,0.08133,6.9e-05,-0.839858,-0.064082,7.8e-05,-0.008514
121726,0.083945,-0.000972,-0.983284,0.037563,-0.0,-0.0,3.0,0.338144,0.331507,0.31342,0.320569,0.07576,0.0,-0.002617,-0.063773,-9e-06,-0.000122,0.080157,7e-05,-0.840028,-0.060626,4.3e-05,-0.008511
121746,0.082695,-0.001222,-0.983439,0.035855,-0.0,-0.0,3.0,0.338452,0.332341,0.313078,0.319693,0.074473,0.0,-0.002619,-0.065689,-9e-06,-0.000122,0.079022,7.1e-05,-0.840198,-0.057662,8e-06,-0.008501
121766,0.08165,-0.001091,-0.983365,0.03502,-0.0,-0.0,3.0,0.335893,0.332323,0.31589,0.319712,0.073153,0.0,-0.002622,-0.066401,-9e-06,-0.000122,0.07787,7.1e-05,-0.840368,-0.051663,1.1e-05,-0.008495
121786,0.080974,-0.000346,-0.983401,0.03275,-0.0,-0.0,3.0,0.332543,0.333072,0.31948,0.31892,0.071825,0.0,-0.002624,-0.067702,-8e-06,-0.000122,0.076751,7.1e-05,-0.840538,-0.051517,6.3e-05,-0.008491
121806,0.08003,0.000122,-0.98352,0.031425,-0.0,-0.0,3.0,0.334886,0.333679,0.31698,0.318275,0.070456,0.0,-0.002626,-0.069752,-8e-06,-0.000122,0.075681,7.3e-05,-0.840708,-0.052758,9.8e-05,-0.008467
121826,0.078987,0.00026,-0.983651,0.030515,-0.0,-0.0,3.0,0.33478,0.333558,0.317095,0.318404,0.069058,0.0,-0.002629,-0.070154,-8e-06,-0.000122,0.0746,7.5e-05,-0.840877,-0.05527,0.000127,-0.008465
121846,0.077791,0.000177,-0.983942,0.028022,-0.0,-0.0,3.0,0.339071,0.334915,0.312388,0.316949,0.067655,0.0,-0.002631,-0.071621,-8e-06,-0.000122,0.073549,7.8e-05,-0.841046,-0.052131,0.000125,-0.008459
121866,0.076604,-0.000449,-0.984151,0.026694,-0.0,-0.0,3.0,0.343262,0.335182,0.307614,0.316662,0.066206,0.0,-0.002634,-0.073835,-8e-06,-0.000122,0.072499,8e-05,-0.841215,-0.05322,7.8e-05,-0.008471
121886,0.075478,-0.001187,-0.984297,0.024735,-0.0,-0.0,3.0,0.343735,0.335303,0.307064,0.316531,0.064724,0.0,-0.002636,-0.075285,-8e-06,-0.000122,0.071399,8.2e-05,-0.841385,-0.053701,3.1e-05,-0.008469
121906,0.07428,-0.001277,-0.984376,0.022951,-0.0,-0.0,3.0,0.338306,0.335548,0.31324,0.316265,0.063209,0.0,-0.002639,-0.077023,-7e-06,-0.000122,0.070281,8.2e-05,-0.841554,-0.054822,2.3e-05,-0.008466
121926,0.072641,-0.00132,-0.984542,0.021178,-0.0,-0.0,3.0,0.335138,0.334986,0.316709,0.316873,0.06166,0.0,-0.002641,-0.078602,-7e-06,-0.000122,0.0691,8.2e-05,-0.841724,-0.064787,1.8e-05,-0.008467
121946,0.070771,-0.00094,-0.984506,0.020281,-0.0,-0.0,3.0,0.332256,0.333913,0.319782,0.318024,0.060084,0.0,-0.002644,-0.079053,-7e-06,-0.000122,0.067795,8.2e-05,-0.841893,-0.072378,2.9e-05,-0.008468
121966,0.068621,-0.00029,-0.984689,0.019329,-0.0,-0.0,3.0,0.331533,0.333046,0.320541,0.318948,0.058509,0.0,-0.002646,-0.078449,-7e-06,-0.000122,0.066385,8.3e-05,-0.842062,-0.080126,6.1e-05,-0.008448
121986,0.06604,0.000124,-0.984688,0.017619,-0.0,-0.0,3.0,0.335676,0.331745,0.316126,0.320319,0.056944,0.0,-0.002649,-0.078857,-7e-06,-0.000122,0.064798,8.4e-05,-0.842231,-0.086937,8.8e-05,-0.008428
122006,0.063526,0.000164,-0.98489,0.014909,-0.0,-0.0,3.0,0.336608,0.330596,0.315111,0.321519,0.055357,0.0,-0.002651,-0.081522,-6e-06,-0.000122,0.063008,8.7e-05,-0.842399,-0.091709,0.000125,-0.008423
122026,0.061292,-6.2e-05,-0.985075,0.013197,-0.0,-0.0,3.0,0.339043,0.329187,0.312419,0.322974,0.053707,0.0,-0.002653,-0.084173,-6e-06,-0.000122,0.061064,8.9e-05,-0.842568,-0.0987,0.000118,-0.008426
122046,0.058685,-0.000631,-0.985071,0.011781,-0.0,-0.0,3.0,0.339711,0.327367,0.31167,0.324827,0.052019,0.0,-0.002656,-0.084906,-6e-06,-0.000122,0.058965,9.1e-05,-0.842736,-0.107195,8.3e-05,-0.00843
122066,0.055855,-0.001036,-0.985337,0.009738,-0.0,-0.0,3.0,0.338677,0.325461,0.312827,0.326738,0.050321,0.0,-0.002658,-0.085789,-6e-06,-0.000122,0.056687,9.2e-05,-0.842905,-0.116932,2e-05,-0.008426
122086,0.052971,-0.001339,-0.985477,0.007899,-0.0,-0.0,3.0,0.338844,0.324208,0.312642,0.327977,0.048598,0.0,-0.002661,-0.087402,-6e-06,-0.000122,0.054283,9.2e-05,-0.843073,-0.124167,-2.7e-05,-0.008424
122106,0.049966,-0.001426,-0.985525,0.006037,-0.0,-0.0,3.0,0.339517,0.322985,0.311888,0.329176,0.046843,0.0,-0.002663,-0.08881,-5e-06,-0.000122,0.051764,9.2e-05,-0.843242,-0.131475,-5.2e-05,-0.008413
122126,0.046957,-0.001241,-0.98565,0.003926,-0.0,-0.0,3.0,0.338234,0.322014,0.31332,0.330119,0.045061,0.0,-0.002666,-0.090357,-5e-06,-0.000122,0.049132,9.1e-05,-0.84341,-0.133679,-2.2e-05,-0.008408
122146,0.044203,-0.000504,-0.985606,0.002538,-0.0,-0.0,3.0,0.33455,0.320937,0.317342,0.331155,0.043247,0.0,-0.002668,-0.09133,-5e-06,-0.000122,0.046431,9.2e-05,-0.843578,-0.133713,6.8e-05,-0.00838
122166,0.041731,-3.4e-05,-0.985488,0.000716,-0.0,-0.0,3.0,0.333923,0.320509,0.318014,0.331564,0.041422,0.0,-0.002671,-0.091857,-5e-06,-0.000122,0.043721,9.4e-05,-0.843746,-0.136565,0.000146,-0.008359
122186,0.039326,5.9e-05,-0.985573,-0.000719,-0.0,-0.0,3.0,0.334473,0.320384,0.317425,0.331684,0.039582,0.0,-0.002673,-0.092451,-5e-06,-0.000122,0.041028,9.6e-05,-0.843913,-0.134899,0.00016,-0.008352
122206,0.0372,-0.00011,-0.985705,-0.002821,-0.0,-0.0,3.0,0.333787,0.321817,0.318159,0.330309,0.037733,0.0,-0.002675,-0.093412,-4e-06,-0.000122,0.03845,9.9e-05,-0.84408,-0.126462,0.000138,-0.008348
122226,0.035471,-0.00076,-0.985824,-0.00449,-0.0,-0.0,3.0,0.338429,0.323175,0.313103,0.328991,0.035858,0.0,-0.002678,-0.094635,-4e-06,-0.000122,0.036022,0.0001,-0.844247,-0.116821,4.6e-05,-0.008343
122246,0.034015,-0.001403,-0.985873,-0.006582,-0.0,-0.0,3.0,0.340023,0.325257,0.311319,0.32694,0.033963,0.0,-0.00268,-0.095766,-4e-06,-0.000122,0.033782,0.0001,-0.844413,-0.10455,-4e-05,-0.008337
122266,0.032989,-0.001814,-0.985965,-0.007486,-0.0,-0.0,3.0,0.340369,0.327067,0.310929,0.325129,0.032045,0.0,-0.002683,-0.095922,-4e-06,-0.000122,0.031759,9.9e-05,-0.84458,-0.091617,-9.8e-05,-0.008324
122286,0.032278,-0.00178,-0.985985,-0.009328,-0.0,-0.0,3.0,0.339407,0.329438,0.312012,0.322715,0.030135,0.0,-0.002685,-0.095691,-3e-06,-0.000122,0.029978,9.8e-05,-0.844746,-0.0822,-0.000101,-0.00831
122306,0.031552,-0.001203,-0.985942,-0.011341,-0.0,-0.0,3.0,0.336422,0.331756,0.315315,0.320308,0.028218,0.0,-0.002688,-0.096843,-3e-06,-0.000122,0.02841,9.6e-05,-0.844912,-0.072955,-3.8e-05,-0.00829
122326,0.030659,-0.000576,-0.985755,-0.012798,-0.0,-0.0,3.0,0.335723,0.333931,0.316076,0.318006,0.026276,0.0,-0.00269,-0.097695,-3e-06,-0.000122,0.027049,9.7e-05,-0.845078,-0.062163,4.2e-05,-0.008254
122346,0.02994,-0.00027,-0.985772,-0.014575,-0.0,-0.0,3.0,0.338628,0.335699,0.312882,0.316101,0.024325,0.0,-0.002693,-0.098019,-3e-06,-0.000122,0.025846,9.8e-05,-0.845243,-0.056341,8.3e-05,-0.008239
122366,0.029236,-0.000507,-0.985851,-0.017031,-0.0,-0.0,3.0,0.340001,0.337672,0.311344,0.313943,0.022362,0.0,-0.002695,-0.099455,-3e-06,-0.000122,0.024763,0.0001,-0.845408,-0.0498,9.2e-05,-0.008224
122386,0.028433,-0.001077,-0.985875,-0.018696,-0.0,-0.0,3.0,0.338943,0.338806,0.312531,0.312684,0.020363,0.0,-0.002698,-0.100885,-2e-06,-0.000122,0.023769,0.000102,-0.845572,-0.048094,7.3e-05,-0.008216
122406,0.027251,-0.001712,-0.985907,-0.019604,-0.0,-0.0,3.0,0.338469,0.338708,0.313059,0.312793,0.018348,0.0,-0.0027,-0.100322,-2e-06,-0.000122,0.022783,0.000102,-0.845736,-0.05226,4e-06,-0.008209
122426,0.025621,-0.002032,-0.986005,-0.021412,-0.0,-0.0,3.0,0.336818,0.338358,0.314881,0.313183,0.016353,0.0,-0.002702,-0.099738,-2e-06,-0.000122,0.021722,0.000101,-0.845901,-0.060566,-7.2e-05,-0.008212
122446,0.023438,-0.002096,-0.986051,-0.023195,-0.0,-0.0,3.0,0.336168,0.337443,0.315592,0.314194,0.014358,0.0,-0.002705,-0.100451,-2e-06,-0.000122,0.020523,9.9e-05,-0.846064,-0.071638,-0.00011,-0.008185
122466,0.020701,-0.001905,-0.985896,-0.024974,-0.0,-0.0,3.0,0.337437,0.335921,0.314201,0.315861,0.012347,0.0,-0.002707,-0.10124,-1e-06,-0.000122,0.019104,9.7e-05,-0.846228,-0.082064,-0.000117,-0.008167
122486,0.017576,-0.001508,-0.985679,-0.027073,-0.0,-0.0,3.0,0.336817,0.333551,0.314882,0.318411,0.010321,0.0,-0.00271,-0.102187,-1e-06,-0.000122,0.017391,9.5e-05,-0.846391,-0.093897,-7.5e-05,-0.008114
122506,0.014278,-0.000786,-0.985516,-0.028328,-0.0,-0.0,3.0,0.334966,0.329996,0.316894,0.32214,0.008275,0.0,-0.002712,-0.10248,-1e-06,-0.000122,0.01534,9.5e-05,-0.846553,-0.110242,1.4e-05,-0.008075
122526,0.01055,-0.000295,-0.985288,-0.030302,-0.0,-0.0,3.0,0.335277,0.325919,0.316558,0.326281,0.006231,0.0,-0.002715,-0.102524,-1e-06,-0.000122,0.012905,9.6e-05,-0.846714,-0.130949,7.8e-05,-0.008043
122546,0.006349,-0.000472,-0.985113,-0.031946,-0.0,-0.0,3.0,0.336821,0.321341,0.314878,0.330766,0.00418,0.0,-0.002717,-0.103075,-0.0,-0.000122,0.010068,9.7e-05,-0.846875,-0.151139,8.2e-05,-0.00803
122566,0.001776,-0.000986,-0.985188,-0.032819,-0.0,-0.0,3.0,0.340644,0.316756,0.310617,0.335094,0.002123,0.0,-0.00272,-0.102415,-0.0,-0.000122,0.006878,9.8e-05,-0.847035,-0.17149,2.5e-05,-0.008002
122586,-0.003219,-0.002005,-0.985183,-0.035126,-0.0,-0.0,3.0,0.344435,0.312684,0.306245,0.338806,8.5e-05,0.0,-0.002722,-0.102353,0.0,-0.000122,0.003332,9.8e-05,-0.847195,-0.191268,-7.7e-05,-0.00798
122606,-0.00833,-0.002808,-0.985095,-0.036816,-0.0,-0.0,3.0,0.345198,0.308636,0.305347,0.342378,-0.001968,0.0,-0.002724,-0.103449,0.0,-0.000122,-0.000547,9.6e-05,-0.847355,-0.203571,-0.000167,-0.007962
122626,-0.013126,-0.003164,-0.984987,-0.037647,-0.0,-0.0,3.0,0.341973,0.304582,0.309101,0.345843,-0.004034,0.0,-0.002727,-0.10283,1e-06,-0.000122,-0.004687,9.3e-05,-0.847514,-0.209591,-0.000191,-0.007936
122646,-0.0175,-0.003016,-0.984866,-0.039308,-0.0,-0.0,3.0,0.335584,0.301759,0.316227,0.348192,-0.006077,0.0,-0.002729,-0.101864,1e-06,-0.000122,-0.008971,9e-05,-0.847672,-0.216917,-0.000144,-0.007908
122666,-0.021789,-0.001991,-0.984587,-0.041475,-0.0,-0.0,3.0,0.329202,0.300155,0.322958,0.349504,-0.008113,0.0,-0.002732,-0.102659,1e-06,-0.000122,-0.013315,8.7e-05,-0.84783,-0.219774,-7e-05,-0.007864
122686,-0.025534,-0.000948,-0.984394,-0.041475,-0.0,-0.0,3.0,0.327521,0.298763,0.324671,0.350629,-0.010167,0.0,-0.002734,-0.101731,1e-06,-0.000122,-0.017624,8.5e-05,-0.847987,-0.212759,1.8e-05,-0.007829
122706,-0.028666,-0.000273,-0.984323,-0.044249,-0.0,-0.0,3.0,0.329695,0.300399,0.322451,0.349306,-0.012182,0.0,-0.002737,-0.101122,2e-06,-0.000122,-0.021752,8.6e-05,-0.848144,-0.200635,8e-05,-0.007806
122726,-0.031123,-0.000345,-0.984405,-0.045778,-0.0,-0.0,3.0,0.335092,0.302738,0.316759,0.347384,-0.014214,0.0,-0.002739,-0.102548,2e-06,-0.000122,-0.025599,8.7e-05,-0.8483,-0.181644,7.3e-05,-0.007784
122746,-0.032528,-0.000823,-0.984422,-0.047077,-0.0,-0.0,3.0,0.337988,0.306242,0.313592,0.344438,-0.016263,0.0,-0.002742,-0.102369,2e-06,-0.000122,-0.029058,8.8e-05,-0.848455,-0.154407,3.5e-05,-0.007785
122766,-0.033108,-0.001554,-0.984667,-0.04873,-0.0,-0.0,3.0,0.341123,0.310796,0.310073,0.340486,-0.018302,0.0,-0.002744,-0.101899,2e-06,-0.000122,-0.032005,8.8e-05,-0.848611,-0.129544,-3.9e-05,-0.007792
122786,-0.03325,-0.002326,-0.984865,-0.050257,-0.0,-0.0,3.0,0.341593,0.316331,0.309537,0.335487,-0.020336,0.0,-0.002747,-0.101875,3e-06,-0.000122,-0.03439,8.7e-05,-0.848767,-0.100395,-0.000122,-0.007796
122806,-0.03297,-0.002594,-0.985078,-0.051735,-0.0,-0.0,3.0,0.338551,0.322143,0.312968,0.329994,-0.022369,0.0,-0.002749,-0.101738,3e-06,-0.000122,-0.03619,8.4e-05,-0.848923,-0.069744,-0.000153,-0.007802
122826,-0.032539,-0.002364,-0.985152,-0.052479,-0.0,-0.0,3.0,0.336105,0.326714,0.31566,0.325485,-0.024397,0.0,-0.002751,-0.100627,3e-06,-0.000122,-0.037459,8.1e-05,-0.849079,-0.049458,-0.000142,-0.007799
122846,-0.032175,-0.001756,-0.985373,-0.053314,-0.0,-0.0,3.0,0.335637,0.33085,0.316169,0.321254,-0.026393,0.0,-0.002754,-0.098723,3e-06,-0.000122,-0.03831,7.8e-05,-0.849235,-0.029037,-0.000107,-0.007806
122866,-0.031759,-0.000983,-0.985509,-0.054786,-0.0,-0.0,3.0,0.334291,0.333966,0.31762,0.317968,-0.028354,0.0,-0.002756,-0.097781,4e-06,-0.000122,-0.038848,7.7e-05,-0.849391,-0.016825,-1.9e-05,-0.007792
122886,-0.03161,-0.000489,-0.985723,-0.056853,-0.0,-0.0,3.0,0.335558,0.336432,0.316254,0.315304,-0.030308,0.0,-0.002759,-0.098492,4e-06,-0.000122,-0.039174,7.8e-05,-0.849547,-0.014185,5.7e-05,-0.007798
122906,-0.032263,-0.000567,-0.98597,-0.058204,-0.0,-0.0,3.0,0.338237,0.336961,0.313317,0.314724,-0.032282,0.0,-0.002761,-0.099059,4e-06,-0.000122,-0.039465,7.9e-05,-0.849703,-0.019913,6e-05,-0.007807
122926,-0.033173,-0.001199,-0.986206,-0.05921,-0.0,-0.0,3.0,0.340163,0.336862,0.311162,0.314833,-0.034255,0.0,-0.002764,-0.098121,4e-06,-0.000122,-0.039822,8e-05,-0.849859,-0.025305,1.9e-05,-0.007815
122946,-0.03506,-0.00208,-0.986557,-0.060731,-0.0,-0.0,3.0,0.344377,0.336017,0.306313,0.315756,-0.036206,0.0,-0.002766,-0.097265,4e-06,-0.000122,-0.040314,8e-05,-0.850016,-0.036083,-7.8e-05,-0.007822
122966,-0.037226,-0.002691,-0.986483,-0.062046,-0.0,-0.0,3.0,0.343591,0.333734,0.307232,0.318216,-0.038146,0.0,-0.002769,-0.097006,5e-06,-0.000122,-0.041099,7.8e-05,-0.850172,-0.048187,-0.000154,-0.007821
122986,-0.039789,-0.002825,-0.986601,-0.063322,-0.0,-0.0,3.0,0.339028,0.330336,0.312436,0.321789,-0.04008,0.0,-0.002771,-0.096525,5e-06,-0.000122,-0.042236,7.5e-05,-0.850329,-0.0662,-0.000161,-0.007812
123006,-0.04308,-0.002374,-0.986424,-0.064599,-0.0,-0.0,3.0,0.334887,0.325893,0.31698,0.326307,-0.042003,0.0,-0.002773,-0.095905,5e-06,-0.000122,-0.043796,7.2e-05,-0.850485,-0.089013,-0.000127,-0.007791
123026,-0.04709,-0.001617,-0.986211,-0.065807,-0.0,-0.0,3.0,0.331717,0.320121,0.320348,0.331934,-0.043914,0.0,-0.002776,-0.095232,5e-06,-0.000122,-0.045859,6.9e-05,-0.85064,-0.118557,-6.3e-05,-0.007768
123046,-0.051871,-0.000721,-0.986099,-0.066927,-0.0,-0.0,3.0,0.331174,0.314009,0.320917,0.337611,-0.04581,0.0,-0.002778,-0.094411,6e-06,-0.000122,-0.04845,6.9e-05,-0.850795,-0.149096,1e-05,-0.007727
123066,-0.057295,-0.000173,-0.985992,-0.06754,-0.0,-0.0,3.0,0.335308,0.307141,0.316525,0.343668,-0.047687,0.0,-0.002781,-0.092919,6e-06,-0.000122,-0.051598,6.9e-05,-0.85095,-0.176469,6.6e-05,-0.007696
123086,-0.06308,-0.000509,-0.985918,-0.068671,-0.0,-0.0,3.0,0.341087,0.300392,0.310113,0.349312,-0.04953,0.0,-0.002783,-0.091441,6e-06,-0.000122,-0.055277,7.1e-05,-0.851103,-0.20009,6.6e-05,-0.007662
123106,-0.068745,-0.001061,-0.985729,-0.069594,-0.0,-0.0,3.0,0.342631,0.293419,0.308345,0.354839,-0.05135,0.0,-0.002786,-0.090461,6e-06,-0.000122,-0.059452,7.3e-05,-0.851256,-0.219099,4.4e-05,-0.007624
123126,-0.074407,-0.001885,-0.985596,-0.070943,-0.0,-0.0,3.0,0.342001,0.287373,0.30907,0.359397,-0.05315,0.0,-0.002788,-0.089808,6e-06,-0.000122,-0.063999,7.4e-05,-0.851409,-0.236655,-6e-06,-0.007601
123146,-0.079909,-0.002489,-0.985507,-0.072,-0.0,-0.0,3.0,0.340179,0.282054,0.311143,0.363237,-0.054941,0.0,-0.002791,-0.089288,7e-06,-0.000122,-0.068835,7.2e-05,-0.851561,-0.248677,-7.8e-05,-0.007576
123166,-0.085101,-0.002373,-0.985277,-0.07303,-0.0,-0.0,3.0,0.334377,0.278075,0.317528,0.366009,-0.056717,0.0,-0.002793,-0.088371,7e-06,-0.000122,-0.07383,7e-05,-0.851712,-0.253612,-8.8e-05,-0.007546
123186,-0.089763,-0.001967,-0.98516,-0.074022,-0.0,-0.0,3.0,0.332334,0.276153,0.3197,0.367318,-0.058475,0.0,-0.002796,-0.087344,7e-06,-0.000122,-0.078828,6.8e-05,-0.851863,-0.248883,-7.5e-05,-0.007525
123206,-0.093339,-0.001252,-0.984972,-0.0748,-0.0,-0.0,3.0,0.331146,0.276293,0.320946,0.367223,-0.060211,0.0,-0.002798,-0.086098,7e-06,-0.000122,-0.083676,6.6e-05,-0.852013,-0.231357,-3.1e-05,-0.007497
123226,-0.095714,-0.000453,-0.984937,-0.075768,-0.0,-0.0,3.0,0.331021,0.278944,0.321077,0.365411,-0.061921,0.0,-0.0028,-0.08486,8e-06,-0.000122,-0.088167,6.6e-05,-0.852163,-0.205451,3.8e-05,-0.007471
123246,-0.097048,0.000214,-0.984984,-0.076724,-0.0,-0.0,3.0,0.332348,0.283937,0.319686,0.361896,-0.063609,0.0,-0.002803,-0.083895,8e-06,-0.000122,-0.092108,6.7e-05,-0.852312,-0.172905,0.00012,-0.007459
123266,-0.096941,0.000258,-0.985261,-0.0772,-0.0,-0.0,3.0,0.336359,0.290313,0.315384,0.357207,-0.065276,0.0,-0.002805,-0.082416,8e-06,-0.000122,-0.095376,7e-05,-0.852461,-0.136606,0.000155,-0.007446
123286,-0.096101,-0.000272,-0.985441,-0.07773,-0.0,-0.0,3.0,0.339715,0.298366,0.311666,0.350948,-0.066908,0.0,-0.002808,-0.080404,8e-06,-0.000122,-0.097829,7.3e-05,-0.85261,-0.093262,0.000123,-0.007469
123306,-0.094382,-0.001174,-0.986102,-0.078922,-0.0,-0.0,3.0,0.342633,0.307531,0.308342,0.343333,-0.068503,0.0,-0.00281,-0.0793,8e-06,-0.000122,-0.099402,7.5e-05,-0.85276,-0.052087,3.2e-05,-0.007512
123326,-0.091626,-0.001931,-0.9867,-0.079691,-0.0,-0.0,3.0,0.344464,0.316521,0.306211,0.335312,-0.070083,0.0,-0.002813,-0.078667,8e-06,-0.000122,-0.100121,7.5e-05,-0.85291,-0.008972,-6.1e-05,-0.007539
123346,-0.088613,-0.002134,-0.987321,-0.080421,-0.0,-0.0,3.0,0.339983,0.324937,0.311364,0.327257,-0.071646,0.0,-0.002815,-0.077438,9e-06,-0.000122,-0.100006,7.4e-05,-0.853061,0.030576,-8.1e-05,-0.007586
123366,-0.085282,-0.001886,-0.987818,-0.081122,-0.0,-0.0,3.0,0.336772,0.332459,0.314932,0.319568,-0.073183,0.0,-0.002818,-0.076038,9e-06,-0.000122,-0.099152,7.2e-05,-0.853213,0.062865,-6.2e-05,-0.007635
123386,-0.082132,-0.001324,-0.988652,-0.081645,-0.0,-0.0,3.0,0.333279,0.338344,0.3187,0.313198,-0.074691,0.0,-0.00282,-0.074502,9e-06,-0.000122,-0.097716,7.1e-05,-0.853367,0.082577,-6e-06,-0.00768
123406,-0.079806,-0.000506,-0.989215,-0.082413,-0.0,-0.0,3.0,0.331344,0.342809,0.320739,0.308138,-0.076168,0.0,-0.002823,-0.073108,9e-06,-0.000122,-0.095888,7.1e-05,-0.853521,0.095316,7.1e-05,-0.007745
123426,-0.07797,0.000182,-0.989945,-0.082749,-0.0,-0.0,3.0,0.332448,0.345204,0.31958,0.30534,-0.07762,0.0,-0.002825,-0.071576,9e-06,-0.000122,-0.093885,7.3e-05,-0.853676,0.099044,0.000136,-0.007785
123446,-0.076995,0.00041,-0.990547,-0.083189,-0.0,-0.0,3.0,0.335272,0.345547,0.316564,0.304933,-0.079036,0.0,-0.002827,-0.069679,1e-05,-0.000122,-0.091926,7.6e-05,-0.853832,0.089368,0.000159,-0.007837
123466,-0.0772,0.0,-0.991058,-0.083979,-0.0,-0.0,3.0,0.337509,0.343561,0.314121,0.307267,-0.080416,0.0,-0.00283,-0.06835,1e-05,-0.000122,-0.090266,7.9e-05,-0.853989,0.069762,0.000141,-0.007876
123486,-0.07844,-0.000548,-0.991438,-0.08446,-0.0,-0.0,3.0,0.33979,0.339298,0.311581,0.312134,-0.081774,0.0,-0.002832,-0.067215,1e-05,-0.000122,-0.089115,8.1e-05,-0.854147,0.043075,8.1e-05,-0.007922
123506,-0.080666,-0.001078,-0.991895,-0.084692,-0.0,-0.0,3.0,0.340104,0.332785,0.311228,0.319224,-0.083106,0.0,-0.002835,-0.065411,1e-05,-0.000122,-0.088629,8.2e-05,-0.854306,0.003182,1.7e-05,-0.007936
123526,-0.084486,-0.001218,-0.992028,-0.085115,-0.0,-0.0,3.0,0.338664,0.325042,0.312842,0.327154,-0.084398,0.0,-0.002837,-0.063504,1e-05,-0.000122,-0.088911,8.2e-05,-0.854464,-0.043628,-1.8e-05,-0.007943
123546,-0.089804,-0.00091,-0.992071,-0.085567,-0.0,-0.0,3.0,0.337488,0.315248,0.314145,0.336483,-0.085655,0.0,-0.00284,-0.061992,1e-05,-0.000122,-0.090119,8.2e-05,-0.854623,-0.092863,-3e-06,-0.007926
123566,-0.095941,-0.000361,-0.991935,-0.085776,-0.0,-0.0,3.0,0.336368,0.303905,0.315374,0.346412,-0.086883,0.0,-0.002842,-0.060338,1e-05,-0.000122,-0.092323,8.2e-05,-0.854782,-0.140677,4.9e-05,-0.00791
123586,-0.102643,0.000449,-0.991753,-0.086127,-0.0,-0.0,3.0,0.332461,0.291885,0.319566,0.356015,-0.088075,0.0,-0.002845,-0.058553,1.1e-05,-0.000122,-0.095489,8.5e-05,-0.854939,-0.187538,0.000163,-0.007863
123606,-0.109988,0.000909,-0.991464,-0.086438,-0.0,-0.0,3.0,0.331751,0.278756,0.320313,0.365541,-0.089233,0.0,-0.002847,-0.056947,1.1e-05,-0.000122,-0.099595,8.8e-05,-0.855097,-0.230374,0.000241,-0.007828
123626,-0.117388,0.001201,-0.991268,-0.086569,-0.0,-0.0,3.0,0.331617,0.265868,0.320454,0.374004,-0.090359,0.0,-0.00285,-0.055172,1.1e-05,-0.000122,-0.104508,9.3e-05,-0.855253,-0.266588,0.000275,-0.007792
123646,-0.124825,0.001046,-0.991067,-0.08682,-0.0,-0.0,3.0,0.335161,0.253872,0.316684,0.381158,-0.091448,0.0,-0.002852,-0.053346,1.1e-05,-0.000122,-0.110057,9.7e-05,-0.855409,-0.295941,0.000231,-0.007754
123666,-0.131873,0.000686,-0.990857,-0.086988,-0.0,-0.0,3.0,0.336242,0.244219,0.315511,0.386444,-0.092502,0.0,-0.002854,-0.051639,1.1e-05,-0.000122,-0.116045,0.000101,-0.855564,-0.311086,0.000178,-0.007718
123686,-0.137878,0.000207,-0.990518,-0.087116,-0.0,-0.0,3.0,0.337522,0.237929,0.314108,0.389675,-0.093521,0.0,-0.002857,-0.049865,1.1e-05,-0.000122,-0.122216,0.000104,-0.855718,-0.309527,0.000112,-0.007689
123706,-0.14242,9.6e-05,-0.990401,-0.087204,-0.0,-0.0,3.0,0.337504,0.236358,0.314127,0.390456,-0.094504,0.0,-0.002859,-0.048034,1.1e-05,-0.000122,-0.128266,0.000106,-0.855871,-0.289559,8.5e-05,-0.00764
123726,-0.14537,-0.000121,-0.990318,-0.087235,-0.0,-0.0,3.0,0.337684,0.238872,0.313929,0.389201,-0.095451,0.0,-0.002862,-0.046153,1.1e-05,-0.000122,-0.133903,0.000108,-0.856024,-0.25824,8.5e-05,-0.007607
123746,-0.14631,6.1e-05,-0.990351,-0.087266,-0.0,-0.0,3.0,0.335952,0.246398,0.315826,0.385287,-0.09636,0.0,-0.002864,-0.044271,1.2e-05,-0.000122,-0.138826,0.00011,-0.856176,-0.212894,0.000122,-0.007587
123766,-0.145187,0.0008,-0.990576,-0.087256,-0.0,-0.0,3.0,0.33415,0.258748,0.317771,0.378331,-0.097231,0.0,-0.002867,-0.042412,1.2e-05,-0.000122,-0.14271,0.000113,-0.856328,-0.153474,0.000187,-0.007607
123786,-0.14246,0.001153,-0.990901,-0.087188,-0.0,-0.0,3.0,0.334675,0.273353,0.317208,0.369191,-0.098066,0.0,-0.002869,-0.040503,1.2e-05,-0.000122,-0.145324,0.000117,-0.85648,-0.088786,0.000231,-0.007617
123806,-0.137747,0.001171,-0.991628,-0.08712,-0.0,-0.0,3.0,0.336452,0.289777,0.315281,0.35761,-0.098861,0.0,-0.002872,-0.038581,1.2e-05,-0.000122,-0.146524,0.000122,-0.856633,-0.015047,0.000248,-0.007672
123826,-0.131396,0.000965,-0.992727,-0.086974,-0.0,-0.0,3.0,0.33899,0.306335,0.312478,0.344358,-0.099619,0.0,-0.002874,-0.036639,1.2e-05,-0.000122,-0.146226,0.000127,-0.856786,0.061042,0.000214,-0.007746
123846,-0.123878,0.000419,-0.993818,-0.086804,-0.0,-0.0,3.0,0.340765,0.322832,0.31048,0.329325,-0.100337,0.0,-0.002877,-0.034642,1.2e-05,-0.000122,-0.144386,0.000131,-0.856942,0.140023,0.000165,-0.007842
123866,-0.115106,-0.000158,-0.99546,-0.086596,-0.0,-0.0,3.0,0.340761,0.337929,0.310484,0.313658,-0.101015,0.0,-0.002879,-0.032639,1.2e-05,-0.000122,-0.141076,0.000134,-0.8571,0.209341,0.000101,-0.007982
123886,-0.105852,-0.000323,-0.996939,-0.086478,-0.0,-0.0,3.0,0.336793,0.351503,0.314909,0.297672,-0.101654,0.0,-0.002882,-0.030769,1.2e-05,-0.000122,-0.136429,0.000135,-0.857261,0.26706,7.7e-05,-0.008112
123906,-0.097008,-8e-06,-0.998614,-0.086163,-0.0,-0.0,3.0,0.33402,0.36305,0.317911,0.282318,-0.102256,0.0,-0.002884,-0.028854,1.2e-05,-0.000122,-0.130662,0.000137,-0.857424,0.315883,9.3e-05,-0.008275
123926,-0.088554,0.000522,-1.00019,-0.085888,-0.0,-0.0,3.0,0.332217,0.371766,0.319824,0.269402,-0.102818,0.0,-0.002886,-0.026797,1.2e-05,-0.000122,-0.124077,0.000139,-0.857591,0.344505,0.000129,-0.008425
123946,-0.081035,0.001245,-1.001638,-0.085531,-0.0,-0.0,3.0,0.333734,0.37745,0.318216,0.26023,-0.10334,0.0,-0.002889,-0.024754,1.2e-05,-0.000122,-0.117056,0.000142,-0.85776,0.355129,0.000175,-0.00855
123966,-0.075635,0.001516,-1.002978,-0.085177,-0.0,-0.0,3.0,0.335539,0.379116,0.316275,0.257413,-0.10382,0.0,-0.002891,-0.022709,1.2e-05,-0.000122,-0.110036,0.000146,-0.857932,0.341835,0.000237,-0.008658
123986,-0.072303,0.001501,-1.004044,-0.084679,-0.0,-0.0,3.0,0.3369,0.376892,0.314791,0.26116,-0.10426,0.0,-0.002894,-0.020571,1.3e-05,-0.000122,-0.10349,0.000151,-0.858106,0.305288,0.000264,-0.008757
124006,-0.071474,0.001231,-1.004884,-0.084212,-0.0,-0.0,3.0,0.339711,0.370773,0.311671,0.270939,-0.104656,0.0,-0.002896,-0.018366,1.3e-05,-0.000122,-0.097841,0.000157,-0.858281,0.242376,0.000249,-0.008819
124026,-0.073861,0.000733,-1.005403,-0.083963,-0.0,-0.0,3.0,0.339871,0.360518,0.311491,0.285844,-0.105009,0.0,-0.002899,-0.016531,1.3e-05,-0.000122,-0.093541,0.000162,-0.858458,0.165204,0.000213,-0.008866
124046,-0.078987,0.000412,-1.005411,-0.08344,-0.0,-0.0,3.0,0.338144,0.345934,0.31342,0.304474,-0.105328,0.0,-0.002901,-0.014738,1.3e-05,-0.000122,-0.090934,0.000165,-0.858636,0.067915,0.000172,-0.008859
124066,-0.086478,0.000318,-1.005523,-0.082791,-0.0,-0.0,3.0,0.337444,0.327239,0.314193,0.324956,-0.105608,0.0,-0.002904,-0.012496,1.3e-05,-0.000122,-0.090304,0.000168,-0.858813,-0.036148,0.000148,-0.008857
124086,-0.09655,0.000623,-1.005113,-0.082203,-0.0,-0.0,3.0,0.33509,0.304636,0.31676,0.345798,-0.105842,0.0,-0.002906,-0.010205,1.3e-05,-0.000122,-0.091792,0.000171,-0.85899,-0.142867,0.000164,-0.008827
124106,-0.108295,0.001397,-1.004918,-0.081626,-0.0,-0.0,3.0,0.332272,0.27752,0.319766,0.366389,-0.106032,0.0,-0.002909,-0.008134,1.3e-05,-0.000122,-0.095445,0.000175,-0.859166,-0.248688,0.000232,-0.00876
124126,-0.121888,0.002,-1.00414,-0.081002,-0.0,-0.0,3.0,0.332728,0.245212,0.319284,0.385919,-0.106181,0.0,-0.002911,-0.006125,1.3e-05,-0.000122,-0.101197,0.00018,-0.85934,-0.348339,0.000294,-0.008694
124146,-0.136097,0.002679,-1.003431,-0.080633,-0.0,-0.0,3.0,0.33458,0.207255,0.31731,0.403177,-0.10629,0.0,-0.002914,-0.004401,1.3e-05,-0.000122,-0.108862,0.000186,-0.859514,-0.435911,0.000339,-0.008602
124166,-0.150063,0.002667,-1.002499,-0.079717,-0.0,-0.0,3.0,0.334976,0.160244,0.316884,0.417358,-0.106367,0.0,-0.002916,-0.002416,1.3e-05,-0.000122,-0.118087,0.000194,-0.859685,-0.500185,0.000382,-0.008492
124186,-0.162984,0.002292,-1.001207,-0.078946,-0.0,-0.0,3.0,0.337929,0.15,0.313658,0.428397,-0.106399,0.0,-0.002918,3.1e-05,1.3e-05,-0.000122,-0.128441,0.000201,-0.859854,-0.539677,0.000352,-0.008352
124206,-0.173868,0.001819,-0.999504,-0.078144,-0.0,-0.0,3.0,0.338849,0.15,0.312635,0.435417,-0.106383,0.0,-0.002921,0.002268,1.3e-05,-0.000122,-0.139369,0.000208,-0.860019,-0.545968,0.000318,-0.008177
124226,-0.181807,0.001598,-0.997819,-0.07731,-0.0,-0.0,3.0,0.338106,0.15,0.313462,0.438213,-0.106323,0.0,-0.002923,0.004414,1.3e-05,-0.000122,-0.15023,0.000214,-0.860182,-0.521052,0.00029,-0.007992
124246,-0.186201,0.001795,-0.996437,-0.076779,-0.0,-0.0,3.0,0.338105,0.15,0.313463,0.435666,-0.106222,0.0,-0.002926,0.006189,1.3e-05,-0.000122,-0.160283,0.00022,-0.86034,-0.458626,0.000277,-0.007835
124266,-0.186912,0.001899,-0.995523,-0.076115,-0.0,-0.0,3.0,0.335297,0.15,0.316537,0.428146,-0.106088,0.0,-0.002928,0.007685,1.3e-05,-0.000122,-0.168829,0.000225,-0.860496,-0.368886,0.00029,-0.007695
124286,-0.184507,0.00216,-0.995093,-0.074865,-0.0,-0.0,3.0,0.332641,0.163431,0.319376,0.416627,-0.105922,0.0,-0.002931,0.009985,1.3e-05,-0.000122,-0.175372,0.000231,-0.860649,-0.256409,0.000318,-0.007625
124306,-0.178308,0.002141,-0.9948,-0.074068,-0.0,-0.0,3.0,0.335813,0.215015,0.315978,0.400099,-0.105704,0.0,-0.002933,0.012476,1.3e-05,-0.000122,-0.179482,0.000237,-0.860802,-0.12322,0.00031,-0.007614
124326,-0.167983,0.001946,-0.995287,-0.072793,-0.0,-0.0,3.0,0.338884,0.25692,0.312596,0.379404,-0.105441,0.0,-0.002936,0.014814,1.3e-05,-0.000122,-0.180823,0.000243,-0.860954,0.021855,0.000278,-0.007622
124346,-0.153992,0.001345,-0.996761,-0.072119,-0.0,-0.0,3.0,0.339403,0.294128,0.312017,0.354291,-0.105129,0.0,-0.002938,0.016883,1.3e-05,-0.000122,-0.179196,0.000249,-0.861107,0.179414,0.000245,-0.0077
124366,-0.13703,0.000432,-0.998116,-0.071077,-0.0,-0.0,3.0,0.341236,0.327847,0.309944,0.324341,-0.104782,0.0,-0.002941,0.0186,1.3e-05,-0.000122,-0.174468,0.000253,-0.861262,0.337348,0.000171,-0.007838
124386,-0.117729,-0.000438,-0.999409,-0.069991,-0.0,-0.0,3.0,0.342635,0.358396,0.308339,0.288726,-0.104397,0.0,-0.002943,0.020739,1.2e-05,-0.000122,-0.16665,0.000256,-0.861419,0.485262,7.5e-05,-0.007957
124406,-0.096274,-0.000673,-1.000518,-0.068879,-0.0,-0.0,3.0,0.340993,0.38575,0.310221,0.245532,-0.103968,0.0,-0.002946,0.022973,1.2e-05,-0.000122,-0.155902,0.000257,-0.861579,0.624829,3.8e-05,-0.008063
124426,-0.072655,-0.000544,-1.001254,-0.068189,-0.0,-0.0,3.0,0.33946,0.41064,0.311953,0.185578,-0.103496,0.0,-0.002948,0.024624,1.2e-05,-0.000122,-0.142413,0.000258,-0.861741,0.753547,2.7e-05,-0.008126
124446,-0.048775,-0.000396,-1.001221,-0.067265,-0.0,-0.0,3.0,0.339266,0.432607,0.31217,0.15,-0.102996,0.0,-0.00295,0.025927,1.2e-05,-0.000122,-0.126445,0.000259,-0.861904,0.865267,4.2e-05,-0.008142
124466,-0.024726,-0.000575,-1.000136,-0.065719,-0.0,-0.0,3.0,0.338922,0.450326,0.312554,0.15,-0.102466,0.0,-0.002953,0.028217,1.2e-05,-0.000122,-0.108499,0.00026,-0.862065,0.952215,5.3e-05,-0.008022
124486,-0.00116,-0.001188,-0.998199,-0.064743,-0.0,-0.0,3.0,0.341944,0.464723,0.309135,0.15,-0.101884,0.0,-0.002955,0.030632,1.2e-05,-0.000122,-0.089059,0.000261,-0.862225,1.006158,2.5e-05,-0.007835
124506,0.020631,-0.002678,-0.995906,-0.062918,-0.0,-0.0,3.0,0.346492,0.475059,0.303808,0.15,-0.101259,0.0,-0.002958,0.033159,1.2e-05,-0.000122,-0.068718,0.000261,-0.86238,1.028099,-0.000101,-0.007601
124526,0.040307,-0.004662,-0.99379,-0.062199,-0.0,-0.0,3.0,0.348267,0.482109,0.301667,0.15,-0.100578,0.0,-0.00296,0.035284,1.2e-05,-0.000122,-0.048097,0.000258,-0.86253,1.026381,-0.000295,-0.00736
124546,0.058082,-0.007008,-0.99186,-0.060823,-0.0,-0.0,3.0,0.350485,0.485776,0.298943,0.15,-0.099866,0.0,-0.002963,0.036757,1.2e-05,-0.000122,-0.027725,0.000249,-0.862676,0.997675,-0.000543,-0.007143
124566,0.07323,-0.009104,-0.990776,-0.059479,-0.0,-0.0,3.0,0.350608,0.486545,0.29879,0.15,-0.099118,-0.0,-0.002965,0.038893,1.2e-05,-0.000122,-0.008084,0.000237,-0.862817,0.945375,-0.000771,-0.006996
124586,0.085258,-0.010771,-0.99079,-0.058123,-0.0,-0.0,3.0,0.349279,0.48414,0.300431,0.15,-0.098327,-0.0,-0.002968,0.041083,1.2e-05,-0.000122,0.010343,0.00022,-0.862957,0.872205,-0.000951,-0.006953
124606,0.093591,-0.011196,-0.991879,-0.057218,-0.0,-0.0,3.0,0.342998,0.478226,0.307921,0.15,-0.097494,-0.0,-0.00297,0.042607,1.2e-05,-0.000122,0.027068,0.0002,-0.863096,0.768985,-0.001017,-0.007032
124626,0.097242,-0.010363,-0.99399,-0.05627,-0.0,-0.0,3.0,0.336828,0.468378,0.314871,0.15,-0.096637,-0.0,-0.002973,0.043527,1.1e-05,-0.000122,0.041555,0.00018,-0.863238,0.639145,-0.000972,-0.007214
124646,0.095944,-0.008583,-0.99687,-0.054278,-0.0,-0.0,3.0,0.330716,0.453365,0.321394,0.15,-0.095759,-0.0,-0.002975,0.045702,1.1e-05,-0.000122,0.053218,0.000161,-0.863384,0.483179,-0.00082,-0.007454
124666,0.088977,-0.006147,-0.999791,-0.053189,-0.0,-0.0,3.0,0.32569,0.433086,0.32651,0.15,-0.094826,-0.0,-0.002978,0.048168,1.1e-05,-0.000122,0.061498,0.000147,-0.863535,0.296807,-0.000585,-0.007734
124686,0.076411,-0.003183,-1.002896,-0.051161,-0.0,-0.0,3.0,0.322288,0.405677,0.329853,0.200505,-0.093852,-0.0,-0.00298,0.050441,1.1e-05,-0.000122,0.065813,0.000138,-0.863692,0.085815,-0.000293,-0.008016
124706,0.058391,-0.000749,-1.005756,-0.050246,-0.0,-0.0,3.0,0.321216,0.371079,0.330887,0.270468,-0.092828,-0.0,-0.002982,0.052364,1.1e-05,-0.000122,0.065757,0.000134,-0.863855,-0.145458,-5e-06,-0.008292
124726,0.035315,0.000947,-1.008519,-0.048621,-0.0,-0.0,3.0,0.326601,0.326681,0.325598,0.325518,-0.091776,-0.0,-0.002985,0.053736,1.1e-05,-0.000122,0.061042,0.000135,-0.864023,-0.387168,0.000174,-0.008579
124746,0.007259,0.001506,-1.011116,-0.047074,-0.0,-0.0,3.0,0.331571,0.268688,0.320502,0.372222,-0.09069,-0.0,-0.002987,0.055787,1.1e-05,-0.000122,0.051573,0.00014,-0.864196,-0.621002,0.00027,-0.008819
124766,-0.025232,0.000946,-1.012483,-0.045496,-0.0,-0.0,3.0,0.339913,0.17425,0.311443,0.413902,-0.089562,-0.0,-0.00299,0.057849,1.1e-05,-0.000122,0.037402,0.000145,-0.864374,-0.856177,0.000219,-0.008971
124786,-0.060659,-0.000145,-1.012401,-0.044685,-0.0,-0.0,3.0,0.343017,0.15,0.307898,0.45073,-0.088396,-0.0,-0.002992,0.058901,1e-05,-0.000122,0.018647,0.000148,-0.864554,-1.071109,0.000119,-0.008992
124806,-0.095653,-0.000223,-1.00996,-0.042989,-0.0,-0.0,3.0,0.333606,0.15,0.318352,0.483751,-0.087217,-0.0,-0.002995,0.059943,1e-05,-0.000122,-0.004324,0.00015,-0.864733,-1.267976,0.000113,-0.008805
124826,-0.103812,-0.003847,-1.003238,-0.041339,-0.0,-0.0,3.0,0.356831,0.15,0.290811,0.492388,-0.086006,-0.0,-0.002997,0.062052,1e-05,-0.000122,-0.02921,0.000152,-0.864904,-1.114267,-0.000123,-0.008147
124846,-0.106273,-0.008317,-0.999144,-0.039534,-0.0,-0.0,3.0,0.358956,0.15,0.28797,0.473507,-0.084753,-0.0,-0.003,0.064316,1e-05,-0.000122,-0.049822,0.000144,-0.865064,-0.890778,-0.000626,-0.00772
124866,-0.094557,-0.013288,-0.996143,-0.037577,-0.0,-0.0,3.0,0.365696,0.15,0.27853,0.445503,-0.083453,-0.0,-0.003002,0.066719,1e-05,-0.000122,-0.065515,0.000128,-0.865215,-0.574929,-0.001101,-0.007344
124886,-0.08008,-0.01808,-0.994204,-0.036579,-0.0,-0.0,3.0,0.367579,0.216459,0.275766,0.399502,-0.082107,-0.0,-0.003005,0.068082,1e-05,-0.000122,-0.07413,0.000103,-0.86536,-0.24166,-0.001587,-0.007115
124906,-0.07057,-0.02149,-0.99358,-0.034892,-0.0,-0.0,3.0,0.363875,0.282892,0.281149,0.362643,-0.080745,-0.0,-0.003007,0.068959,1e-05,-0.000122,-0.077232,6.8e-05,-0.865501,-0.046138,-0.001982,-0.007005
124926,-0.066738,-0.021642,-0.993942,-0.033198,-0.0,-0.0,3.0,0.350004,0.307193,0.299538,0.343624,-0.079357,-0.0,-0.003009,0.070704,9e-06,-0.000122,-0.077507,2.7e-05,-0.865641,0.024491,-0.002085,-0.006966
124946,-0.064781,-0.017611,-0.996293,-0.031498,-0.0,-0.0,3.0,0.322892,0.314712,0.329266,0.336972,-0.077933,-0.0,-0.003012,0.072554,9e-06,-0.000122,-0.076826,-1.3e-05,-0.865782,0.046014,-0.001759,-0.007161
124966,-0.062147,-0.012572,-1.000539,-0.030523,-0.0,-0.0,3.0,0.310077,0.317753,0.341119,0.334167,-0.076475,-0.0,-0.003014,0.0734,9e-06,-0.000122,-0.075839,-4.4e-05,-0.865928,0.063118,-0.001231,-0.007552
