time_ms,roll,pitch,yaw,roll_rate,pitch_rate,yaw_rate,reference_roll,reference_pitch,reference_yaw,reference_throttle,throttle_1,throttle_2,throttle_3,throttle_4,roll_predicted,pitch_predicted,yaw_predicted,roll_rate_predicted,pitch_rate_predicted,yaw_rate_predicted
39038,0.001466,0.000486,0.003174,-1e-06,-0.001063,-0.001066,-0.0,-0.0,-0.0,3.0,0.3261,0.328317,0.3261,0.323862,-0.0,-99.798759,-0.0,-0.0,-5.377219,-0.0
39058,0.001465,0.000242,0.003174,-0.0,-0.002128,-3e-06,0.001888,-0.0,-0.0,3.0,0.3261,0.326235,0.3261,0.325966,6e-06,-100.009565,-0.0,0.001154,-5.107334,0.0
39078,0.001465,0.000242,0.003296,-0.0,-0.002128,-3e-06,0.005606,-0.0,-0.0,3.0,0.3261,0.326485,0.3261,0.325715,8.7e-05,-100.210731,-6e-06,0.004882,-4.91578,7e-06
39098,0.001587,0.000241,0.00354,-0.001064,-0.001064,-2e-06,0.007509,-0.0,-0.0,3.0,0.3261,0.32593,0.3261,0.326271,0.000342,-100.405469,-3.9e-05,0.009553,-4.807114,2.5e-05
39118,0.001587,0.000241,0.00354,-0.001064,2e-06,-0.001064,0.012393,-0.0,-0.0,3.0,0.3261,0.324266,0.3261,0.32792,0.000946,-100.644964,-0.000169,0.017204,-4.790686,6.8e-05
39138,0.001832,0.000363,0.003662,-0.001065,0.001066,-0.001062,0.014219,-0.0,-0.0,3.0,0.3261,0.325198,0.3261,0.326999,0.001769,-100.837562,-0.000408,0.022839,-4.872935,0.000123
39158,0.001954,0.000485,0.003662,-1e-06,0.001066,-0.001062,0.018844,-0.0,-0.0,3.0,0.3261,0.323617,0.3261,0.328558,0.002591,-100.984809,-0.000723,0.026529,-4.989093,0.000174
39178,0.001832,0.000485,0.003662,-1e-06,2e-06,-0.001064,0.021256,-0.0,-0.0,3.0,0.3261,0.322786,0.3261,0.329369,0.00413,-101.187497,-0.001452,0.033369,-5.213587,0.000261
39198,0.001954,0.000485,0.003662,-1e-06,2e-06,-0.001064,0.024897,-0.0,-0.0,3.0,0.3261,0.320052,0.3261,0.332,0.006502,-101.400295,-0.002872,0.038862,-5.511888,0.000372
39218,0.002198,0.000362,0.003662,-0.0,-0.001064,-2e-06,0.028456,-0.0,-0.0,3.0,0.3261,0.318798,0.3261,0.333187,0.010674,-101.626018,-0.005982,0.043103,-5.874215,0.000506
39238,0.002442,0.00024,0.003662,-0.0,-0.002128,-5e-06,0.031938,-0.0,-0.0,3.0,0.3261,0.317546,0.3261,0.33436,0.021046,-101.867013,-0.015233,0.043349,-6.285818,0.00066
39258,0.002442,0.00024,0.003662,-0.0,-0.002128,-5e-06,0.035529,-0.0,-0.0,3.0,0.3261,0.317784,0.3261,0.334138,0.1523,-102.124795,-0.145441,0.021407,-6.725773,0.000808
39278,0.002686,0.000361,0.003662,-0.0,-0.002128,-6e-06,0.037472,-0.0,-0.0,3.0,0.3261,0.31705,0.3261,0.334822,-0.025883,-102.396612,0.033362,0.133139,-7.166572,0.001022
39298,0.003053,0.00036,0.003784,-0.0,3e-06,-0.001064,0.041373,-0.0,-0.0,3.0,0.3261,0.315639,0.3261,0.336125,-0.005147,-102.765256,0.018211,0.129406,-7.667526,0.00175
39318,0.003297,0.000604,0.003784,-1e-06,0.001068,-0.001061,0.043745,-0.0,-0.0,3.0,0.3261,0.316253,0.3261,0.335559,-0.000366,-102.997857,0.016915,0.122065,-7.91361,0.002184
39338,0.004152,0.000481,0.003662,0.001064,0.002133,-0.001055,0.047611,-0.0,-0.0,3.0,0.3261,0.315032,0.3261,0.33668,0.004216,-103.318286,0.017324,0.115625,-8.147481,0.002744
39358,0.004762,0.000602,0.003539,0.001064,0.002133,-0.001054,0.050793,-0.0,-0.0,3.0,0.3261,0.313981,0.3261,0.337637,0.008393,-103.64615,0.019148,0.112389,-8.24931,0.003294
39378,0.005983,0.000478,0.003539,0.002128,0.001064,6e-06,0.053835,-0.0,-0.0,3.0,0.3261,0.314655,0.3261,0.337024,0.013199,-103.975916,0.022374,0.110001,-8.206185,0.003834
39398,0.007569,0.000231,0.003418,0.003193,0.0,0.0,0.05527,-0.0,-0.0,3.0,0.3261,0.316045,0.3261,0.335751,0.022026,-104.382003,0.029706,0.104152,-7.957295,0.00448
39418,0.009278,-1.6e-05,0.003418,0.004257,-0.001064,-1e-05,0.058214,-0.0,-0.0,3.0,0.3261,0.3152,0.3261,0.336527,0.030934,-104.618411,0.037878,0.098299,-7.720765,0.004835
39438,0.011475,-0.000141,0.003297,0.005321,-0.003192,-3.7e-05,0.061268,-0.0,-0.0,3.0,0.3261,0.317949,0.3261,0.333984,0.069423,-104.994639,0.075381,0.082563,-7.333447,0.005251
39458,0.013672,-0.000267,0.003298,0.006385,-0.003192,-4.4e-05,0.061268,-0.0,-0.0,3.0,0.3261,0.315229,0.3261,0.336501,0.208684,-105.20722,0.214386,0.025416,-6.899521,0.00554
39478,0.01648,-0.000392,0.003177,0.00745,-0.002128,-3.5e-05,0.066182,-0.0,-0.0,3.0,0.3261,0.315875,0.3261,0.335908,-0.096829,-105.449526,-0.087543,0.10849,-6.455792,-0.000241
39498,0.019898,-0.000274,0.003054,0.006385,-0.001064,-2.1e-05,0.067644,-0.0,-0.0,3.0,0.3261,0.317789,0.3261,0.334134,-0.030874,-105.700729,-0.025915,0.209868,-6.031559,0.000361
39518,0.023561,-0.000401,0.002934,0.006385,-0.001064,-2.5e-05,0.070507,-0.0,-0.0,3.0,0.3261,0.32076,0.3261,0.331324,-0.012781,-105.936058,-0.014921,0.218095,-5.651931,0.001105
39538,0.027467,-0.000406,0.002935,0.006385,0.0,0.0,0.072626,-0.0,-0.0,3.0,0.3261,0.324098,0.3261,0.328086,-0.002025,-106.157152,-0.012075,0.214775,-5.334831,0.00181
39558,0.031619,-0.000411,0.002814,0.00745,0.001097,-0.00103,0.074653,-0.0,-0.0,3.0,0.3261,0.323319,0.3261,0.328849,0.008403,-106.417576,-0.012594,0.210737,-5.043822,0.002625
39578,0.035891,-0.000414,0.002692,0.008514,0.002165,-0.000987,0.075583,-0.0,-0.0,3.0,0.3261,0.327183,0.3261,0.325012,0.016107,-106.616946,-0.014841,0.208383,-4.90333,0.003241
39598,0.040531,-0.00054,0.002573,0.009579,0.00217,-0.000977,0.077353,-0.0,-0.0,3.0,0.3261,0.325962,0.3261,0.326239,0.021972,-106.763423,-0.017411,0.207244,-4.853994,0.003688
39618,0.045294,-0.000541,0.00233,0.010643,0.001111,-0.001015,0.079138,-0.0,-0.0,3.0,0.3261,0.328679,0.3261,0.323493,0.032627,-107.006018,-0.023572,0.205109,-4.879619,0.004425
39638,0.049934,-0.000787,0.002215,0.011706,0.0,0.0,0.080814,-0.0,-0.0,3.0,0.3261,0.327711,0.3261,0.324479,0.040004,-107.15301,-0.028741,0.202903,-4.959146,0.004867
39658,0.055306,-0.000908,0.001976,0.011707,-0.001063,-5.9e-05,0.081525,-0.0,-0.0,3.0,0.3261,0.328968,0.3261,0.323198,0.051912,-107.353613,-0.038262,0.196621,-5.137801,0.00546
39678,0.060679,-0.001276,0.001867,0.011707,-0.002125,-0.000129,0.083061,-0.0,-0.0,3.0,0.3261,0.330412,0.3261,0.32171,0.07333,-107.616241,-0.057773,0.184799,-5.395006,0.006052
39698,0.066177,-0.001399,0.001753,0.010642,-0.002124,-0.000141,0.084161,-0.0,-0.0,3.0,0.3261,0.334159,0.3261,0.317762,0.093829,-107.782291,-0.077857,0.162981,-5.722926,0.006628
39718,0.071794,-0.001517,0.001517,0.010641,-0.002199,0.000909,0.085079,-0.0,-0.0,3.0,0.3261,0.335961,0.3261,0.315816,0.170531,-108.075884,-0.155695,0.118652,-6.109395,0.007141
39738,0.07717,-0.001511,0.001276,0.010642,0.0,0.0,0.085472,-0.0,-0.0,3.0,0.3261,0.337438,0.3261,0.3142,0.517636,-108.322832,-0.506628,0.002203,-6.536646,0.007454
39758,0.08267,-0.001382,0.001031,0.011706,0.001061,8.8e-05,0.086263,-0.0,-0.0,3.0,0.3261,0.338475,0.3261,0.313053,12.487273,-108.385136,-12.48241,-1.009499,-6.980966,-0.036234
39778,0.088163,-0.001374,0.000791,0.011708,0.002214,-0.000873,0.086656,-0.0,-0.0,3.0,0.3261,0.338559,0.3261,0.312959,37.621304,-108.520861,-37.691819,-3.414157,-7.412377,-0.192447
39798,0.093662,-0.001364,0.000551,0.011706,0.00106,0.0001,0.087051,-0.0,-0.0,3.0,0.3261,0.340118,0.3261,0.311212,37.535349,-108.822589,-37.777636,-5.524821,-7.773223,-0.359292
39818,0.098923,-0.001713,0.000206,0.010642,-0.001059,-0.000105,0.087203,-0.0,-0.0,3.0,0.3261,0.340704,0.3261,0.310549,37.317873,-109.210317,-37.9071,-7.792646,-8.001425,-0.581856
39839,0.103934,-0.002066,-1.4e-05,0.009578,-0.002117,-0.000221,0.087255,-0.0,-0.0,3.0,0.3261,0.342258,0.3261,0.308774,37.069776,-109.506749,-38.056699,-9.311513,-7.918211,-0.769279
39858,0.108945,-0.002174,-0.000246,0.008512,-0.002232,0.000826,0.087118,-0.0,-0.0,3.0,0.3261,0.342492,0.3261,0.308505,36.744375,-109.75841,-38.254841,-10.572076,-7.549656,-0.96228
39878,0.113591,-0.002159,-0.000485,0.008514,-0.001057,-0.000121,0.086991,-0.0,-0.0,3.0,0.3261,0.344982,0.3261,0.305602,36.445151,-109.894946,-38.434029,-11.363929,-7.080428,-1.108714
39898,0.117871,-0.00215,-0.000602,0.007449,0.001057,0.000125,0.086619,-0.0,-0.0,3.0,0.3261,0.345534,0.3261,0.304949,35.857289,-109.985961,-38.756719,-12.46377,-5.961626,-1.351598
39918,0.121663,-0.001883,-0.000978,0.007451,0.002242,-0.000798,0.086047,-0.0,-0.0,3.0,0.3261,0.346969,0.3261,0.303237,35.342443,-109.939926,-38.979481,-13.234261,-4.808609,-1.541191
39938,0.125334,-0.001987,-0.00121,0.007451,0.001189,-0.000923,0.085266,-0.0,-0.0,3.0,0.3261,0.348444,0.3261,0.301453,34.809155,-109.833855,-39.129294,-13.983902,-3.46087,-1.723493
39958,0.128753,-0.002091,-0.001442,0.00745,0.0,0.0,0.084468,-0.0,-0.0,3.0,0.3261,0.34713,0.3261,0.303043,34.251028,-109.722326,-39.208699,-14.736571,-1.925808,-1.895799
39978,0.132058,-0.002437,-0.001658,0.006386,-0.001055,-0.00014,0.083873,-0.0,-0.0,3.0,0.3261,0.347111,0.3261,0.303066,33.662591,-109.637687,-39.254111,-15.444787,-0.193137,-2.05517
39998,0.134877,-0.00254,-0.00189,0.004257,-0.001055,-0.000143,0.082394,-0.0,-0.0,3.0,0.3261,0.347227,0.3261,0.302926,33.05605,-109.568224,-39.313429,-15.986256,1.739639,-2.198379
40018,0.137199,-0.00265,-0.002,0.00319,-0.0012,0.000909,0.081479,-0.0,-0.0,3.0,0.3261,0.347052,0.3261,0.303137,32.449688,-109.461271,-39.404629,-16.194059,3.834994,-2.322555
40038,0.1394,-0.002509,-0.002249,0.002129,-0.001054,-0.000148,0.080011,-0.0,-0.0,3.0,0.3261,0.348384,0.3261,0.301526,31.844072,-109.264506,-39.48096,-15.925525,5.999909,-2.426501
40058,0.140992,-0.00262,-0.002359,0.002129,-0.001054,-0.00015,0.078395,-0.0,-0.0,3.0,0.3261,0.348226,0.3261,0.301718,31.157901,-108.98324,-39.403227,-15.144729,8.111168,-2.511907
40078,0.142096,-0.002488,-0.002488,0.001064,0.0,0.0,0.077499,-0.0,-0.0,3.0,0.3261,0.347726,0.3261,0.302324,30.015643,-108.768621,-38.780744,-13.961269,10.075971,-2.583278
40098,0.142705,-0.002357,-0.002618,-0.0,0.001053,0.000151,0.075115,-0.0,-0.0,3.0,0.3261,0.348894,0.3261,0.300904,28.735879,-109.014863,-37.968662,-12.574917,11.880971,-2.646262
40118,0.143201,-0.002226,-0.002748,-0.0,0.001053,0.000152,0.073689,-0.0,-0.0,3.0,0.3261,0.348397,0.3261,0.30151,28.220837,-109.521577,-37.935605,-11.154516,13.601581,-2.705654
40138,0.143201,-0.002339,-0.002861,-0.001062,0.000152,-0.001053,0.071379,-0.0,-0.0,3.0,0.3261,0.348024,0.3261,0.301963,27.838813,-110.055923,-38.160686,-9.766246,15.32615,-2.764698
40158,0.142949,-0.002461,-0.002852,-0.002128,-0.001053,-0.000152,0.069627,-0.0,-0.0,3.0,0.3261,0.347418,0.3261,0.302696,27.322869,-110.510993,-38.642533,-8.388418,17.073505,-2.825857
40178,0.142462,-0.002583,-0.002844,-0.002128,-0.001053,-0.000151,0.068471,-0.0,-0.0,3.0,0.3261,0.347941,0.3261,0.302064,26.488314,-110.622775,-39.50856,-6.941076,18.74872,-2.892145
40198,0.141853,-0.002584,-0.002846,-0.002128,-0.001054,-0.00015,0.065608,-0.0,-0.0,3.0,0.3261,0.348937,0.3261,0.30085,25.858663,-110.159452,-40.229605,-5.3498,20.140742,-2.968084
40218,0.141236,-0.002594,-0.002724,-0.002125,-0.000904,-0.001203,0.062822,-0.0,-0.0,3.0,0.3261,0.349912,0.3261,0.299652,25.687505,-109.428463,-40.626397,-3.61065,21.002932,-3.059387
40238,0.140505,-0.002473,-0.002734,-0.002125,-0.000905,-0.001203,0.060146,-0.0,-0.0,3.0,0.3261,0.350775,0.3261,0.298581,25.845075,-108.847901,-40.99978,-2.25389,21.245194,-3.140988
40258,0.140018,-0.002344,-0.002865,-0.002126,-0.000905,-0.001202,0.057264,-0.0,-0.0,3.0,0.3261,0.351822,0.3261,0.297271,29.07358,-108.654853,-44.354499,-0.417266,21.130877,-3.269406
40278,0.1394,-0.002223,-0.002874,-0.003193,0.0,0.0,0.055584,-0.0,-0.0,3.0,0.3261,0.352546,0.3261,0.296356,28.509441,-109.66639,-43.717525,1.850655,20.571355,-3.462214
40298,0.138791,-0.00198,-0.002892,-0.002129,0.001054,0.000147,0.053384,-0.0,-0.0,3.0,0.3261,0.353376,0.3261,0.295301,28.614483,-110.489631,-43.639057,3.516998,20.027123,-3.639967
40318,0.137938,-0.001982,-0.002894,-0.003191,0.000146,-0.001054,0.050174,-0.0,-0.0,3.0,0.3261,0.354427,0.3261,0.293952,29.074692,-111.264562,-43.2694,5.045665,19.387447,-3.835741
40338,0.137199,-0.001983,-0.002894,-0.003192,-0.001054,-0.000146,0.046528,-0.0,-0.0,3.0,0.3261,0.355647,0.3261,0.292368,42.696634,-111.463275,-29.832258,6.34793,18.457157,-4.045959
40358,0.136103,-0.002115,-0.002766,-0.00319,0.000144,-0.001054,0.044559,-0.0,-0.0,3.0,0.3261,0.354957,0.3261,0.293266,44.491489,-111.201673,-28.31717,7.370786,17.140676,-4.265463
40378,0.134755,-0.002117,-0.002767,-0.003193,0.0,0.0,0.041179,-0.0,-0.0,3.0,0.3261,0.354611,0.3261,0.293715,44.522727,-110.534761,-28.635258,8.006199,15.412061,-4.487759
40398,0.13292,-0.002128,-0.002648,-0.004254,-0.000914,-0.001196,0.037843,-0.0,-0.0,3.0,0.3261,0.354117,0.3261,0.294351,44.777181,-109.954002,-28.843929,8.112173,13.234452,-4.705384
40418,0.131085,-0.002139,-0.002528,-0.005319,-0.000916,-0.001194,0.034498,-0.0,-0.0,3.0,0.3261,0.353631,0.3261,0.294975,45.150727,-109.504456,-29.127005,7.62432,10.751881,-4.91124
40438,0.128884,-0.002264,-0.002523,-0.007447,0.000137,-0.001055,0.030779,-0.0,-0.0,3.0,0.3261,0.353151,0.3261,0.295588,45.660275,-109.222698,-29.528271,6.58417,8.229657,-5.101296
40458,0.12631,-0.002031,-0.00242,-0.008514,0.0,0.0,0.028022,-0.0,-0.0,3.0,0.3261,0.354968,0.3261,0.293251,46.244289,-109.118423,-30.011691,5.10598,5.944263,-5.275645
40478,0.123012,-0.001921,-0.00231,-0.008512,0.000131,-0.001056,0.024706,-0.0,-0.0,3.0,0.3261,0.3554,0.3261,0.292689,46.750236,-109.144742,-30.45352,3.343426,4.116072,-5.437504
40498,0.119707,-0.001811,-0.002199,-0.008512,0.000127,-0.001057,0.022058,-0.0,-0.0,3.0,0.3261,0.354306,0.3261,0.294108,47.101377,-109.234427,-30.80189,1.469691,2.889536,-5.591242
40518,0.115793,-0.001701,-0.002088,-0.008512,0.00118,-0.000934,0.017027,-0.0,-0.0,3.0,0.3261,0.353718,0.3261,0.294864,47.309308,-109.354036,-31.083073,-0.334653,2.333886,-5.740523
40538,0.111513,-0.001719,-0.001848,-0.008512,0.000118,-0.001058,0.015117,-0.0,-0.0,3.0,0.3261,0.352123,0.3261,0.296892,47.3975,-109.496849,-31.323737,-1.893116,2.447315,-5.887249
40558,0.106746,-0.001609,-0.001737,-0.009576,-0.002003,-0.001285,0.0115,-0.0,-0.0,3.0,0.3261,0.349511,0.3261,0.300147,47.387055,-109.664568,-31.540419,-3.050688,3.160271,-6.031518
40578,0.101979,-0.001864,-0.001607,-0.011704,-0.002009,-0.001275,0.00716,-0.0,-0.0,3.0,0.3261,0.347081,0.3261,0.303102,47.29915,-109.860314,-31.749305,-3.693967,4.341872,-6.172492
40598,0.096724,-0.001752,-0.001497,-0.013833,-0.000956,-0.001162,0.005335,-0.0,-0.0,3.0,0.3261,0.345105,0.3261,0.305456,47.150971,-110.084599,-31.973139,-3.767256,5.81263,-6.309693
40618,0.090853,-0.001646,-0.001264,-0.014899,-0.00106,-9.7e-05,0.002585,-0.0,-0.0,3.0,0.3261,0.345967,0.3261,0.304435,46.945106,-110.328213,-32.246862,-3.280328,7.361841,-6.4441
40638,0.0845,-0.001295,-0.001041,-0.015962,-0.000971,-0.00115,-0.000543,-0.0,-0.0,3.0,0.3261,0.345404,0.3261,0.305104,46.65632,-110.559708,-32.625465,-2.308768,8.765875,-6.578461
40658,0.077904,-0.001187,-0.000806,-0.015961,0.000166,-0.002122,-0.006462,-0.0,-0.0,3.0,0.3261,0.345591,0.3261,0.304882,46.242037,-110.706235,-33.172233,-0.991393,9.80737,-6.716625
40678,0.070941,-0.000954,-0.000575,-0.015961,0.001212,-0.002048,-0.010241,-0.0,-0.0,3.0,0.3261,0.343634,0.3261,0.307181,45.776057,-110.664952,-33.827966,0.473076,10.300333,-6.862059
40698,0.063734,-0.000839,-0.000461,-0.015963,0.00113,-0.000994,-0.012632,-0.0,-0.0,3.0,0.3261,0.342556,0.3261,0.308431,45.493888,-110.430335,-34.37002,1.840449,10.124742,-7.016147
40718,0.056284,-0.000485,-0.000108,-0.015963,-0.001003,-0.001122,-0.016585,-0.0,-0.0,3.0,0.3261,0.339038,0.3261,0.312425,45.444666,-110.112148,-34.763345,2.859249,9.272484,-7.177224
40738,0.048955,-0.00061,1.5e-05,-0.017027,-0.002074,-0.001167,-0.020207,-0.0,-0.0,3.0,0.3261,0.336819,0.3261,0.31488,45.555602,-109.796185,-35.092894,3.327697,7.882019,-7.341144
40758,0.041508,-0.000615,0.000257,-0.018091,-0.002082,-0.001152,-0.023786,-0.0,-0.0,3.0,0.3261,0.334512,0.3261,0.317383,45.773631,-109.522853,-35.41778,3.151227,6.220994,-7.503332
40778,0.033694,-0.000374,0.000494,-0.02022,-0.001064,-3.6e-05,-0.027439,-0.0,-0.0,3.0,0.3261,0.334967,0.3261,0.316893,46.066774,-109.30723,-35.774356,2.37261,4.61925,-7.660968
40798,0.025759,-9e-06,0.000732,-0.019156,2.7e-05,-0.001064,-0.029529,-0.0,-0.0,3.0,0.3261,0.334874,0.3261,0.316993,46.417603,-109.157991,-36.192532,1.165027,3.385012,-7.813767
40818,0.017701,0.000234,0.001097,-0.017028,3.8e-05,-0.002128,-0.034,-0.0,-0.0,3.0,0.3261,0.334021,0.3261,0.317909,46.805797,-109.094923,-36.683337,-0.20435,2.734301,-7.96302
40838,0.009156,0.000361,0.001219,-0.018093,1.9e-05,-0.002128,-0.036537,-0.0,-0.0,3.0,0.3261,0.330932,0.3261,0.32117,47.159038,-109.143664,-37.189218,-1.429739,2.746972,-8.109958
40858,0.000855,0.000488,0.001465,-0.018092,1e-06,-0.001064,-0.040079,-0.0,-0.0,3.0,0.3261,0.329648,0.3261,0.322499,47.382031,-109.302322,-37.614841,-2.234745,3.352842,-8.254897
40878,-0.00708,0.000495,0.001833,-0.018092,-8e-06,-0.001064,-0.042746,-0.0,-0.0,3.0,0.3261,0.326688,0.3261,0.325511,47.464267,-109.541588,-37.941318,-2.440887,4.349957,-8.397754
40898,-0.015259,0.000627,0.002202,-0.018093,-3.2e-05,-0.002128,-0.046311,-0.0,-0.0,3.0,0.3261,0.32388,0.3261,0.3283,47.452872,-109.834503,-38.209617,-2.013412,5.454175,-8.539265
40918,-0.023316,0.000762,0.002572,-0.020222,-0.001114,-0.002103,-0.049437,-0.0,-0.0,3.0,0.3261,0.323938,0.3261,0.328243,47.385032,-110.16044,-38.467971,-1.070272,6.368917,-8.68153
40938,-0.03174,0.001025,0.003067,-0.020221,-0.002161,-0.000996,-0.051005,-0.0,-0.0,3.0,0.3261,0.323341,0.3261,0.328828,47.260709,-110.493881,-38.769671,0.145619,6.855263,-8.827162
40958,-0.039797,0.001169,0.003562,-0.019157,-0.002169,-0.000979,-0.053071,-0.0,-0.0,3.0,0.3261,0.322993,0.3261,0.329168,47.02005,-110.789027,-39.200235,1.321373,6.787497,-8.977619
40978,-0.048465,0.001318,0.004057,-0.018094,-0.002229,-0.002023,-0.057686,-0.0,-0.0,3.0,0.3261,0.320217,0.3261,0.331842,46.548954,-110.949926,-39.879408,2.145916,6.188212,-9.132096
40998,-0.056768,0.001474,0.004675,-0.018095,-0.002246,-0.002004,-0.060476,-0.0,-0.0,3.0,0.3261,0.31844,0.3261,0.333523,46.01543,-110.855133,-40.631551,2.386786,5.23346,-9.287973
41018,-0.065194,0.001753,0.005176,-0.017029,-0.001131,-0.000993,-0.061807,-0.0,-0.0,3.0,0.3261,0.316086,0.3261,0.335713,45.778376,-110.57246,-41.083793,1.967651,4.211188,-9.442502
41038,-0.073258,0.001801,0.005915,-0.01703,-7.8e-05,-0.001061,-0.063701,-0.0,-0.0,3.0,0.3261,0.312414,0.3261,0.339047,45.719813,-110.23029,-41.343344,1.019512,3.437461,-9.594318
41058,-0.081195,0.00197,0.006534,-0.018096,0.000888,-0.002208,-0.067154,-0.0,-0.0,3.0,0.3261,0.312422,0.3261,0.33904,45.715212,-109.87071,-41.538626,-0.150802,3.145876,-9.743485
41078,-0.089259,0.002034,0.007394,-0.018096,0.00087,-0.002215,-0.069452,-0.0,-0.0,3.0,0.3261,0.310377,0.3261,0.340855,45.737084,-109.505608,-41.73623,-1.159586,3.392492,-9.89045
41098,-0.096835,0.002219,0.008137,-0.018099,0.000751,-0.003281,-0.071674,-0.0,-0.0,3.0,0.3261,0.31003,0.3261,0.34116,45.834237,-109.146937,-42.009147,-1.678536,4.025819,-10.035477
41118,-0.104412,0.002287,0.008874,-0.017035,-0.000333,-0.003175,-0.072708,-0.0,-0.0,3.0,0.3261,0.307631,0.3261,0.343247,46.202074,-108.838717,-42.545007,-1.555174,4.738889,-10.179243
41138,-0.111865,0.002604,0.009623,-0.017036,-0.001414,-0.003054,-0.074043,-0.0,-0.0,3.0,0.3261,0.305321,0.3261,0.345219,47.194159,-108.778486,-43.677299,-0.873043,5.187977,-10.323401
41158,-0.119082,0.002567,0.010475,-0.015968,-0.00131,-0.001987,-0.075584,-0.0,-0.0,3.0,0.3261,0.304755,0.3261,0.345697,47.783065,-109.112218,-44.363996,0.0895,5.137781,-10.46983
41178,-0.126048,0.002664,0.011453,-0.015969,-0.001323,-0.001978,-0.078659,-0.0,-0.0,3.0,0.3261,0.304792,0.3261,0.345666,47.953769,-109.541375,-44.60161,0.941634,4.570573,-10.619092
41198,-0.132655,0.002888,0.012441,-0.014905,-0.001336,-0.001969,-0.079444,-0.0,-0.0,3.0,0.3261,0.302468,0.3261,0.347607,48.037966,-109.976904,-44.755063,1.349142,3.695369,-10.769942
41218,-0.139134,0.002882,0.013531,-0.013841,-0.001349,-0.00196,-0.081171,-0.0,-0.0,3.0,0.3261,0.303792,0.3261,0.346506,48.062212,-110.404478,-44.910315,1.177385,2.869369,-10.920598
41238,-0.145375,0.003134,0.014761,-0.012781,-0.000463,-0.003159,-0.082507,-0.0,-0.0,3.0,0.3261,0.303389,0.3261,0.346842,47.969913,-110.817818,-45.13612,0.544877,2.453904,-11.070149
41258,-0.151131,0.003146,0.015974,-0.011716,-0.000481,-0.003156,-0.083652,-0.0,-0.0,3.0,0.3261,0.301408,0.3261,0.34848,47.529567,-111.186597,-45.661276,-0.22147,2.652128,-11.218533
41278,-0.156512,0.003162,0.017182,-0.010655,-0.001715,-0.004039,-0.084624,-0.0,-0.0,3.0,0.3261,0.299458,0.3261,0.350069,45.908396,-111.245011,-47.320441,-0.724321,3.39735,-11.365778
41298,-0.161783,0.003062,0.018382,-0.010655,-0.001736,-0.00403,-0.085067,-0.0,-0.0,3.0,0.3261,0.297317,0.3261,0.351786,45.400337,-110.806734,-47.83506,-0.71169,4.347155,-11.51211
41318,-0.166555,0.003105,0.01983,-0.010651,-0.002628,-0.002796,-0.085781,-0.0,-0.0,3.0,0.3261,0.295401,0.3261,0.353298,45.302681,-110.316549,-47.954154,-0.204648,5.022747,-11.65864
41338,-0.171086,0.003031,0.021268,-0.00959,-0.001773,-0.004014,-0.086569,-0.0,-0.0,3.0,0.3261,0.295285,0.3261,0.353389,45.291346,-109.811362,-48.032478,0.504995,5.051988,-11.80685
41358,-0.175371,0.003094,0.022836,-0.00959,-0.001791,-0.004006,-0.086914,-0.0,-0.0,3.0,0.3261,0.295072,0.3261,0.353555,45.345826,-109.303871,-48.109944,0.989446,4.368471,-11.956908
41378,-0.17929,0.003269,0.024293,-0.009591,-0.001806,-0.003999,-0.08711,-0.0,-0.0,3.0,0.3261,0.294918,0.3261,0.353676,45.477727,-108.803533,-48.230584,0.92247,3.273044,-12.107296
41398,-0.183087,0.003471,0.025993,-0.007464,-0.000775,-0.004186,-0.087261,-0.0,-0.0,3.0,0.3261,0.296474,0.3261,0.352453,46.987813,-108.330865,-49.726092,0.282598,2.293482,-12.256561
41418,-0.186397,0.003673,0.027694,-0.006401,0.000257,-0.00438,-0.087219,-0.0,-0.0,3.0,0.3261,0.29471,0.3261,0.353838,45.500232,-108.047351,-48.22924,-0.677635,1.907831,-12.404515
41438,-0.189587,0.003757,0.029384,-0.004277,4.2e-05,-0.005426,-0.087138,-0.0,-0.0,3.0,0.3261,0.294668,0.3261,0.35387,45.398287,-107.543602,-48.15956,-1.362766,2.295482,-12.551375
41458,-0.19216,0.003704,0.030937,-0.004272,-0.000813,-0.004179,-0.086733,-0.0,-0.0,3.0,0.3261,0.293,0.3261,0.355162,45.334117,-107.028731,-48.144499,-1.309458,3.188562,-12.69723
41478,-0.194247,0.003659,0.032613,-0.004271,-0.001866,-0.003971,-0.086733,-0.0,-0.0,3.0,0.3261,0.291629,0.3261,0.356211,45.292205,-106.499677,-48.127283,-0.481453,4.022684,-12.843104
41498,-0.196089,0.003747,0.034423,-0.004272,-0.001873,-0.003968,-0.085676,-0.0,-0.0,3.0,0.3261,0.28992,0.3261,0.357502,45.30792,-105.958121,-48.093752,0.694786,4.273712,-12.99104
41518,-0.197432,0.003841,0.036351,-0.004272,-0.001879,-0.003965,-0.085046,-0.0,-0.0,3.0,0.3261,0.292046,0.3261,0.355893,45.4699,-105.413467,-47.961013,1.543844,3.782266,-13.141637
41538,-0.19853,0.004042,0.03817,-0.003209,-0.001883,-0.003963,-0.084582,-0.0,-0.0,3.0,0.3261,0.292562,0.3261,0.355498,45.205948,-105.029992,-48.293911,1.560412,2.878672,-13.292942
41558,-0.199142,0.004236,0.039993,-0.001082,-0.000842,-0.004173,-0.083302,-0.0,-0.0,3.0,0.3261,0.292945,0.3261,0.355204,45.373656,-104.487582,-48.173084,0.72117,2.185939,-13.442965
41578,-0.199628,0.004574,0.042071,-2.4e-05,-0.001055,-0.005216,-0.082001,-0.0,-0.0,3.0,0.3261,0.293349,0.3261,0.354893,45.38945,-103.940989,-48.164486,-0.50606,2.217629,-13.591317
41598,-0.199744,0.004638,0.043878,0.001039,-1.3e-05,-0.005427,-0.080631,-0.0,-0.0,3.0,0.3261,0.293872,0.3261,0.354489,45.354772,-103.38625,-48.167218,-1.324756,2.996352,-13.73804
41618,-0.199498,0.004572,0.045676,0.001039,-1.1e-05,-0.005427,-0.079897,-0.0,-0.0,3.0,0.3261,0.293029,0.3261,0.35514,45.308541,-102.818322,-48.182694,-1.187085,3.962801,-13.883372
41638,-0.199012,0.004391,0.047585,0.001046,-0.000842,-0.004173,-0.078834,-0.0,-0.0,3.0,0.3261,0.290403,0.3261,0.357139,45.32992,-102.236867,-48.244525,-0.203885,4.333135,-14.029296
41658,-0.198402,0.004327,0.049507,-1.7e-05,-0.001882,-0.003964,-0.076923,-0.0,-0.0,3.0,0.3261,0.289226,0.3261,0.358023,45.334732,-101.894536,-48.259083,0.837811,3.687851,-14.177849
41678,-0.198035,0.004268,0.051428,-1.7e-05,-0.001881,-0.003964,-0.075263,-0.0,-0.0,3.0,0.3261,0.289801,0.3261,0.357592,45.358677,-101.310793,-48.243126,1.130764,2.369681,-14.327781
41698,-0.197425,0.004202,0.053351,-1.7e-05,-0.001879,-0.003966,-0.072608,-0.0,-0.0,3.0,0.3261,0.28831,0.3261,0.358705,45.410925,-100.730761,-48.27117,0.458596,1.279929,-14.476891
41718,-0.197051,0.004384,0.055295,0.001046,-0.000833,-0.004175,-0.071228,-0.0,-0.0,3.0,0.3261,0.287205,0.3261,0.359521,45.411638,-100.14851,-48.304579,-0.664621,1.2551,-14.624947
41738,-0.196814,0.004448,0.057236,0.00211,-0.000832,-0.004175,-0.068738,-0.0,-0.0,3.0,0.3261,0.285602,0.3261,0.360693,45.352018,-99.558408,-48.341395,-1.283409,2.402948,-14.77201
41758,-0.196556,0.004766,0.059312,0.002103,5e-06,-0.005427,-0.066422,-0.0,-0.0,3.0,0.3261,0.284053,0.3261,0.361812,45.225625,-98.95361,-48.424888,-0.761624,3.914325,-14.917982
41778,-0.1957,0.004798,0.061129,0.002102,9e-06,-0.005427,-0.063973,-0.0,-0.0,3.0,0.3261,0.282674,0.3261,0.362798,45.285083,-98.523913,-48.375786,0.661707,4.602293,-15.065388
41798,-0.194462,0.004962,0.063194,0.001042,0.000222,-0.004382,-0.06271,-0.0,-0.0,3.0,0.3261,0.281889,0.3261,0.363354,45.313069,-97.893793,-48.398676,1.822595,3.827839,-15.216424
41818,-0.193241,0.00499,0.065137,0.001037,2.3e-05,-0.005427,-0.059269,-0.0,-0.0,3.0,0.3261,0.282047,0.3261,0.363242,45.387474,-97.26919,-48.395876,1.588384,2.150273,-15.367979
41838,-0.191881,0.005145,0.067203,0.002102,-0.001015,-0.005224,-0.056177,-0.0,-0.0,3.0,0.3261,0.282393,0.3261,0.362997,45.41767,-96.649277,-48.36654,-0.060113,0.98398,-15.517088
41858,-0.190421,0.005038,0.069139,0.002102,-0.001007,-0.005225,-0.053751,-0.0,-0.0,3.0,0.3261,0.28304,0.3261,0.362537,45.27465,-96.02839,-48.237027,-1.847178,1.395806,-15.664626
41878,-0.188697,0.005163,0.071089,0.003171,-0.000799,-0.004181,-0.052047,-0.0,-0.0,3.0,0.3261,0.282231,0.3261,0.363112,45.346129,-95.521769,-48.392165,-2.19873,3.064308,-15.810129
41898,-0.186483,0.005388,0.073057,0.004229,-0.000987,-0.005229,-0.048234,-0.0,-0.0,3.0,0.3261,0.28078,0.3261,0.364133,45.28502,-94.870262,-48.400885,-0.637107,4.42571,-15.954491
41918,-0.183893,0.005594,0.075016,0.005292,-0.000973,-0.005231,-0.045089,-0.0,-0.0,3.0,0.3261,0.281576,0.3261,0.363574,45.294382,-94.20572,-48.401875,1.617498,4.025978,-16.103114
41938,-0.18094,0.006024,0.077016,0.005296,-0.000766,-0.004187,-0.041802,-0.0,-0.0,3.0,0.3261,0.280614,0.3261,0.36425,45.371985,-93.545635,-48.422076,2.499032,1.989951,-16.255196
41958,-0.177868,0.00608,0.07897,0.00636,-0.000753,-0.00419,-0.038515,-0.0,-0.0,3.0,0.3261,0.281521,0.3261,0.363613,45.351711,-92.894069,-48.544791,1.026515,0.174408,-16.40482
41978,-0.174427,0.006235,0.080939,0.007423,-0.000739,-0.004192,-0.036192,-0.0,-0.0,3.0,0.3261,0.282962,0.3261,0.362593,45.500315,-92.372918,-48.399121,-1.513033,0.560068,-16.552838
41998,-0.170499,0.006365,0.082914,0.009551,-0.000722,-0.004195,-0.033426,-0.0,-0.0,3.0,0.3261,0.284424,0.3261,0.361545,45.413691,-91.705778,-48.404753,-2.566665,3.139485,-16.698938
42018,-0.166201,0.006592,0.084904,0.010609,-0.00193,-0.005072,-0.03031,-0.0,-0.0,3.0,0.3261,0.284068,0.3261,0.361801,45.314816,-91.015949,-48.449937,-0.847185,5.523717,-16.841925
42038,-0.161549,0.006553,0.086877,0.010609,-0.001906,-0.005081,-0.025474,-0.0,-0.0,3.0,0.3261,0.285012,0.3261,0.361121,45.349751,-90.306002,-48.514548,2.113303,5.061882,-16.990899
42058,-0.156523,0.006487,0.088838,0.010609,-0.001881,-0.00509,-0.02288,-0.0,-0.0,3.0,0.3261,0.285163,0.3261,0.361012,45.606539,-89.608159,-48.677871,3.109062,1.726792,-17.145095
42078,-0.150889,0.006375,0.090684,0.010615,-0.00064,-0.004209,-0.019196,-0.0,-0.0,3.0,0.3261,0.286928,0.3261,0.359725,45.529478,-88.954108,-48.51416,0.594802,-1.312137,-17.294018
42098,-0.145007,0.006371,0.092661,0.012744,-0.000615,-0.004212,-0.015481,-0.0,-0.0,3.0,0.3261,0.290526,0.3261,0.357047,45.549403,-88.259924,-48.592089,-3.149872,-0.636646,-17.442752
42118,-0.138644,0.006203,0.094512,0.013809,-0.000588,-0.004216,-0.013631,-0.0,-0.0,3.0,0.3261,0.293231,0.3261,0.354984,45.401203,-87.558097,-48.599373,-3.88606,3.529779,-17.588784
42138,-0.132039,0.006012,0.096363,0.014873,0.000495,-0.00436,-0.008919,-0.0,-0.0,3.0,0.3261,0.296659,0.3261,0.352307,45.354599,-86.826044,-48.508751,-0.079057,6.845487,-17.72926
42158,-0.125065,0.005897,0.097979,0.017002,0.000525,-0.004356,-0.005847,-0.0,-0.0,3.0,0.3261,0.299101,0.3261,0.350357,45.373596,-86.313386,-48.559211,4.633415,5.199622,-17.884321
42178,-0.117836,0.005988,0.099366,0.018073,-0.000375,-0.003171,-0.005847,-0.0,-0.0,3.0,0.3261,0.2994,0.3261,0.350116,45.489221,-85.585509,-48.64118,4.740865,-0.257977,-18.042034
42198,-0.110128,0.005909,0.100502,0.018074,-0.001409,-0.003056,0.001345,-0.0,-0.0,3.0,0.3261,0.298988,0.3261,0.350448,45.640987,-84.859386,-48.56584,-0.930641,-3.370937,-18.187777
42218,-0.102166,0.006041,0.101403,0.01808,-0.002334,-0.0019,0.00356,-0.0,-0.0,3.0,0.3261,0.300462,0.3261,0.349254,45.494493,-84.124475,-48.503493,-6.419551,0.362181,-18.339888
42238,-0.093962,0.006142,0.102054,0.017022,-0.002219,-0.00086,0.008148,-0.0,-0.0,3.0,0.3261,0.302853,0.3261,0.347288,45.26051,-83.374399,-48.525874,-4.676269,7.482222,-18.476351
42258,-0.085387,0.006326,0.102339,0.017022,-0.002211,-0.000879,0.012022,-0.0,-0.0,3.0,0.3261,0.303973,0.3261,0.346354,45.017464,-82.578924,-48.37228,3.468196,9.174847,-18.615942
42278,-0.076815,0.006494,0.102248,0.018092,-0.001061,8.2e-05,0.01576,-0.0,-0.0,3.0,0.3261,0.308412,0.3261,0.342572,45.306337,-81.781261,-48.458283,8.535644,1.829993,-18.786869
42298,-0.068122,0.006652,0.102024,0.019164,-0.000989,0.001134,0.019355,-0.0,-0.0,3.0,0.3261,0.311287,0.3261,0.340051,45.557567,-81.036496,-48.633963,3.010264,-6.756034,-18.928958
42318,-0.05955,0.00693,0.101444,0.020228,6.3e-05,0.001062,0.021751,-0.0,-0.0,3.0,0.3261,0.312948,0.3261,0.338569,44.912774,-80.312628,-49.343277,-7.87282,-4.981834,-19.081939
42338,-0.050748,0.006951,0.100603,0.021292,5.4e-05,0.001063,0.024628,-0.0,-0.0,3.0,0.3261,0.314555,0.3261,0.337115,42.294533,-80.443426,-51.602572,-9.936248,7.294698,-19.232235
42358,-0.041706,0.006843,0.099608,0.021292,4.4e-05,0.001063,0.027835,-0.0,-0.0,3.0,0.3261,0.314588,0.3261,0.337086,41.812935,-81.332252,-51.870578,2.059262,15.200076,-19.343612
42378,-0.032316,0.006482,0.098634,0.020234,-0.000995,0.002162,0.031364,-0.0,-0.0,3.0,0.3261,0.314646,0.3261,0.337032,42.10798,-82.270863,-51.926051,14.147464,6.090164,-19.544699
42398,-0.022917,0.006252,0.097633,0.01917,-0.002079,0.002177,0.03372,-0.0,-0.0,3.0,0.3261,0.316693,0.3261,0.335153,42.429872,-83.067448,-51.672752,8.284028,-11.105908,-19.690229
42418,-0.013647,0.005915,0.096638,0.019169,-0.002099,0.002157,0.038455,-0.0,-0.0,3.0,0.3261,0.319446,0.3261,0.332575,55.72055,-83.640521,-64.91117,-11.775568,-12.770114,-19.834673
42438,-0.004388,0.005343,0.095633,0.019162,5e-06,0.001064,0.041794,-0.0,-0.0,3.0,0.3261,0.322662,0.3261,0.32949,54.878794,-84.490025,-64.687817,-19.392002,7.867603,-20.033623
42458,0.004887,0.005146,0.094516,0.020231,-1e-05,0.002128,0.044996,-0.0,-0.0,3.0,0.3261,0.324399,0.3261,0.327789,54.345227,-85.493817,-64.396688,0.972185,24.994688,-20.070222
42478,0.014036,0.004842,0.093512,0.020231,0.001034,0.002143,0.046571,-0.0,-0.0,3.0,0.3261,0.325155,0.3261,0.327042,63.89956,-86.501027,-55.206087,25.451675,10.740803,-20.357007
42498,0.022925,0.004193,0.092504,0.019165,0.002079,0.002177,0.05074,-0.0,-0.0,3.0,0.3261,0.326513,0.3261,0.325687,65.197171,-85.604304,-54.919587,16.453401,-21.65763,-20.484548
42518,0.032175,0.003415,0.091386,0.019164,0.002059,0.002196,0.053202,-0.0,-0.0,3.0,0.3261,0.328554,0.3261,0.323621,65.301408,-84.258194,-54.978211,-21.778257,-24.936263,-20.607526
42538,0.041427,0.002645,0.090385,0.018098,0.000975,0.002171,0.055734,-0.0,-0.0,3.0,0.3261,0.329108,0.3261,0.323054,64.248768,-83.228195,-55.174012,-35.602692,15.458901,-20.939354
42558,0.050557,0.001889,0.089381,0.018094,0.002072,0.00117,0.059079,-0.0,-0.0,3.0,0.3261,0.33087,0.3261,0.321234,56.808472,-82.156663,-48.659348,6.16138,45.719711,-20.72935
42578,0.059192,0.000924,0.088279,0.017029,0.000999,0.001125,0.060673,-0.0,-0.0,3.0,0.3261,0.334482,0.3261,0.317415,58.004723,-80.428728,-48.639584,50.458384,11.362683,-21.399983
42598,0.067718,0.000218,0.087167,0.017028,0.000918,0.002196,0.064029,-0.0,-0.0,3.0,0.3261,0.33607,0.3261,0.315698,60.458596,-79.748293,-48.006727,21.435226,-51.135909,-21.220511
42618,0.076123,-0.000474,0.086054,0.018091,0.000899,0.002203,0.06554,-0.0,-0.0,3.0,0.3261,0.336781,0.3261,0.314922,58.790647,-77.715565,-49.371252,-54.945151,-40.438406,-21.632327
42638,0.084533,-0.001035,0.084933,0.01809,-0.00018,0.002121,0.067912,-0.0,-0.0,3.0,0.3261,0.338679,0.3261,0.312825,53.143957,-77.398009,-46.262984,-58.866936,51.657796,-22.027283
42658,0.092578,-0.001565,0.083691,0.017024,-0.001256,0.002021,0.07018,-0.0,-0.0,3.0,0.3261,0.3391,0.3261,0.312356,52.669101,-80.06603,-48.615608,44.273252,84.673371,-21.348585
42678,0.100284,-0.001583,0.08244,0.015959,-0.001379,0.00307,0.071665,-0.0,-0.0,3.0,0.3261,0.339685,0.3261,0.3117,36.042773,-80.655502,-68.503691,104.174949,-25.313231,-23.587095
42698,0.107864,-0.001709,0.08119,0.014896,-0.000229,0.002116,0.073457,-0.0,-0.0,3.0,0.3261,0.34157,0.3261,0.309563,39.732442,-82.533807,-70.240798,-18.031749,-126.931923,-21.195825
42718,0.115454,-0.001582,0.079921,0.014896,0.000812,0.002237,0.076082,-0.0,-0.0,3.0,0.3261,0.343219,0.3261,0.307664,37.680293,-80.149218,-71.821375,-154.24879,-13.022258,-25.516349
42738,0.122668,-0.001667,0.078542,0.014895,0.000796,0.002243,0.07719,-0.0,-0.0,3.0,0.3261,0.343836,0.3261,0.306946,24.819083,-77.973544,-79.353173,-18.813587,190.945419,-20.818191
42758,0.129396,-0.001732,0.077287,0.014895,0.000781,0.002248,0.079223,-0.0,-0.0,3.0,0.3261,0.344055,0.3261,0.30669,30.135555,-75.789371,-77.957937,215.172045,82.77833,-28.136658
42778,0.135744,-0.002131,0.075936,0.013831,-0.001342,0.001965,0.08022,-0.0,-0.0,3.0,0.3261,0.34449,0.3261,0.30618,39.459936,-76.975046,-77.129503,47.970214,-302.421508,-20.668042
42798,0.14221,-0.002648,0.07459,0.012763,-0.001506,0.00301,0.081593,-0.0,-0.0,3.0,0.3261,0.344877,0.3261,0.305725,-453.444886,-81.590919,407.681601,-343.789553,-148.217706,-36.730705
42818,0.148569,-0.00303,0.073251,0.011697,-0.000473,0.003158,0.082824,-0.0,-0.0,3.0,0.3261,0.345293,0.3261,0.305235,-460.375451,-82.493166,418.762829,92.224657,622.5119,-12.390671
42838,0.154437,-0.003265,0.071894,0.010635,0.000724,0.002267,0.083966,-0.0,-0.0,3.0,0.3261,0.346985,0.3261,0.303217,-457.123846,-76.416422,424.753563,1023.914032,-545.691969,-101.884659
42858,0.159819,-0.003464,0.07042,0.009567,0.000543,0.003321,0.084819,-0.0,-0.0,3.0,0.3261,0.348631,0.3261,0.301225,-450.364037,-105.414248,407.184214,-7012.998249,-1788.179303,-247.249654
42878,0.164714,-0.003648,0.069073,0.00957,0.000701,0.002274,0.085515,-0.0,-0.0,3.0,0.3261,0.351062,0.3261,0.298224,-84583.24066,-2275.318839,92704.082445,-380107355.718664,656910929.20409,-59170052.524855
42898,0.169367,-0.003807,0.067608,0.009569,0.00069,0.002277,0.086035,-0.0,-0.0,3.0,0.3261,0.349935,0.3261,0.299623,1.2903944954346155e+48,1.0383710433198607e+48,-6.0615081535054525e+47,-1.850167008697489e+97,3.1974965512248127e+97,-2.880096620108346e+96
42918,0.173529,-0.003811,0.066003,0.008506,-0.000367,0.002096,0.086668,-0.0,-0.0,3.0,0.3261,0.351776,0.3261,0.297329,,,,,,
42938,0.177454,-0.003922,0.064425,0.007437,-0.000564,0.003143,0.086915,-0.0,-0.0,3.0,0.3261,0.350526,0.3261,0.298892,,,,,,
42958,0.180882,-0.004011,0.06284,0.006373,-0.000574,0.003141,0.087191,-0.0,-0.0,3.0,0.3261,0.350489,0.3261,0.298937,,,,,,
42978,0.183938,-0.004327,0.061282,0.004244,-0.00163,0.002944,0.087266,-0.0,-0.0,3.0,0.3261,0.350416,0.3261,0.299028,,,,,,
42998,0.186627,-0.004371,0.059575,0.00318,-0.001638,0.00294,0.087175,-0.0,-0.0,3.0,0.3261,0.350295,0.3261,0.299178,,,,,,
43018,0.188838,-0.00452,0.057895,0.002114,-0.000599,0.003136,0.087068,-0.0,-0.0,3.0,0.3261,0.351403,0.3261,0.297797,,,,,,
43038,0.190677,-0.004532,0.056198,0.001049,0.00044,0.003337,0.087068,-0.0,-0.0,3.0,0.3261,0.352384,0.3261,0.296562,,,,,,
43058,0.19166,-0.004274,0.054478,0.001054,0.001684,0.002495,0.086121,-0.0,-0.0,3.0,0.3261,0.352044,0.3261,0.296991,,,,,,
43078,0.192391,-0.004361,0.052674,0.00105,0.000434,0.003337,0.085586,-0.0,-0.0,3.0,0.3261,0.351525,0.3261,0.297645,,,,,,
43098,0.193001,-0.004444,0.050871,-1.5e-05,0.000432,0.003338,0.085129,-0.0,-0.0,3.0,0.3261,0.349591,0.3261,0.300048,,,,,,
43118,0.19325,-0.004383,0.04894,-0.001079,0.000431,0.003338,0.085129,-0.0,-0.0,3.0,0.3261,0.348777,0.3261,0.301046,,,,,,
43138,0.193252,-0.004461,0.047264,-0.002147,-0.000818,0.004178,0.082705,-0.0,-0.0,3.0,0.3261,0.348611,0.3261,0.301249,,,,,,
43158,0.192754,-0.004638,0.045475,-0.002142,-0.001656,0.00293,0.081396,-0.0,-0.0,3.0,0.3261,0.350692,0.3261,0.298685,,,,,,
43178,0.192376,-0.004927,0.043575,-0.002148,-0.001858,0.003975,0.07999,-0.0,-0.0,3.0,0.3261,0.351474,0.3261,0.297708,,,,,,
43198,0.191884,-0.004851,0.041641,-0.002149,-0.000812,0.004179,0.078417,-0.0,-0.0,3.0,0.3261,0.352272,0.3261,0.296703,,,,,,
43218,0.191407,-0.004643,0.039581,-0.002149,0.000235,0.004382,0.077474,-0.0,-0.0,3.0,0.3261,0.352905,0.3261,0.295902,,,,,,
43238,0.190675,-0.004442,0.037636,-0.002143,0.00044,0.003337,0.075803,-0.0,-0.0,3.0,0.3261,0.353672,0.3261,0.294923,,,,,,
43258,0.190181,-0.004479,0.035592,-0.002143,0.000442,0.003336,0.073306,-0.0,-0.0,3.0,0.3261,0.354742,0.3261,0.293545,,,,,,
43278,0.189942,-0.004521,0.033552,-0.002148,0.000241,0.004381,0.071695,-0.0,-0.0,3.0,0.3261,0.354308,0.3261,0.294105,,,,,,
43298,0.18945,-0.004438,0.031495,-0.002148,0.000244,0.004381,0.069157,-0.0,-0.0,3.0,0.3261,0.355408,0.3261,0.292679,,,,,,
43318,0.189091,-0.004369,0.029565,-0.002146,-0.001845,0.003981,0.067627,-0.0,-0.0,3.0,0.3261,0.356258,0.3261,0.291567,,,,,,
43338,0.188472,-0.004651,0.027544,-0.002147,-0.001843,0.003982,0.065198,-0.0,-0.0,3.0,0.3261,0.357298,0.3261,0.290193,,,,,,
43358,0.187979,-0.004693,0.025498,-0.002148,-0.000796,0.004182,0.062469,-0.0,-0.0,3.0,0.3261,0.357134,0.3261,0.290411,,,,,,
43378,0.187243,-0.004732,0.023454,-0.002149,0.000253,0.004381,0.061172,-0.0,-0.0,3.0,0.3261,0.357835,0.3261,0.289477,,,,,,
43398,0.186519,-0.004652,0.021402,-0.002149,0.000256,0.00438,0.05985,-0.0,-0.0,3.0,0.3261,0.358541,0.3261,0.288531,,,,,,
43418,0.18566,-0.004816,0.019368,-0.003213,-0.000786,0.004184,0.055088,-0.0,-0.0,3.0,0.3261,0.360186,0.3261,0.286298,,,,,,
43438,0.18456,-0.004857,0.017323,-0.003209,0.00046,0.003334,0.053361,-0.0,-0.0,3.0,0.3261,0.360905,0.3261,0.28531,,,,,,
43458,0.183582,-0.00478,0.015266,-0.003219,7.5e-05,0.005426,0.049057,-0.0,-0.0,3.0,0.3261,0.362401,0.3261,0.28323,,,,,,
43478,0.182238,-0.004725,0.013453,-0.003208,-0.000579,0.00314,0.046914,-0.0,-0.0,3.0,0.3261,0.36319,0.3261,0.28212,,,,,,
43498,0.18053,-0.00466,0.011517,-0.004272,-0.000573,0.003141,0.043489,-0.0,-0.0,3.0,0.3261,0.362943,0.3261,0.28247,,,,,,
43518,0.178446,-0.004596,0.009579,-0.005336,-0.000567,0.003142,0.040221,-0.0,-0.0,3.0,0.3261,0.362547,0.3261,0.283026,,,,,,
43538,0.176241,-0.004425,0.007751,-0.006398,-0.001608,0.002957,0.036889,-0.0,-0.0,3.0,0.3261,0.360847,0.3261,0.28539,,,,,,
43558,0.173791,-0.004268,0.006044,-0.007462,-0.0016,0.002961,0.035196,-0.0,-0.0,3.0,0.3261,0.35993,0.3261,0.286648,,,,,,
43578,0.170856,-0.003871,0.004316,-0.008522,-0.000362,0.002097,0.030436,-0.0,-0.0,3.0,0.3261,0.361029,0.3261,0.285139,,,,,,
43598,0.16719,-0.003357,0.002577,-0.009589,-0.000531,0.003148,0.030436,-0.0,-0.0,3.0,0.3261,0.360587,0.3261,0.285748,,,,,,
43618,0.163027,-0.002868,0.00108,-0.009587,-0.000518,0.00315,0.024785,-0.0,-0.0,3.0,0.3261,0.361588,0.3261,0.284365,,,,,,
43638,0.158497,-0.002639,-0.000274,-0.009584,-0.000336,0.002102,0.020251,-0.0,-0.0,3.0,0.3261,0.360871,0.3261,0.285357,,,,,,
43658,0.153602,-0.002153,-0.001891,-0.010646,-0.001377,0.001941,0.018385,-0.0,-0.0,3.0,0.3261,0.359292,0.3261,0.287517,,,,,,
43678,0.148088,-0.001817,-0.003255,-0.01171,-0.002419,0.001791,0.014381,-0.0,-0.0,3.0,0.3261,0.356808,0.3261,0.290842,,,,,,
43698,0.142462,-0.001366,-0.004627,-0.013839,-0.003614,0.002707,0.010707,-0.0,-0.0,3.0,0.3261,0.35417,0.3261,0.294283,,,,,,
43718,0.136225,-0.000941,-0.005755,-0.015965,-0.003452,0.001675,0.008888,-0.0,-0.0,3.0,0.3261,0.352123,0.3261,0.296892,,,,,,
43738,0.129491,-0.000159,-0.006905,-0.017028,-0.002385,0.001836,0.006141,-0.0,-0.0,3.0,0.3261,0.351519,0.3261,0.297652,,,,,,
43758,0.122146,0.000842,-0.007821,-0.01809,-0.003428,0.001724,0.002231,-0.0,-0.0,3.0,0.3261,0.351057,0.3261,0.29823,,,,,,
43778,0.114442,0.001937,-0.008373,-0.018092,-0.001057,-0.000122,-0.003968,-0.0,-0.0,3.0,0.3261,0.349787,0.3261,0.299806,,,,,,
43798,0.106243,0.003027,-0.008914,-0.018089,-0.001171,0.000945,-0.005822,-0.0,-0.0,3.0,0.3261,0.348442,0.3261,0.301455,,,,,,
43818,0.097558,0.00397,-0.009074,-0.018092,-0.001059,-0.000104,-0.010264,-0.0,-0.0,3.0,0.3261,0.34494,0.3261,0.305652,,,,,,
43838,0.088513,0.004907,-0.009104,-0.019157,-0.00318,-0.000282,-0.013906,-0.0,-0.0,3.0,0.3261,0.341009,0.3261,0.310203,,,,,,
43858,0.079348,0.00535,-0.008982,-0.021291,-0.002037,-0.00123,-0.017637,-0.0,-0.0,3.0,0.3261,0.336998,0.3261,0.314684,,,,,,
43878,0.069939,0.005789,-0.008733,-0.02235,-0.002123,-0.000149,-0.021216,-0.0,-0.0,3.0,0.3261,0.335647,0.3261,0.316158,,,,,,
43898,0.059923,0.006217,-0.008111,-0.02342,-0.002061,-0.00119,-0.022995,-0.0,-0.0,3.0,0.3261,0.333493,0.3261,0.318473,,,,,,
43918,0.049666,0.006528,-0.007481,-0.024492,-0.00202,-0.002232,-0.025697,-0.0,-0.0,3.0,0.3261,0.331514,0.3261,0.320561,,,,,,
43938,0.039167,0.0066,-0.00684,-0.023427,8.3e-05,-0.002127,-0.029915,-0.0,-0.0,3.0,0.3261,0.329891,0.3261,0.322248,,,,,,
43958,0.028301,0.006798,-0.006076,-0.023427,0.001124,-0.002098,-0.031866,-0.0,-0.0,3.0,0.3261,0.325894,0.3261,0.326306,,,,,,
43978,0.017317,0.006637,-0.005306,-0.024491,0.002165,-0.002091,-0.036774,-0.0,-0.0,3.0,0.3261,0.325727,0.3261,0.326473,,,,,,
43998,0.006456,0.006241,-0.00466,-0.02449,0.001078,-0.002122,-0.03879,-0.0,-0.0,3.0,0.3261,0.321611,0.3261,0.330507,,,,,,
44018,-0.004284,0.005973,-0.003894,-0.02449,-9e-06,-0.002128,-0.04236,-0.0,-0.0,3.0,0.3261,0.319477,0.3261,0.332546,,,,,,
44038,-0.015511,0.005225,-0.003011,-0.024488,-0.001097,-0.002112,-0.04557,-0.0,-0.0,3.0,0.3261,0.318557,0.3261,0.333414,,,,,,
44058,-0.026374,0.004854,-0.002133,-0.024487,-0.00112,-0.0021,-0.047155,-0.0,-0.0,3.0,0.3261,0.315598,0.3261,0.336162,,,,,,
44078,-0.037115,0.004369,-0.001261,-0.023422,-0.001142,-0.002088,-0.049622,-0.0,-0.0,3.0,0.3261,0.311314,0.3261,0.340028,,,,,,
44098,-0.047858,0.004263,-0.000264,-0.023422,-0.000102,-0.002126,-0.052698,-0.0,-0.0,3.0,0.3261,0.308738,0.3261,0.342289,,,,,,
44118,-0.058604,0.004048,0.00085,-0.023422,-0.000125,-0.002125,-0.056772,-0.0,-0.0,3.0,0.3261,0.306445,0.3261,0.344264,,,,,,
44138,-0.068858,0.004211,0.001973,-0.023427,0.000842,-0.003258,-0.059627,-0.0,-0.0,3.0,0.3261,0.305469,0.3261,0.345095,,,,,,
44158,-0.078629,0.00414,0.003086,-0.023431,0.001788,-0.004411,-0.061212,-0.0,-0.0,3.0,0.3261,0.304174,0.3261,0.346186,,,,,,
44178,-0.088404,0.004325,0.004209,-0.022367,0.000684,-0.004334,-0.064364,-0.0,-0.0,3.0,0.3261,0.30338,0.3261,0.34685,,,,,,
44198,-0.09793,0.004402,0.005446,-0.021299,0.000747,-0.003281,-0.066791,-0.0,-0.0,3.0,0.3261,0.304018,0.3261,0.346317,,,,,,
44218,-0.106974,0.004369,0.006676,-0.020235,0.000717,-0.003288,-0.069163,-0.0,-0.0,3.0,0.3261,0.301477,0.3261,0.348424,,,,,,
44238,-0.115773,0.004467,0.007911,-0.018106,-0.000369,-0.003171,-0.071597,-0.0,-0.0,3.0,0.3261,0.298981,0.3261,0.350454,,,,,,
44258,-0.12433,0.004331,0.009129,-0.018106,-0.000396,-0.003168,-0.073219,-0.0,-0.0,3.0,0.3261,0.296209,0.3261,0.352663,,,,,,
44278,-0.132653,0.003847,0.010443,-0.018103,-0.001477,-0.003024,-0.074567,-0.0,-0.0,3.0,0.3261,0.295067,0.3261,0.353559,,,,,,
44298,-0.140602,0.003494,0.011757,-0.018102,-0.001501,-0.003012,-0.075853,-0.0,-0.0,3.0,0.3261,0.292267,0.3261,0.355724,,,,,,
44318,-0.148194,0.003402,0.013208,-0.017038,-0.001524,-0.003001,-0.078528,-0.0,-0.0,3.0,0.3261,0.291795,0.3261,0.356084,,,,,,
44338,-0.155654,0.00332,0.014653,-0.015974,-0.000495,-0.003154,-0.079554,-0.0,-0.0,3.0,0.3261,0.292467,0.3261,0.35557,,,,,,
44358,-0.162756,0.0035,0.016239,-0.01491,-0.000517,-0.003151,-0.081002,-0.0,-0.0,3.0,0.3261,0.291659,0.3261,0.356188,,,,,,
44378,-0.169372,0.003576,0.017936,-0.012786,-0.000718,-0.004196,-0.082345,-0.0,-0.0,3.0,0.3261,0.290961,0.3261,0.356718,,,,,,
44398,-0.175733,0.003892,0.019527,-0.011723,-0.000744,-0.004191,-0.083487,-0.0,-0.0,3.0,0.3261,0.288489,0.3261,0.358572,,,,,,
44418,-0.18162,0.003971,0.0211,-0.011723,-0.000769,-0.004187,-0.084297,-0.0,-0.0,3.0,0.3261,0.286019,0.3261,0.36039,,,,,,
44438,-0.187131,0.004066,0.02279,-0.011723,-0.000792,-0.004183,-0.085069,-0.0,-0.0,3.0,0.3261,0.283606,0.3261,0.362133,,,,,,
44458,-0.192159,0.003812,0.024565,-0.011722,-0.000813,-0.004179,-0.085539,-0.0,-0.0,3.0,0.3261,0.281214,0.3261,0.363829,,,,,,
44478,-0.196819,0.003915,0.026252,-0.011723,-0.000832,-0.004175,-0.08638,-0.0,-0.0,3.0,0.3261,0.280904,0.3261,0.364046,,,,,,
44498,-0.201116,0.003912,0.028049,-0.011723,-0.00085,-0.004171,-0.086913,-0.0,-0.0,3.0,0.3261,0.282423,0.3261,0.362976,,,,,,
44518,-0.205157,0.003925,0.02996,-0.009595,0.000175,-0.004384,-0.087166,-0.0,-0.0,3.0,0.3261,0.283892,0.3261,0.361928,,,,,,
44538,-0.209087,0.004054,0.031767,-0.007472,0.000978,-0.005647,-0.087236,-0.0,-0.0,3.0,0.3261,0.283504,0.3261,0.362206,,,,,,
44558,-0.212522,0.00406,0.033556,-0.006408,0.000958,-0.00565,-0.087256,-0.0,-0.0,3.0,0.3261,0.281455,0.3261,0.363659,,,,,,
44578,-0.215347,0.004182,0.035361,-0.005339,0.00013,-0.004386,-0.087111,-0.0,-0.0,3.0,0.3261,0.279533,0.3261,0.365003,,,,,,
44598,-0.21743,0.00431,0.037285,-0.00534,0.000121,-0.004386,-0.086824,-0.0,-0.0,3.0,0.3261,0.277812,0.3261,0.366189,,,,,,
44618,-0.219147,0.004542,0.039104,-0.00534,-0.000925,-0.004155,-0.08641,-0.0,-0.0,3.0,0.3261,0.27615,0.3261,0.36732,,,,,,
44638,-0.22075,0.004425,0.041004,-0.004274,-0.00197,-0.003921,-0.086112,-0.0,-0.0,3.0,0.3261,0.278329,0.3261,0.365834,,,,,,
44658,-0.221975,0.004302,0.042899,-0.00321,-0.001975,-0.003918,-0.084962,-0.0,-0.0,3.0,0.3261,0.280266,0.3261,0.364493,,,,,,
44678,-0.222586,0.004532,0.04484,-0.002147,-0.00094,-0.004152,-0.084318,-0.0,-0.0,3.0,0.3261,0.280788,0.3261,0.364128,,,,,,
44698,-0.222834,0.004648,0.046892,-2.4e-05,-0.001176,-0.00519,-0.083143,-0.0,-0.0,3.0,0.3261,0.279406,0.3261,0.365091,,,,,,
44718,-0.222828,0.00473,0.048695,0.001043,9.7e-05,-0.004387,-0.082354,-0.0,-0.0,3.0,0.3261,0.280109,0.3261,0.364602,,,,,,
44738,-0.222582,0.004685,0.050488,0.001044,9.8e-05,-0.004387,-0.080969,-0.0,-0.0,3.0,0.3261,0.280664,0.3261,0.364215,,,,,,
44758,-0.221969,0.004764,0.05242,0.001038,-0.000133,-0.005425,-0.080252,-0.0,-0.0,3.0,0.3261,0.277928,0.3261,0.366109,,,,,,
44778,-0.220992,0.004819,0.054235,0.001044,-0.000933,-0.004153,-0.077886,-0.0,-0.0,3.0,0.3261,0.278376,0.3261,0.365802,,,,,,
44798,-0.22024,0.005,0.056051,0.001045,-0.001968,-0.003922,-0.076953,-0.0,-0.0,3.0,0.3261,0.27744,0.3261,0.366443,,,,,,
44818,-0.219387,0.004947,0.057973,0.001045,-0.001965,-0.003923,-0.074316,-0.0,-0.0,3.0,0.3261,0.277708,0.3261,0.36626,,,,,,
44838,-0.218531,0.005001,0.059788,0.002108,-0.000923,-0.004156,-0.073111,-0.0,-0.0,3.0,0.3261,0.276698,0.3261,0.366949,,,,,,
44858,-0.217411,0.005301,0.061743,0.002101,-0.001148,-0.005196,-0.070636,-0.0,-0.0,3.0,0.3261,0.275255,0.3261,0.367923,,,,,,
44878,-0.216183,0.005582,0.06359,0.002104,0.000126,-0.004386,-0.068353,-0.0,-0.0,3.0,0.3261,0.273906,0.3261,0.368824,,,,,,
44898,-0.215074,0.0055,0.065384,0.002104,0.000131,-0.004386,-0.067152,-0.0,-0.0,3.0,0.3261,0.274874,0.3261,0.368178,,,,,,
44918,-0.213477,0.005522,0.067198,0.002104,0.000138,-0.004386,-0.064656,-0.0,-0.0,3.0,0.3261,0.273591,0.3261,0.369033,,,,,,
44938,-0.211753,0.005657,0.069027,0.003168,0.000146,-0.004386,-0.064656,-0.0,-0.0,3.0,0.3261,0.273374,0.3261,0.369176,,,,,,
44958,-0.209909,0.005785,0.070859,0.004233,-0.000887,-0.004164,-0.061105,-0.0,-0.0,3.0,0.3261,0.271759,0.3261,0.370239,,,,,,
44978,-0.208069,0.005776,0.072556,0.005297,-0.000879,-0.004165,-0.056203,-0.0,-0.0,3.0,0.3261,0.271476,0.3261,0.370424,,,,,,
44998,-0.205617,0.005875,0.074398,0.005298,-0.001911,-0.00395,-0.054612,-0.0,-0.0,3.0,0.3261,0.270886,0.3261,0.370808,,,,,,
45018,-0.20279,0.005943,0.07611,0.005298,-0.0019,-0.003955,-0.05077,-0.0,-0.0,3.0,0.3261,0.269516,0.3261,0.371692,,,,,,
45038,-0.199598,0.005991,0.077829,0.006362,-0.001887,-0.003961,-0.047748,-0.0,-0.0,3.0,0.3261,0.270559,0.3261,0.371019,,,,,,
45058,-0.196026,0.006128,0.079429,0.00636,-0.000829,-0.004175,-0.046057,-0.0,-0.0,3.0,0.3261,0.272325,0.3261,0.369868,,,,,,
45078,-0.192223,0.006251,0.081047,0.007423,-0.000813,-0.004179,-0.042897,-0.0,-0.0,3.0,0.3261,0.275482,0.3261,0.36777,,,,,,
45098,-0.188285,0.006373,0.082772,0.008487,-0.000797,-0.004182,-0.039394,-0.0,-0.0,3.0,0.3261,0.278484,0.3261,0.365728,,,,,,
45118,-0.183621,0.006436,0.084265,0.010614,0.000269,-0.00438,-0.039394,-0.0,-0.0,3.0,0.3261,0.281305,0.3261,0.363766,,,,,,
45138,-0.178714,0.006481,0.085761,0.011678,0.000291,-0.004378,-0.033457,-0.0,-0.0,3.0,0.3261,0.278185,0.3261,0.365933,,,,,,
45158,-0.173569,0.006387,0.087247,0.011679,0.000313,-0.004377,-0.030946,-0.0,-0.0,3.0,0.3261,0.278372,0.3261,0.365805,,,,,,
45178,-0.168189,0.006133,0.088483,0.011687,-0.000534,-0.003148,-0.026208,-0.0,-0.0,3.0,0.3261,0.277765,0.3261,0.366221,,,,,,
45198,-0.161704,0.005832,0.08984,0.011688,-0.000514,-0.003151,-0.024019,-0.0,-0.0,3.0,0.3261,0.280485,0.3261,0.36434,,,,,,
45218,-0.155209,0.005756,0.091091,0.011688,-0.000494,-0.003154,-0.020167,-0.0,-0.0,3.0,0.3261,0.282539,0.3261,0.362893,,,,,,
45238,-0.148471,0.005661,0.092343,0.012759,-0.000315,-0.002105,-0.016282,-0.0,-0.0,3.0,0.3261,0.28646,0.3261,0.360068,,,,,,
45258,-0.141743,0.005549,0.093485,0.014887,-0.000301,-0.002107,-0.012636,-0.0,-0.0,3.0,0.3261,0.288653,0.3261,0.35845,,,,,,
45278,-0.13463,0.005656,0.094627,0.01701,-0.000429,-0.003164,-0.012636,-0.0,-0.0,3.0,0.3261,0.292365,0.3261,0.355649,,,,,,
45298,-0.126545,0.0057,0.095652,0.018074,-0.000403,-0.003167,-0.005426,-0.0,-0.0,3.0,0.3261,0.291998,0.3261,0.355929,,,,,,
45318,-0.11846,0.00573,0.096548,0.019138,-0.000377,-0.00317,-0.003265,-0.0,-0.0,3.0,0.3261,0.293546,0.3261,0.354741,,,,,,
45338,-0.10978,0.005602,0.097453,0.019145,-0.001291,-0.001999,0.001851,-0.0,-0.0,3.0,0.3261,0.294223,0.3261,0.354217,,,,,,
45358,-0.101215,0.005465,0.098208,0.018081,-0.001274,-0.00201,0.00432,-0.0,-0.0,3.0,0.3261,0.295857,0.3261,0.35294,,,,,,
45378,-0.092055,0.005171,0.098972,0.018081,-0.001255,-0.002022,0.008561,-0.0,-0.0,3.0,0.3261,0.300451,0.3261,0.349263,,,,,,
45398,-0.08276,0.005103,0.099616,0.019151,-0.001149,-0.000973,0.010445,-0.0,-0.0,3.0,0.3261,0.304204,0.3261,0.34616,,,,,,
45418,-0.073467,0.005024,0.100128,0.02021,-0.000156,-0.002123,0.014227,-0.0,-0.0,3.0,0.3261,0.307276,0.3261,0.343553,,,,,,
45438,-0.063818,0.004798,0.100522,0.021274,-0.000136,-0.002124,0.017882,-0.0,-0.0,3.0,0.3261,0.308908,0.3261,0.342141,,,,,,
45458,-0.054405,0.004694,0.100647,0.022343,0.001005,-0.001121,0.019959,-0.0,-0.0,3.0,0.3261,0.311025,0.3261,0.340283,,,,,,
45478,-0.044521,0.004316,0.100531,0.022349,0.001063,-4.7e-05,0.022885,-0.0,-0.0,3.0,0.3261,0.313022,0.3261,0.338502,,,,,,
45498,-0.03451,0.004049,0.100043,0.021289,-0.001027,0.0011,0.026223,-0.0,-0.0,3.0,0.3261,0.313377,0.3261,0.338183,,,,,,
45518,-0.024502,0.003785,0.09944,0.021289,-0.002102,0.001116,0.031383,-0.0,-0.0,3.0,0.3261,0.314704,0.3261,0.33698,,,,,,
45538,-0.014487,0.003647,0.09846,0.021292,-0.002097,0.002159,0.033609,-0.0,-0.0,3.0,0.3261,0.318589,0.3261,0.333384,,,,,,
45558,-0.004833,0.003658,0.097468,0.021292,-0.002118,0.002139,0.037412,-0.0,-0.0,3.0,0.3261,0.320277,0.3261,0.331786,,,,,,
45578,0.005304,0.003533,0.096357,0.021292,-1.1e-05,0.002128,0.040739,-0.0,-0.0,3.0,0.3261,0.322308,0.3261,0.329834,,,,,,
45598,0.01533,0.00367,0.09511,0.021292,-3.3e-05,0.002128,0.043972,-0.0,-0.0,3.0,0.3261,0.322836,0.3261,0.329321,,,,,,
45618,0.02521,0.003338,0.093733,0.020227,0.00101,0.002155,0.047262,-0.0,-0.0,3.0,0.3261,0.324833,0.3261,0.327361,,,,,,
45638,0.035093,0.00302,0.092362,0.020227,0.002052,0.002202,0.047262,-0.0,-0.0,3.0,0.3261,0.32791,0.3261,0.324277,,,,,,
45658,0.045093,0.00259,0.090862,0.020226,0.00203,0.002222,0.052633,-0.0,-0.0,3.0,0.3261,0.330782,0.3261,0.321325,,,,,,
45678,0.05496,0.001936,0.089361,0.020227,0.00195,0.003305,0.054789,-0.0,-0.0,3.0,0.3261,0.33316,0.3261,0.318826,,,,,,
45698,0.064576,0.001068,0.087758,0.020224,0.001918,0.003323,0.058711,-0.0,-0.0,3.0,0.3261,0.336362,0.3261,0.31538,,,,,,
45718,0.073951,0.00023,0.086033,0.021285,0.001887,0.003341,0.060581,-0.0,-0.0,3.0,0.3261,0.33727,0.3261,0.314385,,,,,,
45738,0.083443,-0.000714,0.084188,0.021282,0.000794,0.00327,0.063425,-0.0,-0.0,3.0,0.3261,0.337943,0.3261,0.313642,,,,,,
45758,0.092938,-0.001756,0.082242,0.020213,-0.000395,0.004239,0.065916,-0.0,-0.0,3.0,0.3261,0.338752,0.3261,0.312743,,,,,,
45778,0.102322,-0.002531,0.080284,0.019146,-0.001493,0.004126,0.067108,-0.0,-0.0,3.0,0.3261,0.339957,0.3261,0.311393,,,,,,
45798,0.111231,-0.003011,0.078073,0.017012,-0.001648,0.00517,0.06912,-0.0,-0.0,3.0,0.3261,0.340799,0.3261,0.310442,,,,,,
45818,0.11967,-0.00321,0.075863,0.015949,0.000548,0.004354,0.071246,-0.0,-0.0,3.0,0.3261,0.344281,0.3261,0.306426,,,,,,
45838,0.127864,-0.003251,0.073508,0.015949,0.001568,0.004494,0.073316,-0.0,-0.0,3.0,0.3261,0.346318,0.3261,0.304016,,,,,,
45858,0.135949,-0.003139,0.071033,0.015949,0.001532,0.004506,0.076036,-0.0,-0.0,3.0,0.3261,0.348143,0.3261,0.301819,,,,,,
45878,0.14366,-0.003239,0.068574,0.017013,0.000444,0.004365,0.077089,-0.0,-0.0,3.0,0.3261,0.348996,0.3261,0.300778,,,,,,
45898,0.151108,-0.003666,0.066009,0.015944,-0.000801,0.005261,0.078945,-0.0,-0.0,3.0,0.3261,0.349565,0.3261,0.30008,,,,,,
45918,0.158322,-0.004058,0.063337,0.014879,-0.00189,0.005087,0.080496,-0.0,-0.0,3.0,0.3261,0.34882,0.3261,0.300993,,,,,,
45938,0.165417,-0.004416,0.060546,0.013812,-0.000876,0.005249,0.081871,-0.0,-0.0,3.0,0.3261,0.349478,0.3261,0.300187,,,,,,
45958,0.172029,-0.004619,0.057751,0.012741,-4.5e-05,0.006473,0.082496,-0.0,-0.0,3.0,0.3261,0.351589,0.3261,0.297563,,,,,,
45978,0.178161,-0.004657,0.054828,0.011677,-0.001132,0.006284,0.083741,-0.0,-0.0,3.0,0.3261,0.352049,0.3261,0.296985,,,,,,
45998,0.183674,-0.004649,0.051781,0.010613,-0.001166,0.006278,0.084841,-0.0,-0.0,3.0,0.3261,0.353734,0.3261,0.294843,,,,,,
46018,0.188829,-0.004362,0.048593,0.010615,-0.001199,0.006272,0.085343,-0.0,-0.0,3.0,0.3261,0.355498,0.3261,0.292562,,,,,,
46038,0.193625,-0.004281,0.045319,0.010615,-0.000184,0.006471,0.085987,-0.0,-0.0,3.0,0.3261,0.355799,0.3261,0.292169,,,,,,
46058,0.198038,-0.003933,0.042009,0.009553,-0.000213,0.00647,0.08666,-0.0,-0.0,3.0,0.3261,0.354676,0.3261,0.293629,,,,,,
46078,0.202091,-0.003917,0.038625,0.009554,-0.001282,0.006255,0.087016,-0.0,-0.0,3.0,0.3261,0.353552,0.3261,0.295077,,,,,,
46098,0.205661,-0.003744,0.035112,0.007423,-0.002563,0.007075,0.087219,-0.0,-0.0,3.0,0.3261,0.353678,0.3261,0.294915,,,,,,
46118,0.20897,-0.003796,0.031621,0.005293,-0.001545,0.007288,0.087262,-0.0,-0.0,3.0,0.3261,0.355128,0.3261,0.293043,,,,,,
46138,0.211677,-0.003586,0.028109,0.004227,-0.001789,0.008324,0.087223,-0.0,-0.0,3.0,0.3261,0.356442,0.3261,0.291325,,,,,,
46158,0.213885,-0.003347,0.024475,0.003168,-0.001581,0.00728,0.086937,-0.0,-0.0,3.0,0.3261,0.356364,0.3261,0.291428,,,,,,
46178,0.215616,-0.003339,0.020875,0.003168,-0.000554,0.007505,0.086708,-0.0,-0.0,3.0,0.3261,0.356138,0.3261,0.291724,,,,,,
46198,0.216839,-0.00305,0.017001,0.002105,0.000476,0.007733,0.085997,-0.0,-0.0,3.0,0.3261,0.357238,0.3261,0.290273,,,,,,
46218,0.217951,-0.003011,0.013279,0.001041,0.000467,0.007734,0.085502,-0.0,-0.0,3.0,0.3261,0.356938,0.3261,0.290669,,,,,,
46238,0.218699,-0.002846,0.009545,0.001042,0.000461,0.007734,0.084598,-0.0,-0.0,3.0,0.3261,0.35533,0.3261,0.292781,,,,,,
46258,0.219068,-0.003027,0.005728,-0.001087,-0.00058,0.007503,0.08362,-0.0,-0.0,3.0,0.3261,0.354961,0.3261,0.29326,,,,,,
46278,0.219074,-0.003315,0.001803,-0.002157,-0.000811,0.008542,0.08306,-0.0,-0.0,3.0,0.3261,0.355698,0.3261,0.2923,,,,,,
46298,0.218703,-0.003495,-0.002014,-0.002158,-0.000808,0.008542,0.081848,-0.0,-0.0,3.0,0.3261,0.356525,0.3261,0.291215,,,,,,
46318,0.218225,-0.003691,-0.005711,-0.002155,-0.001613,0.007273,0.080245,-0.0,-0.0,3.0,0.3261,0.357429,0.3261,0.290018,,,,,,
46338,0.217503,-0.003646,-0.009436,-0.002152,-0.000339,0.006465,0.079106,-0.0,-0.0,3.0,0.3261,0.356815,0.3261,0.290832,,,,,,
46358,0.216888,-0.003388,-0.012943,-0.002153,-0.001603,0.007275,0.07819,-0.0,-0.0,3.0,0.3261,0.357493,0.3261,0.289933,,,,,,
46378,0.216279,-0.002456,-0.016046,-0.00108,-0.00137,0.006237,0.07536,-0.0,-0.0,3.0,0.3261,0.358729,0.3261,0.288278,,,,,,
46398,0.21553,-0.00135,-0.018566,-0.002135,-0.003217,0.004743,0.073796,-0.0,-0.0,3.0,0.3261,0.358259,0.3261,0.288909,,,,,,
46418,0.214909,0.000189,-0.020655,-0.003192,-0.0038,0.002438,0.071669,-0.0,-0.0,3.0,0.3261,0.359295,0.3261,0.287512,,,,,,
46438,0.214027,0.001888,-0.022039,-0.003188,-0.003798,0.002442,0.069441,-0.0,-0.0,3.0,0.3261,0.360285,0.3261,0.286162,,,,,,
46458,0.212782,0.003369,-0.022561,-0.004259,-0.003121,-0.000674,0.068295,-0.0,-0.0,3.0,0.3261,0.360864,0.3261,0.285366,,,,,,
46478,0.211177,0.004566,-0.022692,-0.004265,-0.002899,-0.00171,0.06584,-0.0,-0.0,3.0,0.3261,0.360402,0.3261,0.286002,,,,,,
46498,0.209582,0.004995,-0.022381,-0.005338,-0.000377,-0.003344,0.064559,-0.0,-0.0,3.0,0.3261,0.360933,0.3261,0.285272,,,,,,
46518,0.207857,0.005143,-0.021675,-0.005332,0.000439,-0.002083,0.061792,-0.0,-0.0,3.0,0.3261,0.360524,0.3261,0.285834,,,,,,
46538,0.205653,0.004655,-0.020665,-0.0064,0.000652,-0.003125,0.057677,-0.0,-0.0,3.0,0.3261,0.360381,0.3261,0.286031,,,,,,
46558,0.20321,0.003912,-0.01951,-0.007464,0.002944,-0.00374,0.055697,-0.0,-0.0,3.0,0.3261,0.360872,0.3261,0.285356,,,,,,
46578,0.200391,0.002937,-0.018451,-0.007454,0.00251,-0.001662,0.052663,-0.0,-0.0,3.0,0.3261,0.361559,0.3261,0.284406,,,,,,
46598,0.19722,0.001828,-0.017264,-0.007455,0.002713,-0.002714,0.049657,-0.0,-0.0,3.0,0.3261,0.362138,0.3261,0.283599,,,,,,
46618,0.193673,0.000476,-0.016055,-0.007451,0.002703,-0.002723,0.04651,-0.0,-0.0,3.0,0.3261,0.361353,0.3261,0.28469,,,,,,
46638,0.18988,-0.000741,-0.014984,-0.008511,0.001849,-0.00398,0.044947,-0.0,-0.0,3.0,0.3261,0.358739,0.3261,0.288264,,,,,,
46658,0.18572,-0.001714,-0.01394,-0.009572,-0.000456,-0.003334,0.042348,-0.0,-0.0,3.0,0.3261,0.357604,0.3261,0.289785,,,,,,
46678,0.181544,-0.002209,-0.01282,-0.010637,-0.001709,-0.002478,0.037518,-0.0,-0.0,3.0,0.3261,0.358408,0.3261,0.288709,,,,,,
46698,0.177133,-0.002214,-0.011747,-0.011699,-0.001533,-0.003518,0.034433,-0.0,-0.0,3.0,0.3261,0.35733,0.3261,0.29015,,,,,,
46718,0.172476,-0.001719,-0.010838,-0.012766,-0.001732,-0.002462,0.032769,-0.0,-0.0,3.0,0.3261,0.358402,0.3261,0.288718,,,,,,
46738,0.167565,-0.001119,-0.00969,-0.012767,-0.001566,-0.003503,0.027743,-0.0,-0.0,3.0,0.3261,0.359031,0.3261,0.28787,,,,,,
46758,0.162179,-0.000505,-0.008663,-0.012769,-0.000535,-0.003323,0.024164,-0.0,-0.0,3.0,0.3261,0.359114,0.3261,0.287757,,,,,,
46778,0.156541,-0.000241,-0.007723,-0.01277,0.000498,-0.003154,0.022286,-0.0,-0.0,3.0,0.3261,0.357316,0.3261,0.290169,,,,,,
46798,0.150296,-0.000348,-0.006632,-0.01277,0.000478,-0.003157,0.018692,-0.0,-0.0,3.0,0.3261,0.355814,0.3261,0.292149,,,,,,
46818,0.14393,-0.00057,-0.005531,-0.013834,-0.000748,-0.002259,0.016886,-0.0,-0.0,3.0,0.3261,0.352399,0.3261,0.296543,,,,,,
46838,0.137443,-0.001143,-0.004527,-0.014896,0.000437,-0.003163,0.013841,-0.0,-0.0,3.0,0.3261,0.349251,0.3261,0.300466,,,,,,
46858,0.13059,-0.00171,-0.003527,-0.017024,0.000277,-0.00211,0.00733,-0.0,-0.0,3.0,0.3261,0.348343,0.3261,0.301576,,,,,,
46878,0.123013,-0.002523,-0.002394,-0.019148,0.000392,-0.003169,0.00413,-0.0,-0.0,3.0,0.3261,0.347598,0.3261,0.302479,,,,,,
46898,0.115062,-0.002956,-0.001409,-0.020214,0.000244,-0.002114,0.001156,-0.0,-0.0,3.0,0.3261,0.346662,0.3261,0.303605,,,,,,
46918,0.106989,-0.003259,-0.000433,-0.02021,0.001399,-0.003061,-0.003414,-0.0,-0.0,3.0,0.3261,0.346127,0.3261,0.304245,,,,,,
46938,0.098429,-0.002938,0.000388,-0.019147,0.001373,-0.003073,-0.005625,-0.0,-0.0,3.0,0.3261,0.344733,0.3261,0.305894,,,,,,
46958,0.089387,-0.002621,0.001456,-0.019147,-0.000775,-0.003275,-0.009576,-0.0,-0.0,3.0,0.3261,0.342284,0.3261,0.308744,,,,,,
46978,0.080589,-0.002162,0.002279,-0.020213,-0.001865,-0.003354,-0.013358,-0.0,-0.0,3.0,0.3261,0.339813,0.3261,0.311555,,,,,,
