time_ms,roll,pitch,yaw,roll_rate,pitch_rate,yaw_rate,reference_roll,reference_pitch,reference_yaw,reference_throttle,throttle_1,throttle_2,throttle_3,throttle_4,roll_predicted,pitch_predicted,yaw_predicted,roll_rate_predicted,pitch_rate_predicted,yaw_rate_predicted
19583,-0.006367,0.017443,-0.044026,0.0,-0.001064,7e-06,-0.0,-0.0,-0.0,2.0,0.282024,0.279054,0.282024,0.28495,-0.0,-106.114954,-0.0,0.0,-5.441525,0.0
19603,-0.006126,0.01757,-0.044028,-1.9e-05,-0.001071,-0.001058,0.000493,-0.0,-0.0,2.0,0.282024,0.2789,0.282024,0.285099,2e-06,-106.328506,-0.0,0.000302,-5.18382,0.0
19623,-0.005883,0.017575,-0.044152,0.0,-0.001064,6e-06,0.001419,-0.0,-0.0,2.0,0.282024,0.278552,0.282024,0.285436,2.3e-05,-106.532948,-2e-06,0.001248,-5.007226,2e-06
19643,-0.006008,0.017694,-0.04415,-0.001083,-0.001071,-0.001058,0.0019,-0.0,-0.0,2.0,0.282024,0.278362,0.282024,0.28562,8.8e-05,-106.731599,-1e-05,0.002423,-4.916092,7e-06
19663,-0.006008,0.017694,-0.04415,-0.001064,-0.001064,6e-06,0.002383,-0.0,-0.0,2.0,0.282024,0.276231,0.282024,0.287651,0.0002,-106.92791,-3.5e-05,0.003473,-4.91214,1.5e-05
19683,-0.006131,0.017691,-0.044271,-0.001064,-0.001064,7e-06,0.003957,-0.0,-0.0,2.0,0.282024,0.275504,0.282024,0.288334,0.000366,-107.125371,-8.6e-05,0.00512,-4.995074,2.6e-05
19703,-0.006253,0.017688,-0.04427,-0.001083,-7e-06,-0.001064,0.004675,-0.0,-0.0,2.0,0.282024,0.276967,0.282024,0.286954,0.000637,-107.327429,-0.000185,0.007022,-5.162703,4.3e-05
19723,-0.006253,0.017688,-0.04427,0.0,-0.001064,7e-06,0.00527,-0.0,-0.0,2.0,0.282024,0.276579,0.282024,0.287322,0.00105,-107.537414,-0.000382,0.00846,-5.410558,6.7e-05
19743,-0.00625,0.017566,-0.044271,-1.9e-05,-0.001071,-0.001058,0.006461,-0.0,-0.0,2.0,0.282024,0.276122,0.282024,0.287754,0.001702,-107.758432,-0.000789,0.009834,-5.731067,9.6e-05
19763,-0.006128,0.017569,-0.044272,0.0,-0.001064,7e-06,0.007451,-0.0,-0.0,2.0,0.282024,0.275625,0.282024,0.288221,0.002964,-107.993228,-0.001773,0.010975,-6.112367,0.000131
19783,-0.005887,0.017697,-0.044273,0.0,-0.001064,6e-06,0.008396,-0.0,-0.0,2.0,0.282024,0.275221,0.282024,0.288599,0.007081,-108.243988,-0.005594,0.010604,-6.536981,0.000172
19803,-0.005763,0.0177,-0.044153,-0.001083,-0.00107,-0.001058,0.008855,-0.0,-0.0,2.0,0.282024,0.275078,0.282024,0.288732,-0.027807,-108.511155,0.029877,-0.046952,-6.980767,0.000203
19823,-0.005889,0.017819,-0.044273,-0.001083,-6e-06,-0.001064,0.00993,-0.0,-0.0,2.0,0.282024,0.272588,0.282024,0.291027,-0.005297,-108.79692,0.005894,-0.000463,-7.412878,8.9e-05
19843,-0.005889,0.017819,-0.044273,-0.001064,0.0,0.0,0.010961,-0.0,-0.0,2.0,0.282024,0.272062,0.282024,0.291504,-0.002686,-109.099405,0.003257,0.017371,-7.79712,0.000122
19863,-0.006006,0.017572,-0.044273,-0.001064,-0.001064,6e-06,0.011604,-0.0,-0.0,2.0,0.282024,0.271605,0.282024,0.291917,-0.001233,-109.416094,0.002327,0.024065,-8.095812,0.000217
19883,-0.006003,0.01745,-0.044273,-1.9e-05,-6e-06,-0.001064,0.012305,-0.0,-0.0,2.0,0.282024,0.273161,0.282024,0.290504,-9.6e-05,-109.743039,0.002026,0.026518,-8.275729,0.000338
19903,-0.006003,0.01745,-0.044273,0.0,0.0,0.0,0.013517,-0.0,-0.0,2.0,0.282024,0.272546,0.282024,0.291065,0.000981,-110.075114,0.002112,0.027636,-8.314862,0.00047
19923,-0.005881,0.017453,-0.044274,0.0,-0.001064,6e-06,0.014032,-0.0,-0.0,2.0,0.282024,0.272279,0.282024,0.291308,0.002218,-110.406549,0.002582,0.027965,-8.207747,0.000605
19943,-0.00564,0.01758,-0.044276,0.0,-0.001064,6e-06,0.015048,-0.0,-0.0,2.0,0.282024,0.271731,0.282024,0.291803,0.003925,-110.731628,0.003651,0.027654,-7.967116,0.000738
19963,-0.00552,0.017705,-0.044277,-0.001083,-6e-06,-0.001064,0.01598,-0.0,-0.0,2.0,0.282024,0.271347,0.282024,0.292149,0.006978,-111.045393,0.006131,0.02653,-7.621068,0.000864
19983,-0.005522,0.017704,-0.044399,-0.001064,0.0,0.0,0.016881,-0.0,-0.0,2.0,0.282024,0.26889,0.282024,0.294333,0.015956,-111.344161,0.014584,0.022417,-7.206924,0.000975
20003,-0.005522,0.017704,-0.044399,-0.001064,-0.001064,6e-06,0.01751,-0.0,-0.0,2.0,0.282024,0.268447,0.282024,0.29472,-0.127319,-111.625397,-0.129217,-0.018745,-6.764181,0.001044
20023,-0.00564,0.01758,-0.044276,-0.001083,-6e-06,-0.001064,0.018358,-0.0,-0.0,2.0,0.282024,0.267925,0.282024,0.295176,-0.012905,-111.888726,-0.014874,0.059508,-6.328746,0.001147
20043,-0.005637,0.017458,-0.044276,-1.9e-05,-6e-06,-0.001064,0.019339,-0.0,-0.0,2.0,0.282024,0.269283,0.282024,0.293986,-0.005227,-112.135728,-0.00912,0.062075,-5.929832,0.00137
20063,-0.005516,0.01746,-0.044399,-1.8e-05,-0.00107,-0.001058,0.02019,-0.0,-0.0,2.0,0.282024,0.2688,0.282024,0.294411,-0.001617,-112.3676,-0.00763,0.059814,-5.589098,0.001578
20083,-0.005516,0.01746,-0.044399,0.0,-0.001064,6e-06,0.020827,-0.0,-0.0,2.0,0.282024,0.268384,0.282024,0.294775,0.000916,-112.586901,-0.007363,0.058049,-5.321247,0.001769
20103,-0.005396,0.017585,-0.044278,-1.9e-05,-0.00107,-0.001059,0.021822,-0.0,-0.0,2.0,0.282024,0.267828,0.282024,0.29526,0.003096,-112.796697,-0.007681,0.057399,-5.135423,0.001947
20123,-0.005277,0.01771,-0.044401,-1.9e-05,-0.00107,-0.001059,0.022735,-0.0,-0.0,2.0,0.282024,0.267367,0.282024,0.295659,0.005235,-113.000355,-0.008411,0.057581,-5.036672,0.002118
20143,-0.005158,0.017835,-0.044402,0.0,0.0,0.0,0.023618,-0.0,-0.0,2.0,0.282024,0.266812,0.282024,0.296139,0.007524,-113.201395,-0.009546,0.057998,-5.027093,0.002289
20163,-0.005153,0.017591,-0.044402,0.0,-0.001064,5e-06,0.024516,-0.0,-0.0,2.0,0.282024,0.266259,0.282024,0.296613,0.01015,-113.403388,-0.011195,0.058211,-5.10652,0.002461
20183,-0.005027,0.017472,-0.044282,-1.9e-05,-5e-06,-0.001064,0.025217,-0.0,-0.0,2.0,0.282024,0.265856,0.282024,0.296957,0.013388,-113.609864,-0.013614,0.05764,-5.272683,0.002638
20203,-0.004784,0.017477,-0.044406,0.0,0.0,0.0,0.025999,-0.0,-0.0,2.0,0.282024,0.265378,0.282024,0.297364,0.017783,-113.824225,-0.017367,0.055623,-5.52084,0.002817
20223,-0.004536,0.01736,-0.044287,0.0,-0.001064,5e-06,0.026468,-0.0,-0.0,2.0,0.282024,0.265049,0.282024,0.297643,0.024694,-114.049632,-0.023865,0.050787,-5.842933,0.002997
20243,-0.004292,0.017366,-0.044289,0.0,-0.001064,5e-06,0.027878,-0.0,-0.0,2.0,0.282024,0.264343,0.282024,0.298238,0.038711,-114.288835,-0.037807,0.040432,-6.226383,0.003163
20263,-0.003804,0.017377,-0.044293,0.001046,-0.001068,-0.00106,0.028322,-0.0,-0.0,2.0,0.282024,0.264134,0.282024,0.298413,0.090706,-114.54384,-0.090276,0.011199,-6.652751,0.003284
20283,-0.00344,0.017507,-0.044296,0.001046,-4e-06,-0.001064,0.029292,-0.0,-0.0,2.0,0.282024,0.265769,0.282024,0.297031,-1.098775,-114.716166,1.094829,0.249541,-7.0968,-0.015685
20303,-0.002705,0.017401,-0.044303,0.001064,0.0,0.0,0.029991,-0.0,-0.0,2.0,0.282024,0.26552,0.282024,0.297244,0.012412,-114.966351,-0.003064,0.260112,-7.538185,-0.024546
20323,-0.001974,0.017417,-0.044431,0.001064,-0.001064,2e-06,0.030938,-0.0,-0.0,2.0,0.282024,0.265129,0.282024,0.297575,0.010378,-115.274123,0.008502,0.160231,-7.945097,-0.023572
20343,-0.001239,0.017311,-0.044438,0.00211,-1e-06,-0.001064,0.031906,-0.0,-0.0,2.0,0.282024,0.264901,0.282024,0.297768,0.011093,-115.597175,0.015129,0.119217,-8.277035,-0.022898
20363,-0.000137,0.017092,-0.044569,0.002128,0.0,0.0,0.032719,-0.0,-0.0,2.0,0.282024,0.266749,0.282024,0.296193,0.0128,-115.931916,0.020692,0.101065,-8.496375,-0.02235
20383,0.001088,0.016875,-0.044701,0.002128,0.0,0.0,0.033169,-0.0,-0.0,2.0,0.282024,0.266868,0.282024,0.29609,0.015684,-116.27338,0.026396,0.091201,-8.57557,-0.021863
20403,0.002314,0.016658,-0.044711,0.003193,0.0,0.0,0.034154,-0.0,-0.0,2.0,0.282024,0.266678,0.282024,0.296254,0.020379,-116.615729,0.033305,0.083558,-8.503741,-0.021419
20423,0.003664,0.016322,-0.044843,0.003175,4e-06,-0.001064,0.035254,-0.0,-0.0,2.0,0.282024,0.266611,0.282024,0.296311,0.028484,-116.95297,0.043257,0.074815,-8.289753,-0.02102
20443,0.005377,0.015995,-0.045221,0.003193,0.0,0.0,0.036093,-0.0,-0.0,2.0,0.282024,0.268751,0.282024,0.294454,0.044899,-117.279709,0.061349,0.060401,-7.960293,-0.020683
20463,0.007215,0.015671,-0.045356,0.003209,0.001057,0.001072,0.036516,-0.0,-0.0,2.0,0.282024,0.269101,0.282024,0.294147,0.094466,-117.591604,0.112712,0.027584,-7.553751,-0.02045
20483,0.008928,0.015466,-0.045489,0.004257,0.0,0.0,0.03735,-0.0,-0.0,2.0,0.282024,0.269253,0.282024,0.294013,-9.820429,-117.878871,-9.799942,-0.139534,-7.112379,-0.021514
20503,0.010891,0.015022,-0.045622,0.004241,1.2e-05,-0.001064,0.038237,-0.0,-0.0,2.0,0.282024,0.269583,0.282024,0.293721,-29.705698,-117.830903,-29.719023,2.352815,-6.673544,-0.17651
20523,0.012974,0.014585,-0.046129,0.004257,0.0,0.0,0.038905,-0.0,-0.0,2.0,0.282024,0.27191,0.282024,0.291641,-25.298185,-117.874004,-25.438767,4.424805,-6.27599,-0.322778
20543,0.015181,0.014148,-0.046262,0.004272,0.001048,0.00108,0.039634,-0.0,-0.0,2.0,0.282024,0.272309,0.282024,0.29128,-25.059135,-118.119361,-25.404724,6.143024,-5.958864,-0.462727
20563,0.017388,0.013712,-0.046393,0.004257,0.0,0.0,0.040778,-0.0,-0.0,2.0,0.282024,0.272617,0.282024,0.291,-24.90862,-118.349677,-25.532771,7.589595,-5.76693,-0.597915
20583,0.019716,0.013279,-0.046645,0.005307,2.1e-05,-0.001064,0.041388,-0.0,-0.0,2.0,0.282024,0.273157,0.282024,0.290507,-24.71239,-118.561597,-25.689042,8.834985,-5.73523,-0.729008
20603,0.022044,0.012849,-0.047018,0.005307,2.3e-05,-0.001064,0.042304,-0.0,-0.0,2.0,0.282024,0.273677,0.282024,0.29003,-24.470195,-118.747912,-25.878473,9.933423,-5.886841,-0.855888
20623,0.024618,0.012424,-0.047277,0.004257,0.001064,2.6e-05,0.042709,-0.0,-0.0,2.0,0.282024,0.276257,0.282024,0.287627,-24.181349,-118.89492,-26.107099,10.913277,-6.231685,-0.977824
20643,0.027191,0.011998,-0.047405,0.005334,-2.9e-05,0.001064,0.043547,-0.0,-0.0,2.0,0.282024,0.276725,0.282024,0.287183,-23.848421,-118.980674,-26.377902,11.7707,-6.763212,-1.093699
20663,0.029521,0.011566,-0.047529,0.005309,3.1e-05,-0.001064,0.044338,-0.0,-0.0,2.0,0.282024,0.275484,0.282024,0.288353,-23.483697,-118.977324,-26.683863,12.469512,-7.454273,-1.202333
20683,0.032092,0.011265,-0.047786,0.005321,0.0,0.0,0.044797,-0.0,-0.0,2.0,0.282024,0.278146,0.282024,0.285827,-23.112457,-118.861545,-27.004076,12.952622,-8.256071,-1.302909
20703,0.034787,0.010844,-0.048031,0.005333,-3.7e-05,0.001064,0.045744,-0.0,-0.0,2.0,0.282024,0.278677,0.282024,0.285315,-22.763315,-118.628465,-27.312821,13.168217,-9.106463,-1.3954
20723,0.037359,0.010537,-0.047911,0.005321,0.0,0.0,0.046755,-0.0,-0.0,2.0,0.282024,0.279182,0.282024,0.284826,-22.45147,-118.295044,-27.595472,13.1039,-9.951336,-1.480756
20743,0.039804,0.010475,-0.048046,0.00531,4.2e-05,-0.001063,0.047202,-0.0,-0.0,2.0,0.282024,0.280039,0.282024,0.28399,-22.167396,-117.890148,-27.847834,12.807679,-10.771597,-1.560603
20763,0.042374,0.010175,-0.048289,0.004257,0.0,0.0,0.048139,-0.0,-0.0,2.0,0.282024,0.28064,0.282024,0.283398,-21.940431,-117.443535,-28.128744,12.374233,-11.597533,-1.636513
20783,0.044703,0.009865,-0.048295,0.004257,0.0,0.0,0.048918,-0.0,-0.0,2.0,0.282024,0.279402,0.282024,0.284611,-21.678079,-116.983022,-28.394815,11.908435,-12.496825,-1.709299
20803,0.047146,0.009801,-0.048298,0.004257,0.0,0.0,0.049696,-0.0,-0.0,2.0,0.282024,0.279992,0.282024,0.284036,-21.382224,-116.542752,-28.720965,11.473774,-13.539711,-1.778737
20823,0.049348,0.00961,-0.048296,0.004247,5.2e-05,-0.001063,0.050446,-0.0,-0.0,2.0,0.282024,0.280616,0.282024,0.283422,-20.994182,-116.183376,-29.158987,11.069088,-14.755503,-1.843984
20843,0.051559,0.009178,-0.048418,0.004247,5.5e-05,-0.001063,0.050889,-0.0,-0.0,2.0,0.282024,0.281307,0.282024,0.282739,-20.474491,-116.025221,-29.753521,10.632108,-16.099161,-1.904453
20863,0.053882,0.008993,-0.048537,0.004257,0.0,0.0,0.051778,-0.0,-0.0,2.0,0.282024,0.281811,0.282024,0.282237,-19.943715,-116.203422,-30.40073,10.070174,-17.442303,-1.96088
20883,0.055971,0.008555,-0.048534,0.004248,6e-05,-0.001063,0.052164,-0.0,-0.0,2.0,0.282024,0.282537,0.282024,0.281509,-19.615888,-116.682507,-30.942102,9.308676,-18.60959,-2.016059
20903,0.058178,0.008119,-0.048522,0.004249,0.001124,-0.001001,0.053165,-0.0,-0.0,2.0,0.282024,0.282951,0.282024,0.281093,-19.629312,-117.301129,-31.531701,8.345274,-19.48639,-2.074489
20923,0.060264,0.007807,-0.048642,0.004257,0.0,0.0,0.053719,-0.0,-0.0,2.0,0.282024,0.283611,0.282024,0.280424,-22.187168,-117.624989,-34.497001,7.232857,-20.114626,-2.140702
20943,0.062353,0.007247,-0.048624,0.004249,6.6e-05,-0.001062,0.054535,-0.0,-0.0,2.0,0.282024,0.284203,0.282024,0.279821,-21.921146,-116.812545,-34.522485,6.020897,-20.656213,-2.218123
20963,0.064558,0.007061,-0.048746,0.004257,0.0,0.0,0.055256,-0.0,-0.0,2.0,0.282024,0.284764,0.282024,0.279246,-21.744966,-115.996246,-34.73024,4.863147,-21.33272,-2.307889
20983,0.06652,0.00686,-0.048624,0.00425,7.1e-05,-0.001062,0.055961,-0.0,-0.0,2.0,0.282024,0.285347,0.282024,0.278644,-21.283745,-115.227827,-35.232051,3.72129,-22.211184,-2.409769
21003,0.068599,0.006666,-0.048614,0.00425,7.3e-05,-0.001062,0.056312,-0.0,-0.0,2.0,0.282024,0.286136,0.282024,0.277824,-19.212926,-115.150211,-37.32155,2.476765,-23.1239,-2.524782
21023,0.070923,0.006605,-0.048739,0.004257,0.0,0.0,0.057249,-0.0,-0.0,2.0,0.282024,0.286644,0.282024,0.277293,-18.97646,-116.081784,-37.517527,1.052338,-23.730881,-2.656329
21043,0.072877,0.00653,-0.048732,0.004256,-0.001061,-7.7e-05,0.057853,-0.0,-0.0,2.0,0.282024,0.287272,0.282024,0.276632,-18.954151,-117.039161,-37.517803,-0.438482,-23.728442,-2.807744
21063,0.074956,0.006575,-0.048617,0.004256,-0.001061,-8e-05,0.058414,-0.0,-0.0,2.0,0.282024,0.287891,0.282024,0.275976,-18.906377,-117.987941,-37.427249,-1.92713,-23.152899,-2.979892
21083,0.076911,0.006627,-0.048745,0.004249,-0.000979,-0.001143,0.058792,-0.0,-0.0,2.0,0.282024,0.288642,0.282024,0.275175,-19.057002,-118.90859,-37.470636,-3.375801,-22.303966,-3.17141
21103,0.078743,0.00655,-0.048737,0.003193,0.0,0.0,0.059677,-0.0,-0.0,2.0,0.282024,0.28738,0.282024,0.276518,-19.206692,-119.791791,-37.373424,-4.786202,-21.443907,-3.380218
21123,0.080701,0.00648,-0.04886,0.003193,0.0,0.0,0.060437,-0.0,-0.0,2.0,0.282024,0.28789,0.282024,0.275977,-19.72173,-120.599298,-36.957908,-6.131957,-20.573971,-3.604359
21143,0.082536,0.00628,-0.048847,0.003186,8.8e-05,-0.001061,0.061097,-0.0,-0.0,2.0,0.282024,0.288461,0.282024,0.275369,-22.357014,-120.590211,-34.549725,-7.257495,-19.474816,-3.840842
21163,0.084129,0.006202,-0.048969,0.003193,0.0,0.0,0.061453,-0.0,-0.0,2.0,0.282024,0.289052,0.282024,0.274735,-22.462196,-119.828098,-34.794711,-8.077998,-17.939839,-4.083709
21183,0.0856,0.006121,-0.049092,0.003192,-0.00106,-9.1e-05,0.061921,-0.0,-0.0,2.0,0.282024,0.289594,0.282024,0.274151,-22.755451,-119.159363,-35.029745,-8.48416,-15.846523,-4.325648
21203,0.086944,0.006032,-0.049084,0.002128,-0.00106,-9.2e-05,0.062764,-0.0,-0.0,2.0,0.282024,0.28821,0.282024,0.275637,-23.274304,-118.664117,-35.445252,-8.386423,-13.305203,-4.558484
21223,0.08816,0.006189,-0.049208,0.002128,-0.00106,-9.4e-05,0.063191,-0.0,-0.0,2.0,0.282024,0.288649,0.282024,0.275168,-24.119509,-118.480917,-36.153009,-7.791825,-10.5849,-4.776166
21243,0.08914,0.006213,-0.049215,0.001064,-0.00106,-9.5e-05,0.063993,-0.0,-0.0,2.0,0.282024,0.288857,0.282024,0.274945,-24.875196,-118.641069,-36.755661,-6.765279,-7.97607,-4.976573
21263,0.089993,0.006239,-0.049334,0.001057,-0.000964,-0.001156,0.064746,-0.0,-0.0,2.0,0.282024,0.287311,0.282024,0.276591,-25.29963,-118.905712,-37.040754,-5.395676,-5.717037,-5.161244
21283,0.090725,0.006257,-0.049333,0.001064,-0.00106,-9.6e-05,0.065054,-0.0,-0.0,2.0,0.282024,0.28757,0.282024,0.276317,-25.552369,-119.154958,-37.201634,-3.784723,-3.971831,-5.333906
21303,0.091218,0.006269,-0.04934,-1e-06,-0.00106,-9.7e-05,0.065678,-0.0,-0.0,2.0,0.282024,0.285918,0.282024,0.278051,-25.696088,-119.379027,-37.330101,-2.059045,-2.843672,-5.498809
21323,0.091464,0.006159,-0.049456,-7e-06,9.7e-05,-0.00106,0.066279,-0.0,-0.0,2.0,0.282024,0.285986,0.282024,0.277981,-25.742697,-119.589609,-37.457636,-0.369298,-2.38377,-5.659377
21343,0.091708,0.006165,-0.049455,-1e-06,-0.00106,-9.7e-05,0.066886,-0.0,-0.0,2.0,0.282024,0.285933,0.282024,0.278035,-25.694166,-119.798201,-37.59827,1.122527,-2.587185,-5.817413
21363,0.091589,0.00604,-0.04945,-0.001071,-0.000962,-0.001157,0.06731,-0.0,-0.0,2.0,0.282024,0.285971,0.282024,0.277997,-25.549269,-120.012919,-37.768203,2.263669,-3.386227,-5.973068
21383,0.091711,0.006049,-0.049571,-0.001065,-0.00106,-9.7e-05,0.067983,-0.0,-0.0,2.0,0.282024,0.285803,0.282024,0.278171,-25.288949,-120.235659,-38.007584,2.932371,-4.648897,-6.125614
21403,0.091589,0.006046,-0.049572,-0.001065,-0.00106,-9.7e-05,0.068431,-0.0,-0.0,2.0,0.282024,0.283953,0.282024,0.280076,-24.824848,-120.443681,-38.430878,3.055539,-6.184074,-6.274678
21423,0.091464,0.006159,-0.049456,-0.001071,-0.000963,-0.001157,0.069136,-0.0,-0.0,2.0,0.282024,0.283775,0.282024,0.280257,-23.980646,-120.522157,-39.240371,2.622537,-7.75302,-6.421343
21443,0.091339,0.006283,-0.049584,0.0,0.0,0.0,0.069457,-0.0,-0.0,2.0,0.282024,0.28378,0.282024,0.280253,-23.227257,-120.297007,-39.986542,1.703356,-9.087256,-6.568484
21463,0.091464,0.006165,-0.049578,-1e-06,-0.00106,-9.7e-05,0.070058,-0.0,-0.0,2.0,0.282024,0.283672,0.282024,0.280362,-22.953317,-119.8921,-40.301309,0.45798,-9.918068,-6.719913
21483,0.091467,0.006043,-0.049572,0.0,0.0,0.0,0.070615,-0.0,-0.0,2.0,0.282024,0.285374,0.282024,0.278617,-22.896296,-119.434953,-40.472152,-0.875162,-10.045655,-6.878541
21503,0.091589,0.006046,-0.049572,-7e-06,-0.000962,-0.001157,0.07115,-0.0,-0.0,2.0,0.282024,0.285344,0.282024,0.278647,-22.967589,-118.975377,-40.621444,-2.023762,-9.410485,-7.044577
21523,0.09171,0.006054,-0.049693,-1e-06,-0.00106,-9.7e-05,0.071435,-0.0,-0.0,2.0,0.282024,0.285398,0.282024,0.278591,-23.170473,-118.548476,-40.821068,-2.746451,-8.125911,-7.215202
21543,0.091833,0.006052,-0.049571,-1e-06,-0.00106,-9.8e-05,0.07197,-0.0,-0.0,2.0,0.282024,0.285344,0.282024,0.278647,-23.621225,-118.191487,-41.223513,-2.895129,-6.452802,-7.386129
21563,0.091951,0.006176,-0.049576,-7e-06,-0.000962,-0.001157,0.072468,-0.0,-0.0,2.0,0.282024,0.285324,0.282024,0.278668,-24.878787,-118.020789,-42.416617,-2.448496,-4.726848,-7.553954
21583,0.091954,0.00606,-0.049693,-0.001071,-0.000962,-0.001157,0.073112,-0.0,-0.0,2.0,0.282024,0.285232,0.282024,0.278763,-25.908902,-118.247941,-43.393172,-1.519464,-3.277955,-7.71756
21603,0.091955,0.006055,-0.049571,-0.001065,-0.00106,-9.8e-05,0.073498,-0.0,-0.0,2.0,0.282024,0.285145,0.282024,0.278853,-26.136905,-118.561378,-43.608423,-0.31956,-2.372379,-7.877794
21623,0.091833,0.006052,-0.049571,-7e-06,-0.000962,-0.001157,0.074087,-0.0,-0.0,2.0,0.282024,0.283205,0.282024,0.280836,-26.203824,-118.880251,-43.720145,0.876511,-2.157967,-8.03597
21643,0.091832,0.006057,-0.049693,-0.001071,9.8e-05,-0.00106,0.074569,-0.0,-0.0,2.0,0.282024,0.283131,0.282024,0.280911,-26.1844,-119.208135,-43.801926,1.780282,-2.631432,-8.192619
21663,0.091954,0.00606,-0.049693,-1e-06,-0.00106,-9.8e-05,0.075078,-0.0,-0.0,2.0,0.282024,0.284784,0.282024,0.279225,-26.10881,-119.552228,-43.871451,2.166714,-3.636507,-8.347491
21683,0.091954,0.00606,-0.049693,-6e-06,9.8e-05,-0.00106,0.075386,-0.0,-0.0,2.0,0.282024,0.284806,0.282024,0.279202,-26.002136,-119.920497,-43.942072,1.934715,-4.897234,-8.500709
21703,0.092073,0.006185,-0.049698,-0.001071,-0.000962,-0.001158,0.075851,-0.0,-0.0,2.0,0.282024,0.284733,0.282024,0.279277,-25.870685,-120.317346,-44.042274,1.137794,-6.079682,-8.653816
21723,0.092195,0.006188,-0.049698,-1e-06,-0.00106,-9.8e-05,0.076258,-0.0,-0.0,2.0,0.282024,0.284706,0.282024,0.279305,-25.584665,-120.733281,-44.327005,-0.022063,-6.866791,-8.809487
21743,0.092198,0.006066,-0.049692,-6e-06,9.8e-05,-0.00106,0.07649,-0.0,-0.0,2.0,0.282024,0.284811,0.282024,0.279197,2.628366,-120.975746,-72.571016,-1.260039,-7.034389,-8.969856
21763,0.092442,0.006072,-0.049691,-1e-06,-0.00106,-9.8e-05,0.077228,-0.0,-0.0,2.0,0.282024,0.284663,0.282024,0.279349,-4.072371,-120.86367,-65.929473,-2.333456,-6.516714,-9.135029
21783,0.092564,0.006075,-0.049691,-0.001065,-0.00106,-9.8e-05,0.077447,-0.0,-0.0,2.0,0.282024,0.284656,0.282024,0.279356,-4.190372,-120.420995,-65.914575,-2.795541,-5.455963,-9.302639
21803,0.092564,0.006075,-0.049691,-6e-06,9.8e-05,-0.00106,0.077866,-0.0,-0.0,2.0,0.282024,0.284637,0.282024,0.279376,-4.295786,-119.996496,-65.919055,-2.436844,-4.189702,-9.468982
21823,0.092563,0.006081,-0.049813,-1e-06,-0.00106,-9.8e-05,0.078277,-0.0,-0.0,2.0,0.282024,0.284563,0.282024,0.279452,-4.380003,-119.586472,-65.91632,-1.367206,-3.138711,-9.631982
21843,0.092685,0.006084,-0.049812,-0.001065,-0.00106,-9.8e-05,0.078677,-0.0,-0.0,2.0,0.282024,0.284527,0.282024,0.279489,-4.413999,-119.181842,-65.906553,0.058364,-2.649676,-9.791802
21863,0.092685,0.006084,-0.049812,-6e-06,9.8e-05,-0.00106,0.078936,-0.0,-0.0,2.0,0.282024,0.284517,0.282024,0.279499,-4.384874,-118.773861,-65.889242,1.353604,-2.854402,-9.949237
21883,0.092804,0.006209,-0.049818,-1e-06,-0.00106,-9.9e-05,0.079238,-0.0,-0.0,2.0,0.282024,0.284479,0.282024,0.279538,-4.293931,-118.355318,-65.855691,2.073049,-3.609426,-10.104482
21903,0.092807,0.006087,-0.049812,-7e-06,-0.000961,-0.001158,0.079874,-0.0,-0.0,2.0,0.282024,0.284345,0.282024,0.279675,-4.064874,-117.921633,-65.702412,1.981653,-4.546097,-10.257919
21923,0.092807,0.006087,-0.049812,-6e-06,9.9e-05,-0.00106,0.080072,-0.0,-0.0,2.0,0.282024,0.284354,0.282024,0.279666,14.588368,-117.499082,-47.119035,1.167062,-5.221743,-10.411393
21943,0.092925,0.006217,-0.049939,-1e-06,-0.00106,-9.9e-05,0.080539,-0.0,-0.0,2.0,0.282024,0.282468,0.282024,0.281579,14.620213,-117.029562,-47.116713,-0.031946,-5.311326,-10.56747
21963,0.093051,0.006093,-0.049811,-0.001071,-0.000961,-0.001159,0.080886,-0.0,-0.0,2.0,0.282024,0.284267,0.282024,0.279755,14.593238,-116.557417,-47.131418,-1.129148,-4.741282,-10.727212
21983,0.093173,0.006096,-0.049811,-6e-06,9.9e-05,-0.00106,0.081056,-0.0,-0.0,2.0,0.282024,0.284281,0.282024,0.279741,14.534563,-116.092121,-47.154905,-1.688628,-3.731025,-10.889118
22003,0.0933,0.006105,-0.049942,-1e-06,-0.00106,-9.9e-05,0.081393,-0.0,-0.0,2.0,0.282024,0.284306,0.282024,0.279716,14.48027,-115.635641,-47.193877,-1.507206,-2.711819,-11.050755
22023,0.093425,0.005986,-0.049936,-7e-06,-0.00096,-0.001159,0.08174,-0.0,-0.0,2.0,0.282024,0.2843,0.282024,0.279721,14.487335,-115.183812,-47.273364,-0.708108,-2.151036,-11.210913
22043,0.093668,0.005992,-0.049935,-1e-06,-0.00106,-0.0001,0.082051,-0.0,-0.0,2.0,0.282024,0.284293,0.282024,0.279729,14.843726,-114.737091,-47.6591,0.299316,-2.335837,-11.369668
22063,0.09379,0.005995,-0.049934,-6e-06,0.0001,-0.00106,0.082344,-0.0,-0.0,2.0,0.282024,0.28433,0.282024,0.279691,-36.696293,-114.572656,3.901548,0.939113,-3.209323,-11.527068
22083,0.093912,0.005998,-0.049934,-7e-06,-0.00096,-0.001159,0.082605,-0.0,-0.0,2.0,0.282024,0.284353,0.282024,0.279668,-35.785415,-114.126923,3.025899,0.857211,-4.340537,-11.683353
22103,0.094277,0.006013,-0.050055,-1e-06,-0.001059,-0.0001,0.082764,-0.0,-0.0,2.0,0.282024,0.284441,0.282024,0.279577,-35.748358,-113.621239,3.010107,0.18173,-5.141768,-11.839959
22123,0.094399,0.006016,-0.050054,-6e-06,0.0001,-0.00106,0.083139,-0.0,-0.0,2.0,0.282024,0.284466,0.282024,0.279552,-35.749071,-113.101699,2.993268,-0.706154,-5.167323,-11.998786
22143,0.094765,0.006025,-0.050053,-1e-06,-0.001059,-0.000101,0.083441,-0.0,-0.0,2.0,0.282024,0.284509,0.282024,0.279507,-35.789271,-112.580817,2.982219,-1.270166,-4.351901,-12.159894
22163,0.095256,0.005915,-0.050046,-1e-06,-0.001059,-0.000101,0.083713,-0.0,-0.0,2.0,0.282024,0.284649,0.282024,0.279364,-35.832852,-112.067761,2.992021,-1.121202,-3.082266,-12.321159
22183,0.095621,0.005924,-0.050045,-6e-06,0.000102,-0.001059,0.083974,-0.0,-0.0,2.0,0.282024,0.286558,0.282024,0.277383,-35.658435,-111.564288,3.20772,-0.270751,-2.009924,-12.480857
22203,0.096114,0.005942,-0.050175,0.001064,-0.001059,-0.000102,0.084222,-0.0,-0.0,2.0,0.282024,0.286718,0.282024,0.277215,-35.977465,-111.162592,2.878619,0.866675,-1.693713,-12.639056
22223,0.096727,0.005836,-0.050167,0.001064,-0.001059,-0.000103,0.084359,-0.0,-0.0,2.0,0.282024,0.286958,0.282024,0.276963,-35.943263,-110.649333,2.86283,1.595894,-2.278023,-12.796078
22243,0.097336,0.005857,-0.050287,0.001058,0.000103,-0.001059,0.084486,-0.0,-0.0,2.0,0.282024,0.287223,0.282024,0.276684,-35.880451,-110.124031,2.860529,1.412712,-3.367959,-12.951899
22263,0.098067,0.005875,-0.050284,0.001064,-0.001059,-0.000104,0.084749,-0.0,-0.0,2.0,0.282024,0.287478,0.282024,0.276415,-35.838457,-109.582455,2.867726,0.348721,-4.255715,-13.107938
22283,0.098929,0.005781,-0.050406,0.001064,-0.001059,-0.000105,0.085029,-0.0,-0.0,2.0,0.282024,0.287729,0.282024,0.276148,-35.857914,-109.02784,2.889593,-1.009305,-4.355142,-13.266733
22303,0.099782,0.005802,-0.050403,0.001057,-0.000953,-0.001165,0.08518,-0.0,-0.0,2.0,0.282024,0.288075,0.282024,0.275781,-36.021049,-108.471148,3.004675,-1.833865,-3.587168,-13.428417
22323,0.100641,0.005824,-0.05041,0.002128,0.0,0.0,0.085402,-0.0,-0.0,2.0,0.282024,0.288398,0.282024,0.275436,-35.843687,-107.96042,2.765121,-1.582156,-2.472767,-13.590171
22343,0.101619,0.005732,-0.050522,0.001064,-0.001059,-0.000108,0.085587,-0.0,-0.0,2.0,0.282024,0.290546,0.282024,0.273115,-35.954867,-107.40908,2.841223,-0.365681,-1.815539,-13.750054
22363,0.102719,0.005638,-0.050512,0.002128,0.0,0.0,0.085769,-0.0,-0.0,2.0,0.282024,0.290981,0.282024,0.272638,-35.955849,-106.852043,2.861909,1.039072,-2.14498,-13.908181
22383,0.103825,0.00555,-0.050632,0.002128,0.0,0.0,0.085915,-0.0,-0.0,2.0,0.282024,0.291436,0.282024,0.272137,-35.900656,-106.284191,2.868473,1.665001,-3.269616,-14.064455
22403,0.105046,0.005459,-0.050621,0.002122,-0.000947,-0.00117,0.085915,-0.0,-0.0,2.0,0.282024,0.291994,0.282024,0.271519,-35.843244,-105.699974,2.863489,1.056536,-4.33052,-14.219484
22423,0.106274,0.005374,-0.050741,0.002128,-0.001058,-0.000113,0.086138,-0.0,-0.0,2.0,0.282024,0.292422,0.282024,0.271043,-36.143147,-105.101702,2.540548,-0.340141,-4.402559,-14.376383
22443,0.107252,0.005277,-0.05073,0.002123,0.000114,-0.001058,0.086345,-0.0,-0.0,2.0,0.282024,0.292919,0.282024,0.270488,-35.875781,-104.509237,2.841763,-1.445322,-3.242963,-14.536627
22463,0.108474,0.00543,-0.050741,0.002128,-0.001058,-0.000115,0.086434,-0.0,-0.0,2.0,0.282024,0.293369,0.282024,0.269982,-35.954916,-103.916398,2.808862,-1.354779,-1.59197,-14.697303
22483,0.109573,0.005342,-0.050852,0.001058,-0.000941,-0.001174,0.086581,-0.0,-0.0,2.0,0.282024,0.293879,0.282024,0.269405,-35.993004,-103.32588,2.763704,-0.091828,-0.705828,-14.856346
22503,0.110433,0.005364,-0.050857,0.001064,-0.001058,-0.000117,0.086698,-0.0,-0.0,2.0,0.282024,0.294336,0.282024,0.268886,-35.937028,-102.730796,2.696848,1.311548,-1.392873,-15.014422
22523,0.111286,0.005386,-0.050853,0.001064,-0.001058,-0.000118,0.086752,-0.0,-0.0,2.0,0.282024,0.293032,0.282024,0.270361,-35.629791,-102.126779,2.437011,1.582028,-3.256098,-15.170877
22543,0.112149,0.005286,-0.050852,0.001058,-0.000938,-0.001177,0.086847,-0.0,-0.0,2.0,0.282024,0.293462,0.282024,0.269876,-36.197078,-101.91547,3.051176,0.220102,-4.83658,-15.326567
22563,0.112882,0.005189,-0.050964,0.001064,0.0,0.0,0.086932,-0.0,-0.0,2.0,0.282024,0.293797,0.282024,0.269497,-35.856021,-101.280666,2.677718,-1.728703,-4.711792,-15.486498
22583,0.113492,0.005204,-0.050961,0.001064,-0.001057,-0.000121,0.086977,-0.0,-0.0,2.0,0.282024,0.294151,0.282024,0.269096,-35.936264,-100.637286,2.668718,-2.42348,-2.822969,-15.649938
22603,0.113857,0.005221,-0.051081,-1e-06,-0.001057,-0.000121,0.087071,-0.0,-0.0,2.0,0.282024,0.294487,0.282024,0.268714,-36.013283,-100.003845,2.690365,-0.986933,-0.748029,-15.810774
22623,0.114229,0.00523,-0.051088,-1e-06,-0.001057,-0.000121,0.087137,-0.0,-0.0,2.0,0.282024,0.29298,0.282024,0.270418,-35.949449,-99.371654,2.779826,1.558149,-0.41063,-15.969202
22643,0.114473,0.005236,-0.051087,-6e-06,-0.000936,-0.001179,0.087165,-0.0,-0.0,2.0,0.282024,0.293202,0.282024,0.270169,-37.3394,-98.798592,1.308115,2.948107,-2.25557,-16.126132
22663,0.114591,0.005368,-0.051215,-0.001065,-0.001057,-0.000122,0.087199,-0.0,-0.0,2.0,0.282024,0.293441,0.282024,0.269901,-35.894502,-98.27815,2.668238,1.75299,-4.599187,-16.279475
22683,0.114713,0.005371,-0.051215,-0.001065,-0.001057,-0.000122,0.087231,-0.0,-0.0,2.0,0.282024,0.293571,0.282024,0.269754,-35.848841,-97.595285,2.697857,-1.247517,-5.03134,-16.435952
22703,0.114716,0.00525,-0.051208,-6e-06,0.000122,-0.001057,0.087252,-0.0,-0.0,2.0,0.282024,0.292039,0.282024,0.271469,-35.935434,-96.912502,2.700157,-3.274853,-2.766116,-16.599711
22723,0.114716,0.00525,-0.051208,-0.00107,-0.000935,-0.001179,0.087264,-0.0,-0.0,2.0,0.282024,0.292189,0.282024,0.271302,-36.017954,-96.24346,2.642355,-2.145363,0.213881,-16.761047
22743,0.114594,0.005246,-0.051208,-0.001065,-0.001057,-0.000122,0.087265,-0.0,-0.0,2.0,0.282024,0.292289,0.282024,0.271192,-37.13699,-95.631322,3.718638,1.321371,0.745522,-16.919171
22763,0.114594,0.005246,-0.051208,-0.00107,0.000122,-0.001057,0.087261,-0.0,-0.0,2.0,0.282024,0.292441,0.282024,0.271022,-36.098133,-95.031517,2.747001,3.591705,-2.240094,-17.07697
22783,0.114594,0.005246,-0.051208,-1e-06,-0.001057,-0.000122,0.087243,-0.0,-0.0,2.0,0.282024,0.292611,0.282024,0.270833,-35.920053,-94.332707,2.65511,1.98939,-6.033923,-17.22816
22803,0.114594,0.005246,-0.051208,-6e-06,-0.000936,-0.001179,0.087223,-0.0,-0.0,2.0,0.282024,0.294496,0.282024,0.268703,-35.92321,-93.599825,2.550104,-2.245768,-6.438297,-17.384966
22823,0.114713,0.005371,-0.051215,0.0,0.0,0.0,0.087179,-0.0,-0.0,2.0,0.282024,0.294707,0.282024,0.268462,-36.248618,-92.881223,2.322005,-4.527312,-2.30856,-17.553251
22843,0.114713,0.005371,-0.051215,-1e-06,-0.001057,-0.000122,0.087155,-0.0,-0.0,2.0,0.282024,0.294858,0.282024,0.268289,-43.96559,-92.775233,-5.24366,-1.624146,2.404214,-17.712911
22863,0.114719,0.005128,-0.051201,-0.00107,-0.000935,-0.001179,0.087101,-0.0,-0.0,2.0,0.282024,0.293367,0.282024,0.269983,-45.670239,-93.288421,-6.981871,4.096225,2.211422,-17.872355
22883,0.114597,0.005125,-0.051201,-0.00107,0.000122,-0.001057,0.087036,-0.0,-0.0,2.0,0.282024,0.293455,0.282024,0.269884,-45.446999,-94.007935,-6.960189,5.946208,-3.525181,-18.031053
22903,0.114594,0.005246,-0.051208,-0.001065,-0.001057,-0.000122,0.086965,-0.0,-0.0,2.0,0.282024,0.293626,0.282024,0.269691,-45.276222,-94.764637,-6.867116,0.747573,-8.626902,-18.175316
22923,0.114475,0.005122,-0.051202,-0.00107,-0.000936,-0.001179,0.086917,-0.0,-0.0,2.0,0.282024,0.293797,0.282024,0.269498,-45.579772,-95.550712,-6.585518,-6.445469,-6.46061,-18.344036
22943,0.114475,0.005122,-0.051202,-6e-06,-0.000936,-0.001179,0.086848,-0.0,-0.0,2.0,0.282024,0.29394,0.282024,0.269336,-49.221551,-95.977375,-3.22927,-6.883539,1.653006,-18.517291
22963,0.114472,0.005243,-0.051209,-1e-06,-0.001057,-0.000122,0.086757,-0.0,-0.0,2.0,0.282024,0.294127,0.282024,0.269124,-38.275787,-95.614149,-14.327267,1.237265,6.22638,-18.667366
22983,0.114472,0.005243,-0.051209,-0.001065,-0.001057,-0.000122,0.086619,-0.0,-0.0,2.0,0.282024,0.296042,0.282024,0.266924,-36.204991,-95.162382,-16.242618,8.992128,0.294295,-18.837029
23003,0.114594,0.005246,-0.051208,-1e-06,-0.001057,-0.000122,0.086465,-0.0,-0.0,2.0,0.282024,0.296287,0.282024,0.266639,-35.790866,-94.386656,-16.352612,5.908305,-10.512681,-18.975739
23023,0.114594,0.005246,-0.051208,-0.00107,-0.000936,-0.001179,0.086401,-0.0,-0.0,2.0,0.282024,0.294766,0.282024,0.268395,-35.763905,-93.492995,-16.521203,-6.269324,-12.296537,-19.124749
23043,0.114472,0.005243,-0.051209,-0.00107,0.000122,-0.001057,0.086266,-0.0,-0.0,2.0,0.282024,0.296678,0.282024,0.266183,-36.795767,-92.676586,-17.219139,-12.377153,-0.196105,-19.327756
23063,0.114472,0.00525,-0.051331,-0.001065,-0.001057,-0.000122,0.086122,-0.0,-0.0,2.0,0.282024,0.295127,0.282024,0.267981,-995.66956,-92.562968,-975.679884,-4.138077,13.194335,-19.45633
23083,0.114357,0.004997,-0.051196,-0.00107,-0.000936,-0.001179,0.085945,-0.0,-0.0,2.0,0.282024,0.295351,0.282024,0.267723,-996.225181,-92.558105,-976.368758,15.120843,9.467942,-19.641398
23103,0.114232,0.005115,-0.051203,-0.00107,-0.000936,-0.001179,0.085945,-0.0,-0.0,2.0,0.282024,0.297128,0.282024,0.265655,-996.972228,-91.977669,-977.850156,17.094606,-12.555258,-19.813247
23123,0.114353,0.005125,-0.051324,-6e-06,-0.000936,-0.001179,0.085662,-0.0,-0.0,2.0,0.282024,0.295686,0.282024,0.267336,-996.551786,-90.870849,-977.801793,-6.184112,-24.388485,-19.878568
23143,0.114231,0.005122,-0.051325,-0.001064,0.0,0.0,0.085431,-0.0,-0.0,2.0,0.282024,0.297618,0.282024,0.265078,-997.203611,-89.747348,-977.769296,-26.156725,-5.07141,-20.1977
23163,0.114354,0.005118,-0.051203,-1e-06,-0.001057,-0.000121,0.085328,-0.0,-0.0,2.0,0.282024,0.297857,0.282024,0.264795,-995.24076,-89.398837,-980.645185,-10.749246,24.445158,-20.274144
23183,0.114354,0.005118,-0.051203,-6e-06,-0.000936,-0.001179,0.085151,-0.0,-0.0,2.0,0.282024,0.296386,0.282024,0.266524,-994.967589,-90.720904,-980.764173,25.883377,19.882791,-20.485577
23203,0.114228,0.005244,-0.051332,-0.00107,0.000121,-0.001057,0.084938,-0.0,-0.0,2.0,0.282024,0.296632,0.282024,0.266237,-993.714749,-91.67375,-980.762258,31.126604,-21.93182,-20.725197
23223,0.114353,0.005125,-0.051324,-0.001065,-0.001057,-0.000121,0.084714,-0.0,-0.0,2.0,0.282024,0.296822,0.282024,0.266014,-993.142844,-93.273812,-980.916433,-13.811554,-43.387632,-20.600484
23243,0.114234,0.005001,-0.051318,-0.001065,-0.001057,-0.000121,0.084481,-0.0,-0.0,2.0,0.282024,0.297069,0.282024,0.265725,-994.426399,-94.810281,-980.749727,-49.597408,-2.125701,-21.286573
23263,0.113988,0.005109,-0.051204,-0.00107,-0.000936,-0.001178,0.084359,-0.0,-0.0,2.0,0.282024,0.29724,0.282024,0.265524,-997.565062,-96.068585,-979.201876,-11.346214,53.077028,-20.997597
23283,0.113984,0.005238,-0.051333,-0.00107,-0.000936,-0.001178,0.084153,-0.0,-0.0,2.0,0.282024,0.297433,0.282024,0.265296,-1001.124841,-97.467792,-974.964107,59.058776,30.081924,-21.640775
23303,0.113988,0.005116,-0.051326,0.0,0.0,0.0,0.08381,-0.0,-0.0,2.0,0.282024,0.299405,0.282024,0.262945,-998.164898,-98.648086,-974.273154,47.882291,-59.244769,-21.67499
23323,0.113988,0.005116,-0.051326,-1e-06,-0.001057,-0.000121,0.083602,-0.0,-0.0,2.0,0.282024,0.297908,0.282024,0.264735,-995.95547,-98.338569,-971.915942,-54.187498,-74.865421,-21.464902
23343,0.113988,0.005109,-0.051204,-0.00107,-0.000936,-0.001178,0.083253,-0.0,-0.0,2.0,0.282024,0.299925,0.282024,0.262316,-999.604465,-96.64984,-971.389,-94.11626,40.400207,-23.209877
23363,0.113988,0.005116,-0.051326,-6e-06,-0.000936,-0.001178,0.082974,-0.0,-0.0,2.0,0.282024,0.300201,0.282024,0.26198,-1003.027428,-98.654503,-971.215846,34.172452,118.65326,-21.222446
23383,0.114106,0.005248,-0.051454,0.0,0.0,0.0,0.082828,-0.0,-0.0,2.0,0.282024,0.298744,0.282024,0.263739,-1005.881053,-99.249813,-977.925676,147.634528,-9.427298,-25.305663
23403,0.113987,0.005123,-0.051448,-0.001064,0.0,0.0,0.082527,-0.0,-0.0,2.0,0.282024,0.299058,0.282024,0.263362,-1003.29516,-100.782593,-982.384602,-1.800241,-182.410026,-20.583854
23423,0.113988,0.005116,-0.051326,-0.001065,-0.001057,-0.000121,0.082168,-0.0,-0.0,2.0,0.282024,0.299315,0.282024,0.263054,-1009.622458,-99.008297,-987.43547,-211.588301,-52.679226,-28.24518
23443,0.113866,0.005113,-0.051327,-0.00107,-0.000936,-0.001178,0.081917,-0.0,-0.0,2.0,0.282024,0.299544,0.282024,0.262778,-1025.97538,-98.319302,-997.187994,-23.707024,283.584335,-20.133323
23463,0.113612,0.005228,-0.051325,-0.00107,0.000121,-0.001057,0.081621,-0.0,-0.0,2.0,0.282024,0.299776,0.282024,0.262497,-952.004977,-100.12106,-926.77556,335.873646,105.515342,-36.314636
23483,0.11349,0.005232,-0.051448,-0.001064,0.0,0.0,0.081348,-0.0,-0.0,2.0,0.282024,0.299952,0.282024,0.262284,-931.052576,-99.24011,-935.992823,-75.727935,-553.977768,-13.32709
23503,0.113368,0.005222,-0.051326,-0.001065,-0.001057,-0.00012,0.080992,-0.0,-0.0,2.0,0.282024,0.300209,0.282024,0.261971,-898.590217,-93.206055,-906.126214,-850.572717,272.20403,-84.898012
23523,0.113125,0.005216,-0.051328,-0.00107,-0.000937,-0.001178,0.080527,-0.0,-0.0,2.0,0.282024,0.300515,0.282024,0.261597,-831.375417,-84.03686,-822.257829,4681.779171,3363.595333,18.844397
23543,0.113125,0.005216,-0.051328,-0.00107,-0.000937,-0.001178,0.080341,-0.0,-0.0,2.0,0.282024,0.300716,0.282024,0.261353,-122120.476941,136329.583076,-45619.503402,676541894204.5822,-449667040246.3613,-17718521685.364513
23563,0.113002,0.00522,-0.05145,0.0,0.0,0.0,0.07998,-0.0,-0.0,2.0,0.282024,0.30102,0.282024,0.260979,-8.290108954849634e+70,1.1648049268497316e+70,-8.276951866813053e+70,2.128590604438762e+143,-1.4147786530603778e+143,-5.574743992833805e+141
23583,0.113128,0.005094,-0.051321,-0.001064,0.0,0.0,0.079418,-0.0,-0.0,2.0,0.282024,0.303003,0.282024,0.258514,,,,,,
23603,0.11325,0.005097,-0.05132,-1e-06,-0.001057,-0.00012,0.079418,-0.0,-0.0,2.0,0.282024,0.303225,0.282024,0.258235,,,,,,
23623,0.11325,0.005097,-0.05132,-6e-06,-0.000937,-0.001178,0.078912,-0.0,-0.0,2.0,0.282024,0.303637,0.282024,0.257713,,,,,,
23643,0.113249,0.005104,-0.051442,-0.001065,-0.001057,-0.00012,0.078665,-0.0,-0.0,2.0,0.282024,0.303908,0.282024,0.257369,,,,,,
23663,0.113249,0.005104,-0.051442,-0.001064,0.0,0.0,0.078132,-0.0,-0.0,2.0,0.282024,0.302625,0.282024,0.258988,,,,,,
23683,0.113128,0.005094,-0.051321,-0.001064,0.0,0.0,0.077782,-0.0,-0.0,2.0,0.282024,0.302892,0.282024,0.258653,,,,,,
23703,0.112881,0.00521,-0.051329,-0.00107,-0.000938,-0.001177,0.077328,-0.0,-0.0,2.0,0.282024,0.303119,0.282024,0.258367,,,,,,
23723,0.11264,0.005089,-0.051445,-0.00107,-0.000938,-0.001177,0.076876,-0.0,-0.0,2.0,0.282024,0.303469,0.282024,0.257927,,,,,,
23743,0.112518,0.005085,-0.051445,-0.001065,-0.001057,-0.000119,0.076434,-0.0,-0.0,2.0,0.282024,0.303774,0.282024,0.25754,,,,,,
23763,0.112515,0.005207,-0.051452,-0.001065,-0.001057,-0.000119,0.075968,-0.0,-0.0,2.0,0.282024,0.304078,0.282024,0.257153,,,,,,
23783,0.11239,0.005319,-0.051338,-0.00107,0.000119,-0.001058,0.075608,-0.0,-0.0,2.0,0.282024,0.304399,0.282024,0.256743,,,,,,
23803,0.112393,0.005204,-0.051453,-0.00107,0.000119,-0.001058,0.075162,-0.0,-0.0,2.0,0.282024,0.306347,0.282024,0.254222,,,,,,
23823,0.112393,0.005204,-0.051453,-0.001065,-0.001058,-0.000119,0.074795,-0.0,-0.0,2.0,0.282024,0.305,0.282024,0.255972,,,,,,
23843,0.112153,0.005076,-0.051447,-0.001065,-0.001058,-0.000119,0.07416,-0.0,-0.0,2.0,0.282024,0.305413,0.282024,0.255439,,,,,,
23863,0.112153,0.005069,-0.051325,-0.001065,-0.001058,-0.000119,0.073871,-0.0,-0.0,2.0,0.282024,0.305674,0.282024,0.2551,,,,,,
23883,0.112028,0.005188,-0.051333,-0.00107,-0.000939,-0.001177,0.073365,-0.0,-0.0,2.0,0.282024,0.306018,0.282024,0.254652,,,,,,
23903,0.111659,0.005301,-0.051341,-0.00107,0.000119,-0.001058,0.072828,-0.0,-0.0,2.0,0.282024,0.306323,0.282024,0.254254,,,,,,
23923,0.111663,0.005179,-0.051334,-0.001064,0.0,0.0,0.072293,-0.0,-0.0,2.0,0.282024,0.306672,0.282024,0.253796,,,,,,
23943,0.111412,0.005172,-0.051326,-0.001064,0.0,0.0,0.071999,-0.0,-0.0,2.0,0.282024,0.306884,0.282024,0.253517,,,,,,
23963,0.110925,0.00516,-0.051328,-0.001065,-0.001058,-0.000118,0.071711,-0.0,-0.0,2.0,0.282024,0.305438,0.282024,0.255406,,,,,,
23983,0.110556,0.005272,-0.051337,-0.00107,-0.00094,-0.001175,0.071081,-0.0,-0.0,2.0,0.282024,0.307362,0.282024,0.252885,,,,,,
24003,0.110072,0.005138,-0.051332,-0.002134,-0.000941,-0.001175,0.070366,-0.0,-0.0,2.0,0.282024,0.307656,0.282024,0.252494,,,,,,
24023,0.109459,0.005244,-0.051342,-0.002129,-0.001058,-0.000116,0.06995,-0.0,-0.0,2.0,0.282024,0.306177,0.282024,0.254445,,,,,,
24043,0.10884,0.00535,-0.051341,-0.002135,-0.000942,-0.001174,0.069331,-0.0,-0.0,2.0,0.282024,0.306384,0.282024,0.254174,,,,,,
24063,0.10811,0.005325,-0.051223,-0.002134,0.000115,-0.001058,0.068769,-0.0,-0.0,2.0,0.282024,0.306576,0.282024,0.253922,,,,,,
24083,0.107257,0.005304,-0.051227,-0.002128,0.0,0.0,0.068187,-0.0,-0.0,2.0,0.282024,0.306636,0.282024,0.253843,,,,,,
24103,0.106397,0.005281,-0.051221,-0.003198,0.000113,-0.001058,0.067899,-0.0,-0.0,2.0,0.282024,0.305056,0.282024,0.2559,,,,,,
24123,0.105422,0.005257,-0.051225,-0.003199,-0.000946,-0.00117,0.067176,-0.0,-0.0,2.0,0.282024,0.30518,0.282024,0.25574,,,,,,
24143,0.10432,0.005222,-0.051098,-0.003193,-0.001058,-0.000111,0.066518,-0.0,-0.0,2.0,0.282024,0.305219,0.282024,0.25569,,,,,,
24163,0.103101,0.005191,-0.051103,-0.003199,-0.000949,-0.001168,0.066166,-0.0,-0.0,2.0,0.282024,0.305155,0.282024,0.255772,,,,,,
24183,0.101873,0.005282,-0.051105,-0.003193,-0.001059,-0.000108,0.065583,-0.0,-0.0,2.0,0.282024,0.305127,0.282024,0.255808,,,,,,
24203,0.100533,0.005242,-0.050988,-0.003199,-0.000952,-0.001166,0.065274,-0.0,-0.0,2.0,0.282024,0.304954,0.282024,0.256031,,,,,,
24223,0.099061,0.00532,-0.050869,-0.003198,0.000105,-0.001059,0.064337,-0.0,-0.0,2.0,0.282024,0.303322,0.282024,0.258112,,,,,,
24243,0.097589,0.005405,-0.050871,-0.004263,0.000104,-0.001059,0.063697,-0.0,-0.0,2.0,0.282024,0.304857,0.282024,0.256156,,,,,,
24263,0.09613,0.005246,-0.05087,-0.004257,0.0,0.0,0.063066,-0.0,-0.0,2.0,0.282024,0.303098,0.282024,0.258395,,,,,,
24283,0.094415,0.005319,-0.05075,-0.004257,-0.001059,-0.0001,0.062336,-0.0,-0.0,2.0,0.282024,0.302916,0.282024,0.258623,,,,,,
24303,0.092821,0.005401,-0.050752,-0.004257,-0.00106,-9.9e-05,0.061817,-0.0,-0.0,2.0,0.282024,0.302709,0.282024,0.258883,,,,,,
24323,0.091115,0.005358,-0.050757,-0.004263,-0.000963,-0.001157,0.061254,-0.0,-0.0,2.0,0.282024,0.30252,0.282024,0.25912,,,,,,
24343,0.089278,0.005428,-0.050637,-0.004263,-0.000965,-0.001155,0.060685,-0.0,-0.0,2.0,0.282024,0.302229,0.282024,0.259483,,,,,,
24363,0.087568,0.005507,-0.050648,-0.004263,9.3e-05,-0.00106,0.060284,-0.0,-0.0,2.0,0.282024,0.301906,0.282024,0.259885,,,,,,
24383,0.085853,0.00558,-0.050527,-0.004263,9.1e-05,-0.00106,0.059321,-0.0,-0.0,2.0,0.282024,0.301787,0.282024,0.260033,,,,,,
24403,0.084138,0.005659,-0.050527,-0.004257,0.0,0.0,0.058644,-0.0,-0.0,2.0,0.282024,0.301524,0.282024,0.260358,,,,,,
24423,0.082431,0.005616,-0.050531,-0.004263,-0.000973,-0.001148,0.057944,-0.0,-0.0,2.0,0.282024,0.301336,0.282024,0.26059,,,,,,
24443,0.080838,0.005693,-0.050409,-0.004263,-0.000975,-0.001147,0.057249,-0.0,-0.0,2.0,0.282024,0.301113,0.282024,0.260865,,,,,,
24463,0.07925,0.005776,-0.050417,-0.004257,-0.001061,-8.4e-05,0.056775,-0.0,-0.0,2.0,0.282024,0.300832,0.282024,0.26121,,,,,,
24483,0.07766,0.005731,-0.050289,-0.004263,-0.000978,-0.001144,0.056226,-0.0,-0.0,2.0,0.282024,0.30058,0.282024,0.261518,,,,,,
24503,0.076069,0.005935,-0.050302,-0.004264,-0.00098,-0.001142,0.055289,-0.0,-0.0,2.0,0.282024,0.302135,0.282024,0.2596,,,,,,
24523,0.074602,0.005894,-0.050173,-0.003199,7.9e-05,-0.001061,0.054884,-0.0,-0.0,2.0,0.282024,0.300192,0.282024,0.261991,,,,,,
24543,0.073016,0.005855,-0.050176,-0.003193,0.0,0.0,0.054335,-0.0,-0.0,2.0,0.282024,0.299935,0.282024,0.262304,,,,,,
24563,0.071667,0.005943,-0.050173,-0.003193,-0.001061,-7.6e-05,0.053583,-0.0,-0.0,2.0,0.282024,0.299814,0.282024,0.262451,,,,,,
24583,0.070201,0.006024,-0.050058,-0.0032,-0.000987,-0.001136,0.052555,-0.0,-0.0,2.0,0.282024,0.301424,0.282024,0.260481,,,,,,
24603,0.068856,0.005986,-0.049929,-0.003199,-0.000988,-0.001135,0.052144,-0.0,-0.0,2.0,0.282024,0.301151,0.282024,0.260818,,,,,,
24623,0.06763,0.0062,-0.049939,-0.0032,-0.00099,-0.001134,0.051399,-0.0,-0.0,2.0,0.282024,0.301072,0.282024,0.260915,,,,,,
24643,0.066288,0.006167,-0.04994,-0.003199,7e-05,-0.001062,0.050636,-0.0,-0.0,2.0,0.282024,0.300995,0.282024,0.26101,,,,,,
24663,0.065062,0.006254,-0.049815,-0.003193,-0.001062,-6.9e-05,0.049773,-0.0,-0.0,2.0,0.282024,0.300896,0.282024,0.261131,,,,,,
24683,0.063843,0.00622,-0.049694,-0.0032,-0.000994,-0.00113,0.049197,-0.0,-0.0,2.0,0.282024,0.300793,0.282024,0.261258,,,,,,
24703,0.062501,0.006187,-0.049695,-0.0032,-0.000996,-0.001129,0.048746,-0.0,-0.0,2.0,0.282024,0.300607,0.282024,0.261485,,,,,,
24723,0.061271,0.006401,-0.049694,-0.003199,6.5e-05,-0.001062,0.048132,-0.0,-0.0,2.0,0.282024,0.300376,0.282024,0.261768,,,,,,
24743,0.060174,0.006374,-0.049695,-0.003193,0.0,0.0,0.046768,-0.0,-0.0,2.0,0.282024,0.300577,0.282024,0.261521,,,,,,
24763,0.059076,0.006343,-0.049574,-0.003193,-0.001062,-6.3e-05,0.046329,-0.0,-0.0,2.0,0.282024,0.300369,0.282024,0.261776,,,,,,
24783,0.05785,0.006435,-0.049569,-0.0032,-0.001001,-0.001124,0.045523,-0.0,-0.0,2.0,0.282024,0.300289,0.282024,0.261873,,,,,,
24803,0.05663,0.006401,-0.049447,-0.0032,-0.001002,-0.001123,0.044714,-0.0,-0.0,2.0,0.282024,0.300252,0.282024,0.261918,,,,,,
24823,0.055533,0.006374,-0.049448,-0.0032,-0.001004,-0.001122,0.043905,-0.0,-0.0,2.0,0.282024,0.300226,0.282024,0.261951,,,,,,
24843,0.054429,0.006591,-0.049454,-0.003193,0.0,0.0,0.043382,-0.0,-0.0,2.0,0.282024,0.300026,0.282024,0.262193,,,,,,
24863,0.053328,0.006561,-0.049324,-0.003193,-0.001063,-5.7e-05,0.042725,-0.0,-0.0,2.0,0.282024,0.299926,0.282024,0.262315,,,,,,
24883,0.052227,0.006656,-0.049327,-0.0032,-0.001007,-0.001118,0.041499,-0.0,-0.0,2.0,0.282024,0.300085,0.282024,0.262121,,,,,,
24903,0.051129,0.006629,-0.049327,-0.0032,-0.001008,-0.001117,0.040806,-0.0,-0.0,2.0,0.282024,0.299988,0.282024,0.262239,,,,,,
24923,0.049909,0.006596,-0.049205,-0.003193,-0.001063,-5.3e-05,0.040247,-0.0,-0.0,2.0,0.282024,0.299818,0.282024,0.262446,,,,,,
24943,0.048802,0.006813,-0.049201,-0.003193,-0.001063,-5.2e-05,0.039295,-0.0,-0.0,2.0,0.282024,0.299763,0.282024,0.262513,,,,,,
24963,0.047705,0.006783,-0.049079,-0.0032,5.1e-05,-0.001063,0.038434,-0.0,-0.0,2.0,0.282024,0.299729,0.282024,0.262553,,,,,,
24983,0.046366,0.006629,-0.049075,-0.0032,4.9e-05,-0.001063,0.037601,-0.0,-0.0,2.0,0.282024,0.299608,0.282024,0.262699,,,,,,
25003,0.045021,0.006718,-0.049077,-0.003193,-0.001063,-4.8e-05,0.037186,-0.0,-0.0,2.0,0.282024,0.299367,0.282024,0.262991,,,,,,
25023,0.043677,0.006682,-0.048946,-0.004264,-0.001017,-0.00111,0.036111,-0.0,-0.0,2.0,0.282024,0.299302,0.282024,0.263069,,,,,,
25043,0.042207,0.006891,-0.04895,-0.003193,-0.001063,-4.5e-05,0.036111,-0.0,-0.0,2.0,0.282024,0.297079,0.282024,0.265713,,,,,,
25063,0.040618,0.006972,-0.048829,-0.004265,-0.00102,-0.001107,0.035058,-0.0,-0.0,2.0,0.282024,0.297008,0.282024,0.265797,,,,,,
25083,0.039032,0.006933,-0.048827,-0.004265,-0.001022,-0.001105,0.033788,-0.0,-0.0,2.0,0.282024,0.296891,0.282024,0.265933,,,,,,
25103,0.037318,0.007013,-0.048819,-0.004257,-0.001063,-4e-05,0.033164,-0.0,-0.0,2.0,0.282024,0.296556,0.282024,0.266326,,,,,,
25123,0.035485,0.007089,-0.048697,-0.005329,-0.001026,-0.001101,0.032152,-0.0,-0.0,2.0,0.282024,0.29628,0.282024,0.266647,,,,,,
25143,0.033652,0.007167,-0.048696,-0.005329,-0.001028,-0.001099,0.031299,-0.0,-0.0,2.0,0.282024,0.295909,0.282024,0.267078,,,,,,
25163,0.031573,0.007236,-0.048564,-0.005329,-0.00103,-0.001097,0.030397,-0.0,-0.0,2.0,0.282024,0.29381,0.282024,0.269483,,,,,,
25183,0.029377,0.007183,-0.04856,-0.005329,-0.001033,-0.001095,0.029939,-0.0,-0.0,2.0,0.282024,0.293227,0.282024,0.270141,,,,,,
25203,0.027178,0.00725,-0.048436,-0.005321,-0.001064,-2.9e-05,0.029122,-0.0,-0.0,2.0,0.282024,0.2927,0.282024,0.270733,,,,,,
25223,0.024982,0.007196,-0.04831,-0.005321,-0.001064,-2.7e-05,0.028317,-0.0,-0.0,2.0,0.282024,0.292125,0.282024,0.271374,,,,,,
25243,0.022535,0.00738,-0.048177,-0.005329,-0.00104,-0.001088,0.027767,-0.0,-0.0,2.0,0.282024,0.291442,0.282024,0.27213,,,,,,
25263,0.020213,0.007446,-0.048172,-0.005329,-0.001042,-0.001086,0.0266,-0.0,-0.0,2.0,0.282024,0.290936,0.282024,0.272687,,,,,,
25283,0.017773,0.007385,-0.047922,-0.005329,-0.001045,-0.001083,0.025853,-0.0,-0.0,2.0,0.282024,0.29031,0.282024,0.273372,,,,,,
25303,0.01533,0.007448,-0.047795,-0.006385,0.0,0.0,0.02493,-0.0,-0.0,2.0,0.282024,0.289692,0.282024,0.274044,,,,,,
25323,0.012887,0.007511,-0.047667,-0.005329,-0.00105,-0.001078,0.024047,-0.0,-0.0,2.0,0.282024,0.28905,0.282024,0.274737,,,,,,
25343,0.010572,0.007332,-0.047406,-0.005329,-0.001053,-0.001075,0.023143,-0.0,-0.0,2.0,0.282024,0.288463,0.282024,0.275366,,,,,,
25363,0.008128,0.007397,-0.047399,-0.005329,9e-06,-0.001064,0.022222,-0.0,-0.0,2.0,0.282024,0.287802,0.282024,0.27607,,,,,,
25383,0.00581,0.007341,-0.047148,-0.005321,-0.001064,-6e-06,0.022222,-0.0,-0.0,2.0,0.282024,0.286835,0.282024,0.277092,,,,,,
25403,0.003492,0.007286,-0.046896,-0.005329,-0.001061,-0.001068,0.020514,-0.0,-0.0,2.0,0.282024,0.286508,0.282024,0.277436,,,,,,
25423,0.001293,0.007357,-0.046767,-0.005329,-0.001063,-0.001066,0.01979,-0.0,-0.0,2.0,0.282024,0.285811,0.282024,0.278162,,,,,,
25443,-0.000903,0.007305,-0.046637,-0.005329,-0.001065,-0.001063,0.019224,-0.0,-0.0,2.0,0.282024,0.28511,0.282024,0.278889,,,,,,
25463,-0.002977,0.007257,-0.046385,-0.005329,-0.001067,-0.001061,0.017864,-0.0,-0.0,2.0,0.282024,0.284672,0.282024,0.27934,,,,,,
25483,-0.005054,0.007332,-0.046255,-0.005329,-0.00107,-0.001059,0.017366,-0.0,-0.0,2.0,0.282024,0.283891,0.282024,0.280139,,,,,,
25503,-0.00725,0.007282,-0.046003,-0.005329,-8e-06,-0.001064,0.016461,-0.0,-0.0,2.0,0.282024,0.283319,0.282024,0.280721,,,,,,
25523,-0.009324,0.007234,-0.045872,-0.005329,-0.001074,-0.001054,0.015548,-0.0,-0.0,2.0,0.282024,0.282715,0.282024,0.281331,,,,,,
25543,-0.011398,0.007187,-0.045742,-0.005329,-1.2e-05,-0.001064,0.014498,-0.0,-0.0,2.0,0.282024,0.28217,0.282024,0.281878,,,,,,
25563,-0.013472,0.007141,-0.045489,-0.005329,-1.4e-05,-0.001064,0.014498,-0.0,-0.0,2.0,0.282024,0.281202,0.282024,0.282843,,,,,,
25583,-0.015543,0.006973,-0.045359,-0.005328,-0.001081,-0.001048,0.0129,-0.0,-0.0,2.0,0.282024,0.282728,0.282024,0.281318,,,,,,
25603,-0.017374,0.006932,-0.045229,-0.004264,-0.001083,-0.001046,0.012141,-0.0,-0.0,2.0,0.282024,0.280262,0.282024,0.283771,,,,,,
25623,-0.019326,0.006891,-0.044985,-0.004257,-0.001064,2.1e-05,0.010929,-0.0,-0.0,2.0,0.282024,0.281634,0.282024,0.282413,,,,,,
25643,-0.021037,0.006977,-0.044732,-0.004264,-0.001086,-0.001042,0.010327,-0.0,-0.0,2.0,0.282024,0.280971,0.282024,0.283072,,,,,,
25663,-0.022745,0.006941,-0.04448,-0.004264,-0.001088,-0.00104,0.009385,-0.0,-0.0,2.0,0.282024,0.280532,0.282024,0.283505,,,,,,
25683,-0.024452,0.006906,-0.044228,-0.004264,-2.6e-05,-0.001064,0.008473,-0.0,-0.0,2.0,0.282024,0.27998,0.282024,0.284047,,,,,,
25703,-0.02616,0.006871,-0.043976,-0.004264,-2.8e-05,-0.001064,0.007535,-0.0,-0.0,2.0,0.282024,0.279529,0.282024,0.284488,,,,,,
25723,-0.027743,0.006717,-0.043726,-0.004264,-3e-05,-0.001064,0.006958,-0.0,-0.0,2.0,0.282024,0.278927,0.282024,0.285073,,,,,,
25743,-0.029328,0.006688,-0.043352,-0.0032,-3.1e-05,-0.001064,0.005982,-0.0,-0.0,2.0,0.282024,0.27843,0.282024,0.285553,,,,,,
25763,-0.030911,0.006535,-0.043102,-0.004264,-3.3e-05,-0.001064,0.005095,-0.0,-0.0,2.0,0.282024,0.277941,0.282024,0.286024,,,,,,
25783,-0.03238,0.00663,-0.042857,-0.004264,-3.4e-05,-0.001064,0.004356,-0.0,-0.0,2.0,0.282024,0.279296,0.282024,0.284715,,,,,,
25803,-0.033962,0.00648,-0.042485,-0.0032,-3.6e-05,-0.001064,0.003151,-0.0,-0.0,2.0,0.282024,0.278927,0.282024,0.285073,,,,,,
25823,-0.035423,0.006333,-0.042114,-0.003199,-0.001101,-0.001026,0.002578,-0.0,-0.0,2.0,0.282024,0.27648,0.282024,0.287415,,,,,,
25843,-0.036887,0.006306,-0.041863,-0.00427,-7.8e-05,-0.002127,0.001564,-0.0,-0.0,2.0,0.282024,0.277946,0.282024,0.286019,,,,,,
25863,-0.038231,0.006404,-0.04161,-0.003199,-4.1e-05,-0.001063,0.000639,-0.0,-0.0,2.0,0.282024,0.277501,0.282024,0.286445,,,,,,
25883,-0.039572,0.006383,-0.041237,-0.003199,-0.001105,-0.001021,-0.000279,-0.0,-0.0,2.0,0.282024,0.277134,0.282024,0.286795,,,,,,
25903,-0.040792,0.006363,-0.040987,-0.003206,-8.7e-05,-0.002127,-0.000898,-0.0,-0.0,2.0,0.282024,0.276667,0.282024,0.287239,,,,,,
25923,-0.042014,0.006343,-0.040744,-0.003199,-4.5e-05,-0.001063,-0.001399,-0.0,-0.0,2.0,0.282024,0.276086,0.282024,0.287787,,,,,,
25943,-0.043231,0.006204,-0.040374,-0.003199,-0.001109,-0.001017,-0.002694,-0.0,-0.0,2.0,0.282024,0.275872,0.282024,0.287989,,,,,,
25963,-0.044206,0.006192,-0.040003,-0.003199,-4.7e-05,-0.001063,-0.003232,-0.0,-0.0,2.0,0.282024,0.275451,0.282024,0.288384,,,,,,
25983,-0.045179,0.006056,-0.039757,-0.003199,-4.8e-05,-0.001063,-0.004521,-0.0,-0.0,2.0,0.282024,0.277214,0.282024,0.286719,,,,,,
26003,-0.046152,0.00592,-0.039511,-0.002135,-4.9e-05,-0.001063,-0.005198,-0.0,-0.0,2.0,0.282024,0.276852,0.282024,0.287063,,,,,,
26023,-0.046883,0.005911,-0.039263,-0.002134,-0.001113,-0.001013,-0.006221,-0.0,-0.0,2.0,0.282024,0.276675,0.282024,0.287231,,,,,,
26043,-0.047613,0.00578,-0.039018,-0.002135,-5.1e-05,-0.001063,-0.007162,-0.0,-0.0,2.0,0.282024,0.276566,0.282024,0.287335,,,,,,
26063,-0.048342,0.00565,-0.038774,-0.002134,-5.1e-05,-0.001063,-0.008073,-0.0,-0.0,2.0,0.282024,0.276347,0.282024,0.287541,,,,,,
26083,-0.048956,0.005766,-0.038531,-0.002134,-0.001115,-0.001011,-0.009104,-0.0,-0.0,2.0,0.282024,0.276326,0.282024,0.287562,,,,,,
26103,-0.049442,0.005641,-0.038287,-0.002134,-5.3e-05,-0.001063,-0.009104,-0.0,-0.0,2.0,0.282024,0.277713,0.282024,0.286243,,,,,,
26123,-0.049929,0.005637,-0.038041,-0.00107,-5.3e-05,-0.001063,-0.010699,-0.0,-0.0,2.0,0.282024,0.277919,0.282024,0.286045,,,,,,
26143,-0.050415,0.005509,-0.037919,-0.00107,-0.001117,-0.001009,-0.011375,-0.0,-0.0,2.0,0.282024,0.277761,0.282024,0.286196,,,,,,
26163,-0.05078,0.005508,-0.037674,-0.00107,-0.001117,-0.001009,-0.012391,-0.0,-0.0,2.0,0.282024,0.27779,0.282024,0.286169,,,,,,
26183,-0.051024,0.005507,-0.037551,-0.00107,-0.001117,-0.001009,-0.01315,-0.0,-0.0,2.0,0.282024,0.277719,0.282024,0.286237,,,,,,
26203,-0.051387,0.005381,-0.03743,-0.00107,-5.5e-05,-0.001063,-0.014145,-0.0,-0.0,2.0,0.282024,0.277795,0.282024,0.286164,,,,,,
26223,-0.051631,0.005379,-0.037307,-0.001064,-0.001063,5.5e-05,-0.015057,-0.0,-0.0,2.0,0.282024,0.277843,0.282024,0.286118,,,,,,
26243,-0.051997,0.005376,-0.037183,-0.00107,-0.001118,-0.001007,-0.015964,-0.0,-0.0,2.0,0.282024,0.277842,0.282024,0.286119,,,,,,
26263,-0.052365,0.005491,-0.037178,-0.00107,-5.6e-05,-0.001063,-0.016432,-0.0,-0.0,2.0,0.282024,0.277726,0.282024,0.28623,,,,,,
26283,-0.052609,0.005486,-0.037177,-0.001064,-0.001063,5.6e-05,-0.017698,-0.0,-0.0,2.0,0.282024,0.277865,0.282024,0.286097,,,,,,
26303,-0.052851,0.005363,-0.037057,-0.001064,-0.001063,5.6e-05,-0.018211,-0.0,-0.0,2.0,0.282024,0.277715,0.282024,0.28624,,,,,,
26323,-0.053341,0.005476,-0.037051,-0.00107,-5.7e-05,-0.001063,-0.019449,-0.0,-0.0,2.0,0.282024,0.27787,0.282024,0.286092,,,,,,
26343,-0.053585,0.005468,-0.037171,-0.001064,0.0,0.0,-0.02023,-0.0,-0.0,2.0,0.282024,0.277884,0.282024,0.286079,,,,,,
26363,-0.053951,0.005461,-0.03717,-0.001064,-0.001063,5.7e-05,-0.020701,-0.0,-0.0,2.0,0.282024,0.277716,0.282024,0.28624,,,,,,
26383,-0.054317,0.005457,-0.037046,-0.00107,-5.8e-05,-0.001063,-0.021593,-0.0,-0.0,2.0,0.282024,0.277738,0.282024,0.286218,,,,,,
26403,-0.054567,0.005572,-0.03717,-0.001064,0.0,0.0,-0.022513,-0.0,-0.0,2.0,0.282024,0.277768,0.282024,0.28619,,,,,,
26423,-0.054811,0.005567,-0.037168,-0.001064,-0.001063,5.8e-05,-0.023419,-0.0,-0.0,2.0,0.282024,0.277889,0.282024,0.286074,,,,,,
26443,-0.054933,0.005561,-0.03729,-0.001064,-0.001063,5.8e-05,-0.023882,-0.0,-0.0,2.0,0.282024,0.277779,0.282024,0.286179,,,,,,
26463,-0.055177,0.005557,-0.037288,-0.00107,-5.9e-05,-0.001063,-0.024856,-0.0,-0.0,2.0,0.282024,0.277899,0.282024,0.286064,,,,,,
26483,-0.055299,0.005551,-0.03741,-0.001064,-0.001063,5.9e-05,-0.025765,-0.0,-0.0,2.0,0.282024,0.278083,0.282024,0.285887,,,,,,
26503,-0.055302,0.005673,-0.037406,-0.001064,-0.001063,5.9e-05,-0.02683,-0.0,-0.0,2.0,0.282024,0.278275,0.282024,0.285703,,,,,,
26523,-0.055424,0.005671,-0.037406,-0.00107,-0.001122,-0.001004,-0.027599,-0.0,-0.0,2.0,0.282024,0.278376,0.282024,0.285606,,,,,,
26543,-0.055424,0.005664,-0.03765,-0.001064,-0.001063,5.9e-05,-0.028612,-0.0,-0.0,2.0,0.282024,0.278616,0.282024,0.285374,,,,,,
26563,-0.055549,0.005784,-0.037646,-0.001064,-0.001063,5.9e-05,-0.029052,-0.0,-0.0,2.0,0.282024,0.278573,0.282024,0.285416,,,,,,
26583,-0.055549,0.005784,-0.037646,-0.00107,-5.9e-05,-0.001063,-0.030022,-0.0,-0.0,2.0,0.282024,0.278814,0.282024,0.285182,,,,,,
26603,-0.055671,0.005781,-0.037645,-0.001064,-0.001063,5.9e-05,-0.030493,-0.0,-0.0,2.0,0.282024,0.27884,0.282024,0.285157,,,,,,
26623,-0.055671,0.005781,-0.037645,-0.00107,-0.001122,-0.001003,-0.031175,-0.0,-0.0,2.0,0.282024,0.278914,0.282024,0.285085,,,,,,
26643,-0.055793,0.005779,-0.037644,-0.001064,-0.001063,5.9e-05,-0.032193,-0.0,-0.0,2.0,0.282024,0.279139,0.282024,0.284867,,,,,,
26663,-0.055793,0.005779,-0.037644,-0.00107,-0.001122,-0.001003,-0.032952,-0.0,-0.0,2.0,0.282024,0.279292,0.282024,0.284719,,,,,,
26683,-0.055915,0.005777,-0.037644,-0.00107,-5.9e-05,-0.001063,-0.034062,-0.0,-0.0,2.0,0.282024,0.279562,0.282024,0.284456,,,,,,
26703,-0.056037,0.005774,-0.037643,-0.001064,-0.001063,6e-05,-0.035156,-0.0,-0.0,2.0,0.282024,0.27981,0.282024,0.284213,,,,,,
26723,-0.056281,0.00577,-0.037642,-0.00107,-0.001122,-0.001003,-0.035652,-0.0,-0.0,2.0,0.282024,0.279835,0.282024,0.284189,,,,,,
26743,-0.056403,0.005767,-0.037641,-0.00107,-6e-05,-0.001063,-0.036508,-0.0,-0.0,2.0,0.282024,0.279969,0.282024,0.284058,,,,,,
26763,-0.056649,0.005881,-0.037758,-0.001064,-0.001063,6e-05,-0.037365,-0.0,-0.0,2.0,0.282024,0.280085,0.282024,0.283944,,,,,,
26783,-0.057015,0.005878,-0.037634,-0.00107,-0.001123,-0.001002,-0.038298,-0.0,-0.0,2.0,0.282024,0.280244,0.282024,0.283788,,,,,,
26803,-0.057381,0.005871,-0.037632,-0.002134,-0.001124,-0.001001,-0.038298,-0.0,-0.0,2.0,0.282024,0.279999,0.282024,0.284028,,,,,,
26823,-0.057747,0.00586,-0.037752,-0.001064,0.0,0.0,-0.039372,-0.0,-0.0,2.0,0.282024,0.280111,0.282024,0.283919,,,,,,
26843,-0.058357,0.005852,-0.037626,-0.002128,-0.001062,6.2e-05,-0.040539,-0.0,-0.0,2.0,0.282024,0.27847,0.282024,0.285515,,,,,,
26863,-0.058849,0.005843,-0.037631,-0.002134,-0.001125,-0.001,-0.041064,-0.0,-0.0,2.0,0.282024,0.280192,0.282024,0.283839,,,,,,
26883,-0.059581,0.005829,-0.037626,-0.002128,0.0,0.0,-0.041503,-0.0,-0.0,2.0,0.282024,0.278106,0.282024,0.285865,,,,,,
26903,-0.060556,0.005814,-0.037499,-0.002128,-0.001062,6.4e-05,-0.042652,-0.0,-0.0,2.0,0.282024,0.278167,0.282024,0.285807,,,,,,
26923,-0.06129,0.005926,-0.037369,-0.003199,-0.001127,-0.000997,-0.043472,-0.0,-0.0,2.0,0.282024,0.278047,0.282024,0.285922,,,,,,
26943,-0.062268,0.006029,-0.037359,-0.003199,-6.6e-05,-0.001062,-0.044255,-0.0,-0.0,2.0,0.282024,0.277865,0.282024,0.286097,,,,,,
26963,-0.063492,0.00601,-0.037237,-0.003199,-0.00113,-0.000995,-0.04507,-0.0,-0.0,2.0,0.282024,0.275815,0.282024,0.288043,,,,,,
26983,-0.064467,0.005996,-0.037109,-0.003199,-0.001131,-0.000993,-0.045659,-0.0,-0.0,2.0,0.282024,0.275448,0.282024,0.288386,,,,,,
27003,-0.065565,0.005979,-0.036981,-0.003199,-7e-05,-0.001062,-0.046598,-0.0,-0.0,2.0,0.282024,0.275271,0.282024,0.288553,,,,,,
27023,-0.066911,0.005958,-0.036858,-0.003199,-7.1e-05,-0.001062,-0.047028,-0.0,-0.0,2.0,0.282024,0.274785,0.282024,0.289005,,,,,,
27043,-0.06813,0.005939,-0.036728,-0.003199,-0.001134,-0.000989,-0.047722,-0.0,-0.0,2.0,0.282024,0.274448,0.282024,0.289318,,,,,,
27063,-0.069471,0.005923,-0.036476,-0.003199,-0.001136,-0.000988,-0.048793,-0.0,-0.0,2.0,0.282024,0.274276,0.282024,0.289478,,,,,,
27083,-0.070817,0.005903,-0.036353,-0.003193,0.0,0.0,-0.049247,-0.0,-0.0,2.0,0.282024,0.273725,0.282024,0.289986,,,,,,
27103,-0.072159,0.005882,-0.036222,-0.003198,-0.001138,-0.000985,-0.050018,-0.0,-0.0,2.0,0.282024,0.273408,0.282024,0.290277,,,,,,
27123,-0.073378,0.005868,-0.035971,-0.003198,-0.001139,-0.000983,-0.050816,-0.0,-0.0,2.0,0.282024,0.273051,0.282024,0.290604,,,,,,
27143,-0.074726,0.005971,-0.035843,-0.003199,-7.9e-05,-0.001061,-0.05119,-0.0,-0.0,2.0,0.282024,0.272512,0.282024,0.291096,,,,,,
27163,-0.075945,0.005958,-0.035591,-0.003199,-8.1e-05,-0.001061,-0.052437,-0.0,-0.0,2.0,0.282024,0.27243,0.282024,0.29117,,,,,,
27183,-0.077042,0.005947,-0.03534,-0.003198,-0.001143,-0.000979,-0.05309,-0.0,-0.0,2.0,0.282024,0.272051,0.282024,0.291514,,,,,,
27203,-0.078266,0.005935,-0.035095,-0.003198,-0.001144,-0.000978,-0.053638,-0.0,-0.0,2.0,0.282024,0.271624,0.282024,0.2919,,,,,,
27223,-0.079363,0.005925,-0.034844,-0.003199,-8.4e-05,-0.001061,-0.054098,-0.0,-0.0,2.0,0.282024,0.271258,0.282024,0.292229,,,,,,
27243,-0.080338,0.005917,-0.034594,-0.003198,-0.001146,-0.000975,-0.055093,-0.0,-0.0,2.0,0.282024,0.272985,0.282024,0.290665,,,,,,
27263,-0.081194,0.00579,-0.034356,-0.002134,-0.001147,-0.000974,-0.055814,-0.0,-0.0,2.0,0.282024,0.272727,0.282024,0.2909,,,,,,
27283,-0.082169,0.005783,-0.034106,-0.002141,-0.000175,-0.002121,-0.056533,-0.0,-0.0,2.0,0.282024,0.272563,0.282024,0.291049,,,,,,
27303,-0.082779,0.005778,-0.03398,-0.002135,-8.8e-05,-0.001061,-0.056886,-0.0,-0.0,2.0,0.282024,0.272202,0.282024,0.291377,,,,,,
