time_ms,roll,pitch,yaw,reference_roll,reference_pitch,reference_yaw,reference_throttle,throttle_1,throttle_2,throttle_3,throttle_4,roll_predicted,pitch_predicted,yaw_predicted,roll_rate_predicted,pitch_rate_predicted,yaw_rate_predicted,value1,value2,value3,value4,value5,value6
340585,0.093218,-0.004109,-0.141831,0.061854,-0.0,-0.0,3.0,0.329807,0.333609,0.322336,0.318349,0.051292,-1e-06,-0.057399,0.058781,-2.2e-05,-0.000433,0.089135,-0.000709,-0.127872,0.0289,-0.000454,-0.000534
340605,0.093331,-0.003979,-0.141835,0.0,-0.0,-0.0,3.0,0.329229,0.347662,0.32293,0.302401,0.052279,-1e-06,-0.057407,-0.014066,-2.2e-05,-0.000433,0.089729,-0.000718,-0.127883,0.022453,-0.000453,-0.000533
340625,0.09307,-0.003753,-0.14185,0.063925,-0.0,-0.0,3.0,0.328743,0.333218,0.323428,0.318766,0.051413,-1e-06,-0.057416,-0.018316,-2.2e-05,-0.000433,0.09023,-0.000727,-0.127893,0.017158,-0.000439,-0.000532
340645,0.093062,-0.003632,-0.141856,0.064948,-0.0,-0.0,3.0,0.33008,0.33274,0.322053,0.319271,0.05181,-1e-06,-0.057425,0.066897,-2.2e-05,-0.000433,0.090598,-0.000736,-0.127904,0.01723,-0.000447,-0.00053
340665,0.093062,-0.003632,-0.141856,0.0,-0.0,-0.0,3.0,0.329694,0.347333,0.322451,0.302799,0.053102,-1e-06,-0.057433,-0.000218,-2.2e-05,-0.000433,0.090879,-0.000745,-0.127915,0.013283,-0.000434,-0.000529
340685,0.093192,-0.003745,-0.141848,0.0,-0.0,-0.0,3.0,0.332836,0.34733,0.31917,0.302802,0.052198,-1e-06,-0.057442,-0.093422,-2.2e-05,-0.000433,0.091058,-0.000754,-0.127925,0.009418,-0.000459,-0.000515
340705,0.093201,-0.003872,-0.141722,0.0,-0.0,-0.0,3.0,0.33373,0.347425,0.318219,0.302688,0.050273,-1e-06,-0.057451,-0.090626,-2e-05,-0.000433,0.091169,-0.000763,-0.127936,0.007899,-0.000458,-0.000514
340725,0.092967,-0.004017,-0.1416,0.0,-0.0,-0.0,3.0,0.33372,0.347517,0.31823,0.302577,0.048602,-1e-06,-0.057459,-0.074006,-1.9e-05,-0.000433,0.091236,-0.000772,-0.127946,0.003662,-0.00046,-0.000502
340745,0.092602,-0.004043,-0.141607,0.0,-0.0,-0.0,3.0,0.332177,0.347514,0.319865,0.30258,0.04717,-1e-06,-0.057468,-0.069605,-1.8e-05,-0.000433,0.091235,-0.00078,-0.127956,-0.00659,-0.00044,-0.000489
340765,0.091841,-0.003741,-0.14137,0.0,-0.0,-0.0,3.0,0.32964,0.347417,0.322507,0.302698,0.045779,-1e-06,-0.057477,-0.069433,-1.7e-05,-0.000433,0.091106,-0.000789,-0.127966,-0.01337,-0.00042,-0.000478
340785,0.090842,-0.003451,-0.141284,0.0,-0.0,-0.0,3.0,0.326051,0.347261,0.326149,0.302886,0.044398,-0.0,-0.057485,-0.068184,-1.7e-05,-0.000433,0.090857,-0.000798,-0.127975,-0.020284,-0.000388,-0.000468
340805,0.089846,-0.003283,-0.141166,0.0,-0.0,-0.0,3.0,0.327985,0.347036,0.3242,0.303157,0.043049,-0.0,-0.057494,-0.066162,-1.6e-05,-0.000433,0.090463,-0.000806,-0.127985,-0.02494,-0.000393,-0.000453
340825,0.088613,-0.003137,-0.140956,0.0,-0.0,-0.0,3.0,0.331266,0.346615,0.320821,0.303662,0.04174,-0.0,-0.057503,-0.064219,-1.6e-05,-0.000433,0.089918,-0.000814,-0.127994,-0.030788,-0.0004,-0.000442
340845,0.087513,-0.003221,-0.140829,0.0,-0.0,-0.0,3.0,0.331734,0.346138,0.320331,0.304231,0.040469,-0.0,-0.057511,-0.062453,-1.5e-05,-0.000433,0.089209,-0.000821,-0.128002,-0.036363,-0.000384,-0.000418
340865,0.086166,-0.003204,-0.140616,0.0,-0.0,-0.0,3.0,0.333624,0.345564,0.318333,0.304913,0.039233,-0.0,-0.05752,-0.060752,-1.5e-05,-0.000433,0.088352,-0.000829,-0.128011,-0.044705,-0.000382,-0.000396
340885,0.084571,-0.003205,-0.14038,0.0,-0.0,-0.0,3.0,0.331194,0.344844,0.320896,0.305765,0.038031,-0.0,-0.057529,-0.059079,-1.4e-05,-0.000433,0.087326,-0.000836,-0.128018,-0.054371,-0.000358,-0.000385
340905,0.082846,-0.003088,-0.140272,0.0,-0.0,-0.0,3.0,0.330195,0.344176,0.321934,0.306549,0.036861,-0.0,-0.057537,-0.057445,-1.4e-05,-0.000433,0.086144,-0.000843,-0.128026,-0.065103,-0.000348,-0.000361
340925,0.080877,-0.002992,-0.140046,0.0,-0.0,-0.0,3.0,0.329523,0.343629,0.322628,0.307187,0.035725,-0.0,-0.057546,-0.055856,-1.3e-05,-0.000433,0.084816,-0.00085,-0.128033,-0.073779,-0.000337,-0.000353
340945,0.0788,-0.003021,-0.139962,0.0,-0.0,-0.0,3.0,0.32968,0.343185,0.322467,0.307704,0.034619,-0.0,-0.057554,-0.054309,-1.3e-05,-0.000433,0.083364,-0.000857,-0.12804,-0.080709,-0.000339,-0.000329
340965,0.07671,-0.002928,-0.139857,0.0,-0.0,-0.0,3.0,0.330401,0.342693,0.321721,0.308273,0.033544,-0.0,-0.057563,-0.052803,-1.3e-05,-0.000433,0.081781,-0.000864,-0.128047,-0.085743,-0.000352,-0.000329
340985,0.07475,-0.002944,-0.139864,0.0,-0.0,-0.0,3.0,0.330676,0.342253,0.321435,0.30878,0.032499,-0.0,-0.057572,-0.051337,-1.2e-05,-0.000433,0.08009,-0.000871,-0.128053,-0.087755,-0.000352,-0.000317
341005,0.072794,-0.002959,-0.139896,0.0,-0.0,-0.0,3.0,0.331941,0.341935,0.320114,0.309145,0.031483,0.0,-0.05758,-0.04991,-1.2e-05,-0.000433,0.078331,-0.000878,-0.128059,-0.087009,-0.000364,-0.000318
341025,0.070964,-0.003088,-0.139897,0.0,-0.0,-0.0,3.0,0.333469,0.341713,0.318498,0.309399,0.030496,0.0,-0.057589,-0.048521,-1.2e-05,-0.000433,0.076544,-0.000885,-0.128066,-0.086045,-0.000363,-0.000318
341045,0.069504,-0.003191,-0.139917,0.0,-0.0,-0.0,3.0,0.332049,0.341398,0.320001,0.30976,0.029535,0.0,-0.057598,-0.047168,-1.1e-05,-0.000433,0.074728,-0.000892,-0.128072,-0.089728,-0.000352,-0.000321
341065,0.067649,-0.002954,-0.139928,0.0,-0.0,-0.0,3.0,0.330421,0.341218,0.321701,0.309965,0.028602,0.0,-0.057606,-0.045851,-1.1e-05,-0.000433,0.072906,-0.000899,-0.128079,-0.090179,-0.000328,-0.000322
341085,0.065806,-0.002839,-0.13996,0.0,-0.0,-0.0,3.0,0.329285,0.341172,0.322872,0.310017,0.027695,0.0,-0.057615,-0.044569,-1.1e-05,-0.000433,0.071102,-0.000905,-0.128085,-0.090709,-0.000316,-0.000324
341105,0.064194,-0.002586,-0.139966,0.0,-0.0,-0.0,3.0,0.327755,0.341354,0.324434,0.30981,0.026813,0.0,-0.057624,-0.043321,-1e-05,-0.000433,0.069337,-0.000912,-0.128091,-0.088509,-0.000302,-0.000324
341125,0.062482,-0.002588,-0.13987,0.0,-0.0,-0.0,3.0,0.32841,0.341537,0.323768,0.309601,0.025955,0.0,-0.057632,-0.042106,-1e-05,-0.000433,0.06763,-0.000918,-0.128098,-0.088581,-0.000301,-0.000326
341145,0.061113,-0.002317,-0.139872,0.0,-0.0,-0.0,3.0,0.329896,0.341787,0.322243,0.309315,0.025122,0.0,-0.057641,-0.040923,-1e-05,-0.000433,0.065952,-0.000924,-0.128104,-0.080745,-0.000296,-0.000327
341165,0.059774,-0.002411,-0.139888,0.0,-0.0,-0.0,3.0,0.332073,0.34203,0.319975,0.309036,0.024312,0.0,-0.05765,-0.039772,-9e-06,-0.000433,0.064358,-0.00093,-0.128111,-0.075762,-0.000292,-0.000313
341185,0.05867,-0.002366,-0.139904,0.0,-0.0,-0.0,3.0,0.330134,0.342233,0.321997,0.308803,0.023525,0.0,-0.057658,-0.038652,-9e-06,-0.000433,0.062823,-0.000935,-0.128117,-0.068337,-0.000274,-0.000327
341205,0.057705,-0.002556,-0.139911,0.0,-0.0,-0.0,3.0,0.331975,0.34247,0.320078,0.30853,0.022761,0.0,-0.057667,-0.037561,-9e-06,-0.000433,0.061392,-0.000941,-0.128123,-0.068744,-0.000284,-0.000315
341225,0.056719,-0.002503,-0.1399,0.0,-0.0,-0.0,3.0,0.329437,0.342585,0.322716,0.308397,0.022017,0.0,-0.057676,-0.036499,-9e-06,-0.000433,0.060001,-0.000947,-0.12813,-0.068191,-0.000281,-0.000314
341245,0.05525,-0.002484,-0.13992,0.0,-0.0,-0.0,3.0,0.330834,0.342808,0.321272,0.308139,0.021295,0.0,-0.057684,-0.035466,-8e-06,-0.000433,0.05868,-0.000952,-0.128136,-0.066787,-0.000289,-0.000315
341265,0.053902,-0.002456,-0.139937,0.0,-0.0,-0.0,3.0,0.329408,0.342978,0.322746,0.307943,0.020593,0.0,-0.057693,-0.03446,-8e-06,-0.000433,0.057395,-0.000958,-0.128142,-0.065972,-0.000285,-0.000304
341285,0.052674,-0.002427,-0.139687,0.0,-0.0,-0.0,3.0,0.328965,0.343112,0.323201,0.307788,0.019912,0.0,-0.057702,-0.033481,-8e-06,-0.000433,0.056133,-0.000964,-0.128148,-0.065634,-0.000268,-0.000303
341305,0.051569,-0.002382,-0.139701,0.0,-0.0,-0.0,3.0,0.328642,0.343097,0.323531,0.307806,0.019249,0.0,-0.05771,-0.032528,-8e-06,-0.000433,0.054864,-0.00097,-0.128154,-0.063273,-0.000276,-0.000291
341325,0.050335,-0.002227,-0.139599,0.0,-0.0,-0.0,3.0,0.329433,0.343092,0.32272,0.307812,0.018606,0.0,-0.057719,-0.031601,-7e-06,-0.000433,0.053612,-0.000975,-0.12816,-0.061248,-0.000271,-0.00028
341345,0.048993,-0.002324,-0.139466,0.0,-0.0,-0.0,3.0,0.331387,0.342967,0.320695,0.307956,0.01798,0.0,-0.057728,-0.030698,-7e-06,-0.000433,0.052363,-0.000981,-0.128166,-0.060815,-0.000279,-0.00028
341365,0.047767,-0.002287,-0.13948,0.0,-0.0,-0.0,3.0,0.330471,0.34288,0.321649,0.308056,0.017373,0.0,-0.057736,-0.02982,-7e-06,-0.000433,0.051112,-0.000986,-0.128171,-0.062295,-0.000264,-0.000267
341385,0.046428,-0.002384,-0.139372,0.0,-0.0,-0.0,3.0,0.331882,0.342616,0.320176,0.308361,0.016783,0.0,-0.057745,-0.028965,-7e-06,-0.000433,0.049829,-0.000991,-0.128176,-0.066385,-0.000275,-0.000256
341405,0.044834,-0.002376,-0.139243,0.0,-0.0,-0.0,3.0,0.328338,0.342342,0.323841,0.308677,0.01621,0.0,-0.057754,-0.028133,-7e-06,-0.000433,0.04851,-0.000997,-0.128181,-0.06856,-0.00026,-0.000245
341425,0.043121,-0.002373,-0.139261,0.0,-0.0,-0.0,3.0,0.330641,0.342048,0.321472,0.309016,0.015654,0.0,-0.057762,-0.027323,-6e-06,-0.000433,0.047147,-0.001002,-0.128186,-0.071476,-0.000283,-0.000231
341445,0.041417,-0.002495,-0.139155,0.0,-0.0,-0.0,3.0,0.331134,0.341683,0.320959,0.309434,0.015113,0.0,-0.057771,-0.026535,-6e-06,-0.000433,0.045722,-0.001008,-0.128191,-0.073632,-0.000294,-0.000232
341465,0.039718,-0.002738,-0.139021,0.0,-0.0,-0.0,3.0,0.332346,0.3413,0.319687,0.309871,0.014588,0.0,-0.05778,-0.025769,-6e-06,-0.000433,0.044242,-0.001014,-0.128196,-0.076693,-0.000305,-0.000221
341485,0.038127,-0.002726,-0.139036,0.0,-0.0,-0.0,3.0,0.331056,0.340774,0.32104,0.310469,0.014078,0.0,-0.057788,-0.025023,-6e-06,-0.000433,0.042683,-0.00102,-0.1282,-0.078825,-0.000304,-0.00022
341505,0.036162,-0.002623,-0.138814,0.0,-0.0,-0.0,3.0,0.33019,0.340351,0.32194,0.310948,0.013583,0.0,-0.057797,-0.024297,-6e-06,-0.000433,0.041084,-0.001026,-0.128204,-0.080498,-0.000291,-0.000209
341525,0.034325,-0.002629,-0.138804,0.0,-0.0,-0.0,3.0,0.330575,0.339818,0.321541,0.31155,0.013103,0.0,-0.057806,-0.02359,-5e-06,-0.000433,0.039424,-0.001032,-0.128208,-0.084559,-0.000292,-0.000198
341545,0.03236,-0.002523,-0.138701,0.0,-0.0,-0.0,3.0,0.329136,0.339271,0.323026,0.312164,0.012636,0.0,-0.057814,-0.022903,-5e-06,-0.000433,0.037699,-0.001038,-0.128212,-0.087857,-0.000281,-0.000197
341565,0.030281,-0.002547,-0.138596,0.0,-0.0,-0.0,3.0,0.330599,0.338858,0.321515,0.312626,0.012183,0.0,-0.057823,-0.022234,-5e-06,-0.000433,0.035931,-0.001043,-0.128216,-0.090325,-0.000294,-0.000186
341585,0.028194,-0.002447,-0.138613,0.0,-0.0,-0.0,3.0,0.330243,0.338374,0.321885,0.313164,0.011743,0.0,-0.057831,-0.021584,-5e-06,-0.000433,0.03411,-0.001049,-0.128219,-0.09395,-0.000284,-0.000175
341605,0.026,-0.002601,-0.13848,0.0,-0.0,-0.0,3.0,0.332987,0.337615,0.31901,0.314005,0.011317,0.0,-0.05784,-0.020951,-5e-06,-0.000433,0.032191,-0.001055,-0.128223,-0.096034,-0.000298,-0.000162
341625,0.0238,-0.002633,-0.138373,0.0,-0.0,-0.0,3.0,0.331267,0.336839,0.32082,0.314859,0.010902,0.0,-0.057849,-0.020335,-5e-06,-0.000433,0.030194,-0.00106,-0.128226,-0.098925,-0.000288,-0.000151
341645,0.021591,-0.002543,-0.138266,0.0,-0.0,-0.0,3.0,0.330732,0.33612,0.321377,0.315644,0.0105,0.0,-0.057857,-0.019735,-5e-06,-0.000433,0.028137,-0.001066,-0.128229,-0.104322,-0.00028,-0.000152
341665,0.019259,-0.00246,-0.138134,0.0,-0.0,-0.0,3.0,0.329018,0.335357,0.323146,0.316472,0.01011,0.0,-0.057866,-0.019153,-4e-06,-0.000433,0.026005,-0.001072,-0.128232,-0.110503,-0.000261,-0.000139
341685,0.016563,-0.002402,-0.138147,0.0,-0.0,-0.0,3.0,0.330651,0.334718,0.321462,0.317162,0.009731,0.0,-0.057875,-0.018585,-4e-06,-0.000433,0.023819,-0.001077,-0.128235,-0.114015,-0.000265,-0.000128
341705,0.013989,-0.002337,-0.138038,0.0,-0.0,-0.0,3.0,0.330954,0.334006,0.321147,0.317926,0.009363,0.0,-0.057883,-0.018034,-4e-06,-0.000433,0.021561,-0.001082,-0.128237,-0.116564,-0.00027,-0.000116
341725,0.011423,-0.002392,-0.137927,0.0,-0.0,-0.0,3.0,0.329956,0.333379,0.322182,0.318594,0.009007,0.0,-0.057892,-0.017497,-4e-06,-0.000433,0.01925,-0.001088,-0.128239,-0.116834,-0.000261,-0.000105
341745,0.008979,-0.002439,-0.137814,0.0,-0.0,-0.0,3.0,0.330095,0.332581,0.322038,0.31944,0.008661,0.0,-0.057901,-0.016975,-4e-06,-0.000433,0.016882,-0.001093,-0.128241,-0.119529,-0.000266,-9.4e-05
341765,0.006761,-0.002226,-0.137675,0.0,-0.0,-0.0,3.0,0.330311,0.331938,0.321814,0.320117,0.008325,0.0,-0.057909,-0.016467,-4e-06,-0.000433,0.014472,-0.001098,-0.128243,-0.118342,-0.000269,-8e-05
341785,0.004334,-0.002516,-0.137559,0.0,-0.0,-0.0,3.0,0.33171,0.331238,0.320356,0.32085,0.007999,0.0,-0.057918,-0.015973,-4e-06,-0.000433,0.012056,-0.001104,-0.128245,-0.118725,-0.000273,-6.8e-05
341805,0.002011,-0.002554,-0.137443,0.0,-0.0,-0.0,3.0,0.331736,0.330694,0.320329,0.321416,0.007684,0.0,-0.057927,-0.015493,-3e-06,-0.000433,0.009649,-0.001109,-0.128246,-0.117569,-0.000276,-5.6e-05
341825,-0.000189,-0.002583,-0.137325,0.0,-0.0,-0.0,3.0,0.330206,0.330317,0.321923,0.321808,0.007377,0.0,-0.057935,-0.015026,-3e-06,-0.000433,0.007286,-0.001114,-0.128247,-0.120569,-0.000257,-4.4e-05
341845,-0.002398,-0.00249,-0.137327,0.0,-0.0,-0.0,3.0,0.329181,0.330028,0.32298,0.322108,0.00708,0.0,-0.057944,-0.014571,-3e-06,-0.000433,0.004952,-0.00112,-0.128248,-0.120417,-0.00026,-3.3e-05
341865,-0.004851,-0.002413,-0.137208,0.0,-0.0,-0.0,3.0,0.329115,0.329709,0.323047,0.322436,0.006792,0.0,-0.057953,-0.014129,-3e-06,-0.000433,0.002652,-0.001125,-0.128249,-0.11573,-0.000261,-3.3e-05
341885,-0.006938,-0.002312,-0.137087,0.0,-0.0,-0.0,3.0,0.32875,0.329436,0.323421,0.322718,0.006513,0.0,-0.057961,-0.0137,-3e-06,-0.000433,0.000392,-0.001131,-0.128249,-0.109824,-0.000273,-3.3e-05
341905,-0.008643,-0.002428,-0.136966,0.0,-0.0,-0.0,3.0,0.33131,0.329236,0.320775,0.322923,0.006242,0.0,-0.05797,-0.013282,-3e-06,-0.000433,-0.001794,-0.001136,-0.12825,-0.106577,-0.000286,-2e-05
341925,-0.010227,-0.002537,-0.136965,0.0,-0.0,-0.0,3.0,0.332404,0.329036,0.319627,0.323128,0.005979,0.0,-0.057979,-0.012875,-3e-06,-0.000433,-0.003916,-0.001142,-0.12825,-0.10089,-0.000297,-8e-06
341945,-0.011932,-0.002653,-0.136843,0.0,-0.0,-0.0,3.0,0.334058,0.328843,0.317869,0.323326,0.005725,0.0,-0.057987,-0.01248,-3e-06,-0.000433,-0.005948,-0.001147,-0.12825,-0.094882,-0.000295,4e-06
341965,-0.013393,-0.002753,-0.136842,0.0,-0.0,-0.0,3.0,0.334348,0.328658,0.317559,0.323515,0.005478,0.0,-0.057996,-0.012096,-3e-06,-0.000433,-0.007887,-0.001153,-0.12825,-0.091803,-0.000294,1.6e-05
341985,-0.014872,-0.002609,-0.136718,0.0,-0.0,-0.0,3.0,0.330058,0.328572,0.322076,0.323602,0.005239,0.0,-0.058005,-0.011722,-2e-06,-0.000433,-0.009723,-0.001158,-0.12825,-0.092135,-0.000257,2.9e-05
342005,-0.016342,-0.002586,-0.136594,0.0,-0.0,-0.0,3.0,0.329443,0.328562,0.32271,0.323613,0.005007,0.0,-0.058013,-0.011358,-2e-06,-0.000433,-0.011481,-0.001164,-0.128249,-0.088194,-0.000254,2.9e-05
342025,-0.01795,-0.002328,-0.136468,0.0,-0.0,-0.0,3.0,0.32615,0.328636,0.32605,0.323537,0.004783,0.0,-0.058022,-0.011005,-2e-06,-0.000433,-0.013135,-0.001169,-0.128249,-0.084135,-0.000238,2.9e-05
342045,-0.01942,-0.002306,-0.136464,0.0,-0.0,-0.0,3.0,0.327206,0.328481,0.324989,0.323696,0.004565,0.0,-0.058031,-0.010662,-2e-06,-0.000433,-0.014736,-0.001174,-0.128248,-0.080562,-0.000247,3e-05
342065,-0.020777,-0.002154,-0.136483,0.0,-0.0,-0.0,3.0,0.32873,0.328333,0.323442,0.323847,0.004355,0.0,-0.058039,-0.010328,-2e-06,-0.000433,-0.016289,-0.00118,-0.128247,-0.074232,-0.000266,3.9e-05
342085,-0.021987,-0.002358,-0.136361,0.0,-0.0,-0.0,3.0,0.331458,0.328098,0.32062,0.324086,0.00415,0.0,-0.058048,-0.010003,-2e-06,-0.000433,-0.017787,-0.001185,-0.128246,-0.070405,-0.000274,3.9e-05
342105,-0.023066,-0.002676,-0.136361,0.0,-0.0,-0.0,3.0,0.334723,0.327823,0.317156,0.324365,0.003953,0.0,-0.058056,-0.009687,-2e-06,-0.000433,-0.019234,-0.00119,-0.128245,-0.068837,-0.000294,5.2e-05
342125,-0.024284,-0.002758,-0.136237,0.0,-0.0,-0.0,3.0,0.33365,0.327443,0.318306,0.32475,0.003761,0.0,-0.058065,-0.009381,-2e-06,-0.000433,-0.020647,-0.001196,-0.128244,-0.067951,-0.000291,6.4e-05
342145,-0.025494,-0.002961,-0.136114,0.0,-0.0,-0.0,3.0,0.331722,0.327208,0.320344,0.324987,0.003576,0.0,-0.058074,-0.009082,-2e-06,-0.000433,-0.02201,-0.001201,-0.128243,-0.067742,-0.000287,7.6e-05
342165,-0.026964,-0.002937,-0.135987,0.0,-0.0,-0.0,3.0,0.330596,0.326736,0.321519,0.325462,0.003397,0.0,-0.058082,-0.008793,-2e-06,-0.000433,-0.023361,-0.001207,-0.128241,-0.069366,-0.000284,8.9e-05
342185,-0.028312,-0.002905,-0.135861,0.0,-0.0,-0.0,3.0,0.327988,0.326481,0.324198,0.325719,0.003223,0.0,-0.058091,-0.008511,-2e-06,-0.000433,-0.024699,-0.001213,-0.12824,-0.067847,-0.000279,0.000101
342205,-0.029669,-0.002751,-0.135732,0.0,-0.0,-0.0,3.0,0.328344,0.326165,0.323835,0.326036,0.003055,0.0,-0.0581,-0.008237,-2e-06,-0.000433,-0.026015,-0.001219,-0.128238,-0.068171,-0.000288,0.000102
342225,-0.031008,-0.002842,-0.135727,0.0,-0.0,-0.0,3.0,0.330387,0.325745,0.321735,0.326455,0.002892,0.0,-0.058108,-0.007971,-2e-06,-0.000433,-0.027338,-0.001225,-0.128235,-0.064961,-0.000307,0.000114
342245,-0.032113,-0.002792,-0.1356,0.0,-0.0,-0.0,3.0,0.332034,0.325318,0.320017,0.32688,0.002734,0.0,-0.058117,-0.007712,-1e-06,-0.000433,-0.028652,-0.001232,-0.128233,-0.061873,-0.000326,0.000114
342265,-0.033192,-0.00311,-0.135599,0.0,-0.0,-0.0,3.0,0.333603,0.324954,0.318355,0.327241,0.002582,0.0,-0.058126,-0.007461,-1e-06,-0.000433,-0.02993,-0.001238,-0.128231,-0.061054,-0.000333,0.000126
342285,-0.034161,-0.003296,-0.135501,0.0,-0.0,-0.0,3.0,0.334186,0.324534,0.317732,0.327656,0.002435,0.0,-0.058134,-0.007217,-1e-06,-0.000433,-0.031186,-0.001244,-0.128228,-0.062233,-0.000341,0.000136
342305,-0.035508,-0.003265,-0.135493,0.0,-0.0,-0.0,3.0,0.331504,0.324275,0.320572,0.327911,0.002292,0.0,-0.058143,-0.006979,-1e-06,-0.000433,-0.0324,-0.001251,-0.128225,-0.060841,-0.000324,0.000149
342325,-0.036605,-0.003337,-0.135368,0.0,-0.0,-0.0,3.0,0.331784,0.32399,0.320279,0.328192,0.002154,0.0,-0.058152,-0.006749,-1e-06,-0.000433,-0.033594,-0.001257,-0.128222,-0.057849,-0.000329,0.000161
342345,-0.037588,-0.003279,-0.13524,0.0,-0.0,-0.0,3.0,0.328654,0.323804,0.323519,0.328375,0.002021,0.0,-0.05816,-0.006525,-1e-06,-0.000433,-0.034732,-0.001264,-0.128219,-0.0575,-0.000312,0.000161
342365,-0.03844,-0.003335,-0.135116,0.0,-0.0,-0.0,3.0,0.330229,0.323654,0.321899,0.328522,0.001892,0.0,-0.058169,-0.006307,-1e-06,-0.000433,-0.035829,-0.00127,-0.128216,-0.055711,-0.00033,0.000161
342385,-0.039301,-0.003271,-0.135109,0.0,-0.0,-0.0,3.0,0.329498,0.323427,0.322653,0.328744,0.001768,0.0,-0.058178,-0.006096,-1e-06,-0.000433,-0.036895,-0.001277,-0.128213,-0.049467,-0.000333,0.000161
342405,-0.03991,-0.003312,-0.135106,0.0,-0.0,-0.0,3.0,0.331265,0.323247,0.320822,0.32892,0.001647,0.0,-0.058186,-0.00589,-1e-06,-0.000433,-0.037897,-0.001284,-0.128209,-0.043996,-0.000349,0.000173
342425,-0.040527,-0.003231,-0.1351,0.0,-0.0,-0.0,3.0,0.329761,0.323096,0.322383,0.329068,0.001531,0.0,-0.058195,-0.005691,-1e-06,-0.000433,-0.038818,-0.001291,-0.128206,-0.041506,-0.000341,0.000173
342445,-0.041128,-0.003394,-0.1351,0.0,-0.0,-0.0,3.0,0.330998,0.323043,0.321101,0.329119,0.001419,0.0,-0.058204,-0.005497,-1e-06,-0.000433,-0.039663,-0.001298,-0.128202,-0.041611,-0.000346,0.000174
342465,-0.041736,-0.003435,-0.135096,0.0,-0.0,-0.0,3.0,0.332115,0.322897,0.319931,0.329262,0.00131,0.0,-0.058212,-0.005309,-1e-06,-0.000433,-0.040462,-0.001305,-0.128199,-0.040599,-0.000362,0.000171
342485,-0.042226,-0.003469,-0.135118,0.0,-0.0,-0.0,3.0,0.332967,0.322943,0.319032,0.329216,0.001205,0.0,-0.058221,-0.005126,-1e-06,-0.000433,-0.041198,-0.001312,-0.128195,-0.035553,-0.000364,0.000183
342505,-0.042827,-0.003632,-0.135118,0.0,-0.0,-0.0,3.0,0.334523,0.32289,0.317372,0.329268,0.001104,0.0,-0.05823,-0.004948,-1e-06,-0.000433,-0.041858,-0.001319,-0.128192,-0.033077,-0.000379,0.000182
342525,-0.043192,-0.003654,-0.134995,0.0,-0.0,-0.0,3.0,0.333014,0.322846,0.318981,0.329311,0.001007,0.0,-0.058238,-0.004776,-1e-06,-0.000433,-0.042473,-0.001326,-0.128188,-0.028111,-0.000367,0.000182
342545,-0.043541,-0.003922,-0.134998,0.0,-0.0,-0.0,3.0,0.33312,0.322658,0.318869,0.329494,0.000912,0.0,-0.058247,-0.004608,-1e-06,-0.000433,-0.043037,-0.001333,-0.128184,-0.02707,-0.00037,0.000194
342565,-0.043793,-0.003816,-0.134994,0.0,-0.0,-0.0,3.0,0.32988,0.322519,0.32226,0.329629,0.000821,0.0,-0.058256,-0.004446,-1e-06,-0.000433,-0.043564,-0.001341,-0.128181,-0.024973,-0.000359,0.000182
342585,-0.04415,-0.003963,-0.134995,0.0,-0.0,-0.0,3.0,0.330403,0.322485,0.321719,0.329662,0.000734,0.0,-0.058264,-0.004288,-1e-06,-0.000433,-0.044035,-0.001348,-0.128177,-0.021751,-0.000372,0.000182
342605,-0.044402,-0.003858,-0.134991,0.0,-0.0,-0.0,3.0,0.328263,0.322401,0.323918,0.329743,0.000649,0.0,-0.058273,-0.004135,-1e-06,-0.000433,-0.044454,-0.001357,-0.128173,-0.019247,-0.000385,0.000181
342625,-0.044393,-0.003979,-0.134994,0.0,-0.0,-0.0,3.0,0.329106,0.322356,0.323056,0.329787,0.000567,0.0,-0.058281,-0.003986,-0.0,-0.000433,-0.044829,-0.001365,-0.12817,-0.014001,-0.000397,0.000169
342645,-0.044515,-0.003988,-0.134993,0.0,-0.0,-0.0,3.0,0.330847,0.322407,0.321258,0.329737,0.000489,0.0,-0.05829,-0.003841,-0.0,-0.000433,-0.045119,-0.001373,-0.128166,-0.013152,-0.000422,0.000168
342665,-0.044385,-0.004104,-0.135117,0.0,-0.0,-0.0,3.0,0.333072,0.322421,0.31892,0.329724,0.000413,0.0,-0.058299,-0.003701,-0.0,-0.000433,-0.045365,-0.001381,-0.128163,-0.009673,-0.000434,0.000167
342685,-0.044612,-0.004364,-0.135121,0.0,-0.0,-0.0,3.0,0.336519,0.32235,0.315209,0.329792,0.00034,0.0,-0.058307,-0.003565,-0.0,-0.000433,-0.045552,-0.001389,-0.128159,-0.008563,-0.000458,0.000167
342705,-0.04449,-0.004356,-0.135122,0.0,-0.0,-0.0,3.0,0.333673,0.322272,0.318281,0.329869,0.00027,0.0,-0.058316,-0.003433,-0.0,-0.000433,-0.045713,-0.001398,-0.128156,-0.004929,-0.000432,0.000167
342725,-0.04436,-0.004469,-0.135125,0.0,-0.0,-0.0,3.0,0.333303,0.322277,0.318674,0.329864,0.000202,0.0,-0.058325,-0.003305,-0.0,-0.000433,-0.045806,-0.001406,-0.128152,-0.005437,-0.00042,0.000167
342745,-0.044498,-0.004234,-0.135119,0.0,-0.0,-0.0,3.0,0.328223,0.322301,0.323959,0.32984,0.000137,0.0,-0.058333,-0.00318,-0.0,-0.000433,-0.045857,-0.001415,-0.128149,-0.005069,-0.000382,0.000167
342765,-0.04475,-0.004131,-0.135236,0.0,-0.0,-0.0,3.0,0.328413,0.322155,0.323765,0.329982,7.4e-05,0.0,-0.058342,-0.00306,-0.0,-0.000433,-0.045899,-0.001422,-0.128146,-0.004611,-0.000369,0.000167
342785,-0.044644,-0.003879,-0.135231,0.0,-0.0,-0.0,3.0,0.327869,0.322003,0.324318,0.330129,1.4e-05,0.0,-0.058351,-0.002943,-0.0,-0.000433,-0.045952,-0.001431,-0.128143,-0.000453,-0.000379,0.000154
342805,-0.044401,-0.003863,-0.135232,0.0,-0.0,-0.0,3.0,0.328805,0.322006,0.323365,0.330126,-4.4e-05,0.0,-0.058359,-0.002829,-0.0,-0.000433,-0.045955,-0.001438,-0.12814,0.001267,-0.000378,0.000142
342825,-0.04427,-0.003979,-0.135356,0.0,-0.0,-0.0,3.0,0.331002,0.321835,0.321096,0.330291,-0.0001,0.0,-0.058368,-0.002719,-0.0,-0.000433,-0.045944,-0.001446,-0.128137,0.003002,-0.000401,0.000141
342845,-0.044149,-0.003971,-0.135357,0.0,-0.0,-0.0,3.0,0.331447,0.321607,0.320632,0.330511,-0.000153,0.0,-0.058377,-0.002612,-0.0,-0.000433,-0.04593,-0.001454,-0.128134,0.00613,-0.000398,0.000141
342865,-0.04401,-0.004206,-0.135363,0.0,-0.0,-0.0,3.0,0.334436,0.321253,0.317465,0.330851,-0.000205,0.0,-0.058385,-0.002508,-0.0,-0.000433,-0.045907,-0.001462,-0.128131,0.004379,-0.000422,0.000152
342885,-0.043776,-0.004065,-0.135241,0.0,-0.0,-0.0,3.0,0.330821,0.321085,0.321285,0.331013,-0.000254,0.0,-0.058394,-0.002408,-0.0,-0.000433,-0.045871,-0.00147,-0.128128,0.002,-0.000398,0.000152
342905,-0.043776,-0.004065,-0.135241,0.0,-0.0,-0.0,3.0,0.33062,0.32098,0.321494,0.331113,-0.000302,0.0,-0.058403,-0.00231,-0.0,-0.000433,-0.045807,-0.001478,-0.128125,-0.000653,-0.000386,0.000152
342925,-0.043776,-0.004063,-0.13512,0.0,-0.0,-0.0,3.0,0.330008,0.320974,0.322128,0.331119,-0.000347,0.0,-0.058411,-0.002216,-0.0,-0.000433,-0.045733,-0.001486,-0.128122,0.001661,-0.000384,0.000152
342945,-0.043662,-0.003935,-0.135239,0.0,-0.0,-0.0,3.0,0.330045,0.321095,0.32209,0.331003,-0.000391,0.0,-0.05842,-0.002124,-0.0,-0.000433,-0.045615,-0.001494,-0.128119,0.003376,-0.000381,0.000151
342965,-0.043419,-0.003919,-0.13524,0.0,-0.0,-0.0,3.0,0.331605,0.321131,0.320466,0.330969,-0.000433,0.0,-0.058429,-0.002035,0.0,-0.000433,-0.045473,-0.001501,-0.128116,0.00654,-0.00039,0.000151
342985,-0.043167,-0.004024,-0.135244,0.0,-0.0,-0.0,3.0,0.33238,0.321104,0.319652,0.330994,-0.000473,0.0,-0.058437,-0.001949,0.0,-0.000433,-0.045308,-0.001509,-0.128113,0.010935,-0.000386,0.00015
343005,-0.042671,-0.004113,-0.135249,0.0,-0.0,-0.0,3.0,0.331387,0.320967,0.320695,0.331126,-0.000511,0.0,-0.058446,-0.001865,0.0,-0.000433,-0.045125,-0.001517,-0.12811,0.013424,-0.000383,0.00015
343025,-0.042314,-0.003966,-0.135249,0.0,-0.0,-0.0,3.0,0.330425,0.320887,0.321696,0.331203,-0.000548,0.0,-0.058455,-0.001784,0.0,-0.000433,-0.044906,-0.001524,-0.128107,0.013648,-0.000368,0.000149
343045,-0.041957,-0.00382,-0.135248,0.0,-0.0,-0.0,3.0,0.32889,0.320775,0.323278,0.33131,-0.000583,0.0,-0.058463,-0.001706,0.0,-0.000433,-0.044674,-0.001532,-0.128104,0.013695,-0.000354,0.000149
343065,-0.041609,-0.003552,-0.135245,0.0,-0.0,-0.0,3.0,0.327638,0.320767,0.324552,0.331318,-0.000616,0.0,-0.058472,-0.00163,0.0,-0.000433,-0.04441,-0.001539,-0.128101,0.014962,-0.000338,0.000149
343085,-0.041365,-0.003535,-0.135246,0.0,-0.0,-0.0,3.0,0.32862,0.320746,0.323554,0.331338,-0.000648,0.0,-0.058481,-0.001556,0.0,-0.000433,-0.044115,-0.001546,-0.128098,0.014266,-0.000336,0.000137
343105,-0.041008,-0.003391,-0.135366,0.0,-0.0,-0.0,3.0,0.330019,0.320704,0.322117,0.331377,-0.000679,0.0,-0.058489,-0.001485,0.0,-0.000433,-0.043809,-0.001553,-0.128096,0.011855,-0.000347,0.000136
343125,-0.04065,-0.003247,-0.135486,0.0,-0.0,-0.0,3.0,0.331473,0.320769,0.320605,0.331315,-0.000708,0.0,-0.058498,-0.001416,0.0,-0.000433,-0.043494,-0.00156,-0.128093,0.014108,-0.000331,0.000124
343145,-0.04039,-0.003477,-0.135613,0.0,-0.0,-0.0,3.0,0.334961,0.320709,0.3169,0.331373,-0.000736,0.0,-0.058506,-0.001349,0.0,-0.000433,-0.043171,-0.001566,-0.12809,0.018231,-0.000351,0.00011
343165,-0.0399,-0.003443,-0.135591,0.0,-0.0,-0.0,3.0,0.332815,0.32058,0.319192,0.331496,-0.000763,0.0,-0.058515,-0.001284,0.0,-0.000433,-0.042838,-0.001572,-0.128088,0.020145,-0.000322,0.000113
343185,-0.039413,-0.003413,-0.135714,0.0,-0.0,-0.0,3.0,0.332767,0.32067,0.319243,0.331411,-0.000788,0.0,-0.058524,-0.001221,0.0,-0.000433,-0.042461,-0.001578,-0.128086,0.019867,-0.000307,0.000113
343205,-0.038934,-0.003258,-0.135714,0.0,-0.0,-0.0,3.0,0.33008,0.320514,0.322054,0.33156,-0.000812,0.0,-0.058532,-0.00116,0.0,-0.000433,-0.042087,-0.001584,-0.128084,0.017861,-0.000281,0.000113
343225,-0.03869,-0.003241,-0.135715,0.0,-0.0,-0.0,3.0,0.329662,0.320476,0.322485,0.331596,-0.000834,0.0,-0.058541,-0.001102,0.0,-0.000433,-0.041707,-0.00159,-0.128082,0.019338,-0.000277,0.0001
343245,-0.038203,-0.003208,-0.135718,0.0,-0.0,-0.0,3.0,0.32783,0.320397,0.324358,0.331671,-0.000856,0.0,-0.05855,-0.001045,0.0,-0.000433,-0.041323,-0.001596,-0.12808,0.019072,-0.000274,0.0001
343265,-0.037838,-0.003183,-0.13572,0.0,-0.0,-0.0,3.0,0.330021,0.320341,0.322114,0.331724,-0.000877,0.0,-0.058558,-0.00099,0.0,-0.000433,-0.040934,-0.001602,-0.128078,0.018988,-0.000295,8.7e-05
343285,-0.037342,-0.003274,-0.135845,0.0,-0.0,-0.0,3.0,0.330466,0.320274,0.321653,0.331788,-0.000896,0.0,-0.058567,-0.000936,0.0,-0.000433,-0.040548,-0.001608,-0.128076,0.020597,-0.000316,8.6e-05
343305,-0.036847,-0.003363,-0.135849,0.0,-0.0,-0.0,3.0,0.330699,0.32027,0.321411,0.331792,-0.000914,0.0,-0.058576,-0.000885,0.0,-0.000433,-0.040136,-0.001615,-0.128074,0.021738,-0.000324,7.4e-05
343325,-0.036238,-0.003322,-0.135852,0.0,-0.0,-0.0,3.0,0.330714,0.320278,0.321396,0.331785,-0.000932,0.0,-0.058584,-0.000835,0.0,-0.000433,-0.039705,-0.001621,-0.128073,0.022503,-0.00032,7.3e-05
343345,-0.035621,-0.003404,-0.135978,0.0,-0.0,-0.0,3.0,0.332261,0.320384,0.319777,0.331683,-0.000948,0.0,-0.058593,-0.000786,0.0,-0.000433,-0.039237,-0.001627,-0.128071,0.022875,-0.000329,7.3e-05
343365,-0.03489,-0.003354,-0.135981,0.0,-0.0,-0.0,3.0,0.333736,0.320622,0.318213,0.331457,-0.000963,0.0,-0.058602,-0.00074,0.0,-0.000433,-0.038724,-0.001634,-0.12807,0.025954,-0.000335,8.4e-05
343385,-0.034273,-0.003435,-0.135986,0.0,-0.0,-0.0,3.0,0.334067,0.320905,0.31786,0.331185,-0.000978,0.0,-0.05861,-0.000694,0.0,-0.000433,-0.038149,-0.00164,-0.128068,0.028085,-0.000329,7.1e-05
343405,-0.03355,-0.003265,-0.136107,0.0,-0.0,-0.0,3.0,0.332995,0.321058,0.319002,0.331039,-0.000991,0.0,-0.058619,-0.000651,0.0,-0.000433,-0.037551,-0.001646,-0.128067,0.031441,-0.000311,7.1e-05
343425,-0.032697,-0.003209,-0.136231,0.0,-0.0,-0.0,3.0,0.330995,0.321416,0.321104,0.330695,-0.001004,0.0,-0.058628,-0.000609,0.0,-0.000433,-0.03689,-0.001652,-0.128065,0.035501,-0.00028,5.9e-05
343445,-0.031845,-0.003153,-0.136355,0.0,-0.0,-0.0,3.0,0.331528,0.321448,0.320547,0.330664,-0.001016,0.0,-0.058636,-0.000568,0.0,-0.000433,-0.036203,-0.001657,-0.128064,0.03598,-0.000262,4.7e-05
343465,-0.030878,-0.002967,-0.136478,0.0,-0.0,-0.0,3.0,0.327574,0.32168,0.324618,0.33044,-0.001027,0.0,-0.058645,-0.000528,0.0,-0.000433,-0.035481,-0.001663,-0.128064,0.039197,-0.000231,3.5e-05
343485,-0.030042,-0.002667,-0.136598,0.0,-0.0,-0.0,3.0,0.326497,0.321843,0.325703,0.330283,-0.001037,0.0,-0.058654,-0.00049,0.0,-0.000433,-0.034714,-0.001668,-0.128063,0.038595,-0.000213,1e-05
343505,-0.02932,-0.002497,-0.13672,0.0,-0.0,-0.0,3.0,0.327453,0.321966,0.324739,0.330164,-0.001047,0.0,-0.058662,-0.000453,0.0,-0.000433,-0.033933,-0.001672,-0.128063,0.038026,-0.00022,-2e-06
343525,-0.028475,-0.00232,-0.136962,0.0,-0.0,-0.0,3.0,0.327717,0.322079,0.324472,0.330055,-0.001055,0.0,-0.058671,-0.000418,0.0,-0.000433,-0.033149,-0.001677,-0.128063,0.040635,-0.000214,-2.7e-05
343545,-0.027501,-0.002255,-0.137087,0.0,-0.0,-0.0,3.0,0.330201,0.322289,0.321929,0.329852,-0.001064,0.0,-0.05868,-0.000384,0.0,-0.000433,-0.032334,-0.001682,-0.128064,0.041374,-0.000232,-3.9e-05
343565,-0.026631,-0.002441,-0.137213,0.0,-0.0,-0.0,3.0,0.332897,0.322418,0.319106,0.329727,-0.001071,0.0,-0.058688,-0.00035,0.0,-0.000433,-0.03151,-0.001686,-0.128065,0.041883,-0.000238,-5.2e-05
343585,-0.025762,-0.002628,-0.13734,0.0,-0.0,-0.0,3.0,0.3343,0.322488,0.31761,0.329659,-0.001078,0.0,-0.058697,-0.000318,0.0,-0.000433,-0.030678,-0.00169,-0.128066,0.042283,-0.000244,-6.4e-05
343605,-0.024882,-0.002935,-0.137322,0.0,-0.0,-0.0,3.0,0.334821,0.32246,0.317051,0.329686,-0.001084,0.0,-0.058706,-0.000288,0.0,-0.000433,-0.029855,-0.001695,-0.128067,0.042827,-0.00025,-6.2e-05
343625,-0.024022,-0.002998,-0.137326,0.0,-0.0,-0.0,3.0,0.333646,0.322542,0.318309,0.329606,-0.001089,0.0,-0.058714,-0.000258,0.0,-0.000433,-0.029015,-0.001699,-0.128068,0.03966,-0.000245,-6.2e-05
343645,-0.023283,-0.003069,-0.137329,0.0,-0.0,-0.0,3.0,0.330957,0.322795,0.321143,0.32936,-0.001094,0.0,-0.058723,-0.000229,0.0,-0.000433,-0.028165,-0.001704,-0.128069,0.039692,-0.000239,-6.2e-05
343665,-0.022804,-0.002914,-0.137329,0.0,-0.0,-0.0,3.0,0.327757,0.32287,0.324432,0.329288,-0.001099,0.0,-0.058731,-0.000201,0.0,-0.000433,-0.027319,-0.001709,-0.128071,0.038009,-0.000221,-6.2e-05
343685,-0.022082,-0.002741,-0.137209,0.0,-0.0,-0.0,3.0,0.328826,0.32289,0.323343,0.329268,-0.001103,0.0,-0.05874,-0.000175,0.0,-0.000433,-0.026515,-0.001714,-0.128072,0.040564,-0.000238,-5e-05
343705,-0.02123,-0.002681,-0.13709,0.0,-0.0,-0.0,3.0,0.329058,0.322969,0.323105,0.329191,-0.001106,0.0,-0.058749,-0.000149,0.0,-0.000433,-0.025715,-0.001719,-0.128073,0.041386,-0.000244,-5.1e-05
343725,-0.020352,-0.002986,-0.136975,0.0,-0.0,-0.0,3.0,0.331433,0.322885,0.320646,0.329273,-0.001109,0.0,-0.058757,-0.000124,0.0,-0.000433,-0.024939,-0.001725,-0.128074,0.041112,-0.000275,-3.9e-05
343745,-0.019613,-0.003058,-0.136978,0.0,-0.0,-0.0,3.0,0.33304,0.322709,0.318954,0.329444,-0.001111,0.0,-0.058766,-0.0001,0.0,-0.000433,-0.024196,-0.00173,-0.128074,0.03951,-0.000294,-3.9e-05
343765,-0.018979,-0.003382,-0.136983,0.0,-0.0,-0.0,3.0,0.334308,0.322494,0.317602,0.329653,-0.001113,0.0,-0.058775,-7.7e-05,0.0,-0.000433,-0.023488,-0.001736,-0.128075,0.038259,-0.000302,-2.7e-05
343785,-0.018492,-0.003347,-0.136863,0.0,-0.0,-0.0,3.0,0.333624,0.322331,0.318333,0.329811,-0.001114,0.0,-0.058783,-5.5e-05,0.0,-0.000433,-0.0228,-0.001742,-0.128075,0.032309,-0.000311,-1.5e-05
343805,-0.017989,-0.003557,-0.136866,0.0,-0.0,-0.0,3.0,0.331853,0.322247,0.320207,0.329893,-0.001115,0.0,-0.058792,-3.4e-05,0.0,-0.000433,-0.022158,-0.001747,-0.128076,0.026751,-0.000297,-1.5e-05
343825,-0.017867,-0.003549,-0.136866,0.0,-0.0,-0.0,3.0,0.331419,0.322245,0.320661,0.329895,-0.001116,0.0,-0.058801,-1.3e-05,0.0,-0.000433,-0.021541,-0.001754,-0.128076,0.023435,-0.000306,-1.5e-05
343845,-0.01751,-0.003402,-0.136865,0.0,-0.0,-0.0,3.0,0.329894,0.322235,0.322245,0.329904,-0.001116,0.0,-0.058809,6e-06,0.0,-0.000433,-0.020983,-0.00176,-0.128076,0.025785,-0.0003,-1.6e-05
343865,-0.017014,-0.003492,-0.136987,0.0,-0.0,-0.0,3.0,0.331457,0.322358,0.320622,0.329785,-0.001116,0.0,-0.058818,2.5e-05,0.0,-0.000433,-0.020419,-0.001766,-0.128077,0.026526,-0.000308,-2.8e-05
343885,-0.016527,-0.003459,-0.137109,0.0,-0.0,-0.0,3.0,0.332102,0.322241,0.319945,0.329898,-0.001115,0.0,-0.058827,4.3e-05,0.0,-0.000433,-0.01989,-0.001772,-0.128077,0.027731,-0.000315,-2.8e-05
343905,-0.015909,-0.00354,-0.137231,0.0,-0.0,-0.0,3.0,0.332488,0.322133,0.319537,0.330003,-0.001114,0.0,-0.058835,6.1e-05,0.0,-0.000433,-0.019389,-0.001778,-0.128078,0.029207,-0.000311,-4e-05
343925,-0.015309,-0.003377,-0.137231,0.0,-0.0,-0.0,3.0,0.32977,0.321992,0.322374,0.33014,-0.001113,0.0,-0.058844,7.8e-05,0.0,-0.000433,-0.018894,-0.001784,-0.128079,0.027206,-0.000283,-5.2e-05
343945,-0.014699,-0.003336,-0.137352,0.0,-0.0,-0.0,3.0,0.330266,0.321871,0.32186,0.330256,-0.001111,0.0,-0.058853,9.4e-05,0.0,-0.000433,-0.018417,-0.00179,-0.12808,0.02403,-0.000281,-6.4e-05
343965,-0.014229,-0.00306,-0.137471,0.0,-0.0,-0.0,3.0,0.32841,0.32189,0.323768,0.330238,-0.001109,0.0,-0.058861,0.000109,0.0,-0.000433,-0.017944,-0.001796,-0.128082,0.024114,-0.000265,-7.6e-05
343985,-0.01388,-0.002791,-0.13747,0.0,-0.0,-0.0,3.0,0.328835,0.321996,0.323334,0.330135,-0.001107,0.0,-0.05887,0.000124,0.0,-0.000433,-0.017455,-0.001801,-0.128083,0.023976,-0.000249,-7.5e-05
344005,-0.013515,-0.002766,-0.137591,0.0,-0.0,-0.0,3.0,0.33002,0.322182,0.322116,0.329955,-0.001104,0.0,-0.058879,0.000138,0.0,-0.000433,-0.016951,-0.001806,-0.128085,0.022191,-0.000258,-8.7e-05
344025,-0.012905,-0.002725,-0.137712,0.0,-0.0,-0.0,3.0,0.331775,0.322343,0.320288,0.329799,-0.001101,0.0,-0.058887,0.000152,0.0,-0.000433,-0.016449,-0.001811,-0.128087,0.021993,-0.000254,-9.9e-05
344045,-0.012653,-0.00283,-0.137713,0.0,-0.0,-0.0,3.0,0.334688,0.322465,0.317194,0.329682,-0.001098,0.0,-0.058896,0.000165,0.0,-0.000433,-0.015944,-0.001816,-0.128088,0.023533,-0.000262,-9.9e-05
344065,-0.012166,-0.002797,-0.137834,0.0,-0.0,-0.0,3.0,0.332752,0.32247,0.319258,0.329677,-0.001095,0.0,-0.058905,0.000178,0.0,-0.000433,-0.01546,-0.00182,-0.12809,0.026675,-0.000232,-0.000111
344085,-0.011548,-0.002878,-0.137956,0.0,-0.0,-0.0,3.0,0.332557,0.322452,0.319465,0.329693,-0.001091,0.0,-0.058913,0.000189,0.0,-0.000433,-0.014972,-0.001825,-0.128093,0.026549,-0.000216,-0.000111
344105,-0.010948,-0.002715,-0.138076,0.0,-0.0,-0.0,3.0,0.330421,0.322435,0.321701,0.32971,-0.001087,0.0,-0.058922,0.000201,0.0,-0.000433,-0.014492,-0.001829,-0.128095,0.024864,-0.000201,-0.000123
344125,-0.010599,-0.002447,-0.138196,0.0,-0.0,-0.0,3.0,0.328402,0.322338,0.323776,0.329805,-0.001083,0.0,-0.058931,0.000212,0.0,-0.000433,-0.014027,-0.001833,-0.128098,0.023282,-0.000174,-0.000134
344145,-0.01025,-0.002178,-0.138315,0.0,-0.0,-0.0,3.0,0.326073,0.322314,0.326127,0.329828,-0.001079,0.0,-0.058939,0.000222,0.0,-0.000433,-0.01358,-0.001837,-0.128101,0.022052,-0.000159,-0.000146
344165,-0.010145,-0.001927,-0.138435,0.0,-0.0,-0.0,3.0,0.326306,0.322236,0.325894,0.329903,-0.001074,0.0,-0.058948,0.000232,0.0,-0.000433,-0.013148,-0.00184,-0.128104,0.017703,-0.000146,-0.00017
344185,-0.00991,-0.001789,-0.138555,0.0,-0.0,-0.0,3.0,0.328413,0.322006,0.323765,0.330126,-0.001069,0.0,-0.058956,0.000242,0.0,-0.000433,-0.012786,-0.001844,-0.128107,0.01454,-0.000157,-0.000182
344205,-0.009918,-0.001668,-0.138675,0.0,-0.0,-0.0,3.0,0.329831,0.32175,0.322311,0.330373,-0.001064,0.0,-0.058965,0.000251,0.0,-0.000433,-0.012486,-0.001847,-0.128111,0.013661,-0.000143,-0.000193
344225,-0.00991,-0.00179,-0.138796,0.0,-0.0,-0.0,3.0,0.333874,0.321479,0.318066,0.330635,-0.001059,0.0,-0.058974,0.000259,0.0,-0.000433,-0.012241,-0.001849,-0.128115,0.012212,-0.000166,-0.000205
344245,-0.009666,-0.001774,-0.138917,0.0,-0.0,-0.0,3.0,0.332133,0.321213,0.319912,0.33089,-0.001054,0.0,-0.058982,0.000268,0.0,-0.000433,-0.012042,-0.001852,-0.128119,0.009261,-0.000141,-0.000216
344265,-0.009779,-0.001904,-0.138917,0.0,-0.0,-0.0,3.0,0.333551,0.320928,0.318411,0.331163,-0.001049,0.0,-0.058991,0.000275,0.0,-0.000433,-0.011887,-0.001855,-0.128123,0.005483,-0.000142,-0.000216
344285,-0.009788,-0.001783,-0.139037,0.0,-0.0,-0.0,3.0,0.33233,0.320713,0.319705,0.331369,-0.001043,0.0,-0.059,0.000283,0.0,-0.000433,-0.011783,-0.001857,-0.128128,0.003956,-0.00013,-0.000216
344305,-0.009901,-0.001913,-0.139038,0.0,-0.0,-0.0,3.0,0.331246,0.320686,0.320842,0.331395,-0.001037,0.0,-0.059008,0.00029,0.0,-0.000433,-0.011683,-0.001859,-0.128132,0.002466,-0.000117,-0.000215
344325,-0.009788,-0.001783,-0.139037,0.0,-0.0,-0.0,3.0,0.330035,0.320644,0.3221,0.331435,-0.001032,0.0,-0.059017,0.000296,0.0,-0.000433,-0.011604,-0.001862,-0.128136,0.003061,-0.000116,-0.000215
344345,-0.009674,-0.001653,-0.139037,0.0,-0.0,-0.0,3.0,0.329714,0.320625,0.322431,0.331453,-0.001026,0.0,-0.059026,0.000303,0.0,-0.000433,-0.011525,-0.001864,-0.128141,0.003522,-0.000103,-0.000214
344365,-0.009439,-0.001514,-0.139037,0.0,-0.0,-0.0,3.0,0.329264,0.320718,0.322895,0.331364,-0.00102,0.0,-0.059034,0.000309,0.0,-0.000433,-0.011435,-0.001866,-0.128145,0.005618,-0.000101,-0.000226
344385,-0.009326,-0.001384,-0.139036,0.0,-0.0,-0.0,3.0,0.328254,0.320692,0.323927,0.33139,-0.001013,0.0,-0.059043,0.000314,0.0,-0.000433,-0.011326,-0.001868,-0.12815,0.005561,-7.6e-05,-0.000237
344405,-0.008969,-0.001237,-0.139157,0.0,-0.0,-0.0,3.0,0.327804,0.320751,0.324384,0.331333,-0.001007,0.0,-0.059052,0.000319,0.0,-0.000433,-0.011214,-0.00187,-0.128155,0.009027,-7.3e-05,-0.000237
344425,-0.008742,-0.000977,-0.139276,0.0,-0.0,-0.0,3.0,0.328303,0.320883,0.323877,0.331207,-0.001001,0.0,-0.05906,0.000324,0.0,-0.000433,-0.011058,-0.001872,-0.128159,0.010112,-5.9e-05,-0.000248
344445,-0.008507,-0.000839,-0.139397,0.0,-0.0,-0.0,3.0,0.328938,0.320887,0.323229,0.331203,-0.000994,0.0,-0.059069,0.000329,0.0,-0.000433,-0.010891,-0.001873,-0.128164,0.00949,-5.8e-05,-0.000275
344465,-0.008273,-0.000701,-0.139663,0.0,-0.0,-0.0,3.0,0.329537,0.321056,0.322614,0.331041,-0.000987,0.0,-0.059078,0.000333,0.0,-0.000433,-0.010698,-0.001874,-0.12817,0.010065,-4.4e-05,-0.000286
344485,-0.007907,-0.000676,-0.139784,0.0,-0.0,-0.0,3.0,0.332232,0.321153,0.319808,0.330947,-0.000981,0.0,-0.059086,0.000337,0.0,-0.000433,-0.010488,-0.001875,-0.128176,0.008855,-4.3e-05,-0.000298
344505,-0.007785,-0.000668,-0.139905,0.0,-0.0,-0.0,3.0,0.332635,0.321265,0.319382,0.33084,-0.000974,0.0,-0.059095,0.000341,0.0,-0.000433,-0.010263,-0.001875,-0.128181,0.010652,-2.9e-05,-0.000309
344525,-0.007672,-0.000538,-0.140025,0.0,-0.0,-0.0,3.0,0.332048,0.32128,0.320002,0.330826,-0.000967,0.0,-0.059104,0.000345,0.0,-0.000433,-0.010036,-0.001875,-0.128188,0.010653,-3e-06,-0.00032
344545,-0.007324,-0.000269,-0.140145,0.0,-0.0,-0.0,3.0,0.329515,0.321418,0.322636,0.330693,-0.00096,0.0,-0.059112,0.000348,0.0,-0.000433,-0.009799,-0.001875,-0.128194,0.012055,3.6e-05,-0.00032
344565,-0.006984,0.000121,-0.140265,0.0,-0.0,-0.0,3.0,0.326123,0.321414,0.326078,0.330697,-0.000953,0.0,-0.059121,0.000351,0.0,-0.000433,-0.009558,-0.001874,-0.128201,0.011629,8.7e-05,-0.000343
344585,-0.006775,0.000625,-0.140384,0.0,-0.0,-0.0,3.0,0.326236,0.321558,0.325964,0.330558,-0.000946,0.0,-0.05913,0.000354,0.0,-0.000433,-0.009307,-0.001872,-0.128208,0.014615,0.000114,-0.000354
344605,-0.006574,0.001251,-0.140383,0.0,-0.0,-0.0,3.0,0.324253,0.321517,0.327933,0.330598,-0.000939,0.0,-0.059138,0.000357,0.0,-0.000433,-0.009051,-0.00187,-0.128215,0.013978,0.000164,-0.000365
344625,-0.006226,0.00152,-0.140503,0.0,-0.0,-0.0,3.0,0.326111,0.321513,0.32609,0.330601,-0.000932,0.0,-0.059147,0.000359,0.0,-0.000433,-0.008805,-0.001867,-0.128222,0.013824,0.000178,-0.000365
344645,-0.005773,0.002041,-0.140623,0.0,-0.0,-0.0,3.0,0.326693,0.321552,0.325506,0.330564,-0.000925,0.0,-0.059156,0.000361,0.0,-0.000433,-0.008558,-0.001863,-0.12823,0.013421,0.000216,-0.000376
344665,-0.00566,0.002171,-0.140744,0.0,-0.0,-0.0,3.0,0.330205,0.321632,0.321924,0.330487,-0.000918,0.0,-0.059164,0.000363,0.0,-0.000433,-0.008289,-0.001858,-0.128237,0.012958,0.000229,-0.000375
344685,-0.005555,0.002423,-0.140743,0.0,-0.0,-0.0,3.0,0.3284,0.321533,0.323778,0.330582,-0.00091,0.0,-0.059173,0.000365,0.0,-0.000433,-0.008046,-0.001853,-0.128245,0.012499,0.000279,-0.000386
344705,-0.00532,0.002562,-0.140743,0.0,-0.0,-0.0,3.0,0.330581,0.321596,0.321534,0.330521,-0.000903,0.0,-0.059181,0.000366,0.0,-0.000433,-0.0078,-0.001847,-0.128252,0.010686,0.000292,-0.000386
344725,-0.005086,0.002701,-0.140864,0.0,-0.0,-0.0,3.0,0.330091,0.321525,0.322042,0.33059,-0.000896,0.0,-0.05919,0.000368,0.0,-0.000433,-0.007572,-0.001841,-0.12826,0.007334,0.000315,-0.000397
344745,-0.005199,0.00257,-0.140864,0.0,-0.0,-0.0,3.0,0.330646,0.321508,0.321467,0.330606,-0.000888,0.0,-0.059199,0.000369,0.0,-0.000433,-0.007363,-0.001834,-0.128268,0.006139,0.000315,-0.000396
344765,-0.005329,0.002683,-0.140984,0.0,-0.0,-0.0,3.0,0.328398,0.321278,0.32378,0.330828,-0.000881,0.0,-0.059207,0.00037,0.0,-0.000433,-0.007213,-0.001828,-0.128276,0.007298,0.000329,-0.000395
344785,-0.005321,0.002561,-0.140985,0.0,-0.0,-0.0,3.0,0.327933,0.321128,0.324253,0.330972,-0.000873,0.0,-0.059216,0.000371,0.0,-0.000433,-0.007086,-0.001821,-0.128284,0.00557,0.000328,-0.000395
344805,-0.005207,0.002692,-0.140984,0.0,-0.0,-0.0,3.0,0.327307,0.320925,0.324888,0.331166,-0.000866,0.0,-0.059225,0.000371,0.0,-0.000433,-0.007005,-0.001815,-0.128292,0.004462,0.000327,-0.000406
344825,-0.005094,0.002822,-0.140984,0.0,-0.0,-0.0,3.0,0.327083,0.320856,0.325114,0.331233,-0.000859,0.0,-0.059233,0.000372,0.0,-0.000433,-0.006938,-0.001809,-0.1283,0.003428,0.000339,-0.000405
344845,-0.005216,0.002813,-0.140984,0.0,-0.0,-0.0,3.0,0.327757,0.320707,0.324432,0.331375,-0.000851,0.0,-0.059242,0.000372,0.0,-0.000433,-0.00689,-0.001802,-0.128308,0.002772,0.000338,-0.000404
344865,-0.004981,0.002952,-0.140984,0.0,-0.0,-0.0,3.0,0.328376,0.320607,0.323802,0.331471,-0.000844,0.0,-0.059251,0.000372,0.0,-0.000433,-0.006862,-0.001795,-0.128316,0.004055,0.000338,-0.000403
344885,-0.004746,0.003091,-0.140985,0.0,-0.0,-0.0,3.0,0.327192,0.320795,0.325004,0.331291,-0.000836,0.0,-0.059259,0.000373,0.0,-0.000433,-0.006788,-0.001789,-0.128325,0.004594,0.000351,-0.000403
344905,-0.004633,0.003222,-0.140985,0.0,-0.0,-0.0,3.0,0.328941,0.320856,0.323225,0.331232,-0.000829,0.0,-0.059268,0.000373,0.0,-0.000433,-0.006698,-0.001782,-0.128333,0.005026,0.000351,-0.000402
344925,-0.004528,0.003474,-0.140985,0.0,-0.0,-0.0,3.0,0.327767,0.320921,0.324422,0.33117,-0.000821,0.0,-0.059277,0.000372,0.0,-0.000433,-0.006593,-0.001775,-0.128341,0.005136,0.000363,-0.000401
344945,-0.004285,0.003491,-0.140985,0.0,-0.0,-0.0,3.0,0.329361,0.321025,0.322795,0.33107,-0.000814,0.0,-0.059285,0.000372,0.0,-0.000433,-0.006472,-0.001767,-0.128349,0.005027,0.000376,-0.000412
344965,-0.004172,0.003621,-0.141106,0.0,-0.0,-0.0,3.0,0.329194,0.32114,0.322967,0.33096,-0.000806,0.0,-0.059294,0.000372,0.0,-0.000433,-0.006337,-0.001759,-0.128357,0.006392,0.000389,-0.000399
344985,-0.003928,0.003638,-0.141106,0.0,-0.0,-0.0,3.0,0.331654,0.321227,0.320415,0.330877,-0.000799,0.0,-0.059303,0.000371,0.0,-0.000433,-0.006193,-0.001751,-0.128365,0.007757,0.00039,-0.000399
345005,-0.003937,0.00376,-0.140986,0.0,-0.0,-0.0,3.0,0.329646,0.321448,0.322501,0.330664,-0.000792,0.0,-0.059311,0.000371,0.0,-0.000433,-0.00601,-0.001743,-0.128373,0.008339,0.000415,-0.000398
345025,-0.00358,0.003908,-0.140986,0.0,-0.0,-0.0,3.0,0.329516,0.321415,0.322635,0.330696,-0.000784,0.0,-0.05932,0.00037,0.0,-0.000433,-0.005846,-0.001734,-0.128381,0.009191,0.00044,-0.000385
345045,-0.003362,0.004291,-0.140866,0.0,-0.0,-0.0,3.0,0.326317,0.321522,0.325883,0.330593,-0.000777,0.0,-0.059329,0.000369,0.0,-0.000433,-0.005657,-0.001725,-0.128389,0.009585,0.000477,-0.000384
345065,-0.003135,0.004552,-0.140746,0.0,-0.0,-0.0,3.0,0.324874,0.321567,0.32732,0.33055,-0.000769,0.0,-0.059337,0.000368,0.0,-0.000433,-0.005467,-0.001716,-0.128396,0.009972,0.000515,-0.000384
345085,-0.003039,0.004926,-0.140745,0.0,-0.0,-0.0,3.0,0.323745,0.321562,0.328433,0.330554,-0.000762,0.0,-0.059346,0.000367,0.0,-0.000433,-0.005283,-0.001706,-0.128404,0.010662,0.000528,-0.000383
345105,-0.002691,0.005195,-0.140746,0.0,-0.0,-0.0,3.0,0.324984,0.321493,0.327211,0.330621,-0.000755,0.0,-0.059355,0.000366,0.0,-0.000433,-0.005112,-0.001696,-0.128412,0.011541,0.00054,-0.00037
345125,-0.002578,0.005325,-0.140626,0.0,-0.0,-0.0,3.0,0.326456,0.321572,0.325744,0.330545,-0.000747,0.0,-0.059363,0.000365,0.0,-0.000433,-0.004919,-0.001685,-0.128419,0.010563,0.00054,-0.000369
345145,-0.002343,0.005464,-0.140626,0.0,-0.0,-0.0,3.0,0.328308,0.321519,0.323872,0.330596,-0.00074,0.0,-0.059372,0.000364,0.0,-0.000433,-0.004737,-0.001674,-0.128426,0.008091,0.000539,-0.000357
345165,-0.002343,0.005464,-0.140506,0.0,-0.0,-0.0,3.0,0.329438,0.321512,0.322715,0.330602,-0.000733,0.0,-0.059381,0.000362,0.0,-0.000433,-0.004564,-0.001663,-0.128433,0.005616,0.00055,-0.000356
345185,-0.002334,0.005343,-0.140506,0.0,-0.0,-0.0,3.0,0.331809,0.32146,0.320252,0.330653,-0.000726,0.0,-0.059389,0.000361,0.0,-0.000433,-0.004421,-0.001651,-0.12844,0.005322,0.00055,-0.000343
345205,-0.002343,0.005464,-0.140506,0.0,-0.0,-0.0,3.0,0.3302,0.321363,0.321929,0.330745,-0.000718,0.0,-0.059398,0.000359,0.0,-0.000433,-0.004299,-0.00164,-0.128447,0.005085,0.000574,-0.000342
345225,-0.002343,0.005464,-0.140506,0.0,-0.0,-0.0,3.0,0.32989,0.321396,0.32225,0.330714,-0.000711,0.0,-0.059406,0.000358,0.0,-0.000433,-0.004186,-0.001628,-0.128454,0.005088,0.000586,-0.00033
345245,-0.002343,0.005464,-0.140506,0.0,-0.0,-0.0,3.0,0.328863,0.32134,0.323306,0.330768,-0.000704,0.0,-0.059415,0.000356,0.0,-0.000433,-0.004086,-0.001616,-0.12846,0.005277,0.000598,-0.000329
345265,-0.002221,0.005473,-0.140506,0.0,-0.0,-0.0,3.0,0.326853,0.32118,0.325345,0.330921,-0.000697,0.0,-0.059424,0.000355,0.0,-0.000433,-0.004012,-0.001604,-0.128467,0.002488,0.000608,-0.000328
345285,-0.002116,0.005725,-0.140506,0.0,-0.0,-0.0,3.0,0.324092,0.32117,0.328092,0.330932,-0.00069,0.0,-0.059432,0.000353,0.0,-0.000433,-0.003955,-0.001593,-0.128474,0.004915,0.000621,-0.00034
345305,-0.002238,0.005717,-0.140506,0.0,-0.0,-0.0,3.0,0.326121,0.321088,0.32608,0.33101,-0.000683,0.0,-0.059441,0.000351,0.0,-0.000433,-0.003893,-0.001581,-0.128481,0.002523,0.000606,-0.000339
345325,-0.002133,0.005969,-0.140506,0.0,-0.0,-0.0,3.0,0.325247,0.320945,0.326951,0.331148,-0.000676,0.0,-0.05945,0.000349,0.0,-0.000433,-0.003868,-0.001569,-0.128487,0.002174,0.000605,-0.000338
345345,-0.002133,0.005969,-0.140506,0.0,-0.0,-0.0,3.0,0.327901,0.32088,0.324286,0.33121,-0.000669,0.0,-0.059458,0.000347,0.0,-0.000433,-0.003843,-0.001557,-0.128494,0.000292,0.000591,-0.00035
345365,-0.002134,0.005969,-0.140627,0.0,-0.0,-0.0,3.0,0.328123,0.320872,0.324061,0.331217,-0.000662,0.0,-0.059467,0.000345,0.0,-0.000433,-0.003832,-0.001545,-0.128501,0.001796,0.000591,-0.000349
345385,-0.002125,0.005847,-0.140627,0.0,-0.0,-0.0,3.0,0.330733,0.320875,0.321377,0.331214,-0.000655,0.0,-0.059476,0.000343,0.0,-0.000433,-0.00381,-0.001533,-0.128508,0.001613,0.000577,-0.000348
345405,-0.002003,0.005855,-0.140627,0.0,-0.0,-0.0,3.0,0.329876,0.32081,0.322264,0.331277,-0.000648,0.0,-0.059484,0.000341,0.0,-0.000433,-0.003793,-0.001521,-0.128515,-0.000398,0.000587,-0.000348
345425,-0.001986,0.005612,-0.140627,0.0,-0.0,-0.0,3.0,0.330798,0.320727,0.321309,0.331355,-0.000641,0.0,-0.059493,0.000339,0.0,-0.000433,-0.003788,-0.001509,-0.128522,-0.002122,0.000585,-0.000347
345445,-0.002116,0.005725,-0.140627,0.0,-0.0,-0.0,3.0,0.329371,0.320845,0.322784,0.331243,-0.000635,0.0,-0.059502,0.000337,0.0,-0.000433,-0.003773,-0.001497,-0.128529,-0.000662,0.000585,-0.000346
345465,-0.002238,0.005716,-0.140627,0.0,-0.0,-0.0,3.0,0.328618,0.320869,0.323556,0.33122,-0.000628,0.0,-0.05951,0.000335,0.0,-0.000433,-0.003756,-0.001485,-0.128536,0.000646,0.000597,-0.000346
345485,-0.002125,0.005847,-0.140627,0.0,-0.0,-0.0,3.0,0.327376,0.320941,0.324818,0.331151,-0.000621,0.0,-0.059519,0.000333,0.0,-0.000433,-0.003726,-0.001474,-0.128543,0.000239,0.000596,-0.000345
345505,-0.002125,0.005847,-0.140627,0.0,-0.0,-0.0,3.0,0.327838,0.320945,0.32435,0.331147,-0.000615,0.0,-0.059528,0.000331,0.0,-0.000433,-0.003699,-0.001462,-0.12855,-0.000254,0.000607,-0.000344
345525,-0.001899,0.006107,-0.140627,0.0,-0.0,-0.0,3.0,0.325974,0.321137,0.326227,0.330963,-0.000608,0.0,-0.059536,0.000328,0.0,-0.000433,-0.003661,-0.001449,-0.128557,0.0041,0.00062,-0.000356
345545,-0.001777,0.006116,-0.140748,0.0,-0.0,-0.0,3.0,0.327481,0.321176,0.324712,0.330925,-0.000602,0.0,-0.059545,0.000326,0.0,-0.000433,-0.003593,-0.001437,-0.128564,0.004835,0.00062,-0.000355
345565,-0.001551,0.006376,-0.14087,0.0,-0.0,-0.0,3.0,0.325807,0.321237,0.326393,0.330867,-0.000595,0.0,-0.059554,0.000324,0.0,-0.000433,-0.003521,-0.001425,-0.128571,0.008706,0.000633,-0.000367
345585,-0.001177,0.00628,-0.140871,0.0,-0.0,-0.0,3.0,0.327848,0.321274,0.32434,0.330832,-0.000589,0.0,-0.059562,0.000322,0.0,-0.000433,-0.003418,-0.001412,-0.128578,0.007304,0.000632,-0.000378
345605,-0.000838,0.006671,-0.140993,0.0,-0.0,-0.0,3.0,0.326379,0.321432,0.325821,0.330679,-0.000582,0.0,-0.059571,0.000319,0.0,-0.000433,-0.003287,-0.0014,-0.128586,0.007057,0.000644,-0.000377
345625,-0.000717,0.00668,-0.141114,0.0,-0.0,-0.0,3.0,0.328007,0.321673,0.324179,0.330448,-0.000576,0.0,-0.05958,0.000317,0.0,-0.000433,-0.003117,-0.001386,-0.128593,0.0096,0.000657,-0.000389
345645,-0.000491,0.006941,-0.141235,0.0,-0.0,-0.0,3.0,0.328412,0.321794,0.323766,0.330331,-0.000569,0.0,-0.059588,0.000315,0.0,-0.000433,-0.002922,-0.001373,-0.128601,0.008602,0.000657,-0.000388
345665,-0.000361,0.006828,-0.141235,0.0,-0.0,-0.0,3.0,0.329692,0.322017,0.322454,0.330115,-0.000563,0.0,-0.059597,0.000312,0.0,-0.000433,-0.002701,-0.001359,-0.128609,0.007122,0.000668,-0.000399
345685,-0.000126,0.006967,-0.141262,0.0,-0.0,-0.0,3.0,0.328873,0.322128,0.323295,0.330008,-0.000557,0.0,-0.059606,0.00031,0.0,-0.000433,-0.002496,-0.001346,-0.128617,0.009193,0.000682,-0.000398
345705,-1.3e-05,0.007097,-0.141383,0.0,-0.0,-0.0,3.0,0.328983,0.322358,0.323183,0.329785,-0.000551,0.0,-0.059614,0.000307,0.0,-0.000433,-0.002263,-0.001332,-0.128625,0.012421,0.000708,-0.000398
345725,0.000474,0.007132,-0.141385,0.0,-0.0,-0.0,3.0,0.328511,0.32241,0.323665,0.329735,-0.000545,0.0,-0.059623,0.000305,0.0,-0.000433,-0.002031,-0.001317,-0.128633,0.015784,0.000722,-0.000412
345745,0.00083,0.007279,-0.141506,0.0,-0.0,-0.0,3.0,0.325392,0.322429,0.326806,0.329716,-0.000539,0.0,-0.059631,0.000303,0.0,-0.000433,-0.001778,-0.001303,-0.128641,0.013633,0.000758,-0.000423
345765,0.0013,0.007558,-0.141508,0.0,-0.0,-0.0,3.0,0.323654,0.322465,0.328522,0.329681,-0.000533,0.0,-0.05964,0.0003,0.0,-0.000433,-0.001536,-0.001288,-0.12865,0.013536,0.000771,-0.000422
345785,0.001404,0.00781,-0.14163,0.0,-0.0,-0.0,3.0,0.323338,0.322532,0.328831,0.329616,-0.000527,0.0,-0.059649,0.000298,0.0,-0.000433,-0.001274,-0.001273,-0.128658,0.013161,0.000783,-0.000434
345805,0.001639,0.007949,-0.141751,0.0,-0.0,-0.0,3.0,0.324601,0.322538,0.327591,0.32961,-0.000521,0.0,-0.059657,0.000295,0.0,-0.000433,-0.001026,-0.001258,-0.128667,0.013204,0.000771,-0.000445
345825,0.001873,0.008088,-0.141873,0.0,-0.0,-0.0,3.0,0.325257,0.322746,0.326941,0.329408,-0.000515,0.0,-0.059666,0.000293,0.0,-0.000433,-0.000749,-0.001242,-0.128676,0.010953,0.000783,-0.000468
345845,0.001863,0.00821,-0.142114,0.0,-0.0,-0.0,3.0,0.326574,0.322683,0.325626,0.32947,-0.000509,0.0,-0.059675,0.00029,0.0,-0.000433,-0.000503,-0.001227,-0.128685,0.007707,0.000769,-0.000479
345865,0.001993,0.008097,-0.142235,0.0,-0.0,-0.0,3.0,0.330478,0.322707,0.321641,0.329446,-0.000503,0.0,-0.059683,0.000288,0.0,-0.000433,-0.000296,-0.001211,-0.128695,0.009982,0.000758,-0.00049
345885,0.001993,0.008097,-0.142355,0.0,-0.0,-0.0,3.0,0.330287,0.32259,0.321839,0.32956,-0.000497,0.0,-0.059692,0.000285,0.0,-0.000433,-0.000105,-0.001195,-0.128705,0.008917,0.000769,-0.000502
345905,0.002131,0.007862,-0.142476,0.0,-0.0,-0.0,3.0,0.331434,0.322444,0.320646,0.329701,-0.000492,0.0,-0.059701,0.000283,0.0,-0.000433,4.4e-05,-0.001179,-0.128715,0.008543,0.000769,-0.000513
345925,0.002253,0.007871,-0.142597,0.0,-0.0,-0.0,3.0,0.329065,0.322323,0.323098,0.329819,-0.000486,0.0,-0.059709,0.00028,0.0,-0.000433,0.00017,-0.001163,-0.128725,0.004912,0.00079,-0.000512
345945,0.00227,0.007628,-0.142717,0.0,-0.0,-0.0,3.0,0.328059,0.322221,0.324125,0.329918,-0.00048,0.0,-0.059718,0.000278,0.0,-0.000433,0.000267,-0.001148,-0.128735,0.005254,0.00079,-0.000523
345965,0.00213,0.007862,-0.142717,0.0,-0.0,-0.0,3.0,0.325165,0.322087,0.327031,0.330048,-0.000475,0.0,-0.059727,0.000275,0.0,-0.000433,0.000349,-0.001132,-0.128746,0.002461,0.000787,-0.000534
345985,0.00213,0.007863,-0.142838,0.0,-0.0,-0.0,3.0,0.32312,0.322074,0.329043,0.33006,-0.000469,0.0,-0.059735,0.000273,0.0,-0.000433,0.000405,-0.001117,-0.128757,0.001572,0.000798,-0.000545
346005,0.002113,0.008106,-0.142838,0.0,-0.0,-0.0,3.0,0.323044,0.322096,0.329118,0.330038,-0.000464,0.0,-0.059744,0.00027,0.0,-0.000433,0.000458,-0.001102,-0.128768,-0.00058,0.000771,-0.000556
346025,0.002121,0.007985,-0.142984,0.0,-0.0,-0.0,3.0,0.326524,0.32209,0.325676,0.330045,-0.000459,0.0,-0.059753,0.000268,0.0,-0.000433,0.000482,-0.001087,-0.128779,0.002648,0.000747,-0.000569
346045,0.00212,0.007985,-0.143105,0.0,-0.0,-0.0,3.0,0.329057,0.322238,0.323106,0.329901,-0.000453,0.0,-0.059761,0.000265,0.0,-0.000433,0.000531,-0.001072,-0.12879,0.005541,0.000723,-0.000568
346065,0.002268,0.007628,-0.143225,0.0,-0.0,-0.0,3.0,0.331759,0.322011,0.320305,0.330121,-0.000448,0.0,-0.05977,0.000263,0.0,-0.000433,0.000556,-0.001057,-0.128801,0.003646,0.000709,-0.000579
346085,0.002511,0.007646,-0.143226,0.0,-0.0,-0.0,3.0,0.330952,0.32197,0.321148,0.330161,-0.000443,0.0,-0.059779,0.00026,0.0,-0.000433,0.000578,-0.001042,-0.128813,0.001682,0.000706,-0.000578
346105,0.002415,0.007272,-0.143346,0.0,-0.0,-0.0,3.0,0.332086,0.321942,0.319961,0.330187,-0.000438,0.0,-0.059787,0.000258,0.0,-0.000433,0.000601,-0.001028,-0.128824,-0.000302,0.000704,-0.000589
346125,0.002285,0.007385,-0.143345,0.0,-0.0,-0.0,3.0,0.329411,0.321897,0.322743,0.330231,-0.000432,0.0,-0.059796,0.000256,0.0,-0.000433,0.000609,-0.001013,-0.128836,-0.0004,0.000703,-0.000587
346145,0.002163,0.007376,-0.143345,0.0,-0.0,-0.0,3.0,0.327366,0.321975,0.324828,0.330156,-0.000427,0.0,-0.059805,0.000253,0.0,-0.000433,0.000629,-0.000999,-0.128848,-0.002586,0.000725,-0.000586
346165,0.002163,0.007376,-0.143345,0.0,-0.0,-0.0,3.0,0.325804,0.322041,0.326396,0.330092,-0.000422,0.0,-0.059813,0.000251,0.0,-0.000433,0.00064,-0.000985,-0.12886,-0.002734,0.000723,-0.000585
346185,0.002023,0.007611,-0.143466,0.0,-0.0,-0.0,3.0,0.32567,0.322181,0.32653,0.329956,-0.000417,0.0,-0.059822,0.000248,0.0,-0.000433,0.000657,-0.000971,-0.128872,-0.001311,0.000723,-0.000596
346205,0.002145,0.00762,-0.143466,0.0,-0.0,-0.0,3.0,0.326495,0.322307,0.325705,0.329834,-0.000412,0.0,-0.059831,0.000246,0.0,-0.000433,0.00067,-0.000956,-0.128884,0.003626,0.000712,-0.000595
346225,0.002145,0.00762,-0.143587,0.0,-0.0,-0.0,3.0,0.327449,0.322248,0.324744,0.329891,-0.000407,0.0,-0.059839,0.000243,0.0,-0.000433,0.000698,-0.000942,-0.128896,0.00324,0.00071,-0.000606
346245,0.002527,0.007403,-0.143587,0.0,-0.0,-0.0,3.0,0.328083,0.32217,0.324101,0.329967,-0.000403,0.0,-0.059848,0.000241,0.0,-0.000433,0.000703,-0.000928,-0.128908,0.004949,0.000698,-0.000605
346265,0.002658,0.00729,-0.143588,0.0,-0.0,-0.0,3.0,0.328039,0.322104,0.324146,0.330031,-0.000398,0.0,-0.059856,0.000239,0.0,-0.000433,0.000728,-0.000914,-0.12892,0.002938,0.000695,-0.000615
346285,0.002666,0.007168,-0.143708,0.0,-0.0,-0.0,3.0,0.327608,0.322045,0.324583,0.330088,-0.000393,0.0,-0.059865,0.000236,0.0,-0.000433,0.000749,-0.0009,-0.128932,0.001108,0.000681,-0.000602
346305,0.002667,0.007168,-0.143587,0.0,-0.0,-0.0,3.0,0.326936,0.322163,0.325262,0.329974,-0.000388,0.0,-0.059874,0.000234,0.0,-0.000433,0.000784,-0.000887,-0.128944,0.000626,0.000679,-0.000613
346325,0.002667,0.007168,-0.143587,0.0,-0.0,-0.0,3.0,0.326667,0.322291,0.325532,0.32985,-0.000384,0.0,-0.059882,0.000231,0.0,-0.000433,0.000836,-0.000874,-0.128956,3.8e-05,0.000666,-0.000612
346345,0.002675,0.007046,-0.143587,0.0,-0.0,-0.0,3.0,0.327303,0.322534,0.324892,0.329614,-0.000379,0.0,-0.059891,0.000229,0.0,-0.000433,0.000909,-0.00086,-0.128968,0.000825,0.000653,-0.00061
346365,0.002684,0.006925,-0.143587,0.0,-0.0,-0.0,3.0,0.328768,0.322703,0.323403,0.32945,-0.000374,0.0,-0.0599,0.000227,0.0,-0.000433,0.000989,-0.000847,-0.12898,0.003297,0.000629,-0.000597
346385,0.002702,0.006681,-0.143587,0.0,-0.0,-0.0,3.0,0.32968,0.322813,0.322466,0.329343,-0.00037,0.0,-0.059908,0.000224,0.0,-0.000433,0.001081,-0.000835,-0.128992,0.00549,0.000618,-0.000596
346405,0.003085,0.006464,-0.143587,0.0,-0.0,-0.0,3.0,0.330959,0.322765,0.321141,0.32939,-0.000365,0.0,-0.059917,0.000222,0.0,-0.000433,0.001159,-0.000822,-0.129004,0.00634,0.000593,-0.000583
346425,0.003346,0.006238,-0.143467,0.0,-0.0,-0.0,3.0,0.330189,0.322809,0.32194,0.329347,-0.000361,0.0,-0.059926,0.00022,0.0,-0.000433,0.001249,-0.00081,-0.129016,0.008548,0.000581,-0.000582
346445,0.003607,0.006011,-0.143346,0.0,-0.0,-0.0,3.0,0.328629,0.322815,0.323545,0.329341,-0.000357,0.0,-0.059934,0.000217,0.0,-0.000433,0.001357,-0.000799,-0.129027,0.007195,0.000568,-0.000568
346465,0.003738,0.005898,-0.143226,0.0,-0.0,-0.0,3.0,0.327114,0.322803,0.325082,0.329352,-0.000352,0.0,-0.059943,0.000215,0.0,-0.000433,0.001473,-0.000788,-0.129039,0.004069,0.000554,-0.000567
346485,0.003747,0.005776,-0.143105,0.0,-0.0,-0.0,3.0,0.32749,0.322913,0.324702,0.329245,-0.000348,0.0,-0.059952,0.000213,0.0,-0.000433,0.001589,-0.000777,-0.12905,0.004507,0.000517,-0.000554
346505,0.003887,0.005541,-0.143105,0.0,-0.0,-0.0,3.0,0.326858,0.323177,0.32534,0.328988,-0.000344,0.0,-0.05996,0.000211,0.0,-0.000433,0.001729,-0.000768,-0.129061,0.006163,0.000494,-0.000553
346525,0.004035,0.005184,-0.142958,0.0,-0.0,-0.0,3.0,0.329641,0.323413,0.322506,0.328757,-0.00034,0.0,-0.059969,0.000208,0.0,-0.000433,0.0019,-0.000758,-0.129072,0.005973,0.000445,-0.000537
346545,0.004426,0.004845,-0.142837,0.0,-0.0,-0.0,3.0,0.332066,0.323679,0.319983,0.328497,-0.000335,0.0,-0.059978,0.000206,0.0,-0.000433,0.002081,-0.000749,-0.129082,0.010629,0.000399,-0.000524
346565,0.004575,0.004488,-0.142716,0.0,-0.0,-0.0,3.0,0.334858,0.323809,0.31701,0.32837,-0.000331,0.0,-0.059986,0.000204,0.0,-0.000433,0.002294,-0.000741,-0.129092,0.013073,0.000364,-0.000499
346585,0.005088,0.004157,-0.142595,0.0,-0.0,-0.0,3.0,0.332054,0.323924,0.319995,0.328257,-0.000327,0.0,-0.059995,0.000202,0.0,-0.000433,0.002512,-0.000733,-0.129102,0.015097,0.000366,-0.000474
346605,0.00548,0.003817,-0.142353,0.0,-0.0,-0.0,3.0,0.331615,0.324162,0.320456,0.328022,-0.000323,0.0,-0.060004,0.0002,0.0,-0.000433,0.002784,-0.000726,-0.129112,0.013164,0.000354,-0.000461
346625,0.005733,0.003712,-0.142112,0.0,-0.0,-0.0,3.0,0.328304,0.324176,0.323876,0.328009,-0.000319,0.0,-0.060012,0.000197,0.0,-0.000433,0.00304,-0.000719,-0.129121,0.013116,0.000342,-0.000436
346645,0.005976,0.003729,-0.141991,0.0,-0.0,-0.0,3.0,0.32553,0.324416,0.326669,0.327772,-0.000315,0.0,-0.060021,0.000195,0.0,-0.000433,0.003321,-0.000713,-0.12913,0.01428,0.000344,-0.000423
346665,0.006107,0.003615,-0.14175,0.0,-0.0,-0.0,3.0,0.325533,0.324419,0.326667,0.32777,-0.000311,0.0,-0.06003,0.000193,0.0,-0.000433,0.003594,-0.000707,-0.129138,0.012563,0.000308,-0.00041
