time_ms,roll,pitch,yaw,roll_rate,pitch_rate,yaw_rate,reference_roll,reference_pitch,reference_yaw,reference_throttle,throttle_1,throttle_2,throttle_3,throttle_4,roll_predicted,pitch_predicted,yaw_predicted,roll_rate_predicted,pitch_rate_predicted,yaw_rate_predicted
381278,-0.015184,0.013331,-0.078421,-1.4e-05,-1.6e-05,-0.001064,0.0,-0.0,-0.0,2.0,0.282024,0.276398,0.282024,0.287494,,,,,,
381298,-0.015062,0.013334,-0.078544,0.0,0.0,0.0,6.6e-05,-0.0,-0.0,2.0,0.282024,0.276462,0.282024,0.287433,,,,,,
381318,-0.014936,0.013217,-0.078546,-0.001064,-0.001064,1.6e-05,0.003849,-0.0,-0.0,2.0,0.282024,0.273675,0.282024,0.290032,,,,,,
381338,-0.014813,0.013223,-0.078425,0.0,-0.001064,1.6e-05,0.007543,-0.0,-0.0,2.0,0.282024,0.270888,0.282024,0.292561,,,,,,
381358,-0.014935,0.013218,-0.078424,-0.001078,-1.6e-05,-0.001064,0.009466,-0.0,-0.0,2.0,0.282024,0.267571,0.282024,0.295483,,,,,,
381378,-0.014814,0.013222,-0.078547,-0.001064,-0.001064,1.6e-05,0.012216,-0.0,-0.0,2.0,0.282024,0.265472,0.282024,0.297284,,,,,,
381398,-0.014814,0.013222,-0.078547,0.0,-0.001064,1.6e-05,0.017629,-0.0,-0.0,2.0,0.282024,0.262872,0.282024,0.299465,,,,,,
381418,-0.014809,0.0131,-0.078547,-1.4e-05,-1.6e-05,-0.001064,0.020406,-0.0,-0.0,2.0,0.282024,0.260574,0.282024,0.301349,,,,,,
381438,-0.014443,0.013114,-0.07855,0.0,0.0,0.0,0.02242,-0.0,-0.0,2.0,0.282024,0.259232,0.282024,0.30243,,,,,,
381458,-0.014073,0.013006,-0.078676,0.0,0.0,0.0,0.027403,-0.0,-0.0,2.0,0.282024,0.257212,0.282024,0.304032,,,,,,
381478,-0.01358,0.012904,-0.078559,0.002129,-0.001064,1.4e-05,0.031202,-0.0,-0.0,2.0,0.282024,0.254381,0.282024,0.306226,,,,,,
381498,-0.012727,0.012937,-0.078687,0.001051,-0.001078,-0.001051,0.034642,-0.0,-0.0,2.0,0.282024,0.252152,0.282024,0.307912,,,,,,
381518,-0.011507,0.012985,-0.078696,0.002115,-1.2e-05,-0.001064,0.038132,-0.0,-0.0,2.0,0.282024,0.252114,0.282024,0.307941,,,,,,
381538,-0.009922,0.013047,-0.07883,0.004257,0.0,0.0,0.040634,-0.0,-0.0,2.0,0.282024,0.255085,0.282024,0.305686,,,,,,
381558,-0.007839,0.012885,-0.078846,0.005321,-0.001064,8e-06,0.04423,-0.0,-0.0,2.0,0.282024,0.25379,0.282024,0.306676,,,,,,
381578,-0.00515,0.012869,-0.078865,0.006372,-0.00107,-0.001059,0.046016,-0.0,-0.0,2.0,0.282024,0.256435,0.282024,0.30464,,,,,,
381598,-0.001853,0.012877,-0.079009,0.00745,0.0,0.0,0.048461,-0.0,-0.0,2.0,0.282024,0.25902,0.282024,0.3026,,,,,,
381618,0.002059,0.012788,-0.079155,0.008514,0.0,0.0,0.052329,-0.0,-0.0,2.0,0.282024,0.262683,0.282024,0.299622,,,,,,
381638,0.006577,0.012844,-0.079303,0.010642,0.0,0.0,0.055443,-0.0,-0.0,2.0,0.282024,0.267333,0.282024,0.295689,,,,,,
381658,0.011586,0.012799,-0.079451,0.011693,-0.001052,-0.001077,0.0584,-0.0,-0.0,2.0,0.282024,0.270682,0.282024,0.292745,,,,,,
381678,0.017083,0.012775,-0.079719,0.012757,-0.001046,-0.001082,0.05981,-0.0,-0.0,2.0,0.282024,0.273867,0.282024,0.289856,,,,,,
381698,0.023435,0.012786,-0.080002,0.01277,-0.001064,-2.5e-05,0.062498,-0.0,-0.0,2.0,0.282024,0.278313,0.282024,0.285666,,,,,,
381718,0.030035,0.012687,-0.080279,0.013848,-3.2e-05,0.001064,0.064008,-0.0,-0.0,2.0,0.282024,0.2853,0.282024,0.278693,,,,,,
381738,0.036875,0.01272,-0.080553,0.014899,0.0,0.0,0.06638,-0.0,-0.0,2.0,0.282024,0.288505,0.282024,0.275322,,,,,,
381758,0.044202,0.012778,-0.080943,0.015963,-0.001063,-4.7e-05,0.068528,-0.0,-0.0,2.0,0.282024,0.293691,0.282024,0.269618,,,,,,
381778,0.051906,0.012612,-0.081458,0.015963,0.0,0.0,0.071824,-0.0,-0.0,2.0,0.282024,0.296748,0.282024,0.266101,,,,,,
381798,0.059611,0.012447,-0.081843,0.015977,-6.3e-05,0.001062,0.073602,-0.0,-0.0,2.0,0.282024,0.300746,0.282024,0.261316,,,,,,
381818,0.067425,0.012646,-0.081989,0.015962,-0.001062,-7.2e-05,0.075554,-0.0,-0.0,2.0,0.282024,0.304626,0.282024,0.256452,,,,,,
381838,0.075008,0.01248,-0.082358,0.015949,-0.000981,-0.001141,0.077386,-0.0,-0.0,2.0,0.282024,0.308406,0.282024,0.251491,,,,,,
381858,0.082464,0.012555,-0.082743,0.014899,0.0,0.0,0.078248,-0.0,-0.0,2.0,0.282024,0.311254,0.282024,0.247594,,,,,,
381878,0.089556,0.012485,-0.08286,0.013847,-0.001155,0.000965,0.079815,-0.0,-0.0,2.0,0.282024,0.313354,0.282024,0.244626,,,,,,
381898,0.096167,0.012391,-0.082866,0.012756,-0.000957,-0.001162,0.080666,-0.0,-0.0,2.0,0.282024,0.31696,0.282024,0.239329,,,,,,
381918,0.10203,0.012515,-0.082988,0.011692,-0.00095,-0.001167,0.08195,-0.0,-0.0,2.0,0.282024,0.317075,0.282024,0.239156,,,,,,
381938,0.107289,0.012494,-0.083103,0.009563,-0.000944,-0.001172,0.083612,-0.0,-0.0,2.0,0.282024,0.316591,0.282024,0.239883,,,,,,
381958,0.111815,0.012551,-0.082982,0.00745,0.0,0.0,0.084512,-0.0,-0.0,2.0,0.282024,0.317479,0.282024,0.238545,,,,,,
381978,0.115239,0.012685,-0.082872,0.00532,-0.001057,-0.000122,0.085247,-0.0,-0.0,2.0,0.282024,0.316394,0.282024,0.240178,,,,,,
381998,0.117687,0.012656,-0.082745,0.003179,0.000125,-0.001057,0.085969,-0.0,-0.0,2.0,0.282024,0.314716,0.282024,0.242656,,,,,,
382018,0.119161,0.012595,-0.082744,0.001051,0.000127,-0.001057,0.086535,-0.0,-0.0,2.0,0.282024,0.311119,0.282024,0.247781,,,,,,
382038,0.119769,0.012619,-0.08274,-0.001064,0.0,0.0,0.086943,-0.0,-0.0,2.0,0.282024,0.309836,0.282024,0.249552,,,,,,
382058,0.119405,0.012597,-0.082621,-0.00213,-0.001057,-0.000127,0.087084,-0.0,-0.0,2.0,0.282024,0.306637,0.282024,0.253842,,,,,,
382078,0.118421,0.012664,-0.082376,-0.003208,-0.000931,-0.001183,0.087265,-0.0,-0.0,2.0,0.282024,0.304425,0.282024,0.25671,,,,,,
382098,0.11671,0.012724,-0.082515,-0.005336,-0.000933,-0.001181,0.087237,-0.0,-0.0,2.0,0.282024,0.301866,0.282024,0.259935,,,,,,
382118,0.114634,0.012632,-0.08239,-0.005323,-0.001057,-0.000122,0.086989,-0.0,-0.0,2.0,0.282024,0.299159,0.282024,0.263241,,,,,,
382138,0.112181,0.012647,-0.082259,-0.006399,0.000119,-0.001058,0.086797,-0.0,-0.0,2.0,0.282024,0.296121,0.282024,0.266832,,,,,,
382158,0.109734,0.012669,-0.082263,-0.006399,0.000117,-0.001058,0.086456,-0.0,-0.0,2.0,0.282024,0.294654,0.282024,0.268523,,,,,,
382178,0.10692,0.012684,-0.082389,-0.006399,0.000114,-0.001058,0.085794,-0.0,-0.0,2.0,0.282024,0.293181,0.282024,0.270193,,,,,,
382198,0.104113,0.012563,-0.082266,-0.006385,0.0,0.0,0.085044,-0.0,-0.0,2.0,0.282024,0.291745,0.282024,0.271796,,,,,,
382218,0.101554,0.012337,-0.082256,-0.006387,-0.001059,-0.000108,0.084115,-0.0,-0.0,2.0,0.282024,0.29058,0.282024,0.273077,,,,,,
382238,0.098863,0.012349,-0.082258,-0.005336,-0.000954,-0.001164,0.08284,-0.0,-0.0,2.0,0.282024,0.289578,0.282024,0.274167,,,,,,
382258,0.096421,0.01225,-0.082252,-0.005334,0.000102,-0.001059,0.081983,-0.0,-0.0,2.0,0.282024,0.290033,0.282024,0.273673,,,,,,
382278,0.094338,0.012292,-0.082372,-0.005321,0.0,0.0,0.081983,-0.0,-0.0,2.0,0.282024,0.288555,0.282024,0.275269,,,,,,
382298,0.092262,0.012202,-0.082243,-0.004258,-0.00106,-9.8e-05,0.07921,-0.0,-0.0,2.0,0.282024,0.290607,0.282024,0.273048,,,,,,
382318,0.090673,0.012137,-0.082233,-0.003206,9.6e-05,-0.00106,0.078116,-0.0,-0.0,2.0,0.282024,0.290238,0.282024,0.273451,,,,,,
382338,0.089444,0.012331,-0.082248,-0.003207,-0.000965,-0.001155,0.075783,-0.0,-0.0,2.0,0.282024,0.292556,0.282024,0.270893,,,,,,
382358,0.088469,0.012292,-0.082251,-0.00213,-0.00106,-9.4e-05,0.073902,-0.0,-0.0,2.0,0.282024,0.294733,0.282024,0.268433,,,,,,
382378,0.087856,0.012261,-0.082116,-0.001064,0.0,0.0,0.072908,-0.0,-0.0,2.0,0.282024,0.294977,0.282024,0.268153,,,,,,
382398,0.087608,0.012368,-0.082001,-0.001078,-0.000967,-0.001153,0.070807,-0.0,-0.0,2.0,0.282024,0.297753,0.282024,0.264919,,,,,,
382418,0.087487,0.012357,-0.08188,-0.001078,-0.000967,-0.001153,0.068554,-0.0,-0.0,2.0,0.282024,0.300683,0.282024,0.261393,,,,,,
382438,0.087614,0.01224,-0.081874,-1.3e-05,9.3e-05,-0.00106,0.068554,-0.0,-0.0,2.0,0.282024,0.300786,0.282024,0.261266,,,,,,
382458,0.087737,0.01224,-0.081752,-1e-06,-0.00106,-9.3e-05,0.064032,-0.0,-0.0,2.0,0.282024,0.303862,0.282024,0.257428,,,,,,
382478,0.087864,0.012118,-0.081625,-0.001078,-0.000967,-0.001154,0.062632,-0.0,-0.0,2.0,0.282024,0.304871,0.282024,0.256138,,,,,,
382498,0.087738,0.012235,-0.081631,-0.001077,9.3e-05,-0.00106,0.058855,-0.0,-0.0,2.0,0.282024,0.305826,0.282024,0.254902,,,,,,
382518,0.087489,0.012347,-0.081637,-0.001064,0.0,0.0,0.056543,-0.0,-0.0,2.0,0.282024,0.307191,0.282024,0.253111,,,,,,
382538,0.087123,0.012332,-0.081638,-0.00213,-0.00106,-9.3e-05,0.053313,-0.0,-0.0,2.0,0.282024,0.307626,0.282024,0.252534,,,,,,
382558,0.086393,0.012297,-0.081519,-0.002143,-0.000968,-0.001152,0.050253,-0.0,-0.0,2.0,0.282024,0.309117,0.282024,0.250531,,,,,,
382578,0.08553,0.012384,-0.081511,-0.003207,-0.000969,-0.001151,0.047088,-0.0,-0.0,2.0,0.282024,0.3106,0.282024,0.248502,,,,,,
382598,0.084311,0.012335,-0.081514,-0.004271,-0.000971,-0.00115,0.044952,-0.0,-0.0,2.0,0.282024,0.309793,0.282024,0.249611,,,,,,
382618,0.082845,0.01227,-0.081381,-0.00427,8.8e-05,-0.001061,0.041305,-0.0,-0.0,2.0,0.282024,0.309782,0.282024,0.249626,,,,,,
382638,0.080897,0.012182,-0.081143,-0.005321,0.0,0.0,0.03953,-0.0,-0.0,2.0,0.282024,0.30823,0.282024,0.251727,,,,,,
382658,0.0787,0.012084,-0.08089,-0.006398,8.4e-05,-0.001061,0.035706,-0.0,-0.0,2.0,0.282024,0.30786,0.282024,0.252222,,,,,,
382678,0.076015,0.011972,-0.080758,-0.006399,-0.00098,-0.001142,0.034048,-0.0,-0.0,2.0,0.282024,0.307191,0.282024,0.253111,,,,,,
382698,0.072833,0.01208,-0.080514,-0.007451,-0.001061,-7.7e-05,0.029646,-0.0,-0.0,2.0,0.282024,0.306553,0.282024,0.253953,,,,,,
382718,0.069287,0.012169,-0.080148,-0.008528,-0.000988,-0.001135,0.025553,-0.0,-0.0,2.0,0.282024,0.305468,0.282024,0.255368,,,,,,
382738,0.06537,0.012368,-0.079783,-0.009592,-0.000992,-0.001132,0.022015,-0.0,-0.0,2.0,0.282024,0.303767,0.282024,0.257549,,,,,,
382758,0.060966,0.012426,-0.079398,-0.010669,-0.000933,-0.00219,0.018415,-0.0,-0.0,2.0,0.282024,0.30177,0.282024,0.260054,,,,,,
382778,0.055958,0.012459,-0.078902,-0.011734,-0.000944,-0.002185,0.016402,-0.0,-0.0,2.0,0.282024,0.29827,0.282024,0.264305,,,,,,
382798,0.050827,0.01249,-0.078403,-0.012797,0.000108,-0.002126,0.01277,-0.0,-0.0,2.0,0.282024,0.295726,0.282024,0.267291,,,,,,
382818,0.045206,0.012504,-0.077886,-0.012784,4.8e-05,-0.001063,0.009298,-0.0,-0.0,2.0,0.282024,0.294243,0.282024,0.268991,,,,,,
382838,0.039105,0.01238,-0.077375,-0.013848,4.2e-05,-0.001063,0.007248,-0.0,-0.0,2.0,0.282024,0.28987,0.282024,0.273851,,,,,,
382858,0.032877,0.012377,-0.076862,-0.014913,-0.001029,-0.001099,0.001196,-0.0,-0.0,2.0,0.282024,0.288203,0.282024,0.275645,,,,,,
382878,0.026278,0.012484,-0.076345,-0.014926,-0.001008,-0.002156,-0.001017,-0.0,-0.0,2.0,0.282024,0.285051,0.282024,0.27895,,,,,,
382898,0.019558,0.012588,-0.075701,-0.014913,-0.001043,-0.001085,-0.004674,-0.0,-0.0,2.0,0.282024,0.2828,0.282024,0.281245,,,,,,
382918,0.012834,0.01282,-0.075186,-0.015991,-0.001037,-0.002142,-0.008499,-0.0,-0.0,2.0,0.282024,0.280685,0.282024,0.283354,,,,,,
382938,0.006114,0.012932,-0.074651,-0.014913,-0.001058,-0.001071,-0.012222,-0.0,-0.0,2.0,0.282024,0.278453,0.282024,0.285532,,,,,,
382958,-0.000728,0.013044,-0.074122,-0.014913,-0.001065,-0.001064,-0.014691,-0.0,-0.0,2.0,0.282024,0.275127,0.282024,0.288687,,,,,,
382978,-0.007326,0.013167,-0.07359,-0.014927,-1.6e-05,-0.002129,-0.017182,-0.0,-0.0,2.0,0.282024,0.271992,0.282024,0.291567,,,,,,
382998,-0.01367,0.013059,-0.073055,-0.013849,-0.001079,-0.00105,-0.021687,-0.0,-0.0,2.0,0.282024,0.272271,0.282024,0.291315,,,,,,
383018,-0.019897,0.013079,-0.072516,-0.012785,-2.1e-05,-0.001064,-0.024967,-0.0,-0.0,2.0,0.282024,0.269953,0.282024,0.293394,,,,,,
383038,-0.025764,0.013239,-0.071989,-0.012785,-2.7e-05,-0.001064,-0.029602,-0.0,-0.0,2.0,0.282024,0.270732,0.282024,0.2927,,,,,,
383058,-0.031137,0.013296,-0.071449,-0.011734,-0.00113,-0.002094,-0.031984,-0.0,-0.0,2.0,0.282024,0.270114,0.282024,0.293251,,,,,,
383078,-0.036142,0.013245,-0.071047,-0.010656,-0.001102,-0.001025,-0.035476,-0.0,-0.0,2.0,0.282024,0.268903,0.282024,0.294321,,,,,,
383098,-0.040912,0.013451,-0.070519,-0.010671,-8.7e-05,-0.002127,-0.038797,-0.0,-0.0,2.0,0.282024,0.269517,0.282024,0.29378,,,,,,
383118,-0.045065,0.013555,-0.070105,-0.009592,-0.001111,-0.001015,-0.042369,-0.0,-0.0,2.0,0.282024,0.27076,0.282024,0.292676,,,,,,
383138,-0.049098,0.013668,-0.069582,-0.008528,-0.001115,-0.001011,-0.043988,-0.0,-0.0,2.0,0.282024,0.270616,0.282024,0.292804,,,,,,
383158,-0.052884,0.013667,-0.069184,-0.007479,-0.000113,-0.002126,-0.04863,-0.0,-0.0,2.0,0.282024,0.271281,0.282024,0.292208,,,,,,
383178,-0.055931,0.01357,-0.068784,-0.007464,-5.9e-05,-0.001063,-0.05064,-0.0,-0.0,2.0,0.282024,0.272184,0.282024,0.291394,,,,,,
383198,-0.058863,0.013601,-0.068394,-0.0064,-6.3e-05,-0.001062,-0.053381,-0.0,-0.0,2.0,0.282024,0.273734,0.282024,0.289978,,,,,,
383218,-0.061666,0.013515,-0.067995,-0.005335,-0.001128,-0.000997,-0.054812,-0.0,-0.0,2.0,0.282024,0.272676,0.282024,0.290947,,,,,,
383238,-0.064111,0.013564,-0.067609,-0.005349,-0.001198,-0.002056,-0.058621,-0.0,-0.0,2.0,0.282024,0.273726,0.282024,0.289985,,,,,,
383258,-0.066065,0.013623,-0.06746,-0.005335,-0.001132,-0.000992,-0.06121,-0.0,-0.0,2.0,0.282024,0.275891,0.282024,0.287971,,,,,,
383278,-0.068144,0.013687,-0.067077,-0.004271,-7.2e-05,-0.001062,-0.064108,-0.0,-0.0,2.0,0.282024,0.27817,0.282024,0.285804,,,,,,
383298,-0.069853,0.013763,-0.066686,-0.00427,-0.001136,-0.000987,-0.066599,-0.0,-0.0,2.0,0.282024,0.278733,0.282024,0.285261,,,,,,
383318,-0.071442,0.013714,-0.066557,-0.004285,-0.001213,-0.002047,-0.067896,-0.0,-0.0,2.0,0.282024,0.278536,0.282024,0.285452,,,,,,
383338,-0.072907,0.013795,-0.06629,-0.004257,0.0,0.0,-0.070192,-0.0,-0.0,2.0,0.282024,0.280791,0.282024,0.283249,,,,,,
383358,-0.074487,0.013628,-0.066031,-0.00427,-0.00114,-0.000982,-0.072746,-0.0,-0.0,2.0,0.282024,0.279884,0.282024,0.284141,,,,,,
383378,-0.075953,0.013589,-0.06578,-0.00427,-0.001142,-0.00098,-0.073748,-0.0,-0.0,2.0,0.282024,0.279514,0.282024,0.284502,,,,,,
383398,-0.077542,0.013662,-0.065633,-0.004271,-8.2e-05,-0.001061,-0.076447,-0.0,-0.0,2.0,0.282024,0.280385,0.282024,0.28365,,,,,,
383418,-0.079134,0.013736,-0.065498,-0.004271,-8.4e-05,-0.001061,-0.077416,-0.0,-0.0,2.0,0.282024,0.279923,0.282024,0.284103,,,,,,
383438,-0.080718,0.013692,-0.065233,-0.004256,-0.001061,8.6e-05,-0.079543,-0.0,-0.0,2.0,0.282024,0.280305,0.282024,0.283729,,,,,,
383458,-0.082436,0.013889,-0.064969,-0.004272,-8.8e-05,-0.001061,-0.080988,-0.0,-0.0,2.0,0.282024,0.280102,0.282024,0.283928,,,,,,
383478,-0.08439,0.013951,-0.064815,-0.004272,-9e-05,-0.001061,-0.081685,-0.0,-0.0,2.0,0.282024,0.279166,0.282024,0.284841,,,,,,
383498,-0.086227,0.014018,-0.064675,-0.004256,-0.00106,9.2e-05,-0.082914,-0.0,-0.0,2.0,0.282024,0.278711,0.282024,0.285282,,,,,,
383518,-0.088181,0.013964,-0.064416,-0.005336,-9.4e-05,-0.00106,-0.083627,-0.0,-0.0,2.0,0.282024,0.277779,0.282024,0.286179,,,,,,
383538,-0.090374,0.013903,-0.064142,-0.005336,-9.6e-05,-0.00106,-0.084573,-0.0,-0.0,2.0,0.282024,0.275171,0.282024,0.288646,,,,,,
383558,-0.092572,0.013836,-0.064,-0.005334,-0.001158,-0.000961,-0.085675,-0.0,-0.0,2.0,0.282024,0.274335,0.282024,0.289423,,,,,,
383578,-0.094893,0.013766,-0.063857,-0.006399,-0.00116,-0.000959,-0.086019,-0.0,-0.0,2.0,0.282024,0.272814,0.282024,0.290821,,,,,,
383598,-0.097343,0.013942,-0.063578,-0.0064,-0.000103,-0.001059,-0.086518,-0.0,-0.0,2.0,0.282024,0.269586,0.282024,0.293719,,,,,,
383618,-0.099911,0.013986,-0.063424,-0.006399,-0.001165,-0.000953,-0.087038,-0.0,-0.0,2.0,0.282024,0.26797,0.282024,0.295136,,,,,,
383638,-0.10248,0.01403,-0.063269,-0.006399,-0.001168,-0.00095,-0.087225,-0.0,-0.0,2.0,0.282024,0.266074,0.282024,0.296771,,,,,,
383658,-0.105174,0.014193,-0.063106,-0.0064,-0.000112,-0.001058,-0.08726,-0.0,-0.0,2.0,0.282024,0.26393,0.282024,0.298585,,,,,,
383678,-0.107738,0.014116,-0.062956,-0.006385,0.0,0.0,-0.08713,-0.0,-0.0,2.0,0.282024,0.261733,0.282024,0.300404,,,,,,
383698,-0.110181,0.014044,-0.062808,-0.006399,-0.001175,-0.000941,-0.08691,-0.0,-0.0,2.0,0.282024,0.261355,0.282024,0.300713,,,,,,
383718,-0.112505,0.014097,-0.062654,-0.005321,0.0,0.0,-0.086469,-0.0,-0.0,2.0,0.282024,0.259064,0.282024,0.302564,,,,,,
383738,-0.114826,0.014029,-0.062507,-0.005336,-0.000122,-0.001057,-0.086064,-0.0,-0.0,2.0,0.282024,0.256805,0.282024,0.304351,,,,,,
383758,-0.11666,0.01397,-0.062489,-0.005319,-0.001057,0.000124,-0.085484,-0.0,-0.0,2.0,0.282024,0.254729,0.282024,0.305959,,,,,,
383778,-0.118497,0.014047,-0.062221,-0.004272,-0.000126,-0.001057,-0.085022,-0.0,-0.0,2.0,0.282024,0.256542,0.282024,0.304556,,,,,,
383798,-0.120088,0.013996,-0.062206,-0.003206,-0.001184,-0.000929,-0.083553,-0.0,-0.0,2.0,0.282024,0.253911,0.282024,0.306585,,,,,,
383818,-0.121187,0.014082,-0.062181,-0.003208,-0.000129,-0.001057,-0.082322,-0.0,-0.0,2.0,0.282024,0.251921,0.282024,0.308086,,,,,,
383838,-0.122044,0.013933,-0.062185,-0.002127,-0.001056,0.00013,-0.08169,-0.0,-0.0,2.0,0.282024,0.252538,0.282024,0.307623,,,,,,
383858,-0.122531,0.013917,-0.062177,-0.001062,-0.001056,0.00013,-0.080279,-0.0,-0.0,2.0,0.282024,0.252772,0.282024,0.307447,,,,,,
383878,-0.122656,0.014043,-0.062046,-1.3e-05,-0.001186,-0.000926,-0.07872,-0.0,-0.0,2.0,0.282024,0.253223,0.282024,0.307106,,,,,,
383898,-0.122535,0.014039,-0.06217,-1.5e-05,-0.00013,-0.001056,-0.077877,-0.0,-0.0,2.0,0.282024,0.252623,0.282024,0.307559,,,,,,
383918,-0.122044,0.013926,-0.062307,0.001064,0.0,0.0,-0.075098,-0.0,-0.0,2.0,0.282024,0.250627,0.282024,0.309046,,,,,,
383938,-0.121302,0.013827,-0.062315,0.0,0.0,0.0,-0.073889,-0.0,-0.0,2.0,0.282024,0.250214,0.282024,0.30935,,,,,,
383958,-0.120937,0.013839,-0.062321,-1.3e-05,-0.001185,-0.000928,-0.072841,-0.0,-0.0,2.0,0.282024,0.251517,0.282024,0.308386,,,,,,
383978,-0.120572,0.013844,-0.062448,0.001053,-0.002241,-0.000801,-0.069316,-0.0,-0.0,2.0,0.282024,0.248745,0.282024,0.310423,,,,,,
383998,-0.120085,0.01386,-0.062456,-1.1e-05,-0.002241,-0.000802,-0.067913,-0.0,-0.0,2.0,0.282024,0.24599,0.282024,0.312396,,,,,,
384018,-0.119716,0.01375,-0.06247,0.0,0.0,0.0,-0.065305,-0.0,-0.0,2.0,0.282024,0.243963,0.282024,0.313815,,,,,,
384038,-0.1191,0.013769,-0.062468,-2e-06,0.001057,-0.000126,-0.062748,-0.0,-0.0,2.0,0.282024,0.244195,0.282024,0.313654,,,,,,
384058,-0.118612,0.013785,-0.062476,0.001048,0.000931,-0.001183,-0.0601,-0.0,-0.0,2.0,0.282024,0.242183,0.282024,0.31504,,,,,,
384078,-0.118,0.013676,-0.062615,0.001048,0.000932,-0.001182,-0.058641,-0.0,-0.0,2.0,0.282024,0.241399,0.282024,0.315572,,,,,,
384098,-0.117015,0.013578,-0.062748,0.00213,-0.001057,0.000124,-0.05464,-0.0,-0.0,2.0,0.282024,0.238604,0.282024,0.31744,,,,,,
384118,-0.115915,0.013492,-0.062772,0.002132,-0.002114,0.000246,-0.053094,-0.0,-0.0,2.0,0.282024,0.240252,0.282024,0.316344,,,,,,
384138,-0.114691,0.013525,-0.062902,0.002132,-0.002114,0.000244,-0.050384,-0.0,-0.0,2.0,0.282024,0.238829,0.282024,0.317291,,,,,,
384158,-0.113097,0.013447,-0.063044,0.003194,-0.001057,0.00012,-0.045807,-0.0,-0.0,2.0,0.282024,0.238116,0.282024,0.317761,,,,,,
384178,-0.111274,0.013622,-0.063187,0.003193,0.0,0.0,-0.044171,-0.0,-0.0,2.0,0.282024,0.240361,0.282024,0.316272,,,,,,
384198,-0.109197,0.013683,-0.063329,0.005321,0.0,0.0,-0.040967,-0.0,-0.0,2.0,0.282024,0.241363,0.282024,0.315597,,,,,,
384218,-0.106747,0.013506,-0.063612,0.006387,-0.001058,0.000113,-0.037638,-0.0,-0.0,2.0,0.282024,0.240545,0.282024,0.316148,,,,,,
384238,-0.103814,0.013468,-0.063894,0.006387,-0.001058,0.00011,-0.034137,-0.0,-0.0,2.0,0.282024,0.242059,0.282024,0.315124,,,,,,
384258,-0.100509,0.013441,-0.064169,0.007451,-0.001059,0.000107,-0.03214,-0.0,-0.0,2.0,0.282024,0.243263,0.282024,0.314299,,,,,,
384278,-0.096597,0.013315,-0.06447,0.007451,-0.001059,0.000103,-0.026836,-0.0,-0.0,2.0,0.282024,0.243998,0.282024,0.313791,,,,,,
384298,-0.092439,0.013319,-0.064754,0.008514,0.0,0.0,-0.024731,-0.0,-0.0,2.0,0.282024,0.249778,0.282024,0.30967,,,,,,
384318,-0.087918,0.013209,-0.065181,0.010642,0.0,0.0,-0.021504,-0.0,-0.0,2.0,0.282024,0.252825,0.282024,0.307407,,,,,,
384338,-0.082781,0.01312,-0.065602,0.011706,0.0,0.0,-0.016745,-0.0,-0.0,2.0,0.282024,0.255039,0.282024,0.305721,,,,,,
384358,-0.07728,0.013041,-0.066147,0.012786,-0.000979,0.001143,-0.014413,-0.0,-0.0,2.0,0.282024,0.257744,0.282024,0.303613,,,,,,
384378,-0.071418,0.012978,-0.066704,0.012785,-0.000986,0.001138,-0.010809,-0.0,-0.0,2.0,0.282024,0.25116,0.282024,0.308652,,,,,,
384398,-0.064941,0.012941,-0.067132,0.01385,-0.000993,0.001131,-0.007116,-0.0,-0.0,2.0,0.282024,0.254052,0.282024,0.306477,,,,,,
384418,-0.0581,0.012912,-0.067802,0.013835,0.0,0.0,-0.003443,-0.0,-0.0,2.0,0.282024,0.260966,0.282024,0.301031,,,,,,
384438,-0.051021,0.013021,-0.068358,0.015977,5.4e-05,0.001063,-0.001016,-0.0,-0.0,2.0,0.282024,0.267243,0.282024,0.295767,,,,,,
384458,-0.043447,0.012903,-0.069042,0.017041,4.6e-05,0.001063,0.004005,-0.0,-0.0,2.0,0.282024,0.271381,0.282024,0.292118,,,,,,
384478,-0.035505,0.012802,-0.06971,0.018092,0.0,0.0,0.00664,-0.0,-0.0,2.0,0.282024,0.27629,0.282024,0.287595,,,,,,
384498,-0.026949,0.012483,-0.070527,0.018105,2.9e-05,0.001064,0.009736,-0.0,-0.0,2.0,0.282024,0.28119,0.282024,0.282855,,,,,,
384518,-0.018273,0.012296,-0.071199,0.018105,1.9e-05,0.001064,0.013894,-0.0,-0.0,2.0,0.282024,0.28674,0.282024,0.277192,,,,,,
384538,-0.009481,0.01224,-0.071996,0.018092,0.0,0.0,0.017104,-0.0,-0.0,2.0,0.282024,0.293032,0.282024,0.270361,,,,,,
384558,-0.000566,0.012195,-0.072785,0.019169,-0.001064,0.001065,0.020919,-0.0,-0.0,2.0,0.282024,0.297231,0.282024,0.265535,,,,,,
384578,0.007982,0.012143,-0.073563,0.018092,-0.001064,-8e-06,0.024582,-0.0,-0.0,2.0,0.282024,0.299734,0.282024,0.262547,,,,,,
384598,0.016535,0.011976,-0.074466,0.01704,-1.8e-05,0.001064,0.02808,-0.0,-0.0,2.0,0.282024,0.302326,0.282024,0.259362,,,,,,
384618,0.024835,0.012049,-0.075241,0.015989,-5.3e-05,0.002128,0.029926,-0.0,-0.0,2.0,0.282024,0.307428,0.282024,0.252797,,,,,,
384638,0.032292,0.01185,-0.07588,0.014899,0.0,0.0,0.034419,-0.0,-0.0,2.0,0.282024,0.308293,0.282024,0.251643,,,,,,
384658,0.039494,0.011892,-0.076637,0.013835,0.0,0.0,0.036546,-0.0,-0.0,2.0,0.282024,0.309387,0.282024,0.250164,,,,,,
384678,0.045969,0.011792,-0.077506,0.012783,-4.9e-05,0.001063,0.039299,-0.0,-0.0,2.0,0.282024,0.310879,0.282024,0.248115,,,,,,
384698,0.051595,0.011656,-0.078017,0.010655,-5.5e-05,0.001063,0.04133,-0.0,-0.0,2.0,0.282024,0.310808,0.282024,0.248214,,,,,,
384718,0.056599,0.011741,-0.078517,0.008514,0.0,0.0,0.046025,-0.0,-0.0,2.0,0.282024,0.309615,0.282024,0.249854,,,,,,
384738,0.060632,0.011673,-0.079132,0.007449,-0.001062,-6.4e-05,0.049155,-0.0,-0.0,2.0,0.282024,0.307484,0.282024,0.252723,,,,,,
384758,0.063933,0.011574,-0.079624,0.005333,-6.8e-05,0.001062,0.052182,-0.0,-0.0,2.0,0.282024,0.304819,0.282024,0.256205,,,,,,
384778,0.066373,0.011683,-0.080002,0.003205,-7.1e-05,0.001062,0.05522,-0.0,-0.0,2.0,0.282024,0.301421,0.282024,0.260485,,,,,,
384798,0.067961,0.011632,-0.080239,0.001064,0.0,0.0,0.056941,-0.0,-0.0,2.0,0.282024,0.299819,0.282024,0.262444,,,,,,
384818,0.068695,0.01167,-0.080496,-1.2e-05,7.3e-05,-0.001062,0.059152,-0.0,-0.0,2.0,0.282024,0.297124,0.282024,0.26566,,,,,,
384838,0.068815,0.011683,-0.080739,-0.001064,0.0,0.0,0.062303,-0.0,-0.0,2.0,0.282024,0.291564,0.282024,0.271996,,,,,,
384858,0.06858,0.011434,-0.080852,-0.002128,0.0,0.0,0.064573,-0.0,-0.0,2.0,0.282024,0.28788,0.282024,0.275988,,,,,,
384878,0.067848,0.011409,-0.080975,-0.002128,0.0,0.0,0.067665,-0.0,-0.0,2.0,0.282024,0.284576,0.282024,0.279439,,,,,,
384898,0.066746,0.011364,-0.080961,-0.003205,7.1e-05,-0.001062,0.069236,-0.0,-0.0,2.0,0.282024,0.282216,0.282024,0.281832,,,,,,
384918,0.065887,0.011456,-0.081088,-0.002129,-0.001062,-7e-05,0.071671,-0.0,-0.0,2.0,0.282024,0.279308,0.282024,0.284703,,,,,,
384938,0.06515,0.011552,-0.081214,-0.002129,-0.001062,-6.9e-05,0.073759,-0.0,-0.0,2.0,0.282024,0.276763,0.282024,0.287148,,,,,,
384958,0.064662,0.011537,-0.081336,-0.001064,0.0,0.0,0.074739,-0.0,-0.0,2.0,0.282024,0.277094,0.282024,0.286834,,,,,,
384978,0.064535,0.011654,-0.08134,0.0,0.0,0.0,0.07678,-0.0,-0.0,2.0,0.282024,0.276769,0.282024,0.287142,,,,,,
384998,0.064906,0.011543,-0.081214,0.001051,-0.000993,-0.001131,0.078023,-0.0,-0.0,2.0,0.282024,0.277641,0.282024,0.286312,,,,,,
385018,0.065516,0.011567,-0.081214,0.001052,7e-05,-0.001062,0.0799,-0.0,-0.0,2.0,0.282024,0.276493,0.282024,0.287403,,,,,,
385038,0.066369,0.011601,-0.081213,0.002128,0.0,0.0,0.080683,-0.0,-0.0,2.0,0.282024,0.276575,0.282024,0.287326,,,,,,
385058,0.067476,0.01152,-0.081101,0.00318,-0.00099,-0.001134,0.081902,-0.0,-0.0,2.0,0.282024,0.278111,0.282024,0.285861,,,,,,
385078,0.06894,0.011575,-0.080978,0.00318,7.3e-05,-0.001062,0.083567,-0.0,-0.0,2.0,0.282024,0.279576,0.282024,0.284442,,,,,,
385098,0.070645,0.011647,-0.081097,0.003179,-0.000986,-0.001137,0.084633,-0.0,-0.0,2.0,0.282024,0.280165,0.282024,0.283866,,,,,,
385118,0.072483,0.011599,-0.081105,0.004256,-0.001061,-7.7e-05,0.085462,-0.0,-0.0,2.0,0.282024,0.28268,0.282024,0.281366,,,,,,
385138,0.074677,0.01181,-0.08112,0.004256,-0.001061,-7.9e-05,0.085821,-0.0,-0.0,2.0,0.282024,0.284269,0.282024,0.279753,,,,,,
385158,0.077114,0.011908,-0.081116,0.005308,8.2e-05,-0.001061,0.08648,-0.0,-0.0,2.0,0.282024,0.287413,0.282024,0.276483,,,,,,
385178,0.079804,0.011899,-0.081242,0.005321,0.0,0.0,0.08648,-0.0,-0.0,2.0,0.282024,0.289712,0.282024,0.274023,,,,,,
385198,0.082494,0.01189,-0.081367,0.00532,-0.001061,-8.8e-05,0.087143,-0.0,-0.0,2.0,0.282024,0.291426,0.282024,0.272148,,,,,,
385218,0.085306,0.011887,-0.081491,0.006385,0.0,0.0,0.087256,-0.0,-0.0,2.0,0.282024,0.293687,0.282024,0.269623,,,,,,
385238,0.088239,0.011894,-0.081735,0.006385,0.0,0.0,0.087262,-0.0,-0.0,2.0,0.282024,0.297614,0.282024,0.265082,,,,,,
385258,0.091305,0.01178,-0.081865,0.006384,-0.00106,-9.7e-05,0.087075,-0.0,-0.0,2.0,0.282024,0.300258,0.282024,0.261912,,,,,,
385278,0.094116,0.011784,-0.082107,0.005321,0.0,0.0,0.086751,-0.0,-0.0,2.0,0.282024,0.301306,0.282024,0.260627,,,,,,
385298,0.096922,0.01191,-0.082354,0.005321,0.0,0.0,0.086274,-0.0,-0.0,2.0,0.282024,0.303926,0.282024,0.257346,,,,,,
385318,0.099617,0.011782,-0.082467,0.004256,-0.001059,-0.000106,0.08556,-0.0,-0.0,2.0,0.282024,0.306618,0.282024,0.253866,,,,,,
385338,0.101815,0.011878,-0.082594,0.004257,0.0,0.0,0.085012,-0.0,-0.0,2.0,0.282024,0.307332,0.282024,0.252924,,,,,,
385358,0.103648,0.011959,-0.082722,0.003191,-0.001059,-0.00011,0.084402,-0.0,-0.0,2.0,0.282024,0.307808,0.282024,0.252291,,,,,,
385378,0.105236,0.011902,-0.082708,0.002116,0.000112,-0.001058,0.083051,-0.0,-0.0,2.0,0.282024,0.30867,0.282024,0.251135,,,,,,
385398,0.106095,0.011938,-0.082719,0.0,0.0,0.0,0.082114,-0.0,-0.0,2.0,0.282024,0.308641,0.282024,0.251174,,,,,,
385418,0.106345,0.011819,-0.082589,-0.001078,-0.000945,-0.001171,0.081158,-0.0,-0.0,2.0,0.282024,0.308135,0.282024,0.251855,,,,,,
385438,0.106102,0.011803,-0.082469,-0.002142,-0.000946,-0.001171,0.079686,-0.0,-0.0,2.0,0.282024,0.30623,0.282024,0.254376,,,,,,
385458,0.105238,0.011889,-0.082465,-0.003194,-0.001058,-0.000112,0.077976,-0.0,-0.0,2.0,0.282024,0.305472,0.282024,0.255362,,,,,,
385478,0.103894,0.01195,-0.082356,-0.00427,0.00011,-0.001059,0.076218,-0.0,-0.0,2.0,0.282024,0.305796,0.282024,0.254941,,,,,,
385498,0.1023,0.012001,-0.082234,-0.004271,-0.00095,-0.001167,0.07429,-0.0,-0.0,2.0,0.282024,0.304596,0.282024,0.256492,,,,,,
385518,0.100219,0.012032,-0.082113,-0.005334,0.000106,-0.001059,0.073277,-0.0,-0.0,2.0,0.282024,0.30229,0.282024,0.259408,,,,,,
385538,0.097772,0.012054,-0.082114,-0.006398,0.000104,-0.001059,0.07041,-0.0,-0.0,2.0,0.282024,0.301156,0.282024,0.260812,,,,,,
385558,0.095081,0.012067,-0.082115,-0.007451,-0.001059,-0.000101,0.07041,-0.0,-0.0,2.0,0.282024,0.298981,0.282024,0.263455,,,,,,
385578,0.09203,0.011937,-0.08199,-0.00745,0.0,0.0,0.066423,-0.0,-0.0,2.0,0.282024,0.299759,0.282024,0.262518,,,,,,
385598,0.08873,0.011925,-0.081991,-0.00745,0.0,0.0,0.064257,-0.0,-0.0,2.0,0.282024,0.297324,0.282024,0.265425,,,,,,
385618,0.085181,0.011903,-0.081977,-0.008526,9.1e-05,-0.00106,0.062136,-0.0,-0.0,2.0,0.282024,0.294638,0.282024,0.268541,,,,,,
385638,0.081388,0.011993,-0.081982,-0.008527,8.7e-05,-0.001061,0.059063,-0.0,-0.0,2.0,0.282024,0.294058,0.282024,0.269202,,,,,,
385658,0.077601,0.011956,-0.081859,-0.008514,0.0,0.0,0.056306,-0.0,-0.0,2.0,0.282024,0.291647,0.282024,0.271905,,,,,,
385678,0.073443,0.011909,-0.081841,-0.009591,7.8e-05,-0.001061,0.053241,-0.0,-0.0,2.0,0.282024,0.290744,0.282024,0.272898,,,,,,
385698,0.06929,0.011858,-0.081715,-0.009591,-0.000988,-0.001135,0.051617,-0.0,-0.0,2.0,0.282024,0.288576,0.282024,0.275246,,,,,,
385718,0.065254,0.011935,-0.08159,-0.009592,-0.000993,-0.001131,0.047408,-0.0,-0.0,2.0,0.282024,0.288725,0.282024,0.275086,,,,,,
385738,0.06098,0.01188,-0.08146,-0.009591,6.5e-05,-0.001062,0.044685,-0.0,-0.0,2.0,0.282024,0.287395,0.282024,0.276502,,,,,,
385758,0.057193,0.011842,-0.081206,-0.009591,-0.001002,-0.001123,0.042932,-0.0,-0.0,2.0,0.282024,0.287225,0.282024,0.276682,,,,,,
385778,0.05329,0.011678,-0.080947,-0.008527,-0.001006,-0.001119,0.038379,-0.0,-0.0,2.0,0.282024,0.287782,0.282024,0.276092,,,,,,
385798,0.049498,0.011766,-0.080815,-0.008527,-0.00101,-0.001116,0.035818,-0.0,-0.0,2.0,0.282024,0.286723,0.282024,0.277209,,,,,,
385818,0.046073,0.011867,-0.080559,-0.007463,-0.001014,-0.001112,0.033433,-0.0,-0.0,2.0,0.282024,0.285824,0.282024,0.278149,,,,,,
385838,0.042655,0.011848,-0.080314,-0.007463,-0.001018,-0.001109,0.029638,-0.0,-0.0,2.0,0.282024,0.287729,0.282024,0.276148,,,,,,
385858,0.039594,0.011969,-0.080299,-0.00745,-0.001063,-4.2e-05,0.026069,-0.0,-0.0,2.0,0.282024,0.288164,0.282024,0.275686,,,,,,
385878,0.036659,0.012092,-0.080054,-0.006399,-0.001025,-0.001103,0.022458,-0.0,-0.0,2.0,0.282024,0.290299,0.282024,0.273384,,,,,,
385898,0.033853,0.011978,-0.079911,-0.006398,3.6e-05,-0.001064,0.018521,-0.0,-0.0,2.0,0.282024,0.291255,0.282024,0.272337,,,,,,
385918,0.031288,0.011996,-0.079785,-0.006398,3.3e-05,-0.001064,0.015928,-0.0,-0.0,2.0,0.282024,0.291279,0.282024,0.272311,,,,,,
385938,0.028721,0.012014,-0.079643,-0.006398,-0.001033,-0.001094,0.013779,-0.0,-0.0,2.0,0.282024,0.290926,0.282024,0.272698,,,,,,
385958,0.026155,0.012033,-0.079515,-0.006398,-0.001036,-0.001092,0.008589,-0.0,-0.0,2.0,0.282024,0.293131,0.282024,0.27025,,,,,,
385978,0.023589,0.012054,-0.079507,-0.006398,-0.001039,-0.001089,0.005659,-0.0,-0.0,2.0,0.282024,0.294956,0.282024,0.268177,,,,,,
385998,0.020901,0.012069,-0.079499,-0.006398,2.2e-05,-0.001064,0.001587,-0.0,-0.0,2.0,0.282024,0.294603,0.282024,0.268581,,,,,,
386018,0.018212,0.012084,-0.079474,-0.006386,-0.001064,-1.9e-05,-0.00232,-0.0,-0.0,2.0,0.282024,0.295611,0.282024,0.267423,,,,,,
386038,0.015402,0.012094,-0.079342,-0.007463,-0.001048,-0.001081,-0.004143,-0.0,-0.0,2.0,0.282024,0.294795,0.282024,0.268362,,,,,,
386058,0.012223,0.012211,-0.079085,-0.007463,1.3e-05,-0.001064,-0.008075,-0.0,-0.0,2.0,0.282024,0.293879,0.282024,0.269405,,,,,,
386078,0.008925,0.012203,-0.07907,-0.008527,9e-06,-0.001064,-0.010174,-0.0,-0.0,2.0,0.282024,0.292879,0.282024,0.270532,,,,,,
386098,0.005388,0.012063,-0.078929,-0.008514,0.0,0.0,-0.016009,-0.0,-0.0,2.0,0.282024,0.293267,0.282024,0.270096,,,,,,
386118,0.001481,0.012031,-0.07865,-0.009591,2e-06,-0.001064,-0.018142,-0.0,-0.0,2.0,0.282024,0.290235,0.282024,0.273454,,,,,,
386138,-0.002552,0.012116,-0.078382,-0.009591,-0.001067,-0.001062,-0.021325,-0.0,-0.0,2.0,0.282024,0.289514,0.282024,0.274236,,,,,,
386158,-0.007074,0.012184,-0.078231,-0.010655,-0.001072,-0.001057,-0.026145,-0.0,-0.0,2.0,0.282024,0.288225,0.282024,0.275621,,,,,,
386178,-0.01184,0.012243,-0.078089,-0.011719,-0.001077,-0.001052,-0.029917,-0.0,-0.0,2.0,0.282024,0.285772,0.282024,0.278203,,,,,,
386198,-0.016971,0.012288,-0.077806,-0.011719,-0.001082,-0.001046,-0.031726,-0.0,-0.0,2.0,0.282024,0.282874,0.282024,0.281171,,,,,,
386218,-0.022468,0.01232,-0.077517,-0.012784,-0.001088,-0.00104,-0.035216,-0.0,-0.0,2.0,0.282024,0.27947,0.282024,0.284546,,,,,,
386238,-0.028217,0.012463,-0.077477,-0.013848,-3e-05,-0.001064,-0.038712,-0.0,-0.0,2.0,0.282024,0.277466,0.282024,0.286479,,,,,,
386258,-0.034198,0.012357,-0.077191,-0.013835,0.0,0.0,-0.040759,-0.0,-0.0,2.0,0.282024,0.272161,0.282024,0.291414,,,,,,
386278,-0.0403,0.012246,-0.076887,-0.014899,-0.001063,4.3e-05,-0.043968,-0.0,-0.0,2.0,0.282024,0.269453,0.282024,0.293837,,,,,,
386298,-0.046775,0.012242,-0.076707,-0.014912,-5e-05,-0.001063,-0.047211,-0.0,-0.0,2.0,0.282024,0.26638,0.282024,0.296509,,,,,,
386318,-0.053131,0.012244,-0.076539,-0.013848,-5.7e-05,-0.001063,-0.047211,-0.0,-0.0,2.0,0.282024,0.260179,0.282024,0.301669,,,,,,
386338,-0.059483,0.012246,-0.076352,-0.014898,-0.001062,6.3e-05,-0.051729,-0.0,-0.0,2.0,0.282024,0.256521,0.282024,0.304573,,,,,,
386358,-0.065961,0.012248,-0.076051,-0.013848,-7e-05,-0.001062,-0.056533,-0.0,-0.0,2.0,0.282024,0.25479,0.282024,0.305913,,,,,,
386378,-0.071952,0.012387,-0.075855,-0.013834,-0.001061,7.7e-05,-0.058283,-0.0,-0.0,2.0,0.282024,0.252303,0.282024,0.307799,,,,,,
386398,-0.077821,0.012411,-0.075675,-0.012783,-0.001144,-0.000978,-0.061001,-0.0,-0.0,2.0,0.282024,0.250929,0.282024,0.308823,,,,,,
386418,-0.083324,0.012453,-0.075374,-0.011719,-0.001149,-0.000972,-0.063568,-0.0,-0.0,2.0,0.282024,0.249768,0.282024,0.309678,,,,,,
386438,-0.088579,0.012385,-0.075078,-0.010655,-9.4e-05,-0.00106,-0.06612,-0.0,-0.0,2.0,0.282024,0.246886,0.282024,0.31176,,,,,,
386458,-0.09298,0.012466,-0.074895,-0.010655,-9.9e-05,-0.00106,-0.067694,-0.0,-0.0,2.0,0.282024,0.245813,0.282024,0.312521,,,,,,
386478,-0.09702,0.012568,-0.074606,-0.008527,-0.000103,-0.001059,-0.070599,-0.0,-0.0,2.0,0.282024,0.248531,0.282024,0.310578,,,,,,
386498,-0.100563,0.012567,-0.074316,-0.006397,-0.001166,-0.000952,-0.071805,-0.0,-0.0,2.0,0.282024,0.247994,0.282024,0.310966,,,,,,
386518,-0.103375,0.012594,-0.074036,-0.005333,-0.001168,-0.000949,-0.072893,-0.0,-0.0,2.0,0.282024,0.24811,0.282024,0.310883,,,,,,
386538,-0.105704,0.012756,-0.073879,-0.004269,-0.001171,-0.000946,-0.076024,-0.0,-0.0,2.0,0.282024,0.250895,0.282024,0.308849,,,,,,
386558,-0.107177,0.012829,-0.07374,-0.003193,0.0,0.0,-0.077086,-0.0,-0.0,2.0,0.282024,0.254275,0.282024,0.306307,,,,,,
386578,-0.108154,0.012927,-0.073475,-0.002142,-0.000115,-0.001058,-0.078948,-0.0,-0.0,2.0,0.282024,0.257044,0.282024,0.304163,,,,,,
386598,-0.108641,0.012915,-0.073345,-0.001076,-0.001173,-0.000943,-0.08044,-0.0,-0.0,2.0,0.282024,0.261708,0.282024,0.300425,,,,,,
386618,-0.108519,0.01292,-0.073347,0.001052,-0.001173,-0.000943,-0.081795,-0.0,-0.0,2.0,0.282024,0.263156,0.282024,0.29923,,,,,,
386638,-0.108154,0.012934,-0.073353,-1.2e-05,-0.001173,-0.000943,-0.082638,-0.0,-0.0,2.0,0.282024,0.264354,0.282024,0.298228,,,,,,
386658,-0.107545,0.012957,-0.073363,0.0,0.0,0.0,-0.08395,-0.0,-0.0,2.0,0.282024,0.266208,0.282024,0.296656,,,,,,
386678,-0.107175,0.012849,-0.073376,0.0,0.0,0.0,-0.084893,-0.0,-0.0,2.0,0.282024,0.267439,0.282024,0.295597,,,,,,
386698,-0.107297,0.012845,-0.073374,-0.001078,-0.000114,-0.001058,-0.085624,-0.0,-0.0,2.0,0.282024,0.266271,0.282024,0.296602,,,,,,
386718,-0.107663,0.012824,-0.073489,-0.001063,-0.001058,0.000114,-0.086139,-0.0,-0.0,2.0,0.282024,0.266434,0.282024,0.296463,,,,,,
386738,-0.10815,0.012806,-0.073482,-0.001063,-0.001058,0.000115,-0.08669,-0.0,-0.0,2.0,0.282024,0.26473,0.282024,0.297912,,,,,,
386758,-0.108515,0.012792,-0.073476,-0.002128,0.0,0.0,-0.087041,-0.0,-0.0,2.0,0.282024,0.266482,0.282024,0.296422,,,,,,
386778,-0.108764,0.012898,-0.073586,-0.001064,0.0,0.0,-0.087232,-0.0,-0.0,2.0,0.282024,0.266406,0.282024,0.296487,,,,,,
386798,-0.108888,0.012772,-0.073604,1e-06,-0.001058,0.000116,-0.087265,-0.0,-0.0,2.0,0.282024,0.266317,0.282024,0.296563,,,,,,
386818,-0.109005,0.012645,-0.073609,-1.2e-05,-0.001174,-0.000942,-0.087237,-0.0,-0.0,2.0,0.282024,0.2662,0.282024,0.296664,,,,,,
386838,-0.109006,0.012639,-0.073731,-0.001064,0.0,0.0,-0.087001,-0.0,-0.0,2.0,0.282024,0.265972,0.282024,0.296858,,,,,,
386858,-0.108884,0.012643,-0.073733,-0.001064,0.0,0.0,-0.086773,-0.0,-0.0,2.0,0.282024,0.267605,0.282024,0.295454,,,,,,
386878,-0.108889,0.012765,-0.073726,1e-06,-0.001058,0.000116,-0.086107,-0.0,-0.0,2.0,0.282024,0.266965,0.282024,0.296007,,,,,,
386898,-0.109014,0.012889,-0.073596,-1.2e-05,-0.001174,-0.000942,-0.08551,-0.0,-0.0,2.0,0.282024,0.264505,0.282024,0.298102,,,,,,
386918,-0.109015,0.012882,-0.073717,-0.001078,-0.000116,-0.001058,-0.084697,-0.0,-0.0,2.0,0.282024,0.263735,0.282024,0.298748,,,,,,
386938,-0.108889,0.012765,-0.073726,-0.001064,0.0,0.0,-0.083732,-0.0,-0.0,2.0,0.282024,0.264701,0.282024,0.297937,,,,,,
386958,-0.109132,0.012762,-0.0736,0.0,0.0,0.0,-0.082578,-0.0,-0.0,2.0,0.282024,0.263322,0.282024,0.299092,,,,,,
386978,-0.109009,0.012774,-0.073481,-1.2e-05,-0.001174,-0.000942,-0.081941,-0.0,-0.0,2.0,0.282024,0.261017,0.282024,0.300989,,,,,,
386998,-0.109014,0.012889,-0.073596,-0.001076,-0.001174,-0.000942,-0.080969,-0.0,-0.0,2.0,0.282024,0.260069,0.282024,0.301757,,,,,,
387018,-0.108888,0.012772,-0.073604,-0.001064,0.0,0.0,-0.079563,-0.0,-0.0,2.0,0.282024,0.260621,0.282024,0.301311,,,,,,
387038,-0.108763,0.012904,-0.073465,0.0,0.0,0.0,-0.078114,-0.0,-0.0,2.0,0.282024,0.259281,0.282024,0.302391,,,,,,
387058,-0.108885,0.0129,-0.073463,-1.2e-05,-0.001174,-0.000942,-0.075522,-0.0,-0.0,2.0,0.282024,0.256547,0.282024,0.304552,,,,,,
387078,-0.108885,0.0129,-0.073463,-1.2e-05,-0.001174,-0.000942,-0.07414,-0.0,-0.0,2.0,0.282024,0.253279,0.282024,0.307064,,,,,,
387098,-0.108642,0.012902,-0.073588,0.0,0.0,0.0,-0.071898,-0.0,-0.0,2.0,0.282024,0.251199,0.282024,0.308623,,,,,,
387118,-0.108646,0.013031,-0.07346,-0.001064,0.0,0.0,-0.069741,-0.0,-0.0,2.0,0.282024,0.250833,0.282024,0.308894,,,,,,
387138,-0.108524,0.013042,-0.073341,-1.4e-05,-0.000115,-0.001058,-0.067468,-0.0,-0.0,2.0,0.282024,0.248561,0.282024,0.310557,,,,,,
387158,-0.108524,0.013035,-0.073462,-1.2e-05,-0.001173,-0.000943,-0.064699,-0.0,-0.0,2.0,0.282024,0.245583,0.282024,0.312683,,,,,,
387178,-0.108281,0.013038,-0.073588,-0.001063,-0.001058,0.000115,-0.064699,-0.0,-0.0,2.0,0.282024,0.243877,0.282024,0.313875,,,,,,
387198,-0.108163,0.013171,-0.073462,-0.001064,0.0,0.0,-0.061161,-0.0,-0.0,2.0,0.282024,0.242128,0.282024,0.315077,,,,,,
387218,-0.10805,0.013426,-0.073329,-1.4e-05,-0.000115,-0.001058,-0.057968,-0.0,-0.0,2.0,0.282024,0.238654,0.282024,0.317407,,,,,,
387238,-0.107933,0.013552,-0.073325,-1.4e-05,-0.000115,-0.001058,-0.055555,-0.0,-0.0,2.0,0.282024,0.23603,0.282024,0.319117,,,,,,
387258,-0.107807,0.013428,-0.073455,-1.4e-05,-0.000115,-0.001058,-0.052834,-0.0,-0.0,2.0,0.282024,0.233035,0.282024,0.321018,,,,,,
387278,-0.107436,0.013327,-0.073346,0.001064,0.0,0.0,-0.049569,-0.0,-0.0,2.0,0.282024,0.229587,0.282024,0.323141,,,,,,
387298,-0.106953,0.013474,-0.073226,0.001066,-0.001058,0.000114,-0.046476,-0.0,-0.0,2.0,0.282024,0.226377,0.282024,0.325055,,,,,,
387318,-0.106094,0.013506,-0.073227,0.00105,-0.000113,-0.001058,-0.04325,-0.0,-0.0,2.0,0.282024,0.225718,0.282024,0.325441,,,,,,
387338,-0.105119,0.013543,-0.073243,0.002114,-0.000112,-0.001058,-0.041641,-0.0,-0.0,2.0,0.282024,0.227193,0.282024,0.324574,,,,,,
387358,-0.103773,0.013593,-0.073251,0.003193,0.0,0.0,-0.036874,-0.0,-0.0,2.0,0.282024,0.22527,0.282024,0.325702,,,,,,
387378,-0.101695,0.013671,-0.073272,0.004242,-0.000108,-0.001059,-0.036874,-0.0,-0.0,2.0,0.282024,0.230044,0.282024,0.322863,,,,,,
387398,-0.09937,0.013636,-0.073301,0.006372,-0.001165,-0.000953,-0.032402,-0.0,-0.0,2.0,0.282024,0.229636,0.282024,0.323111,,,,,,
387418,-0.096436,0.013618,-0.073462,0.007451,-0.001059,0.000102,-0.027366,-0.0,-0.0,2.0,0.282024,0.229343,0.282024,0.323289,,,,,,
387438,-0.092766,0.013507,-0.073638,0.007451,-0.00106,9.9e-05,-0.024725,-0.0,-0.0,2.0,0.282024,0.232752,0.282024,0.321195,,,,,,
387458,-0.088485,0.013545,-0.073681,0.009579,-0.00106,9.4e-05,-0.020419,-0.0,-0.0,2.0,0.282024,0.234838,0.282024,0.31988,,,,,,
387478,-0.08384,0.013471,-0.073867,0.010628,-8.9e-05,-0.001061,-0.018542,-0.0,-0.0,2.0,0.282024,0.242135,0.282024,0.315072,,,,,,
387498,-0.078338,0.013425,-0.074171,0.011706,0.0,0.0,-0.0149,-0.0,-0.0,2.0,0.282024,0.246203,0.282024,0.312245,,,,,,
387518,-0.072348,0.013393,-0.0746,0.013835,0.0,0.0,-0.01127,-0.0,-0.0,2.0,0.282024,0.252581,0.282024,0.30759,,,,,,
387538,-0.065749,0.013391,-0.07491,0.014899,0.0,0.0,-0.006914,-0.0,-0.0,2.0,0.282024,0.256764,0.282024,0.304383,,,,,,
387558,-0.05854,0.013284,-0.075484,0.015964,-0.001062,6.2e-05,-0.006914,-0.0,-0.0,2.0,0.282024,0.265689,0.282024,0.297099,,,,,,
387578,-0.050841,0.013196,-0.076164,0.017042,-0.001009,0.001117,-7.1e-05,-0.0,-0.0,2.0,0.282024,0.266533,0.282024,0.296378,,,,,,
387598,-0.042896,0.013001,-0.076857,0.017042,-0.001018,0.001109,0.003412,-0.0,-0.0,2.0,0.282024,0.272467,0.282024,0.291137,,,,,,
387618,-0.034591,0.012944,-0.077664,0.017042,-0.001027,0.0011,0.006174,-0.0,-0.0,2.0,0.282024,0.279167,0.282024,0.28484,,,,,,
387638,-0.026036,0.012781,-0.078345,0.018105,2.8e-05,0.001064,0.010705,-0.0,-0.0,2.0,0.282024,0.28276,0.282024,0.281286,,,,,,
387658,-0.017608,0.012741,-0.079013,0.018092,0.0,0.0,0.012641,-0.0,-0.0,2.0,0.282024,0.288387,0.282024,0.275447,,,,,,
387678,-0.009181,0.012706,-0.079688,0.018092,0.0,0.0,0.016367,-0.0,-0.0,2.0,0.282024,0.290804,0.282024,0.272832,,,,,,
387698,-0.000865,0.012427,-0.080231,0.017028,0.0,0.0,0.019953,-0.0,-0.0,2.0,0.282024,0.294761,0.282024,0.268401,,,,,,
387718,0.007198,0.012385,-0.080521,0.015963,0.0,0.0,0.022223,-0.0,-0.0,2.0,0.282024,0.298017,0.282024,0.264605,,,,,,
387738,0.014531,0.012315,-0.080692,0.014899,0.0,0.0,0.025152,-0.0,-0.0,2.0,0.282024,0.301581,0.282024,0.260287,,,,,,
387758,0.02138,0.012103,-0.080838,0.013822,-0.001041,-0.001087,0.030358,-0.0,-0.0,2.0,0.282024,0.299934,0.282024,0.262305,,,,,,
387778,0.027607,0.012232,-0.080873,0.011693,-0.001034,-0.001093,0.0337,-0.0,-0.0,2.0,0.282024,0.299319,0.282024,0.263048,,,,,,
387798,0.033101,0.012328,-0.080766,0.010642,-0.001064,-3.5e-05,0.036085,-0.0,-0.0,2.0,0.282024,0.300351,0.282024,0.261798,,,,,,
387818,0.037982,0.012523,-0.080672,0.0085,-0.001023,-0.001104,0.040038,-0.0,-0.0,2.0,0.282024,0.299601,0.282024,0.262709,,,,,,
387838,0.042004,0.012804,-0.080577,0.007435,-0.001019,-0.001108,0.043282,-0.0,-0.0,2.0,0.282024,0.297249,0.282024,0.265513,,,,,,
387858,0.045176,0.012928,-0.080462,0.005307,-0.001015,-0.001111,0.046516,-0.0,-0.0,2.0,0.282024,0.294193,0.282024,0.269049,,,,,,
387878,0.047867,0.012911,-0.080357,0.004243,5.1e-05,-0.001063,0.048119,-0.0,-0.0,2.0,0.282024,0.293554,0.282024,0.269772,,,,,,
387898,0.049698,0.012977,-0.080116,0.003179,5.3e-05,-0.001063,0.050012,-0.0,-0.0,2.0,0.282024,0.291969,0.282024,0.271547,,,,,,
387918,0.050929,0.012776,-0.079869,0.002115,5.4e-05,-0.001063,0.054907,-0.0,-0.0,2.0,0.282024,0.287299,0.282024,0.276603,,,,,,
387938,0.05191,0.012689,-0.079745,0.001051,5.5e-05,-0.001063,0.056351,-0.0,-0.0,2.0,0.282024,0.28372,0.282024,0.280314,,,,,,
387958,0.052403,0.012587,-0.079742,-1e-06,-0.001063,-5.6e-05,0.060127,-0.0,-0.0,2.0,0.282024,0.280846,0.282024,0.283195,,,,,,
387978,0.052522,0.012707,-0.079503,-1.4e-05,-0.001007,-0.001119,0.062655,-0.0,-0.0,2.0,0.282024,0.278673,0.282024,0.285319,,,,,,
387998,0.052518,0.012826,-0.079384,-0.001079,-0.001007,-0.001119,0.064171,-0.0,-0.0,2.0,0.282024,0.275638,0.282024,0.288208,,,,,,
388018,0.052512,0.012951,-0.079509,-0.001079,-0.001007,-0.001119,0.066605,-0.0,-0.0,2.0,0.282024,0.275106,0.282024,0.288706,,,,,,
388038,0.052507,0.013073,-0.079512,-1e-06,-0.001063,-5.6e-05,0.068984,-0.0,-0.0,2.0,0.282024,0.272913,0.282024,0.290731,,,,,,
388058,0.052874,0.013084,-0.079391,-1.4e-05,5.6e-05,-0.001063,0.070095,-0.0,-0.0,2.0,0.282024,0.272201,0.282024,0.291378,,,,,,
388078,0.053364,0.013107,-0.079528,0.00105,5.7e-05,-0.001063,0.072858,-0.0,-0.0,2.0,0.282024,0.271792,0.282024,0.291748,,,,,,
388098,0.053982,0.012891,-0.079644,0.002128,0.0,0.0,0.074804,-0.0,-0.0,2.0,0.282024,0.272284,0.282024,0.291303,,,,,,
388118,0.054966,0.012688,-0.079759,0.002128,0.0,0.0,0.076481,-0.0,-0.0,2.0,0.282024,0.269924,0.282024,0.29342,,,,,,
388138,0.056555,0.012632,-0.079879,0.003193,0.0,0.0,0.078711,-0.0,-0.0,2.0,0.282024,0.272747,0.282024,0.290882,,,,,,
388158,0.058264,0.012708,-0.080137,0.004257,0.0,0.0,0.079667,-0.0,-0.0,2.0,0.282024,0.275125,0.282024,0.288689,,,,,,
388178,0.06034,0.012675,-0.080377,0.00532,-0.001062,-6.4e-05,0.081193,-0.0,-0.0,2.0,0.282024,0.277293,0.282024,0.286644,,,,,,
388198,0.063024,0.01279,-0.080636,0.00532,-0.001062,-6.7e-05,0.08247,-0.0,-0.0,2.0,0.282024,0.278562,0.282024,0.285426,,,,,,
388218,0.066194,0.012929,-0.081014,0.006385,0.0,0.0,0.083611,-0.0,-0.0,2.0,0.282024,0.282001,0.282024,0.282047,,,,,,
388238,0.069737,0.012954,-0.081145,0.008514,0.0,0.0,0.084242,-0.0,-0.0,2.0,0.282024,0.286144,0.282024,0.277816,,,,,,
388258,0.073645,0.012998,-0.081395,0.008513,-0.001061,-7.8e-05,0.084864,-0.0,-0.0,2.0,0.282024,0.290522,0.282024,0.273141,,,,,,
388278,0.07781,0.012815,-0.08177,0.008514,0.0,0.0,0.085844,-0.0,-0.0,2.0,0.282024,0.293198,0.282024,0.270173,,,,,,
388298,0.082215,0.012642,-0.082127,0.009578,0.0,0.0,0.086402,-0.0,-0.0,2.0,0.282024,0.297888,0.282024,0.264759,,,,,,
388318,0.08686,0.012714,-0.082262,0.009577,-0.00106,-9.2e-05,0.086661,-0.0,-0.0,2.0,0.282024,0.30142,0.282024,0.260486,,,,,,
388338,0.091509,0.012671,-0.082511,0.009563,-0.000963,-0.001157,0.087117,-0.0,-0.0,2.0,0.282024,0.30478,0.282024,0.256255,,,,,,
388358,0.096153,0.01275,-0.082762,0.009577,-0.001059,-0.000102,0.087256,-0.0,-0.0,2.0,0.282024,0.308314,0.282024,0.251615,,,,,,
388378,0.100798,0.012825,-0.08289,0.008512,-0.001059,-0.000107,0.087233,-0.0,-0.0,2.0,0.282024,0.310507,0.282024,0.248629,,,,,,
388398,0.104956,0.012751,-0.082875,0.008499,-0.000947,-0.00117,0.08705,-0.0,-0.0,2.0,0.282024,0.31381,0.282024,0.243971,,,,,,
388418,0.108866,0.012912,-0.082887,0.007436,0.000116,-0.001058,0.086887,-0.0,-0.0,2.0,0.282024,0.315505,0.282024,0.241498,,,,,,
388438,0.112294,0.012931,-0.082894,0.00637,-0.000938,-0.001177,0.086538,-0.0,-0.0,2.0,0.282024,0.316966,0.282024,0.23932,,,,,,
388458,0.11523,0.012922,-0.082765,0.004242,-0.000935,-0.00118,0.085856,-0.0,-0.0,2.0,0.282024,0.318299,0.282024,0.237293,,,,,,
388478,0.117309,0.012992,-0.082526,0.003179,0.000125,-0.001057,0.085162,-0.0,-0.0,2.0,0.282024,0.317633,0.282024,0.23831,,,,,,
388498,0.118657,0.013033,-0.08229,0.001049,-0.000931,-0.001183,0.084261,-0.0,-0.0,2.0,0.282024,0.317946,0.282024,0.237834,,,,,,
388518,0.119268,0.013043,-0.082044,-0.00108,-0.00093,-0.001183,0.083281,-0.0,-0.0,2.0,0.282024,0.316393,0.282024,0.240179,,,,,,
388538,0.119027,0.013019,-0.081803,-0.002144,-0.00093,-0.001183,0.08195,-0.0,-0.0,2.0,0.282024,0.314451,0.282024,0.243043,,,,,,
388558,0.118171,0.012962,-0.081429,-0.003208,-0.000931,-0.001182,0.080568,-0.0,-0.0,2.0,0.282024,0.313441,0.282024,0.244501,,,,,,
388578,0.116701,0.013003,-0.081065,-0.004272,-0.000933,-0.001181,0.07984,-0.0,-0.0,2.0,0.282024,0.31149,0.282024,0.247264,,,,,,
388598,0.114627,0.012899,-0.080697,-0.005336,-0.000936,-0.001179,0.078179,-0.0,-0.0,2.0,0.282024,0.309761,0.282024,0.249654,,,,,,
388618,0.112177,0.013032,-0.080465,-0.006401,-0.000938,-0.001177,0.076823,-0.0,-0.0,2.0,0.282024,0.307486,0.282024,0.25272,,,,,,
388638,0.109362,0.013015,-0.07997,-0.007465,-0.000942,-0.001174,0.075113,-0.0,-0.0,2.0,0.282024,0.30518,0.282024,0.25574,,,,,,
388658,0.106187,0.012992,-0.079611,-0.007479,-0.000833,-0.002229,0.07256,-0.0,-0.0,2.0,0.282024,0.304688,0.282024,0.256373,,,,,,
388678,0.102752,0.013204,-0.07925,-0.008529,-0.000949,-0.001168,0.070887,-0.0,-0.0,2.0,0.282024,0.301825,0.282024,0.259986,,,,,,
388698,0.098969,0.013154,-0.078769,-0.009607,-0.000849,-0.002223,0.068529,-0.0,-0.0,2.0,0.282024,0.30068,0.282024,0.261396,,,,,,
388718,0.095297,0.013231,-0.078277,-0.009607,-0.000857,-0.00222,0.06616,-0.0,-0.0,2.0,0.282024,0.298137,0.282024,0.264463,,,,,,
388738,0.091385,0.013184,-0.0779,-0.009593,-0.000963,-0.001157,0.06359,-0.0,-0.0,2.0,0.282024,0.297022,0.282024,0.26578,,,,,,
388758,0.087231,0.013248,-0.077419,-0.009606,0.000185,-0.002121,0.062311,-0.0,-0.0,2.0,0.282024,0.29467,0.282024,0.268505,,,,,,
388778,0.083445,0.013087,-0.077033,-0.008529,-0.000972,-0.001149,0.060912,-0.0,-0.0,2.0,0.282024,0.292663,0.282024,0.270775,,,,,,
388798,0.079534,0.013167,-0.076669,-0.008529,-0.000976,-0.001146,0.057169,-0.0,-0.0,2.0,0.282024,0.294072,0.282024,0.269186,,,,,,
388818,0.075623,0.013122,-0.076163,-0.008529,-0.000981,-0.001142,0.05408,-0.0,-0.0,2.0,0.282024,0.293389,0.282024,0.269959,,,,,,
388838,0.072082,0.013097,-0.075791,-0.008543,-0.000908,-0.0022,0.051645,-0.0,-0.0,2.0,0.282024,0.292463,0.282024,0.270997,,,,,,
388858,0.068663,0.013078,-0.075417,-0.007463,7.3e-05,-0.001062,0.047573,-0.0,-0.0,2.0,0.282024,0.294534,0.282024,0.26866,,,,,,
388878,0.065366,0.013061,-0.07492,-0.007463,7e-05,-0.001062,0.045693,-0.0,-0.0,2.0,0.282024,0.293356,0.282024,0.269996,,,,,,
388898,0.06243,0.013185,-0.074548,-0.006414,-0.000929,-0.002191,0.042535,-0.0,-0.0,2.0,0.282024,0.29352,0.282024,0.269811,,,,,,
388918,0.059498,0.013188,-0.074171,-0.006414,-0.000936,-0.002188,0.039291,-0.0,-0.0,2.0,0.282024,0.295321,0.282024,0.267757,,,,,,
388938,0.056815,0.013198,-0.073685,-0.0064,-0.001002,-0.001123,0.037562,-0.0,-0.0,2.0,0.282024,0.294531,0.282024,0.268663,,,,,,
388958,0.054366,0.013342,-0.07331,-0.005335,5.8e-05,-0.001063,0.034757,-0.0,-0.0,2.0,0.282024,0.294827,0.282024,0.268325,,,,,,
388978,0.052045,0.013367,-0.072809,-0.005336,-0.001007,-0.001118,0.029694,-0.0,-0.0,2.0,0.282024,0.298563,0.282024,0.263955,,,,,,
388998,0.049605,0.013389,-0.07232,-0.00535,-0.000957,-0.002179,0.027872,-0.0,-0.0,2.0,0.282024,0.298061,0.282024,0.264554,,,,,,
389018,0.047414,0.013179,-0.071934,-0.005349,0.000101,-0.002126,0.02276,-0.0,-0.0,2.0,0.282024,0.30045,0.282024,0.261677,,,,,,
389038,0.045342,0.013093,-0.07143,-0.005336,-0.001015,-0.001111,0.019396,-0.0,-0.0,2.0,0.282024,0.301489,0.282024,0.260402,,,,,,
389058,0.043147,0.013125,-0.070818,-0.005336,-0.001017,-0.001109,0.015834,-0.0,-0.0,2.0,0.282024,0.302564,0.282024,0.259065,,,,,,
389078,0.040705,0.013148,-0.070193,-0.00535,-0.000977,-0.00217,0.012137,-0.0,-0.0,2.0,0.282024,0.302102,0.282024,0.259641,,,,,,
389098,0.038265,0.013176,-0.069701,-0.006414,-0.000982,-0.002168,0.008446,-0.0,-0.0,2.0,0.282024,0.303102,0.282024,0.258389,,,,,,
389118,0.035335,0.013186,-0.069072,-0.007478,7.5e-05,-0.002127,0.006427,-0.0,-0.0,2.0,0.282024,0.302393,0.282024,0.259278,,,,,,
389138,0.032161,0.013309,-0.068334,-0.008542,6.8e-05,-0.002128,0.003632,-0.0,-0.0,2.0,0.282024,0.300598,0.282024,0.261496,,,,,,
389158,0.028743,0.013306,-0.067701,-0.008543,-0.001003,-0.002158,-0.001536,-0.0,-0.0,2.0,0.282024,0.300532,0.282024,0.261577,,,,,,
389178,0.024721,0.013161,-0.066941,-0.009606,-0.001011,-0.002154,-0.004596,-0.0,-0.0,2.0,0.282024,0.298267,0.282024,0.264309,,,,,,
389198,0.020204,0.013248,-0.066192,-0.010671,-0.001021,-0.00215,-0.006985,-0.0,-0.0,2.0,0.282024,0.295014,0.282024,0.268111,,,,,,
389218,0.015324,0.013203,-0.065426,-0.011735,3.3e-05,-0.002128,-0.012051,-0.0,-0.0,2.0,0.282024,0.293646,0.282024,0.269669,,,,,,
389238,0.009954,0.013268,-0.064545,-0.012799,-0.001043,-0.002139,-0.016133,-0.0,-0.0,2.0,0.282024,0.291029,0.282024,0.272585,,,,,,
389258,0.004217,0.013325,-0.063648,-0.013863,-0.001055,-0.002133,-0.017952,-0.0,-0.0,2.0,0.282024,0.286117,0.282024,0.277844,,,,,,
389278,-0.002012,0.013494,-0.062876,-0.014928,-0.001069,-0.002126,-0.021565,-0.0,-0.0,2.0,0.282024,0.282234,0.282024,0.281814,,,,,,
389298,-0.008603,0.013534,-0.061976,-0.015992,-0.001082,-0.002119,-0.025329,-0.0,-0.0,2.0,0.282024,0.279726,0.282024,0.284296,,,,,,
389318,-0.015441,0.013694,-0.061069,-0.015993,-3.3e-05,-0.002128,-0.025329,-0.0,-0.0,2.0,0.282024,0.271821,0.282024,0.291722,,,,,,
389338,-0.022515,0.013609,-0.060157,-0.015992,-4.8e-05,-0.002128,-0.03167,-0.0,-0.0,2.0,0.282024,0.271137,0.282024,0.292338,,,,,,
389358,-0.029592,0.013528,-0.059374,-0.015992,-0.001127,-0.002096,-0.03452,-0.0,-0.0,2.0,0.282024,0.267144,0.282024,0.295853,,,,,,
389378,-0.036673,0.013574,-0.058585,-0.014928,-7.8e-05,-0.002127,-0.038975,-0.0,-0.0,2.0,0.282024,0.264643,0.282024,0.297985,,,,,,
389398,-0.043509,0.013634,-0.057672,-0.014928,-0.001156,-0.00208,-0.040927,-0.0,-0.0,2.0,0.282024,0.26164,0.282024,0.30048,,,,,,
389418,-0.050101,0.013707,-0.056757,-0.014928,-0.001169,-0.002073,-0.044103,-0.0,-0.0,2.0,0.282024,0.258216,0.282024,0.303239,,,,,,
389438,-0.056569,0.013664,-0.055964,-0.013878,-0.000181,-0.003188,-0.047334,-0.0,-0.0,2.0,0.282024,0.256852,0.282024,0.304314,,,,,,
389458,-0.062554,0.013882,-0.055167,-0.012785,-6.7e-05,-0.001062,-0.050381,-0.0,-0.0,2.0,0.282024,0.255703,0.282024,0.305208,,,,,,
389478,-0.068175,0.013994,-0.054384,-0.01172,-0.001134,-0.000989,-0.051898,-0.0,-0.0,2.0,0.282024,0.253373,0.282024,0.306993,,,,,,
389498,-0.073299,0.014005,-0.053477,-0.010686,-0.001295,-0.003106,-0.05644,-0.0,-0.0,2.0,0.282024,0.252768,0.282024,0.30745,,,,,,
389518,-0.077818,0.014153,-0.052692,-0.009608,-0.000165,-0.002122,-0.058092,-0.0,-0.0,2.0,0.282024,0.253595,0.282024,0.306825,,,,,,
389538,-0.081601,0.014203,-0.05192,-0.00748,-0.000173,-0.002122,-0.060327,-0.0,-0.0,2.0,0.282024,0.255768,0.282024,0.305158,,,,,,
389558,-0.084894,0.014146,-0.051157,-0.006414,-0.001241,-0.002031,-0.064118,-0.0,-0.0,2.0,0.282024,0.258124,0.282024,0.303313,,,,,,
389578,-0.087577,0.014108,-0.050402,-0.004286,-0.001246,-0.002027,-0.065592,-0.0,-0.0,2.0,0.282024,0.25875,0.282024,0.302815,,,,,,
389598,-0.089532,0.014207,-0.049773,-0.004286,-0.00125,-0.002025,-0.067998,-0.0,-0.0,2.0,0.282024,0.261049,0.282024,0.300963,,,,,,
389618,-0.090748,0.014203,-0.049148,-0.003223,-0.000193,-0.00212,-0.070255,-0.0,-0.0,2.0,0.282024,0.263868,0.282024,0.298637,,,,,,
389638,-0.091482,0.014456,-0.048519,-0.00108,-9.7e-05,-0.00106,-0.072373,-0.0,-0.0,2.0,0.282024,0.268685,0.282024,0.294512,,,,,,
389658,-0.091965,0.014472,-0.047904,-2.9e-05,-0.001255,-0.002022,-0.073667,-0.0,-0.0,2.0,0.282024,0.271173,0.282024,0.292305,,,,,,
389678,-0.091838,0.014375,-0.047423,-2.9e-05,-0.001255,-0.002022,-0.073667,-0.0,-0.0,2.0,0.282024,0.271315,0.282024,0.292178,,,,,,
389698,-0.091467,0.014279,-0.047068,-1.5e-05,-9.7e-05,-0.00106,-0.077504,-0.0,-0.0,2.0,0.282024,0.275203,0.282024,0.288616,,,,,,
389718,-0.091219,0.014313,-0.046462,-1.5e-05,-9.7e-05,-0.00106,-0.078864,-0.0,-0.0,2.0,0.282024,0.276645,0.282024,0.28726,,,,,,
389738,-0.091211,0.014329,-0.046088,-0.001093,-0.001254,-0.002023,-0.079825,-0.0,-0.0,2.0,0.282024,0.27586,0.282024,0.288001,,,,,,
389758,-0.091331,0.014343,-0.045721,-0.001093,-0.001254,-0.002023,-0.081774,-0.0,-0.0,2.0,0.282024,0.27754,0.282024,0.286408,,,,,,
389778,-0.091822,0.014349,-0.045358,-0.002144,-9.8e-05,-0.00106,-0.083015,-0.0,-0.0,2.0,0.282024,0.27656,0.282024,0.28734,,,,,,
389798,-0.092307,0.014354,-0.044987,-0.002128,0.0,0.0,-0.084098,-0.0,-0.0,2.0,0.282024,0.277104,0.282024,0.286824,,,,,,
389818,-0.092917,0.014485,-0.044486,-0.002158,-0.001257,-0.002021,-0.085001,-0.0,-0.0,2.0,0.282024,0.27737,0.282024,0.286571,,,,,,
389838,-0.093771,0.014598,-0.044226,-0.002158,-0.001259,-0.00202,-0.085533,-0.0,-0.0,2.0,0.282024,0.277051,0.282024,0.286874,,,,,,
389858,-0.094498,0.014471,-0.043979,-0.003208,-0.0001,-0.00106,-0.086071,-0.0,-0.0,2.0,0.282024,0.27526,0.282024,0.288562,,,,,,
389878,-0.095233,0.014472,-0.043613,-0.003208,-0.000101,-0.00106,-0.086769,-0.0,-0.0,2.0,0.282024,0.27687,0.282024,0.287046,,,,,,
389898,-0.096331,0.014587,-0.043228,-0.002142,-0.001162,-0.000957,-0.087044,-0.0,-0.0,2.0,0.282024,0.276099,0.282024,0.287775,,,,,,
389918,-0.097548,0.014571,-0.042969,-0.003224,-0.000207,-0.002119,-0.087182,-0.0,-0.0,2.0,0.282024,0.273455,0.282024,0.290234,,,,,,
389938,-0.098649,0.014425,-0.042969,-0.003208,-0.000105,-0.001059,-0.087259,-0.0,-0.0,2.0,0.282024,0.272532,0.282024,0.291077,,,,,,
389958,-0.100113,0.014526,-0.042701,-0.003191,-0.001059,0.000106,-0.087208,-0.0,-0.0,2.0,0.282024,0.271125,0.282024,0.292349,,,,,,
389978,-0.101704,0.014631,-0.042317,-0.004271,-0.001167,-0.000951,-0.086993,-0.0,-0.0,2.0,0.282024,0.267639,0.282024,0.295424,,,,,,
389998,-0.103174,0.014728,-0.042178,-0.004288,-0.000219,-0.002117,-0.086626,-0.0,-0.0,2.0,0.282024,0.265906,0.282024,0.296914,,,,,,
390018,-0.104639,0.014817,-0.042153,-0.004257,0.0,0.0,-0.086046,-0.0,-0.0,2.0,0.282024,0.265731,0.282024,0.297064,,,,,,
390038,-0.106351,0.014786,-0.042016,-0.003191,-0.001058,0.000113,-0.085409,-0.0,-0.0,2.0,0.282024,0.26166,0.282024,0.300464,,,,,,
390058,-0.107812,0.014766,-0.041754,-0.004271,-0.001173,-0.000944,-0.08491,-0.0,-0.0,2.0,0.282024,0.259663,0.282024,0.302085,,,,,,
390078,-0.10916,0.014731,-0.041866,-0.003207,-0.001174,-0.000942,-0.083733,-0.0,-0.0,2.0,0.282024,0.259026,0.282024,0.302595,,,,,,
390098,-0.110632,0.014821,-0.041847,-0.003193,0.0,0.0,-0.083113,-0.0,-0.0,2.0,0.282024,0.256925,0.282024,0.304257,,,,,,
390118,-0.111607,0.014799,-0.041834,-0.002127,-0.001058,0.000119,-0.081427,-0.0,-0.0,2.0,0.282024,0.254183,0.282024,0.306377,,,,,,
390138,-0.112464,0.014659,-0.041837,-0.002142,-0.001177,-0.000938,-0.080029,-0.0,-0.0,2.0,0.282024,0.253744,0.282024,0.306711,,,,,,
390158,-0.112952,0.014641,-0.041953,-0.00108,-0.00012,-0.001058,-0.078469,-0.0,-0.0,2.0,0.282024,0.25355,0.282024,0.306858,,,,,,
390178,-0.113075,0.014625,-0.042195,0.0,0.0,0.0,-0.077641,-0.0,-0.0,2.0,0.282024,0.252565,0.282024,0.307603,,,,,,
390198,-0.112832,0.014623,-0.04232,2e-06,-0.001057,0.00012,-0.075267,-0.0,-0.0,2.0,0.282024,0.254154,0.282024,0.306399,,,,,,
390218,-0.112343,0.014505,-0.042455,0.001066,-0.001058,0.000119,-0.075267,-0.0,-0.0,2.0,0.282024,0.254653,0.282024,0.306017,,,,,,
390238,-0.111848,0.01438,-0.042704,-1.4e-05,-0.001176,-0.000939,-0.073069,-0.0,-0.0,2.0,0.282024,0.250988,0.282024,0.30878,,,,,,
390258,-0.111363,0.014371,-0.043075,0.0,0.0,0.0,-0.070911,-0.0,-0.0,2.0,0.282024,0.249228,0.282024,0.310073,,,,,,
390278,-0.111,0.014494,-0.043195,1.5e-05,0.000118,0.001058,-0.067371,-0.0,-0.0,2.0,0.282024,0.245825,0.282024,0.312513,,,,,,
390298,-0.111005,0.014602,-0.043432,0.0,0.0,0.0,-0.066001,-0.0,-0.0,2.0,0.282024,0.244301,0.282024,0.313581,,,,,,
390318,-0.110882,0.014463,-0.043806,2e-06,-0.001058,0.000118,-0.063704,-0.0,-0.0,2.0,0.282024,0.241936,0.282024,0.315208,,,,,,
390338,-0.110638,0.014327,-0.044181,2e-06,-0.001058,0.000118,-0.06079,-0.0,-0.0,2.0,0.282024,0.236885,0.282024,0.318564,,,,,,
390358,-0.110393,0.014197,-0.044434,1.5e-05,0.000117,0.001058,-0.057955,-0.0,-0.0,2.0,0.282024,0.235985,0.282024,0.319146,,,,,,
390378,-0.10991,0.014317,-0.044678,0.0,0.0,0.0,-0.055074,-0.0,-0.0,2.0,0.282024,0.235331,0.282024,0.319565,,,,,,
390398,-0.109303,0.014311,-0.045051,0.001049,-0.000116,-0.001058,-0.053467,-0.0,-0.0,2.0,0.282024,0.234172,0.282024,0.320302,,,,,,
390418,-0.108446,0.014304,-0.045541,0.002128,0.0,0.0,-0.050056,-0.0,-0.0,2.0,0.282024,0.233358,0.282024,0.320815,,,,,,
390438,-0.107227,0.014192,-0.04593,0.003209,-0.000944,0.001172,-0.048109,-0.0,-0.0,2.0,0.282024,0.232501,0.282024,0.321352,,,,,,
390458,-0.105514,0.014091,-0.046315,0.003209,-0.000946,0.001171,-0.043939,-0.0,-0.0,2.0,0.282024,0.231732,0.282024,0.321828,,,,,,
390478,-0.103438,0.014116,-0.046821,0.004273,-0.000949,0.001169,-0.042193,-0.0,-0.0,2.0,0.282024,0.234273,0.282024,0.320239,,,,,,
390498,-0.100998,0.013908,-0.047353,0.005321,0.0,0.0,-0.037438,-0.0,-0.0,2.0,0.282024,0.23374,0.282024,0.320576,,,,,,
390518,-0.097817,0.013839,-0.047869,0.0064,0.000104,0.001059,-0.033955,-0.0,-0.0,2.0,0.282024,0.235493,0.282024,0.319462,,,,,,
390538,-0.094157,0.013901,-0.048516,0.008529,0.0001,0.00106,-0.032123,-0.0,-0.0,2.0,0.282024,0.241719,0.282024,0.315356,,,,,,
390558,-0.090126,0.013731,-0.049178,0.009578,0.0,0.0,-0.028602,-0.0,-0.0,2.0,0.282024,0.244328,0.282024,0.313561,,,,,,
390578,-0.085362,0.013698,-0.049954,0.011722,-0.00097,0.001151,-0.026292,-0.0,-0.0,2.0,0.282024,0.246987,0.282024,0.311688,,,,,,
390598,-0.079866,0.013687,-0.050738,0.011737,-0.000891,0.002207,-0.02353,-0.0,-0.0,2.0,0.282024,0.253723,0.282024,0.306728,,,,,,
390618,-0.074007,0.013569,-0.051537,0.012786,-0.000983,0.00114,-0.019854,-0.0,-0.0,2.0,0.282024,0.257814,0.282024,0.303558,,,,,,
390638,-0.067537,0.013585,-0.052571,0.01385,-0.00099,0.001134,-0.014727,-0.0,-0.0,2.0,0.282024,0.25916,0.282024,0.302488,,,,,,
390658,-0.060576,0.013497,-0.05361,0.014928,0.000129,0.002125,-0.011449,-0.0,-0.0,2.0,0.282024,0.266374,0.282024,0.296515,,,,,,
390678,-0.053498,0.013417,-0.054778,0.015992,0.000114,0.002126,-0.007083,-0.0,-0.0,2.0,0.282024,0.270659,0.282024,0.292766,,,,,,
390698,-0.045928,0.013236,-0.05595,0.017056,9.8e-05,0.002126,-0.003411,-0.0,-0.0,2.0,0.282024,0.274276,0.282024,0.289478,,,,,,
