time_ms,roll,pitch,yaw,reference_roll,reference_pitch,reference_yaw,reference_throttle,throttle_1,throttle_2,throttle_3,throttle_4,roll_predicted,pitch_predicted,yaw_predicted,roll_rate_predicted,pitch_rate_predicted,yaw_rate_predicted,value1,value2,value3,value4,value5,value6
264474,0.003198,-0.018409,-0.015845,0.0,-0.0,-0.0,3.0,0.3261,0.32236,0.3261,0.329783,,,,,,,0.002469,-0.019338,-0.010771,-0.024004,-6e-05,-0.000119
264494,0.003319,-0.018286,-0.015844,0.0,-0.0,-0.0,3.0,0.3261,0.324592,0.3261,0.327599,,,,,,,0.002709,-0.019339,-0.010774,-0.046743,-4.8e-05,-0.000118
264514,0.00332,-0.018408,-0.015844,0.0,-0.0,-0.0,3.0,0.3261,0.323424,0.3261,0.328747,,,,,,,0.002589,-0.01934,-0.010776,-0.023464,-6e-05,-0.000118
264534,0.00344,-0.018163,-0.015844,0.0,-0.0,-0.0,3.0,0.3261,0.324651,0.3261,0.327541,,,,,,,0.002584,-0.019341,-0.010779,0.000551,-3.5e-05,-0.000118
264554,0.003441,-0.018285,-0.015843,0.0,-0.0,-0.0,3.0,0.3261,0.323138,0.3261,0.329027,,,,,,,0.002466,-0.019342,-0.010781,0.023316,-4.8e-05,-0.000118
264574,0.003442,-0.018407,-0.015843,0.0,-0.0,-0.0,3.0,0.3261,0.32391,0.3261,0.328271,,,,,,,0.002463,-0.019344,-0.010783,0.02417,-6e-05,-0.000117
264594,0.003444,-0.018529,-0.015965,0.0,-0.0,-0.0,3.0,0.3261,0.324658,0.3261,0.327534,,,,,,,0.002583,-0.019345,-0.010786,0.001584,-7.2e-05,-0.000129
264614,0.003443,-0.018407,-0.015965,0.0,-0.0,-0.0,3.0,0.3261,0.322433,0.3261,0.329712,,,,,,,0.002469,-0.019346,-0.010788,0.023285,-5.9e-05,-0.000129
264634,0.003444,-0.018529,-0.015965,0.0,-0.0,-0.0,3.0,0.3261,0.320364,0.3261,0.331702,,,,,,,0.002354,-0.019347,-0.010791,0.045569,-7.1e-05,-0.000129
264654,0.003321,-0.018408,-0.015966,0.0,-0.0,-0.0,3.0,0.3261,0.321413,0.3261,0.330698,,,,,,,0.00247,-0.019348,-0.010793,-0.000528,-5.9e-05,-0.000129
264674,0.003077,-0.018532,-0.015846,0.0,-0.0,-0.0,3.0,0.3261,0.322048,0.3261,0.330085,,,,,,,0.002466,-0.019349,-0.010796,-0.046646,-7.2e-05,-0.000116
264694,0.003198,-0.018409,-0.015845,0.0,-0.0,-0.0,3.0,0.3261,0.320833,0.3261,0.331254,,,,,,,0.002353,-0.019351,-0.010798,-0.001635,-5.9e-05,-0.000116
264714,0.003196,-0.018287,-0.015724,0.0,-0.0,-0.0,3.0,0.3261,0.320854,0.3261,0.331234,,,,,,,0.002357,-0.019352,-0.010801,-0.002869,-4.7e-05,-0.000104
264734,0.003076,-0.01841,-0.015847,0.0,-0.0,-0.0,3.0,0.3261,0.325391,0.3261,0.326808,,,,,,,0.002585,-0.019353,-0.010803,-0.069717,-5.9e-05,-0.000116
264754,0.003197,-0.018287,-0.015846,0.0,-0.0,-0.0,3.0,0.3261,0.32726,0.3261,0.324935,,,,,,,0.002698,-0.019354,-0.010805,-0.068146,-4.7e-05,-0.000115
264774,0.003442,-0.018285,-0.015965,0.0,-0.0,-0.0,3.0,0.3261,0.325745,0.3261,0.326455,,,,,,,0.00258,-0.019355,-0.010808,0.001629,-4.6e-05,-0.000127
264794,0.003686,-0.018283,-0.015963,0.0,-0.0,-0.0,3.0,0.3261,0.324517,0.3261,0.327674,,,,,,,0.002461,-0.019356,-0.01081,0.071591,-4.6e-05,-0.000127
264814,0.003563,-0.018284,-0.015842,0.0,-0.0,-0.0,3.0,0.3261,0.32344,0.3261,0.328731,,,,,,,0.002461,-0.019357,-0.010812,0.047857,-4.6e-05,-0.000114
264834,0.003319,-0.018286,-0.015844,0.0,-0.0,-0.0,3.0,0.3261,0.321919,0.3261,0.330209,,,,,,,0.002339,-0.019358,-0.010815,0.02429,-4.6e-05,-0.000114
264854,0.003198,-0.018409,-0.015845,0.0,-0.0,-0.0,3.0,0.3261,0.320628,0.3261,0.33145,,,,,,,0.002347,-0.019359,-0.010817,-0.000404,-5.8e-05,-0.000114
264874,0.003198,-0.018409,-0.015845,0.0,-0.0,-0.0,3.0,0.3261,0.318356,0.3261,0.333602,,,,,,,0.00224,-0.01936,-0.010819,0.020079,-5.8e-05,-0.000114
264894,0.003198,-0.018409,-0.015845,0.0,-0.0,-0.0,3.0,0.3261,0.321415,0.3261,0.330696,,,,,,,0.00248,-0.019361,-0.010821,-0.026115,-5.8e-05,-0.000114
264914,0.003075,-0.018288,-0.015847,0.0,-0.0,-0.0,3.0,0.3261,0.324037,0.3261,0.328146,,,,,,,0.002715,-0.019362,-0.010824,-0.094943,-4.6e-05,-0.000114
264934,0.00332,-0.018408,-0.015844,0.0,-0.0,-0.0,3.0,0.3261,0.327254,0.3261,0.324941,,,,,,,0.002823,-0.019364,-0.010826,-0.068589,-5.8e-05,-0.000113
264954,0.003563,-0.018284,-0.015842,0.0,-0.0,-0.0,3.0,0.3261,0.327662,0.3261,0.324528,,,,,,,0.002818,-0.019365,-0.010828,-0.020754,-4.5e-05,-0.000113
264974,0.003685,-0.018283,-0.015841,0.0,-0.0,-0.0,3.0,0.3261,0.325223,0.3261,0.326975,,,,,,,0.002578,-0.019366,-0.01083,0.048771,-4.5e-05,-0.000112
264994,0.003685,-0.018283,-0.015841,0.0,-0.0,-0.0,3.0,0.3261,0.322017,0.3261,0.330116,,,,,,,0.002343,-0.019366,-0.010833,0.094083,-4.5e-05,-0.000112
265014,0.003441,-0.018285,-0.015843,0.0,-0.0,-0.0,3.0,0.3261,0.319884,0.3261,0.33216,,,,,,,0.002227,-0.019367,-0.010835,0.069467,-4.5e-05,-0.000112
265034,0.003196,-0.018287,-0.015724,0.0,-0.0,-0.0,3.0,0.3261,0.319162,0.3261,0.332844,,,,,,,0.002231,-0.019368,-0.010837,0.021378,-4.5e-05,-0.0001
265054,0.002952,-0.018167,-0.015848,0.0,-0.0,-0.0,3.0,0.3261,0.319806,0.3261,0.332234,,,,,,,0.002232,-0.019369,-0.010839,-0.025712,-3.3e-05,-0.000112
265074,0.003075,-0.018288,-0.015847,0.0,-0.0,-0.0,3.0,0.3261,0.320826,0.3261,0.331261,,,,,,,0.002358,-0.01937,-0.010842,-0.026343,-4.5e-05,-0.000112
265094,0.003076,-0.01841,-0.015847,0.0,-0.0,-0.0,3.0,0.3261,0.321662,0.3261,0.330458,,,,,,,0.002358,-0.019371,-0.010844,-0.026074,-5.7e-05,-0.000112
265114,0.003198,-0.018409,-0.015845,0.0,-0.0,-0.0,3.0,0.3261,0.327722,0.3261,0.324467,,,,,,,0.0027,-0.019372,-0.010846,-0.068364,-5.7e-05,-0.000111
265134,0.003443,-0.018529,-0.015843,0.0,-0.0,-0.0,3.0,0.3261,0.327383,0.3261,0.324811,,,,,,,0.002695,-0.019373,-0.010848,-0.020181,-6.9e-05,-0.000111
265154,0.003684,-0.018283,-0.015719,0.0,-0.0,-0.0,3.0,0.3261,0.325294,0.3261,0.326904,,,,,,,0.002576,-0.019374,-0.01085,0.049106,-4.4e-05,-9.8e-05
265174,0.003685,-0.018405,-0.015719,0.0,-0.0,-0.0,3.0,0.3261,0.322516,0.3261,0.329632,,,,,,,0.002464,-0.019374,-0.010852,0.070775,-5.6e-05,-9.8e-05
265194,0.003438,-0.018041,-0.015722,0.0,-0.0,-0.0,3.0,0.3261,0.320286,0.3261,0.331777,,,,,,,0.00235,-0.019376,-0.010854,0.045122,-2e-05,-9.8e-05
265214,0.003194,-0.018043,-0.015724,0.0,-0.0,-0.0,3.0,0.3261,0.322761,0.3261,0.329394,,,,,,,0.002587,-0.019376,-0.010856,-0.047399,-2e-05,-9.8e-05
265234,0.003316,-0.018042,-0.015723,0.0,-0.0,-0.0,3.0,0.3261,0.322369,0.3261,0.329775,,,,,,,0.002592,-0.019377,-0.010858,-0.024962,-2e-05,-9.8e-05
265254,0.00344,-0.018285,-0.015721,0.0,-0.0,-0.0,3.0,0.3261,0.321285,0.3261,0.330821,,,,,,,0.00248,-0.019378,-0.01086,0.020498,-4.4e-05,-9.8e-05
265274,0.003441,-0.018407,-0.015721,0.0,-0.0,-0.0,3.0,0.3261,0.325494,0.3261,0.326705,,,,,,,0.002832,-0.019379,-0.010862,-0.04705,-5.6e-05,-9.7e-05
265294,0.003565,-0.01865,-0.01572,0.0,-0.0,-0.0,3.0,0.3261,0.326182,0.3261,0.326019,,,,,,,0.002821,-0.01938,-0.010864,-0.021071,-8e-05,-9.7e-05
265314,0.003808,-0.018526,-0.015717,0.0,-0.0,-0.0,3.0,0.3261,0.326525,0.3261,0.325675,,,,,,,0.002941,-0.019381,-0.010866,0.002571,-6.8e-05,-9.7e-05
265334,0.003805,-0.018282,-0.015596,0.0,-0.0,-0.0,3.0,0.3261,0.322072,0.3261,0.330062,,,,,,,0.002709,-0.019381,-0.010868,0.046588,-4.3e-05,-8.4e-05
265354,0.003803,-0.018038,-0.015596,0.0,-0.0,-0.0,3.0,0.3261,0.322952,0.3261,0.329208,,,,,,,0.002832,-0.019382,-0.010869,0.022555,-1.9e-05,-8.4e-05
265374,0.003681,-0.017917,-0.01572,0.0,-0.0,-0.0,3.0,0.3261,0.323818,0.3261,0.328361,,,,,,,0.002951,-0.019383,-0.010871,-0.023696,-7e-06,-9.6e-05
265394,0.003803,-0.017916,-0.015719,0.0,-0.0,-0.0,3.0,0.3261,0.325019,0.3261,0.327176,,,,,,,0.003071,-0.019384,-0.010873,-0.023206,-7e-06,-9.6e-05
265414,0.003927,-0.018037,-0.015839,0.0,-0.0,-0.0,3.0,0.3261,0.323119,0.3261,0.329045,,,,,,,0.00296,-0.019385,-0.010875,0.021865,-1.9e-05,-0.000108
265434,0.003807,-0.018282,-0.01584,0.0,-0.0,-0.0,3.0,0.3261,0.322568,0.3261,0.329581,,,,,,,0.002838,-0.019385,-0.010877,0.022256,-4.3e-05,-0.000108
265454,0.003685,-0.018283,-0.015841,0.0,-0.0,-0.0,3.0,0.3261,0.323515,0.3261,0.328658,,,,,,,0.002832,-0.019386,-0.010879,4.4e-05,-4.3e-05,-0.000108
265474,0.003685,-0.018405,-0.015719,0.0,-0.0,-0.0,3.0,0.3261,0.323408,0.3261,0.328762,,,,,,,0.002831,-0.019386,-0.010881,0.00018,-5.5e-05,-9.5e-05
265494,0.003685,-0.018405,-0.015719,0.0,-0.0,-0.0,3.0,0.3261,0.321957,0.3261,0.330173,,,,,,,0.00271,-0.019387,-0.010883,0.023324,-5.5e-05,-9.5e-05
265514,0.003683,-0.018161,-0.015719,0.0,-0.0,-0.0,3.0,0.3261,0.323215,0.3261,0.328951,,,,,,,0.002832,-0.019387,-0.010885,-0.00051,-3.1e-05,-9.5e-05
265534,0.003682,-0.018161,-0.015597,0.0,-0.0,-0.0,3.0,0.3261,0.323866,0.3261,0.328314,,,,,,,0.002953,-0.019388,-0.010887,-0.02401,-3.1e-05,-8.2e-05
265554,0.003682,-0.018039,-0.015719,0.0,-0.0,-0.0,3.0,0.3261,0.325046,0.3261,0.32715,,,,,,,0.002946,-0.019389,-0.010889,-0.022601,-1.8e-05,-9.4e-05
265574,0.003802,-0.017794,-0.015719,0.0,-0.0,-0.0,3.0,0.3261,0.32662,0.3261,0.325579,,,,,,,0.003064,-0.019389,-0.010891,-0.022065,6e-06,-9.4e-05
265594,0.003804,-0.018038,-0.015718,0.0,-0.0,-0.0,3.0,0.3261,0.32563,0.3261,0.326569,,,,,,,0.002945,-0.01939,-0.010893,0.001222,-1.8e-05,-9.4e-05
265614,0.004048,-0.018036,-0.015716,0.0,-0.0,-0.0,3.0,0.3261,0.322772,0.3261,0.329383,,,,,,,0.002835,-0.019391,-0.010894,0.069178,-1.8e-05,-9.4e-05
265634,0.003684,-0.018283,-0.015719,0.0,-0.0,-0.0,3.0,0.3261,0.320793,0.3261,0.331292,,,,,,,0.002719,-0.019391,-0.010896,0.021505,-4.2e-05,-9.4e-05
265654,0.003561,-0.018162,-0.01572,0.0,-0.0,-0.0,3.0,0.3261,0.324254,0.3261,0.327932,,,,,,,0.002952,-0.019392,-0.010898,-0.046943,-3e-05,-9.4e-05
265674,0.003562,-0.018284,-0.01572,0.0,-0.0,-0.0,3.0,0.3261,0.323917,0.3261,0.328264,,,,,,,0.002951,-0.019392,-0.0109,-0.04658,-4.3e-05,-9.3e-05
265694,0.003683,-0.018283,-0.015597,0.0,-0.0,-0.0,3.0,0.3261,0.324342,0.3261,0.327846,,,,,,,0.00295,-0.019392,-0.010902,-0.023103,-4.2e-05,-8.1e-05
265714,0.003805,-0.018282,-0.015596,0.0,-0.0,-0.0,3.0,0.3261,0.323289,0.3261,0.328879,,,,,,,0.002836,-0.019393,-0.010903,0.02232,-4.2e-05,-8.1e-05
265734,0.00368,-0.01804,-0.015475,0.0,-0.0,-0.0,3.0,0.3261,0.325121,0.3261,0.327076,,,,,,,0.002943,-0.019393,-0.010905,-0.022441,-1.8e-05,-6.8e-05
265754,0.0038,-0.017794,-0.015475,0.0,-0.0,-0.0,3.0,0.3261,0.32626,0.3261,0.32594,,,,,,,0.002935,-0.019394,-0.010906,0.00222,7e-06,-6.8e-05
265774,0.0038,-0.017794,-0.015475,0.0,-0.0,-0.0,3.0,0.3261,0.324114,0.3261,0.32807,,,,,,,0.002945,-0.019394,-0.010908,0.000422,7e-06,-6.8e-05
265794,0.003921,-0.017671,-0.015474,0.0,-0.0,-0.0,3.0,0.3261,0.322081,0.3261,0.330053,,,,,,,0.002838,-0.019395,-0.010909,0.044241,1.9e-05,-6.8e-05
265814,0.003801,-0.017917,-0.015474,0.0,-0.0,-0.0,3.0,0.3261,0.322305,0.3261,0.329837,,,,,,,0.002961,-0.019395,-0.010911,-0.002516,-5e-06,-6.8e-05
265834,0.00368,-0.01804,-0.015475,0.0,-0.0,-0.0,3.0,0.3261,0.326421,0.3261,0.325779,,,,,,,0.003185,-0.019395,-0.010912,-0.069001,-1.8e-05,-6.8e-05
265854,0.003805,-0.018405,-0.015474,0.0,-0.0,-0.0,3.0,0.3261,0.32659,0.3261,0.325609,,,,,,,0.003184,-0.019395,-0.010913,-0.044761,-5.4e-05,-6.7e-05
265874,0.004047,-0.018281,-0.015349,0.0,-0.0,-0.0,3.0,0.3261,0.32338,0.3261,0.32879,,,,,,,0.002951,-0.019396,-0.010914,0.046665,-4.2e-05,-5.5e-05
265894,0.004046,-0.018281,-0.015227,0.0,-0.0,-0.0,3.0,0.3261,0.324198,0.3261,0.327988,,,,,,,0.002944,-0.019396,-0.010916,0.047702,-4.2e-05,-4.3e-05
265914,0.00392,-0.017916,-0.015107,0.0,-0.0,-0.0,3.0,0.3261,0.324846,0.3261,0.327348,,,,,,,0.003061,-0.019396,-0.010916,0.001001,-5e-06,-3e-05
265934,0.003919,-0.017794,-0.015107,0.0,-0.0,-0.0,3.0,0.3261,0.323505,0.3261,0.328668,,,,,,,0.003066,-0.019396,-0.010917,-0.000102,7e-06,-3e-05
265954,0.004039,-0.017549,-0.015107,0.0,-0.0,-0.0,3.0,0.3261,0.323214,0.3261,0.328953,,,,,,,0.003071,-0.019397,-0.010918,0.021991,3.1e-05,-3e-05
265974,0.003918,-0.017672,-0.015108,0.0,-0.0,-0.0,3.0,0.3261,0.322327,0.3261,0.329815,,,,,,,0.003078,-0.019397,-0.010919,-0.002536,1.9e-05,-3e-05
265994,0.004042,-0.017915,-0.015106,0.0,-0.0,-0.0,3.0,0.3261,0.324736,0.3261,0.327457,,,,,,,0.003196,-0.019397,-0.010919,-0.001356,-5e-06,-3e-05
266014,0.004044,-0.01816,-0.015105,0.0,-0.0,-0.0,3.0,0.3261,0.325133,0.3261,0.327063,,,,,,,0.003185,-0.019397,-0.01092,0.024947,-5.4e-05,-3e-05
266034,0.004045,-0.018282,-0.015105,0.0,-0.0,-0.0,3.0,0.3261,0.327841,0.3261,0.324347,,,,,,,0.003421,-0.019398,-0.01092,-0.044208,-4.2e-05,-3e-05
266054,0.004289,-0.01828,-0.015103,0.0,-0.0,-0.0,3.0,0.3261,0.326453,0.3261,0.325747,,,,,,,0.003301,-0.019398,-0.010921,0.025879,-4.1e-05,-3e-05
266074,0.004289,-0.018402,-0.014981,0.0,-0.0,-0.0,3.0,0.3261,0.321511,0.3261,0.330603,,,,,,,0.002947,-0.019398,-0.010921,0.0939,-5.4e-05,-1.7e-05
266094,0.004042,-0.01816,-0.014861,0.0,-0.0,-0.0,3.0,0.3261,0.320675,0.3261,0.331406,,,,,,,0.002955,-0.019399,-0.010921,0.044779,-2.9e-05,-5e-06
266114,0.003674,-0.017919,-0.014865,0.0,-0.0,-0.0,3.0,0.3261,0.321511,0.3261,0.330603,,,,,,,0.003073,-0.019399,-0.010922,-0.048686,-5e-06,-6e-06
266134,0.003674,-0.017796,-0.014987,0.0,-0.0,-0.0,3.0,0.3261,0.324479,0.3261,0.327711,,,,,,,0.003189,-0.0194,-0.010922,-0.070886,7e-06,-1.8e-05
266154,0.003918,-0.017794,-0.014985,0.0,-0.0,-0.0,3.0,0.3261,0.324747,0.3261,0.327446,,,,,,,0.003195,-0.0194,-0.010923,-0.025086,7e-06,-1.8e-05
266174,0.004164,-0.017914,-0.015105,0.0,-0.0,-0.0,3.0,0.3261,0.325661,0.3261,0.326538,,,,,,,0.003196,-0.019401,-0.010923,0.022003,-5e-06,-3e-05
266194,0.004044,-0.01816,-0.015105,0.0,-0.0,-0.0,3.0,0.3261,0.327631,0.3261,0.32456,,,,,,,0.003305,-0.019401,-0.010924,-0.021958,-2.9e-05,-3e-05
266214,0.004166,-0.018281,-0.014982,0.0,-0.0,-0.0,3.0,0.3261,0.328651,0.3261,0.323522,,,,,,,0.003289,-0.019402,-0.010924,0.004442,-4.1e-05,-1.7e-05
266234,0.004045,-0.018404,-0.014983,0.0,-0.0,-0.0,3.0,0.3261,0.32323,0.3261,0.328936,,,,,,,0.002941,-0.019402,-0.010924,0.048145,-5.3e-05,-1.7e-05
266254,0.004043,-0.01816,-0.014983,0.0,-0.0,-0.0,3.0,0.3261,0.319119,0.3261,0.332884,,,,,,,0.002717,-0.019403,-0.010924,0.090878,-2.9e-05,-1.7e-05
266274,0.003553,-0.018164,-0.014866,0.0,-0.0,-0.0,3.0,0.3261,0.318986,0.3261,0.33301,,,,,,,0.002716,-0.019403,-0.010925,-0.0031,-2.9e-05,-6e-06
266294,0.003429,-0.01792,-0.014867,0.0,-0.0,-0.0,3.0,0.3261,0.325058,0.3261,0.327138,,,,,,,0.003064,-0.019403,-0.010925,-0.093786,-5e-06,-6e-06
266314,0.003552,-0.01792,-0.014866,0.0,-0.0,-0.0,3.0,0.3261,0.324509,0.3261,0.327681,,,,,,,0.003069,-0.019404,-0.010925,-0.071353,-5e-06,-6e-06
266334,0.003795,-0.017796,-0.014864,0.0,-0.0,-0.0,3.0,0.3261,0.326866,0.3261,0.325332,,,,,,,0.00306,-0.019404,-0.010925,-0.022889,8e-06,-5e-06
266354,0.003796,-0.017918,-0.014864,0.0,-0.0,-0.0,3.0,0.3261,0.327059,0.3261,0.325137,,,,,,,0.003062,-0.019405,-0.010925,-0.023019,-5e-06,-5e-06
266374,0.003796,-0.017918,-0.014864,0.0,-0.0,-0.0,3.0,0.3261,0.326593,0.3261,0.325606,,,,,,,0.002935,-0.019405,-0.010926,0.001464,-5e-06,-5e-06
266394,0.00392,-0.018161,-0.014862,0.0,-0.0,-0.0,3.0,0.3261,0.326096,0.3261,0.326104,,,,,,,0.002936,-0.019405,-0.010926,0.025041,-2.9e-05,-5e-06
266414,0.003797,-0.01804,-0.014864,0.0,-0.0,-0.0,3.0,0.3261,0.322956,0.3261,0.329204,,,,,,,0.002698,-0.019405,-0.010926,0.047095,-1.7e-05,-5e-06
266434,0.003677,-0.018163,-0.014987,0.0,-0.0,-0.0,3.0,0.3261,0.321978,0.3261,0.330152,,,,,,,0.002709,-0.019405,-0.010926,0.021902,-2.9e-05,-1.8e-05
266454,0.003554,-0.018163,-0.014988,0.0,-0.0,-0.0,3.0,0.3261,0.322025,0.3261,0.330108,,,,,,,0.002707,-0.019406,-0.010926,-0.001246,-2.9e-05,-1.8e-05
266474,0.003431,-0.018165,-0.014867,0.0,-0.0,-0.0,3.0,0.3261,0.324265,0.3261,0.327921,,,,,,,0.002821,-0.019406,-0.010926,-0.046824,-2.9e-05,-5e-06
266494,0.003552,-0.01792,-0.014866,0.0,-0.0,-0.0,3.0,0.3261,0.325627,0.3261,0.326573,,,,,,,0.002942,-0.019407,-0.010926,-0.046953,-5e-06,-5e-06
266514,0.003552,-0.01792,-0.014866,0.0,-0.0,-0.0,3.0,0.3261,0.324973,0.3261,0.327222,,,,,,,0.002821,-0.019407,-0.010927,-0.02364,-5e-06,-5e-06
266534,0.003674,-0.017919,-0.014865,0.0,-0.0,-0.0,3.0,0.3261,0.325578,0.3261,0.326622,,,,,,,0.002821,-0.019407,-0.010927,-0.000131,-4e-06,-5e-06
266554,0.003673,-0.017797,-0.014865,0.0,-0.0,-0.0,3.0,0.3261,0.326847,0.3261,0.325351,,,,,,,0.002938,-0.019408,-0.010927,-0.022885,8e-06,-5e-06
266574,0.003675,-0.018041,-0.014865,0.0,-0.0,-0.0,3.0,0.3261,0.327043,0.3261,0.325154,,,,,,,0.002934,-0.019408,-0.010927,-0.021676,-1.7e-05,-5e-06
266594,0.003797,-0.01804,-0.014864,0.0,-0.0,-0.0,3.0,0.3261,0.325352,0.3261,0.326846,,,,,,,0.002816,-0.019408,-0.010927,0.024376,-1.7e-05,-5e-06
266614,0.003677,-0.018163,-0.014987,0.0,-0.0,-0.0,3.0,0.3261,0.322733,0.3261,0.329421,,,,,,,0.002582,-0.019408,-0.010927,0.046296,-2.9e-05,-1.7e-05
266634,0.003554,-0.018163,-0.014988,0.0,-0.0,-0.0,3.0,0.3261,0.323065,0.3261,0.329097,,,,,,,0.002582,-0.019408,-0.010927,0.022973,-2.9e-05,-1.7e-05
266654,0.003309,-0.018166,-0.014868,0.0,-0.0,-0.0,3.0,0.3261,0.32343,0.3261,0.328741,,,,,,,0.002575,-0.019409,-0.010927,-0.022985,-2.9e-05,-5e-06
266674,0.003308,-0.018043,-0.014868,0.0,-0.0,-0.0,3.0,0.3261,0.323875,0.3261,0.328306,,,,,,,0.002576,-0.019409,-0.010928,-0.023367,-1.7e-05,-5e-06
266694,0.003427,-0.017799,-0.014745,0.0,-0.0,-0.0,3.0,0.3261,0.323026,0.3261,0.329136,,,,,,,0.002584,-0.019409,-0.010928,-0.00201,8e-06,7e-06
266714,0.003429,-0.017798,-0.014867,0.0,-0.0,-0.0,3.0,0.3261,0.323561,0.3261,0.328613,,,,,,,0.002585,-0.01941,-0.010928,-0.001918,8e-06,-5e-06
266734,0.003429,-0.017798,-0.014867,0.0,-0.0,-0.0,3.0,0.3261,0.32851,0.3261,0.323666,,,,,,,0.002935,-0.01941,-0.010928,-0.069151,8e-06,-5e-06
266754,0.003429,-0.01792,-0.014867,0.0,-0.0,-0.0,3.0,0.3261,0.327174,0.3261,0.325022,,,,,,,0.002813,-0.01941,-0.010928,-0.045536,-4e-06,-5e-06
266774,0.003676,-0.01804,-0.014987,0.0,-0.0,-0.0,3.0,0.3261,0.325636,0.3261,0.326563,,,,,,,0.002574,-0.01941,-0.010928,0.047717,-1.6e-05,-1.7e-05
266794,0.003432,-0.018164,-0.014989,0.0,-0.0,-0.0,3.0,0.3261,0.323224,0.3261,0.328942,,,,,,,0.002334,-0.01941,-0.010928,0.047179,-2.9e-05,-1.7e-05
266814,0.003188,-0.018166,-0.014991,0.0,-0.0,-0.0,3.0,0.3261,0.322566,0.3261,0.329583,,,,,,,0.00209,-0.019411,-0.010929,0.047139,-2.9e-05,-1.8e-05
266834,0.00282,-0.018047,-0.014873,0.0,-0.0,-0.0,3.0,0.3261,0.321276,0.3261,0.330829,,,,,,,0.001969,-0.019411,-0.010929,-0.000432,-1.7e-05,-6e-06
266854,0.002576,-0.018049,-0.014875,0.0,-0.0,-0.0,3.0,0.3261,0.319378,0.3261,0.33264,,,,,,,0.001735,-0.019411,-0.010929,-0.002426,-1.7e-05,-6e-06
266874,0.002451,-0.017806,-0.014754,0.0,-0.0,-0.0,3.0,0.3261,0.321929,0.3261,0.3302,,,,,,,0.001856,-0.019411,-0.010929,-0.04984,7e-06,6e-06
266894,0.00233,-0.017807,-0.014877,0.0,-0.0,-0.0,3.0,0.3261,0.324131,0.3261,0.328053,,,,,,,0.001848,-0.019411,-0.010929,-0.07149,7e-06,-6e-06
266914,0.00233,-0.017807,-0.014877,0.0,-0.0,-0.0,3.0,0.3261,0.326561,0.3261,0.325639,,,,,,,0.001839,-0.019411,-0.010929,-0.069669,7e-06,-6e-06
266934,0.002331,-0.017929,-0.014877,0.0,-0.0,-0.0,3.0,0.3261,0.328033,0.3261,0.324152,,,,,,,0.001707,-0.019411,-0.010929,-0.044231,-5e-06,-6e-06
266954,0.002331,-0.017929,-0.014877,0.0,-0.0,-0.0,3.0,0.3261,0.326433,0.3261,0.325767,,,,,,,0.001341,-0.019411,-0.01093,0.026334,-5e-06,-6e-06
266974,0.002209,-0.017807,-0.015,0.0,-0.0,-0.0,3.0,0.3261,0.323271,0.3261,0.328897,,,,,,,0.000985,-0.019411,-0.01093,0.071341,7e-06,-1.9e-05
266994,0.001842,-0.01781,-0.014882,0.0,-0.0,-0.0,3.0,0.3261,0.31934,0.3261,0.332675,,,,,,,0.000632,-0.019411,-0.01093,0.068596,7e-06,-7e-06
267014,0.001353,-0.017814,-0.014886,0.0,-0.0,-0.0,3.0,0.3261,0.319231,0.3261,0.332778,,,,,,,0.000509,-0.019411,-0.01093,-0.00171,6e-06,-7e-06
267034,0.000986,-0.017695,-0.014889,0.0,-0.0,-0.0,3.0,0.3261,0.320427,0.3261,0.331642,,,,,,,0.000509,-0.019411,-0.01093,-0.072314,1.8e-05,-7e-06
267054,0.000743,-0.017818,-0.014891,0.0,-0.0,-0.0,3.0,0.3261,0.320326,0.3261,0.331739,,,,,,,0.00027,-0.01941,-0.01093,-0.073133,6e-06,-8e-06
267074,0.000742,-0.017696,-0.014892,0.0,-0.0,-0.0,3.0,0.3261,0.322914,0.3261,0.329245,,,,,,,0.000143,-0.01941,-0.010931,-0.048844,1.8e-05,-8e-06
267094,0.000499,-0.01782,-0.014894,0.0,-0.0,-0.0,3.0,0.3261,0.325506,0.3261,0.326693,,,,,,,7e-06,-0.01941,-0.010931,-0.069471,6e-06,-8e-06
267114,0.000256,-0.017944,-0.014896,0.0,-0.0,-0.0,3.0,0.3261,0.32593,0.3261,0.32627,,,,,,,-0.000368,-0.01941,-0.010931,-0.044083,-7e-06,-8e-06
267134,0.000254,-0.017822,-0.014774,0.0,-0.0,-0.0,3.0,0.3261,0.324636,0.3261,0.327556,,,,,,,-0.000735,-0.01941,-0.010931,0.026074,5e-06,4e-06
267154,1e-05,-0.017824,-0.014776,0.0,-0.0,-0.0,3.0,0.3261,0.320059,0.3261,0.331993,,,,,,,-0.001205,-0.01941,-0.010931,0.069511,5e-06,4e-06
267174,-0.000357,-0.017827,-0.014779,0.0,-0.0,-0.0,3.0,0.3261,0.317437,0.3261,0.334462,,,,,,,-0.001562,-0.01941,-0.010931,0.067706,5e-06,4e-06
267194,-0.000724,-0.017707,-0.014782,0.0,-0.0,-0.0,3.0,0.3261,0.320403,0.3261,0.331665,,,,,,,-0.001448,-0.01941,-0.010931,-0.024786,1.7e-05,3e-06
267214,-0.000966,-0.017953,-0.014785,0.0,-0.0,-0.0,3.0,0.3261,0.320499,0.3261,0.331574,,,,,,,-0.00157,-0.01941,-0.010931,-0.047919,-8e-06,3e-06
267234,-0.000844,-0.017952,-0.014784,0.0,-0.0,-0.0,3.0,0.3261,0.320872,0.3261,0.331217,,,,,,,-0.001689,-0.01941,-0.01093,-0.001734,-8e-06,3e-06
267254,-0.000965,-0.018075,-0.014785,0.0,-0.0,-0.0,3.0,0.3261,0.320823,0.3261,0.331264,,,,,,,-0.001811,-0.01941,-0.01093,-0.00153,-2e-05,3e-06
267274,-0.001087,-0.018076,-0.014786,0.0,-0.0,-0.0,3.0,0.3261,0.322835,0.3261,0.329321,,,,,,,-0.001821,-0.01941,-0.01093,-0.023075,-2e-05,3e-06
267294,-0.000965,-0.018197,-0.014663,0.0,-0.0,-0.0,3.0,0.3261,0.325685,0.3261,0.326515,,,,,,,-0.001587,-0.01941,-0.01093,-0.044644,-3.2e-05,1.5e-05
267314,-0.001087,-0.018198,-0.014664,0.0,-0.0,-0.0,3.0,0.3261,0.323046,0.3261,0.329117,,,,,,,-0.001825,-0.019411,-0.01093,-0.022306,-3.2e-05,1.5e-05
267334,-0.001089,-0.017954,-0.014664,0.0,-0.0,-0.0,3.0,0.3261,0.322783,0.3261,0.329372,,,,,,,-0.001943,-0.019411,-0.01093,-1.9e-05,-8e-06,1.5e-05
267354,-0.001211,-0.017833,-0.014787,0.0,-0.0,-0.0,3.0,0.3261,0.322119,0.3261,0.330017,,,,,,,-0.002064,-0.019411,-0.01093,-1.4e-05,5e-06,3e-06
267374,-0.001332,-0.017956,-0.014788,0.0,-0.0,-0.0,3.0,0.3261,0.324118,0.3261,0.328066,,,,,,,-0.002072,-0.019412,-0.010929,-0.02189,-8e-06,3e-06
267394,-0.001332,-0.017956,-0.014788,0.0,-0.0,-0.0,3.0,0.3261,0.321599,0.3261,0.330518,,,,,,,-0.002306,-0.019412,-0.010929,0.023104,-8e-06,3e-06
267414,-0.001576,-0.017958,-0.01479,0.0,-0.0,-0.0,3.0,0.3261,0.320534,0.3261,0.33154,,,,,,,-0.00255,-0.019413,-0.010929,0.023091,-8e-06,2e-06
267434,-0.001943,-0.018082,-0.014671,0.0,-0.0,-0.0,3.0,0.3261,0.31818,0.3261,0.333768,,,,,,,-0.002907,-0.019413,-0.010929,0.021325,-2e-05,1.4e-05
267454,-0.002187,-0.018084,-0.014674,0.0,-0.0,-0.0,3.0,0.3261,0.319056,0.3261,0.332943,,,,,,,-0.003031,-0.019413,-0.010929,-0.0018,-2e-05,1.4e-05
267474,-0.002796,-0.018211,-0.014679,0.0,-0.0,-0.0,3.0,0.3261,0.318617,0.3261,0.333358,,,,,,,-0.003276,-0.019413,-0.010929,-0.071899,-3.3e-05,1.3e-05
267494,-0.002919,-0.018089,-0.01468,0.0,-0.0,-0.0,3.0,0.3261,0.321209,0.3261,0.330893,,,,,,,-0.003531,-0.019413,-0.010928,-0.046584,-2.1e-05,1.3e-05
267514,-0.002921,-0.017967,-0.014558,0.0,-0.0,-0.0,3.0,0.3261,0.322323,0.3261,0.329819,,,,,,,-0.003655,-0.019414,-0.010928,-0.023105,-9e-06,2.6e-05
267534,-0.003287,-0.018092,-0.014561,0.0,-0.0,-0.0,3.0,0.3261,0.319798,0.3261,0.332242,,,,,,,-0.004137,-0.019414,-0.010927,-0.000525,-2.1e-05,2.5e-05
267554,-0.003533,-0.01785,-0.014563,0.0,-0.0,-0.0,3.0,0.3261,0.321694,0.3261,0.330428,,,,,,,-0.004395,-0.019414,-0.010927,0.001733,3e-06,2.5e-05
267574,-0.003901,-0.01773,-0.014444,0.0,-0.0,-0.0,3.0,0.3261,0.320883,0.3261,0.331206,,,,,,,-0.004639,-0.019415,-0.010926,-0.02218,1.5e-05,3.7e-05
267594,-0.004023,-0.017731,-0.014445,0.0,-0.0,-0.0,3.0,0.3261,0.318206,0.3261,0.333743,,,,,,,-0.00499,-0.019415,-0.010926,0.021799,1.5e-05,3.7e-05
267614,-0.004145,-0.017732,-0.014446,0.0,-0.0,-0.0,3.0,0.3261,0.316994,0.3261,0.334873,,,,,,,-0.005225,-0.019415,-0.010925,0.043561,1.5e-05,3.6e-05
267634,-0.004509,-0.017857,-0.014572,0.0,-0.0,-0.0,3.0,0.3261,0.318385,0.3261,0.333576,,,,,,,-0.00523,-0.019415,-0.010925,-0.025593,3e-06,2.4e-05
267654,-0.004629,-0.018102,-0.014574,0.0,-0.0,-0.0,3.0,0.3261,0.320731,0.3261,0.331352,,,,,,,-0.005239,-0.019415,-0.010924,-0.046897,-2.2e-05,2.4e-05
267674,-0.004629,-0.018346,-0.014452,0.0,-0.0,-0.0,3.0,0.3261,0.321742,0.3261,0.330381,,,,,,,-0.005366,-0.019415,-0.010923,-0.022369,-4.6e-05,3.6e-05
267694,-0.004629,-0.018346,-0.014452,0.0,-0.0,-0.0,3.0,0.3261,0.320898,0.3261,0.331192,,,,,,,-0.005486,-0.019415,-0.010922,0.000726,-4.6e-05,3.6e-05
267714,-0.004629,-0.018346,-0.014452,0.0,-0.0,-0.0,3.0,0.3261,0.319429,0.3261,0.332591,,,,,,,-0.005731,-0.019415,-0.010922,0.047828,-4.6e-05,3.6e-05
267734,-0.004753,-0.018102,-0.014453,0.0,-0.0,-0.0,3.0,0.3261,0.318847,0.3261,0.333141,,,,,,,-0.005854,-0.019416,-0.010921,0.047616,-2.2e-05,3.5e-05
267754,-0.004878,-0.017859,-0.014331,0.0,-0.0,-0.0,3.0,0.3261,0.318845,0.3261,0.333142,,,,,,,-0.005727,-0.019416,-0.01092,-0.000827,2e-06,4.8e-05
267774,-0.005001,-0.017615,-0.014331,0.0,-0.0,-0.0,3.0,0.3261,0.318104,0.3261,0.333839,,,,,,,-0.005721,-0.019416,-0.01092,-0.025736,2.7e-05,4.7e-05
267794,-0.004757,-0.017492,-0.014451,0.0,-0.0,-0.0,3.0,0.3261,0.32061,0.3261,0.331468,,,,,,,-0.00548,-0.019416,-0.010919,-0.025099,3.9e-05,3.5e-05
267814,-0.004757,-0.017492,-0.014451,0.0,-0.0,-0.0,3.0,0.3261,0.321818,0.3261,0.330307,,,,,,,-0.005361,-0.019416,-0.010919,-0.047984,3.9e-05,3.5e-05
267834,-0.004755,-0.017736,-0.014452,0.0,-0.0,-0.0,3.0,0.3261,0.323149,0.3261,0.329016,,,,,,,-0.005364,-0.019416,-0.010918,-0.047037,1.5e-05,3.5e-05
267854,-0.004631,-0.017979,-0.014451,0.0,-0.0,-0.0,3.0,0.3261,0.323809,0.3261,0.328369,,,,,,,-0.005497,-0.019416,-0.010917,0.002383,-1e-05,3.5e-05
267874,-0.004631,-0.017979,-0.014451,0.0,-0.0,-0.0,3.0,0.3261,0.321252,0.3261,0.330853,,,,,,,-0.005738,-0.019416,-0.010916,0.048741,-1e-05,3.5e-05
267894,-0.004753,-0.018102,-0.014453,0.0,-0.0,-0.0,3.0,0.3261,0.317708,0.3261,0.334209,,,,,,,-0.006096,-0.019416,-0.010916,0.094255,-2.2e-05,3.5e-05
267914,-0.004999,-0.017982,-0.014332,0.0,-0.0,-0.0,3.0,0.3261,0.315957,0.3261,0.335832,,,,,,,-0.006211,-0.019416,-0.010915,0.068934,-1e-05,4.7e-05
267934,-0.005365,-0.017984,-0.014336,0.0,-0.0,-0.0,3.0,0.3261,0.314753,0.3261,0.336935,,,,,,,-0.006207,-0.019416,-0.010914,-0.002281,-1e-05,4.6e-05
267954,-0.005487,-0.017985,-0.014337,0.0,-0.0,-0.0,3.0,0.3261,0.318535,0.3261,0.333435,,,,,,,-0.00597,-0.019416,-0.010913,-0.07124,-1e-05,4.6e-05
267974,-0.005365,-0.017984,-0.014336,0.0,-0.0,-0.0,3.0,0.3261,0.31913,0.3261,0.332874,,,,,,,-0.005965,-0.019416,-0.010912,-0.048726,-1e-05,4.6e-05
267994,-0.005366,-0.017862,-0.014335,0.0,-0.0,-0.0,3.0,0.3261,0.320492,0.3261,0.33158,,,,,,,-0.005966,-0.019417,-0.010911,-0.048794,2e-06,4.6e-05
268014,-0.005486,-0.018107,-0.014337,0.0,-0.0,-0.0,3.0,0.3261,0.321328,0.3261,0.330779,,,,,,,-0.006232,-0.019417,-0.01091,0.049604,-1e-05,4.6e-05
268034,-0.005488,-0.017985,-0.014215,0.0,-0.0,-0.0,3.0,0.3261,0.325129,0.3261,0.327067,,,,,,,-0.006119,-0.019417,-0.010909,-0.042688,-1e-05,5.8e-05
268054,-0.005488,-0.017985,-0.014215,0.0,-0.0,-0.0,3.0,0.3261,0.321025,0.3261,0.331071,,,,,,,-0.006599,-0.019417,-0.010908,0.049555,-1e-05,5.8e-05
268074,-0.005733,-0.017864,-0.014216,0.0,-0.0,-0.0,3.0,0.3261,0.317424,0.3261,0.334474,,,,,,,-0.006951,-0.019417,-0.010907,0.070179,2e-06,5.8e-05
268094,-0.006098,-0.017867,-0.014342,0.0,-0.0,-0.0,3.0,0.3261,0.315431,0.3261,0.336315,,,,,,,-0.007185,-0.019417,-0.010906,0.044957,2e-06,4.5e-05
268114,-0.006343,-0.017747,-0.014343,0.0,-0.0,-0.0,3.0,0.3261,0.316835,0.3261,0.335021,,,,,,,-0.007189,-0.019418,-0.010905,-0.00146,1.4e-05,4.5e-05
268134,-0.006464,-0.01787,-0.014345,0.0,-0.0,-0.0,3.0,0.3261,0.315801,0.3261,0.335976,,,,,,,-0.007306,-0.019418,-0.010904,-0.002349,1e-06,4.4e-05
268154,-0.006586,-0.017993,-0.014346,0.0,-0.0,-0.0,3.0,0.3261,0.316831,0.3261,0.335025,,,,,,,-0.007428,-0.019418,-0.010903,-0.002098,-1.1e-05,4.4e-05
268174,-0.006707,-0.018116,-0.014348,0.0,-0.0,-0.0,3.0,0.3261,0.318258,0.3261,0.333695,,,,,,,-0.007435,-0.019418,-0.010902,-0.024134,-2.3e-05,4.4e-05
268194,-0.006951,-0.018118,-0.01435,0.0,-0.0,-0.0,3.0,0.3261,0.319071,0.3261,0.332929,,,,,,,-0.00744,-0.019418,-0.010901,-0.070057,-2.3e-05,4.4e-05
268214,-0.006952,-0.018117,-0.014228,0.0,-0.0,-0.0,3.0,0.3261,0.317641,0.3261,0.334271,,,,,,,-0.007681,-0.019418,-0.0109,-0.024045,-2.3e-05,5.6e-05
268234,-0.006953,-0.018117,-0.014106,0.0,-0.0,-0.0,3.0,0.3261,0.318947,0.3261,0.333046,,,,,,,-0.00781,-0.019418,-0.010899,0.000682,-2.3e-05,6.8e-05
268254,-0.007199,-0.017874,-0.014107,0.0,-0.0,-0.0,3.0,0.3261,0.319476,0.3261,0.332546,,,,,,,-0.00781,-0.019418,-0.010898,-0.046596,1e-06,6.8e-05
268274,-0.007201,-0.017752,-0.013985,0.0,-0.0,-0.0,3.0,0.3261,0.318701,0.3261,0.333278,,,,,,,-0.008054,-0.019418,-0.010896,-3.7e-05,1.3e-05,8e-05
268294,-0.007324,-0.017631,-0.013985,0.0,-0.0,-0.0,3.0,0.3261,0.319243,0.3261,0.332767,,,,,,,-0.00818,-0.019418,-0.010895,0.000509,2.5e-05,8e-05
268314,-0.007568,-0.017632,-0.013987,0.0,-0.0,-0.0,3.0,0.3261,0.319426,0.3261,0.332594,,,,,,,-0.008307,-0.019419,-0.010893,-0.022078,2.5e-05,7.9e-05
268334,-0.00769,-0.017633,-0.013988,0.0,-0.0,-0.0,3.0,0.3261,0.318117,0.3261,0.333826,,,,,,,-0.008545,-0.019419,-0.010892,0.000344,2.5e-05,7.9e-05
268354,-0.007811,-0.017756,-0.01399,0.0,-0.0,-0.0,3.0,0.3261,0.313054,0.3261,0.338473,,,,,,,-0.009014,-0.019419,-0.01089,0.067218,1.3e-05,7.9e-05
268374,-0.008056,-0.017636,-0.013992,0.0,-0.0,-0.0,3.0,0.3261,0.314752,0.3261,0.336936,,,,,,,-0.009016,-0.019419,-0.010889,0.020335,2.5e-05,7.8e-05
268394,-0.0083,-0.017881,-0.013873,0.0,-0.0,-0.0,3.0,0.3261,0.317172,0.3261,0.334709,,,,,,,-0.009029,-0.019418,-0.010887,-0.023858,0.0,9e-05
268414,-0.008422,-0.017882,-0.013874,0.0,-0.0,-0.0,3.0,0.3261,0.318704,0.3261,0.333275,,,,,,,-0.009036,-0.019418,-0.010885,-0.046062,0.0,9e-05
268434,-0.008421,-0.018004,-0.013874,0.0,-0.0,-0.0,3.0,0.3261,0.316042,0.3261,0.335754,,,,,,,-0.009394,-0.019417,-0.010883,0.022933,-1.2e-05,8.9e-05
268454,-0.008543,-0.018005,-0.013875,0.0,-0.0,-0.0,3.0,0.3261,0.316322,0.3261,0.335496,,,,,,,-0.009519,-0.019417,-0.010881,0.023471,-1.2e-05,8.9e-05
268474,-0.008665,-0.018005,-0.013876,0.0,-0.0,-0.0,3.0,0.3261,0.316931,0.3261,0.334932,,,,,,,-0.009522,-0.019416,-0.010879,0.000679,-1.2e-05,8.9e-05
268494,-0.008911,-0.017885,-0.013756,0.0,-0.0,-0.0,3.0,0.3261,0.31649,0.3261,0.33534,,,,,,,-0.009649,-0.019416,-0.010878,-0.02221,-0.0,0.000101
268514,-0.008791,-0.01764,-0.013754,0.0,-0.0,-0.0,3.0,0.3261,0.315865,0.3261,0.335917,,,,,,,-0.009634,-0.019416,-0.010876,-0.002007,2.4e-05,0.000101
268534,-0.008915,-0.017396,-0.013754,0.0,-0.0,-0.0,3.0,0.3261,0.315212,0.3261,0.336516,,,,,,,-0.00963,-0.019416,-0.010874,-0.02651,4.9e-05,0.000101
268554,-0.008913,-0.017519,-0.013876,0.0,-0.0,-0.0,3.0,0.3261,0.318295,0.3261,0.33366,,,,,,,-0.009394,-0.019416,-0.010872,-0.071614,3.6e-05,8.8e-05
268574,-0.008791,-0.017518,-0.013875,0.0,-0.0,-0.0,3.0,0.3261,0.321699,0.3261,0.330422,,,,,,,-0.009164,-0.019416,-0.01087,-0.092407,3.6e-05,8.8e-05
268594,-0.008667,-0.017761,-0.013875,0.0,-0.0,-0.0,3.0,0.3261,0.32166,0.3261,0.33046,,,,,,,-0.009289,-0.019415,-0.010869,-0.044394,1.2e-05,8.8e-05
268614,-0.008545,-0.017761,-0.013874,0.0,-0.0,-0.0,3.0,0.3261,0.320521,0.3261,0.331553,,,,,,,-0.009533,-0.019415,-0.010867,0.026029,1.2e-05,8.8e-05
268634,-0.008789,-0.017762,-0.013876,0.0,-0.0,-0.0,3.0,0.3261,0.315608,0.3261,0.336153,,,,,,,-0.010012,-0.019415,-0.010865,0.071115,1.2e-05,8.7e-05
268654,-0.009033,-0.017764,-0.013879,0.0,-0.0,-0.0,3.0,0.3261,0.312959,0.3261,0.338559,,,,,,,-0.01037,-0.019415,-0.010863,0.092956,1.2e-05,8.7e-05
268674,-0.009643,-0.017768,-0.013884,0.0,-0.0,-0.0,3.0,0.3261,0.309627,0.3261,0.341514,,,,,,,-0.010726,-0.019414,-0.010861,0.044151,1.1e-05,8.6e-05
268694,-0.010254,-0.017772,-0.013889,0.0,-0.0,-0.0,3.0,0.3261,0.309593,0.3261,0.341543,,,,,,,-0.010966,-0.019414,-0.01086,-0.027148,1.1e-05,8.6e-05
268714,-0.010743,-0.017653,-0.013893,0.0,-0.0,-0.0,3.0,0.3261,0.311441,0.3261,0.339915,,,,,,,-0.011214,-0.019414,-0.010858,-0.073505,2.3e-05,8.5e-05
268734,-0.010863,-0.017898,-0.013895,0.0,-0.0,-0.0,3.0,0.3261,0.314573,0.3261,0.337099,,,,,,,-0.011341,-0.019414,-0.010856,-0.072196,-2e-06,8.5e-05
268754,-0.011229,-0.017901,-0.013898,0.0,-0.0,-0.0,3.0,0.3261,0.316691,0.3261,0.335154,,,,,,,-0.011596,-0.019413,-0.010855,-0.093684,-2e-06,8.4e-05
268774,-0.011594,-0.018147,-0.013903,0.0,-0.0,-0.0,3.0,0.3261,0.316979,0.3261,0.334887,,,,,,,-0.012094,-0.019413,-0.010853,-0.067935,-2.7e-05,8.4e-05
268794,-0.011717,-0.018026,-0.013903,0.0,-0.0,-0.0,3.0,0.3261,0.316307,0.3261,0.33551,,,,,,,-0.012583,-0.019413,-0.010851,0.002479,-1.5e-05,8.3e-05
268814,-0.012085,-0.017906,-0.013784,0.0,-0.0,-0.0,3.0,0.3261,0.311755,0.3261,0.339636,,,,,,,-0.013181,-0.019413,-0.010849,0.046665,-3e-06,9.5e-05
268834,-0.012453,-0.017664,-0.013785,0.0,-0.0,-0.0,3.0,0.3261,0.309828,0.3261,0.341338,,,,,,,-0.013538,-0.019413,-0.010848,0.044552,2.2e-05,9.5e-05
268854,-0.012943,-0.017545,-0.013667,0.0,-0.0,-0.0,3.0,0.3261,0.312424,0.3261,0.339038,,,,,,,-0.013545,-0.019413,-0.010846,-0.048299,3.3e-05,0.000106
268874,-0.013187,-0.017546,-0.013669,0.0,-0.0,-0.0,3.0,0.3261,0.313956,0.3261,0.337659,,,,,,,-0.013671,-0.019413,-0.010844,-0.071069,3.3e-05,0.000106
268894,-0.013065,-0.017424,-0.013789,0.0,-0.0,-0.0,3.0,0.3261,0.315769,0.3261,0.336005,,,,,,,-0.013796,-0.019413,-0.010842,-0.023453,4.6e-05,9.4e-05
268914,-0.013065,-0.017424,-0.013789,0.0,-0.0,-0.0,3.0,0.3261,0.315176,0.3261,0.336549,,,,,,,-0.013913,-0.019412,-0.01084,-0.000969,4.5e-05,9.4e-05
268934,-0.013063,-0.017668,-0.013791,0.0,-0.0,-0.0,3.0,0.3261,0.318096,0.3261,0.333846,,,,,,,-0.013806,-0.019412,-0.010838,-0.021256,2.1e-05,9.3e-05
268954,-0.01306,-0.017913,-0.013914,0.0,-0.0,-0.0,3.0,0.3261,0.315409,0.3261,0.336335,,,,,,,-0.014045,-0.019412,-0.010837,0.025304,-3e-06,8.1e-05
268974,-0.012939,-0.018034,-0.013792,0.0,-0.0,-0.0,3.0,0.3261,0.311579,0.3261,0.339793,,,,,,,-0.014275,-0.019412,-0.010835,0.09283,-1.6e-05,9.3e-05
268994,-0.013183,-0.018035,-0.013794,0.0,-0.0,-0.0,3.0,0.3261,0.31021,0.3261,0.341002,,,,,,,-0.014394,-0.019412,-0.010833,0.068789,-1.6e-05,9.2e-05
269014,-0.01355,-0.017916,-0.013797,0.0,-0.0,-0.0,3.0,0.3261,0.30969,0.3261,0.341459,,,,,,,-0.014516,-0.019412,-0.010831,0.021644,-4e-06,9.2e-05
269034,-0.013794,-0.017917,-0.013799,0.0,-0.0,-0.0,3.0,0.3261,0.311402,0.3261,0.339949,,,,,,,-0.01452,-0.019412,-0.010829,-0.024423,-4e-06,9.2e-05
269054,-0.014281,-0.018043,-0.013804,0.0,-0.0,-0.0,3.0,0.3261,0.3093,0.3261,0.3418,,,,,,,-0.014882,-0.019412,-0.010827,-0.048651,-1.6e-05,9.1e-05
269074,-0.014527,-0.0178,-0.013804,0.0,-0.0,-0.0,3.0,0.3261,0.310386,0.3261,0.340847,,,,,,,-0.015129,-0.019411,-0.010825,-0.048399,8e-06,9.1e-05
269094,-0.014771,-0.017802,-0.013806,0.0,-0.0,-0.0,3.0,0.3261,0.310291,0.3261,0.340931,,,,,,,-0.015373,-0.019411,-0.010823,-0.0484,8e-06,9e-05
269114,-0.015137,-0.017804,-0.01381,0.0,-0.0,-0.0,3.0,0.3261,0.310848,0.3261,0.34044,,,,,,,-0.015618,-0.019411,-0.010821,-0.071832,7e-06,9e-05
269134,-0.015504,-0.017807,-0.013813,0.0,-0.0,-0.0,3.0,0.3261,0.312235,0.3261,0.339208,,,,,,,-0.015993,-0.01941,-0.01082,-0.070094,7e-06,8.9e-05
269154,-0.015626,-0.017808,-0.013814,0.0,-0.0,-0.0,3.0,0.3261,0.313709,0.3261,0.337883,,,,,,,-0.016241,-0.01941,-0.010818,-0.045716,7e-06,8.9e-05
269174,-0.015749,-0.017686,-0.013814,0.0,-0.0,-0.0,3.0,0.3261,0.312383,0.3261,0.339075,,,,,,,-0.016604,-0.01941,-0.010816,0.000365,1.9e-05,8.9e-05
269194,-0.015993,-0.017688,-0.013816,0.0,-0.0,-0.0,3.0,0.3261,0.311309,0.3261,0.340032,,,,,,,-0.016969,-0.019409,-0.010814,0.023657,1.9e-05,8.8e-05
269214,-0.016362,-0.017445,-0.013695,0.0,-0.0,-0.0,3.0,0.3261,0.311879,0.3261,0.339526,,,,,,,-0.017219,-0.019409,-0.010813,0.000675,4.3e-05,0.0001
269234,-0.016851,-0.017327,-0.013698,0.0,-0.0,-0.0,3.0,0.3261,0.311313,0.3261,0.340028,,,,,,,-0.017588,-0.019409,-0.010811,-0.022306,5.5e-05,0.0001
269254,-0.016974,-0.017205,-0.013698,0.0,-0.0,-0.0,3.0,0.3261,0.310682,0.3261,0.340587,,,,,,,-0.017829,-0.019408,-0.010809,0.000275,6.7e-05,0.0001
269274,-0.016974,-0.017205,-0.013698,0.0,-0.0,-0.0,3.0,0.3261,0.310097,0.3261,0.341102,,,,,,,-0.017945,-0.019407,-0.010807,0.022723,6.7e-05,9.9e-05
269294,-0.016973,-0.017084,-0.013819,0.0,-0.0,-0.0,3.0,0.3261,0.309614,0.3261,0.341525,,,,,,,-0.017936,-0.019407,-0.010805,0.021065,7.9e-05,8.7e-05
269314,-0.016972,-0.017328,-0.013821,0.0,-0.0,-0.0,3.0,0.3261,0.314705,0.3261,0.336978,,,,,,,-0.017588,-0.019405,-0.010803,-0.045616,5.4e-05,8.7e-05
269334,-0.016847,-0.017694,-0.013823,0.0,-0.0,-0.0,3.0,0.3261,0.314755,0.3261,0.336934,,,,,,,-0.017591,-0.019405,-0.010802,-0.021098,1.8e-05,8.6e-05
269354,-0.016603,-0.017813,-0.0137,0.0,-0.0,-0.0,3.0,0.3261,0.312012,0.3261,0.339407,,,,,,,-0.017827,-0.019404,-0.0108,0.071205,6e-06,9.8e-05
269374,-0.016604,-0.017691,-0.013699,0.0,-0.0,-0.0,3.0,0.3261,0.308721,0.3261,0.342304,,,,,,,-0.018063,-0.019404,-0.010798,0.116524,1.8e-05,9.8e-05
269394,-0.016605,-0.01769,-0.013577,0.0,-0.0,-0.0,3.0,0.3261,0.309532,0.3261,0.341597,,,,,,,-0.017947,-0.019403,-0.010796,0.093887,1.8e-05,0.00011
269414,-0.016728,-0.017569,-0.013577,0.0,-0.0,-0.0,3.0,0.3261,0.308139,0.3261,0.342809,,,,,,,-0.017821,-0.019402,-0.010793,0.046151,3e-05,0.00011
269434,-0.016972,-0.01757,-0.013579,0.0,-0.0,-0.0,3.0,0.3261,0.306731,0.3261,0.34402,,,,,,,-0.017817,-0.019402,-0.010791,-0.001728,3e-05,0.00011
269454,-0.017216,-0.017451,-0.013702,0.0,-0.0,-0.0,3.0,0.3261,0.305029,0.3261,0.345467,,,,,,,-0.01793,-0.019401,-0.010789,-0.026913,4.2e-05,9.7e-05
269474,-0.017093,-0.017572,-0.013702,0.0,-0.0,-0.0,3.0,0.3261,0.309134,0.3261,0.341944,,,,,,,-0.017689,-0.0194,-0.010787,-0.049588,2.9e-05,9.7e-05
269494,-0.017215,-0.017573,-0.013703,0.087266,-0.0,-0.0,3.0,0.3261,0.262539,0.3261,0.376057,,,,,,,-0.017459,-0.019399,-0.010785,-0.117318,2.9e-05,9.7e-05
269514,-0.016968,-0.017817,-0.013825,0.087266,-0.0,-0.0,3.0,0.3261,0.263948,0.3261,0.375194,,,,,,,-0.017591,-0.019398,-0.010783,-0.044395,5e-06,8.4e-05
269534,-0.016237,-0.017811,-0.013697,0.087266,-0.0,-0.0,3.0,0.3261,0.267981,0.3261,0.372673,,,,,,,-0.017235,-0.019398,-0.010781,0.027839,5e-06,9.7e-05
269554,-0.014651,-0.017799,-0.013561,0.087266,-0.0,-0.0,3.0,0.3261,0.270454,0.3261,0.371088,,,,,,,-0.016259,-0.019397,-0.010779,0.145204,6e-06,0.00011
269574,-0.01209,-0.017538,-0.013537,0.087266,-0.0,-0.0,3.0,0.3261,0.277546,0.3261,0.366371,,,,,,,-0.014068,-0.019396,-0.010777,0.216443,3.2e-05,0.000112
269594,-0.008672,-0.017394,-0.01363,0.087266,-0.0,-0.0,3.0,0.3261,0.28609,0.3261,0.360338,,,,,,,-0.010533,-0.019395,-0.010775,0.19392,4.7e-05,0.000103
269614,-0.003666,-0.017361,-0.013709,0.087266,-0.0,-0.0,3.0,0.3261,0.298908,0.3261,0.350512,,,,,,,-0.005661,-0.019395,-0.010773,0.219683,5e-05,9.5e-05
269634,0.002808,-0.017438,-0.014019,0.087266,-0.0,-0.0,3.0,0.3261,0.310195,0.3261,0.341016,,,,,,,0.00044,-0.019394,-0.010771,0.291448,4.2e-05,6.4e-05
269654,0.01038,-0.017505,-0.014318,0.087266,-0.0,-0.0,3.0,0.3261,0.32339,0.3261,0.32878,,,,,,,0.00775,-0.019393,-0.01077,0.341978,3.6e-05,3.4e-05
269674,0.018686,-0.017561,-0.01473,0.087266,-0.0,-0.0,3.0,0.3261,0.333009,0.3261,0.318987,,,,,,,0.015799,-0.019392,-0.01077,0.391285,3e-05,-7e-06
269694,0.02724,-0.017977,-0.015258,0.087266,-0.0,-0.0,3.0,0.3261,0.339692,0.3261,0.311692,,,,,,,0.024214,-0.019392,-0.01077,0.418117,-1.2e-05,-6e-05
269714,0.035917,-0.018385,-0.015779,0.087266,-0.0,-0.0,3.0,0.3261,0.341381,0.3261,0.309779,,,,,,,0.032528,-0.019392,-0.010772,0.487932,-5.3e-05,-0.000112
269734,0.043983,-0.018428,-0.016312,0.087266,-0.0,-0.0,3.0,0.3261,0.339197,0.3261,0.312247,,,,,,,0.040611,-0.019392,-0.010775,0.484585,-5.7e-05,-0.000165
269754,0.051437,-0.018592,-0.016843,0.087266,-0.0,-0.0,3.0,0.3261,0.337085,0.3261,0.314589,,,,,,,0.048331,-0.019393,-0.010778,0.433502,-7.3e-05,-0.000218
269774,0.058159,-0.018393,-0.017393,0.087266,-0.0,-0.0,3.0,0.3261,0.339252,0.3261,0.312186,,,,,,,0.055782,-0.019395,-0.010783,0.293287,-5.3e-05,-0.000272
269794,0.064147,-0.018569,-0.017692,0.087266,-0.0,-0.0,3.0,0.3261,0.34004,0.3261,0.3113,,,,,,,0.062383,-0.019396,-0.010789,0.175191,-7.1e-05,-0.000302
269814,0.069405,-0.018629,-0.018003,0.087266,-0.0,-0.0,3.0,0.3261,0.337608,0.3261,0.314013,,,,,,,0.067653,-0.019397,-0.010795,0.17302,-7.7e-05,-0.000332
269834,0.073682,-0.018574,-0.018326,0.087266,-0.0,-0.0,3.0,0.3261,0.335525,0.3261,0.31629,,,,,,,0.071931,-0.019399,-0.010802,0.17272,-7.1e-05,-0.000364
269854,0.076619,-0.01878,-0.018531,0.087266,-0.0,-0.0,3.0,0.3261,0.330708,0.3261,0.321402,,,,,,,0.07499,-0.0194,-0.01081,0.149112,-9.1e-05,-0.000384
269874,0.0787,-0.018872,-0.018751,0.087266,-0.0,-0.0,3.0,0.3261,0.325262,0.3261,0.326936,,,,,,,0.077203,-0.019402,-0.010818,0.123947,-0.0001,-0.000405
269894,0.079557,-0.019102,-0.018853,0.087266,-0.0,-0.0,3.0,0.3261,0.316515,0.3261,0.335317,,,,,,,0.078324,-0.019404,-0.010826,0.073082,-0.000123,-0.000414
269914,0.080046,-0.018965,-0.019097,0.087266,-0.0,-0.0,3.0,0.3261,0.311646,0.3261,0.339733,,,,,,,0.078949,-0.019407,-0.010834,0.046912,-0.000109,-0.000438
269934,0.080169,-0.018959,-0.019217,0.087266,-0.0,-0.0,3.0,0.3261,0.308917,0.3261,0.342134,,,,,,,0.079324,-0.019409,-0.010843,-0.001582,-0.000108,-0.000449
269954,0.080292,-0.018952,-0.019338,0.087266,-0.0,-0.0,3.0,0.3261,0.311337,0.3261,0.340007,,,,,,,0.079558,-0.019411,-0.010852,-0.022804,-0.000107,-0.00046
269974,0.080291,-0.018831,-0.019343,0.087266,-0.0,-0.0,3.0,0.3261,0.311688,0.3261,0.339696,,,,,,,0.079682,-0.019413,-0.010861,-0.046882,-9.5e-05,-0.000459
269994,0.080536,-0.018823,-0.019462,0.087266,-0.0,-0.0,3.0,0.3261,0.314193,0.3261,0.337444,,,,,,,0.079919,-0.019415,-0.010871,-0.045322,-9.4e-05,-0.00047
270014,0.081153,-0.018934,-0.019575,0.087266,-0.0,-0.0,3.0,0.3261,0.312636,0.3261,0.338849,,,,,,,0.07993,-0.019417,-0.010878,0.047892,-0.000117,-0.000481
270034,0.081886,-0.019048,-0.019562,0.087266,-0.0,-0.0,3.0,0.3261,0.316019,0.3261,0.335775,,,,,,,0.080783,-0.01942,-0.01089,0.048126,-0.000116,-0.000479
270054,0.082743,-0.019151,-0.019791,0.087266,-0.0,-0.0,3.0,0.3261,0.319598,0.3261,0.332431,,,,,,,0.08175,-0.019422,-0.0109,0.026902,-0.000126,-0.0005
270074,0.084095,-0.019371,-0.020013,0.087266,-0.0,-0.0,3.0,0.3261,0.321793,0.3261,0.330331,,,,,,,0.082853,-0.019425,-0.01091,0.074753,-0.000148,-0.000522
270094,0.085562,-0.019466,-0.020234,0.087266,-0.0,-0.0,3.0,0.3261,0.321495,0.3261,0.330619,,,,,,,0.08408,-0.019428,-0.01092,0.12096,-0.000157,-0.000543
270114,0.087276,-0.019437,-0.020461,0.087266,-0.0,-0.0,3.0,0.3261,0.320989,0.3261,0.331105,,,,,,,0.085437,-0.019431,-0.010931,0.189625,-0.000154,-0.000564
270134,0.088867,-0.019646,-0.020797,0.087266,-0.0,-0.0,3.0,0.3261,0.321149,0.3261,0.330951,,,,,,,0.087275,-0.019434,-0.010943,0.14219,-0.000174,-0.000597
270154,0.090585,-0.019732,-0.02114,0.087266,-0.0,-0.0,3.0,0.3261,0.323788,0.3261,0.32839,,,,,,,0.089233,-0.019438,-0.010955,0.095941,-0.000183,-0.00063
270174,0.092426,-0.019933,-0.021598,0.087266,-0.0,-0.0,3.0,0.3261,0.324535,0.3261,0.327655,,,,,,,0.091198,-0.019441,-0.010968,0.072083,-0.000202,-0.000674
270194,0.094389,-0.020009,-0.02206,0.087266,-0.0,-0.0,3.0,0.3261,0.327954,0.3261,0.324232,,,,,,,0.093404,-0.019445,-0.010982,0.025277,-0.00021,-0.000719
270214,0.096353,-0.020078,-0.022643,0.087266,-0.0,-0.0,3.0,0.3261,0.331515,0.3261,0.320561,,,,,,,0.095482,-0.019449,-0.010996,0.003431,-0.000216,-0.000776
270234,0.098311,-0.020145,-0.023221,0.087266,-0.0,-0.0,3.0,0.3261,0.335366,0.3261,0.316462,,,,,,,0.097426,-0.019453,-0.011012,0.006117,-0.000222,-0.000832
270254,0.100032,-0.020337,-0.023801,0.087266,-0.0,-0.0,3.0,0.3261,0.334516,0.3261,0.317378,,,,,,,0.098899,-0.019458,-0.011029,0.053874,-0.000241,-0.000888
270274,0.101387,-0.020276,-0.024641,0.087266,-0.0,-0.0,3.0,0.3261,0.33145,0.3261,0.320628,,,,,,,0.099885,-0.019463,-0.011048,0.124906,-0.000235,-0.00097
270294,0.102249,-0.020349,-0.025354,0.087266,-0.0,-0.0,3.0,0.3261,0.326221,0.3261,0.325979,,,,,,,0.100648,-0.019468,-0.011068,0.143835,-0.000241,-0.00104
270314,0.102623,-0.020428,-0.026075,0.087266,-0.0,-0.0,3.0,0.3261,0.322665,0.3261,0.329487,,,,,,,0.101277,-0.019473,-0.011089,0.094792,-0.000249,-0.00111
270334,0.102883,-0.020631,-0.026795,0.087266,-0.0,-0.0,3.0,0.3261,0.319475,0.3261,0.332548,,,,,,,0.101793,-0.019478,-0.011111,0.045485,-0.000269,-0.001179
270354,0.103134,-0.02059,-0.027523,0.087266,-0.0,-0.0,3.0,0.3261,0.320312,0.3261,0.331753,,,,,,,0.102297,-0.019484,-0.011136,-0.003065,-0.000264,-0.00125
270374,0.103512,-0.020784,-0.028358,0.087266,-0.0,-0.0,3.0,0.3261,0.322545,0.3261,0.329604,,,,,,,0.102914,-0.019489,-0.011161,-0.049337,-0.000283,-0.001331
270394,0.103889,-0.020977,-0.029194,0.087266,-0.0,-0.0,3.0,0.3261,0.327506,0.3261,0.324686,,,,,,,0.103399,-0.019495,-0.011188,-0.070004,-0.000301,-0.001412
270414,0.10439,-0.020932,-0.029923,0.087266,-0.0,-0.0,3.0,0.3261,0.329922,0.3261,0.322217,,,,,,,0.103885,-0.019501,-0.011217,-0.066925,-0.000296,-0.001482
270434,0.104889,-0.021123,-0.030757,0.087266,-0.0,-0.0,3.0,0.3261,0.330122,0.3261,0.32201,,,,,,,0.104006,-0.019507,-0.011247,0.005725,-0.000315,-0.001562
270454,0.105504,-0.020952,-0.031485,0.087266,-0.0,-0.0,3.0,0.3261,0.329138,0.3261,0.323024,,,,,,,0.104257,-0.019512,-0.011279,0.075752,-0.000297,-0.001632
270474,0.105643,-0.021027,-0.032336,0.087266,-0.0,-0.0,3.0,0.3261,0.322329,0.3261,0.329813,,,,,,,0.104168,-0.019518,-0.011312,0.119606,-0.000304,-0.001713
270494,0.10577,-0.020864,-0.033072,0.087266,-0.0,-0.0,3.0,0.3261,0.321066,0.3261,0.331032,,,,,,,0.104437,-0.019524,-0.011347,0.092176,-0.000287,-0.001783
270514,0.10578,-0.020941,-0.033918,0.087266,-0.0,-0.0,3.0,0.3261,0.321681,0.3261,0.33044,,,,,,,0.104939,-0.019531,-0.011384,-0.00238,-0.000294,-0.001864
270534,0.106032,-0.020891,-0.034767,0.087266,-0.0,-0.0,3.0,0.3261,0.324469,0.3261,0.32772,,,,,,,0.105431,-0.019537,-0.011421,-0.048517,-0.000289,-0.001946
270554,0.106411,-0.02121,-0.035474,0.087266,-0.0,-0.0,3.0,0.3261,0.326038,0.3261,0.326163,,,,,,,0.105805,-0.019543,-0.011461,-0.047671,-0.00032,-0.002012
270574,0.106916,-0.021407,-0.03619,0.087266,-0.0,-0.0,3.0,0.3261,0.328937,0.3261,0.32323,,,,,,,0.106177,-0.01955,-0.011501,-0.021929,-0.000339,-0.00208
270594,0.10729,-0.021488,-0.036787,0.087266,-0.0,-0.0,3.0,0.3261,0.331385,0.3261,0.320697,,,,,,,0.106534,-0.019556,-0.011543,-0.01868,-0.000346,-0.002135
270614,0.107785,-0.021439,-0.037511,0.087266,-0.0,-0.0,3.0,0.3261,0.331727,0.3261,0.320339,,,,,,,0.106902,-0.019562,-0.011587,0.005593,-0.000341,-0.002203
270634,0.108163,-0.021399,-0.038121,0.087266,-0.0,-0.0,3.0,0.3261,0.32647,0.3261,0.32573,,,,,,,0.106801,-0.019569,-0.011631,0.097863,-0.000336,-0.00226
270654,0.108409,-0.021111,-0.038861,0.087266,-0.0,-0.0,3.0,0.3261,0.324051,0.3261,0.328132,,,,,,,0.107074,-0.019576,-0.011677,0.092628,-0.000307,-0.002329
270674,0.108417,-0.021199,-0.039464,0.087266,-0.0,-0.0,3.0,0.3261,0.323624,0.3261,0.328551,,,,,,,0.10733,-0.019582,-0.011724,0.044846,-0.000315,-0.002385
270694,0.108664,-0.021039,-0.040075,0.087266,-0.0,-0.0,3.0,0.3261,0.327388,0.3261,0.324806,,,,,,,0.107936,-0.019589,-0.011772,-0.024133,-0.000298,-0.002441
270714,0.10892,-0.021372,-0.040539,0.087266,-0.0,-0.0,3.0,0.3261,0.328737,0.3261,0.323434,,,,,,,0.108309,-0.019595,-0.011821,-0.046644,-0.000331,-0.002483
270734,0.109419,-0.021336,-0.041026,0.087266,-0.0,-0.0,3.0,0.3261,0.329043,0.3261,0.323121,,,,,,,0.108565,-0.019602,-0.011871,9.1e-05,-0.000327,-0.002526
270754,0.109673,-0.021676,-0.041367,0.087266,-0.0,-0.0,3.0,0.3261,0.327085,0.3261,0.325111,,,,,,,0.108697,-0.019608,-0.011922,0.023576,-0.00036,-0.002555
270774,0.109676,-0.021663,-0.041611,0.087266,-0.0,-0.0,3.0,0.3261,0.329858,0.3261,0.322283,,,,,,,0.108929,-0.019615,-0.011973,-0.020616,-0.000358,-0.002575
270794,0.109678,-0.021649,-0.041854,0.087266,-0.0,-0.0,3.0,0.3261,0.32896,0.3261,0.323206,,,,,,,0.10893,-0.019622,-0.012025,-0.020225,-0.000356,-0.002594
270814,0.109798,-0.021382,-0.042231,0.087266,-0.0,-0.0,3.0,0.3261,0.32902,0.3261,0.323144,,,,,,,0.108931,-0.019628,-0.012077,0.002736,-0.000329,-0.002626
270834,0.109798,-0.021247,-0.042481,0.087266,-0.0,-0.0,3.0,0.3261,0.325891,0.3261,0.326309,,,,,,,0.108829,-0.019635,-0.01213,0.022279,-0.000314,-0.002646
270854,0.109924,-0.021359,-0.042594,0.087266,-0.0,-0.0,3.0,0.3261,0.32603,0.3261,0.32617,,,,,,,0.108834,-0.019642,-0.012182,0.045487,-0.000325,-0.002652
270874,0.109684,-0.02148,-0.042713,0.087266,-0.0,-0.0,3.0,0.3261,0.325818,0.3261,0.326382,,,,,,,0.108837,-0.019648,-0.012235,-0.001384,-0.000336,-0.002659
270894,0.109444,-0.021601,-0.042833,0.087266,-0.0,-0.0,3.0,0.3261,0.327467,0.3261,0.324726,,,,,,,0.108834,-0.019655,-0.012289,-0.046783,-0.000348,-0.002665
270914,0.109688,-0.021595,-0.042829,0.087266,-0.0,-0.0,3.0,0.3261,0.326445,0.3261,0.325755,,,,,,,0.108838,-0.019662,-0.012342,-0.000706,-0.000347,-0.002659
270934,0.109689,-0.021724,-0.0427,0.087266,-0.0,-0.0,3.0,0.3261,0.326228,0.3261,0.325973,,,,,,,0.108847,-0.019669,-0.012395,-0.002213,-0.000359,-0.002641
270954,0.109689,-0.021724,-0.0427,0.087266,-0.0,-0.0,3.0,0.3261,0.328015,0.3261,0.32417,,,,,,,0.108959,-0.019676,-0.012448,-0.023771,-0.000358,-0.002636
270974,0.109688,-0.021731,-0.042578,0.087266,-0.0,-0.0,3.0,0.3261,0.330337,0.3261,0.321787,,,,,,,0.109067,-0.019683,-0.0125,-0.044805,-0.000358,-0.002619
270994,0.109925,-0.021488,-0.042466,0.087266,-0.0,-0.0,3.0,0.3261,0.3325,0.3261,0.319526,,,,,,,0.109176,-0.01969,-0.012553,-0.020087,-0.000333,-0.002602
271014,0.109924,-0.021495,-0.042344,0.087266,-0.0,-0.0,3.0,0.3261,0.328381,0.3261,0.323797,,,,,,,0.108822,-0.019697,-0.012605,0.047767,-0.000333,-0.002585
271034,0.109922,-0.021508,-0.0421,0.087266,-0.0,-0.0,3.0,0.3261,0.32697,0.3261,0.325227,,,,,,,0.108703,-0.019704,-0.012656,0.070283,-0.000334,-0.002555
271054,0.109554,-0.02153,-0.041863,0.087266,-0.0,-0.0,3.0,0.3261,0.325896,0.3261,0.326305,,,,,,,0.108584,-0.019711,-0.012707,0.022423,-0.000335,-0.002526
271074,0.109554,-0.021665,-0.041613,0.087266,-0.0,-0.0,3.0,0.3261,0.326372,0.3261,0.325828,,,,,,,0.108705,-0.019718,-0.012757,-0.000961,-0.000348,-0.002496
271094,0.109428,-0.021688,-0.041249,0.087266,-0.0,-0.0,3.0,0.3261,0.324906,0.3261,0.327289,,,,,,,0.108711,-0.019725,-0.012807,-0.026176,-0.00035,-0.002455
271114,0.109547,-0.021706,-0.040882,0.087266,-0.0,-0.0,3.0,0.3261,0.327697,0.3261,0.324492,,,,,,,0.108825,-0.019732,-0.012855,-0.025407,-0.000351,-0.002413
271134,0.109541,-0.021604,-0.040523,0.087266,-0.0,-0.0,3.0,0.3261,0.330343,0.3261,0.321781,,,,,,,0.109054,-0.019738,-0.012903,-0.07049,-0.00034,-0.002373
271154,0.109658,-0.021493,-0.040284,0.087266,-0.0,-0.0,3.0,0.3261,0.332589,0.3261,0.319431,,,,,,,0.109038,-0.019745,-0.012951,-0.044838,-0.000328,-0.002344
271174,0.1099,-0.021629,-0.039908,0.087266,-0.0,-0.0,3.0,0.3261,0.332657,0.3261,0.319359,,,,,,,0.108908,-0.019752,-0.012997,0.026805,-0.000341,-0.002302
271194,0.109894,-0.021528,-0.039549,0.087266,-0.0,-0.0,3.0,0.3261,0.329802,0.3261,0.322341,,,,,,,0.108667,-0.019758,-0.013043,0.071919,-0.00033,-0.002261
271214,0.109645,-0.021796,-0.039167,0.087266,-0.0,-0.0,3.0,0.3261,0.324197,0.3261,0.327988,,,,,,,0.108308,-0.019765,-0.013088,0.092974,-0.000356,-0.002219
271234,0.109393,-0.021577,-0.038819,0.087266,-0.0,-0.0,3.0,0.3261,0.325196,0.3261,0.327001,,,,,,,0.108429,-0.019772,-0.013132,0.021338,-0.000334,-0.00218
271254,0.109146,-0.021603,-0.038458,0.087266,-0.0,-0.0,3.0,0.3261,0.324377,0.3261,0.327811,,,,,,,0.108429,-0.019779,-0.013176,-0.026235,-0.000336,-0.002139
271274,0.109142,-0.021623,-0.038092,0.087266,-0.0,-0.0,3.0,0.3261,0.327743,0.3261,0.324446,,,,,,,0.108666,-0.019786,-0.013218,-0.072577,-0.000337,-0.002098
271294,0.109382,-0.021638,-0.037723,0.087266,-0.0,-0.0,3.0,0.3261,0.330691,0.3261,0.32142,,,,,,,0.108902,-0.019793,-0.01326,-0.071799,-0.000338,-0.002057
271314,0.109627,-0.021896,-0.03734,0.087266,-0.0,-0.0,3.0,0.3261,0.333729,0.3261,0.318221,,,,,,,0.109009,-0.0198,-0.0133,-0.045215,-0.000363,-0.002015
271334,0.109743,-0.021792,-0.036979,0.087266,-0.0,-0.0,3.0,0.3261,0.334376,0.3261,0.317529,,,,,,,0.108994,-0.019807,-0.01334,-0.020054,-0.000352,-0.001975
271354,0.109863,-0.021932,-0.036605,0.087266,-0.0,-0.0,3.0,0.3261,0.332205,0.3261,0.319836,,,,,,,0.108749,-0.019814,-0.01338,0.05019,-0.000365,-0.001934
271374,0.109737,-0.021826,-0.03637,0.087266,-0.0,-0.0,3.0,0.3261,0.327329,0.3261,0.324865,,,,,,,0.10839,-0.019821,-0.013418,0.094969,-0.000354,-0.001906
271394,0.109492,-0.021973,-0.036002,0.087266,-0.0,-0.0,3.0,0.3261,0.324017,0.3261,0.328166,,,,,,,0.108164,-0.019828,-0.013456,0.091213,-0.000368,-0.001866
271414,0.109119,-0.02175,-0.035777,0.087266,-0.0,-0.0,3.0,0.3261,0.322702,0.3261,0.329451,,,,,,,0.108166,-0.019835,-0.013493,0.019071,-0.000345,-0.001839
271434,0.108875,-0.02189,-0.035531,0.087266,-0.0,-0.0,3.0,0.3261,0.326391,0.3261,0.325809,,,,,,,0.108399,-0.019842,-0.01353,-0.072659,-0.000358,-0.001811
271454,0.109114,-0.021776,-0.03529,0.087266,-0.0,-0.0,3.0,0.3261,0.331108,0.3261,0.320986,,,,,,,0.108754,-0.019849,-0.013566,-0.094865,-0.000346,-0.001783
271474,0.109478,-0.021783,-0.03504,0.087266,-0.0,-0.0,3.0,0.3261,0.333526,0.3261,0.318438,,,,,,,0.108868,-0.019856,-0.013601,-0.046916,-0.000346,-0.001755
271494,0.10972,-0.021785,-0.034915,0.087266,-0.0,-0.0,3.0,0.3261,0.335684,0.3261,0.316117,,,,,,,0.108849,-0.019863,-0.013636,0.003355,-0.000345,-0.001739
271514,0.109843,-0.021911,-0.034784,0.087266,-0.0,-0.0,3.0,0.3261,0.333221,0.3261,0.318762,,,,,,,0.108734,-0.01987,-0.013671,0.049203,-0.000357,-0.001722
271534,0.109724,-0.022164,-0.034651,0.087266,-0.0,-0.0,3.0,0.3261,0.330612,0.3261,0.321502,,,,,,,0.108615,-0.019877,-0.013705,0.049197,-0.000382,-0.001706
271554,0.109475,-0.021931,-0.034546,0.087266,-0.0,-0.0,3.0,0.3261,0.32618,0.3261,0.32602,,,,,,,0.10826,-0.019884,-0.013739,0.069488,-0.000358,-0.001692
271574,0.109233,-0.022058,-0.034544,0.087266,-0.0,-0.0,3.0,0.3261,0.324873,0.3261,0.327321,,,,,,,0.108272,-0.019891,-0.013773,0.020615,-0.00037,-0.001688
271594,0.109105,-0.021695,-0.034565,0.087266,-0.0,-0.0,3.0,0.3261,0.327932,0.3261,0.324254,,,,,,,0.108384,-0.019899,-0.013807,-0.025433,-0.000333,-0.001687
271614,0.108977,-0.021824,-0.034433,0.087266,-0.0,-0.0,3.0,0.3261,0.329959,0.3261,0.322179,,,,,,,0.108501,-0.019906,-0.01384,-0.072509,-0.000345,-0.00167
271634,0.109104,-0.021701,-0.034444,0.087266,-0.0,-0.0,3.0,0.3261,0.33126,0.3261,0.320828,,,,,,,0.108376,-0.019913,-0.013874,-0.024207,-0.000332,-0.001668
271654,0.109226,-0.021699,-0.034442,0.087266,-0.0,-0.0,3.0,0.3261,0.332868,0.3261,0.319136,,,,,,,0.108491,-0.01992,-0.013907,-0.022897,-0.000331,-0.001664
271674,0.109228,-0.021821,-0.034435,0.087266,-0.0,-0.0,3.0,0.3261,0.331256,0.3261,0.320831,,,,,,,0.10825,-0.019927,-0.01394,0.024006,-0.000343,-0.00166
271694,0.109106,-0.021823,-0.034437,0.087266,-0.0,-0.0,3.0,0.3261,0.331561,0.3261,0.320512,,,,,,,0.108371,-0.019933,-0.013974,-0.022883,-0.000342,-0.001657
271714,0.109108,-0.021945,-0.03443,0.087266,-0.0,-0.0,3.0,0.3261,0.330289,0.3261,0.321837,,,,,,,0.108254,-0.01994,-0.014007,6.2e-05,-0.000354,-0.001653
271734,0.10911,-0.022067,-0.034424,0.087266,-0.0,-0.0,3.0,0.3261,0.329781,0.3261,0.322362,,,,,,,0.108259,-0.019947,-0.01404,-0.00048,-0.000365,-0.001649
271754,0.10911,-0.022067,-0.034424,0.087266,-0.0,-0.0,3.0,0.3261,0.32907,0.3261,0.323093,,,,,,,0.108133,-0.019954,-0.014073,0.02371,-0.000364,-0.001646
271774,0.108979,-0.021946,-0.034426,0.087266,-0.0,-0.0,3.0,0.3261,0.329494,0.3261,0.322658,,,,,,,0.108127,-0.019961,-0.014105,-0.000138,-0.000352,-0.001643
271794,0.108855,-0.021827,-0.034435,0.087266,-0.0,-0.0,3.0,0.3261,0.332409,0.3261,0.319621,,,,,,,0.108113,-0.019968,-0.014138,-0.021317,-0.000339,-0.001641
271814,0.108732,-0.021707,-0.034443,0.087266,-0.0,-0.0,3.0,0.3261,0.32971,0.3261,0.322435,,,,,,,0.107881,-0.019975,-0.014171,-0.000489,-0.000326,-0.001638
271834,0.108853,-0.021705,-0.034441,0.087266,-0.0,-0.0,3.0,0.3261,0.330018,0.3261,0.322117,,,,,,,0.107887,-0.019982,-0.014204,0.02176,-0.000325,-0.001635
271854,0.108612,-0.021831,-0.034438,0.087266,-0.0,-0.0,3.0,0.3261,0.328821,0.3261,0.323348,,,,,,,0.107771,-0.019989,-0.014236,-0.002545,-0.000337,-0.001631
271874,0.108494,-0.022077,-0.034427,0.087266,-0.0,-0.0,3.0,0.3261,0.331723,0.3261,0.320343,,,,,,,0.107884,-0.019996,-0.014269,-0.046831,-0.000361,-0.001627
271894,0.108616,-0.022075,-0.034425,0.087266,-0.0,-0.0,3.0,0.3261,0.332665,0.3261,0.319351,,,,,,,0.107877,-0.020003,-0.014301,-0.02212,-0.00036,-0.001623
271914,0.108618,-0.022197,-0.034419,0.087266,-0.0,-0.0,3.0,0.3261,0.333588,0.3261,0.318371,,,,,,,0.107871,-0.020009,-0.014334,-0.020466,-0.000372,-0.00162
271934,0.108614,-0.021953,-0.034432,0.087266,-0.0,-0.0,3.0,0.3261,0.331953,0.3261,0.320102,,,,,,,0.10763,-0.020016,-0.014366,0.025112,-0.000347,-0.001618
271954,0.108612,-0.021831,-0.034438,0.087266,-0.0,-0.0,3.0,0.3261,0.331203,0.3261,0.320886,,,,,,,0.10751,-0.020023,-0.014399,0.047724,-0.000334,-0.001615
271974,0.108366,-0.021714,-0.034449,0.087266,-0.0,-0.0,3.0,0.3261,0.327591,0.3261,0.324601,,,,,,,0.107406,-0.02003,-0.014431,0.020535,-0.000322,-0.001613
271994,0.108245,-0.021845,-0.034322,0.087266,-0.0,-0.0,3.0,0.3261,0.327874,0.3261,0.324313,,,,,,,0.107281,-0.020037,-0.014463,0.021186,-0.000334,-0.001597
272014,0.108121,-0.021725,-0.034331,0.087266,-0.0,-0.0,3.0,0.3261,0.333522,0.3261,0.318441,,,,,,,0.107634,-0.020042,-0.014487,-0.069766,-0.000346,-0.001594
272034,0.107881,-0.021974,-0.034321,0.087266,-0.0,-0.0,3.0,0.3261,0.330391,0.3261,0.321731,,,,,,,0.107404,-0.020051,-0.014527,-0.072463,-0.000346,-0.001591
272054,0.107881,-0.021974,-0.034321,0.087266,-0.0,-0.0,3.0,0.3261,0.335122,0.3261,0.316726,,,,,,,0.107505,-0.020057,-0.014558,-0.091681,-0.000345,-0.001587
272074,0.107882,-0.022102,-0.034193,0.087266,-0.0,-0.0,3.0,0.3261,0.335619,0.3261,0.316189,,,,,,,0.107378,-0.020064,-0.01459,-0.067185,-0.000357,-0.001571
272094,0.108246,-0.021973,-0.034194,0.087266,-0.0,-0.0,3.0,0.3261,0.334192,0.3261,0.317726,,,,,,,0.107131,-0.020071,-0.014621,0.050323,-0.000343,-0.001568
272114,0.108001,-0.021985,-0.034076,0.087266,-0.0,-0.0,3.0,0.3261,0.329395,0.3261,0.322759,,,,,,,0.106658,-0.020078,-0.014652,0.094122,-0.000344,-0.001553
272134,0.107753,-0.021745,-0.034093,0.087266,-0.0,-0.0,3.0,0.3261,0.327719,0.3261,0.32447,,,,,,,0.106422,-0.020084,-0.014684,0.091938,-0.000319,-0.001552
272154,0.107264,-0.021761,-0.033978,0.087266,-0.0,-0.0,3.0,0.3261,0.327471,0.3261,0.324721,,,,,,,0.106422,-0.020091,-0.014715,-0.002132,-0.00032,-0.001537
272174,0.10702,-0.021766,-0.033982,0.087266,-0.0,-0.0,3.0,0.3261,0.328549,0.3261,0.323627,,,,,,,0.10642,-0.020098,-0.014745,-0.048776,-0.00032,-0.001535
272194,0.106892,-0.021767,-0.033978,0.087266,-0.0,-0.0,3.0,0.3261,0.329797,0.3261,0.322346,,,,,,,0.106422,-0.020104,-0.014776,-0.073789,-0.00032,-0.001531
272214,0.107142,-0.021764,-0.03398,0.087266,-0.0,-0.0,3.0,0.3261,0.333139,0.3261,0.318849,,,,,,,0.106539,-0.02011,-0.014807,-0.048062,-0.000319,-0.001528
272234,0.107143,-0.021892,-0.033852,0.087266,-0.0,-0.0,3.0,0.3261,0.334852,0.3261,0.317018,,,,,,,0.106528,-0.020117,-0.014837,-0.045874,-0.000331,-0.001513
272254,0.107145,-0.022014,-0.033845,0.087266,-0.0,-0.0,3.0,0.3261,0.33625,0.3261,0.315502,,,,,,,0.106395,-0.020123,-0.014867,-0.019762,-0.000342,-0.001509
272274,0.107265,-0.02189,-0.03385,0.087266,-0.0,-0.0,3.0,0.3261,0.333359,0.3261,0.318616,,,,,,,0.106026,-0.02013,-0.014897,0.074227,-0.000329,-0.001506
272294,0.106894,-0.022024,-0.033721,0.087266,-0.0,-0.0,3.0,0.3261,0.32829,0.3261,0.32389,,,,,,,0.105677,-0.020137,-0.014927,0.069897,-0.000342,-0.00149
272314,0.106524,-0.021787,-0.03374,0.087266,-0.0,-0.0,3.0,0.3261,0.327955,0.3261,0.324231,,,,,,,0.105558,-0.020143,-0.014957,0.021575,-0.000318,-0.001489
272334,0.106036,-0.021796,-0.033747,0.087266,-0.0,-0.0,3.0,0.3261,0.326511,0.3261,0.325688,,,,,,,0.105445,-0.02015,-0.014987,-0.050526,-0.000318,-0.001487
272354,0.106032,-0.021552,-0.03376,0.087266,-0.0,-0.0,3.0,0.3261,0.33352,0.3261,0.318443,,,,,,,0.105672,-0.020155,-0.015009,-0.023729,-0.000317,-0.001484
272374,0.106033,-0.021681,-0.033632,0.087266,-0.0,-0.0,3.0,0.3261,0.330797,0.3261,0.32131,,,,,,,0.105436,-0.020162,-0.015046,-0.049263,-0.000305,-0.00147
272394,0.106155,-0.021678,-0.03363,0.087266,-0.0,-0.0,3.0,0.3261,0.33408,0.3261,0.317847,,,,,,,0.1053,-0.020169,-0.015076,0.000359,-0.000304,-0.001467
272414,0.105791,-0.021807,-0.033629,0.087266,-0.0,-0.0,3.0,0.3261,0.333008,0.3261,0.318988,,,,,,,0.104931,-0.020175,-0.015105,0.001425,-0.000316,-0.001463
272434,0.10555,-0.021933,-0.033627,0.087266,-0.0,-0.0,3.0,0.3261,0.331047,0.3261,0.321049,,,,,,,0.104564,-0.020181,-0.015135,0.025522,-0.000328,-0.00146
272454,0.105185,-0.022069,-0.033504,0.087266,-0.0,-0.0,3.0,0.3261,0.327864,0.3261,0.324323,,,,,,,0.103964,-0.020187,-0.015164,0.070762,-0.000341,-0.001445
