time_ms,roll,pitch,yaw,roll_rate,pitch_rate,yaw_rate,reference_roll,reference_pitch,reference_yaw,reference_throttle,throttle_1,throttle_2,throttle_3,throttle_4,roll_predicted,pitch_predicted,yaw_predicted,roll_rate_predicted,pitch_rate_predicted,yaw_rate_predicted
53968,-8.3e-05,-0.024049,0.017096,0.0,0.0,0.0,-0.0,-0.0,-0.0,3.0,0.3261,0.31727,0.3261,0.334617,,,,,,
53988,3.8e-05,-0.024172,0.017097,0.0,-0.001064,-0.0,0.0,-0.0,-0.0,3.0,0.3261,0.312699,0.3261,0.338792,,,,,,
54008,0.000281,-0.024052,0.017222,0.0,-0.002128,-1e-06,0.0,-0.0,-0.0,3.0,0.3261,0.312939,0.3261,0.338577,,,,,,
54028,0.000525,-0.024054,0.017225,-0.001039,-0.001064,-0.001065,0.0,-0.0,-0.0,3.0,0.3261,0.317861,0.3261,0.334066,,,,,,
54048,0.000649,-0.023933,0.017227,-0.002103,1e-06,-0.001065,0.0,-0.0,-0.0,3.0,0.3261,0.317987,0.3261,0.333949,,,,,,
54068,0.000651,-0.023689,0.017227,-0.002103,1e-06,-0.001065,0.0,-0.0,-0.0,3.0,0.3261,0.317997,0.3261,0.333939,,,,,,
54088,0.000527,-0.02381,0.017225,-0.001039,0.001065,-0.001064,0.0,-0.0,-0.0,3.0,0.3261,0.322476,0.3261,0.329671,,,,,,
54108,0.000161,-0.023685,0.017343,-0.001039,0.001064,-0.001064,0.0,-0.0,-0.0,3.0,0.3261,0.322139,0.3261,0.329997,,,,,,
54128,0.000161,-0.023685,0.017343,2.5e-05,0.001064,-0.001064,0.0,-0.0,-0.0,3.0,0.3261,0.322036,0.3261,0.330097,,,,,,
54148,0.000161,-0.023685,0.017343,0.0,0.0,0.0,0.0,-0.0,-0.0,3.0,0.3261,0.322039,0.3261,0.330094,,,,,,
54168,0.000283,-0.023686,0.017344,0.001064,-0.001064,-0.0,0.0,-0.0,-0.0,3.0,0.3261,0.322157,0.3261,0.32998,,,,,,
54188,0.000403,-0.023931,0.017346,0.001064,-0.002128,-1e-06,0.0,-0.0,-0.0,3.0,0.3261,0.322277,0.3261,0.329864,,,,,,
54208,0.000403,-0.023931,0.017346,2.5e-05,-0.002128,-0.001065,0.0,-0.0,-0.0,3.0,0.3261,0.317808,0.3261,0.334116,,,,,,
54228,0.000401,-0.024297,0.017224,-0.001064,-0.002128,-1e-06,0.0,-0.0,-0.0,3.0,0.3261,0.317818,0.3261,0.334107,,,,,,
54248,0.000524,-0.024054,0.017347,-0.001064,-0.001064,-1e-06,0.0,-0.0,-0.0,3.0,0.3261,0.313266,0.3261,0.338283,,,,,,
54268,0.000403,-0.023931,0.017346,-0.002103,0.0,-0.001065,0.0,-0.0,-0.0,3.0,0.3261,0.313043,0.3261,0.338484,,,,,,
54288,0.00016,-0.023807,0.017343,-0.002103,0.001064,-0.001064,0.0,-0.0,-0.0,3.0,0.3261,0.317606,0.3261,0.334304,,,,,,
54308,3.9e-05,-0.023684,0.017341,-0.002128,0.001064,0.0,0.0,-0.0,-0.0,3.0,0.3261,0.322085,0.3261,0.33005,,,,,,
54328,4e-05,-0.023562,0.017341,-0.001039,0.001064,-0.001064,0.0,-0.0,-0.0,3.0,0.3261,0.326593,0.3261,0.325607,,,,,,
54348,4e-05,-0.023562,0.017341,2.5e-05,0.001064,-0.001064,0.0,-0.0,-0.0,3.0,0.3261,0.326594,0.3261,0.325605,,,,,,
54368,0.000162,-0.023685,0.017221,2.5e-05,0.0,-0.001065,0.0,-0.0,-0.0,3.0,0.3261,0.322096,0.3261,0.330039,,,,,,
54388,-8.4e-05,-0.023927,0.017218,2.5e-05,-0.001064,-0.001064,0.0,-0.0,-0.0,3.0,0.3261,0.317271,0.3261,0.334616,,,,,,
54408,-8.6e-05,-0.024171,0.017218,-0.0,-0.002128,0.0,0.0,-0.0,-0.0,3.0,0.3261,0.317268,0.3261,0.334619,,,,,,
54428,-0.000208,-0.02417,0.017217,-0.001064,-0.002128,0.0,0.0,-0.0,-0.0,3.0,0.3261,0.317149,0.3261,0.334729,,,,,,
54448,-0.000209,-0.02417,0.017339,-0.00109,-0.002128,0.001065,0.0,-0.0,-0.0,3.0,0.3261,0.317142,0.3261,0.334736,,,,,,
54468,-0.000329,-0.023925,0.017337,-0.00109,-0.002128,0.001065,0.0,-0.0,-0.0,3.0,0.3261,0.321731,0.3261,0.330391,,,,,,
54488,-0.000327,-0.023681,0.017337,0.0,0.0,0.0,0.0,-0.0,-0.0,3.0,0.3261,0.321724,0.3261,0.330398,,,,,,
54508,-0.000329,-0.023681,0.017459,2.5e-05,0.001064,-0.001065,0.0,-0.0,-0.0,3.0,0.3261,0.32172,0.3261,0.330402,,,,,,
54528,-0.000207,-0.023682,0.017461,5e-05,0.001064,-0.002129,0.0,-0.0,-0.0,3.0,0.3261,0.317233,0.3261,0.334651,,,,,,
54548,-8.5e-05,-0.023683,0.017462,-0.001039,0.001064,-0.001065,0.0,-0.0,-0.0,3.0,0.3261,0.317351,0.3261,0.334542,,,,,,
54568,-8.4e-05,-0.023805,0.01734,-0.001039,-0.0,-0.001065,0.0,-0.0,-0.0,3.0,0.3261,0.317238,0.3261,0.334647,,,,,,
54588,-0.000206,-0.023804,0.017339,-0.002103,-0.0,-0.001065,0.0,-0.0,-0.0,3.0,0.3261,0.317118,0.3261,0.334758,,,,,,
54608,3.7e-05,-0.023928,0.017342,-0.002128,-0.001064,-0.0,0.0,-0.0,-0.0,3.0,0.3261,0.321941,0.3261,0.330188,,,,,,
54628,3.8e-05,-0.023806,0.017342,-0.001064,-0.002128,-0.0,0.0,-0.0,-0.0,3.0,0.3261,0.326447,0.3261,0.325753,,,,,,
54648,3.7e-05,-0.023928,0.017342,0.0,-0.001064,-0.0,0.0,-0.0,-0.0,3.0,0.3261,0.326442,0.3261,0.325758,,,,,,
54668,-8.7e-05,-0.023927,0.017462,0.00109,-0.001064,-0.001064,0.0,-0.0,-0.0,3.0,0.3261,0.326435,0.3261,0.325765,,,,,,
54688,-0.000209,-0.023926,0.017461,0.001064,-0.001064,0.0,0.0,-0.0,-0.0,3.0,0.3261,0.321815,0.3261,0.33031,,,,,,
54708,-8.7e-05,-0.023927,0.017462,0.0,0.0,0.0,0.0,-0.0,-0.0,3.0,0.3261,0.317336,0.3261,0.334556,,,,,,
54728,-0.00021,-0.023926,0.017583,2.5e-05,-0.001064,-0.001064,0.0,-0.0,-0.0,3.0,0.3261,0.312526,0.3261,0.338948,,,,,,
54748,-0.000331,-0.023803,0.017581,-0.001064,-0.001064,0.0,0.0,-0.0,-0.0,3.0,0.3261,0.31229,0.3261,0.339158,,,,,,
54768,-0.00033,-0.023803,0.017459,-0.002128,-0.001064,0.0,0.0,-0.0,-0.0,3.0,0.3261,0.317091,0.3261,0.334783,,,,,,
54788,-8.6e-05,-0.023805,0.017462,-0.002103,-0.0,-0.001065,0.0,-0.0,-0.0,3.0,0.3261,0.321913,0.3261,0.330215,,,,,,
54808,-8.6e-05,-0.023805,0.017462,-0.001039,-0.0,-0.001065,0.0,-0.0,-0.0,3.0,0.3261,0.321906,0.3261,0.330222,,,,,,
54828,-8.6e-05,-0.023805,0.017462,-0.001039,-0.0,-0.001065,0.0,-0.0,-0.0,3.0,0.3261,0.3219,0.3261,0.330228,,,,,,
54848,-0.000329,-0.023681,0.017459,-0.001039,-0.0,-0.001065,0.0,-0.0,-0.0,3.0,0.3261,0.326185,0.3261,0.326016,,,,,,
54868,-0.000208,-0.023804,0.017461,2.5e-05,-0.0,-0.001065,0.0,-0.0,-0.0,3.0,0.3261,0.321672,0.3261,0.330448,,,,,,
54888,-0.000453,-0.023802,0.01758,2.5e-05,-0.0,-0.001065,0.0,-0.0,-0.0,3.0,0.3261,0.321438,0.3261,0.330674,,,,,,
54908,-0.000453,-0.023802,0.01758,-0.0,-0.001064,0.0,0.0,-0.0,-0.0,3.0,0.3261,0.316823,0.3261,0.335032,,,,,,
54928,-0.000575,-0.0238,0.017578,-0.0,-0.002128,1e-06,0.0,-0.0,-0.0,3.0,0.3261,0.316809,0.3261,0.335045,,,,,,
54948,-0.000454,-0.023924,0.01758,-0.0,-0.002128,1e-06,0.0,-0.0,-0.0,3.0,0.3261,0.316916,0.3261,0.334946,,,,,,
54968,-0.000332,-0.023925,0.017581,-0.0,-0.002128,1e-06,0.0,-0.0,-0.0,3.0,0.3261,0.317025,0.3261,0.334845,,,,,,
54988,-0.000212,-0.023926,0.017705,-0.001039,-0.0,-0.001065,0.0,-0.0,-0.0,3.0,0.3261,0.317134,0.3261,0.334744,,,,,,
55008,-8.7e-05,-0.023805,0.017584,-0.001039,-0.0,-0.001065,0.0,-0.0,-0.0,3.0,0.3261,0.317248,0.3261,0.334638,,,,,,
55028,-8.6e-05,-0.023683,0.017584,-0.002103,0.001064,-0.001065,0.0,-0.0,-0.0,3.0,0.3261,0.317247,0.3261,0.334639,,,,,,
55048,-0.000329,-0.023436,0.017703,-0.002103,0.001064,-0.001065,0.0,-0.0,-0.0,3.0,0.3261,0.321505,0.3261,0.330609,,,,,,
55068,-0.000452,-0.023435,0.017702,-0.001039,0.001064,-0.001065,0.0,-0.0,-0.0,3.0,0.3261,0.32149,0.3261,0.330624,,,,,,
55088,-0.000571,-0.023312,0.017578,0.0,0.0,0.0,0.0,-0.0,-0.0,3.0,0.3261,0.325888,0.3261,0.326313,,,,,,
55108,-0.000453,-0.023557,0.017702,0.001089,-0.001065,-0.001064,0.0,-0.0,-0.0,3.0,0.3261,0.32136,0.3261,0.330749,,,,,,
55128,-0.000699,-0.023799,0.017699,0.00109,-0.002129,-0.001063,0.0,-0.0,-0.0,3.0,0.3261,0.321119,0.3261,0.33098,,,,,,
55148,-0.000578,-0.024045,0.017578,2.6e-05,-0.002129,-0.001063,0.0,-0.0,-0.0,3.0,0.3261,0.316612,0.3261,0.335228,,,,,,
55168,-0.000211,-0.024048,0.017583,-0.0,-0.002128,0.0,0.0,-0.0,-0.0,3.0,0.3261,0.316955,0.3261,0.33491,,,,,,
55188,-0.000213,-0.024048,0.017705,-0.001064,-0.002128,0.0,0.0,-0.0,-0.0,3.0,0.3261,0.317059,0.3261,0.334814,,,,,,
55208,-0.000454,-0.023679,0.017702,-0.001064,-0.001064,0.0,0.0,-0.0,-0.0,3.0,0.3261,0.31682,0.3261,0.335035,,,,,,
55228,-0.000576,-0.023556,0.017823,-0.001064,0.0,0.0,0.0,-0.0,-0.0,3.0,0.3261,0.316692,0.3261,0.335154,,,,,,
55248,-0.000697,-0.023433,0.017821,-0.001039,0.001063,-0.001065,0.0,-0.0,-0.0,3.0,0.3261,0.321284,0.3261,0.330822,,,,,,
55268,-0.000574,-0.023312,0.017823,5e-05,0.001063,-0.00213,0.0,-0.0,-0.0,3.0,0.3261,0.321282,0.3261,0.330824,,,,,,
55288,-0.000452,-0.023313,0.017824,5e-05,0.001063,-0.00213,0.0,-0.0,-0.0,3.0,0.3261,0.31667,0.3261,0.335174,,,,,,
55308,-0.000453,-0.023435,0.017824,-0.001039,-0.0,-0.001065,0.0,-0.0,-0.0,3.0,0.3261,0.316661,0.3261,0.335182,,,,,,
55328,-0.000331,-0.023558,0.017703,-0.001039,-0.001065,-0.001064,0.0,-0.0,-0.0,3.0,0.3261,0.31677,0.3261,0.335081,,,,,,
55348,-0.000209,-0.02356,0.017705,-0.001064,-0.001064,0.0,0.0,-0.0,-0.0,3.0,0.3261,0.321485,0.3261,0.330629,,,,,,
55368,-0.000209,-0.02356,0.017705,-0.001064,-0.001064,0.0,0.0,-0.0,-0.0,3.0,0.3261,0.321476,0.3261,0.330637,,,,,,
55388,-0.000577,-0.023678,0.017823,-0.0,-0.001064,1e-06,0.0,-0.0,-0.0,3.0,0.3261,0.321119,0.3261,0.33098,,,,,,
55408,-0.000698,-0.023555,0.017821,-0.0,-0.001064,1e-06,0.0,-0.0,-0.0,3.0,0.3261,0.321101,0.3261,0.330997,,,,,,
55428,-0.000942,-0.023553,0.017818,0.001064,-0.001064,1e-06,0.0,-0.0,-0.0,3.0,0.3261,0.32086,0.3261,0.331229,,,,,,
55448,-0.000697,-0.023433,0.017821,0.001089,-1e-06,-0.001065,0.0,-0.0,-0.0,3.0,0.3261,0.316467,0.3261,0.335362,,,,,,
55468,-0.000332,-0.023558,0.017825,0.0,0.0,0.0,0.0,-0.0,-0.0,3.0,0.3261,0.312109,0.3261,0.339321,,,,,,
55488,-8.8e-05,-0.023438,0.01795,-0.001039,-0.001064,-0.001064,0.0,-0.0,-0.0,3.0,0.3261,0.312342,0.3261,0.339112,,,,,,
55508,-8.8e-05,-0.023438,0.01795,-0.002104,-0.001064,-0.001064,0.0,-0.0,-0.0,3.0,0.3261,0.317034,0.3261,0.334836,,,,,,
55528,3.2e-05,-0.02344,0.018074,-0.002104,0.0,-0.001065,0.0,-0.0,-0.0,3.0,0.3261,0.317038,0.3261,0.334833,,,,,,
55548,3.2e-05,-0.02344,0.018074,-0.002128,0.0,0.0,0.0,-0.0,-0.0,3.0,0.3261,0.321743,0.3261,0.33038,,,,,,
55568,-0.000214,-0.023559,0.018193,-0.001039,-0.0,-0.001065,0.0,-0.0,-0.0,3.0,0.3261,0.321506,0.3261,0.330608,,,,,,
55588,-0.000334,-0.023436,0.01807,2.5e-05,-0.0,-0.001065,0.0,-0.0,-0.0,3.0,0.3261,0.325909,0.3261,0.326292,,,,,,
55608,-0.000334,-0.023436,0.01807,2.5e-05,-0.0,-0.001065,0.0,-0.0,-0.0,3.0,0.3261,0.3258,0.3261,0.3264,,,,,,
55628,-0.00021,-0.023437,0.017949,-0.0,-0.001064,0.0,0.0,-0.0,-0.0,3.0,0.3261,0.321392,0.3261,0.330718,,,,,,
55648,-8.8e-05,-0.023438,0.01795,0.001064,-0.001064,0.0,0.0,-0.0,-0.0,3.0,0.3261,0.316897,0.3261,0.334963,,,,,,
55668,-0.000211,-0.023559,0.017949,-0.0,-0.002128,0.0,0.0,-0.0,-0.0,3.0,0.3261,0.316778,0.3261,0.335074,,,,,,
55688,-0.000336,-0.02368,0.01807,-0.001064,-0.002128,1e-06,0.0,-0.0,-0.0,3.0,0.3261,0.316764,0.3261,0.335087,,,,,,
55708,-0.000215,-0.023804,0.018071,-0.001064,-0.002128,0.0,0.0,-0.0,-0.0,3.0,0.3261,0.316874,0.3261,0.334985,,,,,,
55728,-0.000334,-0.023436,0.01807,-0.001039,-0.001065,-0.001064,0.0,-0.0,-0.0,3.0,0.3261,0.31205,0.3261,0.339373,,,,,,
55748,-0.000456,-0.023435,0.018068,-0.001039,0.001064,-0.001065,0.0,-0.0,-0.0,3.0,0.3261,0.316626,0.3261,0.335215,,,,,,
55768,-0.000333,-0.023314,0.01807,-0.001039,0.002128,-0.001065,0.0,-0.0,-0.0,3.0,0.3261,0.321344,0.3261,0.330764,,,,,,
55788,-8.7e-05,-0.023194,0.018072,-0.00104,0.002128,-0.001065,0.0,-0.0,-0.0,3.0,0.3261,0.32157,0.3261,0.330547,,,,,,
55808,-8.7e-05,-0.023194,0.018072,-0.00104,0.001064,-0.001065,0.0,-0.0,-0.0,3.0,0.3261,0.32146,0.3261,0.330652,,,,,,
55828,3.3e-05,-0.023318,0.018074,-0.001039,0.0,-0.001065,0.0,-0.0,-0.0,3.0,0.3261,0.321571,0.3261,0.330545,,,,,,
55848,-8.9e-05,-0.023561,0.01795,2.5e-05,-0.001064,-0.001064,0.0,-0.0,-0.0,3.0,0.3261,0.321456,0.3261,0.330657,,,,,,
55868,-0.000333,-0.023558,0.017948,2.5e-05,-0.002129,-0.001064,0.0,-0.0,-0.0,3.0,0.3261,0.316611,0.3261,0.335228,,,,,,
55888,-0.00058,-0.0238,0.017945,2.5e-05,-0.002129,-0.001063,0.0,-0.0,-0.0,3.0,0.3261,0.316368,0.3261,0.335453,,,,,,
55908,-0.00058,-0.0238,0.017945,-0.0,-0.002128,1e-06,0.0,-0.0,-0.0,3.0,0.3261,0.316358,0.3261,0.335463,,,,,,
55928,-0.000214,-0.023804,0.017949,-0.0,-0.002128,0.0,0.0,-0.0,-0.0,3.0,0.3261,0.32131,0.3261,0.330797,,,,,,
55948,-9e-05,-0.023683,0.01795,-0.0,-0.001064,0.0,0.0,-0.0,-0.0,3.0,0.3261,0.321528,0.3261,0.330587,,,,,,
55968,3e-05,-0.023684,0.018074,0.0,0.0,0.0,0.0,-0.0,-0.0,3.0,0.3261,0.321642,0.3261,0.330477,,,,,,
55988,-9.1e-05,-0.023561,0.018072,-0.001039,0.001064,-0.001065,0.0,-0.0,-0.0,3.0,0.3261,0.316925,0.3261,0.334938,,,,,,
56008,-9e-05,-0.023316,0.018195,-0.001039,0.001064,-0.001065,0.0,-0.0,-0.0,3.0,0.3261,0.316925,0.3261,0.334937,,,,,,
56028,-0.000211,-0.023315,0.018071,-0.001039,-0.0,-0.001065,0.0,-0.0,-0.0,3.0,0.3261,0.316807,0.3261,0.335047,,,,,,
56048,-0.000455,-0.023313,0.018068,-0.001039,-0.0,-0.001065,0.0,-0.0,-0.0,3.0,0.3261,0.316458,0.3261,0.33537,,,,,,
56068,-0.000335,-0.023558,0.01807,-0.001039,-0.0,-0.001065,0.0,-0.0,-0.0,3.0,0.3261,0.321177,0.3261,0.330924,,,,,,
56088,0.000153,-0.023563,0.018075,-0.001064,-0.001064,-0.0,0.0,-0.0,-0.0,3.0,0.3261,0.32163,0.3261,0.330489,,,,,,
56108,0.000397,-0.023565,0.018078,0.0,-0.001064,-0.0,0.0,-0.0,-0.0,3.0,0.3261,0.321858,0.3261,0.330269,,,,,,
56128,0.000397,-0.023565,0.018078,0.0,-0.001064,-0.0,0.0,-0.0,-0.0,3.0,0.3261,0.326374,0.3261,0.325827,,,,,,
56148,0.000275,-0.023564,0.018077,0.0,-0.001064,-0.0,0.0,-0.0,-0.0,3.0,0.3261,0.326268,0.3261,0.325933,,,,,,
56168,0.000153,-0.023441,0.018197,0.001064,-0.001064,-0.0,0.0,-0.0,-0.0,3.0,0.3261,0.321755,0.3261,0.330368,,,,,,
56188,3.1e-05,-0.02344,0.018196,0.001064,-0.001064,-0.0,0.0,-0.0,-0.0,3.0,0.3261,0.317045,0.3261,0.334826,,,,,,
56208,3.1e-05,-0.02344,0.018196,2.5e-05,0.0,-0.001065,0.0,-0.0,-0.0,3.0,0.3261,0.312353,0.3261,0.339102,,,,,,
56228,-9e-05,-0.023438,0.018072,2.5e-05,-0.0,-0.001065,0.0,-0.0,-0.0,3.0,0.3261,0.312127,0.3261,0.339304,,,,,,
56248,0.000275,-0.023564,0.018077,-0.001064,0.0,0.0,0.0,-0.0,-0.0,3.0,0.3261,0.312484,0.3261,0.338985,,,,,,
56268,0.00052,-0.023566,0.01808,-0.002103,1e-06,-0.001065,0.0,-0.0,-0.0,3.0,0.3261,0.317524,0.3261,0.33438,,,,,,
56288,0.000642,-0.023567,0.018081,-0.001039,1e-06,-0.001065,0.0,-0.0,-0.0,3.0,0.3261,0.322237,0.3261,0.329903,,,,,,
56308,0.000644,-0.023323,0.018081,-0.001039,1e-06,-0.001065,0.0,-0.0,-0.0,3.0,0.3261,0.326751,0.3261,0.325448,,,,,,
56328,0.000401,-0.023199,0.018078,2.5e-05,0.0,-0.001065,0.0,-0.0,-0.0,3.0,0.3261,0.326537,0.3261,0.325662,,,,,,
56348,0.000277,-0.023198,0.018199,2.5e-05,0.0,-0.001065,0.0,-0.0,-0.0,3.0,0.3261,0.32182,0.3261,0.330305,,,,,,
56368,0.000275,-0.023442,0.018199,2.5e-05,0.0,-0.001065,0.0,-0.0,-0.0,3.0,0.3261,0.317229,0.3261,0.334655,,,,,,
56388,0.000397,-0.023443,0.0182,0.0,-0.002128,-1e-06,0.0,-0.0,-0.0,3.0,0.3261,0.317354,0.3261,0.334539,,,,,,
56408,0.000274,-0.023564,0.018199,-2.5e-05,-0.003193,0.001064,0.0,-0.0,-0.0,3.0,0.3261,0.317355,0.3261,0.334538,,,,,,
56428,0.000395,-0.023687,0.0182,-0.001064,-0.002128,-1e-06,0.0,-0.0,-0.0,3.0,0.3261,0.317475,0.3261,0.334426,,,,,,
56448,0.000638,-0.023811,0.018203,-0.001039,-0.001064,-0.001065,0.0,-0.0,-0.0,3.0,0.3261,0.317716,0.3261,0.334201,,,,,,
56468,0.00064,-0.023567,0.018203,-0.001039,1e-06,-0.001065,0.0,-0.0,-0.0,3.0,0.3261,0.317729,0.3261,0.334189,,,,,,
56488,0.000762,-0.023568,0.018205,-0.001039,0.001065,-0.001064,0.0,-0.0,-0.0,3.0,0.3261,0.317859,0.3261,0.334068,,,,,,
56508,0.000642,-0.023567,0.018081,-0.001039,0.002129,-0.001063,0.0,-0.0,-0.0,3.0,0.3261,0.317759,0.3261,0.334161,,,,,,
56528,0.000643,-0.023445,0.018081,-0.001039,0.002129,-0.001063,0.0,-0.0,-0.0,3.0,0.3261,0.322257,0.3261,0.329883,,,,,,
56548,0.000522,-0.023444,0.017958,-0.001064,0.0,0.0,0.0,-0.0,-0.0,3.0,0.3261,0.322264,0.3261,0.329876,,,,,,
56568,0.000643,-0.023567,0.017959,2.5e-05,-0.001064,-0.001065,0.0,-0.0,-0.0,3.0,0.3261,0.32228,0.3261,0.329861,,,,,,
56588,0.00052,-0.023688,0.017958,2.5e-05,-0.001064,-0.001065,0.0,-0.0,-0.0,3.0,0.3261,0.322174,0.3261,0.329963,,,,,,
56608,0.000398,-0.023687,0.017956,0.001089,-0.002128,-0.001065,0.0,-0.0,-0.0,3.0,0.3261,0.32207,0.3261,0.330064,,,,,,
56628,0.000519,-0.02381,0.017958,0.0,-0.002128,-1e-06,0.0,-0.0,-0.0,3.0,0.3261,0.322194,0.3261,0.329944,,,,,,
56648,0.00064,-0.023933,0.017959,0.0,-0.002128,-1e-06,0.0,-0.0,-0.0,3.0,0.3261,0.317838,0.3261,0.334087,,,,,,
56668,0.000639,-0.023811,0.018081,-0.001064,-0.001064,-1e-06,0.0,-0.0,-0.0,3.0,0.3261,0.317851,0.3261,0.334075,,,,,,
56688,0.00064,-0.023689,0.018081,-0.001064,0.0,0.0,0.0,-0.0,-0.0,3.0,0.3261,0.317865,0.3261,0.334063,,,,,,
56708,0.000396,-0.023687,0.018078,-0.001064,0.001064,0.0,0.0,-0.0,-0.0,3.0,0.3261,0.317645,0.3261,0.334268,,,,,,
56728,0.000518,-0.023688,0.01808,-0.001039,0.001065,-0.001064,0.0,-0.0,-0.0,3.0,0.3261,0.322361,0.3261,0.329783,,,,,,
56748,0.000642,-0.023689,0.017959,2.5e-05,0.001065,-0.001064,0.0,-0.0,-0.0,3.0,0.3261,0.322487,0.3261,0.32966,,,,,,
56768,0.000521,-0.023688,0.017836,2.5e-05,1e-06,-0.001065,0.0,-0.0,-0.0,3.0,0.3261,0.317689,0.3261,0.334227,,,,,,
56788,0.000521,-0.023688,0.017836,0.0,-0.001064,-1e-06,0.0,-0.0,-0.0,3.0,0.3261,0.32229,0.3261,0.329851,,,,,,
56808,0.000885,-0.023935,0.01784,-0.001039,-0.001063,-0.001065,0.0,-0.0,-0.0,3.0,0.3261,0.318061,0.3261,0.333879,,,,,,
56828,0.000764,-0.024056,0.017717,-0.001064,-0.002128,-2e-06,0.0,-0.0,-0.0,3.0,0.3261,0.317847,0.3261,0.334079,,,,,,
56848,0.000761,-0.024178,0.017839,-0.001064,-0.002128,-2e-06,0.0,-0.0,-0.0,3.0,0.3261,0.322553,0.3261,0.329596,,,,,,
56868,0.000517,-0.024176,0.017836,-0.001064,-0.002128,-1e-06,0.0,-0.0,-0.0,3.0,0.3261,0.322444,0.3261,0.329701,,,,,,
56888,0.000392,-0.024297,0.017956,0.0,-0.001064,-0.0,0.0,-0.0,-0.0,3.0,0.3261,0.322338,0.3261,0.329804,,,,,,
56908,0.000393,-0.024053,0.018078,0.00109,0.0,-0.001065,0.0,-0.0,-0.0,3.0,0.3261,0.322349,0.3261,0.329794,,,,,,
56928,0.000638,-0.023933,0.018081,0.00109,1e-06,-0.001065,0.0,-0.0,-0.0,3.0,0.3261,0.318008,0.3261,0.333928,,,,,,
56948,0.000883,-0.023813,0.018084,2.5e-05,1e-06,-0.001065,0.0,-0.0,-0.0,3.0,0.3261,0.318259,0.3261,0.333693,,,,,,
56968,0.001004,-0.023937,0.018086,-0.001039,1e-06,-0.001065,0.0,-0.0,-0.0,3.0,0.3261,0.313726,0.3261,0.337867,,,,,,
56988,0.001249,-0.023939,0.018089,-0.002103,1e-06,-0.001065,0.0,-0.0,-0.0,3.0,0.3261,0.318536,0.3261,0.333433,,,,,,
57008,0.00137,-0.024062,0.01809,-0.002128,0.0,0.0,0.0,-0.0,-0.0,3.0,0.3261,0.323351,0.3261,0.328818,,,,,,
57028,0.001246,-0.024183,0.018089,-0.001064,-0.001064,-1e-06,0.0,-0.0,-0.0,3.0,0.3261,0.323256,0.3261,0.328911,,,,,,
57048,0.001002,-0.024181,0.018086,2.6e-05,-0.001063,-0.001066,0.0,-0.0,-0.0,3.0,0.3261,0.327429,0.3261,0.324764,,,,,,
57068,0.000759,-0.024056,0.018083,2.6e-05,1e-06,-0.001065,0.0,-0.0,-0.0,3.0,0.3261,0.327225,0.3261,0.32497,,,,,,
57088,0.000762,-0.023934,0.017961,0.001064,0.0,0.0,0.0,-0.0,-0.0,3.0,0.3261,0.322753,0.3261,0.329401,,,,,,
57108,0.000884,-0.023935,0.017962,0.001064,-0.001064,-1e-06,0.0,-0.0,-0.0,3.0,0.3261,0.318422,0.3261,0.33354,,,,,,
57128,0.001006,-0.023937,0.017964,0.0,-0.001064,-1e-06,0.0,-0.0,-0.0,3.0,0.3261,0.313895,0.3261,0.337715,,,,,,
57148,0.001124,-0.024182,0.018087,-0.001064,-0.001064,-1e-06,0.0,-0.0,-0.0,3.0,0.3261,0.314032,0.3261,0.33759,,,,,,
57168,0.001123,-0.024304,0.018087,-0.002103,-0.001063,-0.001066,0.0,-0.0,-0.0,3.0,0.3261,0.318714,0.3261,0.333266,,,,,,
57188,0.001367,-0.024306,0.01809,-0.002103,-0.001063,-0.001066,0.0,-0.0,-0.0,3.0,0.3261,0.323532,0.3261,0.328641,,,,,,
57208,0.001247,-0.024061,0.018089,-0.001039,1e-06,-0.001065,0.0,-0.0,-0.0,3.0,0.3261,0.323441,0.3261,0.32873,,,,,,
57228,0.001127,-0.023938,0.018087,-0.001039,0.001065,-0.001063,0.0,-0.0,-0.0,3.0,0.3261,0.32335,0.3261,0.32882,,,,,,
57248,0.001007,-0.023693,0.018086,2.5e-05,0.001065,-0.001063,0.0,-0.0,-0.0,3.0,0.3261,0.323152,0.3261,0.329013,,,,,,
57268,0.001006,-0.023815,0.018086,2.5e-05,1e-06,-0.001065,0.0,-0.0,-0.0,3.0,0.3261,0.323174,0.3261,0.328991,,,,,,
57288,0.001006,-0.023815,0.018086,2.5e-05,-0.001063,-0.001066,0.0,-0.0,-0.0,3.0,0.3261,0.323194,0.3261,0.328971,,,,,,
57308,0.001125,-0.02406,0.018087,0.0,-0.002128,-2e-06,0.0,-0.0,-0.0,3.0,0.3261,0.318757,0.3261,0.333225,,,,,,
57328,0.001,-0.024303,0.018208,0.0,-0.002128,-2e-06,0.0,-0.0,-0.0,3.0,0.3261,0.318771,0.3261,0.333212,,,,,,
57348,0.001121,-0.024426,0.01821,0.0,-0.002128,-2e-06,0.0,-0.0,-0.0,3.0,0.3261,0.318907,0.3261,0.333084,,,,,,
57368,0.001122,-0.024304,0.018209,-0.001064,-0.002128,-2e-06,0.0,-0.0,-0.0,3.0,0.3261,0.318929,0.3261,0.333064,,,,,,
57388,0.001124,-0.02406,0.018209,-0.001039,1e-06,-0.001065,0.0,-0.0,-0.0,3.0,0.3261,0.318951,0.3261,0.333042,,,,,,
57408,0.001125,-0.023938,0.018209,-0.001039,0.001065,-0.001063,0.0,-0.0,-0.0,3.0,0.3261,0.318864,0.3261,0.333125,,,,,,
57428,0.001127,-0.023694,0.018209,-0.002103,0.001065,-0.001063,0.0,-0.0,-0.0,3.0,0.3261,0.323561,0.3261,0.328613,,,,,,
57448,0.000883,-0.023691,0.018206,-0.001064,0.001064,1e-06,0.0,-0.0,-0.0,3.0,0.3261,0.323354,0.3261,0.328815,,,,,,
57468,0.001004,-0.023815,0.018208,2.5e-05,1e-06,-0.001065,0.0,-0.0,-0.0,3.0,0.3261,0.327966,0.3261,0.32422,,,,,,
57488,0.001121,-0.024182,0.018331,2.6e-05,1e-06,-0.001065,0.0,-0.0,-0.0,3.0,0.3261,0.327984,0.3261,0.324201,,,,,,
57508,0.001001,-0.024181,0.018208,0.00109,-0.002127,-0.001067,0.0,-0.0,-0.0,3.0,0.3261,0.323413,0.3261,0.328758,,,,,,
57528,0.000999,-0.024425,0.018208,2.6e-05,-0.002127,-0.001067,0.0,-0.0,-0.0,3.0,0.3261,0.318865,0.3261,0.333123,,,,,,
57548,0.001121,-0.024426,0.01821,0.0,-0.002128,-2e-06,0.0,-0.0,-0.0,3.0,0.3261,0.319005,0.3261,0.332992,,,,,,
57568,0.001119,-0.024548,0.01821,-0.001064,-0.002128,-2e-06,0.0,-0.0,-0.0,3.0,0.3261,0.314369,0.3261,0.337284,,,,,,
57588,0.001122,-0.024304,0.018209,-0.001064,-0.001064,-1e-06,0.0,-0.0,-0.0,3.0,0.3261,0.319158,0.3261,0.332848,,,,,,
57608,0.000876,-0.024302,0.018329,-0.001064,0.0,0.0,0.0,-0.0,-0.0,3.0,0.3261,0.318944,0.3261,0.333049,,,,,,
57628,0.000755,-0.024179,0.018327,-0.001039,0.001065,-0.001064,0.0,-0.0,-0.0,3.0,0.3261,0.323412,0.3261,0.328759,,,,,,
57648,0.000754,-0.024179,0.018449,-0.001039,0.001065,-0.001064,0.0,-0.0,-0.0,3.0,0.3261,0.323428,0.3261,0.328743,,,,,,
57668,0.001,-0.023937,0.018452,2.5e-05,0.001065,-0.001063,0.0,-0.0,-0.0,3.0,0.3261,0.323674,0.3261,0.328503,,,,,,
57688,0.000999,-0.024181,0.01833,2.6e-05,1e-06,-0.001065,0.0,-0.0,-0.0,3.0,0.3261,0.323584,0.3261,0.328591,,,,,,
57708,0.001123,-0.024182,0.018209,-0.001038,-0.001063,-0.001066,0.0,-0.0,-0.0,3.0,0.3261,0.319158,0.3261,0.332848,,,,,,
57728,0.000997,-0.024547,0.018208,-0.001038,-0.001063,-0.001066,0.0,-0.0,-0.0,3.0,0.3261,0.318947,0.3261,0.333047,,,,,,
57748,0.000754,-0.024423,0.018205,-0.001064,-0.002128,-2e-06,0.0,-0.0,-0.0,3.0,0.3261,0.318732,0.3261,0.333249,,,,,,
57768,0.00063,-0.024544,0.018326,-0.00109,-0.002129,0.001063,0.0,-0.0,-0.0,3.0,0.3261,0.318852,0.3261,0.333136,,,,,,
57788,0.000387,-0.024419,0.018323,-2.6e-05,-0.002129,0.001064,0.0,-0.0,-0.0,3.0,0.3261,0.323309,0.3261,0.32886,,,,,,
57808,0.000264,-0.024296,0.018443,0.0,0.0,0.0,0.0,-0.0,-0.0,3.0,0.3261,0.323202,0.3261,0.328964,,,,,,
57828,0.000508,-0.024176,0.018568,0.00109,0.001065,-0.001064,0.0,-0.0,-0.0,3.0,0.3261,0.323331,0.3261,0.328838,,,,,,
57848,0.000633,-0.024055,0.018448,2.6e-05,0.001065,-0.001064,0.0,-0.0,-0.0,3.0,0.3261,0.318895,0.3261,0.333095,,,,,,
57868,0.000876,-0.02418,0.018451,-0.001039,0.001065,-0.001064,0.0,-0.0,-0.0,3.0,0.3261,0.31449,0.3261,0.337175,,,,,,
57888,0.000875,-0.024302,0.018451,-0.002103,1e-06,-0.001065,0.0,-0.0,-0.0,3.0,0.3261,0.319047,0.3261,0.332952,,,,,,
57908,0.000875,-0.024302,0.018451,-0.002128,-0.001064,-1e-06,0.0,-0.0,-0.0,3.0,0.3261,0.319061,0.3261,0.332939,,,,,,
57928,0.000875,-0.024302,0.018451,-0.002128,-0.001064,-1e-06,0.0,-0.0,-0.0,3.0,0.3261,0.323636,0.3261,0.328539,,,,,,
57948,0.000752,-0.024179,0.018571,-0.001064,-0.001064,-1e-06,0.0,-0.0,-0.0,3.0,0.3261,0.328012,0.3261,0.324173,,,,,,
57968,0.000508,-0.024298,0.018446,2.6e-05,-0.001064,-0.001065,0.0,-0.0,-0.0,3.0,0.3261,0.3278,0.3261,0.324388,,,,,,
57988,0.000386,-0.024297,0.018445,0.00109,-0.001064,-0.001065,0.0,-0.0,-0.0,3.0,0.3261,0.3277,0.3261,0.32449,,,,,,
58008,0.00051,-0.024176,0.018446,0.001064,-0.001064,-1e-06,0.0,-0.0,-0.0,3.0,0.3261,0.323454,0.3261,0.328717,,,,,,
58028,0.000754,-0.024179,0.018449,0.0,-0.001064,-1e-06,0.0,-0.0,-0.0,3.0,0.3261,0.319137,0.3261,0.332867,,,,,,
58048,0.000875,-0.024058,0.018573,-0.001039,-0.001063,-0.001065,0.0,-0.0,-0.0,3.0,0.3261,0.314619,0.3261,0.337057,,,,,,
58068,0.00063,-0.024056,0.018692,-0.002103,-0.001064,-0.001065,0.0,-0.0,-0.0,3.0,0.3261,0.314283,0.3261,0.337363,,,,,,
58088,0.000752,-0.024057,0.018693,-0.002128,-0.001064,-1e-06,0.0,-0.0,-0.0,3.0,0.3261,0.319177,0.3261,0.33283,,,,,,
58108,0.000629,-0.024178,0.018692,-0.002128,0.0,0.0,0.0,-0.0,-0.0,3.0,0.3261,0.323633,0.3261,0.328542,,,,,,
58128,0.000508,-0.024054,0.01869,-0.001039,1e-06,-0.001065,0.0,-0.0,-0.0,3.0,0.3261,0.323527,0.3261,0.328646,,,,,,
58148,0.000387,-0.024053,0.018567,2.6e-05,0.0,-0.001065,0.0,-0.0,-0.0,3.0,0.3261,0.327798,0.3261,0.32439,,,,,,
58168,0.000387,-0.024053,0.018567,2.6e-05,0.0,-0.001065,0.0,-0.0,-0.0,3.0,0.3261,0.327809,0.3261,0.324379,,,,,,
58188,0.000387,-0.024053,0.018567,2.6e-05,0.0,-0.001065,0.0,-0.0,-0.0,3.0,0.3261,0.323336,0.3261,0.328833,,,,,,
58208,0.000509,-0.024054,0.018568,0.0,-0.001064,-1e-06,0.0,-0.0,-0.0,3.0,0.3261,0.318893,0.3261,0.333097,,,,,,
58228,0.000385,-0.024175,0.018689,0.0,-0.002128,-1e-06,0.0,-0.0,-0.0,3.0,0.3261,0.318896,0.3261,0.333094,,,,,,
58248,0.000261,-0.024296,0.018687,-0.001064,-0.002128,-1e-06,0.0,-0.0,-0.0,3.0,0.3261,0.318786,0.3261,0.333198,,,,,,
58268,0.000382,-0.024297,0.018811,-0.001064,-0.001064,-0.0,0.0,-0.0,-0.0,3.0,0.3261,0.318906,0.3261,0.333085,,,,,,
58288,0.000383,-0.024175,0.018811,-0.001038,0.0,-0.001065,0.0,-0.0,-0.0,3.0,0.3261,0.318912,0.3261,0.333079,,,,,,
58308,0.000384,-0.024053,0.018811,-0.001039,0.001065,-0.001064,0.0,-0.0,-0.0,3.0,0.3261,0.323379,0.3261,0.328791,,,,,,
58328,0.000389,-0.023687,0.018689,-0.002103,0.001065,-0.001064,0.0,-0.0,-0.0,3.0,0.3261,0.323498,0.3261,0.328675,,,,,,
58348,0.000267,-0.023686,0.018687,-0.001064,0.001064,0.0,0.0,-0.0,-0.0,3.0,0.3261,0.323392,0.3261,0.328779,,,,,,
58368,0.00039,-0.023565,0.018689,-0.001039,0.0,-0.001065,0.0,-0.0,-0.0,3.0,0.3261,0.323403,0.3261,0.328767,,,,,,
58388,0.000387,-0.023809,0.018811,2.5e-05,-0.001064,-0.001065,0.0,-0.0,-0.0,3.0,0.3261,0.323406,0.3261,0.328764,,,,,,
58408,0.000142,-0.023807,0.018808,2.5e-05,-0.002128,-0.001065,0.0,-0.0,-0.0,3.0,0.3261,0.323184,0.3261,0.328982,,,,,,
58428,1.9e-05,-0.023928,0.018806,0.0,-0.002128,-0.0,0.0,-0.0,-0.0,3.0,0.3261,0.323072,0.3261,0.329091,,,,,,
58448,0.000141,-0.023929,0.018808,0.0,-0.002128,-0.0,0.0,-0.0,-0.0,3.0,0.3261,0.318726,0.3261,0.333255,,,,,,
58468,0.000265,-0.02393,0.018687,0.0,-0.001064,-0.0,0.0,-0.0,-0.0,3.0,0.3261,0.318847,0.3261,0.33314,,,,,,
58488,0.000632,-0.023689,0.018814,-0.001064,0.0,0.0,0.0,-0.0,-0.0,3.0,0.3261,0.319201,0.3261,0.332806,,,,,,
58508,0.00051,-0.023688,0.018812,-0.001039,0.001065,-0.001064,0.0,-0.0,-0.0,3.0,0.3261,0.319096,0.3261,0.332906,,,,,,
58528,0.000389,-0.023443,0.018933,-0.001039,0.001065,-0.001064,0.0,-0.0,-0.0,3.0,0.3261,0.323556,0.3261,0.328618,,,,,,
58548,0.000509,-0.023566,0.018934,-0.001039,0.001065,-0.001064,0.0,-0.0,-0.0,3.0,0.3261,0.323677,0.3261,0.328499,,,,,,
58568,0.000389,-0.023443,0.018933,2.5e-05,0.0,-0.001065,0.0,-0.0,-0.0,3.0,0.3261,0.323573,0.3261,0.328601,,,,,,
58588,0.000267,-0.023564,0.018809,2.5e-05,-0.001064,-0.001065,0.0,-0.0,-0.0,3.0,0.3261,0.323467,0.3261,0.328705,,,,,,
58608,0.000389,-0.023565,0.018811,2.5e-05,-0.001064,-0.001065,0.0,-0.0,-0.0,3.0,0.3261,0.323479,0.3261,0.328693,,,,,,
58628,0.000509,-0.02381,0.018812,2.5e-05,-0.002128,-0.001066,0.0,-0.0,-0.0,3.0,0.3261,0.323492,0.3261,0.328681,,,,,,
58648,0.000754,-0.023813,0.018693,0.0,-0.002128,-2e-06,0.0,-0.0,-0.0,3.0,0.3261,0.323838,0.3261,0.328341,,,,,,
58668,0.000875,-0.023936,0.018695,-0.00109,-0.002129,0.001063,0.0,-0.0,-0.0,3.0,0.3261,0.324071,0.3261,0.328112,,,,,,
58688,0.000631,-0.023811,0.018814,-0.001064,-0.001064,-1e-06,0.0,-0.0,-0.0,3.0,0.3261,0.323857,0.3261,0.328323,,,,,,
58708,0.000506,-0.023932,0.018934,2.5e-05,1e-06,-0.001065,0.0,-0.0,-0.0,3.0,0.3261,0.323755,0.3261,0.328422,,,,,,
58728,0.000264,-0.023686,0.018931,2.5e-05,0.001065,-0.001064,0.0,-0.0,-0.0,3.0,0.3261,0.318978,0.3261,0.333018,,,,,,
58748,0.000268,-0.023442,0.018809,2.5e-05,0.001065,-0.001064,0.0,-0.0,-0.0,3.0,0.3261,0.318991,0.3261,0.333005,,,,,,
58768,0.000269,-0.023442,0.018687,2.5e-05,0.0,-0.001065,0.0,-0.0,-0.0,3.0,0.3261,0.31889,0.3261,0.3331,,,,,,
58788,0.000512,-0.023566,0.01869,-0.001064,0.0,0.0,0.0,-0.0,-0.0,3.0,0.3261,0.319128,0.3261,0.332876,,,,,,
58808,0.000876,-0.023814,0.018694,-0.001064,-0.001064,-1e-06,0.0,-0.0,-0.0,3.0,0.3261,0.324038,0.3261,0.328145,,,,,,
58828,0.00112,-0.023816,0.018697,-0.001064,-0.001064,-1e-06,0.0,-0.0,-0.0,3.0,0.3261,0.324279,0.3261,0.327908,,,,,,
58848,0.001118,-0.02406,0.018698,0.0,-0.001064,-1e-06,0.0,-0.0,-0.0,3.0,0.3261,0.328759,0.3261,0.323411,,,,,,
58868,0.000871,-0.02418,0.018817,0.0,-0.001064,-1e-06,0.0,-0.0,-0.0,3.0,0.3261,0.324193,0.3261,0.327993,,,,,,
58888,0.00063,-0.023933,0.018814,0.0,-0.001064,-1e-06,0.0,-0.0,-0.0,3.0,0.3261,0.323986,0.3261,0.328196,,,,,,
58908,0.000511,-0.023566,0.018812,2.5e-05,1e-06,-0.001065,0.0,-0.0,-0.0,3.0,0.3261,0.319335,0.3261,0.33268,,,,,,
58928,0.000633,-0.023567,0.018814,0.0,0.0,0.0,0.0,-0.0,-0.0,3.0,0.3261,0.314819,0.3261,0.336875,,,,,,
58948,0.000632,-0.023689,0.018814,-0.001039,1e-06,-0.001065,0.0,-0.0,-0.0,3.0,0.3261,0.31472,0.3261,0.336965,,,,,,
58968,0.000875,-0.023936,0.018695,-0.002103,1e-06,-0.001065,0.0,-0.0,-0.0,3.0,0.3261,0.319611,0.3261,0.332419,,,,,,
58988,0.001239,-0.024183,0.018699,-0.002128,-0.001064,-1e-06,0.087266,-0.0,-0.0,3.0,0.3261,0.219264,0.3261,0.398319,,,,,,
59008,0.001483,-0.024308,0.01858,2.6e-05,2e-06,-0.001065,0.087266,-0.0,-0.0,3.0,0.3261,0.224448,0.3261,0.396055,,,,,,
59028,0.002212,-0.024193,0.018955,0.005347,2e-06,-0.001065,0.087266,-0.0,-0.0,3.0,0.3261,0.244722,0.3261,0.386179,,,,,,
59048,0.004653,-0.023972,0.019228,0.010693,1e-05,-0.002129,0.087266,-0.0,-0.0,3.0,0.3261,0.270625,0.3261,0.370977,,,,,,
59068,0.009659,-0.023899,0.01929,0.015963,0.0,0.0,0.087266,-0.0,-0.0,3.0,0.3261,0.296113,0.3261,0.352738,,,,,,
59088,0.017597,-0.023971,0.019016,0.020195,-1.9e-05,0.001064,0.087266,-0.0,-0.0,3.0,0.3261,0.326118,0.3261,0.326082,,,,,,
59108,0.027615,-0.023933,0.018522,0.023387,-2.9e-05,0.001064,0.087266,-0.0,-0.0,3.0,0.3261,0.350509,0.3261,0.298913,,,,,,
59128,0.039099,-0.024259,0.017683,0.02549,-8.3e-05,0.002127,0.087266,-0.0,-0.0,3.0,0.3261,0.370557,0.3261,0.271271,,,,,,
59148,0.051932,-0.024702,0.016625,0.025489,-0.00011,0.002126,0.087266,-0.0,-0.0,3.0,0.3261,0.386899,0.3261,0.243353,,,,,,
59168,0.064523,-0.024884,0.01568,0.025489,-0.000137,0.002125,0.087266,-0.0,-0.0,3.0,0.3261,0.395552,0.3261,0.225569,,,,,,
59188,0.076382,-0.024808,0.01484,0.023358,0.000899,0.002204,0.087266,-0.0,-0.0,3.0,0.3261,0.393331,0.3261,0.230392,,,,,,
59208,0.086409,-0.02483,0.013982,0.019103,-0.000184,0.002121,0.087266,-0.0,-0.0,3.0,0.3261,0.386391,0.3261,0.24432,,,,,,
59228,0.094363,-0.024714,0.013217,0.013809,-0.0001,0.00106,0.087266,-0.0,-0.0,3.0,0.3261,0.3705,0.3261,0.271359,,,,,,
59248,0.100243,-0.024589,0.01255,0.008462,-0.000213,0.002118,0.087266,-0.0,-0.0,3.0,0.3261,0.355989,0.3261,0.291919,,,,,,
59268,0.103549,-0.024573,0.011978,0.002102,-0.00011,0.001059,0.087266,-0.0,-0.0,3.0,0.3261,0.338484,0.3261,0.313042,,,,,,
59288,0.10453,-0.024789,0.011392,-0.002126,-0.001058,-0.000111,0.087266,-0.0,-0.0,3.0,0.3261,0.322089,0.3261,0.330046,,,,,,
59308,0.103686,-0.024748,0.010651,-0.00428,-0.001169,0.000949,0.087266,-0.0,-0.0,3.0,0.3261,0.312316,0.3261,0.339135,,,,,,
59328,0.101371,-0.025067,0.00991,-0.005318,-0.001059,-0.000108,0.087266,-0.0,-0.0,3.0,0.3261,0.300576,0.3261,0.349162,,,,,,
59348,0.09906,-0.024894,0.009022,-0.005371,-0.00127,0.002013,0.087266,-0.0,-0.0,3.0,0.3261,0.298581,0.3261,0.350776,,,,,,
59368,0.097235,-0.024852,0.008268,-0.004283,-0.000103,0.00106,0.087266,-0.0,-0.0,3.0,0.3261,0.301825,0.3261,0.348138,,,,,,
59388,0.095904,-0.024808,0.007398,-0.002157,0.000957,0.001162,0.087266,-0.0,-0.0,3.0,0.3261,0.310442,0.3261,0.340798,,,,,,
59408,0.09555,-0.024523,0.006529,-2.8e-05,0.000958,0.001161,0.087266,-0.0,-0.0,3.0,0.3261,0.324214,0.3261,0.327972,,,,,,
59428,0.096535,-0.024367,0.005802,0.0021,0.000957,0.001162,0.087266,-0.0,-0.0,3.0,0.3261,0.334223,0.3261,0.317693,,,,,,
59448,0.098501,-0.024457,0.0051,0.004228,0.000954,0.001164,0.087266,-0.0,-0.0,3.0,0.3261,0.340304,0.3261,0.311002,,,,,,
59468,0.100833,-0.024539,0.004281,0.005295,-0.000107,0.001059,0.087266,-0.0,-0.0,3.0,0.3261,0.346701,0.3261,0.303558,,,,,,
59488,0.103288,-0.024741,0.003469,0.006362,-0.001168,0.000949,0.087266,-0.0,-0.0,3.0,0.3261,0.348927,0.3261,0.300863,,,,,,
59508,0.106228,-0.024947,0.002786,0.0053,-0.002229,0.000833,0.087266,-0.0,-0.0,3.0,0.3261,0.351687,0.3261,0.297441,,,,,,
59528,0.109049,-0.025022,0.001974,0.004236,-0.002232,0.000827,0.087266,-0.0,-0.0,3.0,0.3261,0.350324,0.3261,0.299142,,,,,,
59548,0.111259,-0.02498,0.00127,0.003146,-0.002352,0.00188,0.087266,-0.0,-0.0,3.0,0.3261,0.348575,0.3261,0.301293,,,,,,
59568,0.112492,-0.024946,0.000676,0.001041,-0.001177,0.000938,0.087266,-0.0,-0.0,3.0,0.3261,0.345939,0.3261,0.304468,,,,,,
59588,0.113109,-0.024666,6e-05,-2.6e-05,-0.00012,0.001058,0.087266,-0.0,-0.0,3.0,0.3261,0.34287,0.3261,0.308069,,,,,,
59608,0.113114,-0.024767,-0.000299,-0.001064,0.0,0.0,0.087266,-0.0,-0.0,3.0,0.3261,0.339144,0.3261,0.312306,,,,,,
59628,0.11251,-0.024619,-0.000801,-0.001064,0.0,0.0,0.087266,-0.0,-0.0,3.0,0.3261,0.330464,0.3261,0.321656,,,,,,
59648,0.111291,-0.024716,-0.001297,-0.002126,-0.001058,-0.000118,0.087266,-0.0,-0.0,3.0,0.3261,0.320844,0.3261,0.331243,,,,,,
59668,0.110077,-0.024943,-0.001665,-0.00319,-0.001058,-0.000117,0.087266,-0.0,-0.0,3.0,0.3261,0.320166,0.3261,0.331891,,,,,,
59688,0.108978,-0.025168,-0.002031,-0.004257,0.0,0.0,0.087266,-0.0,-0.0,3.0,0.3261,0.319455,0.3261,0.332567,,,,,,
59708,0.10813,-0.025022,-0.002536,-0.004257,0.0,0.0,0.087266,-0.0,-0.0,3.0,0.3261,0.323635,0.3261,0.328541,,,,,,
59728,0.107519,-0.024881,-0.002916,-0.003219,-0.000114,0.001058,0.087266,-0.0,-0.0,3.0,0.3261,0.332449,0.3261,0.319579,,,,,,
59748,0.106913,-0.024992,-0.003161,-0.001064,0.0,0.0,0.087266,-0.0,-0.0,3.0,0.3261,0.336597,0.3261,0.315123,,,,,,
59768,0.10655,-0.024981,-0.00341,0.0,0.0,0.0,0.087266,-0.0,-0.0,3.0,0.3261,0.340886,0.3261,0.310343,,,,,,
59788,0.106555,-0.024961,-0.003776,0.001064,0.0,0.0,0.087266,-0.0,-0.0,3.0,0.3261,0.341253,0.3261,0.309925,,,,,,
59808,0.106801,-0.024947,-0.004017,0.001064,0.0,0.0,0.087266,-0.0,-0.0,3.0,0.3261,0.337589,0.3261,0.314034,,,,,,
59828,0.107169,-0.024939,-0.004134,0.0,0.0,0.0,0.087266,-0.0,-0.0,3.0,0.3261,0.333981,0.3261,0.317952,,,,,,
59848,0.107415,-0.024925,-0.004374,-0.001061,-0.001058,-0.000114,0.087266,-0.0,-0.0,3.0,0.3261,0.330214,0.3261,0.321915,,,,,,
59868,0.107295,-0.024919,-0.004498,-0.002126,-0.001058,-0.000114,0.087266,-0.0,-0.0,3.0,0.3261,0.334836,0.3261,0.317035,,,,,,
59888,0.107173,-0.024919,-0.004499,-0.002126,-0.001058,-0.000114,0.087266,-0.0,-0.0,3.0,0.3261,0.335201,0.3261,0.316641,,,,,,
59908,0.106807,-0.024921,-0.004504,-0.001035,-0.000945,-0.001172,0.087266,-0.0,-0.0,3.0,0.3261,0.339395,0.3261,0.312025,,,,,,
59928,0.10632,-0.025045,-0.004504,3e-06,-0.001058,-0.000113,0.087266,-0.0,-0.0,3.0,0.3261,0.339412,0.3261,0.312006,,,,,,
59948,0.105954,-0.024925,-0.004516,2.6e-05,0.000113,-0.001059,0.087266,-0.0,-0.0,3.0,0.3261,0.339439,0.3261,0.311976,,,,,,
59968,0.105709,-0.024932,-0.004397,2.4e-05,0.001171,-0.000946,0.087266,-0.0,-0.0,3.0,0.3261,0.335309,0.3261,0.316524,,,,,,
59988,0.105831,-0.025053,-0.004389,2.4e-05,0.001171,-0.000946,0.087266,-0.0,-0.0,3.0,0.3261,0.335778,0.3261,0.316016,,,,,,
60008,0.106073,-0.024937,-0.00427,2.6e-05,0.000113,-0.001059,0.087266,-0.0,-0.0,3.0,0.3261,0.336346,0.3261,0.315397,,,,,,
60028,0.105948,-0.025072,-0.004021,-0.001035,-0.000946,-0.001171,0.087266,-0.0,-0.0,3.0,0.3261,0.336472,0.3261,0.31526,,,,,,
60048,0.106067,-0.025207,-0.003769,-0.001032,-0.002004,-0.001284,0.087266,-0.0,-0.0,3.0,0.3261,0.341153,0.3261,0.310038,,,,,,
60068,0.106186,-0.025341,-0.003517,-0.001059,-0.002116,-0.000226,0.087266,-0.0,-0.0,3.0,0.3261,0.341687,0.3261,0.309429,,,,,,
60088,0.105816,-0.025118,-0.003169,2.9e-05,-0.000946,-0.001171,0.087266,-0.0,-0.0,3.0,0.3261,0.341691,0.3261,0.309424,,,,,,
60108,0.105569,-0.02501,-0.002935,2.4e-05,0.00117,-0.000946,0.087266,-0.0,-0.0,3.0,0.3261,0.341813,0.3261,0.309285,,,,,,
60128,0.105564,-0.024785,-0.002582,2.3e-05,0.00117,-0.000946,0.087266,-0.0,-0.0,3.0,0.3261,0.338031,0.3261,0.313545,,,,,,
60148,0.105316,-0.025049,-0.002206,5e-05,0.001282,-0.002005,0.087266,-0.0,-0.0,3.0,0.3261,0.33807,0.3261,0.313502,,,,,,
60168,0.105313,-0.025062,-0.001963,-0.001038,0.000112,-0.001059,0.087266,-0.0,-0.0,3.0,0.3261,0.334107,0.3261,0.317817,,,,,,
60188,0.105186,-0.025326,-0.001585,-0.001032,-0.002005,-0.001282,0.087266,-0.0,-0.0,3.0,0.3261,0.334329,0.3261,0.317579,,,,,,
60208,0.104931,-0.025344,-0.001223,-0.001032,-0.002005,-0.001282,0.087266,-0.0,-0.0,3.0,0.3261,0.338706,0.3261,0.312795,,,,,,
60228,0.104805,-0.025364,-0.000858,-0.001035,-0.000947,-0.00117,0.087266,-0.0,-0.0,3.0,0.3261,0.338902,0.3261,0.312577,,,,,,
60248,0.10468,-0.025255,-0.000622,-0.001035,-0.000947,-0.00117,0.087266,-0.0,-0.0,3.0,0.3261,0.343317,0.3261,0.30755,,,,,,
60268,0.104555,-0.025146,-0.000386,-0.001038,0.000111,-0.001059,0.087266,-0.0,-0.0,3.0,0.3261,0.34352,0.3261,0.307314,,,,,,
60288,0.10443,-0.025159,-0.000144,-0.001035,-0.000947,-0.00117,0.087266,-0.0,-0.0,3.0,0.3261,0.343722,0.3261,0.307079,,,,,,
60308,0.10406,-0.025179,0.000217,-0.001038,0.000111,-0.001059,0.087266,-0.0,-0.0,3.0,0.3261,0.339507,0.3261,0.311899,,,,,,
60328,0.103689,-0.02532,0.000585,-0.001037,0.00011,-0.001059,0.087266,-0.0,-0.0,3.0,0.3261,0.33949,0.3261,0.311919,,,,,,
60348,0.103565,-0.025089,0.000814,-0.001038,0.00011,-0.001059,0.087266,-0.0,-0.0,3.0,0.3261,0.339798,0.3261,0.311572,,,,,,
60368,0.10344,-0.025102,0.001057,-0.001038,0.00011,-0.001059,0.087266,-0.0,-0.0,3.0,0.3261,0.339984,0.3261,0.311363,,,,,,
60388,0.102947,-0.025122,0.001417,-0.001008,-0.00084,-0.002227,0.087266,-0.0,-0.0,3.0,0.3261,0.335483,0.3261,0.316336,,,,,,
60408,0.102452,-0.025371,0.001545,-0.001032,-0.002008,-0.001277,0.087266,-0.0,-0.0,3.0,0.3261,0.335321,0.3261,0.316511,,,,,,
60428,0.102203,-0.02539,0.001907,-0.002099,-0.00095,-0.001168,0.087266,-0.0,-0.0,3.0,0.3261,0.335369,0.3261,0.316459,,,,,,
60448,0.101712,-0.025403,0.002145,-0.002102,0.000108,-0.001059,0.087266,-0.0,-0.0,3.0,0.3261,0.335203,0.3261,0.316639,,,,,,
60468,0.100976,-0.0253,0.002496,-0.002102,0.000107,-0.001059,0.087266,-0.0,-0.0,3.0,0.3261,0.339089,0.3261,0.312368,,,,,,
60488,0.100356,-0.025195,0.002847,-0.002102,0.000107,-0.001059,0.087266,-0.0,-0.0,3.0,0.3261,0.343005,0.3261,0.307911,,,,,,
60508,0.099742,-0.025214,0.003206,-0.001038,0.000106,-0.001059,0.087266,-0.0,-0.0,3.0,0.3261,0.34272,0.3261,0.308242,,,,,,
60528,0.099128,-0.02511,0.003558,2.9e-05,-0.000954,-0.001165,0.087266,-0.0,-0.0,3.0,0.3261,0.338297,0.3261,0.31325,,,,,,
60548,0.098635,-0.025012,0.004034,5.3e-05,0.00021,-0.002119,0.087266,-0.0,-0.0,3.0,0.3261,0.333785,0.3261,0.318161,,,,,,
60568,0.098142,-0.025152,0.0044,-0.001011,0.000209,-0.002119,0.087266,-0.0,-0.0,3.0,0.3261,0.32907,0.3261,0.323093,,,,,,
60588,0.097766,-0.025046,0.004755,-0.002102,0.000104,-0.001059,0.087266,-0.0,-0.0,3.0,0.3261,0.328934,0.3261,0.323233,,,,,,
60608,0.097637,-0.025192,0.005247,-0.002099,-0.000955,-0.001163,0.087266,-0.0,-0.0,3.0,0.3261,0.333405,0.3261,0.318566,,,,,,
60628,0.097267,-0.02521,0.005608,-0.002072,-0.000852,-0.002222,0.087266,-0.0,-0.0,3.0,0.3261,0.337556,0.3261,0.31407,,,,,,
60648,0.096651,-0.025233,0.006089,-0.002097,-0.002016,-0.001265,0.087266,-0.0,-0.0,3.0,0.3261,0.337286,0.3261,0.314367,,,,,,
60668,0.096278,-0.02514,0.006688,-0.001035,-0.000957,-0.001162,0.087266,-0.0,-0.0,3.0,0.3261,0.337115,0.3261,0.314556,,,,,,
60688,0.095661,-0.025168,0.007291,-0.001011,0.000203,-0.002119,0.087266,-0.0,-0.0,3.0,0.3261,0.340991,0.3261,0.310224,,,,,,
60708,0.095411,-0.025069,0.00777,-0.001014,0.001262,-0.002018,0.087266,-0.0,-0.0,3.0,0.3261,0.336682,0.3261,0.31503,,,,,,
60728,0.095155,-0.025212,0.00826,-0.001011,0.000202,-0.002119,0.087266,-0.0,-0.0,3.0,0.3261,0.336619,0.3261,0.315099,,,,,,
60748,0.095025,-0.025241,0.008868,-0.001008,-0.000857,-0.002221,0.087266,-0.0,-0.0,3.0,0.3261,0.332228,0.3261,0.319812,,,,,,
60768,0.094774,-0.025385,0.009359,-0.001005,-0.001917,-0.002321,0.087266,-0.0,-0.0,3.0,0.3261,0.332145,0.3261,0.3199,,,,,,
60788,0.094765,-0.025536,0.009974,-0.002096,-0.002018,-0.001261,0.087266,-0.0,-0.0,3.0,0.3261,0.336686,0.3261,0.315026,,,,,,
60808,0.09427,-0.025441,0.010573,-0.002099,-0.000959,-0.00116,0.087266,-0.0,-0.0,3.0,0.3261,0.336367,0.3261,0.315375,,,,,,
60828,0.093897,-0.025346,0.011173,-0.001011,0.0002,-0.00212,0.087266,-0.0,-0.0,3.0,0.3261,0.336159,0.3261,0.315601,,,,,,
60848,0.093281,-0.025129,0.011764,-0.001013,0.001258,-0.002021,0.087266,-0.0,-0.0,3.0,0.3261,0.339998,0.3261,0.311347,,,,,,
60868,0.092909,-0.025033,0.012364,5.1e-05,0.001257,-0.002021,0.087266,-0.0,-0.0,3.0,0.3261,0.339796,0.3261,0.311574,,,,,,
60888,0.092779,-0.025299,0.012862,5.1e-05,0.001257,-0.002021,0.087266,-0.0,-0.0,3.0,0.3261,0.335436,0.3261,0.316386,,,,,,
60908,0.092892,-0.02545,0.013479,2.9e-05,-0.000961,-0.001159,0.087266,-0.0,-0.0,3.0,0.3261,0.331301,0.3261,0.320784,,,,,,
60928,0.092884,-0.025717,0.013978,-0.001032,-0.002021,-0.001257,0.087266,-0.0,-0.0,3.0,0.3261,0.331502,0.3261,0.320574,,,,,,
60948,0.092753,-0.025866,0.014592,-0.002096,-0.002021,-0.001257,0.087266,-0.0,-0.0,3.0,0.3261,0.335821,0.3261,0.315969,,,,,,
60968,0.092746,-0.025889,0.01508,-0.001034,-0.000961,-0.001159,0.087266,-0.0,-0.0,3.0,0.3261,0.340165,0.3261,0.311159,,,,,,
60988,0.092621,-0.025661,0.015433,-0.001007,-0.000863,-0.002218,0.087266,-0.0,-0.0,3.0,0.3261,0.34015,0.3261,0.311176,,,,,,
61008,0.092371,-0.025682,0.015918,5.4e-05,0.000196,-0.00212,0.087266,-0.0,-0.0,3.0,0.3261,0.339918,0.3261,0.311437,,,,,,
61028,0.092125,-0.02557,0.016154,2.7e-05,9.8e-05,-0.00106,0.087266,-0.0,-0.0,3.0,0.3261,0.3398,0.3261,0.311571,,,,,,
61048,0.092242,-0.025588,0.016521,2.7e-05,9.8e-05,-0.00106,0.087266,-0.0,-0.0,3.0,0.3261,0.339994,0.3261,0.311351,,,,,,
61068,0.092237,-0.025605,0.016887,2.7e-05,9.8e-05,-0.00106,0.087266,-0.0,-0.0,3.0,0.3261,0.335832,0.3261,0.315957,,,,,,
61088,0.092599,-0.02574,0.017141,-0.001037,9.8e-05,-0.00106,0.087266,-0.0,-0.0,3.0,0.3261,0.336246,0.3261,0.315506,,,,,,
61108,0.092595,-0.025752,0.017385,-0.001034,-0.000961,-0.001158,0.087266,-0.0,-0.0,3.0,0.3261,0.336449,0.3261,0.315284,,,,,,
61128,0.092593,-0.025641,0.017623,-0.001035,-0.000961,-0.001158,0.087266,-0.0,-0.0,3.0,0.3261,0.340685,0.3261,0.31057,,,,,,
61148,0.092591,-0.025768,0.01775,3.2e-05,-0.002021,-0.001257,0.087266,-0.0,-0.0,3.0,0.3261,0.340671,0.3261,0.310587,,,,,,
61168,0.092834,-0.02577,0.017753,3e-06,-0.00106,-9.9e-05,0.087266,-0.0,-0.0,3.0,0.3261,0.336711,0.3261,0.314999,,,,,,
61188,0.092592,-0.025763,0.017629,-0.001064,0.0,0.0,0.087266,-0.0,-0.0,3.0,0.3261,0.336597,0.3261,0.315124,,,,,,
61208,0.092351,-0.025634,0.017498,-0.001067,0.00106,9.8e-05,0.087266,-0.0,-0.0,3.0,0.3261,0.340743,0.3261,0.310505,,,,,,
61228,0.09211,-0.025504,0.017368,-0.001067,0.00106,9.8e-05,0.087266,-0.0,-0.0,3.0,0.3261,0.340625,0.3261,0.310639,,,,,,
61248,0.092112,-0.025499,0.017246,0.0,0.0,0.0,0.087266,-0.0,-0.0,3.0,0.3261,0.340726,0.3261,0.310524,,,,,,
61268,0.092113,-0.025493,0.017124,0.0,0.0,0.0,0.087266,-0.0,-0.0,3.0,0.3261,0.340826,0.3261,0.31041,,,,,,
61288,0.091991,-0.02573,0.017012,0.001067,-0.00106,-9.8e-05,0.087266,-0.0,-0.0,3.0,0.3261,0.336659,0.3261,0.315055,,,,,,
61308,0.091991,-0.02573,0.017012,3e-05,-0.000962,-0.001158,0.087266,-0.0,-0.0,3.0,0.3261,0.33663,0.3261,0.315088,,,,,,
61328,0.091992,-0.025725,0.01689,-0.001064,0.0,0.0,0.087266,-0.0,-0.0,3.0,0.3261,0.336721,0.3261,0.314988,,,,,,
61348,0.092116,-0.02572,0.016769,-0.001064,0.0,0.0,0.087266,-0.0,-0.0,3.0,0.3261,0.336917,0.3261,0.314773,,,,,,
61368,0.092117,-0.025598,0.016764,-0.001064,0.0,0.0,0.087266,-0.0,-0.0,3.0,0.3261,0.337013,0.3261,0.314667,,,,,,
61388,0.091872,-0.025718,0.016767,-0.001062,-0.00106,-9.8e-05,0.087266,-0.0,-0.0,3.0,0.3261,0.341127,0.3261,0.310068,,,,,,
61408,0.091629,-0.025833,0.016648,-0.001062,-0.00106,-9.7e-05,0.087266,-0.0,-0.0,3.0,0.3261,0.341095,0.3261,0.310105,,,,,,
61428,0.091384,-0.025715,0.016761,-0.001037,9.7e-05,-0.00106,0.087266,-0.0,-0.0,3.0,0.3261,0.340962,0.3261,0.310256,,,,,,
61448,0.091257,-0.025713,0.016757,2.7e-05,9.7e-05,-0.00106,0.087266,-0.0,-0.0,3.0,0.3261,0.336687,0.3261,0.315024,,,,,,
61468,0.091016,-0.025584,0.016627,2.7e-05,9.7e-05,-0.00106,0.087266,-0.0,-0.0,3.0,0.3261,0.336549,0.3261,0.315176,,,,,,
61488,0.090893,-0.025705,0.016631,-0.001034,-0.000963,-0.001157,0.087266,-0.0,-0.0,3.0,0.3261,0.336401,0.3261,0.315338,,,,,,
61508,0.090892,-0.025943,0.01652,-0.001034,-0.000963,-0.001157,0.087266,-0.0,-0.0,3.0,0.3261,0.336468,0.3261,0.315265,,,,,,
61528,0.091014,-0.025944,0.016522,-0.001059,-0.00212,-0.000194,0.087266,-0.0,-0.0,3.0,0.3261,0.33663,0.3261,0.315088,,,,,,
61548,0.09077,-0.025942,0.016519,-0.002126,-0.00106,-9.6e-05,0.087266,-0.0,-0.0,3.0,0.3261,0.336587,0.3261,0.315134,,,,,,
61568,0.090527,-0.025819,0.016511,-0.002128,0.0,0.0,0.087266,-0.0,-0.0,3.0,0.3261,0.340675,0.3261,0.310582,,,,,,
61588,0.090164,-0.025573,0.016495,-0.001037,9.6e-05,-0.00106,0.087266,-0.0,-0.0,3.0,0.3261,0.340424,0.3261,0.310866,,,,,,
61608,0.089798,-0.02557,0.016491,2.5e-05,0.001155,-0.000965,0.087266,-0.0,-0.0,3.0,0.3261,0.340062,0.3261,0.311276,,,,,,
61628,0.089557,-0.025441,0.016361,2.7e-05,9.5e-05,-0.00106,0.087266,-0.0,-0.0,3.0,0.3261,0.335642,0.3261,0.316163,,,,,,
61648,0.089312,-0.025562,0.016364,2e-06,-0.00106,-9.5e-05,0.087266,-0.0,-0.0,3.0,0.3261,0.331115,0.3261,0.320978,,,,,,
61668,0.089312,-0.025562,0.016364,-0.001062,-0.00106,-9.5e-05,0.087266,-0.0,-0.0,3.0,0.3261,0.331154,0.3261,0.320938,,,,,,
61688,0.089188,-0.025805,0.016374,-0.002126,-0.00106,-9.5e-05,0.087266,-0.0,-0.0,3.0,0.3261,0.335424,0.3261,0.3164,,,,,,
61708,0.089311,-0.025683,0.01637,-0.001062,-0.00106,-9.5e-05,0.087266,-0.0,-0.0,3.0,0.3261,0.339932,0.3261,0.311422,,,,,,
61728,0.089431,-0.02569,0.016493,-0.001035,-0.000965,-0.001155,0.087266,-0.0,-0.0,3.0,0.3261,0.34007,0.3261,0.311266,,,,,,
61748,0.089189,-0.025444,0.016479,2.7e-05,9.5e-05,-0.00106,0.087266,-0.0,-0.0,3.0,0.3261,0.339787,0.3261,0.311584,,,,,,
61768,0.088945,-0.025443,0.016477,2.7e-05,9.5e-05,-0.00106,0.087266,-0.0,-0.0,3.0,0.3261,0.339719,0.3261,0.311662,,,,,,
61788,0.088944,-0.025448,0.016599,2.7e-05,9.5e-05,-0.00106,0.087266,-0.0,-0.0,3.0,0.3261,0.335486,0.3261,0.316332,,,,,,
61808,0.088942,-0.025453,0.016721,2.5e-05,0.001155,-0.000966,0.087266,-0.0,-0.0,3.0,0.3261,0.33542,0.3261,0.316404,,,,,,
61828,0.089063,-0.025576,0.016727,-0.001037,9.5e-05,-0.00106,0.087266,-0.0,-0.0,3.0,0.3261,0.33133,0.3261,0.320754,,,,,,
61848,0.089182,-0.025704,0.016856,-0.001035,-0.000965,-0.001155,0.087266,-0.0,-0.0,3.0,0.3261,0.335816,0.3261,0.315974,,,,,,
61868,0.089181,-0.02571,0.016978,-0.001032,-0.002025,-0.00125,0.087266,-0.0,-0.0,3.0,0.3261,0.339992,0.3261,0.311355,,,,,,
61888,0.089301,-0.025833,0.016985,5e-06,-0.00212,-0.00019,0.087266,-0.0,-0.0,3.0,0.3261,0.340228,0.3261,0.311087,,,,,,
61908,0.089301,-0.025716,0.017101,2e-06,-0.00106,-9.5e-05,0.087266,-0.0,-0.0,3.0,0.3261,0.340252,0.3261,0.311061,,,,,,
61928,0.089058,-0.025593,0.017093,2.7e-05,9.5e-05,-0.00106,0.087266,-0.0,-0.0,3.0,0.3261,0.340076,0.3261,0.311259,,,,,,
61948,0.088938,-0.025348,0.017081,-0.00104,0.001155,-0.000966,0.087266,-0.0,-0.0,3.0,0.3261,0.335753,0.3261,0.316043,,,,,,
61968,0.088937,-0.025353,0.017203,2.4e-05,0.001155,-0.000966,0.087266,-0.0,-0.0,3.0,0.3261,0.335795,0.3261,0.315997,,,,,,
61988,0.088937,-0.025353,0.017203,2.7e-05,9.5e-05,-0.00106,0.087266,-0.0,-0.0,3.0,0.3261,0.339991,0.3261,0.311355,,,,,,
62008,0.088937,-0.02547,0.017086,5e-06,-0.00212,-0.000189,0.087266,-0.0,-0.0,3.0,0.3261,0.340023,0.3261,0.311319,,,,,,
62028,0.089179,-0.025715,0.0171,5e-06,-0.00212,-0.00019,0.087266,-0.0,-0.0,3.0,0.3261,0.340244,0.3261,0.31107,,,,,,
62048,0.089178,-0.025837,0.017105,-0.001034,-0.000965,-0.001155,0.087266,-0.0,-0.0,3.0,0.3261,0.340277,0.3261,0.311033,,,,,,
62068,0.089424,-0.025712,0.016981,-0.001064,0.0,0.0,0.087266,-0.0,-0.0,3.0,0.3261,0.336271,0.3261,0.315479,,,,,,
62088,0.089306,-0.025461,0.016847,-0.001064,0.0,0.0,0.087266,-0.0,-0.0,3.0,0.3261,0.336203,0.3261,0.315553,,,,,,
62108,0.089062,-0.02546,0.016844,-0.001064,0.0,0.0,0.087266,-0.0,-0.0,3.0,0.3261,0.340293,0.3261,0.311014,,,,,,
62128,0.08882,-0.025453,0.016719,0.0,0.0,0.0,0.087266,-0.0,-0.0,3.0,0.3261,0.340116,0.3261,0.311215,,,,,,
62148,0.08882,-0.025453,0.016719,0.0,0.0,0.0,0.087266,-0.0,-0.0,3.0,0.3261,0.340243,0.3261,0.31107,,,,,,
62168,0.088942,-0.025453,0.016721,2.7e-05,9.5e-05,-0.00106,0.087266,-0.0,-0.0,3.0,0.3261,0.340391,0.3261,0.310904,,,,,,
62188,0.089187,-0.025572,0.016607,2.7e-05,9.5e-05,-0.00106,0.087266,-0.0,-0.0,3.0,0.3261,0.336383,0.3261,0.315357,,,,,,
62208,0.089189,-0.025444,0.016479,2.9e-05,-0.000965,-0.001155,0.087266,-0.0,-0.0,3.0,0.3261,0.33642,0.3261,0.315317,,,,,,
62228,0.089065,-0.025687,0.016489,-0.001035,-0.000965,-0.001155,0.087266,-0.0,-0.0,3.0,0.3261,0.336248,0.3261,0.315505,,,,,,
62248,0.089189,-0.025683,0.016368,-0.001062,-0.00106,-9.5e-05,0.087266,-0.0,-0.0,3.0,0.3261,0.336382,0.3261,0.315358,,,,,,
62268,0.089189,-0.025683,0.016368,-0.001062,-0.00106,-9.5e-05,0.087266,-0.0,-0.0,3.0,0.3261,0.332078,0.3261,0.31997,,,,,,
62288,0.088945,-0.025681,0.016366,-0.001064,0.0,0.0,0.087266,-0.0,-0.0,3.0,0.3261,0.33621,0.3261,0.315546,,,,,,
62308,0.088826,-0.025553,0.016237,-0.001064,0.0,0.0,0.087266,-0.0,-0.0,3.0,0.3261,0.344684,0.3261,0.305953,,,,,,
62328,0.089068,-0.025676,0.016245,2.7e-05,9.5e-05,-0.00106,0.087266,-0.0,-0.0,3.0,0.3261,0.344929,0.3261,0.305664,,,,,,
62348,0.088947,-0.025554,0.016238,2.7e-05,9.5e-05,-0.00106,0.087266,-0.0,-0.0,3.0,0.3261,0.344761,0.3261,0.305862,,,,,,
62368,0.088949,-0.025548,0.016116,0.001094,-0.000965,-0.001155,0.087266,-0.0,-0.0,3.0,0.3261,0.34061,0.3261,0.310656,,,,,,
62388,0.088826,-0.025669,0.01612,2e-06,-0.00106,-9.4e-05,0.087266,-0.0,-0.0,3.0,0.3261,0.336269,0.3261,0.315481,,,,,,
62408,0.088825,-0.025791,0.016126,-0.001034,-0.000966,-0.001155,0.087266,-0.0,-0.0,3.0,0.3261,0.331971,0.3261,0.320082,,,,,,
62428,0.08895,-0.025665,0.016,-0.002128,0.0,0.0,0.087266,-0.0,-0.0,3.0,0.3261,0.336449,0.3261,0.315285,,,,,,
62448,0.08895,-0.025665,0.016,-0.001064,0.0,0.0,0.087266,-0.0,-0.0,3.0,0.3261,0.336466,0.3261,0.315266,,,,,,
62468,0.088702,-0.025656,0.015872,-0.001062,-0.00106,-9.4e-05,0.087266,-0.0,-0.0,3.0,0.3261,0.34053,0.3261,0.310747,,,,,,
62488,0.08858,-0.025656,0.015871,2e-06,-0.00106,-9.4e-05,0.087266,-0.0,-0.0,3.0,0.3261,0.344741,0.3261,0.305885,,,,,,
62508,0.088582,-0.02565,0.015749,0.0,0.0,0.0,0.087266,-0.0,-0.0,3.0,0.3261,0.340584,0.3261,0.310685,,,,,,
62528,0.088583,-0.025528,0.015743,2.7e-05,9.4e-05,-0.00106,0.087266,-0.0,-0.0,3.0,0.3261,0.340611,0.3261,0.310654,,,,,,
62548,0.088585,-0.025401,0.015616,2.7e-05,9.4e-05,-0.00106,0.087266,-0.0,-0.0,3.0,0.3261,0.336287,0.3261,0.315461,,,,,,
62568,0.088585,-0.025401,0.015616,0.0,0.0,0.0,0.087266,-0.0,-0.0,3.0,0.3261,0.331994,0.3261,0.320058,,,,,,
62588,0.088464,-0.025517,0.015498,-0.001062,-0.00106,-9.4e-05,0.087266,-0.0,-0.0,3.0,0.3261,0.336238,0.3261,0.315515,,,,,,
62608,0.088707,-0.02564,0.015506,-0.001059,-0.00212,-0.000189,0.087266,-0.0,-0.0,3.0,0.3261,0.336465,0.3261,0.315267,,,,,,
62628,0.088706,-0.025762,0.015511,-0.001059,-0.00212,-0.000189,0.087266,-0.0,-0.0,3.0,0.3261,0.336585,0.3261,0.315136,,,,,,
62648,0.088586,-0.025517,0.015499,-0.001037,9.4e-05,-0.00106,0.087266,-0.0,-0.0,3.0,0.3261,0.340743,0.3261,0.310505,,,,,,
62668,0.088099,-0.025393,0.015488,-0.001037,9.4e-05,-0.00106,0.087266,-0.0,-0.0,3.0,0.3261,0.340341,0.3261,0.31096,,,,,,
62688,0.088101,-0.025149,0.015478,2.4e-05,0.001154,-0.000967,0.087266,-0.0,-0.0,3.0,0.3261,0.340371,0.3261,0.310927,,,,,,
62708,0.087979,-0.025148,0.015476,2.7e-05,9.4e-05,-0.00106,0.087266,-0.0,-0.0,3.0,0.3261,0.335935,0.3261,0.315845,,,,,,
62728,0.088099,-0.025393,0.015488,2e-06,-0.00106,-9.4e-05,0.087266,-0.0,-0.0,3.0,0.3261,0.331726,0.3261,0.32034,,,,,,
62748,0.088098,-0.025514,0.015494,-0.001059,-0.00212,-0.000187,0.087266,-0.0,-0.0,3.0,0.3261,0.331729,0.3261,0.320337,,,,,,
62768,0.088097,-0.025636,0.015499,-0.002099,-0.000966,-0.001154,0.087266,-0.0,-0.0,3.0,0.3261,0.336064,0.3261,0.315705,,,,,,
62788,0.087974,-0.025641,0.01562,-0.002126,-0.00106,-9.4e-05,0.087266,-0.0,-0.0,3.0,0.3261,0.340332,0.3261,0.31097,,,,,,
62808,0.087731,-0.025518,0.015612,-0.001035,-0.000967,-0.001154,0.087266,-0.0,-0.0,3.0,0.3261,0.340126,0.3261,0.311202,,,,,,
62828,0.087244,-0.025393,0.015601,-0.001037,9.3e-05,-0.001061,0.087266,-0.0,-0.0,3.0,0.3261,0.3396,0.3261,0.311795,,,,,,
62848,0.086755,-0.025395,0.015718,0.0,0.0,0.0,0.087266,-0.0,-0.0,3.0,0.3261,0.335004,0.3261,0.316854,,,,,,
62868,0.086631,-0.025399,0.015838,2.5e-05,0.001152,-0.000968,0.087266,-0.0,-0.0,3.0,0.3261,0.334888,0.3261,0.316979,,,,,,
62888,0.086508,-0.025521,0.015842,-0.00104,0.001152,-0.000969,0.087266,-0.0,-0.0,3.0,0.3261,0.334669,0.3261,0.317214,,,,,,
62908,0.086628,-0.025527,0.015966,-0.001037,9.2e-05,-0.001061,0.087266,-0.0,-0.0,3.0,0.3261,0.334874,0.3261,0.316993,,,,,,
62928,0.086505,-0.025531,0.016086,-0.001035,-0.000968,-0.001153,0.087266,-0.0,-0.0,3.0,0.3261,0.334748,0.3261,0.317129,,,,,,
62948,0.086382,-0.025652,0.01609,-0.001035,-0.000968,-0.001152,0.087266,-0.0,-0.0,3.0,0.3261,0.338806,0.3261,0.312684,,,,,,
62968,0.086379,-0.02578,0.016217,-0.001032,-0.002029,-0.001244,0.087266,-0.0,-0.0,3.0,0.3261,0.338777,0.3261,0.312716,,,,,,
62988,0.086503,-0.025536,0.016208,-0.001062,-0.00106,-9.2e-05,0.087266,-0.0,-0.0,3.0,0.3261,0.334686,0.3261,0.317196,,,,,,
63008,0.086499,-0.025669,0.016457,-0.001037,9.2e-05,-0.001061,0.087266,-0.0,-0.0,3.0,0.3261,0.334656,0.3261,0.317228,,,,,,
63028,0.086376,-0.025551,0.016573,-0.001039,0.001152,-0.000969,0.087266,-0.0,-0.0,3.0,0.3261,0.334541,0.3261,0.317351,,,,,,
63048,0.086254,-0.025434,0.016688,-0.00104,0.001152,-0.000969,0.087266,-0.0,-0.0,3.0,0.3261,0.338715,0.3261,0.312785,,,,,,
63068,0.086374,-0.02544,0.016811,2.7e-05,9.2e-05,-0.001061,0.087266,-0.0,-0.0,3.0,0.3261,0.338814,0.3261,0.312675,,,,,,
63088,0.08637,-0.025572,0.017061,2.9e-05,-0.000968,-0.001152,0.087266,-0.0,-0.0,3.0,0.3261,0.338794,0.3261,0.312697,,,,,,
63108,0.086125,-0.025576,0.01718,3.2e-05,-0.002029,-0.001244,0.087266,-0.0,-0.0,3.0,0.3261,0.334263,0.3261,0.31765,,,,,,
63128,0.086,-0.025702,0.017306,-0.001035,-0.000969,-0.001152,0.087266,-0.0,-0.0,3.0,0.3261,0.334122,0.3261,0.317801,,,,,,
63148,0.085998,-0.025591,0.017545,-0.002099,-0.000969,-0.001152,0.087266,-0.0,-0.0,3.0,0.3261,0.334097,0.3261,0.317828,,,,,,
63168,0.086118,-0.025597,0.017668,-0.002101,9.2e-05,-0.001061,0.087266,-0.0,-0.0,3.0,0.3261,0.334177,0.3261,0.317742,,,,,,
63188,0.086116,-0.025486,0.017907,-0.001037,9.2e-05,-0.001061,0.087266,-0.0,-0.0,3.0,0.3261,0.338449,0.3261,0.313081,,,,,,
63208,0.085869,-0.025611,0.018031,-0.001037,9.1e-05,-0.001061,0.087266,-0.0,-0.0,3.0,0.3261,0.342326,0.3261,0.308696,,,,,,
63228,0.085744,-0.02562,0.018274,2e-06,-0.00106,-9.1e-05,0.087266,-0.0,-0.0,3.0,0.3261,0.342291,0.3261,0.308737,,,,,,
63248,0.085863,-0.025632,0.018519,2.7e-05,9.1e-05,-0.001061,0.087266,-0.0,-0.0,3.0,0.3261,0.338145,0.3261,0.313419,,,,,,
63268,0.08574,-0.025514,0.018634,2.7e-05,9.1e-05,-0.001061,0.087266,-0.0,-0.0,3.0,0.3261,0.333712,0.3261,0.318239,,,,,,
63288,0.085613,-0.025512,0.01863,2.7e-05,9.1e-05,-0.001061,0.087266,-0.0,-0.0,3.0,0.3261,0.333583,0.3261,0.318377,,,,,,
63308,0.085493,-0.025389,0.018623,-0.001037,9.1e-05,-0.001061,0.087266,-0.0,-0.0,3.0,0.3261,0.333335,0.3261,0.318641,,,,,,
63328,0.085492,-0.025627,0.018512,-0.001062,-0.00106,-9.1e-05,0.087266,-0.0,-0.0,3.0,0.3261,0.333201,0.3261,0.318783,,,,,,
63348,0.085743,-0.025626,0.018396,-0.001062,-0.00106,-9.1e-05,0.087266,-0.0,-0.0,3.0,0.3261,0.333493,0.3261,0.318472,,,,,,
63368,0.085621,-0.025741,0.018278,-0.001087,-0.002212,0.000879,0.087266,-0.0,-0.0,3.0,0.3261,0.333454,0.3261,0.318515,,,,,,
63388,0.085497,-0.025612,0.018146,-0.001062,-0.00106,-9.1e-05,0.087266,-0.0,-0.0,3.0,0.3261,0.337605,0.3261,0.314016,,,,,,
63408,0.085253,-0.02561,0.018143,-0.001039,0.001151,-0.00097,0.087266,-0.0,-0.0,3.0,0.3261,0.337365,0.3261,0.31428,,,,,,
63428,0.085257,-0.025361,0.018011,2.5e-05,0.001151,-0.00097,0.087266,-0.0,-0.0,3.0,0.3261,0.337336,0.3261,0.314313,,,,,,
63448,0.085381,-0.025235,0.017885,2.7e-05,9.1e-05,-0.001061,0.087266,-0.0,-0.0,3.0,0.3261,0.337313,0.3261,0.314337,,,,,,
63468,0.085382,-0.025351,0.017768,2.9e-05,-0.00097,-0.001151,0.087266,-0.0,-0.0,3.0,0.3261,0.33298,0.3261,0.319018,,,,,,
63488,0.085381,-0.025473,0.017773,-0.00106,-0.002121,-0.000182,0.087266,-0.0,-0.0,3.0,0.3261,0.332944,0.3261,0.319056,,,,,,
63508,0.085622,-0.025719,0.017786,-0.00106,-0.002121,-0.000182,0.087266,-0.0,-0.0,3.0,0.3261,0.333105,0.3261,0.318885,,,,,,
63528,0.085623,-0.025597,0.017781,-0.001062,-0.00106,-9.1e-05,0.087266,-0.0,-0.0,3.0,0.3261,0.337489,0.3261,0.314144,,,,,,
63548,0.085749,-0.025722,0.017791,-0.001037,9.1e-05,-0.001061,0.087266,-0.0,-0.0,3.0,0.3261,0.337557,0.3261,0.314069,,,,,,
63568,0.085502,-0.025358,0.017891,2.7e-05,9.1e-05,-0.001061,0.087266,-0.0,-0.0,3.0,0.3261,0.337308,0.3261,0.314343,,,,,,
63588,0.085259,-0.025234,0.017884,2.4e-05,0.001151,-0.00097,0.087266,-0.0,-0.0,3.0,0.3261,0.341325,0.3261,0.309842,,,,,,
63608,0.085381,-0.025118,0.018002,2.7e-05,9.1e-05,-0.001061,0.087266,-0.0,-0.0,3.0,0.3261,0.337053,0.3261,0.314624,,,,,,
63628,0.085501,-0.025363,0.018013,2e-06,-0.00106,-9.1e-05,0.087266,-0.0,-0.0,3.0,0.3261,0.332924,0.3261,0.319077,,,,,,
63648,0.085498,-0.02549,0.018141,2.9e-05,-0.000969,-0.001152,0.087266,-0.0,-0.0,3.0,0.3261,0.328499,0.3261,0.323677,,,,,,
63668,0.085371,-0.025621,0.018388,-0.001035,-0.00097,-0.001151,0.087266,-0.0,-0.0,3.0,0.3261,0.332742,0.3261,0.31927,,,,,,
63688,0.085618,-0.025752,0.018522,-0.001035,-0.000969,-0.001152,0.087266,-0.0,-0.0,3.0,0.3261,0.337229,0.3261,0.31443,,,,,,
63708,0.08586,-0.025759,0.018646,-0.001035,-0.000969,-0.001152,0.087266,-0.0,-0.0,3.0,0.3261,0.337409,0.3261,0.314232,,,,,,
63728,0.085489,-0.025638,0.018756,3e-05,-0.000969,-0.001152,0.087266,-0.0,-0.0,3.0,0.3261,0.336941,0.3261,0.314746,,,,,,
63748,0.085248,-0.025509,0.018626,2e-06,-0.00106,-9.1e-05,0.087266,-0.0,-0.0,3.0,0.3261,0.336806,0.3261,0.314895,,,,,,
63768,0.085371,-0.025388,0.018622,0.0,0.0,0.0,0.087266,-0.0,-0.0,3.0,0.3261,0.336772,0.3261,0.314932,,,,,,
63788,0.08537,-0.025626,0.01851,-0.001067,0.00106,9.1e-05,0.087266,-0.0,-0.0,3.0,0.3261,0.332418,0.3261,0.319611,,,,,,
63808,0.085615,-0.025506,0.018508,-0.001064,0.0,0.0,0.087266,-0.0,-0.0,3.0,0.3261,0.332725,0.3261,0.319287,,,,,,
63828,0.085493,-0.025622,0.01839,2e-06,-0.00106,-9.1e-05,0.087266,-0.0,-0.0,3.0,0.3261,0.332583,0.3261,0.319438,,,,,,
63848,0.085493,-0.025622,0.01839,3e-05,-0.000969,-0.001152,0.087266,-0.0,-0.0,3.0,0.3261,0.336767,0.3261,0.314937,,,,,,
63868,0.085495,-0.025617,0.018268,3.2e-05,-0.00203,-0.001242,0.087266,-0.0,-0.0,3.0,0.3261,0.336726,0.3261,0.314982,,,,,,
63888,0.085745,-0.025499,0.018269,5e-06,-0.002121,-0.000182,0.087266,-0.0,-0.0,3.0,0.3261,0.332589,0.3261,0.319431,,,,,,
63908,0.085618,-0.025496,0.018264,-0.001064,0.0,0.0,0.087266,-0.0,-0.0,3.0,0.3261,0.332434,0.3261,0.319594,,,,,,
63928,0.085618,-0.025379,0.018381,-0.00104,0.001151,-0.00097,0.087266,-0.0,-0.0,3.0,0.3261,0.332512,0.3261,0.319513,,,,,,
63948,0.085372,-0.025383,0.0185,-0.001067,0.00106,9.1e-05,0.087266,-0.0,-0.0,3.0,0.3261,0.336592,0.3261,0.315128,,,,,,
63968,0.085493,-0.025389,0.018623,2.7e-05,9.1e-05,-0.001061,0.087266,-0.0,-0.0,3.0,0.3261,0.336676,0.3261,0.315037,,,,,,
63988,0.085368,-0.025515,0.018749,2.7e-05,9.1e-05,-0.001061,0.086864,-0.0,-0.0,3.0,0.3261,0.336903,0.3261,0.314788,,,,,,
64008,0.085367,-0.025398,0.018866,0.001093,-0.00097,-0.001151,0.086124,-0.0,-0.0,3.0,0.3261,0.33323,0.3261,0.318752,,,,,,
64028,0.085367,-0.025398,0.018866,3.2e-05,-0.00203,-0.001242,0.085306,-0.0,-0.0,3.0,0.3261,0.33395,0.3261,0.317985,,,,,,
64048,0.085369,-0.025393,0.018744,-0.001035,-0.00097,-0.001151,0.084873,-0.0,-0.0,3.0,0.3261,0.329864,0.3261,0.322277,,,,,,
64068,0.085619,-0.025513,0.018633,-0.002128,0.0,0.0,0.084014,-0.0,-0.0,3.0,0.3261,0.330886,0.3261,0.321217,,,,,,
64088,0.08562,-0.025391,0.018628,-0.002128,0.0,0.0,0.083608,-0.0,-0.0,3.0,0.3261,0.335627,0.3261,0.316179,,,,,,
64108,0.085493,-0.025389,0.018623,-0.002126,-0.00106,-9.1e-05,0.082924,-0.0,-0.0,3.0,0.3261,0.340526,0.3261,0.310751,,,,,,
