time_ms,roll,pitch,yaw,reference_roll,reference_pitch,reference_yaw,reference_throttle,throttle_1,throttle_2,throttle_3,throttle_4,roll_predicted,pitch_predicted,yaw_predicted,roll_rate_predicted,pitch_rate_predicted,yaw_rate_predicted,value1,value2,value3,value4,value5,value6
185766,0.003877,-0.000354,-1.52171,0.0,-0.0,-0.0,3.0,0.341847,0.317767,0.309245,0.334154,0.0,0.0,-0.014968,-0.0,-0.0,-0.000245,-0.004752,0.001091,-1.381622,0.005551,-5.4e-05,-0.008195
185786,0.004041,-0.000703,-1.522064,2.6e-05,-0.0,-0.0,3.0,0.341973,0.317804,0.309101,0.33412,0.0,0.0,-0.014973,3e-05,-0.0,-0.000245,-0.004696,0.00109,-1.381786,0.002365,-7.1e-05,-0.008197
185806,0.003953,-0.000787,-1.522241,0.001858,-0.0,-0.0,3.0,0.341512,0.316886,0.309629,0.334974,6e-06,0.0,-0.014978,0.002173,-0.0,-0.000245,-0.004665,0.001089,-1.38195,0.00074,-7.9e-05,-0.008216
185826,0.003864,-0.000871,-1.522423,0.003713,-0.0,-0.0,3.0,0.341994,0.315928,0.309077,0.335859,7.7e-05,-0.0,-0.014983,0.006549,-0.0,-0.000245,-0.004658,0.001087,-1.382114,-0.000562,-8.8e-05,-0.0082
185846,0.00378,-0.000782,-1.522595,0.004855,-0.0,-0.0,3.0,0.341964,0.315437,0.309112,0.33631,0.000234,-0.0,-0.014988,0.009888,-0.0,-0.000245,-0.004652,0.001086,-1.382278,-0.003004,-8.7e-05,-0.008201
185866,0.003696,-0.000694,-1.522599,0.006376,-0.0,-0.0,3.0,0.341004,0.31485,0.310208,0.336846,0.000446,-0.0,-0.014993,0.012301,-0.0,-0.000245,-0.004654,0.001085,-1.382442,-0.002849,-5.2e-05,-0.008202
185886,0.003696,-0.000693,-1.522772,0.00878,-0.0,-0.0,3.0,0.339744,0.313865,0.311633,0.337742,0.000712,-0.0,-0.014997,0.016124,-0.0,-0.000245,-0.00466,0.001084,-1.382606,-0.002663,-1.8e-05,-0.008186
185906,0.003869,-0.000697,-1.522953,0.010174,-0.0,-0.0,3.0,0.338712,0.313495,0.312789,0.338077,0.001063,-0.0,-0.015002,0.019941,-0.0,-0.000245,-0.004652,0.001084,-1.38277,0.000792,-1e-05,-0.008187
185926,0.003953,-0.000785,-1.523129,0.012348,-0.0,-0.0,3.0,0.336307,0.312747,0.31544,0.338749,0.00148,-0.0,-0.015007,0.023176,-1e-06,-0.000245,-0.004605,0.001083,-1.382934,0.002513,-1e-05,-0.008206
185946,0.003953,-0.000785,-1.523479,0.013948,-0.0,-0.0,3.0,0.335594,0.312238,0.316216,0.339205,0.001966,-0.0,-0.015012,0.026477,-1e-06,-0.000245,-0.004534,0.001082,-1.383099,0.003837,-2.8e-05,-0.008207
185966,0.004126,-0.000788,-1.523659,0.015205,-0.0,-0.0,3.0,0.33589,0.311613,0.315894,0.339762,0.002511,-0.0,-0.015017,0.028693,-1e-06,-0.000245,-0.004471,0.001081,-1.383263,0.004081,-5.3e-05,-0.008226
185986,0.004303,-0.000619,-1.523835,0.017031,-0.0,-0.0,3.0,0.335829,0.31105,0.31596,0.340262,0.003096,-0.0,-0.015022,0.030992,-1e-06,-0.000245,-0.004387,0.001079,-1.383428,0.006433,-6.3e-05,-0.008227
186006,0.004307,-0.000446,-1.524011,0.018805,-0.0,-0.0,3.0,0.335878,0.310214,0.315907,0.340999,0.003734,-0.0,-0.015027,0.033969,-1e-06,-0.000245,-0.004297,0.001078,-1.383592,0.006473,-3.7e-05,-0.008228
186026,0.004395,-0.000362,-1.524188,0.020791,-0.0,-0.0,3.0,0.337231,0.308961,0.314428,0.342095,0.004432,-0.0,-0.015032,0.037091,-1e-06,-0.000245,-0.004241,0.001077,-1.383757,0.003354,-3.6e-05,-0.00823
186046,0.004656,-0.000281,-1.524364,0.021866,-0.0,-0.0,3.0,0.338717,0.308455,0.312783,0.342535,0.00519,-0.0,-0.015037,0.03922,-2e-06,-0.000245,-0.004198,0.001077,-1.383921,0.005114,-3.6e-05,-0.008231
186066,0.004913,-0.000373,-1.524544,0.02381,-0.0,-0.0,3.0,0.339959,0.307796,0.311391,0.343105,0.005982,-0.0,-0.015042,0.041106,-2e-06,-0.000245,-0.004112,0.001076,-1.384086,0.007446,-4.6e-05,-0.008232
186086,0.004993,-0.000633,-1.524893,0.024828,-0.0,-0.0,3.0,0.343038,0.307554,0.307874,0.343314,0.006818,-0.0,-0.015046,0.042979,-2e-06,-0.000245,-0.003984,0.001075,-1.38425,0.00795,-8e-05,-0.008251
186106,0.005331,-0.000985,-1.525246,0.027745,-0.0,-0.0,3.0,0.344348,0.3064,0.306348,0.344303,0.007688,-0.0,-0.015051,0.045947,-2e-06,-0.000245,-0.003834,0.001074,-1.384415,0.007005,-0.000106,-0.008252
186126,0.00576,-0.001081,-1.525422,0.028912,-0.0,-0.0,3.0,0.342814,0.306181,0.308133,0.344489,0.008633,-0.0,-0.015056,0.049097,-3e-06,-0.000245,-0.003651,0.001072,-1.38458,0.008068,-9.8e-05,-0.008253
186146,0.006025,-0.000828,-1.525425,0.030645,-0.0,-0.0,3.0,0.341154,0.305681,0.310037,0.344915,0.009622,-0.0,-0.015061,0.050631,-3e-06,-0.000245,-0.003421,0.001071,-1.384746,0.007344,-8.1e-05,-0.008255
186166,0.006551,-0.000494,-1.525599,0.032353,-0.0,-0.0,3.0,0.337907,0.305395,0.313683,0.345157,0.010644,-0.0,-0.015066,0.052552,-3e-06,-0.000245,-0.00316,0.00107,-1.384911,0.012155,-3.9e-05,-0.008256
186186,0.006985,-0.000416,-1.525946,0.034058,-0.0,-0.0,3.0,0.339258,0.30542,0.312178,0.345136,0.011707,-0.0,-0.015071,0.05463,-3e-06,-0.000245,-0.0028,0.001069,-1.385076,0.016719,-2.3e-05,-0.008256
186206,0.007671,-0.000604,-1.526121,0.035188,-0.0,-0.0,3.0,0.340763,0.305492,0.310483,0.345075,0.012809,-0.0,-0.015076,0.055945,-4e-06,-0.000245,-0.002384,0.001069,-1.385241,0.021629,-3.3e-05,-0.008275
186226,0.008703,-0.000798,-1.526297,0.03661,-0.0,-0.0,3.0,0.341837,0.30564,0.309257,0.344949,0.01393,-0.0,-0.015081,0.05679,-4e-06,-0.000245,-0.001886,0.001068,-1.385406,0.028907,-5.3e-05,-0.008275
186246,0.009907,-0.000997,-1.526469,0.038163,-0.0,-0.0,3.0,0.340747,0.30594,0.3105,0.344695,0.015072,-0.0,-0.015086,0.058154,-4e-06,-0.000245,-0.001267,0.001067,-1.385572,0.036947,-5.5e-05,-0.008276
186266,0.0112,-0.001111,-1.526812,0.040454,-0.0,-0.0,3.0,0.340504,0.306015,0.310776,0.344631,0.016246,-0.0,-0.015091,0.060589,-4e-06,-0.000245,-0.000515,0.001066,-1.385738,0.043129,-7.5e-05,-0.008294
186286,0.012581,-0.001139,-1.526984,0.041564,-0.0,-0.0,3.0,0.338883,0.306591,0.312598,0.34414,0.017473,-0.0,-0.015095,0.062462,-5e-06,-0.000245,0.00036,0.001064,-1.385903,0.048881,-6.9e-05,-0.008295
186306,0.014315,-0.00083,-1.527319,0.043417,-0.0,-0.0,3.0,0.337199,0.307204,0.314464,0.343615,0.018725,-0.0,-0.0151,0.063551,-5e-06,-0.000245,0.001372,0.001063,-1.386069,0.058679,-5.5e-05,-0.008294
186326,0.016217,-0.000697,-1.527483,0.044998,-0.0,-0.0,3.0,0.338509,0.308176,0.313014,0.342777,0.020004,-0.0,-0.015105,0.065141,-5e-06,-0.000245,0.002573,0.001062,-1.386235,0.067106,-3.3e-05,-0.008311
186346,0.01812,-0.000563,-1.527814,0.046571,-0.0,-0.0,3.0,0.337969,0.308987,0.313614,0.342073,0.021314,-0.0,-0.01511,0.066507,-6e-06,-0.000245,0.003931,0.001061,-1.386402,0.074542,-2e-05,-0.00831
186366,0.020364,-0.00061,-1.527968,0.047348,-0.0,-0.0,3.0,0.336387,0.310128,0.315353,0.341075,0.022647,-0.0,-0.015115,0.066816,-6e-06,-0.000245,0.005434,0.001061,-1.386568,0.081202,2e-06,-0.008327
186386,0.022608,-0.000653,-1.528468,0.049222,-0.0,-0.0,3.0,0.337436,0.310972,0.314202,0.340331,0.02398,-0.0,-0.01512,0.067383,-6e-06,-0.000245,0.007099,0.00106,-1.386735,0.086692,-1.9e-05,-0.008343
186406,0.024759,-0.000954,-1.528625,0.049222,-0.0,-0.0,3.0,0.336818,0.312532,0.314882,0.338942,0.025332,-0.0,-0.015125,0.067206,-7e-06,-0.000245,0.008897,0.001059,-1.386902,0.092735,-4e-05,-0.008359
186426,0.027264,-0.000916,-1.528943,0.051946,-0.0,-0.0,3.0,0.336979,0.313015,0.314705,0.338509,0.026667,-0.0,-0.01513,0.067911,-7e-06,-0.000245,0.010821,0.001058,-1.387069,0.098216,-7.1e-05,-0.008375
186446,0.029858,-0.000794,-1.529251,0.053345,-0.0,-0.0,3.0,0.335761,0.314321,0.316034,0.337328,0.028044,-0.0,-0.015135,0.070392,-7e-06,-0.000245,0.01289,0.001056,-1.387236,0.106532,-6.7e-05,-0.008389
186466,0.032712,-0.00059,-1.52955,0.055187,-0.0,-0.0,3.0,0.335888,0.315436,0.315896,0.336311,0.029458,-0.0,-0.01514,0.071807,-8e-06,-0.000245,0.015099,0.001054,-1.387404,0.118821,-5.6e-05,-0.008385
186486,0.035743,-0.000216,-1.529837,0.056021,-0.0,-0.0,3.0,0.335901,0.316962,0.315882,0.334903,0.030898,-0.0,-0.015144,0.072167,-8e-06,-0.000245,0.017486,0.001053,-1.387572,0.124041,-2.6e-05,-0.008398
186506,0.038857,7.2e-05,-1.530122,0.057416,-0.0,-0.0,3.0,0.335442,0.318335,0.31638,0.333622,0.032336,-0.0,-0.015149,0.072023,-8e-06,-0.000245,0.020012,0.001053,-1.38774,0.132091,3e-06,-0.008427
186526,0.042136,1.2e-05,-1.530403,0.058787,-0.0,-0.0,3.0,0.337924,0.319864,0.313663,0.332179,0.033777,-0.0,-0.015154,0.072609,-9e-06,-0.000245,0.022699,0.001053,-1.387909,0.140172,-3e-06,-0.008438
186546,0.045582,-0.000393,-1.530856,0.060281,-0.0,-0.0,3.0,0.342578,0.3212,0.308405,0.330902,0.035232,-0.0,-0.015159,0.073433,-9e-06,-0.000245,0.025532,0.001053,-1.388078,0.144988,-5.2e-05,-0.008468
186566,0.048856,-0.000793,-1.531308,0.060281,-0.0,-0.0,3.0,0.345072,0.323246,0.305496,0.328921,0.036699,-0.0,-0.015164,0.072571,-9e-06,-0.000245,0.028497,0.001052,-1.388247,0.151565,-9.3e-05,-0.008478
186586,0.051961,-0.00102,-1.53158,0.062632,-0.0,-0.0,3.0,0.343274,0.323836,0.307601,0.328343,0.038137,-0.0,-0.015169,0.072519,-1e-05,-0.000245,0.031542,0.001051,-1.388417,0.152398,-9.8e-05,-0.008488
186606,0.05524,-0.001075,-1.531841,0.063563,-0.0,-0.0,3.0,0.34215,0.32479,0.308899,0.327404,0.039599,-0.0,-0.015174,0.073851,-1e-05,-0.000245,0.034608,0.001049,-1.388587,0.153052,-8.6e-05,-0.008515
186626,0.058097,-0.000862,-1.532271,0.064933,-0.0,-0.0,3.0,0.341562,0.325496,0.309572,0.326703,0.041074,-0.0,-0.015179,0.074026,-1e-05,-0.000245,0.037695,0.001048,-1.388757,0.153394,-7.4e-05,-0.008523
186646,0.06104,-0.000396,-1.53234,0.065911,-0.0,-0.0,3.0,0.337991,0.326288,0.313589,0.325912,0.042552,-0.0,-0.015184,0.07394,-1.1e-05,-0.000245,0.040779,0.001047,-1.388927,0.150353,-1.8e-05,-0.00853
186666,0.063462,-0.000261,-1.532604,0.06711,-0.0,-0.0,3.0,0.336469,0.326483,0.315263,0.325717,0.044027,-0.0,-0.015189,0.073774,-1.1e-05,-0.000245,0.043796,0.001047,-1.389098,0.144675,3e-05,-0.008538
186686,0.065713,-0.000126,-1.532868,0.068271,-0.0,-0.0,3.0,0.336396,0.326427,0.315343,0.325773,0.0455,-0.0,-0.015194,0.07386,-1.2e-05,-0.000245,0.046682,0.001047,-1.389269,0.140655,4.3e-05,-0.008529
186706,0.067784,-0.000154,-1.533147,0.069398,-0.0,-0.0,3.0,0.335645,0.326035,0.31616,0.326165,0.046975,-0.0,-0.015198,0.073891,-1.2e-05,-0.000245,0.049422,0.001048,-1.389439,0.133897,3.9e-05,-0.008539
186726,0.069512,-0.000183,-1.533258,0.069949,-0.0,-0.0,3.0,0.337151,0.32534,0.314516,0.326858,0.048448,-0.0,-0.015203,0.073174,-1.2e-05,-0.000245,0.051962,0.001048,-1.38961,0.121578,1.1e-05,-0.008552
186746,0.070889,-0.00037,-1.533565,0.070854,-0.0,-0.0,3.0,0.337393,0.324326,0.31425,0.327861,0.049901,-0.0,-0.015208,0.072153,-1.3e-05,-0.000245,0.054267,0.001047,-1.389782,0.108866,-2.5e-05,-0.008566
186766,0.071927,-0.00038,-1.533875,0.072123,-0.0,-0.0,3.0,0.337407,0.323166,0.314234,0.329,0.051339,-0.0,-0.015213,0.072066,-1.3e-05,-0.000245,0.056343,0.001046,-1.389953,0.09701,-4.3e-05,-0.00858
186786,0.072618,-0.000386,-1.534025,0.073555,-0.0,-0.0,3.0,0.339605,0.321394,0.31179,0.330716,0.052781,-0.0,-0.015218,0.07272,-1.3e-05,-0.000245,0.05815,0.001046,-1.390124,0.079365,-6.1e-05,-0.008579
186806,0.073051,-0.000295,-1.534358,0.074239,-0.0,-0.0,3.0,0.341684,0.319816,0.309433,0.332224,0.054236,-0.0,-0.015223,0.072615,-1.4e-05,-0.000245,0.05965,0.001045,-1.390296,0.067155,-5.3e-05,-0.008577
186826,0.073311,-0.000207,-1.534521,0.075286,-0.0,-0.0,3.0,0.341175,0.318137,0.310014,0.333808,0.055679,-0.0,-0.015228,0.071878,-1.4e-05,-0.000245,0.060892,0.001045,-1.390467,0.053847,-9e-06,-0.008575
186846,0.073311,-0.000201,-1.534697,0.076205,-0.0,-0.0,3.0,0.342317,0.316413,0.308706,0.335412,0.057112,-0.0,-0.015233,0.071471,-1.4e-05,-0.000245,0.061871,0.001045,-1.390639,0.040531,9e-06,-0.008575
186866,0.073224,-0.000279,-1.534879,0.077088,-0.0,-0.0,3.0,0.341406,0.314889,0.30975,0.336811,0.058536,-0.0,-0.015238,0.071009,-1.5e-05,-0.000245,0.062614,0.001046,-1.39081,0.031586,1.8e-05,-0.008574
186886,0.073221,-0.000445,-1.535062,0.077951,-0.0,-0.0,3.0,0.339891,0.31352,0.311467,0.338054,0.05995,-0.0,-0.015243,0.070449,-1.5e-05,-0.000245,0.063178,0.001046,-1.390982,0.022688,1e-05,-0.008576
186906,0.073478,-0.00053,-1.535231,0.078555,-0.0,-0.0,3.0,0.339025,0.312605,0.312439,0.338877,0.061352,-0.0,-0.015247,0.069575,-1.5e-05,-0.000245,0.063592,0.001046,-1.391154,0.019345,-7e-06,-0.008576
186926,0.07356,-0.00079,-1.535237,0.078555,-0.0,-0.0,3.0,0.337645,0.312435,0.313972,0.339029,0.062732,-0.0,-0.015252,0.067716,-1.6e-05,-0.000245,0.063958,0.001045,-1.391325,0.017874,-1.6e-05,-0.008576
186946,0.073996,-0.000533,-1.535387,0.079992,-0.0,-0.0,3.0,0.335054,0.311683,0.316799,0.3397,0.064071,-0.0,-0.015257,0.066826,-1.6e-05,-0.000245,0.06428,0.001044,-1.391497,0.01583,-1.5e-05,-0.008576
186966,0.074438,7e-05,-1.535523,0.080668,-0.0,-0.0,3.0,0.333413,0.311533,0.318558,0.339833,0.065409,-0.0,-0.015262,0.066974,-1.6e-05,-0.000245,0.06461,0.001044,-1.391668,0.014927,1.1e-05,-0.008574
186986,0.074958,0.00024,-1.535672,0.081186,-0.0,-0.0,3.0,0.334514,0.311797,0.317381,0.339599,0.066741,-0.0,-0.015267,0.06602,-1.7e-05,-0.000245,0.064968,0.001044,-1.39184,0.019543,2.8e-05,-0.008588
187006,0.075655,0.00041,-1.535987,0.081831,-0.0,-0.0,3.0,0.337835,0.312171,0.313761,0.339264,0.068051,-0.0,-0.015272,0.064803,-1.7e-05,-0.000245,0.065398,0.001044,-1.392011,0.024201,1.9e-05,-0.008586
187026,0.076433,0.000496,-1.536304,0.082456,-0.0,-0.0,3.0,0.341187,0.312705,0.31,0.338787,0.069338,-0.0,-0.015277,0.063861,-1.7e-05,-0.000245,0.06591,0.001045,-1.392183,0.02903,1.8e-05,-0.008583
187046,0.077546,5.2e-05,-1.536452,0.083039,-0.0,-0.0,3.0,0.343242,0.313297,0.307638,0.338255,0.070607,-0.0,-0.015282,0.062948,-1.7e-05,-0.000245,0.066504,0.001046,-1.392355,0.033897,8e-06,-0.008597
187066,0.078836,-0.000392,-1.536765,0.083612,-0.0,-0.0,3.0,0.344171,0.314046,0.306555,0.337578,0.071858,-0.0,-0.015287,0.061968,-1.8e-05,-0.000245,0.067207,0.001047,-1.392527,0.039507,-1.9e-05,-0.008594
187086,0.080132,-0.000489,-1.537063,0.084034,-0.0,-0.0,3.0,0.342037,0.315068,0.309028,0.336647,0.073088,-0.0,-0.015292,0.060818,-1.8e-05,-0.000245,0.068045,0.001047,-1.392699,0.044597,-2e-05,-0.008607
187106,0.081509,-0.000678,-1.537188,0.084456,-0.0,-0.0,3.0,0.342563,0.316016,0.308423,0.335777,0.074294,-0.0,-0.015297,0.059521,-1.8e-05,-0.000245,0.068991,0.001046,-1.392871,0.050533,-3.8e-05,-0.00862
187126,0.082896,-0.000518,-1.53747,0.085036,-0.0,-0.0,3.0,0.339645,0.316923,0.311745,0.334939,0.075474,-0.0,-0.015302,0.058456,-1.9e-05,-0.000245,0.070055,0.001046,-1.393043,0.054888,-2.2e-05,-0.008613
187146,0.084542,-0.000276,-1.537736,0.085255,-0.0,-0.0,3.0,0.338655,0.31831,0.312852,0.333646,0.076635,-0.0,-0.015306,0.057234,-1.9e-05,-0.000245,0.071232,0.001045,-1.393216,0.063645,2e-06,-0.008622
187166,0.086273,4.8e-05,-1.53782,0.085713,-0.0,-0.0,3.0,0.336808,0.31944,0.314892,0.332581,0.077767,-0.0,-0.015311,0.055861,-1.9e-05,-0.000245,0.072541,0.001046,-1.393388,0.069495,5.1e-05,-0.008612
187186,0.088004,0.000203,-1.538082,0.086041,-0.0,-0.0,3.0,0.335898,0.32038,0.315886,0.331688,0.078875,-0.0,-0.015316,0.054661,-1.9e-05,-0.000245,0.073936,0.001047,-1.393561,0.072923,7.5e-05,-0.008621
187206,0.089823,0.000444,-1.538334,0.086328,-0.0,-0.0,3.0,0.333276,0.321342,0.318703,0.330766,0.079958,-0.0,-0.015321,0.053338,-2e-05,-0.000245,0.075409,0.001048,-1.393733,0.075287,0.0001,-0.008647
187226,0.091545,0.000259,-1.538611,0.086459,-0.0,-0.0,3.0,0.336034,0.322444,0.315738,0.329702,0.081013,-0.0,-0.015326,0.051796,-2e-05,-0.000245,0.076957,0.001049,-1.393906,0.080031,6.3e-05,-0.008658
187246,0.093274,7.5e-05,-1.539057,0.086695,-0.0,-0.0,3.0,0.337262,0.323342,0.314394,0.328827,0.082036,-0.0,-0.015331,0.050238,-2e-05,-0.000245,0.078563,0.001049,-1.39408,0.080374,1.9e-05,-0.008669
187266,0.094908,-0.000201,-1.539165,0.086855,-0.0,-0.0,3.0,0.339344,0.324159,0.312082,0.328025,0.08303,-0.0,-0.015336,0.048791,-2e-05,-0.000245,0.080189,0.001049,-1.394253,0.082867,-2.6e-05,-0.00868
187286,0.096465,-0.000213,-1.539436,0.087059,-0.0,-0.0,3.0,0.338536,0.324681,0.312984,0.327511,0.083994,-0.0,-0.015341,0.047369,-2e-05,-0.000245,0.081814,0.001049,-1.394427,0.084328,-2.7e-05,-0.008689
187306,0.098112,-0.000144,-1.539694,0.087121,-0.0,-0.0,3.0,0.339449,0.324988,0.311965,0.327207,0.084931,-0.0,-0.015346,0.045865,-2.1e-05,-0.000245,0.083416,0.001048,-1.394601,0.078945,-2.8e-05,-0.008683
187326,0.0995,0.00036,-1.539772,0.087198,-0.0,-0.0,3.0,0.337699,0.325389,0.313912,0.32681,0.085836,-0.0,-0.015351,0.04425,-2.1e-05,-0.000245,0.084982,0.001048,-1.394774,0.075376,1.4e-05,-0.008692
187346,0.100622,0.000437,-1.539885,0.087261,-0.0,-0.0,3.0,0.339082,0.325732,0.312375,0.326467,0.086709,-0.0,-0.015356,0.042687,-2.1e-05,-0.000245,0.086499,0.001049,-1.394948,0.073568,4.7e-05,-0.008683
187366,0.101833,0.000432,-1.540169,0.087263,-0.0,-0.0,3.0,0.342788,0.32597,0.308163,0.32623,0.087551,-0.0,-0.015361,0.041109,-2.1e-05,-0.000245,0.087956,0.001051,-1.395122,0.070202,4.6e-05,-0.008676
187386,0.102782,0.000172,-1.540481,0.087226,-0.0,-0.0,3.0,0.343715,0.326117,0.307087,0.326084,0.088361,-0.0,-0.015365,0.039458,-2.1e-05,-0.000245,0.089341,0.001052,-1.395295,0.066638,3.6e-05,-0.008688
187406,0.103811,-0.000179,-1.540619,0.08715,-0.0,-0.0,3.0,0.341103,0.326262,0.310095,0.325938,0.089138,-0.0,-0.01537,0.037767,-2.2e-05,-0.000245,0.090651,0.001053,-1.395469,0.061717,4.4e-05,-0.008683
187426,0.104408,-0.00061,-1.540785,0.08707,-0.0,-0.0,3.0,0.340615,0.325964,0.31065,0.326236,0.08988,-0.0,-0.015375,0.036086,-2.2e-05,-0.000245,0.091849,0.001054,-1.395643,0.052426,1e-05,-0.0087
187446,0.10502,-0.000347,-1.541087,0.086914,-0.0,-0.0,3.0,0.333979,0.325745,0.317954,0.326455,0.09059,-0.0,-0.01538,0.034374,-2.2e-05,-0.000245,0.092894,0.001053,-1.395817,0.048769,2e-05,-0.008713
187466,0.10537,2e-06,-1.541225,0.086914,-0.0,-0.0,3.0,0.333067,0.32552,0.318925,0.326679,0.091265,-0.0,-0.015385,0.032805,-2.2e-05,-0.000245,0.093851,0.001053,-1.395991,0.042763,2e-05,-0.00871
187486,0.105635,0.000438,-1.541364,0.086507,-0.0,-0.0,3.0,0.334716,0.32508,0.317164,0.327116,0.09191,-0.0,-0.01539,0.031016,-2.2e-05,-0.000245,0.094656,0.001053,-1.396165,0.035322,2.9e-05,-0.008708
187506,0.10573,0.000709,-1.541694,0.086258,-0.0,-0.0,3.0,0.335703,0.324673,0.316098,0.32752,0.092515,-0.0,-0.015395,0.028958,-2.2e-05,-0.000245,0.095317,0.001054,-1.39634,0.029944,5.6e-05,-0.008723
187526,0.105905,0.000888,-1.541851,0.086044,-0.0,-0.0,3.0,0.338191,0.324112,0.313368,0.328072,0.093081,-0.0,-0.0154,0.027196,-2.3e-05,-0.000245,0.095842,0.001055,-1.396514,0.022812,7.4e-05,-0.008722
187546,0.105815,0.00064,-1.542046,0.085694,-0.0,-0.0,3.0,0.342276,0.323696,0.308753,0.328481,0.093613,-0.0,-0.015405,0.025441,-2.3e-05,-0.000245,0.096249,0.001057,-1.396688,0.016072,6.6e-05,-0.008723
187566,0.105635,0.000134,-1.542259,0.085328,-0.0,-0.0,3.0,0.343373,0.323244,0.307485,0.328923,0.094108,-0.0,-0.01541,0.023531,-2.3e-05,-0.000245,0.096527,0.001059,-1.396863,0.010978,4.1e-05,-0.008708
187586,0.105799,-0.0002,-1.542446,0.084923,-0.0,-0.0,3.0,0.343415,0.323116,0.307436,0.329048,0.094565,-0.0,-0.015415,0.021603,-2.3e-05,-0.000245,0.096721,0.001059,-1.397037,0.008269,7e-06,-0.00871
187606,0.105794,-0.000535,-1.542641,0.084708,-0.0,-0.0,3.0,0.342017,0.323121,0.309051,0.329043,0.094985,-0.0,-0.01542,0.019932,-2.3e-05,-0.000245,0.096881,0.00106,-1.397211,0.006048,-9e-06,-0.008711
187626,0.105709,-0.000448,-1.542641,0.084328,-0.0,-0.0,3.0,0.338501,0.323119,0.313024,0.329045,0.095373,-0.0,-0.015424,0.018375,-2.3e-05,-0.000245,0.09699,0.001059,-1.397386,0.00576,0.0,-0.00871
187646,0.105976,0.000161,-1.54277,0.083895,-0.0,-0.0,3.0,0.33372,0.32358,0.318231,0.328594,0.095728,-0.0,-0.015429,0.016592,-2.3e-05,-0.000245,0.0971,0.001059,-1.39756,0.009125,5.2e-05,-0.008705
187666,0.106153,0.000513,-1.542917,0.083053,-0.0,-0.0,3.0,0.334139,0.32413,0.317783,0.328054,0.096046,-0.0,-0.015434,0.014297,-2.3e-05,-0.000245,0.097248,0.00106,-1.397734,0.007174,8.7e-05,-0.008704
187686,0.106415,0.000777,-1.543064,0.082548,-0.0,-0.0,3.0,0.334049,0.324351,0.317879,0.327836,0.096315,-0.0,-0.015439,0.011976,-2.3e-05,-0.000245,0.097376,0.001062,-1.397908,0.005395,0.000105,-0.008703
187706,0.106588,0.000784,-1.543231,0.082128,-0.0,-0.0,3.0,0.336431,0.324764,0.315304,0.327429,0.096542,-0.0,-0.015444,0.010294,-2.3e-05,-0.000245,0.097517,0.001063,-1.398082,0.0058,8.9e-05,-0.008703
187726,0.106503,0.00054,-1.543599,0.081411,-0.0,-0.0,3.0,0.340368,0.325154,0.31093,0.327042,0.096737,-0.0,-0.015449,0.008492,-2.3e-05,-0.000245,0.097665,0.001065,-1.398256,0.002519,4.7e-05,-0.008706
187746,0.106232,-4.6e-05,-1.543824,0.080728,-0.0,-0.0,3.0,0.344482,0.325539,0.30619,0.32666,0.096892,-0.0,-0.015454,0.006348,-2.3e-05,-0.000245,0.097777,0.001066,-1.39843,0.004406,-1.3e-05,-0.008708
187766,0.106315,-0.000297,-1.544009,0.080014,-0.0,-0.0,3.0,0.343532,0.325716,0.3073,0.326484,0.097005,-0.0,-0.015459,0.004259,-2.3e-05,-0.000245,0.097853,0.001066,-1.398605,0.003402,-2.9e-05,-0.008727
187786,0.106404,-0.000379,-1.544182,0.079236,-0.0,-0.0,3.0,0.34136,0.326174,0.309803,0.326026,0.097076,-0.0,-0.015464,0.002184,-2.3e-05,-0.000245,0.097922,0.001066,-1.398779,0.002494,-1.1e-05,-0.008726
187806,0.106234,-0.000196,-1.544358,0.078545,-0.0,-0.0,3.0,0.338624,0.32632,0.312886,0.32588,0.097106,-0.0,-0.015469,0.000203,-2.3e-05,-0.000245,0.097962,0.001066,-1.398953,0.000755,1.5e-05,-0.008708
187826,0.106324,0.000411,-1.544323,0.078545,-0.0,-0.0,3.0,0.334209,0.326276,0.317708,0.325924,0.0971,-0.0,-0.015474,-0.000805,-2.3e-05,-0.000245,0.097967,0.001066,-1.399128,0.000792,6.8e-05,-0.008705
187846,0.106156,0.000767,-1.544489,0.077029,-0.0,-0.0,3.0,0.33672,0.326826,0.314989,0.325372,0.097079,-0.0,-0.015479,-0.002652,-2.3e-05,-0.000245,0.09796,0.001068,-1.399302,-0.000177,9.4e-05,-0.008704
187866,0.105984,0.000779,-1.544675,0.076211,-0.0,-0.0,3.0,0.338024,0.326867,0.313553,0.325331,0.097004,-0.0,-0.015484,-0.005597,-2.3e-05,-0.000245,0.0979,0.00107,-1.399476,-0.001775,9.5e-05,-0.008688
187886,0.106159,0.000609,-1.544847,0.075609,-0.0,-0.0,3.0,0.338909,0.327106,0.312569,0.32509,0.096878,-0.0,-0.015488,-0.007378,-2.3e-05,-0.000245,0.097817,0.001071,-1.39965,-0.000678,7.8e-05,-0.008689
187906,0.10615,0.000278,-1.545044,0.074605,-0.0,-0.0,3.0,0.339202,0.327642,0.312241,0.324548,0.096722,-0.0,-0.015493,-0.009045,-2.3e-05,-0.000245,0.09777,0.001073,-1.399824,-0.00367,5.4e-05,-0.008692
187926,0.105888,3.2e-05,-1.545248,0.073625,-0.0,-0.0,3.0,0.339405,0.328144,0.312014,0.324039,0.096527,-0.0,-0.015498,-0.011228,-2.3e-05,-0.000245,0.097719,0.001073,-1.399998,-0.005322,2.1e-05,-0.008712
187946,0.105801,-4.4e-05,-1.545433,0.072617,-0.0,-0.0,3.0,0.340785,0.328633,0.310457,0.323541,0.096288,-0.0,-0.015503,-0.013415,-2.3e-05,-0.000245,0.097655,0.001074,-1.400172,-0.005667,-4e-06,-0.008714
187966,0.105803,0.000137,-1.545599,0.071458,-0.0,-0.0,3.0,0.338372,0.329317,0.313166,0.322839,0.096006,-0.0,-0.015508,-0.015664,-2.3e-05,-0.000245,0.097597,0.001074,-1.400346,-0.006077,2.3e-05,-0.008696
187986,0.105284,0.000321,-1.545621,0.070663,-0.0,-0.0,3.0,0.336518,0.329836,0.31521,0.322305,0.095679,-0.0,-0.015513,-0.01759,-2.3e-05,-0.000245,0.097555,0.001075,-1.40052,-0.006544,6.6e-05,-0.008694
188006,0.105033,0.000587,-1.545794,0.069682,-0.0,-0.0,3.0,0.335483,0.329971,0.316336,0.322166,0.095318,-0.0,-0.015518,-0.019202,-2.3e-05,-0.000245,0.097438,0.001076,-1.400694,-0.006075,9.3e-05,-0.008694
188026,0.104945,0.000851,-1.545787,0.06853,-0.0,-0.0,3.0,0.335627,0.33043,0.316179,0.321691,0.094922,-0.0,-0.015523,-0.021186,-2.3e-05,-0.000245,0.097297,0.001078,-1.400868,-0.004113,0.000111,-0.008693
188046,0.104771,0.00069,-1.545982,0.067453,-0.0,-0.0,3.0,0.338028,0.33077,0.313548,0.321338,0.094485,-0.0,-0.015528,-0.023291,-2.3e-05,-0.000245,0.097155,0.001079,-1.401041,-0.005757,8.6e-05,-0.008696
188066,0.104682,0.000442,-1.546176,0.066641,-0.0,-0.0,3.0,0.339903,0.330885,0.311455,0.321218,0.094008,-0.0,-0.015533,-0.024892,-2.2e-05,-0.000245,0.096979,0.001081,-1.401215,-0.009361,4.4e-05,-0.008683
188086,0.10442,0.000195,-1.546379,0.065123,-0.0,-0.0,3.0,0.341048,0.331381,0.310159,0.320701,0.0935,-0.0,-0.015538,-0.026879,-2.2e-05,-0.000245,0.096775,0.001082,-1.401389,-0.011352,1.1e-05,-0.008687
188106,0.103807,-0.000224,-1.546437,0.063877,-0.0,-0.0,3.0,0.343266,0.33164,0.307609,0.32043,0.092946,-0.0,-0.015543,-0.029401,-2.2e-05,-0.000245,0.096542,0.001082,-1.401562,-0.014147,-1.4e-05,-0.008674
188126,0.103294,-0.000213,-1.546638,0.062612,-0.0,-0.0,3.0,0.341515,0.331739,0.309626,0.320326,0.092345,-0.0,-0.015548,-0.031542,-2.2e-05,-0.000245,0.096231,0.001082,-1.401736,-0.015769,-5e-06,-0.008658
188146,0.102862,5.5e-05,-1.54665,0.061968,-0.0,-0.0,3.0,0.337998,0.331818,0.313582,0.320243,0.091704,-0.0,-0.015552,-0.0328,-2.2e-05,-0.000245,0.095891,0.001083,-1.401909,-0.018103,4.7e-05,-0.008641
188166,0.102172,0.000413,-1.546671,0.061084,-0.0,-0.0,3.0,0.336701,0.331763,0.31501,0.3203,0.091045,-0.0,-0.015557,-0.033537,-2.2e-05,-0.000245,0.095496,0.001084,-1.402082,-0.022071,8.3e-05,-0.008643
188186,0.101484,0.000593,-1.546699,0.058699,-0.0,-0.0,3.0,0.334286,0.332301,0.317626,0.319735,0.090364,-0.0,-0.015562,-0.036333,-2.2e-05,-0.000245,0.09504,0.001085,-1.402255,-0.02645,0.00011,-0.008629
188206,0.100793,0.000787,-1.546903,0.057769,-0.0,-0.0,3.0,0.334704,0.33226,0.317177,0.319778,0.089612,0.0,-0.015567,-0.039357,-2.1e-05,-0.000245,0.094521,0.001087,-1.402427,-0.030034,0.000104,-0.008634
188226,0.099669,0.00055,-1.547151,0.056563,-0.0,-0.0,3.0,0.337684,0.332309,0.313929,0.319726,0.088818,0.0,-0.015572,-0.04065,-2.1e-05,-0.000245,0.093943,0.001088,-1.4026,-0.032778,7.9e-05,-0.00864
188246,0.098626,0.000231,-1.547399,0.055683,-0.0,-0.0,3.0,0.340465,0.331927,0.31082,0.320129,0.087999,0.0,-0.015577,-0.041629,-2.1e-05,-0.000245,0.093267,0.00109,-1.402773,-0.037747,3e-05,-0.008648
188266,0.0975,0.000162,-1.547463,0.053836,-0.0,-0.0,3.0,0.340982,0.332115,0.310233,0.319931,0.087159,0.0,-0.015582,-0.043516,-2.1e-05,-0.000245,0.092506,0.00109,-1.402946,-0.039302,-3e-06,-0.008637
188286,0.096206,9.9e-05,-1.547708,0.05237,-0.0,-0.0,3.0,0.340112,0.33202,0.311218,0.320031,0.086272,0.0,-0.015587,-0.046158,-2.1e-05,-0.000245,0.09167,0.00109,-1.403119,-0.043175,8e-06,-0.008643
188306,0.094827,0.000123,-1.547952,0.050887,-0.0,-0.0,3.0,0.339505,0.331592,0.311902,0.32048,0.085336,0.0,-0.015592,-0.048231,-2e-05,-0.000245,0.090725,0.001091,-1.403291,-0.052678,1.9e-05,-0.008633
188326,0.093528,0.000397,-1.547832,0.049254,-0.0,-0.0,3.0,0.338564,0.33124,0.312954,0.320848,0.08436,0.0,-0.015597,-0.050257,-2e-05,-0.000245,0.089631,0.001091,-1.403464,-0.055407,4.6e-05,-0.008622
188346,0.091893,0.000674,-1.547899,0.048385,-0.0,-0.0,3.0,0.335963,0.330588,0.315815,0.321527,0.083345,0.0,-0.015602,-0.051566,-2e-05,-0.000245,0.088446,0.001093,-1.403637,-0.059183,9.1e-05,-0.008609
188366,0.090337,0.000696,-1.547975,0.046271,-0.0,-0.0,3.0,0.337228,0.330205,0.314431,0.321924,0.082309,0.0,-0.015607,-0.053325,-2e-05,-0.000245,0.087148,0.001095,-1.403809,-0.066213,0.000102,-0.008601
188386,0.088607,0.000547,-1.548065,0.045375,-0.0,-0.0,3.0,0.339955,0.329493,0.311396,0.322659,0.081227,0.0,-0.015611,-0.055196,-1.9e-05,-0.000245,0.085749,0.001096,-1.403981,-0.073117,7e-05,-0.008594
188406,0.086789,0.000313,-1.548162,0.043879,-0.0,-0.0,3.0,0.34041,0.329376,0.310882,0.322779,0.080119,0.0,-0.015616,-0.056237,-1.9e-05,-0.000245,0.084286,0.001098,-1.404153,-0.075613,4.6e-05,-0.008586
188426,0.084706,-0.000181,-1.548105,0.041863,-0.0,-0.0,3.0,0.343764,0.32915,0.30703,0.323011,0.078985,0.0,-0.015621,-0.058435,-1.9e-05,-0.000245,0.082751,0.001098,-1.404324,-0.083042,-4e-06,-0.008563
188446,0.082892,-0.00042,-1.548195,0.040242,-0.0,-0.0,3.0,0.340796,0.329068,0.310445,0.323095,0.0778,0.0,-0.015626,-0.060918,-1.8e-05,-0.000245,0.081129,0.001098,-1.404495,-0.085677,-1e-05,-0.008554
188466,0.080993,-0.000222,-1.54827,0.03859,-0.0,-0.0,3.0,0.336082,0.328972,0.315686,0.323194,0.076571,0.0,-0.015631,-0.062765,-1.8e-05,-0.000245,0.079454,0.001098,-1.404666,-0.086305,2.7e-05,-0.008543
188486,0.079011,0.000228,-1.548162,0.036939,-0.0,-0.0,3.0,0.335017,0.328655,0.316839,0.323518,0.075307,0.0,-0.015636,-0.064467,-1.8e-05,-0.000245,0.077711,0.001099,-1.404837,-0.08729,5.4e-05,-0.008515
188506,0.076945,0.000597,-1.548232,0.035839,-0.0,-0.0,3.0,0.334092,0.327972,0.317833,0.324213,0.07401,0.0,-0.015641,-0.06554,-1.8e-05,-0.000245,0.0759,0.001099,-1.405007,-0.090842,7.4e-05,-0.008506
188526,0.075132,0.001055,-1.548291,0.034017,-0.0,-0.0,3.0,0.335494,0.328027,0.316324,0.324158,0.072697,0.0,-0.015646,-0.066736,-1.7e-05,-0.000245,0.074053,0.001101,-1.405177,-0.090393,8.5e-05,-0.008497
188546,0.073227,0.000734,-1.54838,0.032309,-0.0,-0.0,3.0,0.340852,0.32805,0.310381,0.324135,0.071352,0.0,-0.015651,-0.068689,-1.7e-05,-0.000245,0.072209,0.001102,-1.405347,-0.093535,5.3e-05,-0.008489
188566,0.071321,0.000241,-1.548473,0.031371,-0.0,-0.0,3.0,0.343461,0.327799,0.307382,0.324389,0.06997,0.0,-0.015656,-0.069608,-1.7e-05,-0.000245,0.070342,0.001104,-1.405517,-0.094048,2.1e-05,-0.008481
188586,0.069505,-0.000164,-1.548729,0.029577,-0.0,-0.0,3.0,0.344711,0.327918,0.305921,0.324269,0.068579,0.0,-0.015661,-0.070386,-1.6e-05,-0.000245,0.06846,0.001104,-1.405686,-0.092002,-1.2e-05,-0.008471
188606,0.067945,-0.000489,-1.548798,0.027223,-0.0,-0.0,3.0,0.342749,0.328465,0.308208,0.323712,0.06716,0.0,-0.015666,-0.072887,-1.6e-05,-0.000245,0.0666,0.001105,-1.405856,-0.088988,-1.8e-05,-0.008478
188626,0.066133,-0.000555,-1.548863,0.026324,-0.0,-0.0,3.0,0.340594,0.328222,0.310674,0.32396,0.065688,0.0,-0.01567,-0.074455,-1.5e-05,-0.000245,0.064769,0.001104,-1.406025,-0.089981,-1.6e-05,-0.008451
188646,0.064318,-0.000276,-1.548745,0.024545,-0.0,-0.0,3.0,0.337113,0.328353,0.314558,0.323826,0.064201,0.0,-0.015675,-0.074972,-1.5e-05,-0.000245,0.062936,0.001104,-1.406195,-0.088491,3e-06,-0.008439
188666,0.062598,0.00026,-1.548785,0.022779,-0.0,-0.0,3.0,0.3338,0.328534,0.318145,0.323642,0.062695,0.0,-0.01568,-0.076484,-1.5e-05,-0.000245,0.061125,0.001104,-1.406363,-0.090787,4.9e-05,-0.008445
188686,0.060787,0.000542,-1.548837,0.020663,-0.0,-0.0,3.0,0.333841,0.329026,0.318101,0.323139,0.061155,0.0,-0.015685,-0.078569,-1.4e-05,-0.000245,0.059333,0.001105,-1.406532,-0.091052,7.7e-05,-0.008433
188706,0.058974,0.000475,-1.548896,0.019173,-0.0,-0.0,3.0,0.337414,0.329074,0.314227,0.323089,0.059573,0.0,-0.01569,-0.080186,-1.4e-05,-0.000245,0.057542,0.001106,-1.4067,-0.092574,6.2e-05,-0.008406
188726,0.057246,0.000497,-1.54895,0.017671,-0.0,-0.0,3.0,0.337756,0.329111,0.313849,0.323051,0.057967,0.0,-0.015695,-0.080899,-1.4e-05,-0.000245,0.055746,0.001107,-1.406868,-0.092837,5.5e-05,-0.008395
188746,0.05517,6e-06,-1.5492,0.015658,-0.0,-0.0,3.0,0.34192,0.329575,0.309162,0.322575,0.056346,0.0,-0.0157,-0.082159,-1.3e-05,-0.000245,0.053973,0.001108,-1.407036,-0.091083,1.4e-05,-0.008401
188766,0.053093,-0.000314,-1.549269,0.013939,-0.0,-0.0,3.0,0.342199,0.329514,0.308841,0.322637,0.054694,0.0,-0.015705,-0.0838,-1.3e-05,-0.000245,0.052172,0.001108,-1.407204,-0.091325,-2.7e-05,-0.008391
188786,0.051278,-0.000378,-1.549322,0.012485,-0.0,-0.0,3.0,0.341163,0.329517,0.310027,0.322634,0.053013,0.0,-0.01571,-0.084702,-1.2e-05,-0.000245,0.050347,0.001108,-1.407372,-0.091159,-3.3e-05,-0.00838
188806,0.049207,-0.000356,-1.549375,0.010409,-0.0,-0.0,3.0,0.339599,0.329446,0.311796,0.322707,0.051317,0.0,-0.015715,-0.085851,-1.2e-05,-0.000245,0.048485,0.001107,-1.407539,-0.092849,-2.2e-05,-0.008368
188826,0.046876,-0.000243,-1.549433,0.008577,-0.0,-0.0,3.0,0.337075,0.328771,0.314599,0.323399,0.049591,0.0,-0.01572,-0.087511,-1.2e-05,-0.000245,0.046524,0.001107,-1.407707,-0.097882,6e-06,-0.008357
188846,0.044638,0.000299,-1.549474,0.006739,-0.0,-0.0,3.0,0.334785,0.32799,0.317089,0.324196,0.047835,0.0,-0.015724,-0.088851,-1.1e-05,-0.000245,0.04445,0.001107,-1.407874,-0.10488,4.4e-05,-0.008346
188866,0.041964,0.000588,-1.54953,0.005817,-0.0,-0.0,3.0,0.335796,0.326984,0.315996,0.325213,0.046056,0.0,-0.015729,-0.088987,-1.1e-05,-0.000245,0.042292,0.001108,-1.408041,-0.111903,7.2e-05,-0.008334
188886,0.038941,0.000536,-1.549598,0.004598,-0.0,-0.0,3.0,0.339366,0.325694,0.312057,0.326506,0.044284,0.0,-0.015734,-0.088322,-1e-05,-0.000245,0.039995,0.001109,-1.408207,-0.121815,5e-05,-0.008325
188906,0.036003,0.000222,-1.549662,0.001986,-0.0,-0.0,3.0,0.342601,0.325246,0.308379,0.326951,0.042519,0.0,-0.015739,-0.089719,-1e-05,-0.000245,0.037559,0.00111,-1.408373,-0.126358,1.8e-05,-0.008297
188926,0.032887,-0.000437,-1.549556,0.001031,-0.0,-0.0,3.0,0.344098,0.324028,0.30664,0.328155,0.040711,0.0,-0.015744,-0.091072,-9e-06,-0.000245,0.035015,0.001111,-1.408539,-0.131728,-1.3e-05,-0.008286
188946,0.029602,-0.000748,-1.549441,-0.001589,-0.0,-0.0,3.0,0.341556,0.323206,0.309579,0.32896,0.038892,0.0,-0.015749,-0.092093,-9e-06,-0.000245,0.032334,0.001111,-1.408705,-0.13995,-2.7e-05,-0.008258
188966,0.026408,-0.000801,-1.549487,-0.002947,-0.0,-0.0,3.0,0.338963,0.321667,0.312508,0.330453,0.03704,0.0,-0.015754,-0.093498,-9e-06,-0.000245,0.029483,0.00111,-1.40887,-0.146986,-3.2e-05,-0.008247
188986,0.022874,-0.000333,-1.549351,-0.004909,-0.0,-0.0,3.0,0.333757,0.320544,0.318191,0.331531,0.03517,0.0,-0.015759,-0.094161,-8e-06,-0.000245,0.026509,0.001109,-1.409035,-0.152297,-3e-06,-0.008217
189006,0.019253,0.000223,-1.549212,-0.006744,-0.0,-0.0,3.0,0.333321,0.319368,0.318656,0.332649,0.033283,1e-06,-0.015764,-0.095229,-8e-06,-0.000245,0.023422,0.001109,-1.409199,-0.158444,2.7e-05,-0.008187
189026,0.015632,0.000606,-1.549068,-0.008577,-0.0,-0.0,3.0,0.334095,0.318184,0.31783,0.333764,0.031375,1e-06,-0.015769,-0.096239,-7e-06,-0.000245,0.02022,0.001109,-1.409363,-0.164198,4.8e-05,-0.008157
189046,0.012266,0.000729,-1.54892,-0.010411,-0.0,-0.0,3.0,0.336903,0.317298,0.314788,0.334591,0.029448,1e-06,-0.015773,-0.097152,-7e-06,-0.000245,0.016925,0.00111,-1.409526,-0.163995,5.1e-05,-0.008143
189066,0.008897,0.000507,-1.548941,-0.011962,-0.0,-0.0,3.0,0.340918,0.316499,0.310306,0.335333,0.027503,1e-06,-0.015778,-0.097697,-6e-06,-0.000245,0.013619,0.001111,-1.409688,-0.166017,3.8e-05,-0.008112
189086,0.005697,-6.2e-05,-1.548956,-0.01348,-0.0,-0.0,3.0,0.344092,0.315618,0.306646,0.336144,0.025551,1e-06,-0.015783,-0.097828,-6e-06,-0.000245,0.010275,0.001112,-1.40985,-0.167585,-1e-05,-0.008097
189106,0.002411,-0.000544,-1.548963,-0.014406,-0.0,-0.0,3.0,0.34477,0.31481,0.305851,0.336883,0.023599,1e-06,-0.015788,-0.097241,-5e-06,-0.000245,0.006942,0.001112,-1.410012,-0.165743,-5e-05,-0.008082
189126,-0.000615,-0.000943,-1.548789,-0.017243,-0.0,-0.0,3.0,0.344052,0.314985,0.306693,0.336724,0.021661,1e-06,-0.015793,-0.098178,-5e-06,-0.000245,0.003642,0.001111,-1.410173,-0.161979,-7.3e-05,-0.008048
189146,-0.003897,-0.001079,-1.548608,-0.018534,-0.0,-0.0,3.0,0.343796,0.314559,0.306993,0.337112,0.019684,1e-06,-0.015798,-0.099748,-4e-06,-0.000245,0.000405,0.00111,-1.410334,-0.160228,-8.6e-05,-0.008014
189166,-0.006657,-0.000875,-1.548426,-0.020789,-0.0,-0.0,3.0,0.339816,0.31456,0.311552,0.337111,0.017691,1e-06,-0.015803,-0.100431,-4e-06,-0.000245,-0.002811,0.001109,-1.410494,-0.153979,-4.9e-05,-0.00798
189186,-0.009241,-0.000327,-1.54824,-0.022579,-0.0,-0.0,3.0,0.334641,0.31475,0.317244,0.336937,0.015678,1e-06,-0.015808,-0.101477,-3e-06,-0.000245,-0.005915,0.001108,-1.410654,-0.149212,2.4e-05,-0.007946
189206,-0.011653,4.6e-05,-1.548056,-0.02435,-0.0,-0.0,3.0,0.333413,0.315117,0.318558,0.336602,0.013647,1e-06,-0.015813,-0.102067,-3e-06,-0.000245,-0.008894,0.001109,-1.410812,-0.145,7e-05,-0.007912
189226,-0.014156,0.000162,-1.548038,-0.02523,-0.0,-0.0,3.0,0.334478,0.314924,0.31742,0.336779,0.011609,1e-06,-0.015818,-0.101498,-2e-06,-0.000245,-0.011772,0.001109,-1.41097,-0.142267,6.4e-05,-0.007894
189246,-0.0164,0.000188,-1.54802,-0.027147,-0.0,-0.0,3.0,0.334616,0.315579,0.317271,0.33618,0.00959,1e-06,-0.015822,-0.101059,-2e-06,-0.000245,-0.014527,0.00111,-1.411128,-0.136508,4.1e-05,-0.007876
189266,-0.018735,-0.000217,-1.547995,-0.027147,-0.0,-0.0,3.0,0.338137,0.315531,0.313428,0.336223,0.007573,1e-06,-0.015827,-0.099792,-1e-06,-0.000245,-0.017144,0.00111,-1.411286,-0.129138,-8e-06,-0.007858
189286,-0.0209,-0.000797,-1.547966,-0.030596,-0.0,-0.0,3.0,0.341417,0.316729,0.309738,0.335119,0.005592,1e-06,-0.015832,-0.100238,-1e-06,-0.000245,-0.019655,0.001109,-1.411443,-0.12208,-8.4e-05,-0.00784
189306,-0.022802,-0.000947,-1.54794,-0.031738,-0.0,-0.0,3.0,0.340262,0.316975,0.311049,0.334891,0.003569,1e-06,-0.015837,-0.102259,-1e-06,-0.000245,-0.02206,0.001107,-1.411599,-0.115228,-0.000116,-0.007821
189326,-0.024699,-0.000752,-1.547918,-0.033892,-0.0,-0.0,3.0,0.338697,0.31749,0.312806,0.334412,0.001527,1e-06,-0.015842,-0.102615,-0.0,-0.000245,-0.024369,0.001105,-1.411756,-0.110796,-0.000105,-0.007803
189346,-0.026596,-0.000556,-1.54772,-0.035568,-0.0,-0.0,3.0,0.339398,0.31787,0.312022,0.334058,-0.000526,1e-06,-0.015847,-0.103183,0.0,-0.000245,-0.026587,0.001103,-1.411912,-0.106429,-8.5e-05,-0.007785
189366,-0.028408,-0.000449,-1.547868,-0.037235,-0.0,-0.0,3.0,0.340847,0.318257,0.310387,0.333695,-0.002588,1e-06,-0.015852,-0.10339,1e-06,-0.000245,-0.028713,0.001102,-1.412067,-0.105645,-6.5e-05,-0.007767
189386,-0.030478,-0.000253,-1.547838,-0.038894,-0.0,-0.0,3.0,0.340682,0.318315,0.310574,0.333641,-0.004653,1e-06,-0.015857,-0.103518,1e-06,-0.000245,-0.030804,0.001102,-1.412222,-0.105337,-2.8e-05,-0.007749
189406,-0.032464,-0.000319,-1.547979,-0.039797,-0.0,-0.0,3.0,0.343095,0.31809,0.307808,0.333852,-0.006718,1e-06,-0.015862,-0.102795,2e-06,-0.000245,-0.032874,0.001102,-1.412377,-0.101818,-1.7e-05,-0.00773
189426,-0.034455,-0.000727,-1.547935,-0.041116,-0.0,-0.0,3.0,0.344284,0.317859,0.306422,0.334068,-0.008761,1e-06,-0.015867,-0.101629,2e-06,-0.000245,-0.034924,0.001102,-1.412531,-0.10096,-4.1e-05,-0.007711
189446,-0.036617,-0.001133,-1.547886,-0.043026,-0.0,-0.0,3.0,0.342719,0.317793,0.308243,0.33413,-0.010788,1e-06,-0.015871,-0.101735,3e-06,-0.000245,-0.036966,0.001101,-1.412686,-0.102601,-6.4e-05,-0.007708
189466,-0.038952,-0.001367,-1.548007,-0.044344,-0.0,-0.0,3.0,0.339516,0.317237,0.311889,0.334648,-0.012823,1e-06,-0.015876,-0.102017,3e-06,-0.000245,-0.039044,0.001099,-1.41284,-0.104897,-7.9e-05,-0.007706
189486,-0.041283,-0.001427,-1.547955,-0.045292,-0.0,-0.0,3.0,0.336676,0.316643,0.315037,0.335199,-0.014856,1e-06,-0.015881,-0.101014,4e-06,-0.000245,-0.041146,0.001097,-1.412994,-0.108049,-8.5e-05,-0.007685
189506,-0.043699,-0.001228,-1.548077,-0.048026,-0.0,-0.0,3.0,0.334683,0.316531,0.317199,0.335303,-0.016868,1e-06,-0.015886,-0.101513,4e-06,-0.000245,-0.043304,0.001095,-1.413147,-0.112734,-7.3e-05,-0.007664
189526,-0.046457,-0.000677,-1.548021,-0.048843,-0.0,-0.0,3.0,0.331761,0.315301,0.320303,0.336434,-0.018906,1e-06,-0.015891,-0.102154,5e-06,-0.000245,-0.045559,0.001093,-1.413301,-0.116073,-2.7e-05,-0.007644
189546,-0.049212,-0.000128,-1.547965,-0.050374,-0.0,-0.0,3.0,0.331851,0.314038,0.320208,0.337585,-0.020938,1e-06,-0.015896,-0.101189,5e-06,-0.000245,-0.04794,0.001092,-1.413454,-0.1224,1.9e-05,-0.00764
189566,-0.052059,0.000166,-1.547895,-0.051861,-0.0,-0.0,3.0,0.336069,0.312922,0.315699,0.338592,-0.022955,1e-06,-0.015901,-0.100843,6e-06,-0.000245,-0.050426,0.001092,-1.413606,-0.126223,5e-06,-0.007634
189586,-0.05508,0.00011,-1.547984,-0.05358,-0.0,-0.0,3.0,0.337245,0.311985,0.314412,0.339431,-0.024968,1e-06,-0.015906,-0.100993,6e-06,-0.000245,-0.052996,0.001092,-1.413759,-0.130051,-0.0,-0.007628
189606,-0.058199,-0.00055,-1.548218,-0.054454,-0.0,-0.0,3.0,0.341908,0.31043,0.309176,0.340809,-0.026984,1e-06,-0.015911,-0.1004,7e-06,-0.000245,-0.055668,0.001092,-1.413911,-0.137245,-5.8e-05,-0.00762
189626,-0.061228,-0.001122,-1.548278,-0.056248,-0.0,-0.0,3.0,0.344453,0.309432,0.306224,0.341685,-0.028981,1e-06,-0.015916,-0.099761,7e-06,-0.000245,-0.058448,0.001091,-1.414063,-0.139476,-0.000123,-0.007611
189646,-0.064253,-0.00135,-1.548342,-0.056963,-0.0,-0.0,3.0,0.343326,0.307938,0.30754,0.342982,-0.030972,1e-06,-0.01592,-0.099049,8e-06,-0.000245,-0.061302,0.001088,-1.414215,-0.141854,-0.000146,-0.007602
189666,-0.067532,-0.001143,-1.548407,-0.05822,-0.0,-0.0,3.0,0.341457,0.306448,0.309693,0.344262,-0.032939,1e-06,-0.015925,-0.097736,8e-06,-0.000245,-0.064232,0.001086,-1.414367,-0.148937,-0.000124,-0.007575
189686,-0.071157,-0.000758,-1.548458,-0.059954,-0.0,-0.0,3.0,0.340943,0.304912,0.310278,0.345565,-0.034887,1e-06,-0.01593,-0.097594,9e-06,-0.000245,-0.06728,0.001085,-1.414519,-0.156814,-8.6e-05,-0.007565
189706,-0.074607,-0.000371,-1.548338,-0.061523,-0.0,-0.0,3.0,0.340291,0.303463,0.311016,0.34678,-0.036838,1e-06,-0.015935,-0.098001,9e-06,-0.000245,-0.070436,0.001084,-1.41467,-0.163211,-4.7e-05,-0.007555
189726,-0.078147,-7.2e-05,-1.548379,-0.06218,-0.0,-0.0,3.0,0.34057,0.301871,0.310701,0.3481,-0.038793,1e-06,-0.01594,-0.097038,1e-05,-0.000245,-0.073663,0.001083,-1.414821,-0.167417,0.0,-0.007527
189746,-0.081515,-0.000124,-1.548409,-0.063469,-0.0,-0.0,3.0,0.34178,0.30075,0.309323,0.349019,-0.040718,1e-06,-0.015945,-0.095561,1e-05,-0.000245,-0.076949,0.001084,-1.414972,-0.166207,1.3e-05,-0.007517
189766,-0.084803,-0.000432,-1.548423,-0.064807,-0.0,-0.0,3.0,0.341708,0.299603,0.309405,0.349952,-0.042621,1e-06,-0.01595,-0.09505,1e-05,-0.000245,-0.080246,0.001084,-1.415122,-0.168417,-1e-06,-0.007521
189786,-0.088087,-0.000744,-1.548433,-0.06552,-0.0,-0.0,3.0,0.341829,0.298361,0.309266,0.350952,-0.044516,1e-06,-0.015955,-0.094058,1.1e-05,-0.000245,-0.083556,0.001084,-1.415272,-0.166906,-4.1e-05,-0.007507
189806,-0.091463,-0.001138,-1.548426,-0.066969,-0.0,-0.0,3.0,0.340027,0.297456,0.311315,0.351675,-0.046384,1e-06,-0.01596,-0.093047,1.1e-05,-0.000245,-0.086855,0.001083,-1.415422,-0.16556,-6.4e-05,-0.007493
189826,-0.094575,-0.001103,-1.548446,-0.067875,-0.0,-0.0,3.0,0.339567,0.296512,0.311832,0.352424,-0.048239,1e-06,-0.015965,-0.092344,1.2e-05,-0.000245,-0.090135,0.001081,-1.415572,-0.162073,-8.6e-05,-0.007479
189846,-0.097338,-0.000727,-1.548495,-0.069362,-0.0,-0.0,3.0,0.337916,0.296262,0.313672,0.352621,-0.050076,1e-06,-0.01597,-0.091734,1.2e-05,-0.000245,-0.093346,0.00108,-1.415721,-0.155998,-6.6e-05,-0.007469
189866,-0.099923,-0.000185,-1.548562,-0.070503,-0.0,-0.0,3.0,0.337641,0.295996,0.313976,0.352831,-0.051906,1e-06,-0.015974,-0.091376,1.3e-05,-0.000245,-0.096451,0.001079,-1.415871,-0.150078,-1.9e-05,-0.007442
189886,-0.102257,9.9e-05,-1.548624,-0.071572,-0.0,-0.0,3.0,0.33763,0.296035,0.313988,0.352799,-0.053725,1e-06,-0.015979,-0.090548,1.3e-05,-0.000245,-0.099427,0.001079,-1.416019,-0.142442,3.5e-05,-0.007434
189906,-0.10407,0.000201,-1.548705,-0.072611,-0.0,-0.0,3.0,0.339954,0.296237,0.311396,0.352641,-0.055527,1e-06,-0.015984,-0.089543,1.4e-05,-0.000245,-0.10225,0.00108,-1.416168,-0.133384,4.6e-05,-0.007426
189926,-0.105969,4.1e-05,-1.548768,-0.073115,-0.0,-0.0,3.0,0.340224,0.296433,0.311092,0.352486,-0.057306,1e-06,-0.015989,-0.087961,1.4e-05,-0.000245,-0.104877,0.001081,-1.416317,-0.123468,4.6e-05,-0.007436
189946,-0.10762,-0.000382,-1.549,-0.073783,-0.0,-0.0,3.0,0.342254,0.297048,0.308778,0.351999,-0.059049,1e-06,-0.015994,-0.085973,1.4e-05,-0.000245,-0.107291,0.001081,-1.416465,-0.11418,-4e-06,-0.007426
189966,-0.108918,-0.000808,-1.549078,-0.07453,-0.0,-0.0,3.0,0.342238,0.298024,0.308797,0.351222,-0.060754,1e-06,-0.015999,-0.084371,1.5e-05,-0.000245,-0.109482,0.001081,-1.416614,-0.102049,-4.7e-05,-0.007436
189986,-0.109786,-0.000985,-1.549368,-0.076218,-0.0,-0.0,3.0,0.34126,0.299612,0.309917,0.349945,-0.062432,1e-06,-0.016004,-0.084093,1.5e-05,-0.000245,-0.111425,0.00108,-1.416762,-0.089743,-6.4e-05,-0.007432
190006,-0.110646,-0.000803,-1.549328,-0.077012,-0.0,-0.0,3.0,0.339135,0.300696,0.312316,0.349063,-0.064113,1e-06,-0.016009,-0.083947,1.6e-05,-0.000245,-0.113118,0.001079,-1.416911,-0.080728,-4.6e-05,-0.007429
190026,-0.111248,-0.000198,-1.5495,-0.077594,-0.0,-0.0,3.0,0.336407,0.301693,0.31533,0.348246,-0.065781,1e-06,-0.016014,-0.082345,1.6e-05,-0.000245,-0.114609,0.001078,-1.41706,-0.070964,-2e-06,-0.00743
190046,-0.11193,0.000489,-1.549675,-0.07854,-0.0,-0.0,3.0,0.334083,0.302861,0.317843,0.347281,-0.067412,1e-06,-0.016019,-0.080799,1.6e-05,-0.000245,-0.11589,0.001078,-1.417208,-0.060435,6.6e-05,-0.007433
190066,-0.112531,0.000744,-1.54983,-0.079324,-0.0,-0.0,3.0,0.335914,0.303813,0.315868,0.346489,-0.069018,1e-06,-0.016024,-0.079739,1.7e-05,-0.000245,-0.116992,0.00108,-1.417357,-0.052402,0.0001,-0.007435
190086,-0.113227,0.000564,-1.550128,-0.080081,-0.0,-0.0,3.0,0.340863,0.304629,0.310369,0.345803,-0.070603,1e-06,-0.016028,-0.078544,1.7e-05,-0.000245,-0.117949,0.001082,-1.417506,-0.04533,7.4e-05,-0.007434
190106,-0.113663,0.000128,-1.550254,-0.080439,-0.0,-0.0,3.0,0.342351,0.304948,0.308667,0.345535,-0.072161,1e-06,-0.016033,-0.076814,1.7e-05,-0.000245,-0.118816,0.001083,-1.417654,-0.03825,3.9e-05,-0.007432
190126,-0.114358,-0.000392,-1.550358,-0.081315,-0.0,-0.0,3.0,0.343015,0.305237,0.307901,0.345291,-0.073682,1e-06,-0.016038,-0.075237,1.8e-05,-0.000245,-0.119589,0.001084,-1.417803,-0.038347,-6e-06,-0.007445
190146,-0.115057,-0.000917,-1.550635,-0.081913,-0.0,-0.0,3.0,0.343705,0.304911,0.307098,0.345566,-0.075177,1e-06,-0.016043,-0.074074,1.8e-05,-0.000245,-0.120375,0.001084,-1.417952,-0.039511,-5.7e-05,-0.00744
190166,-0.116009,-0.000826,-1.550756,-0.08224,-0.0,-0.0,3.0,0.341376,0.304355,0.309784,0.346034,-0.076646,1e-06,-0.016048,-0.072336,1.9e-05,-0.000245,-0.121184,0.001082,-1.418101,-0.039069,-6.6e-05,-0.007437
190186,-0.117212,-0.000479,-1.550879,-0.083098,-0.0,-0.0,3.0,0.338146,0.303733,0.313417,0.346555,-0.078078,1e-06,-0.016053,-0.070839,1.9e-05,-0.000245,-0.122024,0.001082,-1.41825,-0.045323,-2.2e-05,-0.007452
190206,-0.118855,-4.3e-05,-1.551151,-0.083477,-0.0,-0.0,3.0,0.338223,0.302562,0.313332,0.34753,-0.079485,1e-06,-0.016058,-0.069547,1.9e-05,-0.000245,-0.122977,0.001082,-1.418399,-0.049912,2.1e-05,-0.007449
190226,-0.120318,0.00022,-1.551251,-0.084074,-0.0,-0.0,3.0,0.337776,0.301232,0.313827,0.348625,-0.080863,1e-06,-0.016063,-0.067982,2e-05,-0.000245,-0.124063,0.001082,-1.418548,-0.055094,6.5e-05,-0.007445
190246,-0.121964,0.000312,-1.551501,-0.084548,-0.0,-0.0,3.0,0.336489,0.299896,0.315241,0.349714,-0.08221,1e-06,-0.016068,-0.06652,2e-05,-0.000245,-0.125254,0.001084,-1.418697,-0.063576,9.1e-05,-0.007455
190266,-0.123956,-0.000116,-1.551697,-0.084984,-0.0,-0.0,3.0,0.339169,0.298277,0.312279,0.351019,-0.083528,1e-06,-0.016073,-0.064962,2e-05,-0.000245,-0.126588,0.001085,-1.418846,-0.071351,5.7e-05,-0.007461
190286,-0.125947,-0.000544,-1.551889,-0.085188,-0.0,-0.0,3.0,0.339413,0.296408,0.312005,0.352505,-0.084814,1e-06,-0.016078,-0.063122,2e-05,-0.000245,-0.128074,0.001085,-1.418995,-0.079503,5e-06,-0.007482
190306,-0.128199,-0.000706,-1.552077,-0.085677,-0.0,-0.0,3.0,0.338194,0.294726,0.313364,0.353825,-0.086061,1e-06,-0.016083,-0.061387,2.1e-05,-0.000245,-0.129697,0.001085,-1.419145,-0.086885,-3.8e-05,-0.007485
190326,-0.130622,-0.000706,-1.552437,-0.08595,-0.0,-0.0,3.0,0.337216,0.292948,0.314444,0.355202,-0.087277,1e-06,-0.016087,-0.059837,2.1e-05,-0.000245,-0.131452,0.001083,-1.419295,-0.092487,-4.6e-05,-0.007489
190346,-0.133043,-0.000523,-1.55263,-0.086281,-0.0,-0.0,3.0,0.337289,0.291027,0.314364,0.356667,-0.08846,1e-06,-0.016092,-0.058158,2.1e-05,-0.000245,-0.133351,0.001082,-1.419445,-0.096098,-3.6e-05,-0.007495
190366,-0.135197,9.3e-05,-1.552695,-0.086524,-0.0,-0.0,3.0,0.334933,0.289177,0.31693,0.358059,-0.08961,1e-06,-0.016097,-0.056459,2.2e-05,-0.000245,-0.135359,0.001082,-1.419594,-0.100443,2.6e-05,-0.007486
190386,-0.137443,0.000618,-1.552921,-0.086691,-0.0,-0.0,3.0,0.335369,0.287519,0.316459,0.35929,-0.090726,1e-06,-0.016102,-0.054639,2.2e-05,-0.000245,-0.137434,0.001083,-1.419744,-0.103932,8.7e-05,-0.007493
190406,-0.139435,0.00071,-1.553133,-0.086897,-0.0,-0.0,3.0,0.337908,0.285987,0.313681,0.360413,-0.091804,1e-06,-0.016107,-0.052828,2.2e-05,-0.000245,-0.139568,0.001085,-1.419894,-0.104347,9.5e-05,-0.007516
190426,-0.141339,0.000364,-1.55332,-0.087048,-0.0,-0.0,3.0,0.340064,0.284903,0.311273,0.3612,-0.092847,1e-06,-0.016112,-0.051076,2.2e-05,-0.000245,-0.141688,0.001086,-1.420044,-0.103812,7.8e-05,-0.007519
190446,-0.143164,-0.000247,-1.553666,-0.08716,-0.0,-0.0,3.0,0.343791,0.284214,0.306999,0.361697,-0.093855,1e-06,-0.016117,-0.049275,2.3e-05,-0.000245,-0.143759,0.001088,-1.420195,-0.098031,1.7e-05,-0.007523
190466,-0.14438,-0.000772,-1.553888,-0.087201,-0.0,-0.0,3.0,0.343215,0.283979,0.307668,0.361865,-0.094827,1e-06,-0.016122,-0.047394,2.3e-05,-0.000245,-0.145719,0.001088,-1.420345,-0.09022,-3.5e-05,-0.007529
190486,-0.145162,-0.000871,-1.554172,-0.087262,-0.0,-0.0,3.0,0.34046,0.284428,0.310826,0.361543,-0.09576,1e-06,-0.016127,-0.045514,2.3e-05,-0.000245,-0.147488,0.001087,-1.420496,-0.080278,-5.3e-05,-0.00754
190506,-0.145502,-0.000364,-1.55436,-0.087262,-0.0,-0.0,3.0,0.337624,0.285396,0.313994,0.360843,-0.096657,1e-06,-0.016132,-0.04366,2.3e-05,-0.000245,-0.149005,0.001086,-1.420647,-0.06902,-2e-05,-0.007557
190526,-0.145671,0.000129,-1.554736,-0.087227,-0.0,-0.0,3.0,0.336622,0.286646,0.315096,0.359931,-0.097516,1e-06,-0.016137,-0.04176,2.3e-05,-0.000245,-0.150246,0.001086,-1.420798,-0.056644,3e-05,-0.007561
190546,-0.145488,0.000625,-1.554964,-0.08716,-0.0,-0.0,3.0,0.336439,0.288219,0.315296,0.358772,-0.098337,1e-06,-0.016142,-0.039836,2.4e-05,-0.000245,-0.151197,0.001087,-1.42095,-0.042524,7.1e-05,-0.007584
190566,-0.145493,0.000779,-1.555326,-0.087092,-0.0,-0.0,3.0,0.337936,0.289718,0.31365,0.357654,-0.099119,0.0,-0.016146,-0.037941,2.4e-05,-0.000245,-0.151869,0.001088,-1.421101,-0.029718,9.5e-05,-0.007591
190586,-0.145146,0.0004,-1.555679,-0.086915,-0.0,-0.0,3.0,0.340983,0.290978,0.310232,0.356705,-0.099864,0.0,-0.016151,-0.035989,2.4e-05,-0.000245,-0.152321,0.00109,-1.421253,-0.015351,6.6e-05,-0.007613
190606,-0.14454,-5.3e-05,-1.555869,-0.086729,-0.0,-0.0,3.0,0.343463,0.291963,0.30738,0.355956,-0.100569,0.0,-0.016156,-0.033955,2.4e-05,-0.000245,-0.152563,0.001091,-1.421406,-0.004969,1.1e-05,-0.007633
190626,-0.144025,-0.000254,-1.556245,-0.086506,-0.0,-0.0,3.0,0.342339,0.292808,0.308681,0.355309,-0.101234,0.0,-0.016161,-0.031937,2.4e-05,-0.000245,-0.152618,0.001091,-1.421559,0.002802,-2.7e-05,-0.007654
190646,-0.143509,-0.000283,-1.556634,-0.086379,-0.0,-0.0,3.0,0.341143,0.29351,0.31005,0.354769,-0.101858,0.0,-0.016166,-0.030067,2.4e-05,-0.000245,-0.152533,0.001091,-1.421712,0.008669,-4.7e-05,-0.007676
190666,-0.143157,-0.000144,-1.557024,-0.086037,-0.0,-0.0,3.0,0.33882,0.293568,0.312668,0.354724,-0.102446,0.0,-0.016171,-0.028136,2.5e-05,-0.000245,-0.152364,0.00109,-1.421866,0.008724,-3.2e-05,-0.007699
190686,-0.14316,0.000354,-1.557411,-0.085691,-0.0,-0.0,3.0,0.338021,0.293315,0.313556,0.354919,-0.102994,0.0,-0.016176,-0.025989,2.5e-05,-0.000245,-0.152183,0.00109,-1.42202,0.009907,9e-06,-0.007706
190706,-0.143324,0.000681,-1.557599,-0.085434,-0.0,-0.0,3.0,0.337672,0.292555,0.313942,0.355504,-0.103499,0.0,-0.016181,-0.024,2.5e-05,-0.000245,-0.152032,0.001091,-1.422174,0.005458,5.9e-05,-0.007728
190726,-0.143501,0.000836,-1.557948,-0.085105,-0.0,-0.0,3.0,0.33784,0.291345,0.313756,0.356427,-0.103966,0.0,-0.016186,-0.022143,2.5e-05,-0.000245,-0.151983,0.001093,-1.422328,0.000119,9.1e-05,-0.007747
190746,-0.143847,0.000641,-1.55826,-0.08453,-0.0,-0.0,3.0,0.339117,0.290132,0.312337,0.357344,-0.104394,0.0,-0.016191,-0.019975,2.5e-05,-0.000245,-0.152011,0.001095,-1.422483,-0.005397,8e-05,-0.007763
190766,-0.144366,0.000275,-1.558547,-0.084261,-0.0,-0.0,3.0,0.339084,0.288955,0.312374,0.358225,-0.104778,0.0,-0.016196,-0.017899,2.5e-05,-0.000245,-0.152128,0.001096,-1.422639,-0.009777,5.2e-05,-0.007777
190786,-0.144799,-0.000178,-1.558833,-0.083761,-0.0,-0.0,3.0,0.34008,0.287855,0.311255,0.359042,-0.105123,0.0,-0.016201,-0.016032,2.5e-05,-0.000245,-0.152311,0.001096,-1.422794,-0.016723,-2e-06,-0.007788
190806,-0.145151,-0.000367,-1.559144,-0.083227,-0.0,-0.0,3.0,0.338173,0.287059,0.313388,0.359629,-0.10543,0.0,-0.016206,-0.013932,2.5e-05,-0.000245,-0.152559,0.001096,-1.42295,-0.01454,-3e-05,-0.007805
190826,-0.145408,-0.000132,-1.559494,-0.082603,-0.0,-0.0,3.0,0.336099,0.286427,0.315667,0.360092,-0.105693,0.0,-0.01621,-0.011711,2.5e-05,-0.000245,-0.152805,0.001095,-1.423107,-0.011164,-1.4e-05,-0.007808
190846,-0.145405,0.000372,-1.559707,-0.082222,-0.0,-0.0,3.0,0.333603,0.28599,0.318356,0.360411,-0.105913,0.0,-0.016215,-0.00976,2.5e-05,-0.000245,-0.153028,0.001095,-1.423263,-0.010433,3.7e-05,-0.007812
190866,-0.145402,0.000876,-1.55992,-0.081475,-0.0,-0.0,3.0,0.333212,0.285681,0.318771,0.360636,-0.106096,0.0,-0.01622,-0.00778,2.5e-05,-0.000245,-0.153211,0.001096,-1.423419,-0.005557,8.6e-05,-0.007837
190886,-0.145229,0.001195,-1.560308,-0.081117,-0.0,-0.0,3.0,0.334981,0.285648,0.316878,0.36066,-0.106237,0.0,-0.016225,-0.005854,2.5e-05,-0.000245,-0.153326,0.001098,-1.423576,-0.001604,0.000117,-0.00786
190906,-0.145052,0.00083,-1.560471,-0.079992,-0.0,-0.0,3.0,0.33847,0.285099,0.313058,0.361058,-0.106342,0.0,-0.01623,-0.003567,2.5e-05,-0.000245,-0.153382,0.0011,-1.423733,-0.002034,0.000107,-0.00786
190926,-0.144975,0.000381,-1.560795,-0.079549,-0.0,-0.0,3.0,0.340902,0.284907,0.310324,0.361197,-0.106394,0.0,-0.016235,-0.001218,2.5e-05,-0.000245,-0.153407,0.001102,-1.42389,0.001888,6.2e-05,-0.007861
190946,-0.144627,-0.000156,-1.560958,-0.078787,-0.0,-0.0,3.0,0.340425,0.284496,0.310866,0.361494,-0.106407,0.0,-0.01624,0.000586,2.5e-05,-0.000245,-0.153389,0.001103,-1.424048,0.00389,2.6e-05,-0.007879
190966,-0.144283,-0.000343,-1.561146,-0.077976,-0.0,-0.0,3.0,0.340139,0.284147,0.311188,0.361745,-0.106382,0.0,-0.016245,0.00269,2.5e-05,-0.000245,-0.153324,0.001103,-1.424205,0.006592,-1e-06,-0.007863
190986,-0.143939,-0.000357,-1.561346,-0.077134,-0.0,-0.0,3.0,0.337774,0.284099,0.313829,0.361779,-0.106314,0.0,-0.01625,0.004913,2.5e-05,-0.000245,-0.153178,0.001103,-1.424363,0.010481,6e-06,-0.007869
191006,-0.143499,0.000238,-1.561423,-0.076655,-0.0,-0.0,3.0,0.334111,0.284209,0.317813,0.3617,-0.106202,0.0,-0.016255,0.006653,2.5e-05,-0.000245,-0.152956,0.001103,-1.42452,0.012179,5.6e-05,-0.007877
191026,-0.143326,0.000569,-1.561636,-0.075327,-0.0,-0.0,3.0,0.335959,0.283536,0.315819,0.362183,-0.106058,0.0,-0.01626,0.008826,2.5e-05,-0.000245,-0.152696,0.001104,-1.424678,0.01101,8.9e-05,-0.007882
191046,-0.142981,0.000555,-1.561836,-0.074753,-0.0,-0.0,3.0,0.338462,0.283251,0.313066,0.362387,-0.105864,0.0,-0.016265,0.01114,2.5e-05,-0.000245,-0.152441,0.001106,-1.424835,0.013483,9.7e-05,-0.00787
191066,-0.142459,0.000374,-1.561862,-0.073368,-0.0,-0.0,3.0,0.339302,0.28275,0.31213,0.362744,-0.105629,0.0,-0.01627,0.013394,2.5e-05,-0.000245,-0.152141,0.001108,-1.424993,0.016434,7.8e-05,-0.007875
191086,-0.141858,0.000101,-1.562061,-0.072658,-0.0,-0.0,3.0,0.339217,0.282786,0.312225,0.362718,-0.105344,0.0,-0.016275,0.015699,2.5e-05,-0.000245,-0.151781,0.001109,-1.42515,0.019812,5e-05,-0.007879
191106,-0.141165,-0.000437,-1.56225,-0.071897,-0.0,-0.0,3.0,0.34216,0.282837,0.308886,0.362682,-0.10502,0.0,-0.016279,0.017211,2.5e-05,-0.000245,-0.151355,0.001109,-1.425308,0.024625,-1.2e-05,-0.007882
191126,-0.140304,-0.000452,-1.562487,-0.070838,-0.0,-0.0,3.0,0.341539,0.283016,0.309598,0.362554,-0.104666,0.0,-0.016284,0.018992,2.5e-05,-0.000245,-0.150831,0.001109,-1.425465,0.029206,-4.8e-05,-0.007888
191146,-0.139345,-0.000382,-1.562562,-0.069737,-0.0,-0.0,3.0,0.341865,0.283053,0.309225,0.362528,-0.104272,0.0,-0.016289,0.021238,2.5e-05,-0.000245,-0.150223,0.001108,-1.425623,0.031566,-5.9e-05,-0.007894
191166,-0.13831,-5.4e-05,-1.562835,-0.068616,-0.0,-0.0,3.0,0.339552,0.283012,0.311849,0.362557,-0.103832,0.0,-0.016294,0.023489,2.5e-05,-0.000245,-0.149567,0.001107,-1.425781,0.037996,-1.7e-05,-0.00789
191186,-0.136919,0.000273,-1.562957,-0.067219,-0.0,-0.0,3.0,0.339057,0.283029,0.312403,0.362545,-0.103348,0.0,-0.016299,0.025934,2.5e-05,-0.000245,-0.148812,0.001108,-1.425939,0.043077,2.5e-05,-0.007885
191206,-0.135453,0.000686,-1.563263,-0.067219,-0.0,-0.0,3.0,0.338352,0.284151,0.313189,0.361742,-0.102817,0.0,-0.016304,0.027012,2.5e-05,-0.000245,-0.147922,0.001109,-1.426096,0.048658,6.6e-05,-0.007899
191226,-0.134157,0.000406,-1.563509,-0.065069,-0.0,-0.0,3.0,0.34031,0.283977,0.310995,0.361867,-0.102275,0.0,-0.016309,0.028761,2.4e-05,-0.000245,-0.146922,0.00111,-1.426254,0.05389,6.3e-05,-0.00791
191246,-0.132603,-0.000145,-1.563929,-0.063961,-0.0,-0.0,3.0,0.341882,0.284622,0.309205,0.361403,-0.101676,0.0,-0.016314,0.031979,2.4e-05,-0.000245,-0.145804,0.001111,-1.426413,0.059849,9e-06,-0.007919
191266,-0.130962,-0.000599,-1.564185,-0.063961,-0.0,-0.0,3.0,0.341917,0.285842,0.309165,0.360519,-0.101026,0.0,-0.016319,0.032657,2.4e-05,-0.000245,-0.144561,0.001111,-1.426571,0.06418,-4.5e-05,-0.007927
191286,-0.129051,-0.000794,-1.564302,-0.062193,-0.0,-0.0,3.0,0.339372,0.286367,0.312051,0.360135,-0.100375,0.0,-0.016324,0.033623,2.4e-05,-0.000245,-0.143207,0.00111,-1.42673,0.07163,-6.5e-05,-0.00794
191306,-0.126805,-0.000645,-1.564635,-0.060313,-0.0,-0.0,3.0,0.336682,0.287106,0.31503,0.359594,-0.099683,0.0,-0.016329,0.037088,2.4e-05,-0.000245,-0.141694,0.001109,-1.426889,0.079288,-5e-05,-0.007957
191326,-0.124552,2.6e-05,-1.564823,-0.058976,-0.0,-0.0,3.0,0.332247,0.288115,0.319792,0.358849,-0.098919,-0.0,-0.016334,0.040147,2.4e-05,-0.000245,-0.140033,0.001108,-1.427048,0.087356,1.8e-05,-0.00796
191346,-0.122391,0.000607,-1.565171,-0.05759,-0.0,-0.0,3.0,0.332425,0.288959,0.319604,0.358222,-0.098103,-0.0,-0.016339,0.04214,2.3e-05,-0.000245,-0.138226,0.001108,-1.427208,0.093434,6.6e-05,-0.007979
191366,-0.120141,0.00058,-1.565483,-0.056898,-0.0,-0.0,3.0,0.33581,0.290131,0.315981,0.357344,-0.097252,-0.0,-0.016343,0.043248,2.3e-05,-0.000245,-0.136304,0.001109,-1.427367,0.099025,7.3e-05,-0.007995
191386,-0.117633,0.000294,-1.565793,-0.054838,-0.0,-0.0,3.0,0.339489,0.290809,0.31192,0.356833,-0.096382,-0.0,-0.016348,0.045159,2.3e-05,-0.000245,-0.134268,0.00111,-1.427527,0.105476,4.4e-05,-0.00801
191406,-0.11513,-0.000158,-1.56609,-0.053732,-0.0,-0.0,3.0,0.341043,0.291833,0.310164,0.356055,-0.09546,-0.0,-0.016353,0.047691,2.3e-05,-0.000245,-0.132121,0.001111,-1.427688,0.111586,7e-06,-0.008025
191426,-0.112368,-0.000878,-1.566558,-0.053022,-0.0,-0.0,3.0,0.341651,0.292961,0.309471,0.355192,-0.094499,-0.0,-0.016358,0.048525,2.2e-05,-0.000245,-0.129881,0.001111,-1.427848,0.116416,-4.7e-05,-0.008038
191446,-0.109596,-0.001071,-1.566706,-0.05108,-0.0,-0.0,3.0,0.340266,0.293424,0.311045,0.354835,-0.093525,-0.0,-0.016363,0.050039,2.2e-05,-0.000245,-0.127555,0.001109,-1.428009,0.121199,-7.5e-05,-0.008053
191466,-0.106914,-0.000827,-1.566868,-0.049213,-0.0,-0.0,3.0,0.337779,0.293975,0.313823,0.354409,-0.092506,-0.0,-0.016368,0.053124,2.2e-05,-0.000245,-0.125138,0.001108,-1.42817,0.125982,-5.9e-05,-0.008054
191486,-0.10415,-0.000156,-1.567227,-0.048418,-0.0,-0.0,3.0,0.335881,0.295094,0.315904,0.353538,-0.091428,-0.0,-0.016373,0.054842,2.2e-05,-0.000245,-0.122627,0.001107,-1.428331,0.127088,-9e-06,-0.008072
191506,-0.101641,0.000262,-1.56738,-0.046863,-0.0,-0.0,3.0,0.335833,0.295703,0.315957,0.353061,-0.09033,-0.0,-0.016378,0.055783,2.1e-05,-0.000245,-0.120064,0.001107,-1.428493,0.128712,5e-05,-0.008073
191526,-0.098963,0.000503,-1.567702,-0.045276,-0.0,-0.0,3.0,0.335909,0.29607,0.315874,0.352772,-0.089204,-0.0,-0.016383,0.057703,2.1e-05,-0.000245,-0.117487,0.001108,-1.428654,0.131333,0.0001,-0.008073
191546,-0.096541,0.000146,-1.567804,-0.043682,-0.0,-0.0,3.0,0.339802,0.29606,0.311568,0.35278,-0.088038,-0.0,-0.016388,0.059806,2.1e-05,-0.000245,-0.114904,0.00111,-1.428816,0.126719,8.1e-05,-0.008085
191566,-0.094038,-0.000474,-1.56807,-0.042763,-0.0,-0.0,3.0,0.341197,0.296332,0.309988,0.352565,-0.086833,-0.0,-0.016393,0.060951,2.1e-05,-0.000245,-0.11237,0.001111,-1.428978,0.125122,1e-05,-0.008094
191586,-0.091879,-0.001092,-1.568317,-0.041422,-0.0,-0.0,3.0,0.340686,0.296502,0.31057,0.352431,-0.085613,-0.0,-0.016398,0.061634,2e-05,-0.000245,-0.109848,0.00111,-1.429139,0.123754,-6.1e-05,-0.008104
191606,-0.089633,-0.001452,-1.568578,-0.039968,-0.0,-0.0,3.0,0.340691,0.296441,0.310564,0.35248,-0.084374,-0.0,-0.016403,0.062994,2e-05,-0.000245,-0.107372,0.001108,-1.429301,0.120609,-0.000114,-0.008113
191626,-0.087556,-0.001462,-1.568673,-0.037456,-0.0,-0.0,3.0,0.338662,0.295799,0.312845,0.352986,-0.083103,-0.0,-0.016407,0.065785,2e-05,-0.000245,-0.104958,0.001106,-1.429464,0.119496,-0.000123,-0.008107
191646,-0.085227,-0.000868,-1.568975,-0.036291,-0.0,-0.0,3.0,0.336093,0.295965,0.315673,0.352855,-0.081767,-0.0,-0.016412,0.068189,1.9e-05,-0.000245,-0.102586,0.001103,-1.429626,0.121356,-8e-05,-0.008104
191666,-0.082807,-0.000184,-1.569108,-0.03423,-0.0,-0.0,3.0,0.336752,0.295459,0.314954,0.353252,-0.080398,-0.0,-0.016417,0.069736,1.9e-05,-0.000245,-0.100242,0.001102,-1.429788,0.117621,-1.2e-05,-0.008116
