time_ms,roll,pitch,yaw,roll_rate,pitch_rate,yaw_rate,reference_roll,reference_pitch,reference_yaw,reference_throttle,throttle_1,throttle_2,throttle_3,throttle_4,roll_predicted,pitch_predicted,yaw_predicted,roll_rate_predicted,pitch_rate_predicted,yaw_rate_predicted
165900,0.000569,0.027463,0.01477,-0.001064,0.0,0.0,0.0,-0.0,-0.0,2.0,0.282024,0.276287,0.282024,0.287599,,,,,,
165920,0.000448,0.027342,0.014894,-0.001093,0.0,-0.001065,0.0,-0.0,-0.0,2.0,0.282024,0.276003,0.282024,0.287865,,,,,,
165940,0.000324,0.027099,0.014895,-0.001093,0.0,-0.001065,0.0,-0.0,-0.0,2.0,0.282024,0.275871,0.282024,0.28799,,,,,,
165960,7.9e-05,0.026979,0.014899,-0.001064,-0.001064,-0.0,0.0,-0.0,-0.0,2.0,0.282024,0.275746,0.282024,0.288108,,,,,,
165980,-4.2e-05,0.02698,0.015022,-0.001093,-0.0,-0.001065,0.0,-0.0,-0.0,2.0,0.282024,0.281189,0.282024,0.282856,,,,,,
166000,-4e-05,0.02698,0.015144,-2.9e-05,-0.001064,-0.001065,0.0,-0.0,-0.0,2.0,0.282024,0.28104,0.282024,0.283003,,,,,,
166020,8.4e-05,0.027223,0.015143,-0.0,-0.001064,-0.0,0.0,-0.0,-0.0,2.0,0.282024,0.275596,0.282024,0.288248,,,,,,
166040,8.8e-05,0.027468,0.015268,-0.001093,0.0,-0.001065,0.0,-0.0,-0.0,2.0,0.282024,0.281334,0.282024,0.282712,,,,,,
166060,0.00021,0.027468,0.015266,-0.0,-0.001064,-0.0,0.0,-0.0,-0.0,2.0,0.282024,0.275746,0.282024,0.288107,,,,,,
166080,8.9e-05,0.027468,0.01539,-0.001093,0.0,-0.001065,0.0,-0.0,-0.0,2.0,0.282024,0.281344,0.282024,0.282702,,,,,,
166100,-3.4e-05,0.027347,0.015391,-0.001093,-0.0,-0.001065,0.0,-0.0,-0.0,2.0,0.282024,0.275469,0.282024,0.288367,,,,,,
166120,-0.000155,0.027226,0.015515,-0.001064,-0.001064,0.0,0.0,-0.0,-0.0,2.0,0.282024,0.275326,0.282024,0.288501,,,,,,
166140,-0.000276,0.027227,0.015639,-0.001093,-0.0,-0.001065,0.0,-0.0,-0.0,2.0,0.282024,0.280924,0.282024,0.283118,,,,,,
166160,-0.000277,0.027225,0.015514,0.0,-0.001064,0.0,0.0,-0.0,-0.0,2.0,0.282024,0.275171,0.282024,0.288646,,,,,,
166180,-0.000153,0.027348,0.015637,0.0,-0.001064,0.0,0.0,-0.0,-0.0,2.0,0.282024,0.281051,0.282024,0.282992,,,,,,
166200,-3e-05,0.027469,0.015636,-2.9e-05,-0.001064,-0.001065,0.0,-0.0,-0.0,2.0,0.282024,0.281036,0.282024,0.283008,,,,,,
166220,9.3e-05,0.02759,0.015634,-0.0,-0.001064,-0.0,0.0,-0.0,-0.0,2.0,0.282024,0.275593,0.282024,0.288251,,,,,,
166240,9.3e-05,0.027468,0.015634,-0.001093,0.0,-0.001065,0.0,-0.0,-0.0,2.0,0.282024,0.27575,0.282024,0.288103,,,,,,
166260,-3e-05,0.027347,0.015636,-0.001064,0.0,0.0,0.0,-0.0,-0.0,2.0,0.282024,0.275453,0.282024,0.288382,,,,,,
166280,-3e-05,0.027347,0.015636,-0.001093,-0.0,-0.001065,0.0,-0.0,-0.0,2.0,0.282024,0.275453,0.282024,0.288382,,,,,,
166300,-0.000153,0.027226,0.015637,0.0,-0.001064,0.0,0.0,-0.0,-0.0,2.0,0.282024,0.275462,0.282024,0.288374,,,,,,
166320,-0.000153,0.027226,0.015637,0.0,-0.001064,0.0,0.0,-0.0,-0.0,2.0,0.282024,0.281045,0.282024,0.282998,,,,,,
166340,-3e-05,0.027347,0.015636,-2.9e-05,-0.001064,-0.001065,0.0,-0.0,-0.0,2.0,0.282024,0.281032,0.282024,0.283012,,,,,,
166360,9.1e-05,0.027468,0.015512,-2.9e-05,-0.001064,-0.001065,0.0,-0.0,-0.0,2.0,0.282024,0.281321,0.282024,0.282725,,,,,,
166380,0.000213,0.027467,0.01551,-0.001064,-0.001064,-0.0,0.0,-0.0,-0.0,2.0,0.282024,0.281463,0.282024,0.282584,,,,,,
166400,-3e-05,0.027591,0.015514,-0.001064,0.0,0.0,0.0,-0.0,-0.0,2.0,0.282024,0.275608,0.282024,0.288237,,,,,,
166420,-0.000275,0.027471,0.015517,-0.001093,-0.0,-0.001065,0.0,-0.0,-0.0,2.0,0.282024,0.275164,0.282024,0.288652,,,,,,
166440,-0.000276,0.027349,0.015517,-0.001064,-0.001064,0.0,0.0,-0.0,-0.0,2.0,0.282024,0.275157,0.282024,0.288659,,,,,,
166460,-0.000398,0.02735,0.015519,-2.9e-05,-0.0,-0.001065,0.0,-0.0,-0.0,2.0,0.282024,0.280757,0.282024,0.283283,,,,,,
166480,-0.000276,0.027349,0.015517,-2.9e-05,-0.001065,-0.001064,0.0,-0.0,-0.0,2.0,0.282024,0.275141,0.282024,0.288674,,,,,,
166500,-0.000153,0.02747,0.015515,0.0,-0.001064,0.0,0.0,-0.0,-0.0,2.0,0.282024,0.281021,0.282024,0.283022,,,,,,
166520,-2.9e-05,0.027713,0.015514,-3e-05,-0.0,-0.001065,0.0,-0.0,-0.0,2.0,0.282024,0.28116,0.282024,0.282884,,,,,,
166540,0.000336,0.027589,0.015509,-0.0,-0.001064,-0.0,0.0,-0.0,-0.0,2.0,0.282024,0.275848,0.282024,0.288011,,,,,,
166560,0.000214,0.02759,0.01551,-0.001094,0.0,-0.001065,0.0,-0.0,-0.0,2.0,0.282024,0.281443,0.282024,0.282604,,,,,,
166580,-3e-05,0.027591,0.015514,-0.001094,-0.0,-0.001065,0.0,-0.0,-0.0,2.0,0.282024,0.275588,0.282024,0.288256,,,,,,
166600,-0.000153,0.02747,0.015515,-0.001064,-0.001064,0.0,0.0,-0.0,-0.0,2.0,0.282024,0.275285,0.282024,0.288539,,,,,,
166620,-0.000275,0.027471,0.015517,-0.001093,-0.0,-0.001065,0.0,-0.0,-0.0,2.0,0.282024,0.275138,0.282024,0.288677,,,,,,
166640,-0.000274,0.027593,0.015517,-2.9e-05,-0.001065,-0.001064,0.0,-0.0,-0.0,2.0,0.282024,0.280879,0.282024,0.283163,,,,,,
166660,-0.000151,0.027714,0.015515,0.0,-0.001064,0.0,0.0,-0.0,-0.0,2.0,0.282024,0.281012,0.282024,0.283031,,,,,,
166680,9.3e-05,0.027713,0.015512,-3e-05,-0.001064,-0.001065,0.0,-0.0,-0.0,2.0,0.282024,0.281134,0.282024,0.28291,,,,,,
166700,0.000216,0.027834,0.01551,-3e-05,0.0,-0.001065,0.0,-0.0,-0.0,2.0,0.282024,0.281429,0.282024,0.282617,,,,,,
166720,0.000212,0.02759,0.015388,-0.001064,0.0,0.0,0.0,-0.0,-0.0,2.0,0.282024,0.275855,0.282024,0.288005,,,,,,
166740,-3e-05,0.027591,0.015514,-0.001064,0.0,0.0,0.0,-0.0,-0.0,2.0,0.282024,0.275577,0.282024,0.288266,,,,,,
166760,-0.000153,0.02747,0.015515,-0.001093,-0.0,-0.001065,0.0,-0.0,-0.0,2.0,0.282024,0.275276,0.282024,0.288547,,,,,,
166780,-0.0004,0.02735,0.015396,-0.001064,-0.001064,0.0,0.0,-0.0,-0.0,2.0,0.282024,0.275138,0.282024,0.288676,,,,,,
166800,-0.000523,0.027473,0.015276,-0.001064,-0.001064,1e-06,0.0,-0.0,-0.0,2.0,0.282024,0.274984,0.282024,0.28882,,,,,,
166820,-0.000401,0.027594,0.015152,0.0,-0.001064,0.0,0.0,-0.0,-0.0,2.0,0.282024,0.280558,0.282024,0.28348,,,,,,
166840,-0.00028,0.027715,0.015029,0.0,0.0,0.0,0.0,-0.0,-0.0,2.0,0.282024,0.280839,0.282024,0.283202,,,,,,
166860,-0.00016,0.027714,0.014905,0.0,0.0,0.0,0.0,-0.0,-0.0,2.0,0.282024,0.280969,0.282024,0.283074,,,,,,
166880,-0.000162,0.027714,0.014783,-0.001064,-0.001064,0.0,0.0,-0.0,-0.0,2.0,0.282024,0.280962,0.282024,0.28308,,,,,,
166900,-0.000408,0.027592,0.014661,-0.001094,-0.0,-0.001065,0.0,-0.0,-0.0,2.0,0.282024,0.275081,0.282024,0.28873,,,,,,
166920,-0.000413,0.027348,0.014417,-0.001064,0.0,0.0,0.0,-0.0,-0.0,2.0,0.282024,0.275066,0.282024,0.288744,,,,,,
166940,-0.000661,0.02735,0.014176,-0.001064,-0.001064,1e-06,0.0,-0.0,-0.0,2.0,0.282024,0.28037,0.282024,0.283665,,,,,,
166960,-0.000786,0.027351,0.013934,-2.9e-05,-1e-06,-0.001065,0.0,-0.0,-0.0,2.0,0.282024,0.274601,0.282024,0.289177,,,,,,
166980,-0.000667,0.02735,0.013688,0.0,-0.001064,1e-06,0.0,-0.0,-0.0,2.0,0.282024,0.274721,0.282024,0.289065,,,,,,
167000,-0.00067,0.027472,0.013444,0.0,-0.001064,1e-06,0.0,-0.0,-0.0,2.0,0.282024,0.280311,0.282024,0.283723,,,,,,
167020,-0.000551,0.027471,0.013198,0.0,-0.001064,1e-06,0.0,-0.0,-0.0,2.0,0.282024,0.274827,0.282024,0.288967,,,,,,
167040,-0.000554,0.027593,0.012954,-0.001064,0.0,0.0,0.0,-0.0,-0.0,2.0,0.282024,0.27481,0.282024,0.288982,,,,,,
167060,-0.000679,0.02735,0.012833,-0.001064,0.0,0.0,0.0,-0.0,-0.0,2.0,0.282024,0.27465,0.282024,0.289131,,,,,,
167080,-0.000683,0.027228,0.012589,-0.001064,-0.001064,1e-06,0.0,-0.0,-0.0,2.0,0.282024,0.274628,0.282024,0.289151,,,,,,
167100,-0.000805,0.027228,0.01259,-2.9e-05,-1e-06,-0.001065,0.0,-0.0,-0.0,2.0,0.282024,0.280083,0.282024,0.283946,,,,,,
167120,-0.000687,0.027228,0.012345,-0.001064,-0.001064,1e-06,0.0,-0.0,-0.0,2.0,0.282024,0.280201,0.282024,0.283831,,,,,,
167140,-0.000565,0.027227,0.012343,0.0,-0.001064,1e-06,0.0,-0.0,-0.0,2.0,0.282024,0.280325,0.282024,0.283709,,,,,,
167160,-0.000318,0.027347,0.012462,-2.9e-05,-0.001065,-0.001064,0.0,-0.0,-0.0,2.0,0.282024,0.280442,0.282024,0.283594,,,,,,
167180,-0.000315,0.027591,0.012584,-0.001094,-0.001065,-0.001064,0.0,-0.0,-0.0,2.0,0.282024,0.274833,0.282024,0.28896,,,,,,
167200,-0.000316,0.027469,0.012584,-0.001093,-0.0,-0.001065,0.0,-0.0,-0.0,2.0,0.282024,0.274981,0.282024,0.288823,,,,,,
167220,-0.000436,0.02747,0.012708,-0.001064,0.0,0.0,0.0,-0.0,-0.0,2.0,0.282024,0.274674,0.282024,0.289109,,,,,,
167240,-0.000677,0.027472,0.012955,-0.001093,-1e-06,-0.001065,0.0,-0.0,-0.0,2.0,0.282024,0.274379,0.282024,0.289382,,,,,,
167260,-0.000677,0.02735,0.012955,-2.9e-05,-0.001065,-0.001064,0.0,-0.0,-0.0,2.0,0.282024,0.27998,0.282024,0.284048,,,,,,
167280,-0.000673,0.027472,0.013199,-2.9e-05,-1e-06,-0.001065,0.0,-0.0,-0.0,2.0,0.282024,0.28012,0.282024,0.283909,,,,,,
167300,-0.000428,0.027348,0.013318,-2.9e-05,-0.001065,-0.001064,0.0,-0.0,-0.0,2.0,0.282024,0.280233,0.282024,0.283799,,,,,,
167320,-0.000305,0.027469,0.013316,-0.001093,-0.001065,-0.001064,0.0,-0.0,-0.0,2.0,0.282024,0.280363,0.282024,0.283671,,,,,,
167340,-0.000303,0.027592,0.013439,-0.001094,-0.0,-0.001065,0.0,-0.0,-0.0,2.0,0.282024,0.274752,0.282024,0.289036,,,,,,
167360,-0.000423,0.027592,0.013562,-0.001064,-0.001064,0.0,0.0,-0.0,-0.0,2.0,0.282024,0.274602,0.282024,0.289176,,,,,,
167380,-0.000788,0.027595,0.01369,-0.001094,-1e-06,-0.001065,0.0,-0.0,-0.0,2.0,0.282024,0.274162,0.282024,0.289583,,,,,,
167400,-0.000667,0.027472,0.013688,0.0,0.0,0.0,0.0,-0.0,-0.0,2.0,0.282024,0.274287,0.282024,0.289468,,,,,,
167420,-0.000666,0.02735,0.01381,-2.9e-05,-1e-06,-0.001065,0.0,-0.0,-0.0,2.0,0.282024,0.280043,0.282024,0.283985,,,,,,
167440,-0.000544,0.027349,0.013808,-2.9e-05,-1e-06,-0.001065,0.0,-0.0,-0.0,2.0,0.282024,0.280016,0.282024,0.284012,,,,,,
167460,-0.000178,0.027347,0.013803,0.0,-0.001064,0.0,0.0,-0.0,-0.0,2.0,0.282024,0.280422,0.282024,0.283613,,,,,,
167480,-0.000175,0.027469,0.013925,-2.9e-05,-0.0,-0.001065,0.0,-0.0,-0.0,2.0,0.282024,0.280572,0.282024,0.283466,,,,,,
167500,-0.000176,0.027347,0.013925,-0.001064,-0.001064,0.0,0.0,-0.0,-0.0,2.0,0.282024,0.274811,0.282024,0.288981,,,,,,
167520,-0.000173,0.027469,0.014047,-0.001093,-0.0,-0.001065,0.0,-0.0,-0.0,2.0,0.282024,0.274965,0.282024,0.288838,,,,,,
167540,-0.00054,0.027471,0.014052,-0.001093,-1e-06,-0.001065,0.0,-0.0,-0.0,2.0,0.282024,0.274529,0.282024,0.289243,,,,,,
167560,-0.000662,0.02735,0.014054,-0.001064,-0.001064,1e-06,0.0,-0.0,-0.0,2.0,0.282024,0.274214,0.282024,0.289535,,,,,,
167580,-0.000661,0.02735,0.014176,-2.9e-05,-1e-06,-0.001065,0.0,-0.0,-0.0,2.0,0.282024,0.279822,0.282024,0.284201,,,,,,
167600,-0.000539,0.027349,0.014174,-2.9e-05,-0.001065,-0.001064,0.0,-0.0,-0.0,2.0,0.282024,0.280098,0.282024,0.283931,,,,,,
167620,-0.000295,0.027347,0.014171,0.0,-0.001064,0.0,0.0,-0.0,-0.0,2.0,0.282024,0.280366,0.282024,0.283668,,,,,,
167640,-4.9e-05,0.027346,0.01429,0.0,-0.001064,0.0,0.0,-0.0,-0.0,2.0,0.282024,0.28049,0.282024,0.283547,,,,,,
167660,-0.000171,0.027347,0.014291,-0.001093,-0.0,-0.001065,0.0,-0.0,-0.0,2.0,0.282024,0.280501,0.282024,0.283536,,,,,,
167680,-0.000292,0.027225,0.014415,-0.001093,-0.001065,-0.001064,0.0,-0.0,-0.0,2.0,0.282024,0.274598,0.282024,0.289179,,,,,,
167700,-0.000536,0.027227,0.014419,-0.001064,-0.001064,1e-06,0.0,-0.0,-0.0,2.0,0.282024,0.274303,0.282024,0.289452,,,,,,
167720,-0.000779,0.027229,0.014544,-0.001093,-1e-06,-0.001065,0.0,-0.0,-0.0,2.0,0.282024,0.274003,0.282024,0.28973,,,,,,
167740,-0.000901,0.02723,0.014546,0.0,-0.001064,1e-06,0.0,-0.0,-0.0,2.0,0.282024,0.27384,0.282024,0.28988,,,,,,
167760,-0.000776,0.027351,0.014666,-2.9e-05,-1e-06,-0.001065,0.0,-0.0,-0.0,2.0,0.282024,0.279745,0.282024,0.284277,,,,,,
167780,-0.00041,0.027348,0.014661,0.0,-0.001064,0.0,0.0,-0.0,-0.0,2.0,0.282024,0.279994,0.282024,0.284034,,,,,,
167800,-0.000166,0.027347,0.014658,-2.9e-05,-0.0,-0.001065,0.0,-0.0,-0.0,2.0,0.282024,0.280416,0.282024,0.283619,,,,,,
167820,8e-05,0.027345,0.014777,-0.001093,0.0,-0.001065,0.0,-0.0,-0.0,2.0,0.282024,0.280542,0.282024,0.283495,,,,,,
167840,7.9e-05,0.027223,0.014777,-0.001064,-0.001064,-0.0,0.0,-0.0,-0.0,2.0,0.282024,0.274942,0.282024,0.288859,,,,,,
167860,-0.000283,0.027348,0.015026,-0.001093,-0.0,-0.001065,0.0,-0.0,-0.0,2.0,0.282024,0.274672,0.282024,0.28911,,,,,,
167880,-0.00065,0.027228,0.015031,-0.001093,-0.001065,-0.001064,0.0,-0.0,-0.0,2.0,0.282024,0.274233,0.282024,0.289517,,,,,,
167900,-0.000769,0.027351,0.015154,0.0,-0.001064,1e-06,0.0,-0.0,-0.0,2.0,0.282024,0.279551,0.282024,0.284466,,,,,,
167920,-0.000767,0.027475,0.015279,-2.9e-05,-0.001065,-0.001064,0.0,-0.0,-0.0,2.0,0.282024,0.279534,0.282024,0.284483,,,,,,
167940,-0.0004,0.027594,0.015274,-2.9e-05,-0.001065,-0.001064,0.0,-0.0,-0.0,2.0,0.282024,0.279936,0.282024,0.28409,,,,,,
167960,-3.2e-05,0.027591,0.015391,0.0,0.0,0.0,0.0,-0.0,-0.0,2.0,0.282024,0.2805,0.282024,0.283536,,,,,,
167980,0.000213,0.027467,0.01551,-0.001093,0.0,-0.001065,0.0,-0.0,-0.0,2.0,0.282024,0.280628,0.282024,0.283411,,,,,,
168000,9.3e-05,0.027468,0.015634,-0.001093,0.0,-0.001065,0.0,-0.0,-0.0,2.0,0.282024,0.274893,0.282024,0.288904,,,,,,
168020,-3e-05,0.027225,0.015758,-0.001093,-0.001064,-0.001065,0.0,-0.0,-0.0,2.0,0.282024,0.274753,0.282024,0.289035,,,,,,
168040,-0.000394,0.027106,0.016007,-0.001093,-0.0,-0.001065,0.0,-0.0,-0.0,2.0,0.282024,0.274325,0.282024,0.289432,,,,,,
168060,-0.000514,0.027107,0.016131,-0.001093,-0.001065,-0.001064,0.0,-0.0,-0.0,2.0,0.282024,0.274017,0.282024,0.289717,,,,,,
168080,-0.000633,0.02723,0.016254,-2.9e-05,-0.001065,-0.001064,0.0,-0.0,-0.0,2.0,0.282024,0.279798,0.282024,0.284226,,,,,,
168100,-0.000384,0.027472,0.016495,-2.9e-05,-0.0,-0.001065,0.0,-0.0,-0.0,2.0,0.282024,0.279917,0.282024,0.284109,,,,,,
168120,-1.5e-05,0.027591,0.016613,0.0,-0.001064,0.0,0.0,-0.0,-0.0,2.0,0.282024,0.280329,0.282024,0.283704,,,,,,
168140,0.00011,0.02759,0.016855,-2.9e-05,0.0,-0.001065,0.0,-0.0,-0.0,2.0,0.282024,0.280472,0.282024,0.283564,,,,,,
168160,0.000233,0.027467,0.016975,-0.001093,0.0,-0.001065,0.0,-0.0,-0.0,2.0,0.282024,0.275018,0.282024,0.288789,,,,,,
168180,0.000112,0.027224,0.017221,-0.001093,0.0,-0.001065,0.0,-0.0,-0.0,2.0,0.282024,0.274882,0.282024,0.288915,,,,,,
168200,-0.000252,0.027105,0.01747,-0.001093,-0.0,-0.001065,0.0,-0.0,-0.0,2.0,0.282024,0.274458,0.282024,0.289309,,,,,,
168220,-0.000493,0.027107,0.017718,-0.001093,-0.001065,-0.001064,0.0,-0.0,-0.0,2.0,0.282024,0.274167,0.282024,0.289578,,,,,,
168240,-0.000489,0.027351,0.01784,-2.9e-05,-0.001065,-0.001064,0.0,-0.0,-0.0,2.0,0.282024,0.279782,0.282024,0.284241,,,,,,
168260,-0.000484,0.027473,0.018084,-2.9e-05,-0.001065,-0.001064,0.0,-0.0,-0.0,2.0,0.282024,0.279774,0.282024,0.284249,,,,,,
168280,-0.000114,0.027592,0.018324,-2.9e-05,-0.001064,-0.001065,0.0,-0.0,-0.0,2.0,0.282024,0.280186,0.282024,0.283845,,,,,,
168300,0.000133,0.027712,0.018442,-2.9e-05,0.0,-0.001065,0.0,-0.0,-0.0,2.0,0.282024,0.280466,0.282024,0.28357,,,,,,
168320,0.000256,0.027589,0.018563,-0.001094,0.0,-0.001065,0.0,-0.0,-0.0,2.0,0.282024,0.275011,0.282024,0.288795,,,,,,
168340,0.000137,0.027346,0.018931,-0.001093,0.0,-0.001065,0.0,-0.0,-0.0,2.0,0.282024,0.274878,0.282024,0.288919,,,,,,
168360,1.4e-05,0.027103,0.019054,-0.001093,0.0,-0.001065,0.0,-0.0,-0.0,2.0,0.282024,0.274739,0.282024,0.289048,,,,,,
168380,-0.00023,0.026983,0.01918,-0.001093,-0.001064,-0.001064,0.0,-0.0,-0.0,2.0,0.282024,0.274451,0.282024,0.289315,,,,,,
168400,-0.000348,0.026984,0.019426,-2.9e-05,-0.001065,-0.001064,0.0,-0.0,-0.0,2.0,0.282024,0.274306,0.282024,0.28945,,,,,,
168420,-0.0001,0.027226,0.019544,-2.9e-05,-0.001064,-0.001065,0.0,-0.0,-0.0,2.0,0.282024,0.280199,0.282024,0.283832,,,,,,
168440,0.000148,0.027468,0.019663,-2.9e-05,-0.001064,-0.001065,0.0,-0.0,-0.0,2.0,0.282024,0.28063,0.282024,0.283408,,,,,,
168460,0.000397,0.027587,0.019904,-0.001094,-0.001064,-0.001065,0.0,-0.0,-0.0,2.0,0.282024,0.280765,0.282024,0.283275,,,,,,
168480,0.00052,0.027586,0.020024,-2.9e-05,1e-06,-0.001065,0.0,-0.0,-0.0,2.0,0.282024,0.280917,0.282024,0.283125,,,,,,
168500,0.000397,0.027465,0.020026,-0.001093,0.0,-0.001065,0.0,-0.0,-0.0,2.0,0.282024,0.275195,0.282024,0.288623,,,,,,
168520,3.2e-05,0.027225,0.020275,-0.001093,0.0,-0.001065,0.0,-0.0,-0.0,2.0,0.282024,0.274778,0.282024,0.289012,,,,,,
168540,-9e-05,0.027104,0.020399,-0.001093,-0.001064,-0.001065,0.0,-0.0,-0.0,2.0,0.282024,0.274636,0.282024,0.289144,,,,,,
168560,-0.00033,0.02735,0.020525,-2.9e-05,-0.001065,-0.001064,0.0,-0.0,-0.0,2.0,0.282024,0.280119,0.282024,0.283911,,,,,,
168580,-0.000206,0.027349,0.020645,-2.9e-05,-0.001064,-0.001064,0.0,-0.0,-0.0,2.0,0.282024,0.280101,0.282024,0.283928,,,,,,
168600,0.000163,0.027467,0.020762,-2.9e-05,-0.001064,-0.001065,0.0,-0.0,-0.0,2.0,0.282024,0.280518,0.282024,0.283519,,,,,,
168620,0.00041,0.027587,0.020881,-2.9e-05,0.0,-0.001065,0.0,-0.0,-0.0,2.0,0.282024,0.280802,0.282024,0.283238,,,,,,
168640,0.000532,0.027586,0.020879,-0.001064,-0.001064,-1e-06,0.0,-0.0,-0.0,2.0,0.282024,0.275362,0.282024,0.288467,,,,,,
168660,0.000412,0.027465,0.021125,-0.001093,0.0,-0.001065,0.0,-0.0,-0.0,2.0,0.282024,0.275235,0.282024,0.288586,,,,,,
168680,0.000167,0.027345,0.021128,-0.001093,0.0,-0.001065,0.0,-0.0,-0.0,2.0,0.282024,0.274957,0.282024,0.288845,,,,,,
168700,-0.000199,0.027227,0.021255,-0.001093,-0.001064,-0.001064,0.0,-0.0,-0.0,2.0,0.282024,0.274688,0.282024,0.289096,,,,,,
168720,-0.000199,0.027227,0.021255,-2.9e-05,-0.0,-0.001065,0.0,-0.0,-0.0,2.0,0.282024,0.28014,0.282024,0.28389,,,,,,
168740,-7.4e-05,0.027348,0.021376,0.0,-0.001064,0.0,0.0,-0.0,-0.0,2.0,0.282024,0.280277,0.282024,0.283755,,,,,,
168760,4.9e-05,0.027469,0.021374,-2.9e-05,-0.001064,-0.001065,0.0,-0.0,-0.0,2.0,0.282024,0.280568,0.282024,0.28347,,,,,,
168780,0.000417,0.027587,0.021369,-2.9e-05,0.0,-0.001065,0.0,-0.0,-0.0,2.0,0.282024,0.280988,0.282024,0.283055,,,,,,
168800,0.00054,0.027707,0.021367,-0.0,-0.001064,-1e-06,0.0,-0.0,-0.0,2.0,0.282024,0.280986,0.282024,0.283057,,,,,,
168820,0.000417,0.027587,0.021369,-0.001094,0.0,-0.001065,0.0,-0.0,-0.0,2.0,0.282024,0.275424,0.282024,0.28841,,,,,,
168840,0.00017,0.027345,0.021372,-0.001093,0.0,-0.001065,0.0,-0.0,-0.0,2.0,0.282024,0.275289,0.282024,0.288536,,,,,,
168860,-7.7e-05,0.027226,0.021254,-0.001064,-0.001064,0.0,0.0,-0.0,-0.0,2.0,0.282024,0.274859,0.282024,0.288937,,,,,,
168880,-0.000321,0.027228,0.021257,-0.001064,-0.001064,0.0,0.0,-0.0,-0.0,2.0,0.282024,0.274568,0.282024,0.289207,,,,,,
168900,-0.000321,0.027228,0.021257,-2.9e-05,-0.0,-0.001065,0.0,-0.0,-0.0,2.0,0.282024,0.280172,0.282024,0.283859,,,,,,
168920,-7.7e-05,0.027348,0.021132,0.0,-0.001064,0.0,0.0,-0.0,-0.0,2.0,0.282024,0.280443,0.282024,0.283593,,,,,,
168940,0.000168,0.027467,0.021128,0.0,0.0,0.0,0.0,-0.0,-0.0,2.0,0.282024,0.280721,0.282024,0.283318,,,,,,
168960,0.000534,0.027463,0.021123,-2.9e-05,1e-06,-0.001065,0.0,-0.0,-0.0,2.0,0.282024,0.281143,0.282024,0.282902,,,,,,
168980,0.000409,0.027465,0.020881,-0.001064,-0.001064,-0.0,0.0,-0.0,-0.0,2.0,0.282024,0.275426,0.282024,0.288407,,,,,,
169000,0.000163,0.027345,0.020884,-0.001093,0.0,-0.001065,0.0,-0.0,-0.0,2.0,0.282024,0.275148,0.282024,0.288667,,,,,,
169020,-8.2e-05,0.027226,0.020887,-0.001064,-0.001064,0.0,0.0,-0.0,-0.0,2.0,0.282024,0.274725,0.282024,0.289061,,,,,,
169040,-0.000569,0.027353,0.020894,-0.001093,-0.001065,-0.001064,0.0,-0.0,-0.0,2.0,0.282024,0.274288,0.282024,0.289466,,,,,,
169060,-0.000693,0.027354,0.020774,-0.001093,-1e-06,-0.001065,0.0,-0.0,-0.0,2.0,0.282024,0.279892,0.282024,0.284134,,,,,,
169080,-0.000449,0.027352,0.02077,0.0,-0.001064,0.0,0.0,-0.0,-0.0,2.0,0.282024,0.279728,0.282024,0.284293,,,,,,
169100,-0.000202,0.027593,0.020767,-2.9e-05,-0.0,-0.001065,0.0,-0.0,-0.0,2.0,0.282024,0.280132,0.282024,0.283898,,,,,,
169120,4e-05,0.027591,0.020642,-2.9e-05,0.0,-0.001065,0.0,-0.0,-0.0,2.0,0.282024,0.280559,0.282024,0.283479,,,,,,
169140,0.000283,0.027466,0.020638,-0.001064,0.0,0.0,0.0,-0.0,-0.0,2.0,0.282024,0.280685,0.282024,0.283354,,,,,,
169160,4e-05,0.027347,0.020764,-0.001093,0.0,-0.001065,0.0,-0.0,-0.0,2.0,0.282024,0.27481,0.282024,0.288982,,,,,,
169180,-0.000328,0.027228,0.020769,-0.001093,-0.0,-0.001065,0.0,-0.0,-0.0,2.0,0.282024,0.274534,0.282024,0.289238,,,,,,
169200,-0.000573,0.027109,0.020772,-0.001064,-0.001064,1e-06,0.0,-0.0,-0.0,2.0,0.282024,0.274237,0.282024,0.289514,,,,,,
169220,-0.000938,0.027235,0.020777,-0.001064,-0.001064,1e-06,0.0,-0.0,-0.0,2.0,0.282024,0.273636,0.282024,0.290068,,,,,,
169240,-0.00118,0.027481,0.02078,-0.001093,-0.001065,-0.001063,0.0,-0.0,-0.0,2.0,0.282024,0.273325,0.282024,0.290353,,,,,,
169260,-0.001056,0.027602,0.020779,0.0,-0.001064,1e-06,0.0,-0.0,-0.0,2.0,0.282024,0.279239,0.282024,0.28477,,,,,,
169280,-0.001057,0.027724,0.020657,0.0,0.0,0.0,0.0,-0.0,-0.0,2.0,0.282024,0.279213,0.282024,0.284796,,,,,,
169300,-0.000814,0.0276,0.020653,0.0,-0.001064,1e-06,0.0,-0.0,-0.0,2.0,0.282024,0.279174,0.282024,0.284833,,,,,,
169320,-0.000816,0.0276,0.020531,-0.001094,-1e-06,-0.001065,0.0,-0.0,-0.0,2.0,0.282024,0.279444,0.282024,0.284571,,,,,,
169340,-0.000942,0.027357,0.020411,-0.001064,0.0,0.0,0.0,-0.0,-0.0,2.0,0.282024,0.273641,0.282024,0.290063,,,,,,
169360,-0.001066,0.027114,0.020412,-0.001064,-0.001064,1e-06,0.0,-0.0,-0.0,2.0,0.282024,0.273459,0.282024,0.290231,,,,,,
169380,-0.001433,0.027239,0.020295,-0.001093,-2e-06,-0.001065,0.0,-0.0,-0.0,2.0,0.282024,0.273155,0.282024,0.290509,,,,,,
169400,-0.001678,0.027364,0.020177,-0.001064,-0.001064,2e-06,0.0,-0.0,-0.0,2.0,0.282024,0.272685,0.282024,0.290938,,,,,,
169420,-0.0018,0.027487,0.020056,-0.001064,-0.001064,2e-06,0.0,-0.0,-0.0,2.0,0.282024,0.278157,0.282024,0.285816,,,,,,
169440,-0.001556,0.027607,0.019931,0.0,0.0,0.0,0.0,-0.0,-0.0,2.0,0.282024,0.27827,0.282024,0.285707,,,,,,
169460,-0.001559,0.027729,0.019687,0.0,-0.001064,2e-06,0.0,-0.0,-0.0,2.0,0.282024,0.278369,0.282024,0.285613,,,,,,
169480,-0.001439,0.027605,0.019563,-0.001064,0.0,0.0,0.0,-0.0,-0.0,2.0,0.282024,0.278473,0.282024,0.285512,,,,,,
169500,-0.001198,0.027481,0.019438,0.0,0.0,0.0,0.0,-0.0,-0.0,2.0,0.282024,0.278713,0.282024,0.28528,,,,,,
169520,-0.001323,0.02736,0.019317,-0.001064,0.0,0.0,0.0,-0.0,-0.0,2.0,0.282024,0.272879,0.282024,0.290762,,,,,,
169540,-0.001571,0.027118,0.019198,-0.001064,-0.001064,2e-06,0.0,-0.0,-0.0,2.0,0.282024,0.272552,0.282024,0.29106,,,,,,
169560,-0.001572,0.02724,0.019076,-0.001064,-0.001064,2e-06,0.0,-0.0,-0.0,2.0,0.282024,0.272512,0.282024,0.291095,,,,,,
169580,-0.001694,0.027363,0.018956,-0.001064,-0.001064,2e-06,0.0,-0.0,-0.0,2.0,0.282024,0.272326,0.282024,0.291265,,,,,,
169600,-0.001816,0.027608,0.018836,-0.001094,-0.001066,-0.001063,0.0,-0.0,-0.0,2.0,0.282024,0.277823,0.282024,0.286137,,,,,,
169620,-0.001574,0.027728,0.018588,0.0,0.0,0.0,0.0,-0.0,-0.0,2.0,0.282024,0.278061,0.282024,0.285909,,,,,,
169640,-0.001574,0.027728,0.018588,0.0,0.0,0.0,0.0,-0.0,-0.0,2.0,0.282024,0.278005,0.282024,0.285962,,,,,,
169660,-0.001456,0.027483,0.018464,-0.001064,0.0,0.0,0.0,-0.0,-0.0,2.0,0.282024,0.278122,0.282024,0.28585,,,,,,
169680,-0.001339,0.027237,0.018218,-2.9e-05,-1e-06,-0.001065,0.0,-0.0,-0.0,2.0,0.282024,0.278222,0.282024,0.285753,,,,,,
169700,-0.001464,0.027116,0.018098,-0.001064,0.0,0.0,0.0,-0.0,-0.0,2.0,0.282024,0.272371,0.282024,0.291224,,,,,,
169720,-0.001588,0.027117,0.017977,-0.001064,-0.001064,2e-06,0.0,-0.0,-0.0,2.0,0.282024,0.272032,0.282024,0.291532,,,,,,
169740,-0.001831,0.027241,0.01798,-0.001093,-2e-06,-0.001065,0.0,-0.0,-0.0,2.0,0.282024,0.271999,0.282024,0.291561,,,,,,
169760,-0.001833,0.027363,0.017736,0.0,-0.001064,2e-06,0.0,-0.0,-0.0,2.0,0.282024,0.271809,0.282024,0.291733,,,,,,
169780,-0.001834,0.027485,0.017614,0.0,-0.001064,2e-06,0.0,-0.0,-0.0,2.0,0.282024,0.277303,0.282024,0.286635,,,,,,
169800,-0.001591,0.027483,0.017489,-2.9e-05,-2e-06,-0.001065,0.0,-0.0,-0.0,2.0,0.282024,0.277553,0.282024,0.286396,,,,,,
169820,-0.001472,0.027482,0.017243,0.0,0.0,0.0,0.0,-0.0,-0.0,2.0,0.282024,0.27765,0.282024,0.286303,,,,,,
169840,-0.001478,0.027238,0.016999,-0.001064,0.0,0.0,0.0,-0.0,-0.0,2.0,0.282024,0.272066,0.282024,0.291501,,,,,,
169860,-0.00148,0.026993,0.016999,-0.001064,0.0,0.0,0.0,-0.0,-0.0,2.0,0.282024,0.277559,0.282024,0.28639,,,,,,
169880,-0.001603,0.027116,0.016878,-0.001093,-2e-06,-0.001065,0.0,-0.0,-0.0,2.0,0.282024,0.271841,0.282024,0.291704,,,,,,
169900,-0.00185,0.027118,0.016637,-0.001064,-0.001064,2e-06,0.0,-0.0,-0.0,2.0,0.282024,0.271651,0.282024,0.291876,,,,,,
169920,-0.001851,0.02724,0.016515,-0.001064,-0.001064,2e-06,0.0,-0.0,-0.0,2.0,0.282024,0.277163,0.282024,0.286768,,,,,,
169940,-0.001849,0.027484,0.016516,0.0,-0.001064,2e-06,0.0,-0.0,-0.0,2.0,0.282024,0.271415,0.282024,0.292088,,,,,,
169960,-0.001849,0.027606,0.016394,-2.9e-05,-2e-06,-0.001065,0.0,-0.0,-0.0,2.0,0.282024,0.277214,0.282024,0.286719,,,,,,
169980,-0.001608,0.027482,0.016268,0.0,0.0,0.0,0.0,-0.0,-0.0,2.0,0.282024,0.277312,0.282024,0.286626,,,,,,
170000,-0.001487,0.027359,0.016266,-0.001064,0.0,0.0,0.0,-0.0,-0.0,2.0,0.282024,0.271702,0.282024,0.291829,,,,,,
170020,-0.00161,0.027238,0.016268,-0.001093,-2e-06,-0.001065,0.0,-0.0,-0.0,2.0,0.282024,0.271679,0.282024,0.29185,,,,,,
170040,-0.001736,0.026995,0.016147,-0.001093,-2e-06,-0.001065,0.0,-0.0,-0.0,2.0,0.282024,0.271345,0.282024,0.292151,,,,,,
170060,-0.001858,0.026996,0.016149,-0.001064,-0.001064,2e-06,0.0,-0.0,-0.0,2.0,0.282024,0.271302,0.282024,0.29219,,,,,,
170080,-0.001857,0.027118,0.016149,-0.001064,-0.001064,2e-06,0.0,-0.0,-0.0,2.0,0.282024,0.270957,0.282024,0.292499,,,,,,
170100,-0.001732,0.027239,0.016269,-2.9e-05,-0.001066,-0.001063,0.0,-0.0,-0.0,2.0,0.282024,0.276782,0.282024,0.287129,,,,,,
170120,-0.001489,0.027359,0.016144,-2.9e-05,-0.001066,-0.001063,0.0,-0.0,-0.0,2.0,0.282024,0.277166,0.282024,0.286765,,,,,,
170140,-0.001365,0.02748,0.016143,0.0,0.0,0.0,0.0,-0.0,-0.0,2.0,0.282024,0.277119,0.282024,0.28681,,,,,,
170160,-0.001122,0.027234,0.016261,-0.001064,0.0,0.0,0.0,-0.0,-0.0,2.0,0.282024,0.27723,0.282024,0.286704,,,,,,
170180,-0.001244,0.027235,0.016263,-0.001093,-1e-06,-0.001065,0.0,-0.0,-0.0,2.0,0.282024,0.271655,0.282024,0.291872,,,,,,
170200,-0.001492,0.026871,0.016144,-0.001064,0.0,0.0,0.0,-0.0,-0.0,2.0,0.282024,0.271476,0.282024,0.292033,,,,,,
170220,-0.001615,0.026872,0.016145,-0.001064,-0.001064,2e-06,0.0,-0.0,-0.0,2.0,0.282024,0.271138,0.282024,0.292337,,,,,,
170240,-0.001735,0.026873,0.016269,-2.9e-05,-0.001066,-0.001063,0.0,-0.0,-0.0,2.0,0.282024,0.270963,0.282024,0.292493,,,,,,
170260,-0.001612,0.026994,0.016268,-2.9e-05,-0.001066,-0.001063,0.0,-0.0,-0.0,2.0,0.282024,0.276781,0.282024,0.28713,,,,,,
170280,-0.001368,0.027114,0.016142,0.0,-0.001064,1e-06,0.0,-0.0,-0.0,2.0,0.282024,0.276887,0.282024,0.28703,,,,,,
170300,-0.001245,0.027235,0.016141,0.0,-0.001064,1e-06,0.0,-0.0,-0.0,2.0,0.282024,0.276983,0.282024,0.286939,,,,,,
170320,-0.001124,0.027112,0.016139,-0.001093,-1e-06,-0.001065,0.0,-0.0,-0.0,2.0,0.282024,0.277248,0.282024,0.286687,,,,,,
170340,-0.001127,0.02699,0.016017,-0.001064,0.0,0.0,0.0,-0.0,-0.0,2.0,0.282024,0.271518,0.282024,0.291995,,,,,,
170360,-0.001615,0.026748,0.016142,-0.001064,0.0,0.0,0.0,-0.0,-0.0,2.0,0.282024,0.271038,0.282024,0.292426,,,,,,
170380,-0.001738,0.026627,0.016144,-0.001064,-0.001064,2e-06,0.0,-0.0,-0.0,2.0,0.282024,0.270563,0.282024,0.292851,,,,,,
170400,-0.001983,0.026751,0.016025,-2.8e-05,-0.001066,-0.001062,0.0,-0.0,-0.0,2.0,0.282024,0.270524,0.282024,0.292886,,,,,,
170420,-0.00186,0.026872,0.016024,0.0,-0.001064,2e-06,0.0,-0.0,-0.0,2.0,0.282024,0.276068,0.282024,0.287804,,,,,,
170440,-0.001736,0.027117,0.016025,0.0,-0.001064,2e-06,0.0,-0.0,-0.0,2.0,0.282024,0.276156,0.282024,0.287722,,,,,,
170460,-0.00137,0.027114,0.01602,-2.9e-05,-1e-06,-0.001065,0.0,-0.0,-0.0,2.0,0.282024,0.276553,0.282024,0.287347,,,,,,
170480,-0.001251,0.026989,0.015893,0.0,-0.001064,1e-06,0.0,-0.0,-0.0,2.0,0.282024,0.2768,0.282024,0.287112,,,,,,
170500,-0.001252,0.026867,0.015893,-0.001093,-1e-06,-0.001065,0.0,-0.0,-0.0,2.0,0.282024,0.276911,0.282024,0.287007,,,,,,
170520,-0.001377,0.026502,0.015895,-0.001064,0.0,0.0,0.0,-0.0,-0.0,2.0,0.282024,0.270879,0.282024,0.292569,,,,,,
170540,-0.001743,0.026505,0.015899,-0.001092,-0.001066,-0.001063,0.0,-0.0,-0.0,2.0,0.282024,0.270244,0.282024,0.293135,,,,,,
170560,-0.001987,0.026507,0.015903,-0.001092,-0.001066,-0.001062,0.0,-0.0,-0.0,2.0,0.282024,0.270207,0.282024,0.293169,,,,,,
170580,-0.001987,0.026629,0.015781,0.0,-0.001064,2e-06,0.0,-0.0,-0.0,2.0,0.282024,0.27576,0.282024,0.288094,,,,,,
170600,-0.001863,0.026872,0.015779,0.0,-0.001064,2e-06,0.0,-0.0,-0.0,2.0,0.282024,0.275561,0.282024,0.288281,,,,,,
170620,-0.001741,0.026871,0.015778,-2.9e-05,-2e-06,-0.001065,0.0,-0.0,-0.0,2.0,0.282024,0.276091,0.282024,0.287783,,,,,,
170640,-0.001378,0.026746,0.015651,0.0,0.0,0.0,0.0,-0.0,-0.0,2.0,0.282024,0.276194,0.282024,0.287686,,,,,,
170660,-0.001258,0.026623,0.015527,0.0,0.0,0.0,0.0,-0.0,-0.0,2.0,0.282024,0.270561,0.282024,0.292853,,,,,,
170680,-0.00138,0.026502,0.01565,-0.001092,-1e-06,-0.001065,0.0,-0.0,-0.0,2.0,0.282024,0.270683,0.282024,0.292744,,,,,,
170700,-0.001626,0.026381,0.015531,-0.001092,-2e-06,-0.001065,0.0,-0.0,-0.0,2.0,0.282024,0.270355,0.282024,0.293037,,,,,,
170720,-0.00175,0.026382,0.015411,-0.001064,-0.001064,2e-06,0.0,-0.0,-0.0,2.0,0.282024,0.269867,0.282024,0.29347,,,,,,
170740,-0.001872,0.026383,0.015413,-0.001064,-0.001064,2e-06,0.0,-0.0,-0.0,2.0,0.282024,0.269675,0.282024,0.29364,,,,,,
170760,-0.001748,0.026626,0.015411,-2.8e-05,-0.001066,-0.001063,0.0,-0.0,-0.0,2.0,0.282024,0.275533,0.282024,0.288307,,,,,,
170780,-0.001506,0.026746,0.015164,0.0,-0.001064,2e-06,0.0,-0.0,-0.0,2.0,0.282024,0.275778,0.282024,0.288077,,,,,,
170800,-0.00114,0.026744,0.015159,0.0,0.0,0.0,0.0,-0.0,-0.0,2.0,0.282024,0.276015,0.282024,0.287855,,,,,,
170820,-0.000899,0.02662,0.015034,0.0,0.0,0.0,0.0,-0.0,-0.0,2.0,0.282024,0.276422,0.282024,0.287471,,,,,,
170840,-0.0009,0.026498,0.015034,-0.001092,-1e-06,-0.001065,0.0,-0.0,-0.0,2.0,0.282024,0.270815,0.282024,0.292627,,,,,,
170860,-0.001147,0.026255,0.014915,-0.001064,0.0,0.0,0.0,-0.0,-0.0,2.0,0.282024,0.270496,0.282024,0.292911,,,,,,
170880,-0.001512,0.026258,0.015041,-0.001092,-2e-06,-0.001065,0.0,-0.0,-0.0,2.0,0.282024,0.27002,0.282024,0.293335,,,,,,
170900,-0.001631,0.026381,0.015165,-0.001092,-0.001066,-0.001063,0.0,-0.0,-0.0,2.0,0.282024,0.269544,0.282024,0.293757,,,,,,
170920,-0.001751,0.026626,0.015167,-2.8e-05,-0.001066,-0.001063,0.0,-0.0,-0.0,2.0,0.282024,0.275262,0.282024,0.288561,,,,,,
170940,-0.001506,0.026869,0.015164,0.0,-0.001064,2e-06,0.087266,-0.0,-0.0,2.0,0.282024,0.15,0.282024,0.368965,,,,,,
170960,-0.001139,0.026744,0.015281,0.001036,-0.001065,-0.001063,0.087266,-0.0,-0.0,2.0,0.282024,0.15,0.282024,0.370319,,,,,,
170980,-3.2e-05,0.026735,0.015877,0.0042,-0.0,-0.002129,0.087266,-0.0,-0.0,2.0,0.282024,0.15,0.282024,0.363644,,,,,,
171000,0.002417,0.026717,0.016458,0.007393,5e-06,-0.002129,0.087266,-0.0,-0.0,2.0,0.282024,0.178392,0.282024,0.347384,,,,,,
171020,0.006694,0.026435,0.016889,0.01165,1.4e-05,-0.002129,0.087266,-0.0,-0.0,2.0,0.282024,0.211784,0.282024,0.333048,,,,,,
171040,0.013045,0.026133,0.017294,0.015936,1.4e-05,-0.001064,0.087266,-0.0,-0.0,2.0,0.282024,0.247912,0.282024,0.311025,,,,,,
171060,0.021228,0.026056,0.017551,0.020193,2.3e-05,-0.001064,0.087266,-0.0,-0.0,2.0,0.282024,0.279869,0.282024,0.284155,,,,,,
171080,0.031485,0.026333,0.01729,0.024448,-0.00103,-0.001098,0.087266,-0.0,-0.0,2.0,0.282024,0.3095,0.282024,0.25001,,,,,,
171100,0.043325,0.026224,0.017128,0.027641,-0.001017,-0.00111,0.087266,-0.0,-0.0,2.0,0.282024,0.333027,0.282024,0.211826,,,,,,
171120,0.056518,0.026215,0.017313,0.029743,0.00012,-0.002126,0.087266,-0.0,-0.0,2.0,0.282024,0.355813,0.282024,0.15,,,,,,
171140,0.070821,0.026542,0.017834,0.030776,-0.000836,-0.003261,0.087266,-0.0,-0.0,2.0,0.282024,0.373888,0.282024,0.15,,,,,,
171160,0.085376,0.02659,0.018841,0.030722,0.000454,-0.005304,0.087266,-0.0,-0.0,2.0,0.282024,0.384623,0.282024,0.15,,,,,,
171180,0.099809,0.026119,0.020111,0.029688,0.000424,-0.004237,0.087266,-0.0,-0.0,2.0,0.282024,0.39521,0.282024,0.15,,,,,,
171200,0.113771,0.025863,0.021623,0.028622,-0.000574,-0.004352,0.087266,-0.0,-0.0,2.0,0.282024,0.401692,0.282024,0.15,,,,,,
171220,0.126994,0.025719,0.023009,0.026497,0.000539,-0.004224,0.087266,-0.0,-0.0,2.0,0.282024,0.404879,0.282024,0.15,,,,,,
171240,0.139247,0.025585,0.024164,0.024392,-0.000611,-0.003311,0.087266,-0.0,-0.0,2.0,0.282024,0.407481,0.282024,0.15,,,,,,
171260,0.150026,0.025482,0.02497,0.020163,-0.000734,-0.002264,0.087266,-0.0,-0.0,2.0,0.282024,0.405976,0.282024,0.15,,,,,,
171280,0.158978,0.025537,0.02555,0.015932,-0.000882,-0.00122,0.087266,-0.0,-0.0,2.0,0.282024,0.399934,0.282024,0.15,,,,,,
171300,0.165728,0.025893,0.025776,0.010611,-0.000874,-0.001226,0.087266,-0.0,-0.0,2.0,0.282024,0.388969,0.282024,0.15,,,,,,
171320,0.169644,0.025944,0.025824,0.003161,-0.000869,-0.001229,0.087266,-0.0,-0.0,2.0,0.282024,0.371812,0.282024,0.15,,,,,,
171340,0.170872,0.025915,0.025928,-0.00216,-0.000868,-0.00123,0.087266,-0.0,-0.0,2.0,0.282024,0.3555,0.282024,0.151047,,,,,,
171360,0.169406,0.026038,0.026183,-0.007482,-0.00087,-0.001229,0.087266,-0.0,-0.0,2.0,0.282024,0.331116,0.282024,0.215508,,,,,,
171380,0.165497,0.02608,0.02649,-0.012803,-0.000874,-0.001225,0.087266,-0.0,-0.0,2.0,0.282024,0.311351,0.282024,0.247459,,,,,,
171400,0.159616,0.02605,0.02659,-0.015995,-0.000882,-0.00122,0.087266,-0.0,-0.0,2.0,0.282024,0.287328,0.282024,0.276573,,,,,,
171420,0.152269,0.026154,0.026823,-0.018119,0.000161,-0.001052,0.087266,-0.0,-0.0,2.0,0.282024,0.263909,0.282024,0.298602,,,,,,
171440,0.143705,0.026148,0.027207,-0.020252,-0.000901,-0.001206,0.087266,-0.0,-0.0,2.0,0.282024,0.24161,0.282024,0.315429,,,,,,
171460,0.134535,0.026137,0.027842,-0.020252,-0.000912,-0.001198,0.087266,-0.0,-0.0,2.0,0.282024,0.222328,0.282024,0.327388,,,,,,
171480,0.125126,0.02611,0.028844,-0.020279,-0.00079,-0.002245,0.087266,-0.0,-0.0,2.0,0.282024,0.207833,0.282024,0.335021,,,,,,
171500,0.116091,0.025949,0.030092,-0.019214,-0.000811,-0.002238,0.087266,-0.0,-0.0,2.0,0.282024,0.19101,0.282024,0.342572,,,,,,
171520,0.107549,0.026147,0.031431,-0.017114,-0.000715,-0.00329,0.087266,-0.0,-0.0,2.0,0.282024,0.194626,0.282024,0.341062,,,,,,
171540,0.100113,0.026202,0.033005,-0.014985,-0.00074,-0.003284,0.087266,-0.0,-0.0,2.0,0.282024,0.199004,0.282024,0.339152,,,,,,
171560,0.093775,0.026137,0.034327,-0.011792,-0.000761,-0.003279,0.087266,-0.0,-0.0,2.0,0.282024,0.20521,0.282024,0.336288,,,,,,
171580,0.088897,0.025934,0.035505,-0.008571,-0.000871,-0.002215,0.087266,-0.0,-0.0,2.0,0.282024,0.229499,0.282024,0.323194,,,,,,
171600,0.085851,0.026093,0.036033,-0.004285,9.1e-05,-0.001061,0.087266,-0.0,-0.0,2.0,0.282024,0.245645,0.282024,0.312639,,,,,,
171620,0.084626,0.025988,0.036174,0.0,0.0,0.0,0.087266,-0.0,-0.0,2.0,0.282024,0.268812,0.282024,0.294401,,,,,,
171640,0.085354,0.025747,0.035813,0.003193,0.0,0.0,0.087266,-0.0,-0.0,2.0,0.282024,0.291302,0.282024,0.272285,,,,,,
171660,0.087541,0.025731,0.035167,0.006413,-9.3e-05,0.001061,0.087266,-0.0,-0.0,2.0,0.282024,0.308348,0.282024,0.251569,,,,,,
171680,0.091071,0.025836,0.034011,0.008566,-0.001253,0.002024,0.087266,-0.0,-0.0,2.0,0.282024,0.32082,0.282024,0.233351,,,,,,
171700,0.095095,0.025938,0.032852,0.009633,-0.000202,0.00212,0.087266,-0.0,-0.0,2.0,0.282024,0.329225,0.282024,0.219024,,,,,,
171720,0.099596,0.026045,0.031435,0.008569,-0.000212,0.002119,0.087266,-0.0,-0.0,2.0,0.282024,0.337741,0.282024,0.20211,,,,,,
171740,0.103618,0.02629,0.030024,0.007502,-0.001279,0.002008,0.087266,-0.0,-0.0,2.0,0.282024,0.33736,0.282024,0.202934,,,,,,
171760,0.107147,0.02654,0.028737,0.005374,-0.001286,0.002003,0.087266,-0.0,-0.0,2.0,0.282024,0.332269,0.282024,0.213303,,,,,,
171780,0.109701,0.02681,0.027466,0.003246,-0.001291,0.002,0.087266,-0.0,-0.0,2.0,0.282024,0.326374,0.282024,0.224108,,,,,,
171800,0.110791,0.026855,0.026355,2.8e-05,-0.000118,0.001058,0.087266,-0.0,-0.0,2.0,0.282024,0.314575,0.282024,0.242862,,,,,,
171820,0.110655,0.02679,0.025389,-0.0021,-0.000118,0.001058,0.087266,-0.0,-0.0,2.0,0.282024,0.305826,0.282024,0.254903,,,,,,
171840,0.10978,0.02674,0.024308,-0.0042,-0.000233,0.002116,0.087266,-0.0,-0.0,2.0,0.282024,0.29529,0.282024,0.267793,,,,,,
171860,0.107805,0.02646,0.023259,-0.005265,-0.000229,0.002117,0.087266,-0.0,-0.0,2.0,0.282024,0.283347,0.282024,0.280692,,,,,,
171880,0.105463,0.026189,0.022093,-0.00633,-0.000224,0.002117,0.087266,-0.0,-0.0,2.0,0.282024,0.281323,0.282024,0.282722,,,,,,
171900,0.103001,0.026167,0.020794,-0.005266,-0.000219,0.002118,0.087266,-0.0,-0.0,2.0,0.282024,0.273149,0.282024,0.290515,,,,,,
171920,0.100662,0.026262,0.019485,-0.00524,-0.00138,0.003071,0.087266,-0.0,-0.0,2.0,0.282024,0.276605,0.282024,0.287297,,,,,,
171940,0.098687,0.026478,0.018043,-0.003111,-0.001374,0.003073,0.087266,-0.0,-0.0,2.0,0.282024,0.279954,0.282024,0.284073,,,,,,
171960,0.0972,0.026686,0.016593,-0.003139,-0.001266,0.002016,0.087266,-0.0,-0.0,2.0,0.282024,0.284178,0.282024,0.279846,,,,,,
171980,0.096329,0.026888,0.015137,-0.001007,-0.000205,0.002119,0.087266,-0.0,-0.0,2.0,0.282024,0.288521,0.282024,0.275304,,,,,,
172000,0.09618,0.026964,0.01355,8.6e-05,-0.000307,0.003179,0.087266,-0.0,-0.0,2.0,0.282024,0.298663,0.282024,0.263836,,,,,,
172020,0.096649,0.026781,0.012213,0.001124,0.000854,0.002222,0.087266,-0.0,-0.0,2.0,0.282024,0.304192,0.282024,0.257007,,,,,,
172040,0.097487,0.026481,0.010757,0.002185,-0.000207,0.002119,0.087266,-0.0,-0.0,2.0,0.282024,0.305248,0.282024,0.255652,,,,,,
172060,0.098442,0.02618,0.009297,0.002184,-0.000209,0.002119,0.087266,-0.0,-0.0,2.0,0.282024,0.311126,0.282024,0.247772,,,,,,
172080,0.099643,0.025995,0.00795,0.001119,-0.000212,0.002119,0.087266,-0.0,-0.0,2.0,0.282024,0.3124,0.282024,0.245985,,,,,,
172100,0.100606,0.025937,0.006603,0.001119,-0.000214,0.002118,0.087266,-0.0,-0.0,2.0,0.282024,0.313705,0.282024,0.244121,,,,,,
172120,0.101442,0.026001,0.005249,0.001119,-0.000216,0.002118,0.087266,-0.0,-0.0,2.0,0.282024,0.310043,0.282024,0.249269,,,,,,
172140,0.101792,0.026061,0.004025,5.5e-05,-0.000216,0.002118,0.087266,-0.0,-0.0,2.0,0.282024,0.310921,0.282024,0.248057,,,,,,
172160,0.102142,0.026122,0.0028,5.2e-05,-0.001276,0.00201,0.087266,-0.0,-0.0,2.0,0.282024,0.306631,0.282024,0.253849,,,,,,
172180,0.102129,0.026294,0.001818,-0.001011,-0.001276,0.00201,0.087266,-0.0,-0.0,2.0,0.282024,0.301883,0.282024,0.259913,,,,,,
172200,0.101631,0.026461,0.000965,-0.001036,-0.000108,0.001059,0.087266,-0.0,-0.0,2.0,0.282024,0.302177,0.282024,0.259548,,,,,,
172220,0.101254,0.026505,0.000116,-0.0021,-0.000108,0.001059,0.087266,-0.0,-0.0,2.0,0.282024,0.301989,0.282024,0.259781,,,,,,
172240,0.100513,0.026299,-0.000593,-0.002101,-0.000107,0.001059,0.087266,-0.0,-0.0,2.0,0.282024,0.296477,0.282024,0.266417,,,,,,
172260,0.099767,0.026329,-0.001193,-0.002101,-0.000106,0.001059,0.087266,-0.0,-0.0,2.0,0.282024,0.29597,0.282024,0.267008,,,,,,
172280,0.099149,0.026239,-0.001789,-0.001036,-0.000105,0.001059,0.087266,-0.0,-0.0,2.0,0.282024,0.295478,0.282024,0.267577,,,,,,
172300,0.09853,0.026153,-0.002507,-0.001037,-0.000105,0.001059,0.087266,-0.0,-0.0,2.0,0.282024,0.295085,0.282024,0.268029,,,,,,
172320,0.098158,0.026056,-0.002984,-0.001039,-0.001163,0.000955,0.087266,-0.0,-0.0,2.0,0.282024,0.300015,0.282024,0.262207,,,,,,
172340,0.097907,0.026086,-0.003591,2.8e-05,-0.000104,0.001059,0.087266,-0.0,-0.0,2.0,0.282024,0.299735,0.282024,0.262547,,,,,,
172360,0.097902,0.026104,-0.003957,-0.001064,0.0,0.0,0.087266,-0.0,-0.0,2.0,0.282024,0.304907,0.282024,0.256092,,,,,,
172380,0.097897,0.026121,-0.004323,0.0,0.0,0.0,0.087266,-0.0,-0.0,2.0,0.282024,0.305015,0.282024,0.255953,,,,,,
172400,0.097892,0.026017,-0.004683,0.0,0.0,0.0,0.087266,-0.0,-0.0,2.0,0.282024,0.300404,0.282024,0.261733,,,,,,
172420,0.098013,0.025902,-0.0048,-0.001064,0.0,0.0,0.087266,-0.0,-0.0,2.0,0.282024,0.305699,0.282024,0.255067,,,,,,
172440,0.098013,0.026023,-0.004806,0.0,0.0,0.0,0.087266,-0.0,-0.0,2.0,0.282024,0.300731,0.282024,0.261334,,,,,,
172460,0.097891,0.026023,-0.004805,-0.001092,0.000104,-0.001059,0.087266,-0.0,-0.0,2.0,0.282024,0.306137,0.282024,0.254497,,,,,,
172480,0.097893,0.025896,-0.004677,-3e-05,-0.000955,-0.001164,0.087266,-0.0,-0.0,2.0,0.282024,0.301182,0.282024,0.26078,,,,,,
172500,0.097643,0.026016,-0.004679,-0.001094,-0.000955,-0.001163,0.087266,-0.0,-0.0,2.0,0.282024,0.30128,0.282024,0.260659,,,,,,
172520,0.097644,0.02601,-0.004557,-0.001094,-0.000955,-0.001163,0.087266,-0.0,-0.0,2.0,0.282024,0.306181,0.282024,0.25444,,,,,,
172540,0.097525,0.02612,-0.004317,-3e-06,-0.001059,-0.000104,0.087266,-0.0,-0.0,2.0,0.282024,0.30147,0.282024,0.260424,,,,,,
172560,0.097527,0.026114,-0.004195,-2.8e-05,0.000104,-0.00106,0.087266,-0.0,-0.0,2.0,0.282024,0.306735,0.282024,0.253713,,,,,,
172580,0.09765,0.026108,-0.004075,-2.8e-05,0.000104,-0.00106,0.087266,-0.0,-0.0,2.0,0.282024,0.306971,0.282024,0.253402,,,,,,
172600,0.097774,0.026102,-0.003955,-0.001092,0.000104,-0.00106,0.087266,-0.0,-0.0,2.0,0.282024,0.307313,0.282024,0.252949,,,,,,
172620,0.097904,0.025976,-0.003829,-2.8e-05,0.000104,-0.001059,0.087266,-0.0,-0.0,2.0,0.282024,0.307533,0.282024,0.252657,,,,,,
172640,0.097777,0.025968,-0.003705,-3e-06,-0.001059,-0.000104,0.087266,-0.0,-0.0,2.0,0.282024,0.302841,0.282024,0.258718,,,,,,
172660,0.097779,0.025962,-0.003583,-0.001094,-0.000955,-0.001163,0.087266,-0.0,-0.0,2.0,0.282024,0.307971,0.282024,0.252074,,,,,,
172680,0.097538,0.026072,-0.003342,-2.8e-05,0.000104,-0.00106,0.087266,-0.0,-0.0,2.0,0.282024,0.303168,0.282024,0.258306,,,,,,
172700,0.097416,0.026072,-0.00334,-0.001095,-0.000956,-0.001163,0.087266,-0.0,-0.0,2.0,0.282024,0.303136,0.282024,0.258346,,,,,,
172720,0.097175,0.026182,-0.003099,-0.001092,0.000103,-0.00106,0.087266,-0.0,-0.0,2.0,0.282024,0.303239,0.282024,0.258216,,,,,,
172740,0.097055,0.026176,-0.002976,-2.8e-05,0.000103,-0.00106,0.087266,-0.0,-0.0,2.0,0.282024,0.303317,0.282024,0.258118,,,,,,
172760,0.097301,0.026048,-0.002851,-3e-06,-0.001059,-0.000103,0.087266,-0.0,-0.0,2.0,0.282024,0.308423,0.282024,0.251468,,,,,,
172780,0.09718,0.026043,-0.002727,-0.001092,0.000103,-0.00106,0.087266,-0.0,-0.0,2.0,0.282024,0.303754,0.282024,0.257565,,,,,,
172800,0.097304,0.026037,-0.002607,-3e-05,-0.000956,-0.001163,0.087266,-0.0,-0.0,2.0,0.282024,0.308948,0.282024,0.25076,,,,,,
172820,0.097305,0.026031,-0.002485,-3e-05,-0.000956,-0.001163,0.087266,-0.0,-0.0,2.0,0.282024,0.304303,0.282024,0.256866,,,,,,
172840,0.097185,0.026025,-0.002361,-0.001092,0.000103,-0.00106,0.087266,-0.0,-0.0,2.0,0.282024,0.309366,0.282024,0.250193,,,,,,
172860,0.097309,0.026019,-0.002241,-3e-05,-0.000956,-0.001163,0.087266,-0.0,-0.0,2.0,0.282024,0.309452,0.282024,0.250076,,,,,,
172880,0.097066,0.026135,-0.002122,-0.001095,-0.000956,-0.001163,0.087266,-0.0,-0.0,2.0,0.282024,0.304693,0.282024,0.256367,,,,,,
172900,0.096945,0.026013,-0.002114,-0.001092,0.000103,-0.00106,0.087266,-0.0,-0.0,2.0,0.282024,0.309754,0.282024,0.249664,,,,,,
172920,0.096824,0.026007,-0.001991,-0.001067,-0.001059,-0.000103,0.087266,-0.0,-0.0,2.0,0.282024,0.304848,0.282024,0.256167,,,,,,
172940,0.096824,0.026007,-0.001991,-0.001067,-0.001059,-0.000103,0.087266,-0.0,-0.0,2.0,0.282024,0.305062,0.282024,0.255892,,,,,,
172960,0.096582,0.02588,-0.00186,-2.7e-05,0.000103,-0.00106,0.087266,-0.0,-0.0,2.0,0.282024,0.305128,0.282024,0.255806,,,,,,
172980,0.096582,0.026002,-0.001866,-0.001094,-0.000957,-0.001162,0.087266,-0.0,-0.0,2.0,0.282024,0.310294,0.282024,0.248923,,,,,,
173000,0.096584,0.025996,-0.001744,-2.8e-05,0.000103,-0.00106,0.087266,-0.0,-0.0,2.0,0.282024,0.305403,0.282024,0.255451,,,,,,
173020,0.09646,0.026002,-0.001864,-0.001067,-0.001059,-0.000103,0.087266,-0.0,-0.0,2.0,0.282024,0.305724,0.282024,0.255036,,,,,,
173040,0.096584,0.025996,-0.001744,0.0,0.0,0.0,0.087266,-0.0,-0.0,2.0,0.282024,0.310636,0.282024,0.248452,,,,,,
173060,0.096462,0.025996,-0.001742,0.0,0.0,0.0,0.087266,-0.0,-0.0,2.0,0.282024,0.305863,0.282024,0.254854,,,,,,
173080,0.096584,0.025874,-0.001738,-0.001067,-0.001059,-0.000103,0.087266,-0.0,-0.0,2.0,0.282024,0.310896,0.282024,0.248091,,,,,,
173100,0.09634,0.025874,-0.001735,-2.7e-05,0.000102,-0.00106,0.087266,-0.0,-0.0,2.0,0.282024,0.306138,0.282024,0.254495,,,,,,
173120,0.096216,0.02588,-0.001855,-0.001092,0.000102,-0.00106,0.087266,-0.0,-0.0,2.0,0.282024,0.31138,0.282024,0.247418,,,,,,
173140,0.096095,0.025758,-0.001848,0.0,0.0,0.0,0.087266,-0.0,-0.0,2.0,0.282024,0.306397,0.282024,0.254157,,,,,,
173160,0.095851,0.025758,-0.001845,-0.002156,0.000102,-0.00106,0.087266,-0.0,-0.0,2.0,0.282024,0.306447,0.282024,0.254091,,,,,,
173180,0.095727,0.025764,-0.001965,-0.001064,0.0,0.0,0.087266,-0.0,-0.0,2.0,0.282024,0.306258,0.282024,0.254339,,,,,,
173200,0.095232,0.026013,-0.002092,-0.001067,-0.001059,-0.000101,0.087266,-0.0,-0.0,2.0,0.282024,0.301253,0.282024,0.260693,,,,,,
173220,0.094987,0.025897,-0.002205,-0.001064,0.0,0.0,0.087266,-0.0,-0.0,2.0,0.282024,0.310939,0.282024,0.248032,,,,,,
173240,0.09474,0.025909,-0.002446,-0.001064,0.0,0.0,0.087266,-0.0,-0.0,2.0,0.282024,0.300966,0.282024,0.261046,,,,,,
173260,0.094494,0.025793,-0.002559,-0.001067,-0.001059,-0.0001,0.087266,-0.0,-0.0,2.0,0.282024,0.305935,0.282024,0.25476,,,,,,
173280,0.094125,0.025804,-0.002798,-0.001064,0.0,0.0,0.087266,-0.0,-0.0,2.0,0.282024,0.305592,0.282024,0.255207,,,,,,
173300,0.093878,0.025938,-0.003045,-0.001067,-0.00106,-0.0001,0.087266,-0.0,-0.0,2.0,0.282024,0.305733,0.282024,0.255024,,,,,,
173320,0.093752,0.025833,-0.003404,0.0,0.0,0.0,0.087266,-0.0,-0.0,2.0,0.282024,0.305501,0.282024,0.255325,,,,,,
173340,0.093505,0.025723,-0.003639,-0.001064,0.0,0.0,0.087266,-0.0,-0.0,2.0,0.282024,0.305497,0.282024,0.25533,,,,,,
173360,0.093378,0.02574,-0.004003,-0.001064,0.0,0.0,0.087266,-0.0,-0.0,2.0,0.282024,0.305391,0.282024,0.255467,,,,,,
173380,0.093131,0.025873,-0.00425,-0.001064,0.0,0.0,0.087266,-0.0,-0.0,2.0,0.282024,0.305382,0.282024,0.255479,,,,,,
173400,0.09325,0.025763,-0.00449,-0.001067,-0.00106,-9.9e-05,0.087266,-0.0,-0.0,2.0,0.282024,0.310354,0.282024,0.248841,,,,,,
173420,0.093001,0.025901,-0.004858,0.0,0.0,0.0,0.087266,-0.0,-0.0,2.0,0.282024,0.305388,0.282024,0.255471,,,,,,
173440,0.092998,0.025791,-0.005097,-0.001064,0.0,0.0,0.087266,-0.0,-0.0,2.0,0.282024,0.310345,0.282024,0.248854,,,,,,
173460,0.092749,0.025808,-0.005459,0.0,0.0,0.0,0.087266,-0.0,-0.0,2.0,0.282024,0.305363,0.282024,0.255503,,,,,,
173480,0.092626,0.025813,-0.00558,-0.001064,0.0,0.0,0.087266,-0.0,-0.0,2.0,0.282024,0.305611,0.282024,0.255182,,,,,,
173500,0.092496,0.025701,-0.005816,-0.001064,0.0,0.0,0.087266,-0.0,-0.0,2.0,0.282024,0.310188,0.282024,0.249069,,,,,,
173520,0.09225,0.025706,-0.005935,-0.001067,-0.00106,-9.8e-05,0.087266,-0.0,-0.0,2.0,0.282024,0.300241,0.282024,0.261932,,,,,,
173540,0.092127,0.025712,-0.006055,-0.001091,9.8e-05,-0.00106,0.087266,-0.0,-0.0,2.0,0.282024,0.310034,0.282024,0.249281,,,,,,
173560,0.091881,0.025717,-0.006174,-0.001064,0.0,0.0,0.087266,-0.0,-0.0,2.0,0.282024,0.30503,0.282024,0.255933,,,,,,
173580,0.091881,0.025717,-0.006174,-0.001067,-0.00106,-9.8e-05,0.087266,-0.0,-0.0,2.0,0.282024,0.305012,0.282024,0.255956,,,,,,
173600,0.091515,0.025838,-0.006175,-0.001092,9.7e-05,-0.00106,0.087266,-0.0,-0.0,2.0,0.282024,0.30485,0.282024,0.256166,,,,,,
173620,0.091515,0.025716,-0.00617,-0.001094,-0.000963,-0.001157,0.087266,-0.0,-0.0,2.0,0.282024,0.309804,0.282024,0.249595,,,,,,
173640,0.091517,0.025711,-0.006048,-2.7e-05,9.7e-05,-0.00106,0.087266,-0.0,-0.0,2.0,0.282024,0.304921,0.282024,0.256074,,,,,,
173660,0.091397,0.025705,-0.005924,-0.001094,-0.000963,-0.001157,0.087266,-0.0,-0.0,2.0,0.282024,0.305125,0.282024,0.25581,,,,,,
173680,0.091519,0.025583,-0.00592,-3e-05,-0.000963,-0.001157,0.087266,-0.0,-0.0,2.0,0.282024,0.309952,0.282024,0.249393,,,,,,
173700,0.091399,0.025578,-0.005797,-2.7e-05,9.7e-05,-0.00106,0.087266,-0.0,-0.0,2.0,0.282024,0.305181,0.282024,0.255738,,,,,,
173720,0.091644,0.025572,-0.005678,-0.001067,-0.00106,-9.7e-05,0.087266,-0.0,-0.0,2.0,0.282024,0.310248,0.282024,0.248987,,,,,,
173740,0.091524,0.025567,-0.005554,-3e-05,-0.000963,-0.001157,0.087266,-0.0,-0.0,2.0,0.282024,0.305252,0.282024,0.255646,,,,,,
173760,0.091525,0.025561,-0.005432,-0.001091,9.7e-05,-0.00106,0.087266,-0.0,-0.0,2.0,0.282024,0.310295,0.282024,0.248922,,,,,,
173780,0.091403,0.025561,-0.005431,0.0,0.0,0.0,0.087266,-0.0,-0.0,2.0,0.282024,0.305422,0.282024,0.255427,,,,,,
173800,0.091405,0.025555,-0.005309,-0.001091,9.7e-05,-0.00106,0.087266,-0.0,-0.0,2.0,0.282024,0.305644,0.282024,0.255139,,,,,,
173820,0.091407,0.025428,-0.005181,-2.7e-05,9.7e-05,-0.00106,0.087266,-0.0,-0.0,2.0,0.282024,0.310435,0.282024,0.248729,,,,,,
173840,0.091286,0.025422,-0.005058,-0.001094,-0.000963,-0.001157,0.087266,-0.0,-0.0,2.0,0.282024,0.305687,0.282024,0.255084,,,,,,
173860,0.091287,0.0253,-0.005052,-0.001091,9.7e-05,-0.00106,0.087266,-0.0,-0.0,2.0,0.282024,0.310617,0.282024,0.248478,,,,,,
173880,0.091165,0.025422,-0.005056,-2.7e-05,9.7e-05,-0.00106,0.087266,-0.0,-0.0,2.0,0.282024,0.305856,0.282024,0.254863,,,,,,
173900,0.091286,0.025422,-0.005058,-0.001067,-0.00106,-9.7e-05,0.087266,-0.0,-0.0,2.0,0.282024,0.310661,0.282024,0.248417,,,,,,
173920,0.091044,0.025416,-0.004933,-2.7e-05,9.7e-05,-0.00106,0.087266,-0.0,-0.0,2.0,0.282024,0.305667,0.282024,0.25511,,,,,,
173940,0.091166,0.025416,-0.004934,-0.001067,-0.00106,-9.7e-05,0.087266,-0.0,-0.0,2.0,0.282024,0.305858,0.282024,0.254861,,,,,,
173960,0.091044,0.025416,-0.004933,-2.7e-05,9.7e-05,-0.00106,0.087266,-0.0,-0.0,2.0,0.282024,0.305827,0.282024,0.254901,,,,,,
173980,0.090922,0.025416,-0.004931,-0.001091,9.7e-05,-0.00106,0.087266,-0.0,-0.0,2.0,0.282024,0.306019,0.282024,0.254651,,,,,,
174000,0.090921,0.0253,-0.005048,0.0,0.0,0.0,0.087266,-0.0,-0.0,2.0,0.282024,0.310813,0.282024,0.248206,,,,,,
174020,0.090799,0.025422,-0.005052,-0.001091,9.6e-05,-0.00106,0.087266,-0.0,-0.0,2.0,0.282024,0.306048,0.282024,0.254614,,,,,,
174040,0.090799,0.025422,-0.005052,-0.001094,-0.000963,-0.001157,0.087266,-0.0,-0.0,2.0,0.282024,0.310829,0.282024,0.248185,,,,,,
174060,0.090676,0.025544,-0.005056,-0.001067,-0.00106,-9.6e-05,0.087266,-0.0,-0.0,2.0,0.282024,0.305951,0.282024,0.25474,,,,,,
174080,0.090676,0.025544,-0.005056,-0.001091,9.6e-05,-0.00106,0.087266,-0.0,-0.0,2.0,0.282024,0.310849,0.282024,0.248157,,,,,,
174100,0.090309,0.025549,-0.005173,-2e-06,-0.00106,-9.6e-05,0.087266,-0.0,-0.0,2.0,0.282024,0.305722,0.282024,0.255038,,,,,,
174120,0.090431,0.025549,-0.005175,-0.001067,-0.00106,-9.6e-05,0.087266,-0.0,-0.0,2.0,0.282024,0.305796,0.282024,0.254941,,,,,,
174140,0.090185,0.025554,-0.005294,-2.7e-05,9.6e-05,-0.00106,0.087266,-0.0,-0.0,2.0,0.282024,0.305602,0.282024,0.255194,,,,,,
174160,0.090185,0.025554,-0.005294,-0.001067,-0.00106,-9.6e-05,0.087266,-0.0,-0.0,2.0,0.282024,0.305676,0.282024,0.255097,,,,,,
174180,0.090058,0.025431,-0.005286,-2.7e-05,9.6e-05,-0.00106,0.087266,-0.0,-0.0,2.0,0.282024,0.31045,0.282024,0.248708,,,,,,
174200,0.089935,0.025558,-0.005412,-0.001091,9.6e-05,-0.00106,0.087266,-0.0,-0.0,2.0,0.282024,0.305778,0.282024,0.254965,,,,,,
174220,0.090062,0.02556,-0.005414,-2e-06,-0.00106,-9.6e-05,0.087266,-0.0,-0.0,2.0,0.282024,0.310558,0.282024,0.24856,,,,,,
174240,0.089933,0.025685,-0.005539,-0.001064,0.0,0.0,0.087266,-0.0,-0.0,2.0,0.282024,0.305767,0.282024,0.254979,,,,,,
174260,0.089933,0.025685,-0.005539,-2.7e-05,9.6e-05,-0.00106,0.087266,-0.0,-0.0,2.0,0.282024,0.310655,0.282024,0.248425,,,,,,
174280,0.089931,0.025691,-0.005661,-2e-06,-0.00106,-9.6e-05,0.087266,-0.0,-0.0,2.0,0.282024,0.305768,0.282024,0.254978,,,,,,
174300,0.09006,0.025565,-0.005536,-0.001091,9.6e-05,-0.00106,0.087266,-0.0,-0.0,2.0,0.282024,0.31078,0.282024,0.248252,,,,,,
174320,0.09006,0.025565,-0.005536,-2.7e-05,9.6e-05,-0.00106,0.087266,-0.0,-0.0,2.0,0.282024,0.310822,0.282024,0.248195,,,,,,
174340,0.09006,0.025565,-0.005536,-0.001067,-0.00106,-9.6e-05,0.087266,-0.0,-0.0,2.0,0.282024,0.306066,0.282024,0.25459,,,,,,
174360,0.090062,0.02556,-0.005414,-2.7e-05,9.6e-05,-0.00106,0.087266,-0.0,-0.0,2.0,0.282024,0.310951,0.282024,0.248015,,,,,,
174380,0.089934,0.02568,-0.005417,-0.001067,-0.00106,-9.6e-05,0.087266,-0.0,-0.0,2.0,0.282024,0.306172,0.282024,0.254451,,,,,,
174400,0.089935,0.025558,-0.005412,-0.001094,-0.000964,-0.001156,0.087266,-0.0,-0.0,2.0,0.282024,0.306236,0.282024,0.254367,,,,,,
174420,0.089692,0.025674,-0.005292,-0.001094,-0.000965,-0.001156,0.087266,-0.0,-0.0,2.0,0.282024,0.30616,0.282024,0.254467,,,,,,
174440,0.089935,0.025796,-0.005301,-0.001094,-0.000964,-0.001156,0.087266,-0.0,-0.0,2.0,0.282024,0.311036,0.282024,0.247897,,,,,,
174460,0.089691,0.025796,-0.005298,0.0,0.0,0.0,0.087266,-0.0,-0.0,2.0,0.282024,0.306143,0.282024,0.254489,,,,,,
174480,0.089814,0.025674,-0.005294,-0.001064,0.0,0.0,0.087266,-0.0,-0.0,2.0,0.282024,0.311028,0.282024,0.247908,,,,,,
174500,0.089814,0.025552,-0.005288,0.0,0.0,0.0,0.087266,-0.0,-0.0,2.0,0.282024,0.306383,0.282024,0.254175,,,,,,
174520,0.089814,0.025552,-0.005288,-0.001091,9.5e-05,-0.00106,0.087266,-0.0,-0.0,2.0,0.282024,0.30656,0.282024,0.253943,,,,,,
174540,0.089692,0.025552,-0.005287,-2e-06,-0.00106,-9.5e-05,0.087266,-0.0,-0.0,2.0,0.282024,0.306244,0.282024,0.254357,,,,,,
174560,0.089571,0.02543,-0.00528,-0.001094,-0.000965,-0.001156,0.087266,-0.0,-0.0,2.0,0.282024,0.306285,0.282024,0.254303,,,,,,
174580,0.089571,0.02543,-0.00528,-0.001091,9.5e-05,-0.00106,0.087266,-0.0,-0.0,2.0,0.282024,0.311156,0.282024,0.24773,,,,,,
174600,0.089328,0.025668,-0.005166,-0.001067,-0.00106,-9.5e-05,0.087266,-0.0,-0.0,2.0,0.282024,0.306014,0.282024,0.254657,,,,,,
174620,0.089206,0.025668,-0.005164,-0.001091,9.5e-05,-0.00106,0.087266,-0.0,-0.0,2.0,0.282024,0.310885,0.282024,0.248107,,,,,,
174640,0.088961,0.02579,-0.005167,-0.001094,-0.000965,-0.001155,0.087266,-0.0,-0.0,2.0,0.282024,0.305975,0.282024,0.254708,,,,,,
174660,0.088961,0.02579,-0.005167,-0.001067,-0.00106,-9.5e-05,0.087266,-0.0,-0.0,2.0,0.282024,0.31061,0.282024,0.248487,,,,,,
174680,0.08872,0.025662,-0.005036,-0.001091,9.4e-05,-0.00106,0.087266,-0.0,-0.0,2.0,0.282024,0.305556,0.282024,0.255254,,,,,,
174700,0.08872,0.025418,-0.005025,-0.001067,-0.00106,-9.4e-05,0.087266,-0.0,-0.0,2.0,0.282024,0.305598,0.282024,0.255199,,,,,,
174720,0.088478,0.025291,-0.004895,0.0,0.0,0.0,0.087266,-0.0,-0.0,2.0,0.282024,0.305384,0.282024,0.255476,,,,,,
174740,0.088234,0.025413,-0.004897,-0.001091,9.4e-05,-0.00106,0.087266,-0.0,-0.0,2.0,0.282024,0.305399,0.282024,0.255456,,,,,,
174760,0.088112,0.025413,-0.004896,-2.9e-05,-0.000966,-0.001154,0.087266,-0.0,-0.0,2.0,0.282024,0.31003,0.282024,0.249286,,,,,,
174780,0.088112,0.025413,-0.004896,-0.001091,9.4e-05,-0.00106,0.087266,-0.0,-0.0,2.0,0.282024,0.305317,0.282024,0.255563,,,,,,
174800,0.088114,0.025407,-0.004774,-0.001091,9.4e-05,-0.00106,0.087266,-0.0,-0.0,2.0,0.282024,0.309937,0.282024,0.249414,,,,,,
174820,0.08799,0.025534,-0.0049,-2e-06,-0.00106,-9.4e-05,0.087266,-0.0,-0.0,2.0,0.282024,0.304994,0.282024,0.25598,,,,,,
174840,0.087991,0.025529,-0.004778,-0.001091,9.4e-05,-0.00106,0.087266,-0.0,-0.0,2.0,0.282024,0.310101,0.282024,0.249188,,,,,,
174860,0.087869,0.025529,-0.004776,-2.7e-05,9.3e-05,-0.00106,0.087266,-0.0,-0.0,2.0,0.282024,0.30489,0.282024,0.256114,,,,,,
174880,0.087992,0.025407,-0.004773,-0.001067,-0.00106,-9.4e-05,0.087266,-0.0,-0.0,2.0,0.282024,0.309888,0.282024,0.249481,,,,,,
174900,0.08787,0.025407,-0.004771,0.0,0.0,0.0,0.087266,-0.0,-0.0,2.0,0.282024,0.304918,0.282024,0.256077,,,,,,
174920,0.087871,0.025402,-0.004649,-0.001067,-0.00106,-9.3e-05,0.087266,-0.0,-0.0,2.0,0.282024,0.304944,0.282024,0.256045,,,,,,
174940,0.087627,0.025402,-0.004646,-2.7e-05,9.3e-05,-0.00106,0.087266,-0.0,-0.0,2.0,0.282024,0.309685,0.282024,0.249758,,,,,,
174960,0.087627,0.025523,-0.004651,-0.001091,9.3e-05,-0.00106,0.087266,-0.0,-0.0,2.0,0.282024,0.304954,0.282024,0.256032,,,,,,
174980,0.087629,0.025518,-0.004529,-2.9e-05,-0.000967,-0.001154,0.087266,-0.0,-0.0,2.0,0.282024,0.30459,0.282024,0.256499,,,,,,
175000,0.087257,0.025638,-0.004529,-0.001094,-0.000967,-0.001153,0.087266,-0.0,-0.0,2.0,0.282024,0.304599,0.282024,0.256487,,,,,,
175020,0.087385,0.025518,-0.004526,-0.001091,9.3e-05,-0.001061,0.087266,-0.0,-0.0,2.0,0.282024,0.309348,0.282024,0.250217,,,,,,
175040,0.087259,0.025511,-0.004402,0.0,0.0,0.0,0.087266,-0.0,-0.0,2.0,0.282024,0.304351,0.282024,0.256805,,,,,,
175060,0.087137,0.025389,-0.004395,-0.001093,-0.000968,-0.001153,0.087266,-0.0,-0.0,2.0,0.282024,0.309227,0.282024,0.250382,,,,,,
175080,0.087016,0.025389,-0.004394,-2.7e-05,9.2e-05,-0.001061,0.087266,-0.0,-0.0,2.0,0.282024,0.304113,0.282024,0.257108,,,,,,
175100,0.087016,0.025389,-0.004394,-0.001067,-0.00106,-9.3e-05,0.087266,-0.0,-0.0,2.0,0.282024,0.304224,0.282024,0.256967,,,,,,
175120,0.087017,0.025262,-0.004266,-2.7e-05,9.2e-05,-0.001061,0.087266,-0.0,-0.0,2.0,0.282024,0.308974,0.282024,0.250726,,,,,,
175140,0.087016,0.025389,-0.004394,-0.001067,-0.00106,-9.3e-05,0.087266,-0.0,-0.0,2.0,0.282024,0.304098,0.282024,0.257128,,,,,,
175160,0.087016,0.025389,-0.004394,-2.7e-05,9.2e-05,-0.001061,0.087266,-0.0,-0.0,2.0,0.282024,0.308952,0.282024,0.250755,,,,,,
175180,0.086772,0.025389,-0.004391,-0.001093,-0.000968,-0.001153,0.087266,-0.0,-0.0,2.0,0.282024,0.304075,0.282024,0.257156,,,,,,
175200,0.086894,0.025389,-0.004392,-0.001067,-0.00106,-9.2e-05,0.087266,-0.0,-0.0,2.0,0.282024,0.308826,0.282024,0.250925,,,,,,
175220,0.086772,0.025389,-0.004391,0.0,0.0,0.0,0.087266,-0.0,-0.0,2.0,0.282024,0.303808,0.282024,0.257496,,,,,,
175240,0.08665,0.025389,-0.004389,-0.001067,-0.00106,-9.2e-05,0.087266,-0.0,-0.0,2.0,0.282024,0.308564,0.282024,0.251278,,,,,,
175260,0.086528,0.025389,-0.004388,-2.7e-05,9.2e-05,-0.001061,0.087266,-0.0,-0.0,2.0,0.282024,0.303547,0.282024,0.257827,,,,,,
175280,0.086407,0.025383,-0.004264,-0.001091,9.2e-05,-0.001061,0.087266,-0.0,-0.0,2.0,0.282024,0.303647,0.282024,0.257701,,,,,,
175300,0.086406,0.025389,-0.004386,-2e-06,-0.00106,-9.2e-05,0.087266,-0.0,-0.0,2.0,0.282024,0.308277,0.282024,0.251664,,,,,,
175320,0.086162,0.025388,-0.004383,-0.001064,0.0,0.0,0.087266,-0.0,-0.0,2.0,0.282024,0.303248,0.282024,0.258206,,,,,,
175340,0.086162,0.025388,-0.004383,0.0,0.0,0.0,0.087266,-0.0,-0.0,2.0,0.282024,0.308104,0.282024,0.251896,,,,,,
175360,0.08604,0.025388,-0.004382,-2e-06,-0.00106,-9.1e-05,0.087266,-0.0,-0.0,2.0,0.282024,0.302941,0.282024,0.258591,,,,,,
175380,0.08604,0.025388,-0.004382,-0.001093,-0.000969,-0.001152,0.087266,-0.0,-0.0,2.0,0.282024,0.307944,0.282024,0.25211,,,,,,
175400,0.085796,0.02551,-0.004384,-2.7e-05,9.1e-05,-0.001061,0.087266,-0.0,-0.0,2.0,0.282024,0.302639,0.282024,0.258971,,,,,,
175420,0.085796,0.025388,-0.004379,-0.001067,-0.00106,-9.1e-05,0.087266,-0.0,-0.0,2.0,0.282024,0.302617,0.282024,0.258999,,,,,,
175440,0.085552,0.025266,-0.00437,-2.7e-05,9.1e-05,-0.001061,0.087266,-0.0,-0.0,2.0,0.282024,0.302335,0.282024,0.259351,,,,,,
175460,0.085552,0.025388,-0.004376,-0.001067,-0.00106,-9.1e-05,0.087266,-0.0,-0.0,2.0,0.282024,0.302415,0.282024,0.259251,,,,,,
175480,0.08543,0.025388,-0.004374,-2.7e-05,9.1e-05,-0.001061,0.087266,-0.0,-0.0,2.0,0.282024,0.307051,0.282024,0.253297,,,,,,
175500,0.085188,0.025383,-0.004249,-0.001093,-0.00097,-0.001151,0.087266,-0.0,-0.0,2.0,0.282024,0.302088,0.282024,0.259659,,,,,,
175520,0.085432,0.025383,-0.004252,-0.001067,-0.00106,-9.1e-05,0.087266,-0.0,-0.0,2.0,0.282024,0.306849,0.282024,0.253563,,,,,,
175540,0.08531,0.025383,-0.004251,-2.7e-05,9.1e-05,-0.001061,0.087266,-0.0,-0.0,2.0,0.282024,0.301879,0.282024,0.259918,,,,,,
175560,0.085433,0.025378,-0.00413,-0.001067,-0.00106,-9.1e-05,0.087266,-0.0,-0.0,2.0,0.282024,0.306892,0.282024,0.253506,,,,,,
175580,0.085311,0.025378,-0.004129,-2.7e-05,9.1e-05,-0.001061,0.087266,-0.0,-0.0,2.0,0.282024,0.30181,0.282024,0.260004,,,,,,
175600,0.085311,0.025378,-0.004129,-0.001091,9.1e-05,-0.001061,0.087266,-0.0,-0.0,2.0,0.282024,0.30201,0.282024,0.259756,,,,,,
175620,0.085434,0.025256,-0.004125,-2e-06,-0.00106,-9.1e-05,0.087266,-0.0,-0.0,2.0,0.282024,0.306775,0.282024,0.253661,,,,,,
175640,0.085312,0.025256,-0.004124,0.0,0.0,0.0,0.087266,-0.0,-0.0,2.0,0.282024,0.301816,0.282024,0.259997,,,,,,
175660,0.085434,0.025256,-0.004125,-0.001064,0.0,0.0,0.087266,-0.0,-0.0,2.0,0.282024,0.306695,0.282024,0.253765,,,,,,
175680,0.085191,0.02525,-0.004,-2.7e-05,9.1e-05,-0.001061,0.087266,-0.0,-0.0,2.0,0.282024,0.301599,0.282024,0.260265,,,,,,
175700,0.085312,0.025256,-0.004124,-0.001093,-0.00097,-0.001151,0.087266,-0.0,-0.0,2.0,0.282024,0.306493,0.282024,0.254032,,,,,,
175720,0.085067,0.025377,-0.004126,0.0,0.0,0.0,0.087266,-0.0,-0.0,2.0,0.282024,0.301386,0.282024,0.260528,,,,,,
175740,0.085067,0.025377,-0.004126,-0.001067,-0.00106,-9e-05,0.087266,-0.0,-0.0,2.0,0.282024,0.301227,0.282024,0.260725,,,,,,
