time_ms,roll,pitch,yaw,roll_rate,pitch_rate,yaw_rate,reference_roll,reference_pitch,reference_yaw,reference_throttle,throttle_1,throttle_2,throttle_3,throttle_4,roll_predicted,pitch_predicted,yaw_predicted,roll_rate_predicted,pitch_rate_predicted,yaw_rate_predicted
64673,0.000771,-0.026729,-0.02112,-0.001036,-0.001063,-0.001065,-0.0,-0.0,-0.0,2.0,0.282024,0.277592,0.282024,0.286358,,,,,,
64693,0.000525,-0.026609,-0.021123,-0.001064,-0.001064,-1e-06,4.8e-05,-0.0,-0.0,2.0,0.282024,0.277418,0.282024,0.286525,,,,,,
64713,0.000521,-0.026487,-0.020879,2.8e-05,-0.001064,-0.001065,0.003746,-0.0,-0.0,2.0,0.282024,0.278311,0.282024,0.285668,,,,,,
64733,0.000643,-0.026486,-0.020878,2.8e-05,-0.001064,-0.001065,0.008572,-0.0,-0.0,2.0,0.282024,0.276403,0.282024,0.287489,,,,,,
64753,0.000887,-0.026483,-0.020874,2.8e-05,1e-06,-0.001065,0.008572,-0.0,-0.0,2.0,0.282024,0.276343,0.282024,0.287546,,,,,,
64773,0.001131,-0.026603,-0.020749,2.8e-05,1e-06,-0.001065,0.0154,-0.0,-0.0,2.0,0.282024,0.273508,0.282024,0.290186,,,,,,
64793,0.001376,-0.026722,-0.020746,0.0,-0.001064,-1e-06,0.017611,-0.0,-0.0,2.0,0.282024,0.27257,0.282024,0.291043,,,,,,
64813,0.001376,-0.026845,-0.020624,2.9e-05,1e-06,-0.001065,0.020056,-0.0,-0.0,2.0,0.282024,0.271268,0.282024,0.29222,,,,,,
64833,0.001377,-0.026844,-0.020746,0.0,0.0,0.0,0.025102,-0.0,-0.0,2.0,0.282024,0.266414,0.282024,0.29648,,,,,,
64853,0.001376,-0.026845,-0.020624,-0.001064,-0.001064,-1e-06,0.028608,-0.0,-0.0,2.0,0.282024,0.267064,0.282024,0.295921,,,,,,
64873,0.001376,-0.026845,-0.020624,2.9e-05,-0.001063,-0.001066,0.032045,-0.0,-0.0,2.0,0.282024,0.265284,0.282024,0.297443,,,,,,
64893,0.001498,-0.026721,-0.020744,0.0,0.0,0.0,0.035491,-0.0,-0.0,2.0,0.282024,0.260739,0.282024,0.301215,,,,,,
64913,0.001742,-0.026719,-0.020741,0.0,0.0,0.0,0.038257,-0.0,-0.0,2.0,0.282024,0.261785,0.282024,0.300361,,,,,,
64933,0.00223,-0.026714,-0.020734,0.001064,-0.001064,-2e-06,0.040709,-0.0,-0.0,2.0,0.282024,0.263039,0.282024,0.299327,,,,,,
64953,0.002842,-0.026829,-0.020726,0.002157,3e-06,-0.001065,0.042417,-0.0,-0.0,2.0,0.282024,0.262044,0.282024,0.300149,,,,,,
64973,0.003945,-0.026939,-0.020955,0.002128,0.0,0.0,0.047094,-0.0,-0.0,2.0,0.282024,0.262539,0.282024,0.299741,,,,,,
64993,0.005532,-0.026923,-0.020933,0.003193,0.0,0.0,0.049224,-0.0,-0.0,2.0,0.282024,0.264323,0.282024,0.298255,,,,,,
65013,0.007242,-0.026904,-0.021032,0.004257,-0.001064,-8e-06,0.052321,-0.0,-0.0,2.0,0.282024,0.265713,0.282024,0.297079,,,,,,
65033,0.009561,-0.026879,-0.021001,0.00535,-0.001054,-0.001075,0.055193,-0.0,-0.0,2.0,0.282024,0.267435,0.282024,0.295601,,,,,,
65053,0.012495,-0.026968,-0.021204,0.006385,0.0,0.0,0.057965,-0.0,-0.0,2.0,0.282024,0.266909,0.282024,0.296055,,,,,,
65073,0.016036,-0.026929,-0.021277,0.007421,-1.7e-05,0.001064,0.060674,-0.0,-0.0,2.0,0.282024,0.271696,0.282024,0.291834,,,,,,
65093,0.019824,-0.02701,-0.021349,0.009578,0.0,0.0,0.06221,-0.0,-0.0,2.0,0.282024,0.27696,0.282024,0.286961,,,,,,
65113,0.024466,-0.027201,-0.021403,0.010671,2.6e-05,-0.001064,0.063941,-0.0,-0.0,2.0,0.282024,0.277689,0.282024,0.286266,,,,,,
65133,0.029601,-0.027384,-0.021696,0.010642,0.0,0.0,0.067109,-0.0,-0.0,2.0,0.282024,0.28025,0.282024,0.283782,,,,,,
65153,0.035224,-0.027558,-0.02198,0.011677,-3.7e-05,0.001064,0.070363,-0.0,-0.0,2.0,0.282024,0.285472,0.282024,0.278515,,,,,,
65173,0.041209,-0.027609,-0.022015,0.013835,0.0,0.0,0.071998,-0.0,-0.0,2.0,0.282024,0.286751,0.282024,0.27718,,,,,,
65193,0.047443,-0.027772,-0.022286,0.013864,5e-05,-0.001063,0.074155,-0.0,-0.0,2.0,0.282024,0.290228,0.282024,0.273462,,,,,,
65213,0.054288,-0.027921,-0.022667,0.014869,-5.8e-05,0.001063,0.076027,-0.0,-0.0,2.0,0.282024,0.291743,0.282024,0.271798,,,,,,
65233,0.061256,-0.027948,-0.022929,0.014869,-6.5e-05,0.001063,0.076909,-0.0,-0.0,2.0,0.282024,0.295988,0.282024,0.266986,,,,,,
65253,0.068346,-0.028096,-0.023061,0.014869,-7.3e-05,0.001062,0.078577,-0.0,-0.0,2.0,0.282024,0.297869,0.282024,0.264781,,,,,,
65273,0.075559,-0.028235,-0.02331,0.014899,0.0,0.0,0.080586,-0.0,-0.0,2.0,0.282024,0.299652,0.282024,0.262647,,,,,,
65293,0.082775,-0.028488,-0.023673,0.014899,0.0,0.0,0.080586,-0.0,-0.0,2.0,0.282024,0.302149,0.282024,0.259583,,,,,,
65313,0.089994,-0.028617,-0.024041,0.014869,-9.6e-05,0.00106,0.082804,-0.0,-0.0,2.0,0.282024,0.303954,0.282024,0.257311,,,,,,
65333,0.09697,-0.028872,-0.024283,0.014869,-0.000103,0.00106,0.083898,-0.0,-0.0,2.0,0.282024,0.306172,0.282024,0.254451,,,,,,
65353,0.1037,-0.028884,-0.024538,0.013835,0.0,0.0,0.084561,-0.0,-0.0,2.0,0.282024,0.306359,0.282024,0.254207,,,,,,
65373,0.110434,-0.029129,-0.0249,0.013835,0.0,0.0,0.085445,-0.0,-0.0,2.0,0.282024,0.308549,0.282024,0.251298,,,,,,
65393,0.116921,-0.029259,-0.025147,0.01274,-0.000124,0.001057,0.086116,-0.0,-0.0,2.0,0.282024,0.310826,0.282024,0.248189,,,,,,
65413,0.123041,-0.029271,-0.025406,0.01274,-0.000131,0.001057,0.086638,-0.0,-0.0,2.0,0.282024,0.311089,0.282024,0.247824,,,,,,
65433,0.128919,-0.029405,-0.02566,0.011706,0.0,0.0,0.087013,-0.0,-0.0,2.0,0.282024,0.311316,0.282024,0.247507,,,,,,
65453,0.134311,-0.029414,-0.02605,0.010642,0.0,0.0,0.087179,-0.0,-0.0,2.0,0.282024,0.311446,0.282024,0.247326,,,,,,
65473,0.139335,-0.029434,-0.026325,0.009547,-0.000148,0.001054,0.08725,-0.0,-0.0,2.0,0.282024,0.311654,0.282024,0.247035,,,,,,
65493,0.143865,-0.029581,-0.026594,0.008514,0.0,0.0,0.087249,-0.0,-0.0,2.0,0.282024,0.311709,0.282024,0.246957,,,,,,
65513,0.14816,-0.029731,-0.026871,0.00745,0.0,0.0,0.086973,-0.0,-0.0,2.0,0.282024,0.313854,0.282024,0.243907,,,,,,
65533,0.15196,-0.029755,-0.027283,0.00745,0.0,0.0,0.086738,-0.0,-0.0,2.0,0.282024,0.313831,0.282024,0.24394,,,,,,
65553,0.15528,-0.029796,-0.027586,0.006385,0.0,0.0,0.086107,-0.0,-0.0,2.0,0.282024,0.313763,0.282024,0.244038,,,,,,
65573,0.158228,-0.029832,-0.028013,0.005295,-0.001219,0.000884,0.085428,-0.0,-0.0,2.0,0.282024,0.313744,0.282024,0.244066,,,,,,
65593,0.160678,-0.029882,-0.028323,0.004262,-0.001051,-0.00017,0.084602,-0.0,-0.0,2.0,0.282024,0.313582,0.282024,0.244299,,,,,,
65613,0.162532,-0.030056,-0.028762,0.003193,0.0,0.0,0.084129,-0.0,-0.0,2.0,0.282024,0.313067,0.282024,0.245036,,,,,,
65633,0.164009,-0.029991,-0.029223,0.002102,-0.001224,0.000877,0.083526,-0.0,-0.0,2.0,0.282024,0.312551,0.282024,0.24577,,,,,,
65653,0.164989,-0.029933,-0.029689,0.001033,-0.000175,0.00105,0.081421,-0.0,-0.0,2.0,0.282024,0.312406,0.282024,0.245976,,,,,,
65673,0.165369,-0.029897,-0.030051,0.0,0.0,0.0,0.080684,-0.0,-0.0,2.0,0.282024,0.31168,0.282024,0.246998,,,,,,
65693,0.165497,-0.029854,-0.030535,-0.001064,0.0,0.0,0.079283,-0.0,-0.0,2.0,0.282024,0.311038,0.282024,0.247894,,,,,,
65713,0.165019,-0.029945,-0.031022,-0.002128,0.0,0.0,0.077872,-0.0,-0.0,2.0,0.282024,0.310193,0.282024,0.249062,,,,,,
65733,0.164649,-0.02992,-0.03139,-0.002128,0.0,0.0,0.076004,-0.0,-0.0,2.0,0.282024,0.311622,0.282024,0.247079,,,,,,
65753,0.164049,-0.030014,-0.03188,-0.002128,0.0,0.0,0.074162,-0.0,-0.0,2.0,0.282024,0.3129,0.282024,0.245274,,,,,,
65773,0.163446,-0.029864,-0.032389,-0.002128,0.0,0.0,0.072152,-0.0,-0.0,2.0,0.282024,0.314349,0.282024,0.24319,,,,,,
65793,0.162713,-0.029837,-0.032886,-0.001096,-0.000172,0.001051,0.06965,-0.0,-0.0,2.0,0.282024,0.315878,0.282024,0.240946,,,,,,
65813,0.162112,-0.02981,-0.033386,-0.00216,-0.000172,0.001051,0.067767,-0.0,-0.0,2.0,0.282024,0.317259,0.282024,0.238878,,,,,,
65833,0.161375,-0.029672,-0.033771,-0.002128,0.0,0.0,0.06552,-0.0,-0.0,2.0,0.282024,0.318702,0.282024,0.236672,,,,,,
65853,0.160775,-0.029767,-0.034261,-0.002128,0.0,0.0,0.063355,-0.0,-0.0,2.0,0.282024,0.320179,0.282024,0.234367,,,,,,
65873,0.160052,-0.029743,-0.034764,-0.002128,0.0,0.0,0.062107,-0.0,-0.0,2.0,0.282024,0.321258,0.282024,0.232651,,,,,,
65893,0.159199,-0.029842,-0.035253,-0.002128,0.0,0.0,0.058352,-0.0,-0.0,2.0,0.282024,0.321292,0.282024,0.232596,,,,,,
65913,0.158111,-0.029827,-0.035764,-0.003193,0.0,0.0,0.055247,-0.0,-0.0,2.0,0.282024,0.322953,0.282024,0.229897,,,,,,
65933,0.156772,-0.029938,-0.036265,-0.004257,0.0,0.0,0.052328,-0.0,-0.0,2.0,0.282024,0.324479,0.282024,0.227354,,,,,,
65953,0.155307,-0.029939,-0.036656,-0.004252,-0.001051,-0.000165,0.050846,-0.0,-0.0,2.0,0.282024,0.323569,0.282024,0.228878,,,,,,
65973,0.153477,-0.02995,-0.037055,-0.005321,0.0,0.0,0.047441,-0.0,-0.0,2.0,0.282024,0.323173,0.282024,0.229534,,,,,,
65993,0.15115,-0.029848,-0.037467,-0.006381,-0.001052,-0.00016,0.045668,-0.0,-0.0,2.0,0.282024,0.324037,0.282024,0.228098,,,,,,
66013,0.148588,-0.029755,-0.037891,-0.006381,-0.001052,-0.000158,0.041895,-0.0,-0.0,2.0,0.282024,0.323534,0.282024,0.228936,,,,,,
66033,0.14565,-0.029678,-0.038194,-0.007445,-0.001053,-0.000155,0.039028,-0.0,-0.0,2.0,0.282024,0.322609,0.282024,0.230461,,,,,,
66053,0.142223,-0.02949,-0.038516,-0.008509,-0.001053,-0.000151,0.034583,-0.0,-0.0,2.0,0.282024,0.322054,0.282024,0.231367,,,,,,
66073,0.138433,-0.029434,-0.038836,-0.009574,-0.001054,-0.000147,0.030942,-0.0,-0.0,2.0,0.282024,0.321127,0.282024,0.232861,,,,,,
66093,0.134397,-0.029391,-0.039038,-0.009574,-0.001055,-0.000143,0.029212,-0.0,-0.0,2.0,0.282024,0.321418,0.282024,0.232394,,,,,,
66113,0.129867,-0.029359,-0.039243,-0.010642,0.0,0.0,0.025736,-0.0,-0.0,2.0,0.282024,0.320155,0.282024,0.234406,,,,,,
66133,0.124857,-0.029339,-0.039464,-0.011675,0.000133,-0.001056,0.022149,-0.0,-0.0,2.0,0.282024,0.318816,0.282024,0.236496,,,,,,
66153,0.119474,-0.029326,-0.039683,-0.01274,0.000127,-0.001057,0.019705,-0.0,-0.0,2.0,0.282024,0.316869,0.282024,0.239465,,,,,,
66173,0.113598,-0.029088,-0.039803,-0.013804,0.000121,-0.001058,0.015245,-0.0,-0.0,2.0,0.282024,0.317412,0.282024,0.238646,,,,,,
66193,0.107361,-0.0291,-0.039913,-0.014865,-0.000944,-0.001173,0.011419,-0.0,-0.0,2.0,0.282024,0.313587,0.282024,0.244292,,,,,,
66213,0.10076,-0.028879,-0.040047,-0.014865,-0.000952,-0.001166,0.007378,-0.0,-0.0,2.0,0.282024,0.3137,0.282024,0.24413,,,,,,
66233,0.09367,-0.028909,-0.040168,-0.01593,-0.00096,-0.00116,0.004557,-0.0,-0.0,2.0,0.282024,0.311103,0.282024,0.247803,,,,,,
66253,0.086205,-0.028587,-0.040187,-0.016995,-0.000969,-0.001152,0.000459,-0.0,-0.0,2.0,0.282024,0.308872,0.282024,0.250862,,,,,,
66273,0.078379,-0.028387,-0.040324,-0.018059,-0.000978,-0.001145,-0.003223,-0.0,-0.0,2.0,0.282024,0.306248,0.282024,0.254352,,,,,,
66293,0.070071,-0.028325,-0.040345,-0.019124,-0.000987,-0.001137,-0.005062,-0.0,-0.0,2.0,0.282024,0.302707,0.282024,0.258885,,,,,,
66313,0.061513,-0.028139,-0.040484,-0.019124,-0.000997,-0.001128,-0.008796,-0.0,-0.0,2.0,0.282024,0.299646,0.282024,0.262654,,,,,,
66333,0.052714,-0.027962,-0.040506,-0.020189,-0.001007,-0.001119,-0.010702,-0.0,-0.0,2.0,0.282024,0.297897,0.282024,0.264748,,,,,,
66353,0.043427,-0.027793,-0.04053,-0.021254,-0.001017,-0.00111,-0.014003,-0.0,-0.0,2.0,0.282024,0.296398,0.282024,0.26651,,,,,,
66373,0.034018,-0.02738,-0.040682,-0.021254,-0.001027,-0.0011,-0.019827,-0.0,-0.0,2.0,0.282024,0.293519,0.282024,0.269812,,,,,,
66393,0.024489,-0.027214,-0.040702,-0.021255,-0.001038,-0.00109,-0.021838,-0.0,-0.0,2.0,0.282024,0.291297,0.282024,0.272291,,,,,,
66413,0.014715,-0.026927,-0.040841,-0.021255,-0.001048,-0.00108,-0.026551,-0.0,-0.0,2.0,0.282024,0.289915,0.282024,0.273802,,,,,,
66433,0.005064,-0.026758,-0.040847,-0.021256,-0.001059,-0.00107,-0.030051,-0.0,-0.0,2.0,0.282024,0.28575,0.282024,0.278226,,,,,,
66453,-0.004712,-0.026348,-0.040854,-0.021257,-0.001069,-0.00106,-0.03347,-0.0,-0.0,2.0,0.282024,0.285999,0.282024,0.277967,,,,,,
66473,-0.014483,-0.026181,-0.040983,-0.021257,-0.00108,-0.001049,-0.036829,-0.0,-0.0,2.0,0.282024,0.28384,0.282024,0.280191,,,,,,
66493,-0.024135,-0.026006,-0.040852,-0.021257,-0.00109,-0.001039,-0.038847,-0.0,-0.0,2.0,0.282024,0.28115,0.282024,0.282895,,,,,,
66513,-0.033911,-0.025833,-0.040729,-0.021258,-0.0011,-0.001028,-0.040786,-0.0,-0.0,2.0,0.282024,0.278124,0.282024,0.285848,,,,,,
66533,-0.043439,-0.025773,-0.040592,-0.021231,-0.001156,-0.002081,-0.044123,-0.0,-0.0,2.0,0.282024,0.2757,0.282024,0.288151,,,,,,
66553,-0.05285,-0.025586,-0.040452,-0.020195,-0.001119,-0.001007,-0.048839,-0.0,-0.0,2.0,0.282024,0.273795,0.282024,0.289922,,,,,,
66573,-0.062262,-0.025392,-0.040182,-0.021231,-0.000132,-0.002125,-0.050768,-0.0,-0.0,2.0,0.282024,0.273104,0.282024,0.290555,,,,,,
66593,-0.071432,-0.025185,-0.039782,-0.020169,-0.001213,-0.002048,-0.053721,-0.0,-0.0,2.0,0.282024,0.270435,0.282024,0.292966,,,,,,
66613,-0.080362,-0.024969,-0.039381,-0.019105,-0.001232,-0.002037,-0.056581,-0.0,-0.0,2.0,0.282024,0.267645,0.282024,0.295419,,,,,,
66633,-0.089295,-0.024627,-0.038968,-0.019106,-0.00125,-0.002026,-0.059332,-0.0,-0.0,2.0,0.282024,0.267242,0.282024,0.295768,,,,,,
66653,-0.097859,-0.024394,-0.038551,-0.019133,-0.001163,-0.000955,-0.062034,-0.0,-0.0,2.0,0.282024,0.264334,0.282024,0.298246,,,,,,
66673,-0.106189,-0.024142,-0.03789,-0.018018,-0.001397,-0.003063,-0.063787,-0.0,-0.0,2.0,0.282024,0.263589,0.282024,0.29887,,,,,,
66693,-0.114267,-0.023884,-0.037336,-0.018044,-0.0013,-0.001994,-0.066697,-0.0,-0.0,2.0,0.282024,0.260835,0.282024,0.301137,,,,,,
66713,-0.122229,-0.023734,-0.03667,-0.016952,-0.000389,-0.00317,-0.068963,-0.0,-0.0,2.0,0.282024,0.260183,0.282024,0.301665,,,,,,
66733,-0.129574,-0.023566,-0.035989,-0.015914,-0.000275,-0.002111,-0.070109,-0.0,-0.0,2.0,0.282024,0.256743,0.282024,0.304399,,,,,,
66753,-0.136809,-0.023263,-0.035181,-0.015918,-0.001345,-0.001964,-0.073108,-0.0,-0.0,2.0,0.282024,0.256719,0.282024,0.304418,,,,,,
66773,-0.143797,-0.023183,-0.034263,-0.014829,-0.001511,-0.003008,-0.075037,-0.0,-0.0,2.0,0.282024,0.256321,0.282024,0.304729,,,,,,
66793,-0.150295,-0.023221,-0.033472,-0.014826,-0.000478,-0.003158,-0.076846,-0.0,-0.0,2.0,0.282024,0.253176,0.282024,0.307142,,,,,,
66813,-0.156432,-0.023004,-0.032659,-0.013787,-0.000332,-0.002103,-0.0777,-0.0,-0.0,2.0,0.282024,0.252522,0.282024,0.307635,,,,,,
66833,-0.162442,-0.022748,-0.031471,-0.012703,-0.001567,-0.002979,-0.079446,-0.0,-0.0,2.0,0.282024,0.252201,0.282024,0.307876,,,,,,
66853,-0.16773,-0.022488,-0.030406,-0.010575,-0.001582,-0.002971,-0.080337,-0.0,-0.0,2.0,0.282024,0.251763,0.282024,0.308203,,,,,,
66873,-0.172644,-0.022216,-0.029332,-0.010572,-0.000548,-0.003146,-0.081916,-0.0,-0.0,2.0,0.282024,0.248976,0.282024,0.310256,,,,,,
66893,-0.177189,-0.022166,-0.028154,-0.010573,-0.000563,-0.003143,-0.082945,-0.0,-0.0,2.0,0.282024,0.251643,0.282024,0.308293,,,,,,
66913,-0.181131,-0.021972,-0.026841,-0.008449,-0.001622,-0.002949,-0.084205,-0.0,-0.0,2.0,0.282024,0.251914,0.282024,0.30809,,,,,,
66933,-0.184829,-0.02177,-0.025526,-0.007363,-0.001828,-0.00399,-0.085247,-0.0,-0.0,2.0,0.282024,0.252089,0.282024,0.30796,,,,,,
66953,-0.18803,-0.021545,-0.024082,-0.0063,-0.001841,-0.003984,-0.085625,-0.0,-0.0,2.0,0.282024,0.249302,0.282024,0.310018,,,,,,
66973,-0.190621,-0.021444,-0.022768,-0.006318,-0.000605,-0.003136,-0.086268,-0.0,-0.0,2.0,0.282024,0.249761,0.282024,0.309683,,,,,,
66993,-0.19296,-0.021312,-0.021206,-0.00525,0.000432,-0.003338,-0.086749,-0.0,-0.0,2.0,0.282024,0.250275,0.282024,0.309306,,,,,,
67013,-0.194946,-0.021175,-0.019645,-0.004164,0.000219,-0.004383,-0.087115,-0.0,-0.0,2.0,0.282024,0.250817,0.282024,0.308906,,,,,,
67033,-0.196313,-0.02103,-0.018078,-0.002041,-0.00083,-0.004176,-0.087225,-0.0,-0.0,2.0,0.282024,0.251507,0.282024,0.308394,,,,,,
67053,-0.197433,-0.021137,-0.016654,-0.002045,-0.001879,-0.003966,-0.087266,-0.0,-0.0,2.0,0.282024,0.252201,0.282024,0.307876,,,,,,
67073,-0.198058,-0.020983,-0.015079,-0.002067,-0.001672,-0.002921,-0.087133,-0.0,-0.0,2.0,0.282024,0.250361,0.282024,0.309242,,,,,,
67093,-0.198443,-0.020694,-0.013369,-0.000978,-0.000839,-0.004174,-0.086955,-0.0,-0.0,2.0,0.282024,0.251333,0.282024,0.308524,,,,,,
67113,-0.198461,-0.020537,-0.011789,8.6e-05,-0.000839,-0.004174,-0.086505,-0.0,-0.0,2.0,0.282024,0.252333,0.282024,0.307777,,,,,,
67133,-0.198356,-0.020501,-0.010221,9e-05,0.000205,-0.004384,-0.085935,-0.0,-0.0,2.0,0.282024,0.25055,0.282024,0.309103,,,,,,
67153,-0.198008,-0.020465,-0.008651,0.001154,0.000206,-0.004384,-0.085221,-0.0,-0.0,2.0,0.282024,0.248789,0.282024,0.310391,,,,,,
67173,-0.197649,-0.020538,-0.00697,8.6e-05,-0.000836,-0.004175,-0.084249,-0.0,-0.0,2.0,0.282024,0.246885,0.282024,0.311761,,,,,,
67193,-0.1973,-0.020624,-0.005411,8.6e-05,-0.000834,-0.004175,-0.084249,-0.0,-0.0,2.0,0.282024,0.245433,0.282024,0.312788,,,,,,
67213,-0.196953,-0.02059,-0.00384,8.6e-05,-0.000833,-0.004175,-0.08229,-0.0,-0.0,2.0,0.282024,0.242981,0.282024,0.314493,,,,,,
67233,-0.196849,-0.020422,-0.002138,8.1e-05,-0.001876,-0.003967,-0.081589,-0.0,-0.0,2.0,0.282024,0.240971,0.282024,0.315861,,,,,,
67253,-0.196866,-0.020266,-0.000558,8e-05,-0.001876,-0.003967,-0.080423,-0.0,-0.0,2.0,0.282024,0.238627,0.282024,0.317425,,,,,,
67273,-0.196883,-0.020098,0.001143,8e-05,-0.001876,-0.003967,-0.078393,-0.0,-0.0,2.0,0.282024,0.235784,0.282024,0.319275,,,,,,
67293,-0.196656,-0.020064,0.002714,-0.000985,-0.001875,-0.003968,-0.07672,-0.0,-0.0,2.0,0.282024,0.23003,0.282024,0.322872,,,,,,
67313,-0.196541,-0.020005,0.004525,8.4e-05,-0.000831,-0.004176,-0.074903,-0.0,-0.0,2.0,0.282024,0.230371,0.282024,0.322664,,,,,,
67333,-0.196193,-0.01984,0.006231,8.7e-05,0.000214,-0.004384,-0.072934,-0.0,-0.0,2.0,0.282024,0.227512,0.282024,0.324385,,,,,,
67353,-0.195724,-0.019797,0.007925,0.001151,0.000216,-0.004383,-0.071896,-0.0,-0.0,2.0,0.282024,0.228435,0.282024,0.323835,,,,,,
67373,-0.195,-0.019756,0.009622,0.002215,0.000219,-0.004383,-0.070004,-0.0,-0.0,2.0,0.282024,0.228997,0.282024,0.323497,,,,,,
67393,-0.194168,-0.019707,0.011444,0.002211,-0.000821,-0.004178,-0.067342,-0.0,-0.0,2.0,0.282024,0.225938,0.282024,0.325313,,,,,,
67413,-0.192714,-0.019554,0.013162,0.00327,-0.00186,-0.003975,-0.065322,-0.0,-0.0,2.0,0.282024,0.223496,0.282024,0.326725,,,,,,
67433,-0.19114,-0.019393,0.015004,0.00327,-0.001854,-0.003978,-0.062156,-0.0,-0.0,2.0,0.282024,0.223808,0.282024,0.326546,,,,,,
67453,-0.189188,-0.019116,0.016859,0.004337,-0.000801,-0.004182,-0.059264,-0.0,-0.0,2.0,0.282024,0.221156,0.282024,0.328046,,,,,,
67473,-0.187004,-0.018847,0.018721,0.004336,-0.000791,-0.004183,-0.056522,-0.0,-0.0,2.0,0.282024,0.221924,0.282024,0.327616,,,,,,
67493,-0.1842,-0.018589,0.020588,0.005399,-0.00078,-0.004186,-0.055107,-0.0,-0.0,2.0,0.282024,0.227163,0.282024,0.324592,,,,,,
67513,-0.181153,-0.018339,0.022459,0.007526,-0.000767,-0.004188,-0.052211,-0.0,-0.0,2.0,0.282024,0.225163,0.282024,0.325764,,,,,,
67533,-0.17773,-0.0181,0.024331,0.007525,-0.000753,-0.004191,-0.048476,-0.0,-0.0,2.0,0.282024,0.226059,0.282024,0.325242,,,,,,
67553,-0.173833,-0.018128,0.026071,0.00859,-0.000736,-0.004193,-0.048476,-0.0,-0.0,2.0,0.282024,0.229343,0.282024,0.323289,,,,,,
67573,-0.169437,-0.018049,0.027824,0.009651,-0.001767,-0.004017,-0.043036,-0.0,-0.0,2.0,0.282024,0.229933,0.282024,0.322931,,,,,,
67593,-0.164677,-0.017973,0.029705,0.010715,-0.001748,-0.004025,-0.040119,-0.0,-0.0,2.0,0.282024,0.232074,0.282024,0.321616,,,,,,
67613,-0.15942,-0.017923,0.031466,0.011779,-0.001726,-0.004035,-0.035739,-0.0,-0.0,2.0,0.282024,0.230556,0.282024,0.322551,,,,,,
67633,-0.153808,-0.01788,0.03336,0.012846,-0.000652,-0.004207,-0.034066,-0.0,-0.0,2.0,0.282024,0.233845,0.282024,0.320509,,,,,,
67653,-0.147829,-0.017873,0.035016,0.012849,0.000426,-0.004368,-0.030633,-0.0,-0.0,2.0,0.282024,0.236388,0.282024,0.318887,,,,,,
67673,-0.141113,-0.018011,0.036667,0.013895,0.000605,-0.003311,-0.027136,-0.0,-0.0,2.0,0.282024,0.23926,0.282024,0.317006,,,,,,
67693,-0.134271,-0.018056,0.038085,0.016021,-0.000427,-0.003164,-0.023152,-0.0,-0.0,2.0,0.282024,0.241898,0.282024,0.315233,,,,,,
67713,-0.126937,-0.018022,0.039152,0.01602,-0.000404,-0.003168,-0.023152,-0.0,-0.0,2.0,0.282024,0.246728,0.282024,0.311872,,,,,,
67733,-0.119119,-0.017906,0.039872,0.017044,-0.001183,-0.00093,-0.016768,-0.0,-0.0,2.0,0.282024,0.248716,0.282024,0.310445,,,,,,
67753,-0.110802,-0.017824,0.040222,0.018088,-0.002115,0.000235,-0.013892,-0.0,-0.0,2.0,0.282024,0.249861,0.282024,0.30961,,,,,,
67773,-0.102355,-0.017527,0.040095,0.01809,-0.001059,0.000109,-0.011656,-0.0,-0.0,2.0,0.282024,0.254143,0.282024,0.306407,,,,,,
67793,-0.093416,-0.017134,0.039608,0.019136,-0.00096,0.001159,-0.011656,-0.0,-0.0,2.0,0.282024,0.259634,0.282024,0.302108,,,,,,
67813,-0.084239,-0.016872,0.038873,0.019138,9e-05,0.001061,-0.002142,-0.0,-0.0,2.0,0.282024,0.260995,0.282024,0.301007,,,,,,
67833,-0.07482,-0.016733,0.038006,0.020185,0.000159,0.002123,-0.000293,-0.0,-0.0,2.0,0.282024,0.26321,0.282024,0.299185,,,,,,
67853,-0.065158,-0.016714,0.037009,0.021249,0.000139,0.002124,0.003441,-0.0,-0.0,2.0,0.282024,0.264828,0.282024,0.29783,,,,,,
67873,-0.055375,-0.016812,0.035882,0.021248,-0.000945,0.002184,0.007107,-0.0,-0.0,2.0,0.282024,0.269111,0.282024,0.294138,,,,,,
67893,-0.045106,-0.016784,0.034764,0.021249,9.6e-05,0.002127,0.010844,-0.0,-0.0,2.0,0.282024,0.271083,0.282024,0.292387,,,,,,
67913,-0.034837,-0.016743,0.03364,0.021248,-0.000989,0.002165,0.014584,-0.0,-0.0,2.0,0.282024,0.275553,0.282024,0.288289,,,,,,
67933,-0.024325,-0.016692,0.032634,0.022313,-0.001012,0.002154,0.018048,-0.0,-0.0,2.0,0.282024,0.280196,0.282024,0.283835,,,,,,
67953,-0.013693,-0.016754,0.031384,0.023377,-0.001035,0.002143,0.021278,-0.0,-0.0,2.0,0.282024,0.280271,0.282024,0.283761,,,,,,
67973,-0.003062,-0.016802,0.030257,0.022313,7e-06,0.002129,0.023235,-0.0,-0.0,2.0,0.282024,0.283256,0.282024,0.280785,,,,,,
67993,0.007936,-0.016841,0.029006,0.022295,-2.5e-05,0.003193,0.028027,-0.0,-0.0,2.0,0.282024,0.285402,0.282024,0.278588,,,,,,
68013,0.018688,-0.016983,0.027749,0.022313,-4e-05,0.002128,0.031489,-0.0,-0.0,2.0,0.282024,0.290208,0.282024,0.273484,,,,,,
68033,0.029318,-0.01711,0.026616,0.022294,-9.4e-05,0.003192,0.034916,-0.0,-0.0,2.0,0.282024,0.290575,0.282024,0.273083,,,,,,
68053,0.03995,-0.017345,0.025365,0.022312,-8.5e-05,0.002127,0.038249,-0.0,-0.0,2.0,0.282024,0.293254,0.282024,0.270111,,,,,,
68073,0.050583,-0.017564,0.024112,0.022311,-0.000108,0.002126,0.040176,-0.0,-0.0,2.0,0.282024,0.296466,0.282024,0.26643,,,,,,
68093,0.061092,-0.017892,0.022983,0.021227,-0.000195,0.003187,0.041984,-0.0,-0.0,2.0,0.282024,0.299796,0.282024,0.262472,,,,,,
68113,0.071235,-0.01833,0.021983,0.021246,-0.000151,0.002123,0.047331,-0.0,-0.0,2.0,0.282024,0.299571,0.282024,0.262744,,,,,,
68133,0.081384,-0.018741,0.020619,0.021243,0.000888,0.002208,0.050015,-0.0,-0.0,2.0,0.282024,0.302511,0.282024,0.259131,,,,,,
68153,0.091164,-0.019261,0.019381,0.020157,0.000769,0.003277,0.052288,-0.0,-0.0,2.0,0.282024,0.303362,0.282024,0.258062,,,,,,
68173,0.100705,-0.019771,0.018271,0.019091,0.000738,0.003284,0.055514,-0.0,-0.0,2.0,0.282024,0.30394,0.282024,0.257329,,,,,,
68193,0.10988,-0.020389,0.017168,0.019111,0.000824,0.002233,0.058296,-0.0,-0.0,2.0,0.282024,0.306667,0.282024,0.253803,,,,,,
68213,0.118692,-0.020862,0.015938,0.018045,0.000805,0.00224,0.061013,-0.0,-0.0,2.0,0.282024,0.307255,0.282024,0.253027,,,,,,
68233,0.127257,-0.021695,0.014855,0.016979,0.000785,0.002247,0.062313,-0.0,-0.0,2.0,0.282024,0.310336,0.282024,0.248866,,,,,,
68253,0.135459,-0.022384,0.013645,0.015889,0.000623,0.003308,0.063945,-0.0,-0.0,2.0,0.282024,0.31126,0.282024,0.247585,,,,,,
68273,0.143181,-0.023191,0.01257,0.015907,0.001803,0.002411,0.066686,-0.0,-0.0,2.0,0.282024,0.311648,0.282024,0.247044,,,,,,
68293,0.150529,-0.024107,0.011505,0.014866,0.001945,0.001372,0.069525,-0.0,-0.0,2.0,0.282024,0.311936,0.282024,0.246638,,,,,,
68313,0.157645,-0.025003,0.010324,0.013774,0.001768,0.002437,0.07153,-0.0,-0.0,2.0,0.282024,0.312465,0.282024,0.245892,,,,,,
68333,0.164266,-0.026009,0.009153,0.01268,0.001578,0.003499,0.072979,-0.0,-0.0,2.0,0.282024,0.315041,0.282024,0.242181,,,,,,
68353,0.170406,-0.02727,0.00825,0.012699,0.002785,0.00264,0.07525,-0.0,-0.0,2.0,0.282024,0.315302,0.282024,0.241797,,,,,,
68373,0.176421,-0.028256,0.007087,0.011637,0.001722,0.00247,0.077047,-0.0,-0.0,2.0,0.282024,0.31567,0.282024,0.241255,,,,,,
68393,0.181949,-0.029477,0.005947,0.010569,0.001708,0.00248,0.078705,-0.0,-0.0,2.0,0.282024,0.317955,0.282024,0.237821,,,,,,
68413,0.186993,-0.030569,0.004797,0.009502,0.001696,0.002488,0.080458,-0.0,-0.0,2.0,0.282024,0.316037,0.282024,0.240711,,,,,,
68433,0.191797,-0.031167,0.003602,0.008416,-0.000609,0.003136,0.081214,-0.0,-0.0,2.0,0.282024,0.316536,0.282024,0.239965,,,,,,
68453,0.195983,-0.031395,0.002366,0.007391,-0.001458,0.001881,0.08274,-0.0,-0.0,2.0,0.282024,0.318536,0.282024,0.236928,,,,,,
68473,0.199568,-0.030744,0.000794,0.00736,-0.001676,0.00292,0.083337,-0.0,-0.0,2.0,0.282024,0.316644,0.282024,0.239804,,,,,,
68493,0.202907,-0.02998,-0.000674,0.005234,-0.001686,0.002914,0.084229,-0.0,-0.0,2.0,0.282024,0.31665,0.282024,0.239794,,,,,,
68513,0.205747,-0.029212,-0.002151,0.005236,-0.001694,0.002909,0.085406,-0.0,-0.0,2.0,0.282024,0.318436,0.282024,0.237083,,,,,,
68533,0.208101,-0.028807,-0.003599,0.004203,-0.001481,0.001863,0.086079,-0.0,-0.0,2.0,0.282024,0.318212,0.282024,0.237427,,,,,,
68553,0.210091,-0.02851,-0.005161,0.003133,-0.000444,0.002082,0.08661,-0.0,-0.0,2.0,0.282024,0.317875,0.282024,0.237942,,,,,,
68573,0.211703,-0.028467,-0.006581,0.00204,-0.000671,0.003123,0.086983,-0.0,-0.0,2.0,0.282024,0.317521,0.282024,0.238481,,,,,,
68593,0.212831,-0.028534,-0.008117,0.000969,0.000366,0.003347,0.087121,-0.0,-0.0,2.0,0.282024,0.317095,0.282024,0.239125,,,,,,
68613,0.213471,-0.028751,-0.009405,-6.6e-05,0.000589,0.002307,0.087266,-0.0,-0.0,2.0,0.282024,0.316578,0.282024,0.239902,,,,,,
68633,0.213737,-0.028943,-0.01094,-6.7e-05,0.000589,0.002307,0.087238,-0.0,-0.0,2.0,0.282024,0.317936,0.282024,0.23785,,,,,,
68653,0.213761,-0.029394,-0.012332,-0.001156,-0.000677,0.003121,0.086976,-0.0,-0.0,2.0,0.282024,0.317303,0.282024,0.238811,,,,,,
68673,0.213419,-0.029484,-0.01377,-0.001156,-0.000676,0.003122,0.086729,-0.0,-0.0,2.0,0.282024,0.318545,0.282024,0.236915,,,,,,
68693,0.212957,-0.029564,-0.015332,-0.00219,-0.00045,0.002081,0.086197,-0.0,-0.0,2.0,0.282024,0.319767,0.282024,0.235015,,,,,,
68713,0.212614,-0.029413,-0.016796,-0.001156,-0.000674,0.003122,0.085545,-0.0,-0.0,2.0,0.282024,0.321119,0.282024,0.232873,,,,,,
68733,0.212016,-0.029251,-0.018383,-0.001156,-0.000672,0.003123,0.084736,-0.0,-0.0,2.0,0.282024,0.320482,0.282024,0.233888,,,,,,
68753,0.211675,-0.029209,-0.019956,-0.00222,-0.000671,0.003123,0.084277,-0.0,-0.0,2.0,0.282024,0.321772,0.282024,0.231823,,,,,,
68773,0.211214,-0.029292,-0.021519,-0.001156,-0.000669,0.003123,0.083612,-0.0,-0.0,2.0,0.282024,0.325018,0.282024,0.226441,,,,,,
68793,0.210751,-0.029253,-0.023095,-0.00222,-0.000668,0.003123,0.082252,-0.0,-0.0,2.0,0.282024,0.324675,0.282024,0.227023,,,,,,
68813,0.210156,-0.029593,-0.02451,-0.002221,-0.000666,0.003124,0.080381,-0.0,-0.0,2.0,0.282024,0.326278,0.282024,0.224275,,,,,,
68833,0.209576,-0.029801,-0.026063,-0.002222,-0.000664,0.003124,0.079508,-0.0,-0.0,2.0,0.282024,0.327604,0.282024,0.221945,,,,,,
68853,0.208629,-0.029896,-0.027638,-0.002222,-0.000661,0.003125,0.077523,-0.0,-0.0,2.0,0.282024,0.329181,0.282024,0.219105,,,,,,
68873,0.207792,-0.030122,-0.029071,-0.003255,-0.000439,0.002084,0.075772,-0.0,-0.0,2.0,0.282024,0.328885,0.282024,0.219644,,,,,,
68893,0.20659,-0.030223,-0.030648,-0.003256,-0.000437,0.002084,0.073887,-0.0,-0.0,2.0,0.282024,0.33036,0.282024,0.216929,,,,,,
68913,0.205023,-0.030346,-0.032111,-0.00432,-0.000433,0.002085,0.071846,-0.0,-0.0,2.0,0.282024,0.329843,0.282024,0.217889,,,,,,
68933,0.203211,-0.030355,-0.033594,-0.005384,-0.00043,0.002086,0.070333,-0.0,-0.0,2.0,0.282024,0.329181,0.282024,0.219105,,,,,,
68953,0.201021,-0.030252,-0.035092,-0.005384,-0.000425,0.002087,0.068628,-0.0,-0.0,2.0,0.282024,0.33029,0.282024,0.217059,,,,,,
68973,0.198345,-0.030164,-0.036602,-0.007513,-0.000419,0.002088,0.06574,-0.0,-0.0,2.0,0.282024,0.329733,0.282024,0.218091,,,,,,
68993,0.1953,-0.029978,-0.038011,-0.007512,-0.000413,0.002089,0.06367,-0.0,-0.0,2.0,0.282024,0.328796,0.282024,0.219806,,,,,,
69013,0.191891,-0.029805,-0.03943,-0.008576,-0.000406,0.00209,0.062284,-0.0,-0.0,2.0,0.282024,0.327516,0.282024,0.222101,,,,,,
69033,0.188107,-0.029633,-0.040971,-0.00964,-0.000398,0.002092,0.058992,-0.0,-0.0,2.0,0.282024,0.3267,0.282024,0.223538,,,,,,
69053,0.183954,-0.029365,-0.04241,-0.010698,-0.001436,0.001899,0.055992,-0.0,-0.0,2.0,0.282024,0.325662,0.282024,0.225339,,,,,,
69073,0.179436,-0.029111,-0.043856,-0.010698,-0.001427,0.001905,0.053128,-0.0,-0.0,2.0,0.282024,0.326367,0.282024,0.22412,,,,,,
69093,0.174418,-0.028754,-0.045316,-0.011761,-0.001417,0.001912,0.050166,-0.0,-0.0,2.0,0.282024,0.324997,0.282024,0.226477,,,,,,
69113,0.169046,-0.028414,-0.04679,-0.012825,-0.001407,0.00192,0.048433,-0.0,-0.0,2.0,0.282024,0.323095,0.282024,0.229662,,,,,,
69133,0.163298,-0.028089,-0.048262,-0.012825,-0.001396,0.001928,0.044508,-0.0,-0.0,2.0,0.282024,0.323686,0.282024,0.228684,,,,,,
69153,0.157302,-0.027667,-0.049624,-0.013888,-0.001385,0.001936,0.041255,-0.0,-0.0,2.0,0.282024,0.322012,0.282024,0.231435,,,,,,
69173,0.150831,-0.027388,-0.050993,-0.014952,-0.001372,0.001945,0.038513,-0.0,-0.0,2.0,0.282024,0.31997,0.282024,0.234697,,,,,,
69193,0.1441,-0.026878,-0.052373,-0.016016,-0.001359,0.001954,0.035905,-0.0,-0.0,2.0,0.282024,0.31774,0.282024,0.238147,,,,,,
69213,0.136884,-0.026382,-0.053878,-0.017079,-0.001345,0.001964,0.032035,-0.0,-0.0,2.0,0.282024,0.315715,0.282024,0.241188,,,,,,
69233,0.129182,-0.02604,-0.055258,-0.018143,-0.00133,0.001974,0.028577,-0.0,-0.0,2.0,0.282024,0.315345,0.282024,0.241733,,,,,,
69253,0.121354,-0.025587,-0.056642,-0.018143,-0.001314,0.001985,0.025082,-0.0,-0.0,2.0,0.282024,0.312935,0.282024,0.245225,,,,,,
69273,0.113036,-0.025037,-0.058035,-0.019206,-0.001298,0.001995,0.021457,-0.0,-0.0,2.0,0.282024,0.310225,0.282024,0.249018,,,,,,
69293,0.104482,-0.024632,-0.059305,-0.019179,-0.001169,0.000948,0.021457,-0.0,-0.0,2.0,0.282024,0.308194,0.282024,0.251776,,,,,,
69313,0.095671,-0.023993,-0.060693,-0.020269,-0.001263,0.002018,0.017821,-0.0,-0.0,2.0,0.282024,0.305174,0.282024,0.255748,,,,,,
69333,0.086504,-0.023499,-0.062082,-0.020268,-0.001244,0.002029,0.011127,-0.0,-0.0,2.0,0.282024,0.305143,0.282024,0.255788,,,,,,
69353,0.077087,-0.022905,-0.063347,-0.021307,-0.001143,0.000979,0.009332,-0.0,-0.0,2.0,0.282024,0.301104,0.282024,0.260877,,,,,,
69373,0.067674,-0.022322,-0.06461,-0.021307,-0.001134,0.00099,0.006449,-0.0,-0.0,2.0,0.282024,0.299477,0.282024,0.262858,,,,,,
69393,0.05789,-0.021759,-0.065853,-0.022371,-0.001124,0.001001,0.002187,-0.0,-0.0,2.0,0.282024,0.295961,0.282024,0.267017,,,,,,
69413,0.047995,-0.021334,-0.067105,-0.02237,-0.001114,0.001012,-0.001476,-0.0,-0.0,2.0,0.282024,0.29432,0.282024,0.268904,,,,,,
69433,0.038087,-0.020675,-0.068214,-0.021328,-0.001144,0.002087,-0.00513,-0.0,-0.0,2.0,0.282024,0.292543,0.282024,0.270908,,,,,,
69453,0.027941,-0.020157,-0.069321,-0.02237,-0.001094,0.001034,-0.008836,-0.0,-0.0,2.0,0.282024,0.290608,0.282024,0.273047,,,,,,
69473,0.017919,-0.019767,-0.070287,-0.022369,-0.001083,0.001045,-0.012401,-0.0,-0.0,2.0,0.282024,0.288574,0.282024,0.275248,,,,,,
69493,0.007772,-0.019267,-0.071254,-0.022369,-0.002137,0.001048,-0.015742,-0.0,-0.0,2.0,0.282024,0.286309,0.282024,0.277644,,,,,,
69513,-0.002498,-0.01878,-0.072206,-0.023433,-0.001062,0.001067,-0.018737,-0.0,-0.0,2.0,0.282024,0.283753,0.282024,0.28028,,,,,,
69533,-0.012644,-0.018417,-0.072898,-0.022369,-0.001051,0.001078,-0.020861,-0.0,-0.0,2.0,0.282024,0.280775,0.282024,0.283265,,,,,,
69553,-0.022787,-0.01818,-0.073468,-0.022349,-0.001064,2.4e-05,-0.025913,-0.0,-0.0,2.0,0.282024,0.278897,0.282024,0.285102,,,,,,
69573,-0.032929,-0.018064,-0.073661,-0.02233,-3.5e-05,-0.001064,-0.029419,-0.0,-0.0,2.0,0.282024,0.276302,0.282024,0.287584,,,,,,
69593,-0.042826,-0.01806,-0.073735,-0.02233,-4.6e-05,-0.001063,-0.032847,-0.0,-0.0,2.0,0.282024,0.273613,0.282024,0.290089,,,,,,
69613,-0.052718,-0.018289,-0.07344,-0.021265,-5.6e-05,-0.001063,-0.03622,-0.0,-0.0,2.0,0.282024,0.273257,0.282024,0.290416,,,,,,
69633,-0.062617,-0.018384,-0.07289,-0.021245,-0.000133,-0.002125,-0.038454,-0.0,-0.0,2.0,0.282024,0.269896,0.282024,0.293444,,,,,,
69653,-0.072151,-0.018456,-0.072207,-0.021245,-0.000153,-0.002123,-0.042777,-0.0,-0.0,2.0,0.282024,0.267394,0.282024,0.295636,,,,,,
69673,-0.081565,-0.018633,-0.071413,-0.020161,-0.00026,-0.003183,-0.044724,-0.0,-0.0,2.0,0.282024,0.266364,0.282024,0.296523,,,,,,
69693,-0.090622,-0.018546,-0.070599,-0.020181,-0.000193,-0.00212,-0.047478,-0.0,-0.0,2.0,0.282024,0.263209,0.282024,0.299186,,,,,,
69713,-0.099555,-0.018556,-0.06954,-0.019097,-0.000317,-0.003177,-0.051201,-0.0,-0.0,2.0,0.282024,0.262929,0.282024,0.299418,,,,,,
69733,-0.108006,-0.018547,-0.068608,-0.018053,-0.000229,-0.002116,-0.054399,-0.0,-0.0,2.0,0.282024,0.262655,0.282024,0.299645,,,,,,
69753,-0.116324,-0.018646,-0.067664,-0.018033,-0.000371,-0.003172,-0.055826,-0.0,-0.0,2.0,0.282024,0.258839,0.282024,0.302744,,,,,,
69773,-0.124287,-0.01871,-0.066485,-0.016968,-0.000396,-0.003169,-0.058607,-0.0,-0.0,2.0,0.282024,0.255737,0.282024,0.305183,,,,,,
69793,-0.131874,-0.018768,-0.065532,-0.016968,-0.00042,-0.003166,-0.061272,-0.0,-0.0,2.0,0.282024,0.255263,0.282024,0.305548,,,,,,
69813,-0.139232,-0.018674,-0.064336,-0.015904,-0.000443,-0.003162,-0.062747,-0.0,-0.0,2.0,0.282024,0.254372,0.282024,0.306232,,,,,,
69833,-0.146341,-0.018797,-0.063033,-0.01484,-0.000466,-0.003159,-0.064658,-0.0,-0.0,2.0,0.282024,0.253666,0.282024,0.306771,,,,,,
69853,-0.152963,-0.018896,-0.061728,-0.013775,-0.000486,-0.003156,-0.068645,-0.0,-0.0,2.0,0.282024,0.251377,0.282024,0.30849,,,,,,
69873,-0.159335,-0.018865,-0.060522,-0.013752,0.000375,-0.004373,-0.070711,-0.0,-0.0,2.0,0.282024,0.250926,0.282024,0.308825,,,,,,
69893,-0.165343,-0.019163,-0.059114,-0.013771,0.000524,-0.003325,-0.072181,-0.0,-0.0,2.0,0.282024,0.250337,0.282024,0.30926,,,,,,
69913,-0.170996,-0.019187,-0.057563,-0.011646,-0.000543,-0.003147,-0.074529,-0.0,-0.0,2.0,0.282024,0.250332,0.282024,0.309264,,,,,,
69933,-0.176392,-0.019317,-0.056013,-0.011626,-0.000747,-0.004192,-0.076394,-0.0,-0.0,2.0,0.282024,0.24729,0.282024,0.311472,,,,,,
69953,-0.181418,-0.019561,-0.054596,-0.010557,0.000279,-0.00438,-0.0781,-0.0,-0.0,2.0,0.282024,0.244253,0.282024,0.313614,,,,,,
69973,-0.185973,-0.019764,-0.052948,-0.010556,0.000259,-0.004381,-0.078902,-0.0,-0.0,2.0,0.282024,0.243816,0.282024,0.313917,,,,,,
69993,-0.190139,-0.020058,-0.051172,-0.00949,0.000241,-0.004382,-0.079877,-0.0,-0.0,2.0,0.282024,0.246495,0.282024,0.312038,,,,,,
70013,-0.194077,-0.020218,-0.049396,-0.008404,1.8e-05,-0.005428,-0.082251,-0.0,-0.0,2.0,0.282024,0.244208,0.282024,0.313645,,,,,,
70033,-0.197526,-0.020495,-0.047755,-0.006278,-0.001044,-0.005219,-0.082859,-0.0,-0.0,2.0,0.282024,0.244042,0.282024,0.313761,,,,,,
70053,-0.200473,-0.020984,-0.046009,-0.006298,-0.000848,-0.004173,-0.083878,-0.0,-0.0,2.0,0.282024,0.24434,0.282024,0.313553,,,,,,
70073,-0.203185,-0.021208,-0.04412,-0.005228,0.000183,-0.004385,-0.085051,-0.0,-0.0,2.0,0.282024,0.241876,0.282024,0.315248,,,,,,
70093,-0.205523,-0.021405,-0.042102,-0.005205,-4.4e-05,-0.005428,-0.085797,-0.0,-0.0,2.0,0.282024,0.242354,0.282024,0.314923,,,,,,
70113,-0.207374,-0.021602,-0.040207,-0.004135,0.000987,-0.005647,-0.086393,-0.0,-0.0,2.0,0.282024,0.242851,0.282024,0.314582,,,,,,
70133,-0.208862,-0.021777,-0.038192,-0.003074,-6.2e-05,-0.005427,-0.086836,-0.0,-0.0,2.0,0.282024,0.243494,0.282024,0.31414,,,,,,
70153,-0.209986,-0.021956,-0.036297,-0.002037,-0.000887,-0.004164,-0.087006,-0.0,-0.0,2.0,0.282024,0.244209,0.282024,0.313644,,,,,,
70173,-0.21074,-0.021858,-0.034128,-0.002015,-0.001113,-0.005205,-0.087167,-0.0,-0.0,2.0,0.282024,0.242111,0.282024,0.315088,,,,,,
70193,-0.211144,-0.021537,-0.032181,-0.000957,-0.002156,-0.004981,-0.087263,-0.0,-0.0,2.0,0.282024,0.243074,0.282024,0.314429,,,,,,
70213,-0.211279,-0.021319,-0.030113,0.000111,-0.001116,-0.005204,-0.087197,-0.0,-0.0,2.0,0.282024,0.241135,0.282024,0.31575,,,,,,
70233,-0.211186,-0.020965,-0.027915,0.000109,-0.001115,-0.005204,-0.086879,-0.0,-0.0,2.0,0.282024,0.242134,0.282024,0.315073,,,,,,
70253,-0.210847,-0.020743,-0.025851,0.000113,-7.3e-05,-0.005427,-0.086421,-0.0,-0.0,2.0,0.282024,0.243177,0.282024,0.314358,,,,,,
70273,-0.210614,-0.020751,-0.023686,0.001177,-7.2e-05,-0.005427,-0.085836,-0.0,-0.0,2.0,0.282024,0.241162,0.282024,0.315733,,,,,,
70293,-0.210149,-0.020893,-0.021659,0.001173,-0.00111,-0.005205,-0.085482,-0.0,-0.0,2.0,0.282024,0.23626,0.282024,0.318969,,,,,,
70313,-0.209671,-0.021144,-0.019519,8.8e-05,-0.000886,-0.004165,-0.084669,-0.0,-0.0,2.0,0.282024,0.234168,0.282024,0.320305,,,,,,
70333,-0.20933,-0.021155,-0.017357,0.00011,-0.001106,-0.005206,-0.083418,-0.0,-0.0,2.0,0.282024,0.231782,0.282024,0.321797,,,,,,
70353,-0.208978,-0.020923,-0.015166,0.000109,-0.001104,-0.005206,-0.083418,-0.0,-0.0,2.0,0.282024,0.229951,0.282024,0.32292,,,,,,
70373,-0.208639,-0.020692,-0.012978,0.000108,-0.001102,-0.005207,-0.081249,-0.0,-0.0,2.0,0.282024,0.230129,0.282024,0.322812,,,,,,
70393,-0.208287,-0.02034,-0.010775,0.00117,-0.0011,-0.005207,-0.080014,-0.0,-0.0,2.0,0.282024,0.227581,0.282024,0.324344,,,,,,
70413,-0.207706,-0.019977,-0.00845,0.001168,-0.001097,-0.005208,-0.078935,-0.0,-0.0,2.0,0.282024,0.225175,0.282024,0.325758,,,,,,
70433,-0.206866,-0.019869,-0.006268,0.001168,-0.001093,-0.005209,-0.077029,-0.0,-0.0,2.0,0.282024,0.222402,0.282024,0.327346,,,,,,
70453,-0.205905,-0.019751,-0.003964,0.002231,-0.001088,-0.00521,-0.07523,-0.0,-0.0,2.0,0.282024,0.2231,0.282024,0.326951,,,,,,
70473,-0.204702,-0.019514,-0.001644,0.00223,-0.001082,-0.005211,-0.073284,-0.0,-0.0,2.0,0.282024,0.220454,0.282024,0.328437,,,,,,
70493,-0.203134,-0.019402,0.000667,0.003294,-0.001073,-0.005213,-0.071226,-0.0,-0.0,2.0,0.282024,0.221318,0.282024,0.327956,,,,,,
70513,-0.20131,-0.019173,0.002993,0.004357,-0.001064,-0.005215,-0.069002,-0.0,-0.0,2.0,0.282024,0.222219,0.282024,0.32745,,,,,,
70533,-0.198998,-0.01872,0.005228,0.005423,-9e-06,-0.005427,-0.067011,-0.0,-0.0,2.0,0.282024,0.223504,0.282024,0.32672,,,,,,
70553,-0.196322,-0.018517,0.007442,0.006482,-0.001038,-0.00522,-0.064666,-0.0,-0.0,2.0,0.282024,0.2248,0.282024,0.325975,,,,,,
70573,-0.19316,-0.018311,0.009784,0.007545,-0.001021,-0.005223,-0.063201,-0.0,-0.0,2.0,0.282024,0.226836,0.282024,0.324785,,,,,,
70593,-0.18962,-0.018006,0.01202,0.008608,-0.001003,-0.005227,-0.059941,-0.0,-0.0,2.0,0.282024,0.224824,0.282024,0.325961,,,,,,
70613,-0.185592,-0.017723,0.01414,0.008603,-0.002028,-0.005034,-0.057236,-0.0,-0.0,2.0,0.282024,0.226695,0.282024,0.324868,,,,,,
70633,-0.181079,-0.017565,0.016376,0.010712,-0.001813,-0.003996,-0.054382,-0.0,-0.0,2.0,0.282024,0.228694,0.282024,0.323679,,,,,,
70653,-0.176189,-0.01743,0.018493,0.010712,-0.001794,-0.004005,-0.051463,-0.0,-0.0,2.0,0.282024,0.230973,0.282024,0.322296,,,,,,
70673,-0.170699,-0.017071,0.020643,0.011778,-0.000723,-0.004196,-0.049465,-0.0,-0.0,2.0,0.282024,0.233997,0.282024,0.320413,,,,,,
70693,-0.164957,-0.016979,0.022649,0.01286,-0.000874,-0.00525,-0.046958,-0.0,-0.0,2.0,0.282024,0.23682,0.282024,0.318607,,,,,,
70713,-0.158726,-0.016783,0.024671,0.013908,0.000378,-0.004372,-0.044046,-0.0,-0.0,2.0,0.282024,0.239722,0.282024,0.316698,,,,,,
70733,-0.152128,-0.016613,0.026576,0.014969,-0.000645,-0.004208,-0.039482,-0.0,-0.0,2.0,0.282024,0.239002,0.282024,0.317177,,,,,,
70753,-0.14529,-0.016711,0.028343,0.01497,-0.000616,-0.004213,-0.037042,-0.0,-0.0,2.0,0.282024,0.242487,0.282024,0.314832,,,,,,
70773,-0.137843,-0.016831,0.030119,0.016034,-0.000585,-0.004217,-0.034935,-0.0,-0.0,2.0,0.282024,0.243532,0.282024,0.314114,,,,,,
70793,-0.130393,-0.01685,0.031782,0.017079,-0.00147,-0.003028,-0.031164,-0.0,-0.0,2.0,0.282024,0.246661,0.282024,0.31192,,,,,,
70813,-0.122459,-0.017011,0.033442,0.017079,-0.001446,-0.003039,-0.027715,-0.0,-0.0,2.0,0.282024,0.250219,0.282024,0.309347,,,,,,
70833,-0.114153,-0.016961,0.034877,0.018146,-0.000364,-0.003172,-0.024191,-0.0,-0.0,2.0,0.282024,0.251136,0.282024,0.30867,,,,,,
70853,-0.105608,-0.01694,0.036075,0.018128,-0.000224,-0.002117,-0.020109,-0.0,-0.0,2.0,0.282024,0.257407,0.282024,0.303878,,,,,,
70873,-0.096934,-0.017069,0.036893,0.019192,-0.000206,-0.002119,-0.020109,-0.0,-0.0,2.0,0.282024,0.260126,0.282024,0.301711,,,,,,
70893,-0.087772,-0.017119,0.037118,0.02022,0.0,0.0,-0.016154,-0.0,-0.0,2.0,0.282024,0.261316,0.282024,0.300745,,,,,,
70913,-0.078487,-0.017309,0.03697,0.0202,-0.000978,0.001145,-0.010557,-0.0,-0.0,2.0,0.282024,0.264534,0.282024,0.298077,,,,,,
70933,-0.068951,-0.017399,0.036216,0.020182,-0.000915,0.002197,-0.007998,-0.0,-0.0,2.0,0.282024,0.266674,0.282024,0.296257,,,,,,
70953,-0.059045,-0.017372,0.035221,0.021246,-0.000937,0.002188,-0.003669,-0.0,-0.0,2.0,0.282024,0.268224,0.282024,0.294915,,,,,,
70973,-0.049264,-0.017461,0.033978,0.020165,0.000157,0.003189,1.7e-05,-0.0,-0.0,2.0,0.282024,0.272536,0.282024,0.291074,,,,,,
70993,-0.039237,-0.017418,0.032735,0.022292,-0.000938,0.003232,0.003685,-0.0,-0.0,2.0,0.282024,0.274587,0.282024,0.289189,,,,,,
71013,-0.029092,-0.017608,0.031361,0.022311,-0.001002,0.002159,0.007547,-0.0,-0.0,2.0,0.282024,0.276582,0.282024,0.28732,,,,,,
71033,-0.018824,-0.017786,0.02987,0.021228,6e-05,0.003193,0.011217,-0.0,-0.0,2.0,0.282024,0.2788,0.282024,0.285196,,,,,,
71053,-0.008314,-0.01795,0.028499,0.021227,2.7e-05,0.003193,0.014585,-0.0,-0.0,2.0,0.282024,0.281289,0.282024,0.282756,,,,,,
71073,0.002193,-0.018343,0.02713,0.02229,0.001057,0.003196,0.016517,-0.0,-0.0,2.0,0.282024,0.286703,0.282024,0.277231,,,,,,
71093,0.012581,-0.018595,0.025637,0.022289,-4e-05,0.003193,0.019868,-0.0,-0.0,2.0,0.282024,0.289273,0.282024,0.274497,,,,,,
71113,0.023091,-0.018955,0.02415,0.022308,-4.9e-05,0.002128,0.024255,-0.0,-0.0,2.0,0.282024,0.291459,0.282024,0.272112,,,,,,
71133,0.0336,-0.019538,0.022545,0.021221,0.000956,0.003227,0.028049,-0.0,-0.0,2.0,0.282024,0.293951,0.282024,0.269323,,,,,,
71153,0.044112,-0.019859,0.020937,0.022263,0.000875,0.004301,0.031529,-0.0,-0.0,2.0,0.282024,0.296607,0.282024,0.266265,,,,,,
71173,0.054377,-0.020532,0.019586,0.022304,0.000947,0.002184,0.033229,-0.0,-0.0,2.0,0.282024,0.299872,0.282024,0.262381,,,,,,
71193,0.06465,-0.02106,0.017996,0.021216,0.000856,0.003255,0.037054,-0.0,-0.0,2.0,0.282024,0.300272,0.282024,0.261894,,,,,,
71213,0.074796,-0.021928,0.016296,0.02119,0.000743,0.004326,0.041088,-0.0,-0.0,2.0,0.282024,0.302705,0.282024,0.258889,,,,,,
71233,0.084584,-0.022788,0.01485,0.02012,0.001761,0.004423,0.043066,-0.0,-0.0,2.0,0.282024,0.305871,0.282024,0.254844,,,,,,
71253,0.094249,-0.0235,0.01328,0.020141,0.001819,0.00338,0.044874,-0.0,-0.0,2.0,0.282024,0.306976,0.282024,0.253395,,,,,,
71273,0.103553,-0.024676,0.011618,0.019072,0.001787,0.003397,0.049953,-0.0,-0.0,2.0,0.282024,0.306817,0.282024,0.253605,,,,,,
71293,0.112615,-0.025711,0.009958,0.019065,0.002814,0.003532,0.051833,-0.0,-0.0,2.0,0.282024,0.309867,0.282024,0.249509,,,,,,
71313,0.121557,-0.026849,0.008314,0.017968,0.002653,0.004614,0.054778,-0.0,-0.0,2.0,0.282024,0.310552,0.282024,0.248567,,,,,,
71333,0.130141,-0.028101,0.006808,0.016927,0.002751,0.003581,0.057604,-0.0,-0.0,2.0,0.282024,0.313189,0.282024,0.244862,,,,,,
71353,0.138233,-0.029326,0.005184,0.016922,0.002722,0.003604,0.060311,-0.0,-0.0,2.0,0.282024,0.313723,0.282024,0.244096,,,,,,
71373,0.146215,-0.030405,0.00344,0.015831,0.000433,0.004369,0.062134,-0.0,-0.0,2.0,0.282024,0.314525,0.282024,0.242934,,,,,,
71393,0.153715,-0.03086,0.001652,0.014764,0.0004,0.004372,0.063747,-0.0,-0.0,2.0,0.282024,0.315358,0.282024,0.241714,,,,,,
71413,0.160841,-0.030691,-0.000186,0.014775,-0.001732,0.004033,0.067999,-0.0,-0.0,2.0,0.282024,0.315306,0.282024,0.241792,,,,,,
71433,0.167735,-0.030135,-0.002179,0.013714,-0.00176,0.004021,0.069977,-0.0,-0.0,2.0,0.282024,0.317834,0.282024,0.238004,,,,,,
71453,0.174012,-0.029556,-0.004304,0.012652,-0.001785,0.00401,0.071613,-0.0,-0.0,2.0,0.282024,0.318323,0.282024,0.237256,,,,,,
71473,0.180053,-0.028855,-0.006323,0.011591,-0.001809,0.003999,0.073832,-0.0,-0.0,2.0,0.282024,0.318641,0.282024,0.236768,,,,,,
71493,0.185596,-0.028508,-0.008317,0.010523,-0.000786,0.004185,0.075726,-0.0,-0.0,2.0,0.282024,0.318983,0.282024,0.236238,,,,,,
71513,0.190777,-0.028263,-0.010427,0.00946,-0.000807,0.004181,0.077486,-0.0,-0.0,2.0,0.282024,0.321202,0.282024,0.232741,,,,,,
71533,0.195595,-0.028241,-0.012639,0.009454,0.000217,0.004384,0.078313,-0.0,-0.0,2.0,0.282024,0.321676,0.282024,0.231978,,,,,,
71553,0.200048,-0.028345,-0.014721,0.00839,0.000197,0.004385,0.079291,-0.0,-0.0,2.0,0.282024,0.322005,0.282024,0.231445,,,,,,
71573,0.204128,-0.028673,-0.016902,0.007324,0.000179,0.004386,0.080845,-0.0,-0.0,2.0,0.282024,0.322063,0.282024,0.231351,,,,,,
71593,0.207735,-0.029134,-0.018957,0.006258,0.000163,0.004387,0.082608,-0.0,-0.0,2.0,0.282024,0.321917,0.282024,0.231589,,,,,,
71613,0.210848,-0.029566,-0.021258,0.005191,0.00015,0.004387,0.083552,-0.0,-0.0,2.0,0.282024,0.321899,0.282024,0.231618,,,,,,
71633,0.213583,-0.029886,-0.023451,0.004095,-8.8e-05,0.005428,0.084785,-0.0,-0.0,2.0,0.282024,0.321683,0.282024,0.231967,,,,,,
71653,0.21559,-0.030079,-0.025793,0.003029,-9.9e-05,0.005428,0.085588,-0.0,-0.0,2.0,0.282024,0.321384,0.282024,0.232448,,,,,,
71673,0.217228,-0.030044,-0.028046,0.001997,0.000122,0.004388,0.085926,-0.0,-0.0,2.0,0.282024,0.321146,0.282024,0.23283,,,,,,
71693,0.218247,-0.029747,-0.030577,0.000941,-0.000922,0.004158,0.086492,-0.0,-0.0,2.0,0.282024,0.320569,0.282024,0.23375,,,,,,
71713,0.219023,-0.029587,-0.032978,-0.000154,-0.001156,0.005196,0.086935,-0.0,-0.0,2.0,0.282024,0.320012,0.282024,0.23463,,,,,,
71733,0.219193,-0.029561,-0.035381,-0.001225,-0.000118,0.005428,0.087141,-0.0,-0.0,2.0,0.282024,0.319378,0.282024,0.235623,,,,,,
71753,0.218991,-0.029784,-0.037761,-0.002259,0.000114,0.004388,0.087262,-0.0,-0.0,2.0,0.282024,0.320573,0.282024,0.233744,,,,,,
71773,0.218546,-0.030014,-0.040146,-0.00226,0.000116,0.004388,0.087242,-0.0,-0.0,2.0,0.282024,0.319762,0.282024,0.235023,,,,,,
71793,0.218104,-0.030232,-0.042654,-0.002293,-0.000112,0.005428,0.087004,-0.0,-0.0,2.0,0.282024,0.320927,0.282024,0.233181,,,,,,
71813,0.217419,-0.030457,-0.045168,-0.002294,-0.000109,0.005428,0.086794,-0.0,-0.0,2.0,0.282024,0.322053,0.282024,0.231368,,,,,,
71833,0.216854,-0.03056,-0.047692,-0.002294,-0.000106,0.005428,0.086328,-0.0,-0.0,2.0,0.282024,0.323294,0.282024,0.229335,,,,,,
71853,0.216163,-0.030412,-0.050368,-0.002294,-0.000102,0.005428,0.085711,-0.0,-0.0,2.0,0.282024,0.324536,0.282024,0.227258,,,,,,
71873,0.215595,-0.030396,-0.052906,-0.002293,-9.9e-05,0.005428,0.084946,-0.0,-0.0,2.0,0.282024,0.325861,0.282024,0.224997,,,,,,
71893,0.215032,-0.03049,-0.055552,-0.002294,-9.6e-05,0.005428,0.084454,-0.0,-0.0,2.0,0.282024,0.327093,0.282024,0.222849,,,,,,
71913,0.214355,-0.030483,-0.058105,-0.002294,-9.2e-05,0.005428,0.083451,-0.0,-0.0,2.0,0.282024,0.328445,0.282024,0.22044,,,,,,
71933,0.21355,-0.030589,-0.06076,-0.003327,0.000138,0.004388,0.082306,-0.0,-0.0,2.0,0.282024,0.329796,0.282024,0.217975,,,,,,
71953,0.212741,-0.030723,-0.063172,-0.003327,0.000141,0.004388,0.080501,-0.0,-0.0,2.0,0.282024,0.329467,0.282024,0.21858,,,,,,
71973,0.211552,-0.03075,-0.065599,-0.003321,-0.000894,0.004164,0.07943,-0.0,-0.0,2.0,0.282024,0.330752,0.282024,0.216194,,,,,,
71993,0.209985,-0.030456,-0.067833,-0.004384,-0.000887,0.004165,0.077521,-0.0,-0.0,2.0,0.282024,0.330232,0.282024,0.217168,,,,,,
72013,0.208159,-0.029838,-0.069871,-0.005408,-0.001701,0.002905,0.075747,-0.0,-0.0,2.0,0.282024,0.331485,0.282024,0.214807,,,,,,
72033,0.205959,-0.028995,-0.071944,-0.006463,-0.002736,0.002691,0.073861,-0.0,-0.0,2.0,0.282024,0.330766,0.282024,0.216168,,,,,,
72053,0.203373,-0.028074,-0.073786,-0.006461,-0.002729,0.002698,0.072872,-0.0,-0.0,2.0,0.282024,0.327795,0.282024,0.221605,,,,,,
72073,0.200533,-0.026937,-0.075535,-0.007522,-0.002722,0.002706,0.071417,-0.0,-0.0,2.0,0.282024,0.328651,0.282024,0.220068,,,,,,
72093,0.197208,-0.02597,-0.077043,-0.008557,-0.002504,0.001671,0.068961,-0.0,-0.0,2.0,0.282024,0.327713,0.282024,0.221752,,,,,,
72113,0.193378,-0.024919,-0.078439,-0.00962,-0.002498,0.00168,0.065713,-0.0,-0.0,2.0,0.282024,0.326854,0.282024,0.223269,,,,,,
72133,0.189181,-0.02391,-0.079599,-0.010658,-0.002291,0.000645,0.064299,-0.0,-0.0,2.0,0.282024,0.327186,0.282024,0.222685,,,,,,
72153,0.184742,-0.02306,-0.080507,-0.011722,-0.002288,0.000655,0.060783,-0.0,-0.0,2.0,0.282024,0.326223,0.282024,0.224371,,,,,,
72173,0.179687,-0.022382,-0.08116,-0.011702,-0.001047,-0.00019,0.059427,-0.0,-0.0,2.0,0.282024,0.324332,0.282024,0.227602,,,,,,
72193,0.174392,-0.02187,-0.081439,-0.012744,-0.000863,-0.001233,0.056619,-0.0,-0.0,2.0,0.282024,0.322758,0.282024,0.230218,,,,,,
72213,0.168376,-0.021643,-0.081592,-0.013808,-0.000871,-0.001228,0.053768,-0.0,-0.0,2.0,0.282024,0.320967,0.282024,0.233117,,,,,,
72233,0.162241,-0.021563,-0.081489,-0.013812,0.000172,-0.00105,0.050305,-0.0,-0.0,2.0,0.282024,0.31924,0.282024,0.235839,,,,,,
72253,0.155607,-0.02153,-0.081016,-0.014854,0.00033,-0.002103,0.047776,-0.0,-0.0,2.0,0.282024,0.319031,0.282024,0.236163,,,,,,
72273,0.148628,-0.021751,-0.080542,-0.015918,0.000315,-0.002105,0.044781,-0.0,-0.0,2.0,0.282024,0.316796,0.282024,0.239576,,,,,,
72293,0.141401,-0.022108,-0.079925,-0.016981,0.0003,-0.002108,0.042273,-0.0,-0.0,2.0,0.282024,0.314246,0.282024,0.243341,,,,,,
72313,0.133812,-0.022354,-0.079335,-0.01698,0.000284,-0.00211,0.038732,-0.0,-0.0,2.0,0.282024,0.313874,0.282024,0.243878,,,,,,
72333,0.125849,-0.022607,-0.078734,-0.01802,0.000401,-0.003168,0.035913,-0.0,-0.0,2.0,0.282024,0.311055,0.282024,0.24787,,,,,,
72353,0.117534,-0.022992,-0.078142,-0.019107,0.00025,-0.002114,0.032562,-0.0,-0.0,2.0,0.282024,0.30826,0.282024,0.251687,,,,,,
72373,0.10897,-0.023258,-0.077555,-0.019107,0.000231,-0.002116,0.029117,-0.0,-0.0,2.0,0.282024,0.307317,0.282024,0.252945,,,,,,
72393,0.100162,-0.023527,-0.076968,-0.020146,0.000319,-0.003178,0.025635,-0.0,-0.0,2.0,0.282024,0.30629,0.282024,0.254297,,,,,,
72413,0.091232,-0.023794,-0.076375,-0.02017,0.000194,-0.00212,0.023691,-0.0,-0.0,2.0,0.282024,0.302542,0.282024,0.259092,,,,,,
72433,0.081937,-0.023946,-0.075801,-0.020169,0.000174,-0.002122,0.018956,-0.0,-0.0,2.0,0.282024,0.301592,0.282024,0.260274,,,,,,
72453,0.072516,-0.024094,-0.075206,-0.021208,0.000231,-0.003185,0.016711,-0.0,-0.0,2.0,0.282024,0.297514,0.282024,0.265201,,,,,,
72473,0.0631,-0.024111,-0.074755,-0.021232,-0.000928,-0.002192,0.011549,-0.0,-0.0,2.0,0.282024,0.296631,0.282024,0.266238,,,,,,
72493,0.053435,-0.024133,-0.074163,-0.021232,-0.000949,-0.002183,0.008924,-0.0,-0.0,2.0,0.282024,0.294544,0.282024,0.268648,,,,,,
72513,0.043774,-0.024147,-0.073573,-0.022296,-0.00097,-0.002174,0.004558,-0.0,-0.0,2.0,0.282024,0.293078,0.282024,0.270309,,,,,,
72533,0.033977,-0.023792,-0.072981,-0.021233,-0.000991,-0.002164,0.000867,-0.0,-0.0,2.0,0.282024,0.291228,0.282024,0.272366,,,,,,
72553,0.024191,-0.023673,-0.072385,-0.022298,-0.001012,-0.002154,-0.000966,-0.0,-0.0,2.0,0.282024,0.288576,0.282024,0.275246,,,,,,
72573,0.014279,-0.023429,-0.07178,-0.022274,-0.001019,-0.003208,-0.004638,-0.0,-0.0,2.0,0.282024,0.284162,0.282024,0.279863,,,,,,
72593,0.004616,-0.023289,-0.071158,-0.021235,-0.001054,-0.002134,-0.006563,-0.0,-0.0,2.0,0.282024,0.281333,0.282024,0.282713,,,,,,
72613,-0.005165,-0.023269,-0.07054,-0.021235,-1.1e-05,-0.002129,-0.011387,-0.0,-0.0,2.0,0.282024,0.281867,0.282024,0.282181,,,,,,
72633,-0.014951,-0.023118,-0.069789,-0.021235,-3.2e-05,-0.002129,-0.015763,-0.0,-0.0,2.0,0.282024,0.279855,0.282024,0.284169,,,,,,
72653,-0.024367,-0.02307,-0.06916,-0.021236,-0.001116,-0.002102,-0.018801,-0.0,-0.0,2.0,0.282024,0.277304,0.282024,0.286633,,,,,,
72673,-0.0339,-0.023136,-0.068389,-0.021211,-0.000108,-0.003192,-0.021474,-0.0,-0.0,2.0,0.282024,0.27681,0.282024,0.287103,,,,,,
72693,-0.043315,-0.023192,-0.067635,-0.020171,-9.2e-05,-0.002127,-0.025096,-0.0,-0.0,2.0,0.282024,0.27184,0.282024,0.291705,,,,,,
72713,-0.052482,-0.023349,-0.06674,-0.020171,-0.000112,-0.002126,-0.028621,-0.0,-0.0,2.0,0.282024,0.26931,0.282024,0.293963,,,,,,
72733,-0.061777,-0.023379,-0.065847,-0.020146,-0.000197,-0.003187,-0.032072,-0.0,-0.0,2.0,0.282024,0.269058,0.282024,0.294185,,,,,,
72753,-0.070705,-0.023392,-0.065066,-0.019106,-0.00015,-0.002124,-0.035963,-0.0,-0.0,2.0,0.282024,0.266547,0.282024,0.296366,,,,,,
72773,-0.079519,-0.023385,-0.064047,-0.019082,-0.000254,-0.003183,-0.037803,-0.0,-0.0,2.0,0.282024,0.265592,0.282024,0.297182,,,,,,
72793,-0.087963,-0.023349,-0.062885,-0.019084,-0.001341,-0.003088,-0.041685,-0.0,-0.0,2.0,0.282024,0.263207,0.282024,0.299188,,,,,,
72813,-0.096415,-0.023188,-0.061845,-0.017994,-0.00041,-0.004238,-0.043366,-0.0,-0.0,2.0,0.282024,0.262108,0.282024,0.300096,,,,,,
72833,-0.104503,-0.022999,-0.060674,-0.018019,-0.000333,-0.003176,-0.048408,-0.0,-0.0,2.0,0.282024,0.260141,0.282024,0.301699,,,,,,
72853,-0.112342,-0.022923,-0.059625,-0.016958,-0.001415,-0.003054,-0.050382,-0.0,-0.0,2.0,0.282024,0.259429,0.282024,0.302273,,,,,,
72873,-0.120068,-0.02282,-0.058339,-0.015867,-0.00051,-0.004227,-0.05362,-0.0,-0.0,2.0,0.282024,0.256652,0.282024,0.30447,,,,,,
72893,-0.127299,-0.0227,-0.057157,-0.015891,-0.000405,-0.003168,-0.05647,-0.0,-0.0,2.0,0.282024,0.256409,0.282024,0.30466,,,,,,
72913,-0.134292,-0.02268,-0.055868,-0.014827,-0.000427,-0.003165,-0.059218,-0.0,-0.0,2.0,0.282024,0.256227,0.282024,0.304801,,,,,,
72933,-0.141154,-0.022758,-0.054452,-0.014827,-0.000449,-0.003162,-0.060618,-0.0,-0.0,2.0,0.282024,0.252686,0.282024,0.307512,,,,,,
72953,-0.147657,-0.022828,-0.053166,-0.013739,-0.000626,-0.004212,-0.06348,-0.0,-0.0,2.0,0.282024,0.249929,0.282024,0.30956,,,,,,
72973,-0.15391,-0.022871,-0.051746,-0.013739,-0.000653,-0.004208,-0.065222,-0.0,-0.0,2.0,0.282024,0.24936,0.282024,0.309976,,,,,,
72993,-0.159682,-0.023017,-0.050344,-0.012698,-0.000508,-0.003153,-0.068366,-0.0,-0.0,2.0,0.282024,0.249688,0.282024,0.309737,,,,,,
73013,-0.165336,-0.022765,-0.048659,-0.011611,-0.000701,-0.0042,-0.069929,-0.0,-0.0,2.0,0.282024,0.24934,0.282024,0.309991,,,,,,
73033,-0.170496,-0.022736,-0.046992,-0.010547,-0.000722,-0.004196,-0.072385,-0.0,-0.0,2.0,0.282024,0.246687,0.282024,0.311902,,,,,,
73053,-0.175423,-0.022706,-0.045454,-0.010547,-0.000743,-0.004193,-0.074377,-0.0,-0.0,2.0,0.282024,0.246742,0.282024,0.311862,,,,,,
73073,-0.179976,-0.022647,-0.043785,-0.010547,-0.000762,-0.004189,-0.076229,-0.0,-0.0,2.0,0.282024,0.243983,0.282024,0.313802,,,,,,
73093,-0.184278,-0.022553,-0.041864,-0.009484,-0.00078,-0.004186,-0.077988,-0.0,-0.0,2.0,0.282024,0.244124,0.282024,0.313704,,,,,,
73113,-0.188107,-0.022321,-0.039939,-0.008397,-0.000995,-0.005229,-0.079547,-0.0,-0.0,2.0,0.282024,0.244437,0.282024,0.313486,,,,,,
73133,-0.191677,-0.02221,-0.03814,-0.007334,-0.001014,-0.005225,-0.079547,-0.0,-0.0,2.0,0.282024,0.243945,0.282024,0.313828,,,,,,
73153,-0.194896,-0.022076,-0.036225,-0.006298,-0.001868,-0.003971,-0.082091,-0.0,-0.0,2.0,0.282024,0.241975,0.282024,0.315181,,,,,,
73173,-0.197485,-0.021912,-0.034174,-0.006298,-0.001879,-0.003966,-0.082772,-0.0,-0.0,2.0,0.282024,0.242368,0.282024,0.314913,,,,,,
73193,-0.199971,-0.021488,-0.031983,-0.005209,-0.001057,-0.005216,-0.084196,-0.0,-0.0,2.0,0.282024,0.243093,0.282024,0.314416,,,,,,
73213,-0.202087,-0.021187,-0.029925,-0.00412,-0.000239,-0.00647,-0.085085,-0.0,-0.0,2.0,0.282024,0.243712,0.282024,0.313989,,,,,,
73233,-0.203704,-0.020997,-0.027872,-0.003079,-3.4e-05,-0.005428,-0.085825,-0.0,-0.0,2.0,0.282024,0.244475,0.282024,0.313459,,,,,,
73253,-0.204957,-0.020787,-0.025696,-0.002016,-4.1e-05,-0.005428,-0.086142,-0.0,-0.0,2.0,0.282024,0.242237,0.282024,0.315003,,,,,,
73273,-0.206074,-0.020693,-0.023528,-0.002021,-0.001089,-0.00521,-0.086707,-0.0,-0.0,2.0,0.282024,0.243211,0.282024,0.314335,,,,,,
73293,-0.206583,-0.020593,-0.021357,-0.000957,-0.001091,-0.005209,-0.086918,-0.0,-0.0,2.0,0.282024,0.241313,0.282024,0.31563,,,,,,
73313,-0.206861,-0.020503,-0.019311,-0.000957,-0.001093,-0.005209,-0.087209,-0.0,-0.0,2.0,0.282024,0.242498,0.282024,0.314824,,,,,,
73333,-0.206873,-0.020505,-0.017026,0.000111,-5.1e-05,-0.005427,-0.087257,-0.0,-0.0,2.0,0.282024,0.243687,0.282024,0.314006,,,,,,
73353,-0.206654,-0.020277,-0.014839,0.000106,-0.001092,-0.005209,-0.087128,-0.0,-0.0,2.0,0.282024,0.241959,0.282024,0.315192,,,,,,
73373,-0.206313,-0.020171,-0.012663,0.001169,-0.00109,-0.005209,-0.08697,-0.0,-0.0,2.0,0.282024,0.243228,0.282024,0.314323,,,,,,
73393,-0.205837,-0.020185,-0.010497,0.001169,-0.001088,-0.00521,-0.086589,-0.0,-0.0,2.0,0.282024,0.241511,0.282024,0.315496,,,,,,
73413,-0.205374,-0.02008,-0.008319,0.000105,-0.001085,-0.00521,-0.086054,-0.0,-0.0,2.0,0.282024,0.236667,0.282024,0.318706,,,,,,
73433,-0.205023,-0.01995,-0.005898,0.000104,-0.001083,-0.005211,-0.085365,-0.0,-0.0,2.0,0.282024,0.234659,0.282024,0.319994,,,,,,
73453,-0.204804,-0.019835,-0.003601,0.000103,-0.001082,-0.005211,-0.084817,-0.0,-0.0,2.0,0.282024,0.232598,0.282024,0.321291,,,,,,
73473,-0.204584,-0.019598,-0.001291,0.000102,-0.001081,-0.005211,-0.083734,-0.0,-0.0,2.0,0.282024,0.230223,0.282024,0.322754,,,,,,
73493,-0.204364,-0.019484,0.001007,0.000102,-0.00108,-0.005211,-0.083029,-0.0,-0.0,2.0,0.282024,0.228006,0.282024,0.324091,,,,,,
73513,-0.20401,-0.019369,0.003305,0.001165,-0.001078,-0.005212,-0.081279,-0.0,-0.0,2.0,0.282024,0.228499,0.282024,0.323796,,,,,,
73533,-0.203548,-0.019244,0.005728,0.001185,-0.001291,-0.006255,-0.080102,-0.0,-0.0,2.0,0.282024,0.226091,0.282024,0.325223,,,,,,
73553,-0.202841,-0.019135,0.008032,0.001164,-0.001072,-0.005213,-0.078558,-0.0,-0.0,2.0,0.282024,0.223562,0.282024,0.326687,,,,,,
73573,-0.20188,-0.019016,0.010459,0.002228,-0.001067,-0.005214,-0.076874,-0.0,-0.0,2.0,0.282024,0.22441,0.282024,0.3262,,,,,,
73593,-0.200799,-0.018888,0.013009,0.002251,-0.000231,-0.00647,-0.075071,-0.0,-0.0,2.0,0.282024,0.221945,0.282024,0.327604,,,,,,
73613,-0.199227,-0.01855,0.015348,0.003293,-1e-05,-0.005427,-0.074116,-0.0,-0.0,2.0,0.282024,0.223521,0.282024,0.326711,,,,,,
73633,-0.197536,-0.018326,0.017798,0.004375,-0.00021,-0.006471,-0.071549,-0.0,-0.0,2.0,0.282024,0.224193,0.282024,0.326325,,,,,,
73653,-0.195466,-0.018122,0.020128,0.004374,-0.000196,-0.006472,-0.071549,-0.0,-0.0,2.0,0.282024,0.223235,0.282024,0.326874,,,,,,
73673,-0.192921,-0.017797,0.022603,0.005414,-0.00102,-0.005223,-0.068332,-0.0,-0.0,2.0,0.282024,0.224099,0.282024,0.326379,,,,,,
73693,-0.19012,-0.017493,0.024956,0.006473,-0.002051,-0.005025,-0.06465,-0.0,-0.0,2.0,0.282024,0.224825,0.282024,0.32596,,,,,,
73713,-0.187064,-0.017186,0.027429,0.007536,-0.002035,-0.005031,-0.063371,-0.0,-0.0,2.0,0.282024,0.223726,0.282024,0.326593,,,,,,
73733,-0.183532,-0.016908,0.029793,0.007535,-0.002017,-0.005038,-0.060215,-0.0,-0.0,2.0,0.282024,0.225174,0.282024,0.325758,,,,,,
73753,-0.179623,-0.016654,0.032036,0.008598,-0.001998,-0.005046,-0.057168,-0.0,-0.0,2.0,0.282024,0.226884,0.282024,0.324757,,,,,,
73773,-0.175354,-0.016195,0.034068,0.009646,-0.000743,-0.004192,-0.055768,-0.0,-0.0,2.0,0.282024,0.226447,0.282024,0.325015,,,,,,
73793,-0.170571,-0.015673,0.035618,0.009625,-0.001591,-0.002966,-0.052884,-0.0,-0.0,2.0,0.282024,0.228708,0.282024,0.323671,,,,,,
73813,-0.165551,-0.015203,0.036689,0.010687,-0.001576,-0.002974,-0.049777,-0.0,-0.0,2.0,0.282024,0.230934,0.282024,0.32232,,,,,,
73833,-0.160029,-0.014665,0.037281,0.011719,-0.00122,-0.000881,-0.04627,-0.0,-0.0,2.0,0.282024,0.233251,0.282024,0.320883,,,,,,
73853,-0.154395,-0.014292,0.037381,0.012768,-0.001052,0.000164,-0.042836,-0.0,-0.0,2.0,0.282024,0.235671,0.282024,0.319348,,,,,,
73873,-0.148263,-0.014085,0.036982,0.013816,-0.001948,0.001367,-0.040159,-0.0,-0.0,2.0,0.282024,0.235689,0.282024,0.319336,,,,,,
73893,-0.141643,-0.013911,0.036221,0.013801,-0.001807,0.002408,-0.038117,-0.0,-0.0,2.0,0.282024,0.239424,0.282024,0.316897,,,,,,
73913,-0.134659,-0.013868,0.035329,0.014868,-0.000769,0.002252,-0.035023,-0.0,-0.0,2.0,0.282024,0.242749,0.282024,0.314653,,,,,,
73933,-0.127432,-0.013959,0.034186,0.015932,-0.000785,0.002247,-0.031458,-0.0,-0.0,2.0,0.282024,0.245981,0.282024,0.312402,,,,,,
73953,-0.119593,-0.01393,0.033054,0.016998,0.000254,0.002113,-0.027989,-0.0,-0.0,2.0,0.282024,0.249538,0.282024,0.309846,,,,,,
73973,-0.111511,-0.013895,0.031921,0.016998,0.000237,0.002115,-0.024462,-0.0,-0.0,2.0,0.282024,0.253161,0.282024,0.307153,,,,,,
73993,-0.103066,-0.013978,0.03078,0.019126,0.000219,0.002117,-0.02237,-0.0,-0.0,2.0,0.282024,0.254894,0.282024,0.305832,,,,,,
74013,-0.094256,-0.014184,0.029513,0.019125,-0.000859,0.002219,-0.018946,-0.0,-0.0,2.0,0.282024,0.258894,0.282024,0.302701,,,,,,
