time_ms,roll,pitch,yaw,reference_roll,reference_pitch,reference_yaw,reference_throttle,throttle_1,throttle_2,throttle_3,throttle_4,roll_predicted,pitch_predicted,yaw_predicted,roll_rate_predicted,pitch_rate_predicted,yaw_rate_predicted,value1,value2,value3,value4,value5,value6
279017,-0.000556,-0.019298,-0.272769,0.0,-0.0,-0.0,2.0,0.282024,0.281624,0.282024,0.282423,,,,,,,0.000175,-0.01357,-0.174659,0.0,-5e-05,2e-06
279037,-0.000435,-0.019282,-0.272768,1e-06,-0.0,-0.0,2.0,0.282024,0.279877,0.282024,0.284148,,,,,,,0.000175,-0.013571,-0.174659,0.023988,-4.8e-05,2e-06
279057,-0.000435,-0.019282,-0.272768,9.6e-05,-0.0,-0.0,2.0,0.282024,0.281793,0.282024,0.282255,,,,,,,0.000296,-0.013572,-0.174659,-0.0,-4.8e-05,2e-06
279077,-0.000418,-0.019402,-0.272768,0.000188,-0.0,-0.0,2.0,0.282024,0.281496,0.282024,0.282551,,,,,,,0.000296,-0.013573,-0.174659,0.003305,-6e-05,2e-06
279097,-0.000539,-0.019419,-0.272769,0.000247,-0.0,-0.0,2.0,0.282024,0.277913,0.282024,0.286051,,,,,,,7.1e-05,-0.013574,-0.174659,0.023989,-6.2e-05,2e-06
279117,-0.00066,-0.019436,-0.27277,0.000325,-0.0,-0.0,2.0,0.282024,0.279096,0.282024,0.284909,,,,,,,7.2e-05,-0.013576,-0.174659,-0.000334,-6.3e-05,2e-06
279137,-0.000659,-0.019437,-0.272936,0.000425,-0.0,-0.0,2.0,0.282024,0.278707,0.282024,0.285287,,,,,,,-5e-05,-0.013577,-0.174659,0.024248,-6.3e-05,-1.5e-05
279157,-0.00066,-0.019436,-0.27277,0.00052,-0.0,-0.0,2.0,0.282024,0.280193,0.282024,0.283838,,,,,,,-5.1e-05,-0.013578,-0.174659,0.024088,-6.3e-05,2e-06
279177,-0.00066,-0.019436,-0.27277,0.000568,-0.0,-0.0,2.0,0.282024,0.281124,0.282024,0.28292,,,,,,,5.4e-05,-0.013579,-0.174659,0.00329,-6.3e-05,2e-06
279197,-0.000659,-0.019437,-0.272936,0.0007,-0.0,-0.0,2.0,0.282024,0.28119,0.282024,0.282854,,,,,,,7e-05,-0.013581,-0.174659,0.000259,-6.3e-05,-1.5e-05
279217,-0.00066,-0.019436,-0.27277,0.000794,-0.0,-0.0,2.0,0.282024,0.281096,0.282024,0.282948,,,,,,,7e-05,-0.013582,-0.174659,0.0,-6.3e-05,2e-06
279237,-0.000764,-0.019573,-0.272771,0.000887,-0.0,-0.0,2.0,0.282024,0.278589,0.282024,0.2854,,,,,,,-5e-05,-0.013583,-0.174659,0.003205,-7.6e-05,2e-06
279257,-0.00078,-0.019453,-0.272937,0.000979,-0.0,-0.0,2.0,0.282024,0.280919,0.282024,0.283123,,,,,,,-3.3e-05,-0.013585,-0.174659,-0.003283,-6.4e-05,-1.5e-05
279277,-0.000885,-0.01959,-0.272772,0.001045,-0.0,-0.0,2.0,0.282024,0.28026,0.282024,0.283773,,,,,,,-0.000155,-0.013586,-0.174659,0.0,-7.7e-05,2e-06
279297,-0.001006,-0.019606,-0.272773,0.001111,-0.0,-0.0,2.0,0.282024,0.27827,0.282024,0.285707,,,,,,,-0.000275,-0.013588,-0.17466,-0.0001,-7.9e-05,2e-06
279317,-0.000901,-0.019469,-0.272888,0.00122,-0.0,-0.0,2.0,0.282024,0.282847,0.282024,0.281198,,,,,,,-0.000171,-0.013589,-0.17466,7.9e-05,-6.5e-05,-1e-05
279337,-0.001023,-0.019485,-0.272773,0.001286,-0.0,-0.0,2.0,0.282024,0.280111,0.282024,0.283919,,,,,,,-0.000293,-0.01359,-0.17466,0.0,-6.7e-05,2e-06
279357,-0.001144,-0.019502,-0.272774,0.001371,-0.0,-0.0,2.0,0.282024,0.280425,0.282024,0.283611,,,,,,,-0.000293,-0.013592,-0.17466,-0.024088,-6.8e-05,2e-06
279377,-0.001144,-0.019502,-0.272774,0.001434,-0.0,-0.0,2.0,0.282024,0.280399,0.282024,0.283636,,,,,,,-0.000308,-0.013593,-0.17466,-0.021049,-6.8e-05,2e-06
279397,-0.001159,-0.019381,-0.27289,0.001434,-0.0,-0.0,2.0,0.282024,0.280103,0.282024,0.283927,,,,,,,-0.000413,-0.013594,-0.17466,-0.00307,-5.6e-05,-1e-05
279417,-0.00116,-0.019381,-0.272774,0.001638,-0.0,-0.0,2.0,0.282024,0.280175,0.282024,0.283856,,,,,,,-0.00043,-0.013595,-0.17466,0.0,-5.6e-05,2e-06
279437,-0.001177,-0.01926,-0.272774,0.001736,-0.0,-0.0,2.0,0.282024,0.279976,0.282024,0.284051,,,,,,,-0.000447,-0.013596,-0.17466,-1e-06,-4.4e-05,2e-06
279457,-0.001176,-0.01926,-0.27289,0.001828,-0.0,-0.0,2.0,0.282024,0.28067,0.282024,0.283369,,,,,,,-0.000447,-0.013597,-0.17466,0.000233,-4.3e-05,-1e-05
279477,-0.001177,-0.01926,-0.272774,0.001924,-0.0,-0.0,2.0,0.282024,0.278827,0.282024,0.28517,,,,,,,-0.000568,-0.013598,-0.17466,0.024088,-4.3e-05,2e-06
279497,-0.001298,-0.019277,-0.272775,0.001984,-0.0,-0.0,2.0,0.282024,0.281438,0.282024,0.282608,,,,,,,-0.000447,-0.013599,-0.17466,-0.023975,-4.5e-05,2e-06
279517,-0.001192,-0.019139,-0.27289,0.002067,-0.0,-0.0,2.0,0.282024,0.280548,0.282024,0.283489,,,,,,,-0.000462,-0.0136,-0.17466,-1.3e-05,-3.1e-05,-1e-05
279537,-0.001073,-0.019123,-0.272772,0.002199,-0.0,-0.0,2.0,0.282024,0.279867,0.282024,0.284158,,,,,,,-0.000462,-0.0136,-0.17466,0.023856,-2.9e-05,2e-06
279557,-0.00121,-0.019018,-0.272773,0.002254,-0.0,-0.0,2.0,0.282024,0.278675,0.282024,0.285317,,,,,,,-0.00048,-0.013601,-0.17466,-0.0,-1.9e-05,2e-06
279577,-0.001227,-0.018897,-0.272773,0.002349,-0.0,-0.0,2.0,0.282024,0.280425,0.282024,0.283611,,,,,,,-0.000374,-0.013601,-0.17466,-0.02433,-7e-06,2e-06
279597,-0.00121,-0.019018,-0.272773,0.002417,-0.0,-0.0,2.0,0.282024,0.279354,0.282024,0.284659,,,,,,,-0.00048,-0.013601,-0.17466,-0.0,-1.9e-05,2e-06
279617,-0.001331,-0.019035,-0.272774,0.002551,-0.0,-0.0,2.0,0.282024,0.278306,0.282024,0.285673,,,,,,,-0.000601,-0.013602,-0.17466,1.4e-05,-2e-05,2e-06
279637,-0.001348,-0.018914,-0.272774,0.002597,-0.0,-0.0,2.0,0.282024,0.277937,0.282024,0.286028,,,,,,,-0.000617,-0.013602,-0.17466,-0.000101,-8e-06,2e-06
279657,-0.001226,-0.018897,-0.272889,0.002689,-0.0,-0.0,2.0,0.282024,0.28147,0.282024,0.282577,,,,,,,-0.000497,-0.013602,-0.17466,0.000329,-7e-06,-1e-05
279677,-0.001227,-0.018897,-0.272773,0.002781,-0.0,-0.0,2.0,0.282024,0.279303,0.282024,0.284708,,,,,,,-0.000496,-0.013602,-0.17466,0.0,-7e-06,2e-06
279697,-0.001227,-0.018897,-0.272773,0.002836,-0.0,-0.0,2.0,0.282024,0.277294,0.282024,0.286642,,,,,,,-0.000496,-0.013603,-0.17466,-9.9e-05,-7e-06,2e-06
279717,-0.001122,-0.01876,-0.272772,0.002937,-0.0,-0.0,2.0,0.282024,0.279834,0.282024,0.28419,,,,,,,-0.000391,-0.013603,-0.17466,-0.000241,7e-06,2e-06
279737,-0.001138,-0.018639,-0.272888,0.003024,-0.0,-0.0,2.0,0.282024,0.278997,0.282024,0.285005,,,,,,,-0.000392,-0.013602,-0.17466,-0.003079,1.9e-05,-1e-05
279757,-0.00126,-0.018655,-0.272772,0.003163,-0.0,-0.0,2.0,0.282024,0.278742,0.282024,0.285253,,,,,,,-0.000409,-0.013602,-0.17466,-0.024088,1.8e-05,2e-06
279777,-0.00126,-0.018655,-0.272772,0.003244,-0.0,-0.0,2.0,0.282024,0.278551,0.282024,0.285437,,,,,,,-0.00053,-0.013602,-0.17466,1.4e-05,1.7e-05,2e-06
279797,-0.001277,-0.018535,-0.272772,0.003303,-0.0,-0.0,2.0,0.282024,0.277988,0.282024,0.285979,,,,,,,-0.000651,-0.013601,-0.17466,0.020783,3e-05,2e-06
279817,-0.001381,-0.018672,-0.272773,0.003395,-0.0,-0.0,2.0,0.282024,0.278159,0.282024,0.285815,,,,,,,-0.000651,-0.013601,-0.17466,0.0,1.6e-05,2e-06
279837,-0.00126,-0.018655,-0.272772,0.003489,-0.0,-0.0,2.0,0.282024,0.279,0.282024,0.285002,,,,,,,-0.00053,-0.013601,-0.17466,-0.0,1.7e-05,2e-06
279857,-0.001156,-0.018518,-0.272771,0.003582,-0.0,-0.0,2.0,0.282024,0.28079,0.282024,0.283251,,,,,,,-0.000409,-0.0136,-0.17466,-0.003206,3.1e-05,2e-06
279877,-0.001139,-0.018639,-0.272772,0.003628,-0.0,-0.0,2.0,0.282024,0.27865,0.282024,0.285341,,,,,,,-0.000409,-0.0136,-0.17466,1.4e-05,1.9e-05,2e-06
279897,-0.001051,-0.01838,-0.27277,0.003718,-0.0,-0.0,2.0,0.282024,0.276344,0.282024,0.287544,,,,,,,-0.000425,-0.013599,-0.17466,0.020682,4.5e-05,2e-06
279917,-0.001171,-0.018397,-0.272888,0.003852,-0.0,-0.0,2.0,0.282024,0.279844,0.282024,0.28418,,,,,,,-0.00032,-0.013598,-0.17466,-0.024002,4.3e-05,-1e-05
279937,-0.001292,-0.018414,-0.272889,0.003937,-0.0,-0.0,2.0,0.282024,0.275882,0.282024,0.28798,,,,,,,-0.000562,-0.013597,-0.17466,0.000123,4.1e-05,-1e-05
279957,-0.001172,-0.018397,-0.272771,0.003994,-0.0,-0.0,2.0,0.282024,0.277457,0.282024,0.286488,,,,,,,-0.000546,-0.013597,-0.17466,0.020797,4.3e-05,2e-06
279977,-0.001277,-0.018535,-0.272772,0.004045,-0.0,-0.0,2.0,0.282024,0.279535,0.282024,0.284482,,,,,,,-0.000441,-0.013596,-0.17466,-0.02092,2.9e-05,2e-06
279997,-0.00105,-0.01838,-0.272887,0.004182,-0.0,-0.0,2.0,0.282024,0.278776,0.282024,0.28522,,,,,,,-0.000425,-0.013595,-0.17466,0.021005,4.4e-05,-1e-05
280017,-0.00105,-0.01838,-0.272887,0.004277,-0.0,-0.0,2.0,0.282024,0.279141,0.282024,0.284866,,,,,,,-0.00032,-0.013595,-0.17466,0.000101,4.4e-05,-1e-05
280037,-0.00093,-0.018364,-0.272769,0.004371,-0.0,-0.0,2.0,0.282024,0.278092,0.282024,0.285879,,,,,,,-0.000216,-0.013593,-0.174661,0.003084,4.6e-05,2e-06
280057,-0.000946,-0.018243,-0.272885,0.004417,-0.0,-0.0,2.0,0.282024,0.278231,0.282024,0.285746,,,,,,,-0.000199,-0.013593,-0.174661,-0.003307,5.8e-05,-9e-06
280077,-0.001067,-0.018259,-0.272886,0.004549,-0.0,-0.0,2.0,0.282024,0.274248,0.282024,0.289504,,,,,,,-0.000457,-0.013591,-0.174661,0.023989,5.6e-05,-1e-05
280097,-0.001188,-0.018276,-0.272887,0.004549,-0.0,-0.0,2.0,0.282024,0.276025,0.282024,0.287845,,,,,,,-0.000458,-0.01359,-0.174661,0.000222,5.4e-05,-1e-05
280117,-0.001189,-0.018276,-0.272771,0.004661,-0.0,-0.0,2.0,0.282024,0.278186,0.282024,0.285789,,,,,,,-0.000336,-0.013589,-0.174661,-0.02431,5.4e-05,2e-06
280137,-0.00105,-0.01838,-0.272887,0.004801,-0.0,-0.0,2.0,0.282024,0.279128,0.282024,0.284878,,,,,,,-0.000338,-0.013588,-0.174661,0.003627,4.4e-05,-1e-05
280157,-0.001067,-0.018259,-0.272886,0.004887,-0.0,-0.0,2.0,0.282024,0.276954,0.282024,0.286966,,,,,,,-0.000336,-0.013587,-0.174661,1e-06,5.6e-05,-1e-05
280177,-0.000946,-0.018243,-0.272885,0.004985,-0.0,-0.0,2.0,0.282024,0.276198,0.282024,0.287682,,,,,,,-0.000215,-0.013586,-0.174661,-0.0001,5.7e-05,-9e-06
280197,-0.000825,-0.018226,-0.272885,0.005078,-0.0,-0.0,2.0,0.282024,0.27877,0.282024,0.285225,,,,,,,-0.000112,-0.013585,-0.174662,0.003392,5.9e-05,-9e-06
280217,-0.000962,-0.018122,-0.272885,0.005124,-0.0,-0.0,2.0,0.282024,0.276127,0.282024,0.287749,,,,,,,-0.000216,-0.013584,-0.174662,-0.003307,6.9e-05,-9e-06
280237,-0.001067,-0.018259,-0.272886,0.005217,-0.0,-0.0,2.0,0.282024,0.274309,0.282024,0.289447,,,,,,,-0.000319,-0.013582,-0.174662,-0.003392,5.5e-05,-9e-06
280257,-0.00105,-0.01838,-0.272887,0.005285,-0.0,-0.0,2.0,0.282024,0.276046,0.282024,0.287825,,,,,,,-0.000336,-0.013581,-0.174662,0.003307,4.3e-05,-9e-06
280277,-0.001067,-0.018259,-0.272886,0.005405,-0.0,-0.0,2.0,0.282024,0.277834,0.282024,0.286126,,,,,,,-0.000337,-0.01358,-0.174662,9.9e-05,5.5e-05,-9e-06
280297,-0.001067,-0.018259,-0.272886,0.005462,-0.0,-0.0,2.0,0.282024,0.275998,0.282024,0.28787,,,,,,,-0.000336,-0.013579,-0.174663,-1.4e-05,5.5e-05,-9e-06
280317,-0.000946,-0.018243,-0.272885,0.005603,-0.0,-0.0,2.0,0.282024,0.275536,0.282024,0.288304,,,,,,,-0.000215,-0.013578,-0.174663,-8.6e-05,5.6e-05,-9e-06
280337,-0.000721,-0.018089,-0.272883,0.005688,-0.0,-0.0,2.0,0.282024,0.278101,0.282024,0.285871,,,,,,,-0.000112,-0.013577,-0.174663,0.024173,7.2e-05,-9e-06
280357,-0.000962,-0.018122,-0.272885,0.005744,-0.0,-0.0,2.0,0.282024,0.276266,0.282024,0.287618,,,,,,,-9.5e-05,-0.013576,-0.174663,-0.027395,6.8e-05,-9e-06
280377,-0.000825,-0.018226,-0.272885,0.005836,-0.0,-0.0,2.0,0.282024,0.272009,0.282024,0.291552,,,,,,,-0.000215,-0.013574,-0.174663,0.023902,5.8e-05,-9e-06
280397,-0.000946,-0.018244,-0.272935,0.005929,-0.0,-0.0,2.0,0.282024,0.277418,0.282024,0.286524,,,,,,,-9.4e-05,-0.013573,-0.174664,-0.024209,5.6e-05,-1.4e-05
280417,-0.00105,-0.018381,-0.272936,0.006025,-0.0,-0.0,2.0,0.282024,0.274598,0.282024,0.289179,,,,,,,-0.00032,-0.013572,-0.174664,1.8e-05,4.2e-05,-1.4e-05
280437,-0.001067,-0.018259,-0.272886,0.006091,-0.0,-0.0,2.0,0.282024,0.274357,0.282024,0.289403,,,,,,,-0.000336,-0.013571,-0.174664,1e-06,5.4e-05,-9e-06
280457,-0.000946,-0.018243,-0.272885,0.006198,-0.0,-0.0,2.0,0.282024,0.275679,0.282024,0.288171,,,,,,,-0.000216,-0.01357,-0.174664,-0.0,5.6e-05,-9e-06
280477,-0.000825,-0.018227,-0.272934,0.006274,-0.0,-0.0,2.0,0.282024,0.277517,0.282024,0.28643,,,,,,,-9.5e-05,-0.013569,-0.174664,0.00012,5.7e-05,-1.4e-05
280497,-0.000825,-0.018226,-0.272885,0.006372,-0.0,-0.0,2.0,0.282024,0.275409,0.282024,0.288424,,,,,,,-7.8e-05,-0.013568,-0.174665,-0.003293,5.7e-05,-9e-06
280517,-0.000687,-0.018331,-0.272884,0.006428,-0.0,-0.0,2.0,0.282024,0.27564,0.282024,0.288207,,,,,,,4.3e-05,-0.013567,-0.174665,-0.0,4.6e-05,-9e-06
280537,-0.000808,-0.018347,-0.272885,0.006566,-0.0,-0.0,2.0,0.282024,0.275328,0.282024,0.288499,,,,,,,4.3e-05,-0.013566,-0.174665,-0.02411,4.5e-05,-9e-06
280557,-0.000808,-0.018348,-0.272934,0.006612,-0.0,-0.0,2.0,0.282024,0.271891,0.282024,0.291659,,,,,,,-0.000182,-0.013565,-0.174665,0.020702,4.5e-05,-1.4e-05
280577,-0.000929,-0.018364,-0.272886,0.006707,-0.0,-0.0,2.0,0.282024,0.273214,0.282024,0.290455,,,,,,,-0.000199,-0.013565,-0.174666,1e-06,4.3e-05,-9e-06
280597,-0.000929,-0.018364,-0.272886,0.006798,-0.0,-0.0,2.0,0.282024,0.272924,0.282024,0.29072,,,,,,,-0.000198,-0.013564,-0.174666,-0.0001,4.3e-05,-9e-06
280617,-0.000808,-0.018347,-0.272885,0.006908,-0.0,-0.0,2.0,0.282024,0.276497,0.282024,0.287399,,,,,,,-7.8e-05,-0.013563,-0.174666,7.9e-05,4.4e-05,-9e-06
280637,-0.000687,-0.018332,-0.272933,0.006982,-0.0,-0.0,2.0,0.282024,0.27421,0.282024,0.289539,,,,,,,-7.8e-05,-0.013562,-0.174666,0.024089,4.6e-05,-1.4e-05
280657,-0.000687,-0.018332,-0.272933,0.006982,-0.0,-0.0,2.0,0.282024,0.273053,0.282024,0.290602,,,,,,,4.3e-05,-0.013561,-0.174666,-7.8e-05,4.6e-05,-1.4e-05
280677,-0.000671,-0.018451,-0.272884,0.007144,-0.0,-0.0,2.0,0.282024,0.274806,0.282024,0.288986,,,,,,,0.000164,-0.01356,-0.174667,-0.02082,3.4e-05,-9e-06
280697,-0.000687,-0.018332,-0.272933,0.007235,-0.0,-0.0,2.0,0.282024,0.273112,0.282024,0.290549,,,,,,,4.3e-05,-0.013559,-0.174667,-1.4e-05,4.6e-05,-1.4e-05
280717,-0.000792,-0.018468,-0.272885,0.007314,-0.0,-0.0,2.0,0.282024,0.272529,0.282024,0.29108,,,,,,,-6.1e-05,-0.013559,-0.174667,1.4e-05,3.2e-05,-9e-06
280737,-0.000929,-0.018364,-0.272886,0.007423,-0.0,-0.0,2.0,0.282024,0.270621,0.282024,0.2928,,,,,,,-0.000198,-0.013558,-0.174667,-9.9e-05,4.2e-05,-9e-06
280757,-0.000825,-0.018227,-0.272934,0.007516,-0.0,-0.0,2.0,0.282024,0.275477,0.282024,0.288359,,,,,,,-7.7e-05,-0.013557,-0.174668,-0.003429,5.6e-05,-1.4e-05
280777,-0.000808,-0.018348,-0.272934,0.007608,-0.0,-0.0,2.0,0.282024,0.273208,0.282024,0.290461,,,,,,,-7.8e-05,-0.013556,-0.174668,2.1e-05,4.4e-05,-1.4e-05
280797,-0.000687,-0.018331,-0.272884,0.007656,-0.0,-0.0,2.0,0.282024,0.273586,0.282024,0.290114,,,,,,,4.3e-05,-0.013555,-0.174668,-0.0,4.5e-05,-9e-06
280817,-0.000566,-0.018314,-0.272883,0.007726,-0.0,-0.0,2.0,0.282024,0.273535,0.282024,0.290161,,,,,,,0.000164,-0.013554,-0.174668,-0.0,4.7e-05,-8e-06
280837,-0.000566,-0.018315,-0.272932,0.007846,-0.0,-0.0,2.0,0.282024,0.272758,0.282024,0.290872,,,,,,,0.000164,-0.013553,-0.174669,0.0,4.7e-05,-1.3e-05
280857,-0.000687,-0.018331,-0.272884,0.007957,-0.0,-0.0,2.0,0.282024,0.27159,0.282024,0.29193,,,,,,,5.9e-05,-0.013552,-0.174669,-0.003292,4.5e-05,-9e-06
280877,-0.000792,-0.018468,-0.272885,0.008052,-0.0,-0.0,2.0,0.282024,0.271317,0.282024,0.292176,,,,,,,4.3e-05,-0.013552,-0.174669,-0.020794,3.1e-05,-9e-06
280897,-0.000792,-0.018468,-0.272885,0.008112,-0.0,-0.0,2.0,0.282024,0.272001,0.282024,0.291559,,,,,,,-6.1e-05,-0.013551,-0.174669,1.4e-05,3.1e-05,-9e-06
280917,-0.000687,-0.018332,-0.272933,0.008222,-0.0,-0.0,2.0,0.282024,0.271954,0.282024,0.291602,,,,,,,-7.8e-05,-0.01355,-0.174669,0.02411,4.5e-05,-1.3e-05
280937,-0.000687,-0.018331,-0.272884,0.008314,-0.0,-0.0,2.0,0.282024,0.271947,0.282024,0.291608,,,,,,,4.3e-05,-0.013549,-0.174669,-1.4e-05,4.5e-05,-8e-06
280957,-0.00055,-0.018435,-0.272883,0.008361,-0.0,-0.0,2.0,0.282024,0.273334,0.282024,0.290345,,,,,,,0.00018,-0.013548,-0.17467,1.3e-05,3.4e-05,-8e-06
280977,-0.000429,-0.018418,-0.272882,0.008455,-0.0,-0.0,2.0,0.282024,0.273331,0.282024,0.290348,,,,,,,0.000301,-0.013548,-0.17467,-1.2e-05,3.6e-05,-8e-06
280997,-0.000429,-0.018419,-0.272931,0.008508,-0.0,-0.0,2.0,0.282024,0.271693,0.282024,0.291837,,,,,,,0.000301,-0.013547,-0.17467,2.5e-05,3.6e-05,-1.3e-05
281017,-0.00055,-0.018435,-0.272883,0.008593,-0.0,-0.0,2.0,0.282024,0.268876,0.282024,0.294345,,,,,,,0.000181,-0.013546,-0.17467,-9.9e-05,3.4e-05,-8e-06
281037,-0.000687,-0.018331,-0.272884,0.008702,-0.0,-0.0,2.0,0.282024,0.268301,0.282024,0.294848,,,,,,,4.3e-05,-0.013545,-0.17467,-9.9e-05,4.4e-05,-8e-06
281057,-0.000704,-0.018211,-0.272933,0.008785,-0.0,-0.0,2.0,0.282024,0.271966,0.282024,0.291591,,,,,,,4.3e-05,-0.013545,-0.174671,-0.003207,5.6e-05,-1.3e-05
281077,-0.000808,-0.018347,-0.272885,0.008916,-0.0,-0.0,2.0,0.282024,0.268982,0.282024,0.294251,,,,,,,-7.7e-05,-0.013544,-0.174671,-0.0001,4.3e-05,-8e-06
281097,-0.000566,-0.018314,-0.272883,0.00897,-0.0,-0.0,2.0,0.282024,0.270696,0.282024,0.292733,,,,,,,4.3e-05,-0.013543,-0.174671,0.024088,4.6e-05,-8e-06
281117,-0.000446,-0.018297,-0.272882,0.009073,-0.0,-0.0,2.0,0.282024,0.272178,0.282024,0.291399,,,,,,,0.000285,-0.013542,-0.174671,-2.6e-05,4.7e-05,-8e-06
281137,-0.000307,-0.018403,-0.273047,0.009164,-0.0,-0.0,2.0,0.282024,0.272051,0.282024,0.291514,,,,,,,0.000422,-0.013541,-0.174672,0.000222,3.7e-05,-2.5e-05
281157,-0.000307,-0.018403,-0.273047,0.009261,-0.0,-0.0,2.0,0.282024,0.270474,0.282024,0.292931,,,,,,,0.000424,-0.01354,-0.174672,1e-06,3.7e-05,-2.4e-05
281177,-0.000428,-0.018419,-0.273048,0.009261,-0.0,-0.0,2.0,0.282024,0.267628,0.282024,0.295433,,,,,,,0.000302,-0.01354,-0.174672,0.000147,3.5e-05,-2.5e-05
281197,-0.000566,-0.018314,-0.272883,0.009432,-0.0,-0.0,2.0,0.282024,0.269407,0.282024,0.293877,,,,,,,0.000286,-0.013539,-0.174673,-0.024347,4.5e-05,-8e-06
281217,-0.000565,-0.018315,-0.273049,0.009511,-0.0,-0.0,2.0,0.282024,0.270643,0.282024,0.29278,,,,,,,0.000164,-0.013538,-0.174673,0.000321,4.5e-05,-2.5e-05
281237,-0.000704,-0.01821,-0.272884,0.009564,-0.0,-0.0,2.0,0.282024,0.267687,0.282024,0.295382,,,,,,,4.3e-05,-0.013537,-0.174673,-0.003407,5.6e-05,-8e-06
281257,-0.000446,-0.018297,-0.272882,0.009645,-0.0,-0.0,2.0,0.282024,0.272793,0.282024,0.29084,,,,,,,0.000284,-0.013536,-0.174673,0.000113,4.7e-05,-8e-06
281277,-0.000204,-0.018264,-0.27288,0.00973,-0.0,-0.0,2.0,0.282024,0.273419,0.282024,0.290267,,,,,,,0.000527,-0.013535,-0.174674,-0.000148,5e-05,-8e-06
281297,5.6e-05,-0.018353,-0.273044,0.009843,-0.0,-0.0,2.0,0.282024,0.269737,0.282024,0.293586,,,,,,,0.000545,-0.013534,-0.174674,0.048178,4.1e-05,-2.4e-05
281317,-6.5e-05,-0.018369,-0.273045,0.009936,-0.0,-0.0,2.0,0.282024,0.271065,0.282024,0.292403,,,,,,,0.000786,-0.013533,-0.174674,-0.023988,3.9e-05,-2.4e-05
281337,-0.000187,-0.018386,-0.272929,0.01003,-0.0,-0.0,2.0,0.282024,0.267463,0.282024,0.295577,,,,,,,0.000666,-0.013533,-0.174675,-0.02441,3.7e-05,-1.2e-05
281357,-0.000186,-0.018386,-0.273046,0.010131,-0.0,-0.0,2.0,0.282024,0.269601,0.282024,0.293706,,,,,,,0.000544,-0.013532,-0.174675,0.000101,3.7e-05,-2.4e-05
281377,-0.000323,-0.018282,-0.273047,0.010201,-0.0,-0.0,2.0,0.282024,0.267572,0.282024,0.295482,,,,,,,0.000406,-0.013531,-0.174676,0.000207,4.8e-05,-2.4e-05
281397,-0.000446,-0.018297,-0.272882,0.010276,-0.0,-0.0,2.0,0.282024,0.266011,0.282024,0.296825,,,,,,,0.000302,-0.01353,-0.174676,-0.003392,4.6e-05,-8e-06
281417,-0.000308,-0.018402,-0.272881,0.010331,-0.0,-0.0,2.0,0.282024,0.268808,0.282024,0.294404,,,,,,,0.000422,-0.013529,-0.174676,-2.8e-05,3.6e-05,-7e-06
281437,-6.5e-05,-0.018369,-0.273045,0.010457,-0.0,-0.0,2.0,0.282024,0.271328,0.282024,0.292166,,,,,,,0.000665,-0.013529,-0.174676,0.0001,3.9e-05,-2.4e-05
281457,0.000177,-0.018336,-0.273043,0.010538,-0.0,-0.0,2.0,0.282024,0.268893,0.282024,0.29433,,,,,,,0.000785,-0.013528,-0.174677,0.02431,4.2e-05,-2.4e-05
281477,0.000177,-0.018336,-0.273043,0.010643,-0.0,-0.0,2.0,0.282024,0.27013,0.282024,0.293237,,,,,,,0.001027,-0.013527,-0.174677,-0.023768,4.2e-05,-2.4e-05
281497,0.000176,-0.018335,-0.272877,0.010739,-0.0,-0.0,2.0,0.282024,0.266225,0.282024,0.296642,,,,,,,0.000907,-0.013526,-0.174677,-0.000133,4.2e-05,-7e-06
281517,0.00016,-0.018215,-0.273043,0.010836,-0.0,-0.0,2.0,0.282024,0.267418,0.282024,0.295615,,,,,,,0.000907,-0.013525,-0.174678,-0.003308,5.4e-05,-2.3e-05
281537,0.000177,-0.018336,-0.273043,0.010884,-0.0,-0.0,2.0,0.282024,0.264818,0.282024,0.297838,,,,,,,0.000786,-0.013524,-0.174678,0.02421,4.2e-05,-2.3e-05
281557,5.5e-05,-0.018353,-0.272927,0.010934,-0.0,-0.0,2.0,0.282024,0.266641,0.282024,0.296285,,,,,,,0.000785,-0.013524,-0.174678,3.1e-05,4e-05,-1.2e-05
281577,0.000176,-0.018335,-0.272877,0.01103,-0.0,-0.0,2.0,0.282024,0.265685,0.282024,0.297103,,,,,,,0.000786,-0.013523,-0.174679,0.023956,4.2e-05,-7e-06
281597,0.000298,-0.01832,-0.273042,0.011176,-0.0,-0.0,2.0,0.282024,0.269645,0.282024,0.293667,,,,,,,0.001028,-0.013522,-0.174679,9.9e-05,4.3e-05,-2.3e-05
281617,0.000419,-0.018303,-0.273041,0.011226,-0.0,-0.0,2.0,0.282024,0.268232,0.282024,0.294908,,,,,,,0.001149,-0.013521,-0.174679,0.0,4.5e-05,-2.3e-05
281637,0.00054,-0.018286,-0.27304,0.01135,-0.0,-0.0,2.0,0.282024,0.26861,0.282024,0.294578,,,,,,,0.00127,-0.01352,-0.17468,0.0001,4.6e-05,-2.3e-05
281657,0.00054,-0.018286,-0.27304,0.011447,-0.0,-0.0,2.0,0.282024,0.265277,0.282024,0.29745,,,,,,,0.001271,-0.013519,-0.17468,-0.0001,4.6e-05,-2.3e-05
281677,0.000661,-0.01827,-0.273039,0.011493,-0.0,-0.0,2.0,0.282024,0.268972,0.282024,0.29426,,,,,,,0.001391,-0.013518,-0.174681,0.000113,4.8e-05,-2.3e-05
281697,0.000661,-0.01827,-0.273039,0.011594,-0.0,-0.0,2.0,0.282024,0.266391,0.282024,0.2965,,,,,,,0.001391,-0.013517,-0.174681,-0.0,4.8e-05,-2.3e-05
281717,0.000661,-0.01827,-0.273039,0.011689,-0.0,-0.0,2.0,0.282024,0.266784,0.282024,0.296163,,,,,,,0.001529,-0.013516,-0.174682,-0.027397,4.7e-05,-2.3e-05
281737,0.000798,-0.018374,-0.273038,0.011754,-0.0,-0.0,2.0,0.282024,0.265988,0.282024,0.296844,,,,,,,0.001512,-0.013515,-0.174682,0.003293,3.7e-05,-2.3e-05
281757,0.000919,-0.018358,-0.273037,0.011874,-0.0,-0.0,2.0,0.282024,0.26816,0.282024,0.294971,,,,,,,0.001634,-0.013515,-0.174683,0.00319,3.9e-05,-2.2e-05
281777,0.001025,-0.01822,-0.273152,0.011927,-0.0,-0.0,2.0,0.282024,0.265873,0.282024,0.296943,,,,,,,0.00165,-0.013514,-0.174683,0.020998,5.2e-05,-3.4e-05
281797,0.001024,-0.01822,-0.273036,0.012059,-0.0,-0.0,2.0,0.282024,0.26567,0.282024,0.297116,,,,,,,0.001754,-0.013513,-0.174684,0.0,5.2e-05,-2.2e-05
281817,0.001144,-0.018203,-0.273035,0.012142,-0.0,-0.0,2.0,0.282024,0.266561,0.282024,0.296354,,,,,,,0.001875,-0.013512,-0.174684,-1e-06,5.4e-05,-2.2e-05
281837,0.001265,-0.018187,-0.273034,0.012204,-0.0,-0.0,2.0,0.282024,0.265248,0.282024,0.297474,,,,,,,0.001876,-0.013511,-0.174685,0.023872,5.5e-05,-2.2e-05
281857,0.001282,-0.018308,-0.273034,0.012296,-0.0,-0.0,2.0,0.282024,0.265769,0.282024,0.297032,,,,,,,0.001996,-0.013509,-0.174685,0.003294,4.3e-05,-2.2e-05
281877,0.001282,-0.018308,-0.273034,0.012388,-0.0,-0.0,2.0,0.282024,0.265043,0.282024,0.297648,,,,,,,0.002012,-0.013509,-0.174686,1.4e-05,4.3e-05,-2.2e-05
281897,0.001386,-0.01817,-0.273033,0.012498,-0.0,-0.0,2.0,0.282024,0.265288,0.282024,0.29744,,,,,,,0.002133,-0.013508,-0.174686,-0.003309,5.7e-05,-2.2e-05
281917,0.001524,-0.018274,-0.273032,0.012553,-0.0,-0.0,2.0,0.282024,0.267122,0.282024,0.295871,,,,,,,0.002238,-0.013507,-0.174687,0.003192,4.6e-05,-2.2e-05
281937,0.00175,-0.01812,-0.273146,0.012624,-0.0,-0.0,2.0,0.282024,0.265879,0.282024,0.296937,,,,,,,0.002359,-0.013505,-0.174687,0.024303,6.1e-05,-3.3e-05
281957,0.00187,-0.018104,-0.273029,0.012736,-0.0,-0.0,2.0,0.282024,0.26739,0.282024,0.29564,,,,,,,0.002617,-0.013504,-0.174688,-0.003209,6.3e-05,-2.1e-05
281977,0.002129,-0.018191,-0.273026,0.012796,-0.0,-0.0,2.0,0.282024,0.266453,0.282024,0.296447,,,,,,,0.002859,-0.013503,-0.174688,-1e-06,5.4e-05,-2.1e-05
281997,0.002492,-0.018141,-0.27314,0.012925,-0.0,-0.0,2.0,0.282024,0.267619,0.282024,0.295441,,,,,,,0.003101,-0.013502,-0.174689,0.024188,5.9e-05,-3.2e-05
282017,0.002734,-0.018108,-0.273138,0.013011,-0.0,-0.0,2.0,0.282024,0.265869,0.282024,0.296947,,,,,,,0.003344,-0.013501,-0.174689,0.024074,6.2e-05,-3.2e-05
282037,0.002993,-0.018196,-0.273135,0.013064,-0.0,-0.0,2.0,0.282024,0.266724,0.282024,0.296214,,,,,,,0.003723,-0.0135,-0.17469,-1e-06,5.3e-05,-3.2e-05
282057,0.003493,-0.01825,-0.273131,0.013159,-0.0,-0.0,2.0,0.282024,0.266993,0.282024,0.295983,,,,,,,0.004086,-0.013499,-0.174691,0.027397,4.8e-05,-3.1e-05
282077,0.003856,-0.0182,-0.273127,0.013251,-0.0,-0.0,2.0,0.282024,0.2689,0.282024,0.294324,,,,,,,0.004465,-0.013498,-0.174691,0.024201,5.3e-05,-3.1e-05
282097,0.00422,-0.01815,-0.273241,0.013368,-0.0,-0.0,2.0,0.282024,0.268713,0.282024,0.294487,,,,,,,0.004828,-0.013497,-0.174692,0.024399,5.7e-05,-4.2e-05
282117,0.004461,-0.018117,-0.273122,0.013368,-0.0,-0.0,2.0,0.282024,0.268698,0.282024,0.2945,,,,,,,0.005191,-0.013495,-0.174693,9.9e-05,6.1e-05,-3e-05
282137,0.00484,-0.018188,-0.273118,0.013544,-0.0,-0.0,2.0,0.282024,0.268349,0.282024,0.294806,,,,,,,0.005553,-0.013494,-0.174693,0.003407,5.3e-05,-2.9e-05
282157,0.005203,-0.018138,-0.273115,0.013598,-0.0,-0.0,2.0,0.282024,0.269424,0.282024,0.293863,,,,,,,0.00595,-0.013493,-0.174694,-0.003407,5.8e-05,-2.9e-05
282177,0.005583,-0.018209,-0.273227,0.013675,-0.0,-0.0,2.0,0.282024,0.269189,0.282024,0.294069,,,,,,,0.006313,-0.013492,-0.174695,0.0001,5.1e-05,-4e-05
282197,0.005963,-0.01828,-0.273223,0.013808,-0.0,-0.0,2.0,0.282024,0.268095,0.282024,0.295028,,,,,,,0.006571,-0.013491,-0.174695,0.024412,4.4e-05,-4e-05
282217,0.006204,-0.018247,-0.273105,0.013857,-0.0,-0.0,2.0,0.282024,0.26553,0.282024,0.297235,,,,,,,0.006814,-0.01349,-0.174696,0.023878,4.7e-05,-2.8e-05
282237,0.006447,-0.018214,-0.273219,0.013949,-0.0,-0.0,2.0,0.282024,0.2689,0.282024,0.294324,,,,,,,0.007193,-0.013489,-0.174697,-0.003197,5e-05,-3.9e-05
282257,0.006931,-0.018146,-0.27333,0.014044,-0.0,-0.0,2.0,0.282024,0.266417,0.282024,0.296478,,,,,,,0.007419,-0.013488,-0.174697,0.048369,5.7e-05,-5e-05
282277,0.007189,-0.018235,-0.273211,0.01409,-0.0,-0.0,2.0,0.282024,0.266278,0.282024,0.296597,,,,,,,0.007781,-0.013487,-0.174698,0.02759,4.8e-05,-3.8e-05
282297,0.00755,-0.018185,-0.27309,0.01424,-0.0,-0.0,2.0,0.282024,0.268301,0.282024,0.294848,,,,,,,0.008282,-0.013486,-0.174699,-0.000194,5.3e-05,-2.6e-05
282317,0.008035,-0.018118,-0.273202,0.01424,-0.0,-0.0,2.0,0.282024,0.269294,0.282024,0.293977,,,,,,,0.008644,-0.013485,-0.1747,0.024186,6e-05,-3.7e-05
282337,0.008536,-0.018173,-0.273196,0.014399,-0.0,-0.0,2.0,0.282024,0.268298,0.282024,0.29485,,,,,,,0.009007,-0.013484,-0.1747,0.05157,5.4e-05,-3.7e-05
282357,0.008915,-0.018244,-0.273192,0.014485,-0.0,-0.0,2.0,0.282024,0.267573,0.282024,0.295482,,,,,,,0.009508,-0.013483,-0.174701,0.027396,4.7e-05,-3.6e-05
282377,0.00952,-0.018161,-0.273185,0.014565,-0.0,-0.0,2.0,0.282024,0.269368,0.282024,0.293912,,,,,,,0.010008,-0.013482,-0.174702,0.048274,5.5e-05,-3.5e-05
282397,0.01002,-0.018215,-0.273179,0.014675,-0.0,-0.0,2.0,0.282024,0.271228,0.282024,0.292257,,,,,,,0.01063,-0.013481,-0.174703,0.023983,4.9e-05,-3.5e-05
282417,0.010626,-0.018131,-0.273289,0.014767,-0.0,-0.0,2.0,0.282024,0.270406,0.282024,0.292991,,,,,,,0.011114,-0.01348,-0.174703,0.048274,5.8e-05,-4.6e-05
282437,0.011143,-0.018306,-0.273282,0.014813,-0.0,-0.0,2.0,0.282024,0.270894,0.282024,0.292556,,,,,,,0.011734,-0.013479,-0.174704,0.027697,4e-05,-4.5e-05
282457,0.011642,-0.018361,-0.273159,0.014907,-0.0,-0.0,2.0,0.282024,0.268802,0.282024,0.294409,,,,,,,0.012235,-0.013478,-0.174705,0.027394,3.4e-05,-3.2e-05
282477,0.012247,-0.018278,-0.273152,0.014963,-0.0,-0.0,2.0,0.282024,0.271511,0.282024,0.292001,,,,,,,0.012857,-0.013477,-0.174706,0.023986,4.3e-05,-3.2e-05
282497,0.012748,-0.018332,-0.273262,0.015056,-0.0,-0.0,2.0,0.282024,0.27116,0.282024,0.292317,,,,,,,0.013357,-0.013476,-0.174706,0.024187,3.7e-05,-4.3e-05
282517,0.013126,-0.018404,-0.27314,0.015178,-0.0,-0.0,2.0,0.282024,0.268935,0.282024,0.294293,,,,,,,0.013736,-0.013475,-0.174707,0.0241,3e-05,-3e-05
282537,0.01361,-0.018337,-0.273134,0.01523,-0.0,-0.0,2.0,0.282024,0.269253,0.282024,0.294013,,,,,,,0.014219,-0.013475,-0.174708,0.024086,3.7e-05,-3e-05
282557,0.01411,-0.018391,-0.273127,0.015371,-0.0,-0.0,2.0,0.282024,0.272031,0.282024,0.291532,,,,,,,0.01472,-0.013474,-0.174708,0.023986,3.1e-05,-2.9e-05
282577,0.014474,-0.018341,-0.273239,0.015444,-0.0,-0.0,2.0,0.282024,0.270958,0.282024,0.292498,,,,,,,0.015082,-0.013474,-0.174709,0.024383,3.6e-05,-4e-05
282597,0.014836,-0.018292,-0.273118,0.015536,-0.0,-0.0,2.0,0.282024,0.271624,0.282024,0.2919,,,,,,,0.015566,-0.013473,-0.17471,9.9e-05,4.1e-05,-2.8e-05
282617,0.015215,-0.018363,-0.273112,0.015629,-0.0,-0.0,2.0,0.282024,0.27164,0.282024,0.291885,,,,,,,0.015945,-0.013472,-0.17471,9.8e-05,3.4e-05,-2.7e-05
282637,0.0157,-0.018295,-0.273222,0.015724,-0.0,-0.0,2.0,0.282024,0.272901,0.282024,0.290741,,,,,,,0.016308,-0.013471,-0.174711,0.024286,4e-05,-3.8e-05
282657,0.01596,-0.018384,-0.273267,0.015792,-0.0,-0.0,2.0,0.282024,0.270311,0.282024,0.293076,,,,,,,0.016566,-0.013471,-0.174711,0.024604,3.2e-05,-4.3e-05
282677,0.016201,-0.01835,-0.273264,0.015866,-0.0,-0.0,2.0,0.282024,0.269857,0.282024,0.293479,,,,,,,0.016946,-0.01347,-0.174712,-0.002875,3.5e-05,-4.2e-05
282697,0.0167,-0.018405,-0.273091,0.015989,-0.0,-0.0,2.0,0.282024,0.271914,0.282024,0.291638,,,,,,,0.017311,-0.013469,-0.174713,0.023761,2.9e-05,-2.5e-05
282717,0.016944,-0.018371,-0.273253,0.016041,-0.0,-0.0,2.0,0.282024,0.272924,0.282024,0.29072,,,,,,,0.017673,-0.013469,-0.174714,0.000199,3.3e-05,-4.1e-05
282737,0.017306,-0.018321,-0.273248,0.016142,-0.0,-0.0,2.0,0.282024,0.269941,0.282024,0.293405,,,,,,,0.017932,-0.013468,-0.174714,0.020972,3.8e-05,-4e-05
282757,0.017685,-0.018394,-0.273126,0.016204,-0.0,-0.0,2.0,0.282024,0.272589,0.282024,0.291026,,,,,,,0.018415,-0.013468,-0.174715,9.9e-05,3e-05,-2.8e-05
282777,0.018169,-0.018327,-0.273119,0.016307,-0.0,-0.0,2.0,0.282024,0.272597,0.282024,0.291018,,,,,,,0.018779,-0.013467,-0.174716,0.023996,3.7e-05,-2.7e-05
282797,0.01867,-0.01838,-0.273228,0.016401,-0.0,-0.0,2.0,0.282024,0.273633,0.282024,0.290071,,,,,,,0.019295,-0.013466,-0.174716,0.020892,3.1e-05,-3.8e-05
282817,0.01917,-0.018434,-0.27322,0.016494,-0.0,-0.0,2.0,0.282024,0.273508,0.282024,0.290186,,,,,,,0.019779,-0.013466,-0.174717,0.024186,2.6e-05,-3.7e-05
282837,0.019671,-0.018489,-0.273211,0.016601,-0.0,-0.0,2.0,0.282024,0.273569,0.282024,0.29013,,,,,,,0.020263,-0.013465,-0.174718,0.027494,2.1e-05,-3.6e-05
282857,0.020171,-0.018543,-0.273203,0.01668,-0.0,-0.0,2.0,0.282024,0.273845,0.282024,0.289876,,,,,,,0.020764,-0.013465,-0.174719,0.027305,1.5e-05,-3.5e-05
282877,0.020672,-0.018596,-0.273311,0.01668,-0.0,-0.0,2.0,0.282024,0.27413,0.282024,0.289612,,,,,,,0.021265,-0.013465,-0.174719,0.027495,1e-05,-4.6e-05
282897,0.021173,-0.01865,-0.273303,0.016786,-0.0,-0.0,2.0,0.282024,0.274345,0.282024,0.289413,,,,,,,0.021765,-0.013464,-0.17472,0.027494,4e-06,-4.5e-05
282917,0.021656,-0.018583,-0.273295,0.016925,-0.0,-0.0,2.0,0.282024,0.273938,0.282024,0.28979,,,,,,,0.022265,-0.013464,-0.174721,0.024186,1.1e-05,-4.4e-05
282937,0.022036,-0.018654,-0.273289,0.016973,-0.0,-0.0,2.0,0.282024,0.273193,0.282024,0.290474,,,,,,,0.022646,-0.013464,-0.174722,0.023909,4e-06,-4.4e-05
282957,0.022399,-0.018603,-0.273399,0.017119,-0.0,-0.0,2.0,0.282024,0.272921,0.282024,0.290723,,,,,,,0.022886,-0.013464,-0.174723,0.048459,9e-06,-5.5e-05
282977,0.022536,-0.018709,-0.27328,0.017167,-0.0,-0.0,2.0,0.282024,0.273223,0.282024,0.290447,,,,,,,0.023249,-0.013464,-0.174724,0.003408,-2e-06,-4.3e-05
282997,0.022899,-0.018659,-0.273274,0.01726,-0.0,-0.0,2.0,0.282024,0.27504,0.282024,0.288768,,,,,,,0.023629,-0.013464,-0.174725,0.000112,3e-06,-4.2e-05
283017,0.023262,-0.018607,-0.273385,0.017354,-0.0,-0.0,2.0,0.282024,0.274455,0.282024,0.289312,,,,,,,0.023871,-0.013464,-0.174726,0.024185,8e-06,-5.3e-05
283037,0.023521,-0.018695,-0.27338,0.017409,-0.0,-0.0,2.0,0.282024,0.272481,0.282024,0.291124,,,,,,,0.02413,-0.013464,-0.174727,0.024084,-0.0,-5.2e-05
283057,0.023884,-0.018645,-0.273374,0.017491,-0.0,-0.0,2.0,0.282024,0.273406,0.282024,0.290279,,,,,,,0.02451,-0.013464,-0.174728,0.020787,5e-06,-5.2e-05
283077,0.024386,-0.0187,-0.273414,0.017617,-0.0,-0.0,2.0,0.282024,0.275652,0.282024,0.288196,,,,,,,0.024978,-0.013463,-0.174729,0.027482,-1e-06,-5.5e-05
283097,0.024765,-0.018771,-0.273406,0.017698,-0.0,-0.0,2.0,0.282024,0.275615,0.282024,0.288231,,,,,,,0.025357,-0.013463,-0.17473,0.027495,-8e-06,-5.5e-05
283117,0.025144,-0.018842,-0.273399,0.017793,-0.0,-0.0,2.0,0.282024,0.27432,0.282024,0.289437,,,,,,,0.025754,-0.013464,-0.174731,0.0241,-1.5e-05,-5.4e-05
283137,0.025767,-0.018877,-0.273504,0.017882,-0.0,-0.0,2.0,0.282024,0.277579,0.282024,0.286371,,,,,,,0.026375,-0.013464,-0.174732,0.024198,-1.8e-05,-6.4e-05
283157,0.026267,-0.018932,-0.273494,0.017982,-0.0,-0.0,2.0,0.282024,0.277697,0.282024,0.286258,,,,,,,0.026859,-0.013464,-0.174734,0.027495,-2.4e-05,-6.3e-05
283177,0.026751,-0.018863,-0.273602,0.018073,-0.0,-0.0,2.0,0.282024,0.276174,0.282024,0.287705,,,,,,,0.027239,-0.013465,-0.174735,0.048453,-1.7e-05,-7.4e-05
283197,0.027131,-0.018934,-0.273595,0.018168,-0.0,-0.0,2.0,0.282024,0.277965,0.282024,0.286001,,,,,,,0.027861,-0.013465,-0.174736,0.0001,-2.4e-05,-7.3e-05
283217,0.027735,-0.018851,-0.273584,0.018217,-0.0,-0.0,2.0,0.282024,0.279009,0.282024,0.284994,,,,,,,0.028344,-0.013465,-0.174738,0.024197,-1.6e-05,-7.2e-05
283237,0.028098,-0.0188,-0.273578,0.018287,-0.0,-0.0,2.0,0.282024,0.277007,0.282024,0.286916,,,,,,,0.028707,-0.013466,-0.174739,0.024184,-1.1e-05,-7.1e-05
283257,0.028478,-0.018869,-0.273686,0.018412,-0.0,-0.0,2.0,0.282024,0.278041,0.282024,0.285928,,,,,,,0.029086,-0.013466,-0.174741,0.024377,-1.7e-05,-8.2e-05
283277,0.02872,-0.018836,-0.273682,0.018485,-0.0,-0.0,2.0,0.282024,0.274983,0.282024,0.288821,,,,,,,0.029329,-0.013466,-0.174742,0.024263,-1.4e-05,-8.1e-05
283297,0.028961,-0.018805,-0.273561,0.018587,-0.0,-0.0,2.0,0.282024,0.27761,0.282024,0.286341,,,,,,,0.029675,-0.013466,-0.174744,0.003219,-1.1e-05,-6.9e-05
283317,0.029085,-0.018787,-0.273724,0.018673,-0.0,-0.0,2.0,0.282024,0.276758,0.282024,0.287153,,,,,,,0.029813,-0.013467,-0.174745,0.00048,-9e-06,-8.5e-05
283337,0.029083,-0.018786,-0.273675,0.018771,-0.0,-0.0,2.0,0.282024,0.274608,0.282024,0.28917,,,,,,,0.029829,-0.013467,-0.174747,-0.00312,-9e-06,-8e-05
283357,0.029203,-0.018771,-0.273556,0.018863,-0.0,-0.0,2.0,0.282024,0.274823,0.282024,0.28897,,,,,,,0.029933,-0.013467,-0.174748,-2e-06,-8e-06,-6.8e-05
283377,0.029206,-0.01877,-0.273722,0.018955,-0.0,-0.0,2.0,0.282024,0.274415,0.282024,0.289349,,,,,,,0.029936,-0.013467,-0.17475,2e-06,-7e-06,-8.4e-05
283397,0.029204,-0.018769,-0.273673,0.019028,-0.0,-0.0,2.0,0.282024,0.274435,0.282024,0.289331,,,,,,,0.029934,-0.013467,-0.174751,1e-06,-7e-06,-7.9e-05
283417,0.029325,-0.018752,-0.273671,0.019098,-0.0,-0.0,2.0,0.282024,0.2727,0.282024,0.290925,,,,,,,0.029935,-0.013467,-0.174753,0.023983,-6e-06,-7.9e-05
283437,0.029448,-0.018737,-0.273718,0.019218,-0.0,-0.0,2.0,0.282024,0.277346,0.282024,0.286594,,,,,,,0.030178,-0.013468,-0.174755,9.9e-05,-4e-06,-8.3e-05
283457,0.029585,-0.018841,-0.273714,0.019271,-0.0,-0.0,2.0,0.282024,0.2752,0.282024,0.288618,,,,,,,0.030195,-0.013468,-0.174756,0.024086,-1.4e-05,-8.3e-05
283477,0.029706,-0.018824,-0.273712,0.019345,-0.0,-0.0,2.0,0.282024,0.275955,0.282024,0.287911,,,,,,,0.030437,-0.013468,-0.174758,-0.0,-1.3e-05,-8.2e-05
283497,0.029948,-0.018791,-0.273707,0.019399,-0.0,-0.0,2.0,0.282024,0.277115,0.282024,0.286813,,,,,,,0.030678,-0.013468,-0.17476,-1e-06,-9e-06,-8.2e-05
283517,0.030207,-0.018876,-0.273818,0.019532,-0.0,-0.0,2.0,0.282024,0.279515,0.282024,0.284501,,,,,,,0.030937,-0.013468,-0.174761,0.000113,-1.8e-05,-9.3e-05
283537,0.030569,-0.018828,-0.273695,0.019625,-0.0,-0.0,2.0,0.282024,0.276617,0.282024,0.287286,,,,,,,0.031058,-0.013469,-0.174763,0.04817,-1.3e-05,-8e-05
283557,0.03069,-0.018811,-0.273692,0.01972,-0.0,-0.0,2.0,0.282024,0.278892,0.282024,0.285107,,,,,,,0.03142,-0.013469,-0.174765,9.9e-05,-1.1e-05,-8e-05
283577,0.030932,-0.018778,-0.273688,0.019828,-0.0,-0.0,2.0,0.282024,0.278645,0.282024,0.285346,,,,,,,0.031663,-0.013469,-0.174766,-0.000176,-8e-06,-7.9e-05
283597,0.031296,-0.018726,-0.273797,0.01989,-0.0,-0.0,2.0,0.282024,0.27945,0.282024,0.284565,,,,,,,0.031904,-0.013469,-0.174768,0.024358,-3e-06,-9e-05
283617,0.031433,-0.01883,-0.273793,0.019954,-0.0,-0.0,2.0,0.282024,0.277048,0.282024,0.286877,,,,,,,0.032043,-0.01347,-0.17477,0.024085,-1.3e-05,-8.9e-05
283637,0.031433,-0.01883,-0.273793,0.020086,-0.0,-0.0,2.0,0.282024,0.275662,0.282024,0.288187,,,,,,,0.032164,-0.01347,-0.174772,-0.0001,-1.3e-05,-8.9e-05
283657,0.031554,-0.018813,-0.273791,0.020145,-0.0,-0.0,2.0,0.282024,0.278718,0.282024,0.285276,,,,,,,0.032267,-0.01347,-0.174773,0.0034,-1.1e-05,-8.9e-05
283677,0.031433,-0.01883,-0.273793,0.020266,-0.0,-0.0,2.0,0.282024,0.27566,0.282024,0.288188,,,,,,,0.032164,-0.01347,-0.174775,1e-06,-1.3e-05,-8.9e-05
283697,0.031554,-0.018813,-0.273791,0.020315,-0.0,-0.0,2.0,0.282024,0.277513,0.282024,0.286434,,,,,,,0.032284,-0.01347,-0.174777,-0.0,-1.1e-05,-8.8e-05
283717,0.031554,-0.018813,-0.273791,0.020407,-0.0,-0.0,2.0,0.282024,0.27695,0.282024,0.28697,,,,,,,0.032269,-0.01347,-0.174779,0.003142,-1.1e-05,-8.8e-05
283737,0.031555,-0.018811,-0.273908,0.020502,-0.0,-0.0,2.0,0.282024,0.276494,0.282024,0.287402,,,,,,,0.032164,-0.013471,-0.17478,0.024259,-1.1e-05,-0.0001
283757,0.031433,-0.01883,-0.273793,0.020615,-0.0,-0.0,2.0,0.282024,0.275343,0.282024,0.288485,,,,,,,0.032181,-0.013471,-0.174782,-0.0034,-1.3e-05,-8.8e-05
283777,0.031554,-0.018813,-0.273791,0.020682,-0.0,-0.0,2.0,0.282024,0.278929,0.282024,0.285071,,,,,,,0.032406,-0.013471,-0.174784,-0.024258,-1.1e-05,-8.8e-05
283797,0.031676,-0.018795,-0.273905,0.020752,-0.0,-0.0,2.0,0.282024,0.279621,0.282024,0.284398,,,,,,,0.032406,-0.013471,-0.174786,0.0001,-9e-06,-9.9e-05
283817,0.031676,-0.018795,-0.273905,0.020872,-0.0,-0.0,2.0,0.282024,0.277621,0.282024,0.286331,,,,,,,0.032406,-0.013472,-0.174788,0.0,-9e-06,-9.9e-05
283837,0.031918,-0.018761,-0.273901,0.02093,-0.0,-0.0,2.0,0.282024,0.278227,0.282024,0.285749,,,,,,,0.032511,-0.013472,-0.17479,0.027399,-6e-06,-9.8e-05
283857,0.032022,-0.018624,-0.2739,0.021008,-0.0,-0.0,2.0,0.282024,0.280449,0.282024,0.283587,,,,,,,0.032752,-0.013472,-0.174792,9.9e-05,8e-06,-9.8e-05
283877,0.03216,-0.018728,-0.273896,0.021103,-0.0,-0.0,2.0,0.282024,0.27832,0.282024,0.285659,,,,,,,0.032769,-0.013472,-0.174794,0.024083,-3e-06,-9.7e-05
283897,0.032159,-0.01873,-0.27378,0.021204,-0.0,-0.0,2.0,0.282024,0.278398,0.282024,0.285584,,,,,,,0.03289,-0.013472,-0.174796,-0.000172,-3e-06,-8.5e-05
283917,0.03228,-0.018711,-0.273894,0.021303,-0.0,-0.0,2.0,0.282024,0.278844,0.282024,0.285153,,,,,,,0.033011,-0.013472,-0.174798,-0.0,-1e-06,-9.7e-05
283937,0.03228,-0.018711,-0.273894,0.02135,-0.0,-0.0,2.0,0.282024,0.280603,0.282024,0.283435,,,,,,,0.033131,-0.013472,-0.1748,-0.023996,-1e-06,-9.6e-05
283957,0.032297,-0.018832,-0.273892,0.021409,-0.0,-0.0,2.0,0.282024,0.276555,0.282024,0.287345,,,,,,,0.033028,-0.013472,-0.174802,-9.9e-05,-1.3e-05,-9.6e-05
283977,0.03228,-0.018711,-0.273894,0.0215,-0.0,-0.0,2.0,0.282024,0.277942,0.282024,0.286023,,,,,,,0.033027,-0.013472,-0.174803,-0.003129,-1e-06,-9.6e-05
283997,0.03216,-0.018728,-0.273896,0.021662,-0.0,-0.0,2.0,0.282024,0.27999,0.282024,0.284037,,,,,,,0.03301,-0.013472,-0.174805,-0.023998,-3e-06,-9.6e-05
284017,0.032176,-0.018849,-0.273894,0.021708,-0.0,-0.0,2.0,0.282024,0.278754,0.282024,0.285241,,,,,,,0.032906,-0.013472,-0.174807,1.4e-05,-1.5e-05,-9.6e-05
284037,0.032055,-0.018865,-0.273897,0.02176,-0.0,-0.0,2.0,0.282024,0.277564,0.282024,0.286385,,,,,,,0.032786,-0.013473,-0.174809,1e-06,-1.6e-05,-9.6e-05
284057,0.031934,-0.018882,-0.273899,0.021893,-0.0,-0.0,2.0,0.282024,0.279222,0.282024,0.284787,,,,,,,0.032786,-0.013473,-0.174811,-0.024084,-1.8e-05,-9.6e-05
284077,0.032055,-0.018865,-0.273897,0.021985,-0.0,-0.0,2.0,0.282024,0.27855,0.282024,0.285438,,,,,,,0.032665,-0.013473,-0.174813,0.024084,-1.6e-05,-9.5e-05
284097,0.031934,-0.018882,-0.273899,0.02208,-0.0,-0.0,2.0,0.282024,0.278521,0.282024,0.285466,,,,,,,0.032665,-0.013474,-0.174815,0.0,-1.8e-05,-9.5e-05
284117,0.031934,-0.018882,-0.273899,0.022128,-0.0,-0.0,2.0,0.282024,0.280269,0.282024,0.283764,,,,,,,0.032785,-0.013474,-0.174817,-0.023897,-1.8e-05,-9.5e-05
284137,0.031918,-0.018761,-0.273901,0.022195,-0.0,-0.0,2.0,0.282024,0.2788,0.282024,0.285196,,,,,,,0.032665,-0.013474,-0.174819,-0.003316,-6e-06,-9.5e-05
284157,0.031934,-0.018882,-0.273899,0.022354,-0.0,-0.0,2.0,0.282024,0.2791,0.282024,0.284905,,,,,,,0.032665,-0.013475,-0.17482,-0.0,-1.8e-05,-9.5e-05
284177,0.031813,-0.018899,-0.273901,0.022431,-0.0,-0.0,2.0,0.282024,0.276664,0.282024,0.287242,,,,,,,0.032543,-0.013475,-0.174822,7.6e-05,-2e-05,-9.5e-05
284197,0.031813,-0.018899,-0.273901,0.022532,-0.0,-0.0,2.0,0.282024,0.279008,0.282024,0.284994,,,,,,,0.032544,-0.013475,-0.174824,-0.0,-1.9e-05,-9.5e-05
284217,0.031813,-0.018899,-0.273901,0.022613,-0.0,-0.0,2.0,0.282024,0.277927,0.282024,0.286038,,,,,,,0.032423,-0.013476,-0.174826,0.024084,-1.9e-05,-9.5e-05
284237,0.031693,-0.018916,-0.273904,0.022661,-0.0,-0.0,2.0,0.282024,0.278881,0.282024,0.285118,,,,,,,0.032423,-0.013476,-0.174828,0.0,-2.1e-05,-9.5e-05
284257,0.031676,-0.018795,-0.273905,0.022758,-0.0,-0.0,2.0,0.282024,0.278022,0.282024,0.285947,,,,,,,0.032407,-0.013476,-0.17483,-0.0001,-9e-06,-9.5e-05
284277,0.031659,-0.018674,-0.273907,0.022853,-0.0,-0.0,2.0,0.282024,0.278964,0.282024,0.285037,,,,,,,0.03239,-0.013477,-0.174832,-1.4e-05,3e-06,-9.5e-05
284297,0.031659,-0.018674,-0.273907,0.022899,-0.0,-0.0,2.0,0.282024,0.279434,0.282024,0.284581,,,,,,,0.03239,-0.013476,-0.174834,-0.0,3e-06,-9.4e-05
284317,0.031538,-0.01869,-0.273909,0.023058,-0.0,-0.0,2.0,0.282024,0.277028,0.282024,0.286896,,,,,,,0.032269,-0.013476,-0.174835,-9.9e-05,1e-06,-9.4e-05
284337,0.031555,-0.018811,-0.273908,0.023058,-0.0,-0.0,2.0,0.282024,0.279724,0.282024,0.284297,,,,,,,0.032285,-0.013476,-0.174837,1.4e-05,-1.1e-05,-9.4e-05
284357,0.031555,-0.018811,-0.273908,0.023221,-0.0,-0.0,2.0,0.282024,0.27898,0.282024,0.285022,,,,,,,0.032164,-0.013477,-0.174839,0.024084,-1.1e-05,-9.4e-05
284377,0.031296,-0.018724,-0.273914,0.023289,-0.0,-0.0,2.0,0.282024,0.27885,0.282024,0.285147,,,,,,,0.032148,-0.013477,-0.174841,-0.024098,-2e-06,-9.4e-05
284397,0.031297,-0.018722,-0.27403,0.023356,-0.0,-0.0,2.0,0.282024,0.277454,0.282024,0.28649,,,,,,,0.032028,-0.013477,-0.174843,-9.9e-05,-2e-06,-0.000106
284417,0.031297,-0.018722,-0.27403,0.023464,-0.0,-0.0,2.0,0.282024,0.279514,0.282024,0.284503,,,,,,,0.032028,-0.013477,-0.174845,1e-06,-2e-06,-0.000105
284437,0.031176,-0.018741,-0.273916,0.023556,-0.0,-0.0,2.0,0.282024,0.27857,0.282024,0.285419,,,,,,,0.031906,-0.013477,-0.174847,1.4e-05,-4e-06,-9.4e-05
284457,0.031159,-0.01862,-0.273918,0.023649,-0.0,-0.0,2.0,0.282024,0.278911,0.282024,0.285089,,,,,,,0.031889,-0.013477,-0.174849,-0.0,9e-06,-9.4e-05
284477,0.031039,-0.018634,-0.274036,0.023754,-0.0,-0.0,2.0,0.282024,0.280231,0.282024,0.283801,,,,,,,0.03189,-0.013477,-0.174851,-0.024083,7e-06,-0.000106
284497,0.031056,-0.018755,-0.274035,0.023754,-0.0,-0.0,2.0,0.282024,0.27958,0.282024,0.284438,,,,,,,0.031786,-0.013477,-0.174853,1e-06,-5e-06,-0.000105
284517,0.030935,-0.018772,-0.274037,0.02392,-0.0,-0.0,2.0,0.282024,0.278491,0.282024,0.285494,,,,,,,0.031665,-0.013477,-0.174855,1e-06,-7e-06,-0.000105
284537,0.030814,-0.018789,-0.274039,0.023979,-0.0,-0.0,2.0,0.282024,0.279308,0.282024,0.284703,,,,,,,0.031648,-0.013477,-0.174857,-0.020779,-8e-06,-0.000105
284557,0.030797,-0.018668,-0.274041,0.024066,-0.0,-0.0,2.0,0.282024,0.279383,0.282024,0.28463,,,,,,,0.031527,-0.013477,-0.174859,-0.0,4e-06,-0.000105
284577,0.030796,-0.01867,-0.273925,0.024143,-0.0,-0.0,2.0,0.282024,0.277356,0.282024,0.286584,,,,,,,0.031406,-0.013477,-0.174861,0.023985,4e-06,-9.3e-05
284597,0.030675,-0.018687,-0.273927,0.024261,-0.0,-0.0,2.0,0.282024,0.279916,0.282024,0.284109,,,,,,,0.031527,-0.013477,-0.174863,-0.024259,2e-06,-9.3e-05
284617,0.03078,-0.018547,-0.274043,0.024352,-0.0,-0.0,2.0,0.282024,0.27923,0.282024,0.284779,,,,,,,0.03139,-0.013477,-0.174865,0.02407,1.6e-05,-0.000105
284637,0.030676,-0.018685,-0.274043,0.024445,-0.0,-0.0,2.0,0.282024,0.279575,0.282024,0.284443,,,,,,,0.031407,-0.013477,-0.174867,0.0,2e-06,-0.000105
284657,0.030572,-0.018822,-0.274044,0.024493,-0.0,-0.0,2.0,0.282024,0.280151,0.282024,0.28388,,,,,,,0.031423,-0.013477,-0.17487,-0.02407,-1.2e-05,-0.000104
284677,0.030676,-0.018685,-0.274043,0.024493,-0.0,-0.0,2.0,0.282024,0.280795,0.282024,0.283246,,,,,,,0.031407,-0.013477,-0.174872,-1e-06,2e-06,-0.000104
284697,0.030539,-0.01858,-0.274047,0.024654,-0.0,-0.0,2.0,0.282024,0.279345,0.282024,0.284667,,,,,,,0.031286,-0.013477,-0.174874,-0.003318,1.2e-05,-0.000104
284717,0.030538,-0.018582,-0.273931,0.024787,-0.0,-0.0,2.0,0.282024,0.28014,0.282024,0.283891,,,,,,,0.031285,-0.013476,-0.174876,-0.003303,1.2e-05,-9.2e-05
284737,0.030539,-0.01858,-0.274047,0.024854,-0.0,-0.0,2.0,0.282024,0.279925,0.282024,0.284102,,,,,,,0.031269,-0.013476,-0.174878,-0.0,1.2e-05,-0.000104
284757,0.030539,-0.01858,-0.274047,0.024977,-0.0,-0.0,2.0,0.282024,0.279354,0.282024,0.284659,,,,,,,0.031148,-0.013476,-0.17488,0.024084,1.2e-05,-0.000104
284777,0.030434,-0.018718,-0.274048,0.025031,-0.0,-0.0,2.0,0.282024,0.279172,0.282024,0.284835,,,,,,,0.031165,-0.013476,-0.174882,0.0,-1e-06,-0.000104
284797,0.030434,-0.018718,-0.274048,0.025123,-0.0,-0.0,2.0,0.282024,0.281123,0.282024,0.282922,,,,,,,0.031286,-0.013476,-0.174884,-0.024084,-1e-06,-0.000103
284817,0.030555,-0.018701,-0.274045,0.025215,-0.0,-0.0,2.0,0.282024,0.279735,0.282024,0.284287,,,,,,,0.031165,-0.013476,-0.174886,0.024084,0.0,-0.000103
284837,0.030434,-0.018718,-0.274048,0.025321,-0.0,-0.0,2.0,0.282024,0.281195,0.282024,0.28285,,,,,,,0.031181,-0.013476,-0.174888,-0.003204,-1e-06,-0.000103
284857,0.030313,-0.018735,-0.27405,0.025394,-0.0,-0.0,2.0,0.282024,0.280015,0.282024,0.284013,,,,,,,0.031165,-0.013476,-0.17489,-0.024084,-3e-06,-0.000103
284877,0.030313,-0.018735,-0.27405,0.025465,-0.0,-0.0,2.0,0.282024,0.279708,0.282024,0.284313,,,,,,,0.031044,-0.013476,-0.174892,0.0,-3e-06,-0.000103
284897,0.030313,-0.018735,-0.27405,0.025581,-0.0,-0.0,2.0,0.282024,0.281173,0.282024,0.282872,,,,,,,0.031043,-0.013476,-0.174894,0.0001,-3e-06,-0.000103
284917,0.030192,-0.018751,-0.274052,0.025649,-0.0,-0.0,2.0,0.282024,0.280057,0.282024,0.283972,,,,,,,0.031044,-0.013476,-0.174896,-0.024084,-5e-06,-0.000103
284937,0.030313,-0.018735,-0.27405,0.025716,-0.0,-0.0,2.0,0.282024,0.280366,0.282024,0.283668,,,,,,,0.031044,-0.013476,-0.174898,-0.0,-3e-06,-0.000102
284957,0.030313,-0.018735,-0.27405,0.025827,-0.0,-0.0,2.0,0.282024,0.281861,0.282024,0.282188,,,,,,,0.031043,-0.013476,-0.1749,9.9e-05,-3e-06,-0.000102
284977,0.030192,-0.018751,-0.274052,0.025919,-0.0,-0.0,2.0,0.282024,0.279534,0.282024,0.284483,,,,,,,0.030923,-0.013476,-0.174902,0.0,-5e-06,-0.000102
284997,0.030192,-0.018751,-0.274052,0.026013,-0.0,-0.0,2.0,0.282024,0.28,0.282024,0.284028,,,,,,,0.030923,-0.013477,-0.174904,-0.0,-5e-06,-0.000102
285017,0.030192,-0.018751,-0.274052,0.026061,-0.0,-0.0,2.0,0.282024,0.280056,0.282024,0.283973,,,,,,,0.030923,-0.013477,-0.174906,-0.0,-5e-06,-0.000102
285037,0.030072,-0.018768,-0.274054,0.026127,-0.0,-0.0,2.0,0.282024,0.277622,0.282024,0.286329,,,,,,,0.030802,-0.013477,-0.174908,-9.9e-05,-6e-06,-0.000102
285057,0.030088,-0.018889,-0.274053,0.026214,-0.0,-0.0,2.0,0.282024,0.278094,0.282024,0.285877,,,,,,,0.030802,-0.013477,-0.17491,0.003219,-1.8e-05,-0.000101
285077,0.030088,-0.018889,-0.274053,0.026214,-0.0,-0.0,2.0,0.282024,0.282376,0.282024,0.281671,,,,,,,0.030939,-0.013477,-0.174912,-0.023985,-1.8e-05,-0.000101
285097,0.030072,-0.018768,-0.274054,0.026419,-0.0,-0.0,2.0,0.282024,0.279876,0.282024,0.284149,,,,,,,0.030819,-0.013478,-0.174915,-0.003318,-6e-06,-0.000101
285117,0.030072,-0.018768,-0.274054,0.02655,-0.0,-0.0,2.0,0.282024,0.279362,0.282024,0.284651,,,,,,,0.030802,-0.013478,-0.174917,1e-06,-6e-06,-0.000101
285137,0.030072,-0.018766,-0.274171,0.026629,-0.0,-0.0,2.0,0.282024,0.279999,0.282024,0.284029,,,,,,,0.030803,-0.013478,-0.174919,1e-06,-6e-06,-0.000112
285157,0.029952,-0.018783,-0.274173,0.026686,-0.0,-0.0,2.0,0.282024,0.279391,0.282024,0.284622,,,,,,,0.030682,-0.013478,-0.174921,1e-06,-8e-06,-0.000112
285177,0.02983,-0.018802,-0.274059,0.02678,-0.0,-0.0,2.0,0.282024,0.278661,0.282024,0.28533,,,,,,,0.03056,-0.013478,-0.174923,-0.0,-9e-06,-0.000101
285197,0.02983,-0.018802,-0.274059,0.026871,-0.0,-0.0,2.0,0.282024,0.281027,0.282024,0.283016,,,,,,,0.030681,-0.013478,-0.174925,-0.024085,-9e-06,-0.0001
285217,0.029831,-0.0188,-0.274175,0.026963,-0.0,-0.0,2.0,0.282024,0.27969,0.282024,0.284331,,,,,,,0.030561,-0.013478,-0.174927,-0.0,-9e-06,-0.000112
285237,0.029831,-0.0188,-0.274175,0.027009,-0.0,-0.0,2.0,0.282024,0.27992,0.282024,0.284106,,,,,,,0.030561,-0.013479,-0.174929,1e-06,-9e-06,-0.000112
285257,0.029831,-0.0188,-0.274175,0.027085,-0.0,-0.0,2.0,0.282024,0.279925,0.282024,0.284101,,,,,,,0.030561,-0.013479,-0.174932,0.0,-9e-06,-0.000111
285277,0.02971,-0.018816,-0.274178,0.027242,-0.0,-0.0,2.0,0.282024,0.280433,0.282024,0.283602,,,,,,,0.030561,-0.013479,-0.174934,-0.024084,-1.1e-05,-0.000111
285297,0.02971,-0.018816,-0.274178,0.027328,-0.0,-0.0,2.0,0.282024,0.279559,0.282024,0.284459,,,,,,,0.03044,-0.013479,-0.174936,0.0,-1.1e-05,-0.000111
285317,0.029692,-0.018697,-0.274063,0.027402,-0.0,-0.0,2.0,0.282024,0.280021,0.282024,0.284007,,,,,,,0.030439,-0.013479,-0.174938,-0.003305,1e-06,-9.9e-05
285337,0.029572,-0.018712,-0.274181,0.027463,-0.0,-0.0,2.0,0.282024,0.280174,0.282024,0.283857,,,,,,,0.030424,-0.013479,-0.17494,-0.024098,-0.0,-0.000111
285357,0.029605,-0.018954,-0.274178,0.027605,-0.0,-0.0,2.0,0.282024,0.279551,0.282024,0.284466,,,,,,,0.030319,-0.01348,-0.174942,0.00332,-2.5e-05,-0.000111
285377,0.029605,-0.018954,-0.274178,0.027653,-0.0,-0.0,2.0,0.282024,0.281008,0.282024,0.283035,,,,,,,0.030334,-0.01348,-0.174945,0.000278,-2.5e-05,-0.00011
285397,0.029501,-0.019092,-0.274179,0.027746,-0.0,-0.0,2.0,0.282024,0.281881,0.282024,0.282167,,,,,,,0.030456,-0.013481,-0.174947,-0.044763,-3.8e-05,-0.00011
285417,0.029726,-0.018937,-0.274176,0.027794,-0.0,-0.0,2.0,0.282024,0.279783,0.282024,0.28424,,,,,,,0.030336,-0.013481,-0.174949,0.024084,-2.3e-05,-0.00011
285437,0.029605,-0.018954,-0.274178,0.027875,-0.0,-0.0,2.0,0.282024,0.278794,0.282024,0.285202,,,,,,,0.030336,-0.013482,-0.174951,1e-06,-2.4e-05,-0.00011
285457,0.029468,-0.01885,-0.274182,0.027981,-0.0,-0.0,2.0,0.282024,0.279387,0.282024,0.284627,,,,,,,0.030319,-0.013482,-0.174953,-0.024084,-1.4e-05,-0.00011
285477,0.029468,-0.01885,-0.274182,0.028112,-0.0,-0.0,2.0,0.282024,0.279252,0.282024,0.284758,,,,,,,0.030198,-0.013482,-0.174956,0.0,-1.4e-05,-0.00011
285497,0.029485,-0.018971,-0.274181,0.028159,-0.0,-0.0,2.0,0.282024,0.281339,0.282024,0.282707,,,,,,,0.030198,-0.013483,-0.174958,0.00342,-2.6e-05,-0.000109
285517,0.029364,-0.018987,-0.274183,0.028295,-0.0,-0.0,2.0,0.282024,0.277216,0.282024,0.286717,,,,,,,0.030095,-0.013483,-0.17496,-9.9e-05,-2.8e-05,-0.000109
285537,0.029485,-0.018971,-0.274181,0.028342,-0.0,-0.0,2.0,0.282024,0.279813,0.282024,0.284211,,,,,,,0.030215,-0.013484,-0.174962,-1.4e-05,-2.6e-05,-0.000109
285557,0.029485,-0.018971,-0.274181,0.028434,-0.0,-0.0,2.0,0.282024,0.279505,0.282024,0.284511,,,,,,,0.030215,-0.013484,-0.174964,-0.0,-2.6e-05,-0.000109
285577,0.029468,-0.01885,-0.274182,0.028528,-0.0,-0.0,2.0,0.282024,0.279367,0.282024,0.284646,,,,,,,0.030198,-0.013485,-0.174966,0.0,-1.4e-05,-0.000109
285597,0.02933,-0.018746,-0.274186,0.028577,-0.0,-0.0,2.0,0.282024,0.279041,0.282024,0.284963,,,,,,,0.030182,-0.013485,-0.174969,-0.024097,-3e-06,-0.000109
285617,0.029347,-0.018867,-0.274184,0.028716,-0.0,-0.0,2.0,0.282024,0.278922,0.282024,0.285078,,,,,,,0.030061,-0.013485,-0.174971,0.003319,-1.5e-05,-0.000108
285637,0.029209,-0.018762,-0.274188,0.028779,-0.0,-0.0,2.0,0.282024,0.278913,0.282024,0.285087,,,,,,,0.029956,-0.013485,-0.174973,-0.003305,-5e-06,-0.000108
285657,0.029226,-0.018883,-0.274186,0.028906,-0.0,-0.0,2.0,0.282024,0.279221,0.282024,0.284788,,,,,,,0.029956,-0.013485,-0.174975,-0.0,-1.7e-05,-0.000108
285677,0.029243,-0.019004,-0.274185,0.028951,-0.0,-0.0,2.0,0.282024,0.278332,0.282024,0.285648,,,,,,,0.029974,-0.013486,-0.174977,-8.6e-05,-2.9e-05,-0.000108
285697,0.029347,-0.018867,-0.274184,0.029043,-0.0,-0.0,2.0,0.282024,0.278977,0.282024,0.285024,,,,,,,0.029956,-0.013486,-0.174979,0.024084,-1.5e-05,-0.000107
285717,0.02933,-0.018746,-0.274186,0.02915,-0.0,-0.0,2.0,0.282024,0.279434,0.282024,0.28458,,,,,,,0.030077,-0.013487,-0.174981,-0.003319,-3e-06,-0.000107
285737,0.02933,-0.018746,-0.274186,0.029242,-0.0,-0.0,2.0,0.282024,0.279083,0.282024,0.284922,,,,,,,0.030061,-0.013487,-0.174984,0.0,-3e-06,-0.000107
285757,0.029193,-0.018641,-0.27419,0.029337,-0.0,-0.0,2.0,0.282024,0.278399,0.282024,0.285584,,,,,,,0.02994,-0.013487,-0.174986,-0.00332,7e-06,-0.000107
285777,0.029072,-0.018658,-0.274192,0.029397,-0.0,-0.0,2.0,0.282024,0.27769,0.282024,0.286265,,,,,,,0.029818,-0.013487,-0.174988,-0.003142,6e-06,-0.000107
285797,0.029089,-0.018779,-0.27419,0.029447,-0.0,-0.0,2.0,0.282024,0.279112,0.282024,0.284893,,,,,,,0.029819,-0.013487,-0.17499,1.4e-05,-6e-06,-0.000107
285817,0.029209,-0.018762,-0.274188,0.029558,-0.0,-0.0,2.0,0.282024,0.281296,0.282024,0.28275,,,,,,,0.029939,-0.013487,-0.174992,9.9e-05,-5e-06,-0.000107
285837,0.029209,-0.018762,-0.274188,0.029618,-0.0,-0.0,2.0,0.282024,0.278411,0.282024,0.285572,,,,,,,0.029819,-0.013487,-0.174994,0.024084,-5e-06,-0.000106
285857,0.029193,-0.018641,-0.27419,0.029757,-0.0,-0.0,2.0,0.282024,0.278979,0.282024,0.285022,,,,,,,0.029923,-0.013487,-0.174996,0.0,7e-06,-0.000106
285877,0.029314,-0.018625,-0.274187,0.029821,-0.0,-0.0,2.0,0.282024,0.280026,0.282024,0.284002,,,,,,,0.030044,-0.013487,-0.174998,-1e-06,9e-06,-0.000106
285897,0.029297,-0.018504,-0.274189,0.029926,-0.0,-0.0,2.0,0.282024,0.278831,0.282024,0.285166,,,,,,,0.030044,-0.013487,-0.175001,-0.003319,2.1e-05,-0.000106
285917,0.029071,-0.01866,-0.274075,0.030018,-0.0,-0.0,2.0,0.282024,0.275059,0.282024,0.28875,,,,,,,0.029802,-0.013486,-0.175003,-0.0001,5e-06,-9.4e-05
285937,0.028951,-0.018675,-0.274194,0.030112,-0.0,-0.0,2.0,0.282024,0.278269,0.282024,0.285708,,,,,,,0.029802,-0.013486,-0.175005,-0.024084,4e-06,-0.000106
285957,0.029089,-0.018779,-0.27419,0.030204,-0.0,-0.0,2.0,0.282024,0.278347,0.282024,0.285634,,,,,,,0.029698,-0.013486,-0.175007,0.024084,-6e-06,-0.000105
285977,0.028968,-0.018796,-0.274192,0.030204,-0.0,-0.0,2.0,0.282024,0.27811,0.282024,0.285861,,,,,,,0.029698,-0.013486,-0.175009,0.0,-8e-06,-0.000105
285997,0.029072,-0.018658,-0.274192,0.030301,-0.0,-0.0,2.0,0.282024,0.277637,0.282024,0.286316,,,,,,,0.029803,-0.013486,-0.175011,-0.0001,6e-06,-0.000105
286017,0.029314,-0.018625,-0.274187,0.030465,-0.0,-0.0,2.0,0.282024,0.281372,0.282024,0.282675,,,,,,,0.030044,-0.013486,-0.175013,9.9e-05,9e-06,-0.000104
286037,0.029313,-0.018627,-0.274071,0.030529,-0.0,-0.0,2.0,0.282024,0.279188,0.282024,0.28482,,,,,,,0.030044,-0.013486,-0.175015,-0.000176,9e-06,-9.3e-05
286057,0.029192,-0.018643,-0.274073,0.030601,-0.0,-0.0,2.0,0.282024,0.276149,0.282024,0.287729,,,,,,,0.029923,-0.013486,-0.175017,-8.6e-05,7e-06,-9.3e-05
286077,0.029193,-0.018641,-0.27419,0.030731,-0.0,-0.0,2.0,0.282024,0.27997,0.282024,0.284057,,,,,,,0.030044,-0.013486,-0.175019,-0.023984,7e-06,-0.000104
286097,0.029193,-0.018641,-0.27419,0.030791,-0.0,-0.0,2.0,0.282024,0.277358,0.282024,0.286582,,,,,,,0.029801,-0.013485,-0.175021,0.02426,7e-06,-0.000104
286117,0.029072,-0.018658,-0.274192,0.030883,-0.0,-0.0,2.0,0.282024,0.275263,0.282024,0.28856,,,,,,,0.029682,-0.013485,-0.175023,0.023985,6e-06,-0.000104
286137,0.029072,-0.018658,-0.274192,0.030977,-0.0,-0.0,2.0,0.282024,0.27811,0.282024,0.285861,,,,,,,0.029802,-0.013485,-0.175025,-0.0,6e-06,-0.000104
286157,0.029314,-0.018625,-0.274187,0.031076,-0.0,-0.0,2.0,0.282024,0.280425,0.282024,0.28361,,,,,,,0.029923,-0.013485,-0.175027,0.024184,9e-06,-0.000103
286177,0.029314,-0.018625,-0.274187,0.031137,-0.0,-0.0,2.0,0.282024,0.277211,0.282024,0.286722,,,,,,,0.029923,-0.013485,-0.175029,0.024085,9e-06,-0.000103
286197,0.029192,-0.018643,-0.274073,0.03121,-0.0,-0.0,2.0,0.282024,0.278117,0.282024,0.285855,,,,,,,0.030044,-0.013485,-0.175031,-0.02426,7e-06,-9.1e-05
286217,0.029314,-0.018625,-0.274187,0.031318,-0.0,-0.0,2.0,0.282024,0.278165,0.282024,0.285809,,,,,,,0.030044,-0.013485,-0.175033,-0.0,9e-06,-0.000102
286237,0.029193,-0.018641,-0.27419,0.031388,-0.0,-0.0,2.0,0.282024,0.276378,0.282024,0.287512,,,,,,,0.029923,-0.013484,-0.175035,-1.2e-05,7e-06,-0.000102
286257,0.029072,-0.018658,-0.274192,0.031459,-0.0,-0.0,2.0,0.282024,0.277534,0.282024,0.286414,,,,,,,0.029923,-0.013484,-0.175037,-0.024084,5e-06,-0.000102
286277,0.029209,-0.018762,-0.274188,0.031578,-0.0,-0.0,2.0,0.282024,0.278503,0.282024,0.285483,,,,,,,0.029923,-0.013484,-0.175039,0.003319,-5e-06,-0.000102
286297,0.029314,-0.018625,-0.274187,0.031686,-0.0,-0.0,2.0,0.282024,0.278527,0.282024,0.28546,,,,,,,0.029923,-0.013484,-0.175041,0.02417,9e-06,-0.000102
286317,0.02933,-0.018746,-0.274186,0.03178,-0.0,-0.0,2.0,0.282024,0.278035,0.282024,0.285934,,,,,,,0.030061,-0.013484,-0.175043,-0.0,-3e-06,-0.000101
286337,0.029435,-0.018608,-0.274185,0.031828,-0.0,-0.0,2.0,0.282024,0.278662,0.282024,0.28533,,,,,,,0.030165,-0.013484,-0.175045,-1e-06,1e-05,-0.000101
286357,0.029555,-0.018591,-0.274183,0.031895,-0.0,-0.0,2.0,0.282024,0.279967,0.282024,0.28406,,,,,,,0.030285,-0.013484,-0.175047,9.9e-05,1.2e-05,-0.000101
286377,0.029572,-0.018712,-0.274181,0.031991,-0.0,-0.0,2.0,0.282024,0.277752,0.282024,0.286205,,,,,,,0.030303,-0.013484,-0.175049,-0.0,0.0,-0.0001
286397,0.029572,-0.018712,-0.274181,0.032096,-0.0,-0.0,2.0,0.282024,0.275805,0.282024,0.288052,,,,,,,0.030303,-0.013484,-0.175051,-8.6e-05,-0.0,-0.0001
286417,0.029555,-0.018591,-0.274183,0.032146,-0.0,-0.0,2.0,0.282024,0.279269,0.282024,0.284741,,,,,,,0.030406,-0.013483,-0.175053,-0.023997,1.2e-05,-0.0001
286437,0.029555,-0.018591,-0.274183,0.032244,-0.0,-0.0,2.0,0.282024,0.277118,0.282024,0.28681,,,,,,,0.030303,-0.013483,-0.175055,-0.003319,1.2e-05,-0.0001
286457,0.029555,-0.018591,-0.274183,0.032368,-0.0,-0.0,2.0,0.282024,0.276465,0.282024,0.28743,,,,,,,0.030286,-0.013483,-0.175057,1e-06,1.2e-05,-0.0001
286477,0.029676,-0.018575,-0.274181,0.032474,-0.0,-0.0,2.0,0.282024,0.278274,0.282024,0.285704,,,,,,,0.030407,-0.013483,-0.175059,-1e-06,1.4e-05,-9.9e-05
286497,0.029797,-0.018558,-0.274179,0.032566,-0.0,-0.0,2.0,0.282024,0.277149,0.282024,0.286781,,,,,,,0.030407,-0.013483,-0.175061,0.024084,1.5e-05,-9.9e-05
286517,0.029797,-0.018558,-0.274179,0.032614,-0.0,-0.0,2.0,0.282024,0.278526,0.282024,0.285461,,,,,,,0.030527,-0.013482,-0.175063,0.0001,1.5e-05,-9.9e-05
286537,0.029797,-0.018558,-0.274179,0.032717,-0.0,-0.0,2.0,0.282024,0.277034,0.282024,0.286891,,,,,,,0.030528,-0.013482,-0.175065,0.0,1.5e-05,-9.8e-05
286557,0.029918,-0.018541,-0.274176,0.032773,-0.0,-0.0,2.0,0.282024,0.279348,0.282024,0.284665,,,,,,,0.030648,-0.013482,-0.175067,9.9e-05,1.7e-05,-9.8e-05
286577,0.029918,-0.018541,-0.274176,0.03288,-0.0,-0.0,2.0,0.282024,0.277611,0.282024,0.28634,,,,,,,0.030649,-0.013481,-0.175069,-1e-06,1.7e-05,-9.8e-05
286597,0.029919,-0.018539,-0.274293,0.033004,-0.0,-0.0,2.0,0.282024,0.274356,0.282024,0.289403,,,,,,,0.030528,-0.013481,-0.175071,0.024157,1.7e-05,-0.000109
286617,0.029918,-0.018541,-0.274176,0.033081,-0.0,-0.0,2.0,0.282024,0.276509,0.282024,0.287389,,,,,,,0.030633,-0.013481,-0.175073,0.003134,1.7e-05,-9.7e-05
286637,0.029902,-0.018418,-0.274294,0.033143,-0.0,-0.0,2.0,0.282024,0.276459,0.282024,0.287436,,,,,,,0.030632,-0.01348,-0.175075,0.000171,2.9e-05,-0.000109
286657,0.029918,-0.018541,-0.274176,0.033252,-0.0,-0.0,2.0,0.282024,0.278047,0.282024,0.285923,,,,,,,0.030648,-0.01348,-0.175077,0.000114,1.7e-05,-9.7e-05
286677,0.029918,-0.018541,-0.274176,0.033343,-0.0,-0.0,2.0,0.282024,0.276539,0.282024,0.28736,,,,,,,0.030649,-0.013479,-0.175079,0.0,1.7e-05,-9.7e-05
286697,0.029918,-0.018541,-0.274176,0.033435,-0.0,-0.0,2.0,0.282024,0.276699,0.282024,0.287209,,,,,,,0.030665,-0.013479,-0.175081,-0.003305,1.7e-05,-9.7e-05
286717,0.029935,-0.018662,-0.274175,0.033487,-0.0,-0.0,2.0,0.282024,0.277564,0.282024,0.286385,,,,,,,0.030665,-0.013479,-0.175083,0.0001,5e-06,-9.6e-05
286737,0.029935,-0.018662,-0.274175,0.03361,-0.0,-0.0,2.0,0.282024,0.276279,0.282024,0.287606,,,,,,,0.030665,-0.013479,-0.175085,0.0,5e-06,-9.6e-05
286757,0.029935,-0.018662,-0.274175,0.03366,-0.0,-0.0,2.0,0.282024,0.274925,0.282024,0.288875,,,,,,,0.030666,-0.013479,-0.175087,-0.0001,5e-06,-9.6e-05
