time_ms,roll,pitch,yaw,reference_roll,reference_pitch,reference_yaw,reference_throttle,throttle_1,throttle_2,throttle_3,throttle_4,roll_predicted,pitch_predicted,yaw_predicted,roll_rate_predicted,pitch_rate_predicted,yaw_rate_predicted,value1,value2,value3,value4,value5,value6
246157,-0.00036,-0.018662,-0.276739,0.0,-0.0,-0.0,2.0,0.282024,0.284308,0.282024,0.279713,,,,,,,0.000369,-0.013246,-0.177065,0.024307,-1.7e-05,-0.000154
246177,-0.000119,-0.018628,-0.27662,1e-06,-0.0,-0.0,2.0,0.282024,0.2859,0.282024,0.27807,,,,,,,0.000491,-0.013246,-0.177068,-0.000126,-1.7e-05,-0.000142
246197,-0.000119,-0.018628,-0.27662,9.5e-05,-0.0,-0.0,2.0,0.282024,0.282172,0.282024,0.281876,,,,,,,0.000492,-0.013247,-0.177071,-0.000324,-1.7e-05,-0.000142
246217,-0.000239,-0.018645,-0.276738,0.000187,-0.0,-0.0,2.0,0.282024,0.284284,0.282024,0.279737,,,,,,,0.000611,-0.013247,-0.177074,0.000225,-1.5e-05,-0.000153
246237,-0.000256,-0.018524,-0.276738,0.000264,-0.0,-0.0,2.0,0.282024,0.282815,0.282024,0.28123,,,,,,,0.000474,-0.013247,-0.177077,-0.000237,-5e-06,-0.000141
246257,-0.000377,-0.018541,-0.276738,0.000344,-0.0,-0.0,2.0,0.282024,0.281526,0.282024,0.282521,,,,,,,0.000371,-0.013247,-0.17708,-0.003438,-6e-06,-0.000153
246277,-0.000498,-0.018558,-0.27674,0.000344,-0.0,-0.0,2.0,0.282024,0.283437,0.282024,0.280601,,,,,,,0.000354,-0.013247,-0.177083,1e-06,-6e-06,-0.000153
246297,-0.000256,-0.018524,-0.276738,0.000465,-0.0,-0.0,2.0,0.282024,0.284093,0.282024,0.279933,,,,,,,0.000352,-0.013248,-0.177086,-1e-06,-6e-06,-0.000141
246317,-0.000273,-0.018403,-0.276737,0.000625,-0.0,-0.0,2.0,0.282024,0.281943,0.282024,0.282105,,,,,,,0.000354,-0.013248,-0.177089,0.020644,7e-06,-0.000152
246337,-0.000273,-0.018403,-0.276737,0.000698,-0.0,-0.0,2.0,0.282024,0.285995,0.282024,0.277971,,,,,,,0.000578,-0.013247,-0.177092,9.9e-05,9e-06,-0.000151
246357,-0.000169,-0.018265,-0.276736,0.000751,-0.0,-0.0,2.0,0.282024,0.285208,0.282024,0.278788,,,,,,,0.000561,-0.013247,-0.177095,9.9e-05,2.1e-05,-0.000151
246377,-0.000152,-0.018386,-0.276736,0.000858,-0.0,-0.0,2.0,0.282024,0.281501,0.282024,0.282546,,,,,,,0.000458,-0.013247,-0.177098,0.023997,9e-06,-0.000151
246397,-0.000377,-0.018541,-0.276738,0.000954,-0.0,-0.0,2.0,0.282024,0.283486,0.282024,0.280552,,,,,,,0.000578,-0.013247,-0.177101,-0.024082,7e-06,-0.000151
246417,-0.000394,-0.01842,-0.276738,0.001051,-0.0,-0.0,2.0,0.282024,0.282238,0.282024,0.28181,,,,,,,0.000337,-0.013247,-0.177104,0.0,6e-06,-0.00015
246437,-0.000531,-0.018316,-0.276739,0.001144,-0.0,-0.0,2.0,0.282024,0.281832,0.282024,0.282216,,,,,,,0.000216,-0.013247,-0.177107,-0.003352,1.6e-05,-0.00015
246457,-0.000531,-0.018316,-0.276739,0.001193,-0.0,-0.0,2.0,0.282024,0.285257,0.282024,0.278737,,,,,,,0.000319,-0.013246,-0.17711,-0.023983,1.6e-05,-0.00015
246477,-0.000306,-0.018161,-0.276737,0.001262,-0.0,-0.0,2.0,0.282024,0.283896,0.282024,0.280134,,,,,,,0.000303,-0.013246,-0.177113,-0.0,3e-05,-0.000149
246497,-0.000306,-0.018161,-0.276737,0.001365,-0.0,-0.0,2.0,0.282024,0.283668,0.282024,0.280367,,,,,,,0.000424,-0.013245,-0.177116,-0.0,3.1e-05,-0.000149
246517,-0.000186,-0.018144,-0.276736,0.00149,-0.0,-0.0,2.0,0.282024,0.28423,0.282024,0.279793,,,,,,,0.000545,-0.013244,-0.177119,0.003352,2.1e-05,-0.000149
246537,-4.8e-05,-0.018248,-0.276735,0.001559,-0.0,-0.0,2.0,0.282024,0.285545,0.282024,0.278439,,,,,,,0.000682,-0.013244,-0.177122,9.9e-05,2.2e-05,-0.000148
246557,-0.000169,-0.018265,-0.276736,0.001654,-0.0,-0.0,2.0,0.282024,0.281817,0.282024,0.282232,,,,,,,0.000562,-0.013244,-0.177125,-0.024082,1.9e-05,-0.000148
246577,-0.000548,-0.018195,-0.276739,0.001748,-0.0,-0.0,2.0,0.282024,0.280595,0.282024,0.283443,,,,,,,0.000441,-0.013243,-0.177128,-0.024182,1.7e-05,-0.000148
246597,-0.000548,-0.018195,-0.276739,0.001841,-0.0,-0.0,2.0,0.282024,0.281325,0.282024,0.282721,,,,,,,0.000182,-0.013243,-0.177131,-1.4e-05,2.8e-05,-0.000148
246617,-0.000548,-0.018195,-0.276739,0.001889,-0.0,-0.0,2.0,0.282024,0.281224,0.282024,0.282821,,,,,,,6.1e-05,-0.013242,-0.177134,1e-06,2.6e-05,-0.000148
246637,-0.000548,-0.018195,-0.276739,0.002016,-0.0,-0.0,2.0,0.282024,0.282977,0.282024,0.281067,,,,,,,0.000182,-0.013242,-0.177137,-0.0,2.8e-05,-0.000147
246657,-0.000427,-0.018178,-0.276738,0.002099,-0.0,-0.0,2.0,0.282024,0.283666,0.282024,0.280369,,,,,,,0.000303,-0.013241,-0.17714,-1e-06,2.9e-05,-0.000147
246677,-0.000186,-0.018144,-0.276736,0.002148,-0.0,-0.0,2.0,0.282024,0.283712,0.282024,0.280322,,,,,,,0.000424,-0.01324,-0.177143,-1e-06,3.1e-05,-0.000146
246697,-0.00029,-0.018282,-0.276737,0.002282,-0.0,-0.0,2.0,0.282024,0.283262,0.282024,0.280779,,,,,,,0.000562,-0.01324,-0.177145,-0.0,2e-05,-0.000146
246717,-0.000306,-0.018161,-0.276737,0.002342,-0.0,-0.0,2.0,0.282024,0.282627,0.282024,0.28142,,,,,,,0.000545,-0.01324,-0.177148,-0.024097,3.1e-05,-0.000146
246737,-0.000444,-0.018057,-0.276738,0.002442,-0.0,-0.0,2.0,0.282024,0.280706,0.282024,0.283334,,,,,,,0.000303,-0.013239,-0.177151,1e-06,2.9e-05,-0.000146
246757,-0.000669,-0.018212,-0.27674,0.002539,-0.0,-0.0,2.0,0.282024,0.280452,0.282024,0.283584,,,,,,,0.000165,-0.013238,-0.177154,-0.024096,3.8e-05,-0.000146
246777,-0.000686,-0.018091,-0.27674,0.002634,-0.0,-0.0,2.0,0.282024,0.28262,0.282024,0.281426,,,,,,,0.000165,-0.013238,-0.177157,-0.024083,3.8e-05,-0.000145
246797,-0.000548,-0.018195,-0.276739,0.002685,-0.0,-0.0,2.0,0.282024,0.281811,0.282024,0.282237,,,,,,,6.1e-05,-0.013237,-0.17716,0.020729,3.9e-05,-0.000145
246817,-0.000427,-0.018178,-0.276738,0.002802,-0.0,-0.0,2.0,0.282024,0.282202,0.282024,0.281846,,,,,,,0.000182,-0.013236,-0.177163,0.024082,2.9e-05,-0.000144
246837,-0.000323,-0.01804,-0.276737,0.002866,-0.0,-0.0,2.0,0.282024,0.283188,0.282024,0.280853,,,,,,,0.000407,-0.013236,-0.177166,-0.0,4.2e-05,-0.000144
246857,-0.000201,-0.018023,-0.276852,0.002924,-0.0,-0.0,2.0,0.282024,0.282949,0.282024,0.281095,,,,,,,0.000528,-0.013235,-0.177169,0.000203,4.4e-05,-0.000155
246877,-0.000339,-0.017919,-0.276853,0.003054,-0.0,-0.0,2.0,0.282024,0.279362,0.282024,0.284651,,,,,,,0.000408,-0.013234,-0.177172,-0.0001,4.2e-05,-0.000143
246897,-0.000582,-0.017953,-0.276739,0.00312,-0.0,-0.0,2.0,0.282024,0.278898,0.282024,0.285101,,,,,,,0.000271,-0.013233,-0.177175,-0.024181,5.1e-05,-0.000155
246917,-0.000702,-0.01797,-0.276856,0.003218,-0.0,-0.0,2.0,0.282024,0.27975,0.282024,0.284272,,,,,,,2.8e-05,-0.013232,-0.177178,0.0243,5.1e-05,-0.000155
246937,-0.000824,-0.017987,-0.27674,0.00331,-0.0,-0.0,2.0,0.282024,0.28204,0.282024,0.282008,,,,,,,2.7e-05,-0.013231,-0.177181,0.0001,4.9e-05,-0.000143
246957,-0.000703,-0.01797,-0.27674,0.003406,-0.0,-0.0,2.0,0.282024,0.281778,0.282024,0.28227,,,,,,,2.8e-05,-0.01323,-0.177184,-0.024083,4.7e-05,-0.000143
246977,-0.000461,-0.017936,-0.276738,0.003454,-0.0,-0.0,2.0,0.282024,0.282752,0.282024,0.281294,,,,,,,0.000148,-0.013229,-0.177186,0.024082,5.2e-05,-0.000142
246997,-0.000219,-0.017903,-0.276736,0.00352,-0.0,-0.0,2.0,0.282024,0.283948,0.282024,0.280081,,,,,,,0.00039,-0.013228,-0.177189,9.9e-05,5.4e-05,-0.000142
247017,-0.00034,-0.017919,-0.276737,0.003641,-0.0,-0.0,2.0,0.282024,0.279495,0.282024,0.284521,,,,,,,0.000391,-0.013227,-0.177192,-9.9e-05,5.4e-05,-0.000141
247037,-0.00046,-0.017936,-0.276854,0.003749,-0.0,-0.0,2.0,0.282024,0.280916,0.282024,0.283126,,,,,,,0.000391,-0.013226,-0.177195,-0.0,5.3e-05,-0.000153
247057,-0.000581,-0.017953,-0.276855,0.003851,-0.0,-0.0,2.0,0.282024,0.277464,0.282024,0.286481,,,,,,,0.000133,-0.013225,-0.177198,0.003241,5e-05,-0.000153
247077,-0.000824,-0.017987,-0.27674,0.00392,-0.0,-0.0,2.0,0.282024,0.276808,0.282024,0.287105,,,,,,,-9.3e-05,-0.013224,-0.177201,-0.0001,4.7e-05,-0.000141
247097,-0.000945,-0.018004,-0.276741,0.00398,-0.0,-0.0,2.0,0.282024,0.280456,0.282024,0.28358,,,,,,,-9.3e-05,-0.013223,-0.177204,1.4e-05,4.6e-05,-0.000141
247117,-0.000686,-0.018091,-0.27674,0.004084,-0.0,-0.0,2.0,0.282024,0.281073,0.282024,0.282971,,,,,,,-9.3e-05,-0.013222,-0.177207,0.024082,4.8e-05,-0.00014
247137,-0.000565,-0.018074,-0.276739,0.00418,-0.0,-0.0,2.0,0.282024,0.280859,0.282024,0.283182,,,,,,,4.4e-05,-0.013221,-0.177209,0.024082,3.8e-05,-0.00014
247157,-0.000323,-0.01804,-0.276737,0.004228,-0.0,-0.0,2.0,0.282024,0.281958,0.282024,0.282091,,,,,,,0.000287,-0.01322,-0.177212,-0.000218,3.9e-05,-0.00014
247177,-0.000322,-0.01804,-0.276853,0.004322,-0.0,-0.0,2.0,0.282024,0.280803,0.282024,0.283238,,,,,,,0.000391,-0.013219,-0.177215,0.024069,5.5e-05,-0.000151
247197,-0.00046,-0.017936,-0.276854,0.004442,-0.0,-0.0,2.0,0.282024,0.280847,0.282024,0.283194,,,,,,,0.00039,-0.013218,-0.177218,-0.023996,5.1e-05,-0.000139
247217,-0.000703,-0.01797,-0.27674,0.004524,-0.0,-0.0,2.0,0.282024,0.277685,0.282024,0.28627,,,,,,,0.000167,-0.013217,-0.177221,-0.024386,3.6e-05,-0.000139
247237,-0.000807,-0.018108,-0.276741,0.004608,-0.0,-0.0,2.0,0.282024,0.279365,0.282024,0.284648,,,,,,,2.8e-05,-0.013217,-0.177224,0.0,4.8e-05,-0.000139
247257,-0.000807,-0.018108,-0.276741,0.004662,-0.0,-0.0,2.0,0.282024,0.277608,0.282024,0.286343,,,,,,,-0.000214,-0.013216,-0.177227,0.00334,3.2e-05,-0.000138
247277,-0.000807,-0.018108,-0.276741,0.004789,-0.0,-0.0,2.0,0.282024,0.277699,0.282024,0.286256,,,,,,,-0.000197,-0.013215,-0.177229,-9.9e-05,3.2e-05,-0.000138
247297,-0.000565,-0.018074,-0.276739,0.004882,-0.0,-0.0,2.0,0.282024,0.284848,0.282024,0.279159,,,,,,,0.000165,-0.013214,-0.177232,-0.003372,4.9e-05,-0.000138
247317,-0.000339,-0.017919,-0.276853,0.004975,-0.0,-0.0,2.0,0.282024,0.282331,0.282024,0.281717,,,,,,,0.000286,-0.013214,-0.177235,0.000318,3.9e-05,-0.000149
247337,-0.00046,-0.017936,-0.276854,0.00507,-0.0,-0.0,2.0,0.282024,0.278104,0.282024,0.285868,,,,,,,0.000288,-0.013213,-0.177238,-0.00344,5.1e-05,-0.000149
247357,-0.000565,-0.018074,-0.276739,0.005116,-0.0,-0.0,2.0,0.282024,0.281812,0.282024,0.282236,,,,,,,0.000408,-0.013212,-0.177241,-0.023983,3.8e-05,-0.000148
247377,-0.000564,-0.018074,-0.276855,0.005194,-0.0,-0.0,2.0,0.282024,0.278499,0.282024,0.285487,,,,,,,0.000166,-0.013211,-0.177244,1e-06,3.7e-05,-0.000148
247397,-0.000685,-0.018091,-0.276856,0.005316,-0.0,-0.0,2.0,0.282024,0.275643,0.282024,0.288204,,,,,,,-5.9e-05,-0.01321,-0.177247,-0.003438,3.3e-05,-0.000136
247417,-0.00079,-0.018229,-0.276741,0.005366,-0.0,-0.0,2.0,0.282024,0.276864,0.282024,0.287052,,,,,,,-7.5e-05,-0.01321,-0.177249,0.003034,2.1e-05,-0.000136
247437,-0.000668,-0.018212,-0.276856,0.005515,-0.0,-0.0,2.0,0.282024,0.280963,0.282024,0.28308,,,,,,,4.5e-05,-0.013209,-0.177252,9.9e-05,3.5e-05,-0.000147
247457,-0.000443,-0.018057,-0.276854,0.005572,-0.0,-0.0,2.0,0.282024,0.281387,0.282024,0.282659,,,,,,,0.000183,-0.013209,-0.177255,9.9e-05,2.4e-05,-0.000147
247477,-0.000305,-0.018161,-0.276853,0.005666,-0.0,-0.0,2.0,0.282024,0.279576,0.282024,0.284442,,,,,,,0.000304,-0.013208,-0.177258,-0.0,2.6e-05,-0.000147
247497,-0.000305,-0.018161,-0.276853,0.005757,-0.0,-0.0,2.0,0.282024,0.281372,0.282024,0.282674,,,,,,,0.000529,-0.013208,-0.177261,-0.020642,2.7e-05,-0.000146
247517,-0.000305,-0.018161,-0.276853,0.005849,-0.0,-0.0,2.0,0.282024,0.279649,0.282024,0.284371,,,,,,,0.000425,-0.013207,-0.177264,0.0001,2.7e-05,-0.000146
247537,-0.000668,-0.018212,-0.276856,0.005932,-0.0,-0.0,2.0,0.282024,0.274689,0.282024,0.289094,,,,,,,0.000184,-0.013206,-0.177267,-0.024181,2.2e-05,-0.000146
247557,-0.000789,-0.018228,-0.276857,0.006034,-0.0,-0.0,2.0,0.282024,0.277566,0.282024,0.286383,,,,,,,6.2e-05,-0.013206,-0.17727,-0.024082,2.1e-05,-0.000146
247577,-0.000772,-0.018349,-0.276857,0.006091,-0.0,-0.0,2.0,0.282024,0.275048,0.282024,0.28876,,,,,,,-0.000179,-0.013206,-0.177273,0.023969,2.1e-05,-0.000145
247597,-0.000668,-0.018212,-0.276856,0.006141,-0.0,-0.0,2.0,0.282024,0.278147,0.282024,0.285826,,,,,,,-4.2e-05,-0.013205,-0.177276,0.024082,1e-05,-0.000145
247617,-0.00053,-0.018316,-0.276855,0.006141,-0.0,-0.0,2.0,0.282024,0.279703,0.282024,0.284318,,,,,,,0.000201,-0.013205,-0.177279,1.3e-05,1.2e-05,-0.000156
247637,-0.000287,-0.018282,-0.27697,0.006358,-0.0,-0.0,2.0,0.282024,0.28155,0.282024,0.282497,,,,,,,0.000442,-0.013205,-0.177282,-0.003257,2.7e-05,-0.000156
247657,-0.000166,-0.018265,-0.276969,0.006426,-0.0,-0.0,2.0,0.282024,0.278068,0.282024,0.285902,,,,,,,0.000443,-0.013204,-0.177285,0.024081,1.7e-05,-0.000155
247677,-0.000408,-0.018299,-0.276971,0.006542,-0.0,-0.0,2.0,0.282024,0.27665,0.282024,0.287255,,,,,,,0.000443,-0.013204,-0.177288,-0.024081,1.3e-05,-0.000155
247697,-0.00065,-0.018332,-0.276973,0.006634,-0.0,-0.0,2.0,0.282024,0.274567,0.282024,0.289208,,,,,,,0.000202,-0.013204,-0.177291,-9.9e-05,1.2e-05,-0.000155
247717,-0.000771,-0.018349,-0.276974,0.006728,-0.0,-0.0,2.0,0.282024,0.275109,0.282024,0.288703,,,,,,,-4.1e-05,-0.013204,-0.177294,1e-06,8e-06,-0.000155
247737,-0.000892,-0.018366,-0.276975,0.006775,-0.0,-0.0,2.0,0.282024,0.275606,0.282024,0.288238,,,,,,,-0.000162,-0.013204,-0.177297,1e-06,7e-06,-0.000155
247757,-0.000771,-0.018349,-0.276974,0.006884,-0.0,-0.0,2.0,0.282024,0.278006,0.282024,0.285961,,,,,,,-4.1e-05,-0.013203,-0.1773,-1e-06,8e-06,-0.000154
247777,-0.000408,-0.018299,-0.276971,0.006995,-0.0,-0.0,2.0,0.282024,0.280577,0.282024,0.283461,,,,,,,0.000201,-0.013203,-0.177303,0.02418,1.3e-05,-0.000154
247797,-0.000166,-0.018265,-0.276969,0.007059,-0.0,-0.0,2.0,0.282024,0.279772,0.282024,0.28425,,,,,,,0.000442,-0.013203,-0.177307,9.9e-05,1.5e-05,-0.000153
247817,-0.00015,-0.018386,-0.276969,0.007124,-0.0,-0.0,2.0,0.282024,0.277908,0.282024,0.286056,,,,,,,0.000581,-0.013203,-0.17731,1.4e-05,5e-06,-0.000153
247837,-0.000271,-0.018403,-0.27697,0.00724,-0.0,-0.0,2.0,0.282024,0.276705,0.282024,0.287203,,,,,,,0.000581,-0.013203,-0.177313,0.0,5e-06,-0.000153
247857,-0.000512,-0.018436,-0.276972,0.007332,-0.0,-0.0,2.0,0.282024,0.272926,0.282024,0.290719,,,,,,,0.000323,-0.013202,-0.177316,-0.020839,-1e-06,-0.000153
247877,-0.000754,-0.01847,-0.276974,0.007426,-0.0,-0.0,2.0,0.282024,0.270662,0.282024,0.292763,,,,,,,-2.3e-05,-0.013203,-0.177319,-0.000199,-4e-06,-0.000152
247897,-0.000875,-0.018487,-0.276975,0.007518,-0.0,-0.0,2.0,0.282024,0.275607,0.282024,0.288237,,,,,,,-2.4e-05,-0.013203,-0.177322,-0.0,-4e-06,-0.000152
247917,-0.000633,-0.018453,-0.276973,0.007577,-0.0,-0.0,2.0,0.282024,0.27761,0.282024,0.286341,,,,,,,-2.4e-05,-0.013203,-0.177325,9.9e-05,-4e-06,-0.000152
247937,-0.000391,-0.01842,-0.276971,0.007656,-0.0,-0.0,2.0,0.282024,0.278939,0.282024,0.285061,,,,,,,0.000218,-0.013203,-0.177328,0.003455,-1.3e-05,-0.000151
247957,-0.000133,-0.018507,-0.276969,0.007759,-0.0,-0.0,2.0,0.282024,0.278079,0.282024,0.285892,,,,,,,0.000477,-0.013203,-0.177331,1.2e-05,-9e-06,-0.000151
247977,5e-06,-0.018611,-0.276968,0.007841,-0.0,-0.0,2.0,0.282024,0.278935,0.282024,0.285065,,,,,,,0.000719,-0.013203,-0.177334,-0.000122,-6e-06,-0.00015
247997,-0.000133,-0.018507,-0.276969,0.0079,-0.0,-0.0,2.0,0.282024,0.273571,0.282024,0.290127,,,,,,,0.000615,-0.013203,-0.177337,-8.5e-05,-2e-05,-0.00015
248017,-0.000479,-0.018678,-0.276972,0.008025,-0.0,-0.0,2.0,0.282024,0.271547,0.282024,0.291969,,,,,,,0.000373,-0.013204,-0.17734,-9.9e-05,-2.3e-05,-0.00015
248037,-0.000722,-0.018712,-0.276858,0.008128,-0.0,-0.0,2.0,0.282024,0.271307,0.282024,0.292186,,,,,,,0.000115,-0.013204,-0.177343,-0.021065,-2.8e-05,-0.000138
248057,-0.000859,-0.018608,-0.276859,0.008174,-0.0,-0.0,2.0,0.282024,0.271643,0.282024,0.291882,,,,,,,-0.000128,-0.013204,-0.177346,0.000126,-1.7e-05,-0.00015
248077,-0.000737,-0.018591,-0.276974,0.008268,-0.0,-0.0,2.0,0.282024,0.274493,0.282024,0.289276,,,,,,,-0.000129,-0.013205,-0.177349,0.024082,-1.6e-05,-0.000138
248097,-0.000479,-0.018678,-0.276972,0.008332,-0.0,-0.0,2.0,0.282024,0.274896,0.282024,0.288902,,,,,,,-8e-06,-0.013205,-0.177351,0.027661,-2.6e-05,-0.000149
248117,-0.000116,-0.018628,-0.276969,0.008463,-0.0,-0.0,2.0,0.282024,0.279295,0.282024,0.284716,,,,,,,0.000493,-0.013206,-0.177354,0.02418,-1.9e-05,-0.000148
248137,0.000144,-0.018715,-0.277084,0.008527,-0.0,-0.0,2.0,0.282024,0.277536,0.282024,0.286412,,,,,,,0.000736,-0.013206,-0.177357,0.024167,-1.6e-05,-0.00016
248157,0.000127,-0.018594,-0.277084,0.008601,-0.0,-0.0,2.0,0.282024,0.274924,0.282024,0.288876,,,,,,,0.000857,-0.013206,-0.177361,0.003357,-2.8e-05,-0.000159
248177,-0.000115,-0.018628,-0.277086,0.008728,-0.0,-0.0,2.0,0.282024,0.272079,0.282024,0.291489,,,,,,,0.000754,-0.013207,-0.177364,-0.027524,-1.9e-05,-0.000159
248197,-0.00046,-0.018799,-0.277205,0.00883,-0.0,-0.0,2.0,0.282024,0.272082,0.282024,0.291486,,,,,,,0.000496,-0.013207,-0.177367,-0.024093,-2.3e-05,-0.000171
248217,-0.000596,-0.018695,-0.277322,0.008878,-0.0,-0.0,2.0,0.282024,0.270095,0.282024,0.293268,,,,,,,0.000134,-0.013208,-0.177371,-9.8e-05,-2.6e-05,-0.000171
248237,-0.000597,-0.018695,-0.277206,0.008975,-0.0,-0.0,2.0,0.282024,0.273328,0.282024,0.290351,,,,,,,0.000133,-0.013208,-0.177374,0.0,-2.6e-05,-0.00017
248257,-0.000354,-0.018661,-0.27732,0.009071,-0.0,-0.0,2.0,0.282024,0.277187,0.282024,0.286745,,,,,,,0.000376,-0.013209,-0.177378,7.2e-05,-2.2e-05,-0.000181
248277,0.000147,-0.018715,-0.277483,0.009126,-0.0,-0.0,2.0,0.282024,0.275008,0.282024,0.288798,,,,,,,0.000497,-0.013209,-0.177381,0.048415,-1.7e-05,-0.000197
248297,0.000389,-0.018682,-0.277481,0.009264,-0.0,-0.0,2.0,0.282024,0.277392,0.282024,0.286549,,,,,,,0.000998,-0.01321,-0.177385,0.02418,-2.4e-05,-0.000197
248317,0.000528,-0.018785,-0.277596,0.009317,-0.0,-0.0,2.0,0.282024,0.275605,0.282024,0.28824,,,,,,,0.001258,-0.01321,-0.177389,-0.00335,-2.3e-05,-0.000208
248337,0.000408,-0.018802,-0.277713,0.009436,-0.0,-0.0,2.0,0.282024,0.273161,0.282024,0.290504,,,,,,,0.001243,-0.013211,-0.177393,0.003577,-3.5e-05,-0.00023
248357,0.000272,-0.018698,-0.277831,0.009483,-0.0,-0.0,2.0,0.282024,0.26996,0.282024,0.293388,,,,,,,0.001018,-0.013212,-0.177398,-0.003239,-2.6e-05,-0.00023
248377,-9.1e-05,-0.018749,-0.277834,0.009589,-0.0,-0.0,2.0,0.282024,0.269125,0.282024,0.294126,,,,,,,0.000778,-0.013212,-0.177402,-0.003451,-2.9e-05,-0.00023
248397,-7.3e-05,-0.018869,-0.27795,0.009696,-0.0,-0.0,2.0,0.282024,0.270424,0.282024,0.292975,,,,,,,0.000641,-0.013213,-0.177407,-0.0001,-3.1e-05,-0.000241
248417,0.000153,-0.018715,-0.278064,0.009789,-0.0,-0.0,2.0,0.282024,0.274747,0.282024,0.289041,,,,,,,0.000761,-0.013213,-0.177412,0.024404,-2.7e-05,-0.000252
248437,0.000533,-0.018785,-0.278061,0.009835,-0.0,-0.0,2.0,0.282024,0.275506,0.282024,0.288332,,,,,,,0.001021,-0.013214,-0.177417,-0.00327,-2.5e-05,-0.000252
248457,0.000792,-0.018872,-0.278176,0.009927,-0.0,-0.0,2.0,0.282024,0.275208,0.282024,0.288611,,,,,,,0.001384,-0.013215,-0.177422,0.027672,-4.3e-05,-0.000262
248477,0.000913,-0.018855,-0.278175,0.00999,-0.0,-0.0,2.0,0.282024,0.275574,0.282024,0.288269,,,,,,,0.001643,-0.013216,-0.177427,7.1e-05,-4.1e-05,-0.000262
248497,0.000915,-0.018856,-0.278341,0.010136,-0.0,-0.0,2.0,0.282024,0.272449,0.282024,0.291153,,,,,,,0.001645,-0.013216,-0.177433,-0.003371,-2.9e-05,-0.000278
248517,0.000794,-0.018872,-0.278342,0.010191,-0.0,-0.0,2.0,0.282024,0.271744,0.282024,0.291792,,,,,,,0.001628,-0.013217,-0.177438,-0.020722,-4.3e-05,-0.000277
248537,0.000535,-0.018785,-0.278344,0.010267,-0.0,-0.0,2.0,0.282024,0.269201,0.282024,0.294059,,,,,,,0.001404,-0.013218,-0.177444,-8.5e-05,-4.4e-05,-0.000277
248557,0.000431,-0.018923,-0.278345,0.01039,-0.0,-0.0,2.0,0.282024,0.2709,0.282024,0.29255,,,,,,,0.001284,-0.013219,-0.177449,-0.003598,-3.4e-05,-0.000276
248577,0.000674,-0.018889,-0.278459,0.010446,-0.0,-0.0,2.0,0.282024,0.26921,0.282024,0.29405,,,,,,,0.001145,-0.01322,-0.177455,0.027565,-4.6e-05,-0.000287
248597,0.000795,-0.018872,-0.278458,0.010537,-0.0,-0.0,2.0,0.282024,0.27357,0.282024,0.290128,,,,,,,0.001403,-0.01322,-0.17746,0.00034,-4.4e-05,-0.000287
248617,0.001054,-0.018959,-0.278456,0.010631,-0.0,-0.0,2.0,0.282024,0.273648,0.282024,0.290057,,,,,,,0.001663,-0.013221,-0.177466,-0.003585,-4.1e-05,-0.000274
248637,0.001158,-0.018821,-0.278455,0.010725,-0.0,-0.0,2.0,0.282024,0.271704,0.282024,0.291827,,,,,,,0.001767,-0.013222,-0.177472,0.02429,-3.7e-05,-0.000297
248657,0.001159,-0.018821,-0.278571,0.010772,-0.0,-0.0,2.0,0.282024,0.272662,0.282024,0.290959,,,,,,,0.001887,-0.013223,-0.177478,0.0001,-3.7e-05,-0.000285
248677,0.00102,-0.018718,-0.278456,0.010864,-0.0,-0.0,2.0,0.282024,0.268066,0.282024,0.295053,,,,,,,0.001751,-0.013224,-0.177483,-0.000114,-2.7e-05,-0.000284
248697,0.000778,-0.018751,-0.278458,0.01097,-0.0,-0.0,2.0,0.282024,0.267881,0.282024,0.295213,,,,,,,0.001631,-0.013224,-0.177489,-0.024403,-3e-05,-0.000284
248717,0.000658,-0.018768,-0.278575,0.011098,-0.0,-0.0,2.0,0.282024,0.268622,0.282024,0.294567,,,,,,,0.001387,-0.013225,-0.177495,0.024304,-3e-05,-0.000295
248737,0.000658,-0.018768,-0.278575,0.011164,-0.0,-0.0,2.0,0.282024,0.270916,0.282024,0.292536,,,,,,,0.001387,-0.013225,-0.177501,-0.023979,-3.3e-05,-0.000283
248757,0.000778,-0.018751,-0.278458,0.011274,-0.0,-0.0,2.0,0.282024,0.269139,0.282024,0.294113,,,,,,,0.001388,-0.013226,-0.177506,0.023978,-3e-05,-0.000282
248777,0.00102,-0.018718,-0.278456,0.01132,-0.0,-0.0,2.0,0.282024,0.275238,0.282024,0.288583,,,,,,,0.00175,-0.013227,-0.177512,0.0002,-2.6e-05,-0.000293
248797,0.001263,-0.018683,-0.27857,0.011412,-0.0,-0.0,2.0,0.282024,0.270211,0.282024,0.293165,,,,,,,0.00175,-0.013227,-0.177518,0.024303,-2.4e-05,-0.000292
248817,0.001246,-0.018563,-0.27857,0.011507,-0.0,-0.0,2.0,0.282024,0.270719,0.282024,0.292712,,,,,,,0.001992,-0.013228,-0.177524,-0.003373,-1.1e-05,-0.00028
248837,0.001246,-0.018563,-0.27857,0.01156,-0.0,-0.0,2.0,0.282024,0.270892,0.282024,0.292558,,,,,,,0.002097,-0.013228,-0.177529,-0.024301,-1.1e-05,-0.000279
248857,0.001246,-0.018563,-0.27857,0.011632,-0.0,-0.0,2.0,0.282024,0.269206,0.282024,0.294054,,,,,,,0.001976,-0.013228,-0.177535,-0.0,-1.1e-05,-0.00029
248877,0.001125,-0.018579,-0.278571,0.011746,-0.0,-0.0,2.0,0.282024,0.267905,0.282024,0.295193,,,,,,,0.001855,-0.013228,-0.177541,1e-06,-1.2e-05,-0.00029
248897,0.000987,-0.018476,-0.278572,0.011886,-0.0,-0.0,2.0,0.282024,0.267578,0.282024,0.295477,,,,,,,0.001734,-0.013228,-0.177547,1e-06,-1.4e-05,-0.000289
248917,0.001004,-0.018596,-0.278572,0.011958,-0.0,-0.0,2.0,0.282024,0.268408,0.282024,0.294754,,,,,,,0.001717,-0.013229,-0.177552,-1.4e-05,-2e-06,-0.000289
248937,0.001108,-0.018459,-0.278571,0.012009,-0.0,-0.0,2.0,0.282024,0.271117,0.282024,0.292356,,,,,,,0.001838,-0.013229,-0.177558,0.024178,2e-06,-0.000288
248957,0.001471,-0.018408,-0.278568,0.012109,-0.0,-0.0,2.0,0.282024,0.26968,0.282024,0.293636,,,,,,,0.001958,-0.013229,-0.177564,0.024298,3e-06,-0.000287
248977,0.001486,-0.018529,-0.278452,0.012201,-0.0,-0.0,2.0,0.282024,0.270712,0.282024,0.292718,,,,,,,0.002199,-0.013229,-0.17757,9.9e-05,5e-06,-0.000275
248997,0.001469,-0.018408,-0.278452,0.012293,-0.0,-0.0,2.0,0.282024,0.269622,0.282024,0.293687,,,,,,,0.002322,-0.013229,-0.177575,-0.024299,5e-06,-0.000275
249017,0.001469,-0.018408,-0.278452,0.012342,-0.0,-0.0,2.0,0.282024,0.268238,0.282024,0.294903,,,,,,,0.002217,-0.013229,-0.177581,-0.003359,5e-06,-0.000274
249037,0.001366,-0.018546,-0.278453,0.012434,-0.0,-0.0,2.0,0.282024,0.266373,0.282024,0.296515,,,,,,,0.002078,-0.013228,-0.177586,0.003358,-9e-06,-0.000262
249057,0.001227,-0.018442,-0.278338,0.012529,-0.0,-0.0,2.0,0.282024,0.264635,0.282024,0.297992,,,,,,,0.001956,-0.013229,-0.177591,0.003256,-1.1e-05,-0.00025
249077,0.001208,-0.01832,-0.278171,0.012609,-0.0,-0.0,2.0,0.282024,0.265956,0.282024,0.296872,,,,,,,0.001957,-0.013229,-0.177596,-0.000366,2e-06,-0.000244
249097,0.001346,-0.018424,-0.27817,0.012737,-0.0,-0.0,2.0,0.282024,0.269861,0.282024,0.293476,,,,,,,0.002077,-0.013229,-0.177601,0.0001,3e-06,-0.00026
249117,0.001588,-0.01839,-0.278168,0.012797,-0.0,-0.0,2.0,0.282024,0.267332,0.282024,0.29569,,,,,,,0.002075,-0.013228,-0.177606,0.024298,5e-06,-0.000243
249137,0.001466,-0.018408,-0.278053,0.0129,-0.0,-0.0,2.0,0.282024,0.26666,0.282024,0.296269,,,,,,,0.002196,-0.013228,-0.177611,-0.0,5e-06,-0.000231
249157,0.001465,-0.018408,-0.277936,0.012994,-0.0,-0.0,2.0,0.282024,0.26808,0.282024,0.29504,,,,,,,0.002318,-0.013228,-0.177616,-0.024518,5e-06,-0.000219
249177,0.001586,-0.018391,-0.277935,0.013042,-0.0,-0.0,2.0,0.282024,0.266466,0.282024,0.296436,,,,,,,0.002196,-0.013228,-0.17762,0.02408,7e-06,-0.00023
249197,0.001587,-0.018391,-0.278052,0.013119,-0.0,-0.0,2.0,0.282024,0.265514,0.282024,0.297248,,,,,,,0.002195,-0.013228,-0.177625,0.02408,7e-06,-0.000218
249217,0.001465,-0.018408,-0.277936,0.013274,-0.0,-0.0,2.0,0.282024,0.266481,0.282024,0.296423,,,,,,,0.002316,-0.013228,-0.177629,-0.024299,5e-06,-0.000206
249237,0.001585,-0.018391,-0.277819,0.013333,-0.0,-0.0,2.0,0.282024,0.267093,0.282024,0.295897,,,,,,,0.002316,-0.013228,-0.177633,-1e-06,7e-06,-0.000217
249257,0.001707,-0.018374,-0.277934,0.013425,-0.0,-0.0,2.0,0.282024,0.268237,0.282024,0.294904,,,,,,,0.00242,-0.013228,-0.177638,8.6e-05,2e-05,-0.000217
249277,0.001948,-0.01834,-0.277932,0.013472,-0.0,-0.0,2.0,0.282024,0.267368,0.282024,0.295659,,,,,,,0.002557,-0.013227,-0.177642,0.000217,1e-05,-0.000216
249297,0.001948,-0.01834,-0.277932,0.013616,-0.0,-0.0,2.0,0.282024,0.267859,0.282024,0.295233,,,,,,,0.002677,-0.013227,-0.177646,0.00033,1.2e-05,-0.000216
249317,0.002052,-0.018202,-0.277931,0.013672,-0.0,-0.0,2.0,0.282024,0.266955,0.282024,0.296016,,,,,,,0.002801,-0.013227,-0.17765,-0.027664,2.4e-05,-0.000215
249337,0.00219,-0.018306,-0.27793,0.013767,-0.0,-0.0,2.0,0.282024,0.268563,0.282024,0.294619,,,,,,,0.002921,-0.013226,-0.177655,0.0001,1.5e-05,-0.000226
249357,0.002312,-0.018289,-0.278045,0.013862,-0.0,-0.0,2.0,0.282024,0.265493,0.282024,0.297266,,,,,,,0.002921,-0.013226,-0.177659,0.024296,1.7e-05,-0.000226
249377,0.002433,-0.018272,-0.278044,0.013919,-0.0,-0.0,2.0,0.282024,0.266745,0.282024,0.296196,,,,,,,0.003162,-0.013226,-0.177664,-0.020714,4e-06,-0.000214
249397,0.002587,-0.018497,-0.277927,0.014021,-0.0,-0.0,2.0,0.282024,0.267285,0.282024,0.29573,,,,,,,0.003319,-0.013226,-0.177668,-0.003573,8e-06,-0.000224
249417,0.002968,-0.018567,-0.278156,0.014135,-0.0,-0.0,2.0,0.282024,0.269098,0.282024,0.29415,,,,,,,0.00356,-0.013226,-0.177673,0.027615,-1.1e-05,-0.00024
249437,0.003212,-0.018534,-0.27832,0.014189,-0.0,-0.0,2.0,0.282024,0.26829,0.282024,0.294857,,,,,,,0.003818,-0.013226,-0.177677,0.003701,-2.2e-05,-0.000235
249457,0.003469,-0.01862,-0.278152,0.014274,-0.0,-0.0,2.0,0.282024,0.267384,0.282024,0.295645,,,,,,,0.004078,-0.013226,-0.177682,0.020722,-4e-06,-0.000234
249477,0.003833,-0.01857,-0.278315,0.01435,-0.0,-0.0,2.0,0.282024,0.270944,0.282024,0.292511,,,,,,,0.004581,-0.013226,-0.177687,-0.003478,-1.2e-05,-0.00025
249497,0.004352,-0.018744,-0.278426,0.014477,-0.0,-0.0,2.0,0.282024,0.269718,0.282024,0.293602,,,,,,,0.00484,-0.013227,-0.177692,0.048491,-2.9e-05,-0.000272
249517,0.004975,-0.018779,-0.278652,0.014574,-0.0,-0.0,2.0,0.282024,0.269762,0.282024,0.293563,,,,,,,0.005323,-0.013227,-0.177697,0.024395,-2.4e-05,-0.000271
249537,0.005355,-0.018849,-0.278649,0.014674,-0.0,-0.0,2.0,0.282024,0.270859,0.282024,0.292587,,,,,,,0.005946,-0.013228,-0.177703,9.8e-05,-2.9e-05,-0.00027
249557,0.006098,-0.018868,-0.278757,0.014744,-0.0,-0.0,2.0,0.282024,0.271653,0.282024,0.291873,,,,,,,0.006465,-0.013229,-0.177709,0.048254,-4.3e-05,-0.000292
249577,0.006737,-0.019024,-0.278867,0.014838,-0.0,-0.0,2.0,0.282024,0.27361,0.282024,0.290092,,,,,,,0.007208,-0.01323,-0.177714,0.027984,-5.8e-05,-0.000319
249597,0.007501,-0.019163,-0.279257,0.014927,-0.0,-0.0,2.0,0.282024,0.27379,0.282024,0.289926,,,,,,,0.007848,-0.013231,-0.177721,0.02789,-7.4e-05,-0.000329
249617,0.008139,-0.01932,-0.27925,0.015016,-0.0,-0.0,2.0,0.282024,0.272063,0.282024,0.291503,,,,,,,0.008488,-0.013232,-0.177727,0.024409,-7.7e-05,-0.000339
249637,0.008761,-0.019355,-0.279359,0.015065,-0.0,-0.0,2.0,0.282024,0.274385,0.282024,0.289377,,,,,,,0.009233,-0.013234,-0.177734,0.027441,-9.1e-05,-0.00035
249657,0.009507,-0.019372,-0.279699,0.015195,-0.0,-0.0,2.0,0.282024,0.27321,0.282024,0.290459,,,,,,,0.009874,-0.013236,-0.177741,0.048412,-9.3e-05,-0.000388
249677,0.01027,-0.01951,-0.280088,0.015286,-0.0,-0.0,2.0,0.282024,0.274754,0.282024,0.289034,,,,,,,0.010617,-0.013238,-0.177749,0.028114,-0.000108,-0.000409
249697,0.010772,-0.019562,-0.280198,0.015332,-0.0,-0.0,2.0,0.282024,0.270056,0.282024,0.293303,,,,,,,0.01112,-0.01324,-0.177757,0.048367,-9.9e-05,-0.00042
249717,0.011275,-0.019613,-0.280424,0.015429,-0.0,-0.0,2.0,0.282024,0.273584,0.282024,0.290116,,,,,,,0.011884,-0.013242,-0.177766,9.8e-05,-0.000116,-0.000453
249737,0.011796,-0.019785,-0.280816,0.015535,-0.0,-0.0,2.0,0.282024,0.274861,0.282024,0.288935,,,,,,,0.012404,-0.013244,-0.177775,0.024506,-0.000131,-0.000491
249757,0.012422,-0.019816,-0.281272,0.015628,-0.0,-0.0,2.0,0.282024,0.271694,0.282024,0.291837,,,,,,,0.012769,-0.013247,-0.177785,0.027794,-0.000138,-0.000513
249777,0.012683,-0.019903,-0.281435,0.015714,-0.0,-0.0,2.0,0.282024,0.269117,0.282024,0.294132,,,,,,,0.013153,-0.01325,-0.177796,0.027481,-0.000144,-0.000539
249797,0.013066,-0.01997,-0.281778,0.015773,-0.0,-0.0,2.0,0.282024,0.27258,0.282024,0.291034,,,,,,,0.013675,-0.013252,-0.177807,0.000114,-0.000151,-0.000584
249817,0.013468,-0.020157,-0.282287,0.015873,-0.0,-0.0,2.0,0.282024,0.271083,0.282024,0.292386,,,,,,,0.013936,-0.013256,-0.177819,0.024804,-0.000157,-0.000634
249837,0.01373,-0.02024,-0.282632,0.015965,-0.0,-0.0,2.0,0.282024,0.271262,0.282024,0.292226,,,,,,,0.01432,-0.013259,-0.177832,0.00374,-0.000177,-0.000655
249857,0.014097,-0.020187,-0.283026,0.016032,-0.0,-0.0,2.0,0.282024,0.27104,0.282024,0.292425,,,,,,,0.014704,-0.013262,-0.177845,0.003643,-0.000183,-0.000688
249877,0.014359,-0.02027,-0.28337,0.016142,-0.0,-0.0,2.0,0.282024,0.271022,0.282024,0.292441,,,,,,,0.01495,-0.013266,-0.177859,0.024171,-0.000166,-0.000726
249897,0.014745,-0.020336,-0.28388,0.016234,-0.0,-0.0,2.0,0.282024,0.272152,0.282024,0.291422,,,,,,,0.015333,-0.013269,-0.177874,0.003964,-0.000186,-0.000776
249917,0.015127,-0.020403,-0.284106,0.01628,-0.0,-0.0,2.0,0.282024,0.270458,0.282024,0.292945,,,,,,,0.015613,-0.013273,-0.17789,0.024303,-0.000192,-0.000797
249937,0.01551,-0.020468,-0.284448,0.016362,-0.0,-0.0,2.0,0.282024,0.272961,0.282024,0.290686,,,,,,,0.0161,-0.013277,-0.177906,0.027609,-0.000196,-0.000829
249957,0.016015,-0.020518,-0.28484,0.01643,-0.0,-0.0,2.0,0.282024,0.27519,0.282024,0.288628,,,,,,,0.016605,-0.013281,-0.177923,0.027933,-0.000201,-0.000878
249977,0.016521,-0.020565,-0.285347,0.016541,-0.0,-0.0,2.0,0.282024,0.27332,0.282024,0.290358,,,,,,,0.017006,-0.013285,-0.177941,0.0244,-0.000207,-0.000911
249997,0.017042,-0.020734,-0.285686,0.016605,-0.0,-0.0,2.0,0.282024,0.273808,0.282024,0.28991,,,,,,,0.017511,-0.013289,-0.177959,0.027842,-0.000223,-0.000948
250017,0.017546,-0.020781,-0.286026,0.016768,-0.0,-0.0,2.0,0.282024,0.272813,0.282024,0.290821,,,,,,,0.018034,-0.013293,-0.177979,0.024064,-0.000228,-0.00098
250037,0.017931,-0.020847,-0.286419,0.016824,-0.0,-0.0,2.0,0.282024,0.271671,0.282024,0.291857,,,,,,,0.018418,-0.013298,-0.177999,0.048349,-0.000232,-0.001029
250057,0.018437,-0.020894,-0.286926,0.01693,-0.0,-0.0,2.0,0.282024,0.273878,0.282024,0.289845,,,,,,,0.018922,-0.013303,-0.178019,0.024383,-0.000238,-0.001061
250077,0.018941,-0.020941,-0.287265,0.017023,-0.0,-0.0,2.0,0.282024,0.273107,0.282024,0.290553,,,,,,,0.01941,-0.013307,-0.178041,0.024281,-0.00023,-0.001098
250097,0.019326,-0.021006,-0.287657,0.017116,-0.0,-0.0,2.0,0.282024,0.273352,0.282024,0.290329,,,,,,,0.019794,-0.013312,-0.178063,0.051922,-0.000246,-0.001141
250117,0.019831,-0.021051,-0.288112,0.01718,-0.0,-0.0,2.0,0.282024,0.274772,0.282024,0.289017,,,,,,,0.020317,-0.013317,-0.178086,0.024395,-0.000252,-0.001178
250137,0.020216,-0.021115,-0.288621,0.01726,-0.0,-0.0,2.0,0.282024,0.273672,0.282024,0.290035,,,,,,,0.020682,-0.013322,-0.17811,0.024875,-0.000246,-0.001226
250157,0.020478,-0.021198,-0.288847,0.017345,-0.0,-0.0,2.0,0.282024,0.272626,0.282024,0.290992,,,,,,,0.021069,-0.013327,-0.178135,0.02406,-0.000252,-0.001246
250177,0.020846,-0.02114,-0.289357,0.01741,-0.0,-0.0,2.0,0.282024,0.274633,0.282024,0.289146,,,,,,,0.021454,-0.013332,-0.17816,0.024161,-0.000258,-0.001295
250197,0.021229,-0.021204,-0.289697,0.017493,-0.0,-0.0,2.0,0.282024,0.272447,0.282024,0.291155,,,,,,,0.021716,-0.013338,-0.178186,0.024496,-0.000265,-0.001338
250217,0.021475,-0.021165,-0.290092,0.017621,-0.0,-0.0,2.0,0.282024,0.271587,0.282024,0.291934,,,,,,,0.021961,-0.013343,-0.178213,0.027784,-0.000273,-0.001358
250237,0.021737,-0.021247,-0.290319,0.017714,-0.0,-0.0,2.0,0.282024,0.273066,0.282024,0.29059,,,,,,,0.022346,-0.013348,-0.178241,0.0,-0.000269,-0.001395
250257,0.021999,-0.021328,-0.290661,0.017808,-0.0,-0.0,2.0,0.282024,0.274274,0.282024,0.28948,,,,,,,0.022607,-0.013354,-0.178269,0.024374,-0.000275,-0.001426
250277,0.022246,-0.021289,-0.291056,0.0179,-0.0,-0.0,2.0,0.282024,0.273936,0.282024,0.289791,,,,,,,0.022853,-0.013359,-0.178297,0.000319,-0.000272,-0.001451
250297,0.022489,-0.021251,-0.291284,0.017952,-0.0,-0.0,2.0,0.282024,0.273105,0.282024,0.290555,,,,,,,0.023098,-0.013365,-0.178327,-1e-06,-0.000268,-0.001471
250317,0.022751,-0.021333,-0.29151,0.018026,-0.0,-0.0,2.0,0.282024,0.275537,0.282024,0.288304,,,,,,,0.023463,-0.01337,-0.178356,0.003612,-0.000273,-0.001502
250337,0.023117,-0.021278,-0.291787,0.018142,-0.0,-0.0,2.0,0.282024,0.271691,0.282024,0.291839,,,,,,,0.023484,-0.013375,-0.178387,0.048327,-0.000269,-0.001527
250357,0.023137,-0.021395,-0.292017,0.018189,-0.0,-0.0,2.0,0.282024,0.274112,0.282024,0.289629,,,,,,,0.023864,-0.013381,-0.178417,-0.003216,-0.000267,-0.001535
250377,0.0235,-0.02134,-0.292127,0.018325,-0.0,-0.0,2.0,0.282024,0.274277,0.282024,0.289477,,,,,,,0.02411,-0.013386,-0.178448,-1e-06,-0.000274,-0.001555
250397,0.023625,-0.02132,-0.292409,0.018406,-0.0,-0.0,2.0,0.282024,0.272541,0.282024,0.291069,,,,,,,0.024233,-0.013392,-0.178479,0.024271,-0.00027,-0.00158
250417,0.023867,-0.021283,-0.29252,0.018498,-0.0,-0.0,2.0,0.282024,0.274604,0.282024,0.289173,,,,,,,0.024475,-0.013397,-0.178511,0.000313,-0.000267,-0.001588
250437,0.023989,-0.021263,-0.292633,0.018567,-0.0,-0.0,2.0,0.282024,0.272732,0.282024,0.290895,,,,,,,0.024599,-0.013403,-0.178543,0.024053,-0.000263,-0.001596
250457,0.024232,-0.021226,-0.292745,0.018668,-0.0,-0.0,2.0,0.282024,0.276116,0.282024,0.287759,,,,,,,0.024961,-0.013408,-0.178575,9.9e-05,-0.000259,-0.001604
250477,0.024354,-0.021205,-0.292974,0.018721,-0.0,-0.0,2.0,0.282024,0.274881,0.282024,0.288916,,,,,,,0.025083,-0.013413,-0.178607,9.9e-05,-0.000256,-0.001612
250497,0.024598,-0.02117,-0.293022,0.018821,-0.0,-0.0,2.0,0.282024,0.273855,0.282024,0.289866,,,,,,,0.025223,-0.013418,-0.178639,0.0,-0.000266,-0.00162
250517,0.024737,-0.021271,-0.293134,0.018944,-0.0,-0.0,2.0,0.282024,0.273359,0.282024,0.290322,,,,,,,0.025346,-0.013423,-0.178672,0.024279,-0.000262,-0.001633
250537,0.024737,-0.021271,-0.293134,0.019021,-0.0,-0.0,2.0,0.282024,0.275313,0.282024,0.288513,,,,,,,0.025589,-0.013429,-0.178704,-0.000111,-0.00026,-0.001629
250557,0.02498,-0.021234,-0.293246,0.01909,-0.0,-0.0,2.0,0.282024,0.273128,0.282024,0.290534,,,,,,,0.02559,-0.013434,-0.178737,-1.5e-05,-0.000259,-0.001638
250577,0.024981,-0.021232,-0.293361,0.019205,-0.0,-0.0,2.0,0.282024,0.274461,0.282024,0.289307,,,,,,,0.02571,-0.013439,-0.17877,0.003648,-0.000269,-0.001634
250597,0.024981,-0.021232,-0.293361,0.019263,-0.0,-0.0,2.0,0.282024,0.274308,0.282024,0.289448,,,,,,,0.02585,-0.013444,-0.178802,-0.02425,-0.000268,-0.001631
250617,0.024999,-0.021353,-0.29336,0.019358,-0.0,-0.0,2.0,0.282024,0.275048,0.282024,0.288761,,,,,,,0.025849,-0.013449,-0.178835,-0.003451,-0.000254,-0.001639
250637,0.025121,-0.021333,-0.293473,0.01945,-0.0,-0.0,2.0,0.282024,0.272247,0.282024,0.291336,,,,,,,0.025729,-0.013455,-0.178868,0.0,-0.000267,-0.001636
250657,0.025119,-0.021335,-0.293358,0.01955,-0.0,-0.0,2.0,0.282024,0.273346,0.282024,0.290334,,,,,,,0.02585,-0.01346,-0.178901,-0.0,-0.000265,-0.001632
250677,0.025258,-0.021438,-0.293354,0.019621,-0.0,-0.0,2.0,0.282024,0.273903,0.282024,0.289822,,,,,,,0.025972,-0.013465,-0.178933,-0.024278,-0.000264,-0.001629
250697,0.025362,-0.021298,-0.293469,0.019734,-0.0,-0.0,2.0,0.282024,0.273409,0.282024,0.290277,,,,,,,0.025989,-0.013471,-0.178966,0.024051,-0.000272,-0.001637
250717,0.025362,-0.021298,-0.293469,0.01982,-0.0,-0.0,2.0,0.282024,0.274769,0.282024,0.28902,,,,,,,0.026109,-0.013476,-0.178999,-0.003435,-0.000259,-0.001622
250737,0.02562,-0.021384,-0.293348,0.019869,-0.0,-0.0,2.0,0.282024,0.274166,0.282024,0.289579,,,,,,,0.026212,-0.013481,-0.179031,-1.6e-05,-0.000257,-0.001619
250757,0.025741,-0.021366,-0.293345,0.019917,-0.0,-0.0,2.0,0.282024,0.276465,0.282024,0.28743,,,,,,,0.026472,-0.013487,-0.179064,-0.000111,-0.000265,-0.001615
250777,0.02588,-0.021469,-0.293342,0.020059,-0.0,-0.0,2.0,0.282024,0.275071,0.282024,0.288739,,,,,,,0.026489,-0.013492,-0.179096,0.024165,-0.000275,-0.001611
250797,0.026,-0.021451,-0.29334,0.020151,-0.0,-0.0,2.0,0.282024,0.27374,0.282024,0.289972,,,,,,,0.02661,-0.013497,-0.179128,-0.0,-0.000274,-0.001608
250817,0.02612,-0.021435,-0.293222,0.020243,-0.0,-0.0,2.0,0.282024,0.272833,0.282024,0.290804,,,,,,,0.026731,-0.013503,-0.17916,0.003236,-0.000284,-0.001593
250837,0.026259,-0.021538,-0.293218,0.020292,-0.0,-0.0,2.0,0.282024,0.276926,0.282024,0.286993,,,,,,,0.026989,-0.013508,-0.179192,0.000115,-0.00028,-0.001601
250857,0.026483,-0.02138,-0.293331,0.020399,-0.0,-0.0,2.0,0.282024,0.273429,0.282024,0.290258,,,,,,,0.026971,-0.013514,-0.179224,-1.5e-05,-0.000267,-0.001586
250877,0.026482,-0.021382,-0.293215,0.020465,-0.0,-0.0,2.0,0.282024,0.272488,0.282024,0.291118,,,,,,,0.027092,-0.013519,-0.179256,0.023952,-0.000263,-0.001583
250897,0.026603,-0.021364,-0.293213,0.020577,-0.0,-0.0,2.0,0.282024,0.275304,0.282024,0.288521,,,,,,,0.027334,-0.013525,-0.179287,-0.000209,-0.000261,-0.001579
250917,0.026725,-0.021344,-0.293326,0.020663,-0.0,-0.0,2.0,0.282024,0.273997,0.282024,0.289735,,,,,,,0.027333,-0.01353,-0.179319,0.02426,-0.000259,-0.001587
250937,0.026743,-0.021465,-0.293325,0.02074,-0.0,-0.0,2.0,0.282024,0.27426,0.282024,0.289492,,,,,,,0.027454,-0.013535,-0.179351,0.003548,-0.00027,-0.001572
250957,0.026743,-0.021465,-0.293325,0.020854,-0.0,-0.0,2.0,0.282024,0.274044,0.282024,0.289692,,,,,,,0.027473,-0.01354,-0.179382,-0.00021,-0.00027,-0.001569
250977,0.026863,-0.021447,-0.293322,0.02095,-0.0,-0.0,2.0,0.282024,0.276507,0.282024,0.28739,,,,,,,0.027593,-0.013546,-0.179414,0.000309,-0.000267,-0.001589
250997,0.026864,-0.021445,-0.293438,0.021045,-0.0,-0.0,2.0,0.282024,0.274081,0.282024,0.289658,,,,,,,0.027595,-0.013551,-0.179445,-1.4e-05,-0.000266,-0.001586
251017,0.026866,-0.021443,-0.293554,0.021093,-0.0,-0.0,2.0,0.282024,0.274143,0.282024,0.289601,,,,,,,0.027595,-0.013556,-0.179477,0.003551,-0.000278,-0.001583
251037,0.027006,-0.021547,-0.293603,0.021195,-0.0,-0.0,2.0,0.282024,0.275815,0.282024,0.288043,,,,,,,0.027736,-0.013562,-0.179509,-0.000348,-0.000276,-0.001591
251057,0.027007,-0.021545,-0.293718,0.021279,-0.0,-0.0,2.0,0.282024,0.274439,0.282024,0.289327,,,,,,,0.027737,-0.013567,-0.179541,0.024051,-0.000273,-0.001604
251077,0.027147,-0.021646,-0.29383,0.02133,-0.0,-0.0,2.0,0.282024,0.275483,0.282024,0.288354,,,,,,,0.027876,-0.013573,-0.179573,-1e-06,-0.000285,-0.001601
251097,0.027147,-0.021646,-0.29383,0.02145,-0.0,-0.0,2.0,0.282024,0.274438,0.282024,0.289328,,,,,,,0.027876,-0.013579,-0.179605,0.000211,-0.000284,-0.001609
251117,0.027026,-0.021664,-0.293833,0.021501,-0.0,-0.0,2.0,0.282024,0.274073,0.282024,0.289665,,,,,,,0.027859,-0.013584,-0.179637,0.00354,-0.000283,-0.001606
251137,0.027009,-0.021542,-0.29395,0.021633,-0.0,-0.0,2.0,0.282024,0.272617,0.282024,0.291,,,,,,,0.027757,-0.01359,-0.179669,0.024163,-0.000283,-0.001614
