time_ms,roll,pitch,yaw,roll_rate,pitch_rate,yaw_rate,reference_roll,reference_pitch,reference_yaw,reference_throttle,throttle_1,throttle_2,throttle_3,throttle_4,roll_predicted,pitch_predicted,yaw_predicted,roll_rate_predicted,pitch_rate_predicted,yaw_rate_predicted
30665,-0.014927,-0.028589,-0.066669,3e-05,-0.00108,-0.001049,-0.0,-0.0,-0.0,2.0,0.282024,0.275325,0.282024,0.288502,-0.0,-255.641218,-0.0,-0.0,-8.961672,0.0
30685,-0.014931,-0.028467,-0.066668,-0.0,-0.001064,1.6e-05,5.4e-05,-0.0,-0.0,2.0,0.282024,0.272923,0.282024,0.290721,1e-06,-255.993398,0.0,4.7e-05,-8.533945,0.0
30705,-0.014936,-0.028345,-0.066667,-0.001034,-1.6e-05,-0.001065,0.003848,-0.0,-0.0,2.0,0.282024,0.271217,0.282024,0.292266,3.1e-05,-256.328088,-7e-06,0.003361,-8.09195,5e-06
30725,-0.01493,-0.028468,-0.066789,-0.001064,0.0,0.0,0.007612,-0.0,-0.0,2.0,0.282024,0.269322,0.282024,0.293952,0.000191,-256.645484,-6.3e-05,0.009024,-7.684842,2.9e-05
30745,-0.015046,-0.028595,-0.066914,-0.001064,0.0,0.0,0.009615,-0.0,-0.0,2.0,0.282024,0.268392,0.282024,0.294768,0.000532,-256.947595,-0.000198,0.014212,-7.351207,7.8e-05
30765,-0.015046,-0.028595,-0.066914,-0.0,-0.001064,1.6e-05,0.013369,-0.0,-0.0,2.0,0.282024,0.266603,0.282024,0.296318,0.001063,-257.237799,-0.000434,0.020281,-7.117885,0.000147
30785,-0.015042,-0.028717,-0.066915,3.1e-05,-1.6e-05,-0.001065,0.016396,-0.0,-0.0,2.0,0.282024,0.267628,0.282024,0.295433,0.001868,-257.520381,-0.000819,0.026528,-7.000988,0.000241
30805,-0.0148,-0.028588,-0.067032,0.0,0.0,0.0,0.021823,-0.0,-0.0,2.0,0.282024,0.265083,0.282024,0.297614,0.003036,-257.800129,-0.001445,0.03383,-7.007522,0.00036
30825,-0.014556,-0.02858,-0.067029,-0.0,-0.001064,1.5e-05,0.024273,-0.0,-0.0,2.0,0.282024,0.264087,0.282024,0.298453,0.004824,-258.08199,-0.00251,0.040976,-7.136563,0.000512
30845,-0.014312,-0.028572,-0.067026,-0.0,-0.001064,1.5e-05,0.02666,-0.0,-0.0,2.0,0.282024,0.263029,0.282024,0.299335,0.007652,-258.370757,-0.004502,0.045788,-7.37948,0.000694
30865,-0.013944,-0.02856,-0.067143,0.0,0.0,0.0,0.030667,-0.0,-0.0,2.0,0.282024,0.261183,0.282024,0.300854,0.012982,-258.670752,-0.008938,0.049318,-7.719195,0.000902
30885,-0.013577,-0.028549,-0.06726,0.0,0.0,0.0,0.034148,-0.0,-0.0,2.0,0.282024,0.262268,0.282024,0.299965,0.029531,-258.98545,-0.024548,0.046923,-8.128919,0.00113
30905,-0.013083,-0.028655,-0.067376,0.001064,0.0,0.0,0.035913,-0.0,-0.0,2.0,0.282024,0.258942,0.282024,0.302662,0.258883,-259.232283,-0.25317,0.020158,-8.460049,0.001282
30925,-0.012467,-0.028758,-0.067491,0.001064,-0.001064,1.3e-05,0.040726,-0.0,-0.0,2.0,0.282024,0.256829,0.282024,0.304332,-0.019301,-259.662041,0.024221,0.091448,-8.999526,0.001336
30945,-0.011605,-0.028852,-0.067724,0.001064,-0.001064,1.2e-05,0.040726,-0.0,-0.0,2.0,0.282024,0.259931,0.282024,0.301869,-0.007346,-260.027699,0.014776,0.111546,-9.361024,0.001884
30965,-0.01063,-0.028699,-0.067954,0.002128,0.0,0.0,0.046971,-0.0,-0.0,2.0,0.282024,0.259959,0.282024,0.301846,-0.001399,-260.40623,0.012366,0.116731,-9.60499,0.002517
30985,-0.00928,-0.028776,-0.06818,0.003193,0.0,0.0,0.048873,-0.0,-0.0,2.0,0.282024,0.25962,0.282024,0.302119,0.003332,-260.792283,0.012401,0.116977,-9.69361,0.003182
31005,-0.007811,-0.028728,-0.068525,0.003192,-0.001064,8e-06,0.052768,-0.0,-0.0,2.0,0.282024,0.260998,0.282024,0.301005,0.008408,-261.179326,0.014311,0.116228,-9.611949,0.003845
31025,-0.005972,-0.028789,-0.068866,0.004257,-0.001064,6e-06,0.054381,-0.0,-0.0,2.0,0.282024,0.261096,0.282024,0.300925,0.015712,-261.56064,0.01914,0.113975,-9.445557,0.004333
31045,-0.003639,-0.028954,-0.069321,0.004226,4e-06,0.001065,0.057238,-0.0,-0.0,2.0,0.282024,0.265905,0.282024,0.296916,0.031036,-261.930373,0.032345,0.107401,-9.1113,0.004946
31065,-0.001192,-0.028869,-0.069774,0.00529,1e-06,0.001065,0.059985,-0.0,-0.0,2.0,0.282024,0.265776,0.282024,0.297025,0.121718,-262.284143,0.121074,0.087507,-8.694695,0.005483
31085,0.001502,-0.028897,-0.070101,0.006385,-0.001064,-2e-06,0.062709,-0.0,-0.0,2.0,0.282024,0.265763,0.282024,0.297036,-0.061943,-262.609654,-0.062023,0.10812,-8.142191,0.003158
31105,0.004693,-0.029029,-0.070797,0.006385,-0.001064,-5e-06,0.064889,-0.0,-0.0,2.0,0.282024,0.268636,0.282024,0.294555,-0.020642,-262.928747,-0.024009,0.17368,-7.831112,0.003643
31125,0.008248,-0.029145,-0.071352,0.007419,-0.001073,0.001056,0.067133,-0.0,-0.0,2.0,0.282024,0.271708,0.282024,0.291824,-0.007399,-263.232822,-0.016518,0.192675,-7.401455,0.004679
31145,0.01192,-0.029132,-0.071904,0.007419,-1.3e-05,0.001065,0.068993,-0.0,-0.0,2.0,0.282024,0.272622,0.282024,0.290996,0.001266,-263.525044,-0.014856,0.19382,-7.16914,0.00551
31165,0.01596,-0.029104,-0.072462,0.008483,-1.7e-05,0.001065,0.071688,-0.0,-0.0,2.0,0.282024,0.275561,0.282024,0.288281,0.008822,-263.809701,-0.015817,0.194531,-7.054248,0.006322
31185,0.020126,-0.029189,-0.073123,0.009548,-0.001085,0.001043,0.073911,-0.0,-0.0,2.0,0.282024,0.276376,0.282024,0.287514,0.016723,-264.091606,-0.018865,0.19507,-7.063781,0.007129
31205,0.024418,-0.029265,-0.073915,0.009547,-2.6e-05,0.001064,0.074879,-0.0,-0.0,2.0,0.282024,0.277935,0.282024,0.28603,0.026292,-264.375721,-0.024588,0.193609,-7.196599,0.007943
31225,0.029075,-0.029324,-0.074699,0.008451,-6.2e-05,0.002128,0.076695,-0.0,-0.0,2.0,0.282024,0.28154,0.282024,0.282507,0.03998,-264.666825,-0.035187,0.190111,-7.371977,0.008559
31245,0.033607,-0.029384,-0.075346,0.009516,-7.2e-05,0.002128,0.078418,-0.0,-0.0,2.0,0.282024,0.282778,0.282024,0.281268,0.065415,-264.96912,-0.058251,0.172722,-7.787123,0.009581
31265,0.038143,-0.029439,-0.076126,0.009548,-0.001104,0.001023,0.079359,-0.0,-0.0,2.0,0.282024,0.284335,0.282024,0.279686,0.148825,-265.285414,-0.140211,0.125448,-8.19939,0.010325
31285,0.042798,-0.029361,-0.077026,0.008484,-0.001109,0.001018,0.081041,-0.0,-0.0,2.0,0.282024,0.285631,0.282024,0.27835,1.301669,-265.466993,-1.29093,-0.41349,-8.642214,-0.011063
31305,0.047214,-0.029414,-0.077817,0.008451,-0.0001,0.002127,0.08276,-0.0,-0.0,2.0,0.282024,0.286861,0.282024,0.277065,-62.856281,-265.453048,62.864084,1.340728,-9.088513,-0.140137
31325,0.051383,-0.029474,-0.078474,0.008451,-0.000109,0.002127,0.083373,-0.0,-0.0,2.0,0.282024,0.2861,0.282024,0.277862,-62.799713,-265.823289,62.896091,3.030432,-9.437396,-0.251069
31345,0.05567,-0.029401,-0.079252,0.008483,-5.9e-05,0.001063,0.084562,-0.0,-0.0,2.0,0.282024,0.287368,0.282024,0.276531,-62.699139,-266.210886,62.975655,5.310856,-10.036129,-0.420496
31365,0.059721,-0.029448,-0.080272,0.007418,-6.4e-05,0.001063,0.085447,-0.0,-0.0,2.0,0.282024,0.288775,0.282024,0.275032,-62.538851,-266.608103,63.096598,6.684459,-10.486304,-0.543641
31385,0.063642,-0.029382,-0.081053,0.007387,-0.000135,0.002125,0.086132,-0.0,-0.0,2.0,0.282024,0.287955,0.282024,0.275909,-62.303879,-266.994623,63.281433,7.67972,-10.871349,-0.65763
31405,0.067444,-0.029323,-0.081728,0.007389,-0.001205,0.002053,0.086407,-0.0,-0.0,2.0,0.282024,0.289458,0.282024,0.274297,-61.956316,-267.326798,63.570737,8.33652,-11.181196,-0.764555
31425,0.071001,-0.029261,-0.082635,0.006356,-0.001137,0.000986,0.086848,-0.0,-0.0,2.0,0.282024,0.290763,0.282024,0.272878,-61.452426,-267.520478,64.007649,8.726371,-11.446752,-0.866484
31445,0.074553,-0.029074,-0.083544,0.006357,-0.001141,0.000982,0.087045,-0.0,-0.0,2.0,0.282024,0.292182,0.282024,0.271311,-60.858729,-267.46974,64.521694,8.944638,-11.739994,-0.964913
31465,0.077752,-0.029149,-0.084345,0.006326,-0.001226,0.00204,0.087201,-0.0,-0.0,2.0,0.282024,0.290974,0.282024,0.272646,-60.474441,-267.263708,64.832068,9.055495,-12.037607,-1.036777
31485,0.080936,-0.028976,-0.085139,0.005262,-0.001233,0.002036,0.087214,-0.0,-0.0,2.0,0.282024,0.292671,0.282024,0.270765,-59.999876,-266.724323,65.12486,9.22919,-12.801263,-1.152103
31505,0.083878,-0.028806,-0.086058,0.005293,-0.00115,0.000972,0.087125,-0.0,-0.0,2.0,0.282024,0.291706,0.282024,0.271839,-59.645938,-266.201947,65.175483,9.340163,-13.456118,-1.21768
31525,0.086336,-0.028662,-0.086883,0.004227,-9.2e-05,0.001061,0.086729,-0.0,-0.0,2.0,0.282024,0.290711,0.282024,0.272934,-58.852677,-265.676499,64.714501,9.472478,-14.839011,-1.318896
31545,0.088795,-0.02863,-0.087807,0.004199,-0.001249,0.002027,0.086239,-0.0,-0.0,2.0,0.282024,0.292015,0.282024,0.271497,-56.474654,-265.894683,62.693922,9.378685,-16.07853,-1.392103
31565,0.090883,-0.028497,-0.088623,0.003135,-0.001253,0.002024,0.085574,-0.0,-0.0,2.0,0.282024,0.290928,0.282024,0.272696,-56.288801,-266.54104,62.93428,9.056334,-17.249997,-1.460277
31585,0.092604,-0.028379,-0.089448,0.002098,-9.8e-05,0.00106,0.084759,-0.0,-0.0,2.0,0.282024,0.292002,0.282024,0.271511,-56.004064,-267.179138,63.248396,8.509591,-18.188482,-1.526702
31605,0.093955,-0.028156,-0.090287,0.002101,-0.001159,0.00096,0.084233,-0.0,-0.0,2.0,0.282024,0.290593,0.282024,0.273064,-55.460957,-267.689432,63.823647,7.779531,-18.841807,-1.595552
31625,0.095067,-0.028184,-0.091104,0.001007,-0.001261,0.002019,0.083091,-0.0,-0.0,2.0,0.282024,0.28935,0.282024,0.274414,-54.50732,-267.728126,64.809375,6.972165,-19.311186,-1.670223
31645,0.095685,-0.027999,-0.091839,-3e-05,-0.000102,0.00106,0.08237,-0.0,-0.0,2.0,0.282024,0.289977,0.282024,0.273735,-53.921451,-267.162758,65.426758,6.188902,-19.8108,-1.752082
31665,0.096181,-0.02794,-0.092555,-2.7e-05,-0.001162,0.000957,0.080504,-0.0,-0.0,2.0,0.282024,0.288719,0.282024,0.275093,-53.716518,-266.40258,65.696338,5.636665,-20.332167,-1.817952
31685,0.096195,-0.027906,-0.0933,-0.001061,-0.001059,-0.000102,0.079515,-0.0,-0.0,2.0,0.282024,0.289192,0.282024,0.274584,-53.785696,-265.581131,66.029724,4.912767,-21.249167,-1.91111
31705,0.096088,-0.027998,-0.094026,-0.001094,-0.000102,0.00106,0.077853,-0.0,-0.0,2.0,0.282024,0.287582,0.282024,0.276304,-53.330712,-264.873952,65.783206,3.909582,-22.48637,-2.036626
31725,0.095843,-0.027871,-0.094402,-0.001091,-0.001161,0.000958,0.076037,-0.0,-0.0,2.0,0.282024,0.288379,0.282024,0.275456,-53.309461,-263.97033,65.979622,2.962523,-23.211248,-2.147208
31745,0.095719,-0.027737,-0.094774,-0.001061,-0.001059,-0.000102,0.074152,-0.0,-0.0,2.0,0.282024,0.289017,0.282024,0.274773,-53.130067,-263.060344,66.223339,1.888814,-23.451727,-2.270309
31765,0.095712,-0.027476,-0.09515,3e-06,-0.001059,-0.000102,0.072066,-0.0,-0.0,2.0,0.282024,0.289849,0.282024,0.273874,-50.647865,-262.365571,68.74724,0.770128,-23.269746,-2.408452
31785,0.095582,-0.027227,-0.095407,3e-06,-0.001059,-0.000102,0.070428,-0.0,-0.0,2.0,0.282024,0.290653,0.282024,0.272998,-50.268472,-263.103192,69.054222,-0.236468,-22.911778,-2.561422
31805,0.095693,-0.026971,-0.095537,-0.001061,-0.001059,-0.000102,0.070428,-0.0,-0.0,2.0,0.282024,0.292945,0.282024,0.270458,-50.337855,-264.017695,68.966654,-1.315831,-22.619376,-2.728287
31825,0.095689,-0.026843,-0.095664,2.8e-05,0.000102,-0.00106,0.065677,-0.0,-0.0,2.0,0.282024,0.294808,0.282024,0.268347,-50.395318,-264.926706,68.934249,-2.455967,-22.50567,-2.9097
31845,0.095567,-0.026849,-0.095667,-0.001064,0.0,0.0,0.064385,-0.0,-0.0,2.0,0.282024,0.293183,0.282024,0.270191,-50.280444,-265.824603,68.700606,-3.640924,-22.382624,-3.106377
31865,0.095573,-0.026971,-0.095661,-0.001036,0.000102,-0.00106,0.061036,-0.0,-0.0,2.0,0.282024,0.294522,0.282024,0.268673,-50.509604,-266.721117,68.762024,-4.832106,-21.891089,-3.318257
31885,0.095457,-0.027099,-0.095658,-0.001064,0.0,0.0,0.058305,-0.0,-0.0,2.0,0.282024,0.295611,0.282024,0.267423,-50.731738,-267.580874,68.621809,-5.900337,-20.760184,-3.542959
31905,0.09509,-0.027123,-0.095546,-0.001033,-0.000958,-0.001161,0.056863,-0.0,-0.0,2.0,0.282024,0.296163,0.282024,0.266783,-51.490897,-268.301017,67.980867,-6.772456,-19.008538,-3.775218
31925,0.09509,-0.027123,-0.095546,-0.001033,-0.000958,-0.001161,0.054024,-0.0,-0.0,2.0,0.282024,0.297264,0.282024,0.265496,-53.581967,-268.23641,66.043039,-7.304049,-17.424451,-3.950699
31945,0.094841,-0.027014,-0.095558,-0.001033,-0.000959,-0.001161,0.050786,-0.0,-0.0,2.0,0.282024,0.298439,0.282024,0.264103,-53.921573,-267.40169,66.115904,-7.927414,-14.585271,-4.239448
31965,0.094591,-0.026904,-0.095569,-0.001062,-0.001059,-0.000101,0.048299,-0.0,-0.0,2.0,0.282024,0.299455,0.282024,0.262884,-54.21887,-266.854175,66.295214,-8.083272,-12.336705,-4.462506
31985,0.094346,-0.026922,-0.095454,-0.001033,-0.000959,-0.00116,0.045185,-0.0,-0.0,2.0,0.282024,0.300556,0.282024,0.261548,-54.643282,-266.440799,66.585884,-7.873553,-10.188186,-4.67533
32005,0.094091,-0.026811,-0.095448,-0.001062,-0.00106,-0.0001,0.042789,-0.0,-0.0,2.0,0.282024,0.301371,0.282024,0.260548,-55.245421,-266.205468,67.042096,-7.435864,-8.665442,-4.82717
32025,0.093477,-0.026719,-0.095469,-0.002126,-0.00106,-9.9e-05,0.038742,-0.0,-0.0,2.0,0.282024,0.300719,0.282024,0.261349,-55.926183,-266.182157,67.581162,-6.136603,-6.379462,-5.06485
32045,0.092744,-0.026762,-0.095365,-0.002097,-0.000961,-0.001159,0.034788,-0.0,-0.0,2.0,0.282024,0.302059,0.282024,0.259694,-56.447998,-266.310679,67.989972,-4.634564,-4.893399,-5.242384
32065,0.092008,-0.026676,-0.095389,-0.003162,-0.000962,-0.001158,0.033092,-0.0,-0.0,2.0,0.282024,0.302338,0.282024,0.259348,-56.768656,-266.495346,68.252336,-2.859081,-3.835472,-5.411267
32085,0.090784,-0.026735,-0.095401,-0.003162,-0.000963,-0.001157,0.02966,-0.0,-0.0,2.0,0.282024,0.301195,0.282024,0.260763,-56.94025,-266.696183,68.440901,-1.003117,-3.291683,-5.574226
32105,0.089311,-0.026565,-0.095447,-0.004254,-0.00106,-9.5e-05,0.026179,-0.0,-0.0,2.0,0.282024,0.299851,0.282024,0.262406,-56.994871,-266.906794,68.599279,0.71747,-3.287521,-5.733224
32125,0.087709,-0.026404,-0.095356,-0.004226,-0.000967,-0.001154,0.026179,-0.0,-0.0,2.0,0.282024,0.299311,0.282024,0.263059,-56.951045,-267.129308,68.75155,2.099666,-3.772183,-5.888975
32145,0.085871,-0.026371,-0.095387,-0.005291,-0.000969,-0.001152,0.02102,-0.0,-0.0,2.0,0.282024,0.300651,0.282024,0.261431,-56.82112,-267.365335,68.920246,2.985155,-4.619712,-6.04136
32165,0.083661,-0.026235,-0.09543,-0.005291,-0.000972,-0.00115,0.017214,-0.0,-0.0,2.0,0.282024,0.299139,0.282024,0.263265,-56.604054,-267.609098,69.14059,3.288422,-5.646278,-6.190438
32185,0.081453,-0.025973,-0.095616,-0.006383,-0.001061,-8.7e-05,0.014214,-0.0,-0.0,2.0,0.282024,0.299516,0.282024,0.262812,-56.265938,-267.83395,69.477716,3.016329,-6.643191,-6.337339
32205,0.078876,-0.02586,-0.095544,-0.006383,-0.001061,-8.4e-05,0.009378,-0.0,-0.0,2.0,0.282024,0.29852,0.282024,0.264007,-55.89212,-267.948524,69.862873,2.492007,-7.254781,-6.447455
32225,0.07618,-0.025747,-0.095595,-0.006356,-0.00098,-0.001143,0.004989,-0.0,-0.0,2.0,0.282024,0.298957,0.282024,0.263483,-55.152109,-267.896888,70.66556,1.214992,-7.842269,-6.634289
32245,0.073233,-0.025525,-0.095654,-0.00742,-0.000984,-0.00114,0.001254,-0.0,-0.0,2.0,0.282024,0.299274,0.282024,0.263103,-54.802964,-267.63707,71.116641,0.052517,-7.859326,-6.789023
32265,0.070051,-0.025432,-0.095834,-0.007448,-0.001062,-7.5e-05,-0.002503,-0.0,-0.0,2.0,0.282024,0.297445,0.282024,0.265283,-54.690466,-267.299818,71.3884,-1.023992,-7.497081,-6.949014
32285,0.066739,-0.025227,-0.095897,-0.008512,-0.001062,-7.1e-05,-0.004346,-0.0,-0.0,2.0,0.282024,0.296792,0.282024,0.26605,-54.717313,-266.948762,71.591125,-1.850584,-6.837816,-7.113144
32305,0.063182,-0.025038,-0.095841,-0.008486,-0.000995,-0.00113,-0.006264,-0.0,-0.0,2.0,0.282024,0.293911,0.282024,0.269368,-54.841933,-266.611336,71.78864,-2.309479,-6.003389,-7.279365
32325,0.059384,-0.024854,-0.09603,-0.00955,-0.000999,-0.001126,-0.013019,-0.0,-0.0,2.0,0.282024,0.295188,0.282024,0.2675,-54.997719,-266.377217,71.964514,-2.375453,-5.351674,-7.404117
32345,0.055342,-0.024685,-0.0961,-0.00955,-0.001004,-0.001122,-0.01535,-0.0,-0.0,2.0,0.282024,0.292258,0.282024,0.271226,-55.4354,-266.051376,72.41298,-1.972609,-4.415248,-7.610305
32365,0.051049,-0.024405,-0.096174,-0.009577,-0.001063,-5.4e-05,-0.018351,-0.0,-0.0,2.0,0.282024,0.291824,0.282024,0.271708,-56.066502,-265.917433,73.059657,-1.295585,-3.962035,-7.772975
32385,0.046646,-0.024376,-0.096241,-0.010641,-0.001063,-5e-05,-0.022977,-0.0,-0.0,2.0,0.282024,0.291915,0.282024,0.271608,-56.765504,-266.00608,73.797679,-0.684285,-3.857916,-7.893625
32405,0.041987,-0.023991,-0.096455,-0.010616,-0.001019,-0.001108,-0.025251,-0.0,-0.0,2.0,0.282024,0.289119,0.282024,0.274662,-57.05307,-266.193662,74.134633,0.115391,-4.043338,-8.052828
32425,0.037208,-0.023732,-0.096647,-0.01168,-0.001024,-0.001103,-0.028814,-0.0,-0.0,2.0,0.282024,0.288129,0.282024,0.275723,-57.218095,-266.596784,74.423435,0.722265,-4.524922,-8.210257
32445,0.032313,-0.023602,-0.096834,-0.011706,-0.001064,-3.4e-05,-0.03229,-0.0,-0.0,2.0,0.282024,0.287575,0.282024,0.276312,-57.224926,-266.957987,74.566944,1.008208,-5.290736,-8.405033
32465,0.027165,-0.023242,-0.097042,-0.011706,-0.001064,-2.9e-05,-0.035687,-0.0,-0.0,2.0,0.282024,0.284515,0.282024,0.279501,-57.177409,-267.339338,74.700043,0.826559,-5.77715,-8.56026
32485,0.02202,-0.023002,-0.097225,-0.011706,-0.001064,-2.3e-05,-0.037435,-0.0,-0.0,2.0,0.282024,0.283029,0.282024,0.281014,-57.073907,-267.727068,74.872655,0.377422,-5.949664,-8.716284
32505,0.016634,-0.022776,-0.097424,-0.012746,-0.001046,-0.001082,-0.041649,-0.0,-0.0,2.0,0.282024,0.282567,0.282024,0.281479,-56.821786,-268.091429,75.198947,-0.162006,-5.717944,-8.87402
32525,0.011369,-0.022543,-0.09772,-0.011706,-0.001064,-1.2e-05,-0.043753,-0.0,-0.0,2.0,0.282024,0.281063,0.282024,0.282981,-55.996389,-268.321378,76.106612,-0.503272,-5.296613,-8.993473
32545,0.005854,-0.022202,-0.09791,-0.011706,-0.001064,-6e-06,-0.047788,-0.0,-0.0,2.0,0.282024,0.278131,0.282024,0.285841,-54.989125,-268.123878,77.193795,-0.753754,-4.311304,-9.193702
32565,0.00046,-0.021855,-0.09797,-0.012747,-0.001064,-0.001065,-0.049624,-0.0,-0.0,2.0,0.282024,0.278925,0.282024,0.285075,-54.819252,-267.743666,77.433232,-0.679682,-3.708474,-9.313803
32585,-0.004932,-0.021509,-0.098268,-0.011684,-0.001069,-0.001059,-0.053289,-0.0,-0.0,2.0,0.282024,0.278094,0.282024,0.285877,-54.795404,-267.350192,77.512904,-0.25742,-2.998326,-9.51308
32605,-0.010325,-0.021163,-0.098438,-0.011707,-0.001064,1.1e-05,-0.056175,-0.0,-0.0,2.0,0.282024,0.274532,0.282024,0.28924,-54.791164,-266.952403,77.558391,0.182996,-2.870633,-9.671584
32625,-0.015842,-0.020824,-0.0985,-0.012771,-0.001064,1.7e-05,-0.058933,-0.0,-0.0,2.0,0.282024,0.275814,0.282024,0.288044,-54.788968,-266.547955,77.60324,0.513363,-3.17117,-9.829364
32645,-0.021119,-0.020351,-0.098655,-0.012771,-0.001064,2.2e-05,-0.061039,-0.0,-0.0,2.0,0.282024,0.2742,0.282024,0.289548,-54.814328,-266.134361,77.681115,0.580648,-3.786801,-9.986584
32665,-0.026513,-0.020007,-0.098825,-0.011686,-0.001092,-0.001036,-0.062836,-0.0,-0.0,2.0,0.282024,0.272595,0.282024,0.29102,-55.023021,-265.71705,77.938727,0.330226,-4.495114,-10.143718
32685,-0.031785,-0.019654,-0.098848,-0.011707,-0.001064,3.4e-05,-0.0664,-0.0,-0.0,2.0,0.282024,0.269308,0.282024,0.293965,-60.479785,-265.582171,83.417077,-0.167069,-5.036979,-10.301634
32705,-0.037058,-0.019305,-0.099005,-0.012751,-0.001103,-0.001024,-0.067887,-0.0,-0.0,2.0,0.282024,0.270079,0.282024,0.293282,-55.455003,-265.326613,78.378983,-0.860143,-5.204328,-10.461264
32725,-0.042331,-0.018956,-0.099156,-0.011707,-0.001063,4.5e-05,-0.070773,-0.0,-0.0,2.0,0.282024,0.268845,0.282024,0.294372,-54.609318,-264.911554,77.475988,-1.277004,-5.026775,-10.582327
32745,-0.047727,-0.018611,-0.09918,-0.011708,-0.002126,0.000102,-0.072185,-0.0,-0.0,2.0,0.282024,0.264498,0.282024,0.298107,-54.636718,-264.445335,77.437376,-1.450204,-4.461735,-10.744599
32765,-0.053001,-0.01826,-0.099197,-0.011688,-0.001119,-0.001007,-0.074445,-0.0,-0.0,2.0,0.282024,0.265624,0.282024,0.297155,-54.681418,-263.982882,77.42186,-0.935413,-3.581574,-10.946492
32785,-0.058029,-0.017903,-0.099451,-0.011708,-0.001062,6.2e-05,-0.076311,-0.0,-0.0,2.0,0.282024,0.263972,0.282024,0.298549,-54.707337,-263.522406,77.415805,-0.113526,-3.099751,-11.106131
32805,-0.063189,-0.01742,-0.099332,-0.011708,-0.001062,6.7e-05,-0.077187,-0.0,-0.0,2.0,0.282024,0.261927,0.282024,0.300245,-54.696709,-263.059574,77.41918,0.720864,-3.021532,-11.2641
32825,-0.068229,-0.016936,-0.099346,-0.010627,-0.002196,-0.000917,-0.078473,-0.0,-0.0,2.0,0.282024,0.260027,0.282024,0.301792,-54.631558,-262.590123,77.450516,1.212923,-3.320969,-11.420711
32845,-0.073021,-0.016444,-0.099457,-0.010626,-0.001139,-0.000984,-0.08,-0.0,-0.0,2.0,0.282024,0.261048,0.282024,0.300964,-54.82011,-262.15797,77.210483,1.160045,-3.774849,-11.576517
32865,-0.077689,-0.016068,-0.099585,-0.010644,-0.001061,8.3e-05,-0.081406,-0.0,-0.0,2.0,0.282024,0.259955,0.282024,0.30185,-54.653056,-261.792266,77.348658,0.780652,-4.033171,-11.693481
32885,-0.082483,-0.015567,-0.099442,-0.010628,-0.002209,-0.000885,-0.083042,-0.0,-0.0,2.0,0.282024,0.257884,0.282024,0.303502,-54.633778,-261.169363,77.34613,-0.190188,-4.017386,-11.890199
32905,-0.086913,-0.015058,-0.099556,-0.009565,-0.002213,-0.000876,-0.083778,-0.0,-0.0,2.0,0.282024,0.256476,0.282024,0.304608,-54.64749,-260.792644,77.337289,-0.712243,-3.70955,-12.009605
32925,-0.091346,-0.014421,-0.099519,-0.009566,-0.002217,-0.000866,-0.085006,-0.0,-0.0,2.0,0.282024,0.254337,0.282024,0.306259,-54.686732,-260.164921,77.311312,-1.041511,-2.958013,-12.2098
32945,-0.095412,-0.013896,-0.099624,-0.009579,-0.001059,0.000101,-0.085797,-0.0,-0.0,2.0,0.282024,0.255318,0.282024,0.305506,-54.691691,-259.662763,77.264934,-0.72159,-2.527023,-12.36971
32965,-0.099359,-0.01323,-0.099458,-0.008517,-0.002118,0.000211,-0.086395,-0.0,-0.0,2.0,0.282024,0.256233,0.282024,0.304798,-54.345053,-259.160339,76.890248,-0.098108,-2.560433,-12.528785
32985,-0.103189,-0.012565,-0.099428,-0.008503,-0.002227,-0.000839,-0.086737,-0.0,-0.0,2.0,0.282024,0.254519,0.282024,0.306121,-54.846787,-258.961471,77.387616,0.356631,-3.089291,-12.686946
33005,-0.106762,-0.012008,-0.099383,-0.00744,-0.00223,-0.000831,-0.08708,-0.0,-0.0,2.0,0.282024,0.252814,0.282024,0.307415,-54.729702,-258.435308,77.280744,0.390926,-3.816299,-12.84449
33025,-0.109982,-0.011327,-0.099591,-0.008516,-0.002116,0.000234,-0.087237,-0.0,-0.0,2.0,0.282024,0.253858,0.282024,0.306625,-54.701728,-257.894983,77.25227,0.035946,-4.301893,-13.002174
33045,-0.113068,-0.010747,-0.099543,-0.007452,-0.002115,0.00024,-0.087262,-0.0,-0.0,2.0,0.282024,0.252264,0.282024,0.307828,-54.705816,-257.345183,77.228713,-0.450811,-4.211668,-13.160902
33065,-0.116169,-0.01004,-0.099382,-0.006377,-0.002237,-0.00081,-0.08722,-0.0,-0.0,2.0,0.282024,0.251018,0.282024,0.308757,-54.727939,-256.930924,77.213341,-0.669265,-3.744558,-13.280628
33085,-0.118659,-0.009194,-0.09944,-0.006379,-0.003296,-0.000679,-0.086915,-0.0,-0.0,2.0,0.282024,0.252217,0.282024,0.307864,-54.763374,-256.380068,77.201075,-0.54129,-2.846998,-13.440306
33105,-0.121014,-0.008586,-0.099511,-0.005323,-0.002113,0.000257,-0.086505,-0.0,-0.0,2.0,0.282024,0.25322,0.282024,0.307108,-54.864311,-255.695342,77.115308,0.218408,-2.013604,-13.638766
33125,-0.123127,-0.007959,-0.099462,-0.005322,-0.001056,0.000131,-0.085931,-0.0,-0.0,2.0,0.282024,0.251778,0.282024,0.308192,-54.828205,-255.141865,77.133941,0.714066,-1.973704,-13.757184
33145,-0.124991,-0.007441,-0.099421,-0.004258,-0.001056,0.000133,-0.085554,-0.0,-0.0,2.0,0.282024,0.253307,0.282024,0.307043,-54.791473,-254.580367,77.132681,0.990032,-2.477411,-13.914441
33165,-0.126732,-0.006918,-0.09938,-0.003186,-0.00119,-0.000921,-0.084647,-0.0,-0.0,2.0,0.282024,0.251914,0.282024,0.30809,-54.760729,-254.007476,77.137562,0.588236,-3.245046,-14.071344
33185,-0.128218,-0.006634,-0.099478,-0.003187,-0.002247,-0.000783,-0.083994,-0.0,-0.0,2.0,0.282024,0.251061,0.282024,0.308725,-54.764337,-253.570076,77.152029,-0.308458,-3.710078,-14.229157
33205,-0.129325,-0.006445,-0.099448,-0.002129,-0.001055,0.000137,-0.082529,-0.0,-0.0,2.0,0.282024,0.252376,0.282024,0.307745,-54.898568,-252.981125,77.268264,-1.11916,-3.523449,-14.3889
33225,-0.13007,-0.006352,-0.099328,-0.002129,-0.001055,0.000138,-0.081672,-0.0,-0.0,2.0,0.282024,0.254111,0.282024,0.306432,-54.692304,-252.429818,77.023307,-1.256941,-2.834879,-14.549627
33245,-0.130691,-0.006131,-0.099183,-0.002122,-0.000139,-0.001055,-0.079918,-0.0,-0.0,2.0,0.282024,0.25281,0.282024,0.307419,-54.788811,-251.837738,77.090671,-0.553577,-2.208027,-14.709578
33265,-0.131057,-0.006141,-0.099057,-0.001057,0.000916,-0.001194,-0.079012,-0.0,-0.0,2.0,0.282024,0.254899,0.282024,0.305828,-54.801413,-251.241154,77.113202,0.531738,-2.197887,-14.868111
33285,-0.131172,-0.006269,-0.099063,7e-06,-0.000139,-0.001055,-0.077388,-0.0,-0.0,2.0,0.282024,0.254019,0.282024,0.306502,-54.762229,-250.636561,77.131331,1.187353,-2.853885,-15.025244
33305,-0.130924,-0.00637,-0.098953,0.0,0.0,0.0,-0.075601,-0.0,-0.0,2.0,0.282024,0.255829,0.282024,0.305111,-54.68339,-250.020444,77.17093,0.887749,-3.599421,-15.181453
33325,-0.130554,-0.006466,-0.098845,7e-06,-0.000139,-0.001055,-0.073654,-0.0,-0.0,2.0,0.282024,0.255019,0.282024,0.305737,-54.820351,-249.266537,77.027152,-0.397392,-3.53574,-15.378301
33345,-0.13006,-0.006433,-0.098712,6e-06,-0.001193,-0.000917,-0.072426,-0.0,-0.0,2.0,0.282024,0.257266,0.282024,0.303989,-54.807312,-248.793862,77.065279,-0.993295,-2.814614,-15.497964
33365,-0.129574,-0.006402,-0.098597,6e-06,-0.001193,-0.000918,-0.070034,-0.0,-0.0,2.0,0.282024,0.2536,0.282024,0.306821,-54.849591,-248.164357,77.062056,-0.931278,-1.620102,-15.657766
33385,-0.129331,-0.006382,-0.098479,6e-06,-0.001193,-0.000918,-0.066834,-0.0,-0.0,2.0,0.282024,0.252135,0.282024,0.307925,-54.868113,-247.533651,77.040713,0.032977,-1.124605,-15.816622
33405,-0.129338,-0.006252,-0.09835,-0.001058,-0.001193,-0.000918,-0.065401,-0.0,-0.0,2.0,0.282024,0.25145,0.282024,0.308436,-54.816814,-246.896865,76.998129,0.99464,-1.906155,-15.974594
33425,-0.129582,-0.006256,-0.098226,-0.001058,-0.000138,-0.001055,-0.063543,-0.0,-0.0,2.0,0.282024,0.250476,0.282024,0.309158,-54.857022,-246.25942,77.074459,0.936547,-3.430153,-16.13137
33445,-0.129705,-0.006254,-0.098104,-0.001064,0.0,0.0,-0.060708,-0.0,-0.0,2.0,0.282024,0.245926,0.282024,0.312441,-54.761062,-245.594755,76.988657,-0.249935,-4.351629,-16.288513
33465,-0.129962,-0.006007,-0.097842,-0.001058,-0.000138,-0.001055,-0.057946,-0.0,-0.0,2.0,0.282024,0.244358,0.282024,0.313541,-54.782704,-244.919737,76.960508,-1.47255,-3.690437,-16.448737
33485,-0.130206,-0.006011,-0.097718,6e-06,-0.001193,-0.000917,-0.05512,-0.0,-0.0,2.0,0.282024,0.242651,0.282024,0.314719,-54.847123,-244.247987,76.952522,-1.372559,-1.8955,-16.609891
33505,-0.130085,-0.005997,-0.097599,6e-06,-0.001193,-0.000917,-0.05181,-0.0,-0.0,2.0,0.282024,0.243704,0.282024,0.313994,-54.803458,-243.579831,77.036766,0.247096,-0.628247,-16.768988
33525,-0.129964,-0.005984,-0.097479,-2e-06,-0.00211,0.000276,-0.05181,-0.0,-0.0,2.0,0.282024,0.243833,0.282024,0.313905,-55.006097,-242.952441,76.811225,1.955422,-1.212812,-16.926914
33545,-0.12947,-0.005951,-0.097347,-1e-06,-0.001055,0.000137,-0.05181,-0.0,-0.0,2.0,0.282024,0.243962,0.282024,0.313816,-54.859943,-242.270485,76.893329,1.894118,-3.165314,-17.082863
33565,-0.12899,-0.005798,-0.097224,0.0,0.0,0.0,-0.043098,-0.0,-0.0,2.0,0.282024,0.239266,0.282024,0.317002,-54.80667,-241.569925,76.943713,-0.223242,-4.424115,-17.238652
33585,-0.128754,-0.005657,-0.097098,0.00107,-0.000137,-0.001055,-0.041226,-0.0,-0.0,2.0,0.282024,0.238489,0.282024,0.317516,-54.900859,-240.860424,77.025144,-2.432754,-3.41075,-17.399789
33605,-0.128261,-0.005755,-0.097112,0.00107,-0.000136,-0.001056,-0.038614,-0.0,-0.0,2.0,0.282024,0.237346,0.282024,0.318265,-68.645401,-240.174446,90.678453,-2.283751,-0.954043,-17.561965
33625,-0.127651,-0.005595,-0.096973,0.00107,-0.000135,-0.001056,-0.034334,-0.0,-0.0,2.0,0.282024,0.238149,0.282024,0.317739,-67.569901,-239.575854,89.529271,0.379931,0.194852,-17.720741
33645,-0.12705,-0.005436,-0.096852,0.001069,-0.00119,-0.000921,-0.03052,-0.0,-0.0,2.0,0.282024,0.236306,0.282024,0.318939,-67.501565,-238.86458,89.509082,2.868782,-1.682191,-17.878644
33665,-0.126197,-0.005265,-0.096716,0.00107,-0.000134,-0.001056,-0.027011,-0.0,-0.0,2.0,0.282024,0.237808,0.282024,0.317963,-67.397896,-238.138883,89.451844,2.160666,-4.892268,-18.032017
33685,-0.12523,-0.005089,-0.0966,0.00107,-0.000133,-0.001056,-0.023466,-0.0,-0.0,2.0,0.282024,0.236198,0.282024,0.319009,-67.553231,-237.393001,89.219942,-1.384786,-5.604146,-18.187567
33705,-0.124389,-0.004682,-0.09657,0.002133,-0.000132,-0.001056,-0.020815,-0.0,-0.0,2.0,0.282024,0.232121,0.282024,0.321588,-73.721112,-236.752545,83.139812,-3.70572,-2.246363,-18.352396
33725,-0.123184,-0.004372,-0.09645,0.003197,-0.001187,-0.000925,-0.018975,-0.0,-0.0,2.0,0.282024,0.234874,0.282024,0.319857,-73.862215,-236.014488,83.119552,-1.48784,1.839083,-18.512122
33745,-0.121728,-0.004058,-0.096436,0.003196,-0.002242,-0.000798,-0.013917,-0.0,-0.0,2.0,0.282024,0.235794,0.282024,0.319269,-73.85568,-235.268116,83.068133,3.266953,1.517641,-18.670968
33765,-0.12015,-0.003738,-0.096424,0.003192,-0.002113,0.000255,-0.011504,-0.0,-0.0,2.0,0.282024,0.235231,0.282024,0.319629,-73.679625,-234.517144,83.051199,4.611081,-3.754179,-18.828238
33785,-0.118214,-0.003271,-0.096288,0.004256,-0.002114,0.000251,-0.007087,-0.0,-0.0,2.0,0.282024,0.233643,0.282024,0.320636,-73.025679,-233.770287,82.524207,-0.219417,-7.973276,-18.976792
33805,-0.11604,-0.002678,-0.096269,0.004259,-0.002237,-0.000811,-0.003256,-0.0,-0.0,2.0,0.282024,0.235636,0.282024,0.31937,-73.493918,-232.970193,82.913181,-6.071056,-5.104931,-19.146485
33825,-0.113738,-0.0022,-0.09626,0.005321,-0.001057,0.000121,0.000453,-0.0,-0.0,2.0,0.282024,0.234673,0.282024,0.319985,-73.760282,-232.196835,83.002734,-4.802043,2.476404,-19.313387
33845,-0.111325,-0.00148,-0.09636,0.005323,-0.001176,-0.000939,0.004117,-0.0,-0.0,2.0,0.282024,0.234089,0.282024,0.320355,-73.685181,-231.429771,83.258874,3.698182,4.987183,-19.468548
33865,-0.10842,-0.000858,-0.096474,0.006385,-0.002116,0.00023,0.005946,-0.0,-0.0,2.0,0.282024,0.237723,0.282024,0.318019,-63.10979,-230.925296,93.627941,8.972381,-2.494037,-19.635568
33885,-0.10538,-0.000351,-0.096579,0.007449,-0.002117,0.000224,0.010686,-0.0,-0.0,2.0,0.282024,0.239621,0.282024,0.316766,-70.482694,-230.763581,85.956812,2.563307,-11.31643,-19.768507
33905,-0.102104,0.000168,-0.096705,0.00745,-0.002117,0.000217,0.010686,-0.0,-0.0,2.0,0.282024,0.241455,0.282024,0.315534,-70.174162,-231.353598,86.303817,-8.914815,-8.408128,-19.939509
33925,-0.098456,0.000578,-0.096963,0.006385,-0.002118,0.000209,0.017479,-0.0,-0.0,2.0,0.282024,0.242591,0.282024,0.314761,-70.714505,-232.172684,86.136129,-9.522354,5.123863,-20.118388
33945,-0.094784,0.000623,-0.09722,0.00745,-0.001059,0.000101,0.019672,-0.0,-0.0,2.0,0.282024,0.243195,0.282024,0.314346,-70.900925,-233.029148,85.909085,4.779377,11.288012,-20.256743
33965,-0.091222,0.000303,-0.097386,0.00745,0.00106,-9.7e-05,0.024676,-0.0,-0.0,2.0,0.282024,0.242463,0.282024,0.314848,-70.074213,-233.855673,85.380436,15.513779,-1.969679,-20.453818
33985,-0.087289,-0.000125,-0.097681,0.008514,0.00106,-9.3e-05,0.026436,-0.0,-0.0,2.0,0.282024,0.243663,0.282024,0.314023,-57.487142,-234.527309,73.28744,3.966495,-19.200377,-20.548484
34005,-0.083222,-0.000669,-0.09796,0.008514,0.001061,-8.8e-05,0.030009,-0.0,-0.0,2.0,0.282024,0.243867,0.282024,0.313882,-57.587381,-235.656391,73.169216,-17.881013,-13.309399,-20.758465
34025,-0.079044,-0.001083,-0.098248,0.009578,0.0,0.0,0.033421,-0.0,-0.0,2.0,0.282024,0.244353,0.282024,0.313544,-58.335275,-236.544591,73.260684,-16.584007,13.39036,-20.95679
34045,-0.074513,-0.00124,-0.098648,0.009578,-0.001061,7.9e-05,0.035363,-0.0,-0.0,2.0,0.282024,0.251303,0.282024,0.308546,-61.104748,-237.121015,70.80806,13.554995,22.200688,-21.059641
34065,-0.069731,-0.001505,-0.09905,0.009578,-0.001062,7.4e-05,0.038156,-0.0,-0.0,2.0,0.282024,0.252207,0.282024,0.307871,-1176.223874,-237.309214,-1045.21113,30.499031,-8.125485,-21.369642
34085,-0.064964,-0.001403,-0.099418,0.009578,-0.001062,6.9e-05,0.04353,-0.0,-0.0,2.0,0.282024,0.251828,0.282024,0.308155,-1175.301367,-238.562751,-1045.219562,-0.357183,-37.780276,-21.280425
34105,-0.060085,-0.001171,-0.099799,0.009578,-0.001062,6.4e-05,0.046302,-0.0,-0.0,2.0,0.282024,0.25293,0.282024,0.307328,-1175.973825,-240.146126,-1045.420607,-40.928456,-13.816776,-21.756788
34125,-0.055084,-0.000931,-0.100177,0.010642,-0.001063,5.9e-05,0.048338,-0.0,-0.0,2.0,0.282024,0.254459,0.282024,0.306166,-1177.827311,-241.246767,-1045.17077,-21.442193,40.519464,-21.763718
34145,-0.049967,-0.000561,-0.100551,0.011706,-0.001063,5.3e-05,0.051883,-0.0,-0.0,2.0,0.282024,0.257962,0.282024,0.303441,-1177.775944,-243.205191,-1045.820155,44.569792,35.946001,-22.034123
34165,-0.044842,-0.000433,-0.100947,0.010642,-0.001063,4.8e-05,0.054816,-0.0,-0.0,2.0,0.282024,0.261762,0.282024,0.30038,-1175.188121,-244.418276,-1045.480518,51.275244,-42.33016,-22.420842
34185,-0.039341,-0.000409,-0.101447,0.010642,0.0,0.0,0.05769,-0.0,-0.0,2.0,0.282024,0.262925,0.282024,0.299422,-1173.296912,-246.327938,-1047.731296,-37.878759,-72.774865,-21.954632
34205,-0.033822,-0.000744,-0.101706,0.010642,0.001064,-3.6e-05,0.05965,-0.0,-0.0,2.0,0.282024,0.264535,0.282024,0.298076,-1174.254309,-244.981685,-1049.567534,-89.151598,23.629978,-23.630986
34225,-0.028671,-0.001098,-0.102098,0.011707,0.001064,-3.1e-05,0.05965,-0.0,-0.0,2.0,0.282024,0.264571,0.282024,0.298046,-1178.296622,-244.978044,-1051.86989,20.058315,109.60928,-21.933989
34245,-0.023145,-0.001552,-0.102345,0.011706,0.0,0.0,0.064472,-0.0,-0.0,2.0,0.282024,0.264911,0.282024,0.297759,-1175.835244,-248.309957,-1050.619829,135.556885,1.463108,-25.274717
34265,-0.017744,-0.002011,-0.102605,0.011706,-0.001064,1.9e-05,0.066504,-0.0,-0.0,2.0,0.282024,0.269119,0.282024,0.294131,-1170.670946,-247.083458,-1049.802737,6.956059,-167.611601,-21.494016
34285,-0.01236,-0.002103,-0.102855,0.010642,-0.001064,1.3e-05,0.069589,-0.0,-0.0,2.0,0.282024,0.270201,0.282024,0.293173,-1113.349178,-245.753255,-1110.752664,-195.87035,-54.199732,-27.773777
34305,-0.006855,-0.002187,-0.103081,0.010642,0.0,0.0,0.070714,-0.0,-0.0,2.0,0.282024,0.272194,0.282024,0.291385,-1119.36613,-243.097091,-1111.326286,-31.245752,260.972703,-21.129068
34325,-0.001606,-0.002039,-0.103322,0.010642,0.0,0.0,0.073228,-0.0,-0.0,2.0,0.282024,0.270994,0.282024,0.292466,-1110.34014,-244.230533,-1102.324531,310.700841,102.405777,-34.60822
34345,0.003527,-0.002018,-0.103437,0.010642,-0.001064,-4e-06,0.075188,-0.0,-0.0,2.0,0.282024,0.272585,0.282024,0.29103,-1098.614848,-246.440215,-1102.056178,-48.120471,-502.900265,-14.810814
34365,0.008539,-0.002002,-0.103689,0.010642,-0.001064,-9e-06,0.076102,-0.0,-0.0,2.0,0.282024,0.274475,0.282024,0.289293,-1095.06434,-254.375148,-1136.970309,-724.331434,98.402436,-72.388946
34385,0.013543,-0.001863,-0.103798,0.009578,-0.001064,-1.4e-05,0.078444,-0.0,-0.0,2.0,0.282024,0.27569,0.282024,0.28816,-1118.434332,-264.78883,-1146.18156,1484.415951,1648.522428,-46.089778
34405,0.018304,-0.001737,-0.103904,0.009578,-0.001064,-1.9e-05,0.079845,-0.0,-0.0,2.0,0.282024,0.274798,0.282024,0.288993,-2146.868017,-668.267257,-2127.89085,17721914.552931,-35664336.548608,-1793237.022798
34425,0.022822,-0.001624,-0.103906,0.00958,-0.00104,-0.001088,0.080601,-0.0,-0.0,2.0,0.282024,0.276623,0.282024,0.287281,-1.3841171579279847e+38,-1.3780430028824958e+36,1.2079550672558805e+38,2.2919627667526246e+75,-4.6120379778257214e+75,-2.319186912241634e+74
34445,0.027223,-0.00164,-0.103885,0.008516,-0.001035,-0.001093,0.082505,-0.0,-0.0,2.0,0.282024,0.275893,0.282024,0.287969,,,,,,
34465,0.031504,-0.00166,-0.104002,0.00745,0.0,0.0,0.083352,-0.0,-0.0,2.0,0.282024,0.277393,0.282024,0.286549,,,,,,
34485,0.035417,-0.001702,-0.103857,0.00745,0.0,0.0,0.084502,-0.0,-0.0,2.0,0.282024,0.278696,0.282024,0.285296,,,,,,
34505,0.039089,-0.001756,-0.10385,0.007452,-0.001022,-0.001105,0.085346,-0.0,-0.0,2.0,0.282024,0.277632,0.282024,0.28632,,,,,,
34525,0.042636,-0.001815,-0.103824,0.006387,4.5e-05,-0.001063,0.086043,-0.0,-0.0,2.0,0.282024,0.276509,0.282024,0.287388,,,,,,
34545,0.04607,-0.002001,-0.103933,0.006385,0.0,0.0,0.086328,-0.0,-0.0,2.0,0.282024,0.280314,0.282024,0.283719,,,,,,
34565,0.049126,-0.001964,-0.103927,0.006385,-0.001063,-5.2e-05,0.08664,-0.0,-0.0,2.0,0.282024,0.279224,0.282024,0.284785,,,,,,
34585,0.052179,-0.001923,-0.104022,0.005321,-0.001063,-5.6e-05,0.087045,-0.0,-0.0,2.0,0.282024,0.278018,0.282024,0.28595,,,,,,
34605,0.054864,-0.00178,-0.104142,0.005323,-0.001004,-0.001121,0.087264,-0.0,-0.0,2.0,0.282024,0.279183,0.282024,0.284825,,,,,,
34625,0.057676,-0.001752,-0.104255,0.005321,-0.001062,-6.1e-05,0.087255,-0.0,-0.0,2.0,0.282024,0.280388,0.282024,0.283647,,,,,,
34645,0.06012,-0.001742,-0.104352,0.004257,-0.001062,-6.4e-05,0.087046,-0.0,-0.0,2.0,0.282024,0.281623,0.282024,0.282425,,,,,,
34665,0.062567,-0.001733,-0.104467,0.004257,0.0,0.0,0.086664,-0.0,-0.0,2.0,0.282024,0.280456,0.282024,0.28358,,,,,,
34685,0.064892,-0.001729,-0.104583,0.004257,0.0,0.0,0.086428,-0.0,-0.0,2.0,0.282024,0.281649,0.282024,0.282398,,,,,,
34705,0.066976,-0.001856,-0.104797,0.003193,-0.001062,-7.1e-05,0.085837,-0.0,-0.0,2.0,0.282024,0.282879,0.282024,0.281166,,,,,,
34725,0.069064,-0.001986,-0.104909,0.004257,0.0,0.0,0.084929,-0.0,-0.0,2.0,0.282024,0.284137,0.282024,0.279888,,,,,,
34745,0.071017,-0.001879,-0.105029,0.003193,0.0,0.0,0.08419,-0.0,-0.0,2.0,0.282024,0.283041,0.282024,0.281002,,,,,,
34765,0.072851,-0.0019,-0.105127,0.003193,-0.001061,-7.7e-05,0.083182,-0.0,-0.0,2.0,0.282024,0.286647,0.282024,0.27729,,,,,,
34785,0.074567,-0.001927,-0.105245,0.003193,-0.001061,-7.9e-05,0.082575,-0.0,-0.0,2.0,0.282024,0.28535,0.282024,0.278641,,,,,,
34805,0.076151,-0.001838,-0.105349,0.003193,0.0,0.0,0.081325,-0.0,-0.0,2.0,0.282024,0.286626,0.282024,0.277312,,,,,,
34825,0.077739,-0.001754,-0.105351,0.002129,-0.001061,-8.3e-05,0.079421,-0.0,-0.0,2.0,0.282024,0.288076,0.282024,0.275779,,,,,,
34845,0.079085,-0.0018,-0.105452,0.002129,-0.001061,-8.4e-05,0.077632,-0.0,-0.0,2.0,0.282024,0.287142,0.282024,0.276769,,,,,,
34865,0.080193,-0.001864,-0.105454,0.00213,8.5e-05,-0.001061,0.075844,-0.0,-0.0,2.0,0.282024,0.288429,0.282024,0.275403,,,,,,
34885,0.081167,-0.001812,-0.105443,0.001064,0.0,0.0,0.074933,-0.0,-0.0,2.0,0.282024,0.287011,0.282024,0.276907,,,,,,
34905,0.082027,-0.001894,-0.105307,0.001064,-0.001061,-8.7e-05,0.072876,-0.0,-0.0,2.0,0.282024,0.288266,0.282024,0.275577,,,,,,
34925,0.082514,-0.001873,-0.10518,0.001066,8.8e-05,-0.001061,0.070462,-0.0,-0.0,2.0,0.282024,0.289503,0.282024,0.274249,,,,,,
34945,0.082873,-0.001737,-0.10506,2e-06,-0.000972,-0.001149,0.069119,-0.0,-0.0,2.0,0.282024,0.28801,0.282024,0.27585,,,,,,
34965,0.082995,-0.001735,-0.104937,-0.001062,-0.000972,-0.001149,0.065779,-0.0,-0.0,2.0,0.282024,0.28954,0.282024,0.274209,,,,,,
34985,0.082989,-0.001619,-0.104821,-0.001062,-0.000972,-0.001149,0.064222,-0.0,-0.0,2.0,0.282024,0.287878,0.282024,0.27599,,,,,,
35005,0.082617,-0.001521,-0.104709,-0.001062,-0.000973,-0.001148,0.061435,-0.0,-0.0,2.0,0.282024,0.288963,0.282024,0.274831,,,,,,
35025,0.082374,-0.001539,-0.104591,-0.001062,-0.000973,-0.001148,0.058742,-0.0,-0.0,2.0,0.282024,0.290007,0.282024,0.273702,,,,,,
35045,0.082015,-0.001685,-0.104469,-0.001062,8.7e-05,-0.001061,0.055949,-0.0,-0.0,2.0,0.282024,0.291031,0.282024,0.272584,,,,,,
35065,0.081656,-0.001831,-0.104347,-0.001062,8.7e-05,-0.001061,0.054533,-0.0,-0.0,2.0,0.282024,0.291477,0.282024,0.272092,,,,,,
35085,0.081534,-0.001842,-0.104227,-0.001062,-0.000974,-0.001147,0.050958,-0.0,-0.0,2.0,0.282024,0.292877,0.282024,0.270534,,,,,,
35105,0.081536,-0.001969,-0.104082,2e-06,8.7e-05,-0.001061,0.048406,-0.0,-0.0,2.0,0.282024,0.293938,0.282024,0.269338,,,,,,
35125,0.08153,-0.001853,-0.103966,0.0,-0.001061,-8.7e-05,0.045098,-0.0,-0.0,2.0,0.282024,0.295311,0.282024,0.267769,,,,,,
35145,0.081645,-0.001729,-0.103848,-0.001062,-0.000974,-0.001147,0.042185,-0.0,-0.0,2.0,0.282024,0.298736,0.282024,0.263748,,,,,,
35165,0.081652,-0.001856,-0.103722,2e-06,-0.000974,-0.001147,0.040118,-0.0,-0.0,2.0,0.282024,0.299572,0.282024,0.262743,,,,,,
35185,0.081524,-0.001746,-0.103607,-0.001062,-0.000974,-0.001147,0.035451,-0.0,-0.0,2.0,0.282024,0.299304,0.282024,0.263067,,,,,,
35205,0.081402,-0.001752,-0.103609,-0.001064,0.0,0.0,0.031922,-0.0,-0.0,2.0,0.282024,0.300687,0.282024,0.261387,,,,,,
35225,0.081043,-0.001903,-0.103366,-0.001062,8.6e-05,-0.001061,0.0302,-0.0,-0.0,2.0,0.282024,0.301231,0.282024,0.26072,,,,,,
35245,0.080556,-0.001933,-0.10325,-0.002126,-0.000975,-0.001146,0.026675,-0.0,-0.0,2.0,0.282024,0.300314,0.282024,0.261843,,,,,,
35265,0.079947,-0.001969,-0.103136,-0.002126,-0.000976,-0.001146,0.022444,-0.0,-0.0,2.0,0.282024,0.301816,0.282024,0.259997,,,,,,
35285,0.079083,-0.001897,-0.10301,-0.002126,-0.000977,-0.001145,0.019122,-0.0,-0.0,2.0,0.282024,0.302803,0.282024,0.258765,,,,,,
35305,0.078096,-0.001709,-0.102909,-0.003193,-0.001061,-8.3e-05,0.017178,-0.0,-0.0,2.0,0.282024,0.301057,0.282024,0.260933,,,,,,
35325,0.076867,-0.001664,-0.102545,-0.004255,8.2e-05,-0.001061,0.011647,-0.0,-0.0,2.0,0.282024,0.302827,0.282024,0.258736,,,,,,
35345,0.075399,-0.001622,-0.102444,-0.004255,-0.000981,-0.001141,0.009291,-0.0,-0.0,2.0,0.282024,0.301051,0.282024,0.260942,,,,,,
35365,0.07369,-0.001719,-0.1022,-0.004255,-0.000983,-0.00114,0.004762,-0.0,-0.0,2.0,0.282024,0.302227,0.282024,0.259485,,,,,,
35385,0.071608,-0.001721,-0.101722,-0.005319,-0.000985,-0.001138,0.002936,-0.0,-0.0,2.0,0.282024,0.300045,0.282024,0.262171,,,,,,
35405,0.069409,-0.001724,-0.101384,-0.006383,-0.000988,-0.001135,-0.000738,-0.0,-0.0,2.0,0.282024,0.300586,0.282024,0.261511,,,,,,
35425,0.066718,-0.001751,-0.101031,-0.006382,-0.00092,-0.002195,-0.005392,-0.0,-0.0,2.0,0.282024,0.299324,0.282024,0.263042,,,,,,
35445,0.063784,-0.001793,-0.100558,-0.007448,-0.000994,-0.00113,-0.008343,-0.0,-0.0,2.0,0.282024,0.297212,0.282024,0.265556,,,,,,
35465,0.0606,-0.001725,-0.10009,-0.00851,-0.000933,-0.002189,-0.008343,-0.0,-0.0,2.0,0.282024,0.295908,0.282024,0.26708,,,,,,
35485,0.056922,-0.00156,-0.099506,-0.008512,-0.001002,-0.001123,-0.015748,-0.0,-0.0,2.0,0.282024,0.2953,0.282024,0.267782,,,,,,
35505,0.052998,-0.001406,-0.098902,-0.009575,-0.00095,-0.002182,-0.017973,-0.0,-0.0,2.0,0.282024,0.292382,0.282024,0.271088,,,,,,
35525,0.048717,-0.001388,-0.098314,-0.009575,-0.000959,-0.002178,-0.022331,-0.0,-0.0,2.0,0.282024,0.292465,0.282024,0.270995,,,,,,
35545,0.04432,-0.001496,-0.09772,-0.010639,-0.000969,-0.002174,-0.026263,-0.0,-0.0,2.0,0.282024,0.290071,0.282024,0.273632,,,,,,
35565,0.039546,-0.001378,-0.09701,-0.010639,-0.000979,-0.002169,-0.028036,-0.0,-0.0,2.0,0.282024,0.288797,0.282024,0.275008,,,,,,
35585,0.034528,-0.001268,-0.096296,-0.011704,-0.00099,-0.002164,-0.031493,-0.0,-0.0,2.0,0.282024,0.285895,0.282024,0.278075,,,,,,
35605,0.029266,-0.001166,-0.095579,-0.012768,-0.001001,-0.002159,-0.035369,-0.0,-0.0,2.0,0.282024,0.285295,0.282024,0.278698,,,,,,
35625,0.023894,-0.001308,-0.094977,-0.012768,5.1e-05,-0.002128,-0.038018,-0.0,-0.0,2.0,0.282024,0.28177,0.282024,0.282278,,,,,,
35645,0.018266,-0.001216,-0.094253,-0.012768,-0.001025,-0.002148,-0.041325,-0.0,-0.0,2.0,0.282024,0.280796,0.282024,0.283244,,,,,,
35665,0.012518,-0.001126,-0.093419,-0.013833,-0.001037,-0.002142,-0.043858,-0.0,-0.0,2.0,0.282024,0.279362,0.282024,0.28465,,,,,,
35685,0.006769,-0.00103,-0.092685,-0.012769,-0.00105,-0.002136,-0.04787,-0.0,-0.0,2.0,0.282024,0.278586,0.282024,0.285403,,,,,,
35705,0.000899,-0.000936,-0.091962,-0.012769,-0.001062,-0.002129,-0.04957,-0.0,-0.0,2.0,0.282024,0.274274,0.282024,0.289479,,,,,,
35725,-0.004972,-0.000838,-0.091356,-0.013834,-0.00107,-0.001059,-0.052867,-0.0,-0.0,2.0,0.282024,0.273088,0.282024,0.29057,,,,,,
35745,-0.010959,-0.000863,-0.090502,-0.013833,-0.001087,-0.002117,-0.055875,-0.0,-0.0,2.0,0.282024,0.274167,0.282024,0.289578,,,,,,
35765,-0.016952,-0.00076,-0.089642,-0.012769,-0.0011,-0.00211,-0.058669,-0.0,-0.0,2.0,0.282024,0.270207,0.282024,0.293169,,,,,,
35785,-0.022822,-0.00065,-0.08902,-0.013834,-0.001113,-0.002104,-0.060479,-0.0,-0.0,2.0,0.282024,0.268351,0.282024,0.294804,,,,,,
35805,-0.028565,-0.000649,-0.088152,-0.013834,-6.1e-05,-0.002128,-0.063917,-0.0,-0.0,2.0,0.282024,0.269717,0.282024,0.293603,,,,,,
35825,-0.034437,-0.000527,-0.087294,-0.01277,-7.3e-05,-0.002127,-0.065289,-0.0,-0.0,2.0,0.282024,0.267528,0.282024,0.29552,,,,,,
35845,-0.04018,-0.000519,-0.086539,-0.012769,-0.001192,-0.003147,-0.06853,-0.0,-0.0,2.0,0.282024,0.266391,0.282024,0.2965,,,,,,
35865,-0.045798,-0.00062,-0.085677,-0.012769,-0.001161,-0.002077,-0.069955,-0.0,-0.0,2.0,0.282024,0.264307,0.282024,0.298268,,,,,,
35885,-0.051426,-0.000476,-0.084927,-0.01277,-0.000109,-0.002126,-0.07244,-0.0,-0.0,2.0,0.282024,0.262836,0.282024,0.299495,,,,,,
35905,-0.05681,-0.000315,-0.084053,-0.01277,-0.000121,-0.002125,-0.074489,-0.0,-0.0,2.0,0.282024,0.263745,0.282024,0.298739,,,,,,
35925,-0.062068,-0.000269,-0.0833,-0.011706,-0.001194,-0.002058,-0.076421,-0.0,-0.0,2.0,0.282024,0.262122,0.282024,0.300085,,,,,,
35945,-0.067198,-0.000332,-0.082427,-0.010642,-0.001205,-0.002052,-0.07729,-0.0,-0.0,2.0,0.282024,0.260013,0.282024,0.301803,,,,,,
35965,-0.072089,-0.000264,-0.08167,-0.011706,-0.000153,-0.002123,-0.078893,-0.0,-0.0,2.0,0.282024,0.261019,0.282024,0.300987,,,,,,
35985,-0.07661,-0.000294,-0.080797,-0.010642,-0.000163,-0.002122,-0.08086,-0.0,-0.0,2.0,0.282024,0.262261,0.282024,0.29997,,,,,,
36005,-0.081141,-7.7e-05,-0.079911,-0.009578,-0.001233,-0.002035,-0.081549,-0.0,-0.0,2.0,0.282024,0.257648,0.282024,0.303689,,,,,,
36025,-0.085539,-0.0001,-0.079156,-0.009578,-0.001333,-0.00309,-0.082678,-0.0,-0.0,2.0,0.282024,0.258737,0.282024,0.302826,,,,,,
36045,-0.089461,2.1e-05,-0.078411,-0.009578,-0.00019,-0.00212,-0.084019,-0.0,-0.0,2.0,0.282024,0.260108,0.282024,0.301726,,,,,,
36065,-0.09325,2.8e-05,-0.077657,-0.008514,-9.9e-05,-0.00106,-0.084977,-0.0,-0.0,2.0,0.282024,0.258571,0.282024,0.302958,,,,,,
36085,-0.097044,0.000166,-0.076774,-0.00745,-0.001265,-0.002015,-0.085754,-0.0,-0.0,2.0,0.282024,0.257107,0.282024,0.304114,,,,,,
36105,-0.100594,0.000316,-0.075892,-0.007451,-0.001379,-0.00307,-0.08608,-0.0,-0.0,2.0,0.282024,0.255475,0.282024,0.305385,,,,,,
36125,-0.103895,0.000343,-0.07526,-0.00745,-0.001279,-0.002007,-0.086668,-0.0,-0.0,2.0,0.282024,0.256801,0.282024,0.304354,,,,,,
36145,-0.106953,0.000382,-0.074629,-0.00745,-0.000114,-0.001058,-0.086972,-0.0,-0.0,2.0,0.282024,0.255275,0.282024,0.305539,,,,,,
36165,-0.109895,0.000441,-0.073769,-0.006386,-0.000117,-0.001058,-0.087186,-0.0,-0.0,2.0,0.282024,0.256533,0.282024,0.304563,,,,,,
36185,-0.112831,0.000488,-0.073138,-0.006387,-0.001417,-0.003053,-0.087263,-0.0,-0.0,2.0,0.282024,0.255077,0.282024,0.305692,,,,,,
36205,-0.115519,0.000424,-0.072515,-0.005322,-0.001302,-0.001992,-0.087183,-0.0,-0.0,2.0,0.282024,0.253657,0.282024,0.306778,,,,,,
36225,-0.117967,0.000486,-0.072009,-0.005322,-0.001182,-0.000932,-0.08693,-0.0,-0.0,2.0,0.282024,0.255065,0.282024,0.305701,,,,,,
36245,-0.120054,0.00069,-0.071377,-0.005322,-0.000127,-0.001057,-0.086525,-0.0,-0.0,2.0,0.282024,0.256382,0.282024,0.304681,,,,,,
36265,-0.122134,0.000897,-0.070732,-0.004259,-0.000259,-0.002113,-0.085972,-0.0,-0.0,2.0,0.282024,0.254973,0.282024,0.305772,,,,,,
36285,-0.123969,0.000861,-0.070238,-0.003194,-0.000263,-0.002112,-0.085624,-0.0,-0.0,2.0,0.282024,0.251155,0.282024,0.308656,,,,,,
36305,-0.12543,0.000589,-0.069885,-0.003193,-0.001189,-0.000923,-0.084606,-0.0,-0.0,2.0,0.282024,0.252568,0.282024,0.3076,,,,,,
36325,-0.126766,0.000443,-0.069514,-0.003193,-0.00119,-0.000921,-0.084606,-0.0,-0.0,2.0,0.282024,0.254622,0.282024,0.306041,,,,,,
36345,-0.127996,0.000553,-0.069019,-0.003193,-0.000136,-0.001056,-0.082543,-0.0,-0.0,2.0,0.282024,0.2556,0.282024,0.305288,,,,,,
36365,-0.128971,0.000542,-0.068643,-0.00213,-0.000274,-0.002111,-0.081874,-0.0,-0.0,2.0,0.282024,0.254765,0.282024,0.305932,,,,,,
36385,-0.12971,0.000533,-0.068405,-0.00213,-0.000275,-0.002111,-0.080257,-0.0,-0.0,2.0,0.282024,0.253553,0.282024,0.306856,,,,,,
36405,-0.130319,0.000536,-0.068033,-0.001065,-0.001193,-0.000917,-0.078515,-0.0,-0.0,2.0,0.282024,0.252269,0.282024,0.307825,,,,,,
36425,-0.130563,0.000551,-0.067666,-0.001065,-0.001194,-0.000917,-0.076801,-0.0,-0.0,2.0,0.282024,0.254007,0.282024,0.306511,,,,,,
36445,-0.130685,0.000563,-0.067422,-0.001065,-0.001194,-0.000916,-0.075914,-0.0,-0.0,2.0,0.282024,0.256148,0.282024,0.304863,,,,,,
36465,-0.13069,0.000693,-0.067292,-1e-06,-0.000139,-0.001055,-0.074634,-0.0,-0.0,2.0,0.282024,0.255439,0.282024,0.305413,,,,,,
36485,-0.130564,0.000583,-0.06718,-1e-06,-0.000139,-0.001055,-0.071286,-0.0,-0.0,2.0,0.282024,0.253846,0.282024,0.306634,,,,,,
36505,-0.130439,0.000473,-0.067068,-0.0,-0.000138,-0.001055,-0.069874,-0.0,-0.0,2.0,0.282024,0.253245,0.282024,0.30709,,,,,,
36525,-0.130066,0.000494,-0.066938,-1e-06,-0.000138,-0.001055,-0.068076,-0.0,-0.0,2.0,0.282024,0.252382,0.282024,0.30774,,,,,,
36545,-0.129818,0.000388,-0.066827,-0.0,-0.000138,-0.001055,-0.065217,-0.0,-0.0,2.0,0.282024,0.251081,0.282024,0.308711,,,,,,
36565,-0.129571,0.000275,-0.066838,0.0,0.0,0.0,-0.063765,-0.0,-0.0,2.0,0.282024,0.250448,0.282024,0.309179,,,,,,
36585,-0.129327,0.000283,-0.066841,0.0,-0.001055,0.000137,-0.060857,-0.0,-0.0,2.0,0.282024,0.248977,0.282024,0.310255,,,,,,
36605,-0.129453,0.0004,-0.066831,-0.0,-0.001193,-0.000918,-0.058121,-0.0,-0.0,2.0,0.282024,0.244711,0.282024,0.313295,,,,,,
36625,-0.129331,0.000397,-0.066954,-0.001064,-0.001055,0.000137,-0.056706,-0.0,-0.0,2.0,0.282024,0.243936,0.282024,0.313834,,,,,,
36645,-0.129339,0.00064,-0.066939,-0.001064,-0.001055,0.000137,-0.052078,-0.0,-0.0,2.0,0.282024,0.244311,0.282024,0.313574,,,,,,
36665,-0.129343,0.000754,-0.067052,-0.001064,0.0,0.0,-0.049933,-0.0,-0.0,2.0,0.282024,0.24313,0.282024,0.31439,,,,,,
36685,-0.129225,0.000872,-0.067167,-1e-06,-0.000137,-0.001055,-0.04804,-0.0,-0.0,2.0,0.282024,0.242087,0.282024,0.315105,,,,,,
36705,-0.129099,0.000747,-0.067298,0.001063,-0.000137,-0.001055,-0.043579,-0.0,-0.0,2.0,0.282024,0.239803,0.282024,0.316645,,,,,,
36725,-0.12873,0.000629,-0.067431,0.0,0.0,0.0,-0.041457,-0.0,-0.0,2.0,0.282024,0.238743,0.282024,0.317348,,,,,,
36745,-0.128238,0.000509,-0.067688,0.0,-0.001055,0.000136,-0.03758,-0.0,-0.0,2.0,0.282024,0.236742,0.282024,0.318657,,,,,,
36765,-0.127739,0.000396,-0.06781,0.0,0.0,0.0,-0.034224,-0.0,-0.0,2.0,0.282024,0.238142,0.282024,0.317744,,,,,,
36785,-0.127012,0.000535,-0.067932,0.001064,0.0,0.0,-0.030817,-0.0,-0.0,2.0,0.282024,0.236478,0.282024,0.318828,,,,,,
36805,-0.126285,0.000666,-0.068175,0.002129,-0.001056,0.000134,-0.02717,-0.0,-0.0,2.0,0.282024,0.234864,0.282024,0.319864,,,,,,
36825,-0.125177,0.000567,-0.068425,0.002129,-0.001056,0.000133,-0.025157,-0.0,-0.0,2.0,0.282024,0.23741,0.282024,0.318223,,,,,,
36845,-0.123833,0.000484,-0.068569,0.003193,-0.001056,0.000131,-0.020605,-0.0,-0.0,2.0,0.282024,0.235562,0.282024,0.319418,,,,,,
36865,-0.122238,0.000403,-0.068824,0.003193,-0.001056,0.00013,-0.018143,-0.0,-0.0,2.0,0.282024,0.238046,0.282024,0.317807,,,,,,
36885,-0.120278,0.000334,-0.069083,0.003193,-0.001057,0.000128,-0.015824,-0.0,-0.0,2.0,0.282024,0.240709,0.282024,0.316038,,,,,,
36905,-0.118317,0.000259,-0.069462,0.004257,0.0,0.0,-0.010974,-0.0,-0.0,2.0,0.282024,0.239083,0.282024,0.317123,,,,,,
36925,-0.116117,0.000322,-0.069715,0.004257,0.0,0.0,-0.007279,-0.0,-0.0,2.0,0.282024,0.238236,0.282024,0.317682,,,,,,
36945,-0.113552,0.000398,-0.069972,0.005321,0.0,0.0,-0.003613,-0.0,-0.0,2.0,0.282024,0.240552,0.282024,0.316144,,,,,,
36965,-0.110734,0.000233,-0.070365,0.006385,-0.001058,0.000118,0.000148,-0.0,-0.0,2.0,0.282024,0.240089,0.282024,0.316454,,,,,,
36985,-0.107799,0.000195,-0.070752,0.006385,-0.001058,0.000115,0.002647,-0.0,-0.0,2.0,0.282024,0.243287,0.282024,0.314283,,,,,,
37005,-0.10437,0.000176,-0.07113,0.006386,-0.000948,0.001169,0.005672,-0.0,-0.0,2.0,0.282024,0.243372,0.282024,0.314224,,,,,,
37025,-0.100826,0.000169,-0.071399,0.006385,-0.001059,0.000107,0.009141,-0.0,-0.0,2.0,0.282024,0.246311,0.282024,0.312169,,,,,,
37045,-0.097281,0.000156,-0.071788,0.00745,0.0,0.0,0.014309,-0.0,-0.0,2.0,0.282024,0.245301,0.282024,0.312882,,,,,,
37065,-0.093482,2.6e-05,-0.072292,0.008514,0.0,0.0,0.016681,-0.0,-0.0,2.0,0.282024,0.24607,0.282024,0.312339,,,,,,
37085,-0.089567,-9.7e-05,-0.072809,0.008514,0.0,0.0,0.020833,-0.0,-0.0,2.0,0.282024,0.24601,0.282024,0.312382,,,,,,
37105,-0.085413,-8.8e-05,-0.07332,0.008514,0.0,0.0,0.024467,-0.0,-0.0,2.0,0.282024,0.249077,0.282024,0.310182,,,,,,
37125,-0.081,-0.000312,-0.073827,0.009578,-0.000975,0.001147,0.026255,-0.0,-0.0,2.0,0.282024,0.250458,0.282024,0.309171,,,,,,
37145,-0.07648,-0.00029,-0.074459,0.009578,-0.00098,0.001142,0.029865,-0.0,-0.0,2.0,0.282024,0.253706,0.282024,0.30674,,,,,,
37165,-0.071833,-0.000378,-0.074972,0.009578,-0.000985,0.001138,0.032168,-0.0,-0.0,2.0,0.282024,0.254781,0.282024,0.305919,,,,,,
37185,-0.067186,-0.000346,-0.075586,0.009578,7.1e-05,0.001062,0.036491,-0.0,-0.0,2.0,0.282024,0.254946,0.282024,0.305792,,,,,,
37205,-0.062417,-0.000429,-0.076216,0.010642,-0.000996,0.001129,0.039908,-0.0,-0.0,2.0,0.282024,0.255699,0.282024,0.305211,,,,,,
37225,-0.057526,-0.000507,-0.076966,0.010642,-0.001001,0.001124,0.042812,-0.0,-0.0,2.0,0.282024,0.256711,0.282024,0.304424,,,,,,
37245,-0.052514,-0.000574,-0.077591,0.010642,-0.001007,0.001119,0.04515,-0.0,-0.0,2.0,0.282024,0.260715,0.282024,0.301234,,,,,,
37265,-0.047382,-0.000634,-0.078229,0.010642,-0.001013,0.001113,0.048519,-0.0,-0.0,2.0,0.282024,0.261588,0.282024,0.300523,,,,,,
37285,-0.042129,-0.000566,-0.078968,0.009577,4.5e-05,0.001063,0.051538,-0.0,-0.0,2.0,0.282024,0.265211,0.282024,0.297506,,,,,,
37305,-0.036994,-0.000621,-0.079706,0.010642,0.001103,0.001024,0.054456,-0.0,-0.0,2.0,0.282024,0.263647,0.282024,0.298821,,,,,,
37325,-0.031867,-0.00055,-0.080454,0.011706,3.4e-05,0.001064,0.057874,-0.0,-0.0,2.0,0.282024,0.264536,0.282024,0.298075,,,,,,
37345,-0.026478,-0.000831,-0.08119,0.010641,-0.001036,0.001092,0.060294,-0.0,-0.0,2.0,0.282024,0.266022,0.282024,0.296816,,,,,,
37365,-0.021101,-0.000865,-0.081933,0.010641,-0.001042,0.001086,0.060294,-0.0,-0.0,2.0,0.282024,0.271037,0.282024,0.292428,,,,,,
37385,-0.015729,-0.000773,-0.082671,0.010641,-0.001047,0.001081,0.06446,-0.0,-0.0,2.0,0.282024,0.269105,0.282024,0.294143,,,,,,
37405,-0.010469,-0.000926,-0.083408,0.010641,1.1e-05,0.001064,0.066438,-0.0,-0.0,2.0,0.282024,0.270646,0.282024,0.292777,,,,,,
37425,-0.005219,-0.000831,-0.084139,0.010641,6e-06,0.001064,0.069165,-0.0,-0.0,2.0,0.282024,0.271829,0.282024,0.291715,,,,,,
37445,4.1e-05,-0.000976,-0.08499,0.010641,-0.0,0.001064,0.071641,-0.0,-0.0,2.0,0.282024,0.273174,0.282024,0.290491,,,,,,
37465,0.005297,-0.000995,-0.08573,0.010641,-6e-06,0.001064,0.072667,-0.0,-0.0,2.0,0.282024,0.275117,0.282024,0.288696,,,,,,
37485,0.010552,-0.00101,-0.086451,0.010641,-1.1e-05,0.001064,0.07468,-0.0,-0.0,2.0,0.282024,0.276485,0.282024,0.287411,,,,,,
37505,0.015442,-0.001037,-0.087185,0.010641,-0.001081,0.001048,0.076961,-0.0,-0.0,2.0,0.282024,0.27536,0.282024,0.288469,,,,,,
37525,0.02058,-0.001171,-0.08802,0.009577,-0.001086,0.001042,0.076961,-0.0,-0.0,2.0,0.282024,0.280077,0.282024,0.283952,,,,,,
37545,0.025592,-0.001183,-0.088868,0.009576,-5.4e-05,0.002128,0.079534,-0.0,-0.0,2.0,0.282024,0.281107,0.282024,0.282937,,,,,,
37565,0.030238,-0.00121,-0.089592,0.009575,-6.4e-05,0.002127,0.081441,-0.0,-0.0,2.0,0.282024,0.280016,0.282024,0.284012,,,,,,
37585,0.034885,-0.001235,-0.090192,0.009577,-0.001101,0.001026,0.082199,-0.0,-0.0,2.0,0.282024,0.281742,0.282024,0.282306,,,,,,
37605,0.039409,-0.001258,-0.091033,0.008512,-4.2e-05,0.001063,0.083608,-0.0,-0.0,2.0,0.282024,0.283164,0.282024,0.280878,,,,,,
37625,0.043696,-0.001411,-0.091869,0.008511,-9.3e-05,0.002126,0.084185,-0.0,-0.0,2.0,0.282024,0.282458,0.282024,0.28159,,,,,,
37645,0.047855,-0.001449,-0.092462,0.008511,-0.001165,0.002075,0.085078,-0.0,-0.0,2.0,0.282024,0.283891,0.282024,0.28014,,,,,,
37665,0.051764,-0.001371,-0.093179,0.00745,0.0,0.0,0.085854,-0.0,-0.0,2.0,0.282024,0.285309,0.282024,0.278683,,,,,,
37685,0.055557,-0.001414,-0.094013,0.007448,-5.9e-05,0.001063,0.086492,-0.0,-0.0,2.0,0.282024,0.284365,0.282024,0.279655,,,,,,
37705,0.059106,-0.001473,-0.094604,0.006384,-6.3e-05,0.001062,0.086841,-0.0,-0.0,2.0,0.282024,0.285808,0.282024,0.278166,,,,,,
37725,0.062656,-0.00153,-0.095192,0.006384,-6.7e-05,0.001062,0.087126,-0.0,-0.0,2.0,0.282024,0.287164,0.282024,0.276746,,,,,,
37745,0.065834,-0.001476,-0.095907,0.006384,-7e-05,0.001062,0.087251,-0.0,-0.0,2.0,0.282024,0.286241,0.282024,0.277715,,,,,,
37765,0.068774,-0.001558,-0.096497,0.005319,-7.3e-05,0.001062,0.087226,-0.0,-0.0,2.0,0.282024,0.285326,0.282024,0.278665,,,,,,
37785,0.071724,-0.001755,-0.097221,0.005319,-0.001138,0.000985,0.087129,-0.0,-0.0,2.0,0.282024,0.28659,0.282024,0.27735,,,,,,
37805,0.074292,-0.001729,-0.097815,0.005319,-7.9e-05,0.001061,0.086844,-0.0,-0.0,2.0,0.282024,0.287814,0.282024,0.276058,,,,,,
37825,0.076617,-0.001714,-0.098412,0.004255,-8.1e-05,0.001061,0.086407,-0.0,-0.0,2.0,0.282024,0.286822,0.282024,0.277106,,,,,,
37845,0.078943,-0.001697,-0.099007,0.004255,-0.001145,0.000977,0.085981,-0.0,-0.0,2.0,0.282024,0.288005,0.282024,0.275855,,,,,,
37865,0.081025,-0.001818,-0.09946,0.003191,-8.6e-05,0.001061,0.08548,-0.0,-0.0,2.0,0.282024,0.289108,0.282024,0.274675,,,,,,
37885,0.082741,-0.001829,-0.100061,0.003191,-8.8e-05,0.001061,0.084014,-0.0,-0.0,2.0,0.282024,0.288245,0.282024,0.2756,,,,,,
37905,0.084457,-0.001844,-0.100539,0.002126,-9e-05,0.00106,0.084014,-0.0,-0.0,2.0,0.282024,0.288984,0.282024,0.274808,,,,,,
37925,0.085808,-0.001877,-0.101022,0.002129,-0.00106,-9.1e-05,0.082432,-0.0,-0.0,2.0,0.282024,0.288009,0.282024,0.275851,,,,,,
37945,0.087025,-0.001794,-0.101492,0.002128,0.0,0.0,0.080662,-0.0,-0.0,2.0,0.282024,0.289235,0.282024,0.274538,,,,,,
37965,0.087761,-0.00174,-0.101865,0.001064,-0.00106,-9.3e-05,0.079651,-0.0,-0.0,2.0,0.282024,0.287868,0.282024,0.276,,,,,,
37985,0.088741,-0.00179,-0.102333,0.001064,0.0,0.0,0.077997,-0.0,-0.0,2.0,0.282024,0.288939,0.282024,0.274856,,,,,,
38005,0.089233,-0.001749,-0.102709,0.0,-0.00106,-9.5e-05,0.076277,-0.0,-0.0,2.0,0.282024,0.287608,0.282024,0.276276,,,,,,
38025,0.089476,-0.00172,-0.10307,0.0,-0.00106,-9.5e-05,0.074455,-0.0,-0.0,2.0,0.282024,0.288549,0.282024,0.275275,,,,,,
38045,0.089475,-0.001703,-0.103433,-0.001064,-0.00106,-9.5e-05,0.072192,-0.0,-0.0,2.0,0.282024,0.289564,0.282024,0.274182,,,,,,
38065,0.089353,-0.001699,-0.103677,-0.001064,0.0,0.0,0.072192,-0.0,-0.0,2.0,0.282024,0.287185,0.282024,0.276723,,,,,,
38085,0.088866,-0.001719,-0.103804,-0.001064,0.0,0.0,0.070044,-0.0,-0.0,2.0,0.282024,0.287951,0.282024,0.275913,,,,,,
38105,0.0885,-0.001727,-0.104051,-0.001064,0.0,0.0,0.066741,-0.0,-0.0,2.0,0.282024,0.289205,0.282024,0.27457,,,,,,
38125,0.088013,-0.001742,-0.104299,-0.001064,-0.00106,-9.4e-05,0.064535,-0.0,-0.0,2.0,0.282024,0.289935,0.282024,0.27378,,,,,,
38145,0.087891,-0.001748,-0.104301,-0.001064,-0.00106,-9.3e-05,0.061474,-0.0,-0.0,2.0,0.282024,0.291131,0.282024,0.272474,,,,,,
38165,0.087762,-0.001627,-0.104429,-0.001062,-0.000967,-0.001153,0.058666,-0.0,-0.0,2.0,0.282024,0.292253,0.282024,0.271231,,,,,,
38185,0.087762,-0.001617,-0.104671,0.0,-0.00106,-9.3e-05,0.057246,-0.0,-0.0,2.0,0.282024,0.295061,0.282024,0.268056,,,,,,
38205,0.087762,-0.001617,-0.104671,0.0,-0.00106,-9.3e-05,0.054398,-0.0,-0.0,2.0,0.282024,0.296237,0.282024,0.266698,,,,,,
38225,0.087999,-0.001477,-0.104794,-0.001064,0.0,0.0,0.051182,-0.0,-0.0,2.0,0.282024,0.295419,0.282024,0.267644,,,,,,
38245,0.087884,-0.001605,-0.104791,-0.001063,9.3e-05,-0.00106,0.048735,-0.0,-0.0,2.0,0.282024,0.296427,0.282024,0.266476,,,,,,
38265,0.087646,-0.00174,-0.104788,-0.001062,9.3e-05,-0.00106,0.045667,-0.0,-0.0,2.0,0.282024,0.297587,0.282024,0.265115,,,,,,
38285,0.087525,-0.001746,-0.10479,-0.001064,-0.00106,-9.3e-05,0.042237,-0.0,-0.0,2.0,0.282024,0.29894,0.282024,0.263505,,,,,,
38305,0.087159,-0.001765,-0.104794,-0.001062,9.3e-05,-0.00106,0.040443,-0.0,-0.0,2.0,0.282024,0.299519,0.282024,0.262808,,,,,,
38325,0.086666,-0.001669,-0.104805,-0.001062,-0.000968,-0.001152,0.036084,-0.0,-0.0,2.0,0.282024,0.301125,0.282024,0.260851,,,,,,
38345,0.086167,-0.001573,-0.104797,-0.001064,-0.00106,-9.2e-05,0.032587,-0.0,-0.0,2.0,0.282024,0.30024,0.282024,0.261933,,,,,,
38365,0.08568,-0.001604,-0.104682,-0.002128,-0.00106,-9.1e-05,0.02904,-0.0,-0.0,2.0,0.282024,0.301424,0.282024,0.260481,,,,,,
38385,0.084949,-0.001648,-0.10457,-0.002127,9e-05,-0.00106,0.027271,-0.0,-0.0,2.0,0.282024,0.301838,0.282024,0.259969,,,,,,
