time_ms,roll,pitch,yaw,roll_rate,pitch_rate,yaw_rate,reference_roll,reference_pitch,reference_yaw,reference_throttle,throttle_1,throttle_2,throttle_3,throttle_4,roll_predicted,pitch_predicted,yaw_predicted,roll_rate_predicted,pitch_rate_predicted,yaw_rate_predicted
295420,-0.000682,0.027852,0.038729,-3e-05,-0.001065,-0.001064,0.0,-0.0,-0.0,2.0,0.282024,0.280761,0.282024,0.283279,,,,,,
295440,-0.000322,0.027601,0.038602,0.0,0.0,0.0,0.0,-0.0,-0.0,2.0,0.282024,0.281307,0.282024,0.282738,,,,,,
295460,4.4e-05,0.027594,0.038597,-2.9e-05,0.0,-0.001065,0.0,-0.0,-0.0,2.0,0.282024,0.281717,0.282024,0.282331,,,,,,
295480,0.000281,0.027223,0.038594,-0.001064,0.0,0.0,0.0,-0.0,-0.0,2.0,0.282024,0.281839,0.282024,0.28221,,,,,,
295500,0.000153,0.026981,0.038473,-0.001064,0.0,0.0,0.0,-0.0,-0.0,2.0,0.282024,0.276286,0.282024,0.287599,,,,,,
295520,-0.000211,0.02711,0.038478,-0.001093,-0.001064,-0.001064,0.0,-0.0,-0.0,2.0,0.282024,0.275863,0.282024,0.287997,,,,,,
295540,-0.000453,0.027237,0.038482,-0.001064,-0.001064,0.0,0.0,-0.0,-0.0,2.0,0.282024,0.27542,0.282024,0.288413,,,,,,
295560,-0.000812,0.02761,0.038487,-0.001094,-1e-06,-0.001065,0.0,-0.0,-0.0,2.0,0.282024,0.275141,0.282024,0.288673,,,,,,
295580,-0.000692,0.027608,0.038363,-2.9e-05,-0.001065,-0.001064,0.0,-0.0,-0.0,2.0,0.282024,0.280702,0.282024,0.283337,,,,,,
295600,-0.000445,0.027725,0.03836,0.0,-0.001064,0.0,0.0,-0.0,-0.0,2.0,0.282024,0.281118,0.282024,0.282926,,,,,,
295620,-0.000203,0.027598,0.038356,-2.9e-05,-0.0,-0.001065,0.0,-0.0,-0.0,2.0,0.282024,0.281232,0.282024,0.282813,,,,,,
295640,0.000158,0.027347,0.038351,-2.9e-05,0.0,-0.001065,0.0,-0.0,-0.0,2.0,0.282024,0.28164,0.282024,0.282407,,,,,,
295660,0.000153,0.027103,0.038351,-0.001064,0.0,0.0,0.0,-0.0,-0.0,2.0,0.282024,0.276225,0.282024,0.287657,,,,,,
295680,2.9e-05,0.026984,0.038353,-0.001064,0.0,0.0,0.0,-0.0,-0.0,2.0,0.282024,0.275931,0.282024,0.287934,,,,,,
295700,-0.000333,0.027235,0.038358,-0.001093,-0.001065,-0.001064,0.0,-0.0,-0.0,2.0,0.282024,0.275508,0.282024,0.28833,,,,,,
295720,-0.000574,0.027361,0.038361,-0.001064,-0.001064,1e-06,0.0,-0.0,-0.0,2.0,0.282024,0.275369,0.282024,0.288461,,,,,,
295740,-0.000814,0.02761,0.038365,-0.001064,-0.001064,1e-06,0.0,-0.0,-0.0,2.0,0.282024,0.274915,0.282024,0.288884,,,,,,
295760,-0.000688,0.02773,0.038485,-3e-05,-1e-06,-0.001065,0.0,-0.0,-0.0,2.0,0.282024,0.280642,0.282024,0.283396,,,,,,
295780,-0.000326,0.027601,0.038358,0.0,0.0,0.0,0.0,-0.0,-0.0,2.0,0.282024,0.281193,0.282024,0.282852,,,,,,
295800,-8.4e-05,0.027474,0.038355,0.0,0.0,0.0,0.0,-0.0,-0.0,2.0,0.282024,0.281461,0.282024,0.282586,,,,,,
295820,0.000278,0.027223,0.03835,0.0,0.0,0.0,0.0,-0.0,-0.0,2.0,0.282024,0.28172,0.282024,0.282327,,,,,,
295840,0.000275,0.027101,0.03835,-0.001093,0.0,-0.001065,0.0,-0.0,-0.0,2.0,0.282024,0.276312,0.282024,0.287574,,,,,,
295860,3.1e-05,0.027106,0.038353,-0.001064,-0.001064,-0.0,0.0,-0.0,-0.0,2.0,0.282024,0.276035,0.282024,0.287836,,,,,,
295880,-0.000333,0.027235,0.038358,-0.001064,-0.001064,0.0,0.0,-0.0,-0.0,2.0,0.282024,0.275454,0.282024,0.288381,,,,,,
295900,-0.000694,0.027486,0.038363,-0.001093,-0.001065,-0.001064,0.0,-0.0,-0.0,2.0,0.282024,0.275175,0.282024,0.288642,,,,,,
295920,-0.00057,0.027605,0.038362,0.0,-0.001064,1e-06,0.0,-0.0,-0.0,2.0,0.282024,0.280742,0.282024,0.283298,,,,,,
295940,-0.000448,0.027603,0.03836,0.0,0.0,0.0,0.0,-0.0,-0.0,2.0,0.282024,0.281019,0.282024,0.283024,,,,,,
295960,-0.000203,0.027598,0.038356,-2.9e-05,-0.0,-0.001065,0.0,-0.0,-0.0,2.0,0.282024,0.281136,0.282024,0.282908,,,,,,
295980,0.000156,0.027347,0.038229,0.0,0.0,0.0,0.0,-0.0,-0.0,2.0,0.282024,0.281693,0.282024,0.282354,,,,,,
296000,0.000278,0.027223,0.03835,-0.001064,0.0,0.0,0.0,-0.0,-0.0,2.0,0.282024,0.276273,0.282024,0.287612,,,,,,
296020,0.000275,0.027101,0.03835,-0.001064,-0.001064,-0.0,0.0,-0.0,-0.0,2.0,0.282024,0.276124,0.282024,0.287752,,,,,,
296040,-0.000212,0.027232,0.038234,-0.001093,-0.001064,-0.001064,0.0,-0.0,-0.0,2.0,0.282024,0.275712,0.282024,0.288139,,,,,,
296060,-0.000576,0.027361,0.038239,-0.001064,-0.001064,1e-06,0.0,-0.0,-0.0,2.0,0.282024,0.275281,0.282024,0.288543,,,,,,
296080,-0.000692,0.027608,0.038363,-0.001064,-0.001064,1e-06,0.0,-0.0,-0.0,2.0,0.282024,0.274973,0.282024,0.28883,,,,,,
296100,-0.000687,0.027852,0.038363,-3e-05,-1e-06,-0.001065,0.0,-0.0,-0.0,2.0,0.282024,0.280561,0.282024,0.283476,,,,,,
296120,-0.000447,0.027725,0.038238,0.0,0.0,0.0,0.0,-0.0,-0.0,2.0,0.282024,0.280971,0.282024,0.283071,,,,,,
296140,-8.5e-05,0.027474,0.038233,0.0,0.0,0.0,0.0,-0.0,-0.0,2.0,0.282024,0.281373,0.282024,0.282673,,,,,,
296160,0.000158,0.027347,0.038351,-2.9e-05,0.0,-0.001065,0.0,-0.0,-0.0,2.0,0.282024,0.281498,0.282024,0.282549,,,,,,
296180,0.000154,0.027225,0.038229,-0.001093,0.0,-0.001065,0.0,-0.0,-0.0,2.0,0.282024,0.27608,0.282024,0.287793,,,,,,
296200,-9.2e-05,0.027108,0.038233,-0.001064,-0.001064,0.0,0.0,-0.0,-0.0,2.0,0.282024,0.275795,0.282024,0.288061,,,,,,
296220,-0.000454,0.027359,0.038238,-0.001093,-0.001065,-0.001064,0.0,-0.0,-0.0,2.0,0.282024,0.275214,0.282024,0.288606,,,,,,
296240,-0.000694,0.027486,0.038363,-0.001093,-0.001065,-0.001064,0.0,-0.0,-0.0,2.0,0.282024,0.274918,0.282024,0.288881,,,,,,
296260,-0.000815,0.02761,0.038243,0.0,-0.001064,1e-06,0.0,-0.0,-0.0,2.0,0.282024,0.280516,0.282024,0.283521,,,,,,
296280,-0.000691,0.02773,0.038241,-3e-05,-1e-06,-0.001065,0.0,-0.0,-0.0,2.0,0.282024,0.280639,0.282024,0.283399,,,,,,
296300,-0.000203,0.027721,0.038235,-3e-05,-0.0,-0.001065,0.0,-0.0,-0.0,2.0,0.282024,0.281028,0.282024,0.283015,,,,,,
296320,3.7e-05,0.027472,0.038231,0.0,0.0,0.0,0.0,-0.0,-0.0,2.0,0.282024,0.281449,0.282024,0.282598,,,,,,
296340,0.000156,0.027347,0.038229,-0.001093,0.0,-0.001065,0.0,-0.0,-0.0,2.0,0.282024,0.276017,0.282024,0.287853,,,,,,
296360,0.000154,0.027225,0.038229,-0.001064,-0.001064,-0.0,0.0,-0.0,-0.0,2.0,0.282024,0.275864,0.282024,0.287996,,,,,,
296380,-0.000333,0.027235,0.038358,-0.001093,-0.001065,-0.001064,0.0,-0.0,-0.0,2.0,0.282024,0.275451,0.282024,0.288384,,,,,,
296400,-0.000694,0.027486,0.038363,-0.001093,-0.001065,-0.001064,0.0,-0.0,-0.0,2.0,0.282024,0.274861,0.282024,0.288934,,,,,,
296420,-0.000813,0.027732,0.038243,0.0,-0.001064,1e-06,0.0,-0.0,-0.0,2.0,0.282024,0.280463,0.282024,0.283573,,,,,,
296440,-0.000809,0.027854,0.038365,-3e-05,-1e-06,-0.001065,0.0,-0.0,-0.0,2.0,0.282024,0.280293,0.282024,0.28374,,,,,,
296460,-0.000447,0.027725,0.038238,0.0,0.0,0.0,0.0,-0.0,-0.0,2.0,0.282024,0.280688,0.282024,0.283351,,,,,,
296480,-8.3e-05,0.027596,0.038233,0.0,0.0,0.0,0.0,-0.0,-0.0,2.0,0.282024,0.281245,0.282024,0.2828,,,,,,
296500,0.000156,0.027347,0.038229,0.0,0.0,0.0,0.0,-0.0,-0.0,2.0,0.282024,0.281367,0.282024,0.282679,,,,,,
296520,0.000274,0.027101,0.038228,-0.001093,0.0,-0.001065,0.0,-0.0,-0.0,2.0,0.282024,0.275934,0.282024,0.287931,,,,,,
296540,3.2e-05,0.027228,0.038231,-0.001093,0.0,-0.001065,0.0,-0.0,-0.0,2.0,0.282024,0.27581,0.282024,0.288047,,,,,,
296560,-0.000334,0.027235,0.038236,-0.001064,-0.001064,0.0,0.0,-0.0,-0.0,2.0,0.282024,0.275225,0.282024,0.288595,,,,,,
296580,-0.000694,0.027486,0.038363,-0.001093,-0.001065,-0.001064,0.0,-0.0,-0.0,2.0,0.282024,0.274792,0.282024,0.288999,,,,,,
296600,-0.000814,0.02761,0.038365,-2.9e-05,-0.001065,-0.001064,0.0,-0.0,-0.0,2.0,0.282024,0.274789,0.282024,0.289002,,,,,,
296620,-0.000689,0.02773,0.038363,0.0,-0.001064,1e-06,0.0,-0.0,-0.0,2.0,0.282024,0.280517,0.282024,0.283519,,,,,,
296640,-0.000321,0.027723,0.03848,-3e-05,-0.0,-0.001065,0.0,-0.0,-0.0,2.0,0.282024,0.28077,0.282024,0.28327,,,,,,
296660,0.000163,0.027591,0.038351,-2.9e-05,0.0,-0.001065,0.0,-0.0,-0.0,2.0,0.282024,0.281468,0.282024,0.282579,,,,,,
296680,0.000402,0.027343,0.038348,0.0,0.0,0.0,0.0,-0.0,-0.0,2.0,0.282024,0.281744,0.282024,0.282304,,,,,,
296700,0.000277,0.027101,0.038472,-0.001064,0.0,0.0,0.0,-0.0,-0.0,2.0,0.282024,0.27589,0.282024,0.287972,,,,,,
296720,3.5e-05,0.027228,0.038475,-0.001093,-0.001064,-0.001065,0.0,-0.0,-0.0,2.0,0.282024,0.275767,0.282024,0.288088,,,,,,
296740,-0.000329,0.027357,0.03848,-0.001064,-0.001064,0.0,0.0,-0.0,-0.0,2.0,0.282024,0.275341,0.282024,0.288487,,,,,,
296760,-0.00069,0.027608,0.038485,-0.001064,-0.001064,1e-06,0.0,-0.0,-0.0,2.0,0.282024,0.274907,0.282024,0.288892,,,,,,
296780,-0.000806,0.027854,0.038609,-3e-05,-1e-06,-0.001065,0.0,-0.0,-0.0,2.0,0.282024,0.280207,0.282024,0.283825,,,,,,
296800,-0.000563,0.02785,0.038484,0.0,-0.001064,1e-06,0.0,-0.0,-0.0,2.0,0.282024,0.280619,0.282024,0.283419,,,,,,
296820,-0.000199,0.02772,0.038479,0.0,0.0,0.0,0.0,-0.0,-0.0,2.0,0.282024,0.281023,0.282024,0.28302,,,,,,
296840,0.000284,0.027467,0.038472,0.0,0.0,0.0,0.0,-0.0,-0.0,2.0,0.282024,0.281419,0.282024,0.282628,,,,,,
296860,0.000279,0.027223,0.038472,-0.001093,0.0,-0.001065,0.0,-0.0,-0.0,2.0,0.282024,0.281571,0.282024,0.282476,,,,,,
296880,0.000153,0.027103,0.038351,-0.001064,-0.001064,-0.0,0.0,-0.0,-0.0,2.0,0.282024,0.27586,0.282024,0.288,,,,,,
296900,-8.7e-05,0.02723,0.038477,-0.001064,-0.001064,0.0,0.0,-0.0,-0.0,2.0,0.282024,0.275582,0.282024,0.288261,,,,,,
296920,-0.000573,0.027361,0.038483,-0.001093,-0.001065,-0.001064,0.0,-0.0,-0.0,2.0,0.282024,0.274852,0.282024,0.288943,,,,,,
296940,-0.000816,0.027488,0.038365,-0.001064,-0.001064,1e-06,0.0,-0.0,-0.0,2.0,0.282024,0.274707,0.282024,0.289078,,,,,,
296960,-0.000689,0.02773,0.038363,0.0,0.0,0.0,0.0,-0.0,-0.0,2.0,0.282024,0.28044,0.282024,0.283596,,,,,,
296980,-0.000445,0.027725,0.03836,0.0,0.0,0.0,0.0,-0.0,-0.0,2.0,0.282024,0.280548,0.282024,0.283489,,,,,,
297000,-8.3e-05,0.027596,0.038233,-2.9e-05,-0.0,-0.001065,0.0,-0.0,-0.0,2.0,0.282024,0.281106,0.282024,0.282938,,,,,,
297020,0.000278,0.027345,0.038228,0.0,0.0,0.0,0.0,-0.0,-0.0,2.0,0.282024,0.281517,0.282024,0.28253,,,,,,
297040,0.000396,0.027099,0.038226,-0.001064,-0.001064,-0.0,0.0,-0.0,-0.0,2.0,0.282024,0.275935,0.282024,0.28793,,,,,,
297060,0.000154,0.027225,0.038229,-0.001093,0.0,-0.001065,0.0,-0.0,-0.0,2.0,0.282024,0.275816,0.282024,0.288042,,,,,,
297080,-0.000334,0.027235,0.038236,-0.002128,-0.001064,0.0,0.0,-0.0,-0.0,2.0,0.282024,0.269483,0.282024,0.29381,,,,,,
297100,-0.000696,0.027486,0.038241,-0.001064,-0.001064,1e-06,0.0,-0.0,-0.0,2.0,0.282024,0.274812,0.282024,0.28898,,,,,,
297120,-0.000813,0.027732,0.038243,-2.9e-05,-0.001065,-0.001064,0.0,-0.0,-0.0,2.0,0.282024,0.280112,0.282024,0.283918,,,,,,
297140,-0.000569,0.027728,0.03824,-2.9e-05,-0.001065,-0.001064,0.0,-0.0,-0.0,2.0,0.282024,0.280524,0.282024,0.283513,,,,,,
297160,-8.2e-05,0.027718,0.038111,0.001064,0.0,0.0,0.0,-0.0,-0.0,2.0,0.282024,0.281066,0.282024,0.282977,,,,,,
297180,0.000281,0.027589,0.038106,-2.9e-05,0.0,-0.001065,0.0,-0.0,-0.0,2.0,0.282024,0.281327,0.282024,0.282718,,,,,,
297200,0.000521,0.02734,0.038102,-2.9e-05,1e-06,-0.001065,0.0,-0.0,-0.0,2.0,0.282024,0.276039,0.282024,0.287832,,,,,,
297220,0.000394,0.027099,0.038104,-0.001064,-0.001064,-0.0,0.0,-0.0,-0.0,2.0,0.282024,0.276059,0.282024,0.287814,,,,,,
297240,2.8e-05,0.027106,0.038109,-0.002128,-0.001064,-0.0,0.0,-0.0,-0.0,2.0,0.282024,0.27564,0.282024,0.288207,,,,,,
297260,-0.000458,0.027237,0.038116,-0.001064,-0.001064,0.0,0.0,-0.0,-0.0,2.0,0.282024,0.269141,0.282024,0.294112,,,,,,
297280,-0.000819,0.027488,0.038121,-0.001093,-0.001065,-0.001064,0.0,-0.0,-0.0,2.0,0.282024,0.274633,0.282024,0.289147,,,,,,
297300,-0.000695,0.027608,0.038119,0.0,-0.001064,1e-06,0.0,-0.0,-0.0,2.0,0.282024,0.280213,0.282024,0.283819,,,,,,
297320,-0.000328,0.027723,0.037992,0.001064,-0.001064,0.0,0.0,-0.0,-0.0,2.0,0.282024,0.280617,0.282024,0.283422,,,,,,
297340,3.6e-05,0.027594,0.037987,-2.9e-05,0.0,-0.001065,0.0,-0.0,-0.0,2.0,0.282024,0.286604,0.282024,0.277335,,,,,,
297360,0.000395,0.027343,0.03786,0.0,0.0,0.0,0.0,-0.0,-0.0,2.0,0.282024,0.281438,0.282024,0.282608,,,,,,
297380,0.000513,0.027097,0.037858,-0.001064,0.0,0.0,0.0,-0.0,-0.0,2.0,0.282024,0.276167,0.282024,0.287711,,,,,,
297400,0.000268,0.026979,0.037984,-0.001093,0.0,-0.001065,0.0,-0.0,-0.0,2.0,0.282024,0.275741,0.282024,0.288112,,,,,,
297420,-0.000219,0.02711,0.037868,-0.002128,-0.001064,0.0,0.0,-0.0,-0.0,2.0,0.282024,0.269411,0.282024,0.293874,,,,,,
297440,-0.000583,0.027361,0.037751,-0.001093,-0.001065,-0.001064,0.0,-0.0,-0.0,2.0,0.282024,0.274895,0.282024,0.288903,,,,,,
297460,-0.000822,0.02761,0.037755,-0.001064,-0.001064,1e-06,0.0,-0.0,-0.0,2.0,0.282024,0.27444,0.282024,0.289325,,,,,,
297480,-0.000697,0.027852,0.037631,0.0,-0.001064,1e-06,0.0,-0.0,-0.0,2.0,0.282024,0.280179,0.282024,0.283852,,,,,,
297500,-0.000333,0.027845,0.037504,-3e-05,-0.0,-0.001065,0.0,-0.0,-0.0,2.0,0.282024,0.280732,0.282024,0.283308,,,,,,
297520,2.9e-05,0.027594,0.037499,0.0,0.0,0.0,0.0,-0.0,-0.0,2.0,0.282024,0.280985,0.282024,0.283057,,,,,,
297540,0.000264,0.027223,0.037374,0.0,0.0,0.0,0.0,-0.0,-0.0,2.0,0.282024,0.281407,0.282024,0.282639,,,,,,
297560,0.00026,0.027101,0.037252,-0.001093,0.0,-0.001065,0.0,-0.0,-0.0,2.0,0.282024,0.275834,0.282024,0.288025,,,,,,
297580,1e-05,0.026862,0.037133,-0.001064,-0.001064,-0.0,0.0,-0.0,-0.0,2.0,0.282024,0.275546,0.282024,0.288295,,,,,,
297600,-0.000351,0.027113,0.037138,-0.001064,-0.001064,0.0,0.0,-0.0,-0.0,2.0,0.282024,0.275121,0.282024,0.288693,,,,,,
297620,-0.000712,0.027486,0.037021,-0.001093,-0.001065,-0.001064,0.0,-0.0,-0.0,2.0,0.282024,0.274687,0.282024,0.289097,,,,,,
297640,-0.000834,0.02761,0.036901,0.0,-0.001064,1e-06,0.0,-0.0,-0.0,2.0,0.282024,0.274526,0.282024,0.289246,,,,,,
297660,-0.000709,0.027852,0.036777,0.0,0.0,0.0,0.0,-0.0,-0.0,2.0,0.282024,0.280262,0.282024,0.28377,,,,,,
297680,-0.000223,0.027721,0.03677,0.001035,-0.0,-0.001065,0.0,-0.0,-0.0,2.0,0.282024,0.280648,0.282024,0.28339,,,,,,
297700,0.000135,0.027348,0.036643,0.0,0.0,0.0,0.0,-0.0,-0.0,2.0,0.282024,0.281205,0.282024,0.28284,,,,,,
297720,0.00025,0.02698,0.036642,-0.001093,0.001064,-0.001064,0.0,-0.0,-0.0,2.0,0.282024,0.281341,0.282024,0.282704,,,,,,
297740,0.00037,0.026855,0.03664,-0.001064,-0.001064,-0.0,0.0,-0.0,-0.0,2.0,0.282024,0.275758,0.282024,0.288096,,,,,,
297760,2e-06,0.026862,0.036523,-0.001093,-0.001064,-0.001065,0.0,-0.0,-0.0,2.0,0.282024,0.275488,0.282024,0.28835,,,,,,
297780,-0.000482,0.027115,0.036529,-0.002157,-0.001065,-0.001064,0.0,-0.0,-0.0,2.0,0.282024,0.274918,0.282024,0.288881,,,,,,
297800,-0.000719,0.027486,0.036533,-0.001064,-0.001064,1e-06,0.0,-0.0,-0.0,2.0,0.282024,0.274471,0.282024,0.289297,,,,,,
297820,-0.000837,0.027732,0.036535,-3e-05,-1e-06,-0.001065,0.0,-0.0,-0.0,2.0,0.282024,0.280083,0.282024,0.283946,,,,,,
297840,-0.000471,0.027725,0.03653,0.0,0.0,0.0,0.0,-0.0,-0.0,2.0,0.282024,0.28033,0.282024,0.283703,,,,,,
297860,-0.000108,0.027597,0.036403,0.0,0.0,0.0,0.0,-0.0,-0.0,2.0,0.282024,0.286321,0.282024,0.277631,,,,,,
297880,0.000253,0.027224,0.03652,-2.9e-05,0.0,-0.001065,0.0,-0.0,-0.0,2.0,0.282024,0.281147,0.282024,0.282897,,,,,,
297900,0.000489,0.026853,0.036394,0.0,0.0,0.0,0.0,-0.0,-0.0,2.0,0.282024,0.27585,0.282024,0.28801,,,,,,
297920,0.000366,0.026855,0.036396,-0.001064,-0.001064,-0.0,0.0,-0.0,-0.0,2.0,0.282024,0.275871,0.282024,0.28799,,,,,,
297940,-0.000122,0.026864,0.036402,-0.001064,-0.001064,0.0,0.0,-0.0,-0.0,2.0,0.282024,0.275154,0.282024,0.288661,,,,,,
297960,-0.000603,0.027239,0.036409,-0.001093,-0.001065,-0.001064,0.0,-0.0,-0.0,2.0,0.282024,0.274583,0.282024,0.289193,,,,,,
297980,-0.000841,0.02761,0.036413,-0.001094,-0.001065,-0.001064,0.0,-0.0,-0.0,2.0,0.282024,0.274442,0.282024,0.289324,,,,,,
298000,-0.000838,0.027732,0.036413,0.0,0.0,0.0,0.0,-0.0,-0.0,2.0,0.282024,0.280039,0.282024,0.283989,,,,,,
298020,-0.000475,0.027603,0.036408,0.0,0.0,0.0,0.0,-0.0,-0.0,2.0,0.282024,0.280283,0.282024,0.28375,,,,,,
298040,-0.000113,0.027352,0.036403,-2.9e-05,-0.0,-0.001065,0.0,-0.0,-0.0,2.0,0.282024,0.28084,0.282024,0.283201,,,,,,
298060,0.000367,0.026977,0.036274,0.0,0.0,0.0,0.0,-0.0,-0.0,2.0,0.282024,0.281387,0.282024,0.28266,,,,,,
298080,0.000609,0.026851,0.036271,-0.001064,0.0,0.0,0.0,-0.0,-0.0,2.0,0.282024,0.281671,0.282024,0.282377,,,,,,
298100,0.000243,0.026858,0.036275,-0.002157,-0.001064,-0.001065,0.0,-0.0,-0.0,2.0,0.282024,0.275537,0.282024,0.288304,,,,,,
298120,-0.000121,0.027108,0.036158,-0.001064,-0.001064,0.0,0.0,-0.0,-0.0,2.0,0.282024,0.269349,0.282024,0.293929,,,,,,
298140,-0.000478,0.027481,0.036286,-0.001064,-0.001064,1e-06,0.0,-0.0,-0.0,2.0,0.282024,0.274841,0.282024,0.288953,,,,,,
298160,-0.000718,0.02773,0.036289,-2.9e-05,-0.001065,-0.001064,0.0,-0.0,-0.0,2.0,0.282024,0.274389,0.282024,0.289373,,,,,,
298180,-0.000596,0.027727,0.036287,-3e-05,-1e-06,-0.001065,0.0,-0.0,-0.0,2.0,0.282024,0.280281,0.282024,0.283752,,,,,,
298200,-0.000112,0.027597,0.036159,0.0,0.0,0.0,0.0,-0.0,-0.0,2.0,0.282024,0.286258,0.282024,0.277697,,,,,,
298220,0.000374,0.027344,0.036274,0.0,0.0,0.0,0.0,-0.0,-0.0,2.0,0.282024,0.281223,0.282024,0.282822,,,,,,
298240,0.000733,0.026971,0.036269,-2.9e-05,1e-06,-0.001065,0.0,-0.0,-0.0,2.0,0.282024,0.281792,0.282024,0.282256,,,,,,
298260,0.000729,0.026849,0.036147,-0.001064,0.0,0.0,0.0,-0.0,-0.0,2.0,0.282024,0.276089,0.282024,0.287785,,,,,,
298280,0.000243,0.02698,0.036153,-0.002128,-0.001064,-0.0,0.0,-0.0,-0.0,2.0,0.282024,0.26994,0.282024,0.293406,,,,,,
298300,-0.000241,0.027111,0.036282,-0.001093,-0.001064,-0.001064,0.0,-0.0,-0.0,2.0,0.282024,0.269199,0.282024,0.29406,,,,,,
298320,-0.000604,0.027361,0.036165,-0.001064,-0.001064,1e-06,0.0,-0.0,-0.0,2.0,0.282024,0.274689,0.282024,0.289094,,,,,,
298340,-0.000718,0.02773,0.036289,-2.9e-05,-0.001065,-0.001064,0.0,-0.0,-0.0,2.0,0.282024,0.280152,0.282024,0.283879,,,,,,
298360,-0.000476,0.027603,0.036286,0.0,0.0,0.0,0.0,-0.0,-0.0,2.0,0.282024,0.280259,0.282024,0.283773,,,,,,
298380,0.00013,0.02747,0.036155,0.001035,0.0,-0.001065,0.0,-0.0,-0.0,2.0,0.282024,0.286525,0.282024,0.277417,,,,,,
298400,0.000612,0.027095,0.036149,0.0,0.0,0.0,0.0,-0.0,-0.0,2.0,0.282024,0.281648,0.282024,0.282399,,,,,,
298420,0.000727,0.026727,0.036147,-0.001064,0.0,0.0,0.0,-0.0,-0.0,2.0,0.282024,0.276079,0.282024,0.287795,,,,,,
298440,0.000605,0.026729,0.036149,-0.001093,-0.001064,-0.001065,0.0,-0.0,-0.0,2.0,0.282024,0.275953,0.282024,0.287912,,,,,,
298460,-3e-06,0.026862,0.036157,-0.002157,-0.001064,-0.001065,0.0,-0.0,-0.0,2.0,0.282024,0.275406,0.282024,0.288426,,,,,,
298480,-0.000487,0.027115,0.036163,-0.002157,-0.001065,-0.001064,0.0,-0.0,-0.0,2.0,0.282024,0.269061,0.282024,0.294182,,,,,,
298500,-0.000724,0.027486,0.036167,0.0,-0.001064,1e-06,0.0,-0.0,-0.0,2.0,0.282024,0.274387,0.282024,0.289375,,,,,,
298520,-0.000722,0.027608,0.036167,-2.9e-05,-1e-06,-0.001065,0.0,-0.0,-0.0,2.0,0.282024,0.280139,0.282024,0.283891,,,,,,
298540,-0.000236,0.027477,0.03616,0.0,0.0,0.0,0.0,-0.0,-0.0,2.0,0.282024,0.280527,0.282024,0.28351,,,,,,
298560,0.000372,0.027344,0.036152,0.001064,0.0,0.0,0.0,-0.0,-0.0,2.0,0.282024,0.281369,0.282024,0.282677,,,,,,
298580,0.000609,0.026973,0.036149,-2.9e-05,1e-06,-0.001065,0.0,-0.0,-0.0,2.0,0.282024,0.281648,0.282024,0.282399,,,,,,
298600,0.000725,0.026727,0.036025,-0.001064,-0.001064,-1e-06,0.0,-0.0,-0.0,2.0,0.282024,0.276081,0.282024,0.287793,,,,,,
298620,0.000359,0.026733,0.03603,-0.002157,-0.001064,-0.001065,0.0,-0.0,-0.0,2.0,0.282024,0.275821,0.282024,0.288037,,,,,,
298640,-0.000246,0.026989,0.036038,-0.002157,-0.001064,-0.001064,0.0,-0.0,-0.0,2.0,0.282024,0.274965,0.282024,0.288838,,,,,,
298660,-0.000728,0.027363,0.036045,-0.001064,-0.001064,1e-06,0.0,-0.0,-0.0,2.0,0.282024,0.268758,0.282024,0.294448,,,,,,
298680,-0.000966,0.027612,0.03617,-0.001094,-1e-06,-0.001065,0.0,-0.0,-0.0,2.0,0.282024,0.279864,0.282024,0.284161,,,,,,
298700,-0.000724,0.027608,0.036045,0.0,-0.001064,1e-06,0.0,-0.0,-0.0,2.0,0.282024,0.279965,0.282024,0.284062,,,,,,
298720,-0.00036,0.027479,0.03604,-2.9e-05,-0.0,-0.001065,0.0,-0.0,-0.0,2.0,0.282024,0.280516,0.282024,0.28352,,,,,,
298740,2e-06,0.027228,0.036035,-2.9e-05,0.0,-0.001065,0.0,-0.0,-0.0,2.0,0.282024,0.286356,0.282024,0.277594,,,,,,
298760,0.00024,0.02698,0.035909,0.0,0.0,0.0,0.0,-0.0,-0.0,2.0,0.282024,0.281195,0.282024,0.28285,,,,,,
298780,0.00024,0.026858,0.036031,-0.001093,-0.001064,-0.001065,0.0,-0.0,-0.0,2.0,0.282024,0.275618,0.282024,0.288227,,,,,,
298800,-0.00025,0.026867,0.035916,-0.002157,-0.001064,-0.001064,0.0,-0.0,-0.0,2.0,0.282024,0.274896,0.282024,0.288902,,,,,,
298820,-0.000614,0.026995,0.035921,-0.001064,-0.001064,1e-06,0.0,-0.0,-0.0,2.0,0.282024,0.274615,0.282024,0.289164,,,,,,
298840,-0.001096,0.02737,0.035928,-0.001064,-0.001064,1e-06,0.0,-0.0,-0.0,2.0,0.282024,0.27403,0.282024,0.289705,,,,,,
298860,-0.001216,0.027494,0.03593,-2.9e-05,-1e-06,-0.001065,0.0,-0.0,-0.0,2.0,0.282024,0.279341,0.282024,0.284671,,,,,,
298880,-0.000847,0.02761,0.035925,0.0,-0.001064,1e-06,0.0,-0.0,-0.0,2.0,0.282024,0.279888,0.282024,0.284137,,,,,,
298900,-0.000606,0.027483,0.035921,-2.9e-05,-1e-06,-0.001065,0.0,-0.0,-0.0,2.0,0.282024,0.280146,0.282024,0.283885,,,,,,
298920,-0.000124,0.027108,0.035914,0.0,0.0,0.0,0.0,-0.0,-0.0,2.0,0.282024,0.280534,0.282024,0.283503,,,,,,
298940,0.000114,0.02686,0.035789,-2.9e-05,0.0,-0.001065,0.0,-0.0,-0.0,2.0,0.282024,0.280955,0.282024,0.283088,,,,,,
298960,-8e-06,0.026862,0.035791,-0.001093,-0.0,-0.001065,0.0,-0.0,-0.0,2.0,0.282024,0.275225,0.282024,0.288595,,,,,,
298980,-0.000252,0.026867,0.035794,-0.001064,-0.001064,0.0,0.0,-0.0,-0.0,2.0,0.282024,0.274783,0.282024,0.289007,,,,,,
299000,-0.000854,0.027244,0.035924,-0.001093,-0.001065,-0.001064,0.0,-0.0,-0.0,2.0,0.282024,0.274219,0.282024,0.289531,,,,,,
299020,-0.001098,0.02737,0.035806,-0.001064,-0.001064,1e-06,0.0,-0.0,-0.0,2.0,0.282024,0.273752,0.282024,0.289962,,,,,,
299040,-0.001095,0.027492,0.035806,0.0,-0.001064,1e-06,0.0,-0.0,-0.0,2.0,0.282024,0.279513,0.282024,0.284503,,,,,,
299060,-0.000969,0.027612,0.035926,-2.9e-05,-1e-06,-0.001065,0.0,-0.0,-0.0,2.0,0.282024,0.279631,0.282024,0.284388,,,,,,
299080,-0.000487,0.027359,0.035797,0.0,0.0,0.0,0.0,-0.0,-0.0,2.0,0.282024,0.28001,0.282024,0.284017,,,,,,
299100,-1e-06,0.027228,0.035791,0.0,0.0,0.0,0.0,-0.0,-0.0,2.0,0.282024,0.280708,0.282024,0.283332,,,,,,
299120,0.000118,0.026982,0.035911,-0.001093,0.0,-0.001065,0.0,-0.0,-0.0,2.0,0.282024,0.280694,0.282024,0.283345,,,,,,
299140,-8e-06,0.026862,0.035791,-0.001093,-0.001064,-0.001065,0.0,-0.0,-0.0,2.0,0.282024,0.274954,0.282024,0.288848,,,,,,
299160,-0.000372,0.026991,0.035796,-0.002128,-0.001064,0.0,0.0,-0.0,-0.0,2.0,0.282024,0.268897,0.282024,0.294326,,,,,,
299180,-0.000976,0.027246,0.035926,-0.001093,-0.001065,-0.001064,0.0,-0.0,-0.0,2.0,0.282024,0.273953,0.282024,0.289776,,,,,,
299200,-0.001096,0.02737,0.035928,0.0,-0.001064,1e-06,0.0,-0.0,-0.0,2.0,0.282024,0.273629,0.282024,0.290074,,,,,,
299220,-0.000973,0.02749,0.035804,-2.9e-05,-1e-06,-0.001065,0.0,-0.0,-0.0,2.0,0.282024,0.279535,0.282024,0.284482,,,,,,
299240,-0.000606,0.027483,0.035921,0.001035,-1e-06,-0.001065,0.0,-0.0,-0.0,2.0,0.282024,0.279934,0.282024,0.284092,,,,,,
299260,-0.000123,0.027231,0.035792,0.0,-0.001064,0.0,0.0,-0.0,-0.0,2.0,0.282024,0.280322,0.282024,0.283712,,,,,,
299280,0.000241,0.027102,0.035787,-2.9e-05,0.001064,-0.001064,0.0,-0.0,-0.0,2.0,0.282024,0.280887,0.282024,0.283155,,,,,,
299300,0.000236,0.026858,0.035787,-0.001064,0.0,0.0,0.0,-0.0,-0.0,2.0,0.282024,0.275145,0.282024,0.28867,,,,,,
299320,-1.2e-05,0.02674,0.035669,-0.001064,-0.001064,0.0,0.0,-0.0,-0.0,2.0,0.282024,0.275012,0.282024,0.288794,,,,,,
299340,-0.000494,0.026993,0.035797,-0.001093,-1e-06,-0.001065,0.0,-0.0,-0.0,2.0,0.282024,0.274289,0.282024,0.289466,,,,,,
299360,-0.000857,0.027244,0.03568,-0.001064,-0.001064,1e-06,0.0,-0.0,-0.0,2.0,0.282024,0.273843,0.282024,0.289877,,,,,,
299380,-0.000977,0.027368,0.035682,0.0,-0.001064,1e-06,0.0,-0.0,-0.0,2.0,0.282024,0.279467,0.282024,0.284548,,,,,,
299400,-0.000729,0.027486,0.035801,-2.9e-05,-1e-06,-0.001065,0.0,-0.0,-0.0,2.0,0.282024,0.279575,0.282024,0.284443,,,,,,
299420,-0.000243,0.027477,0.035672,0.001035,-0.0,-0.001065,0.0,-0.0,-0.0,2.0,0.282024,0.285721,0.282024,0.278256,,,,,,
299440,0.000119,0.027226,0.035667,0.0,0.0,0.0,0.0,-0.0,-0.0,2.0,0.282024,0.280679,0.282024,0.28336,,,,,,
299460,0.000481,0.026976,0.035662,-0.001064,0.0,0.0,0.0,-0.0,-0.0,2.0,0.282024,0.280948,0.282024,0.283095,,,,,,
299480,0.000357,0.026856,0.035664,-0.001093,0.0,-0.001065,0.0,-0.0,-0.0,2.0,0.282024,0.275225,0.282024,0.288595,,,,,,
299500,-1.2e-05,0.02674,0.035669,-0.002128,-0.001064,0.0,0.0,-0.0,-0.0,2.0,0.282024,0.269182,0.282024,0.294076,,,,,,
299520,-0.000618,0.026995,0.035677,-0.001093,-0.001065,-0.001064,0.0,-0.0,-0.0,2.0,0.282024,0.274238,0.282024,0.289513,,,,,,
299540,-0.000853,0.027366,0.035802,0.0,-0.001064,1e-06,0.0,-0.0,-0.0,2.0,0.282024,0.273787,0.282024,0.289929,,,,,,
299560,-0.000849,0.02761,0.035803,-2.9e-05,-0.001065,-0.001064,0.0,-0.0,-0.0,2.0,0.282024,0.279557,0.282024,0.28446,,,,,,
299580,-0.000363,0.027601,0.035674,0.001064,0.0,0.0,0.0,-0.0,-0.0,2.0,0.282024,0.285403,0.282024,0.278586,,,,,,
299600,0.000249,0.02759,0.035787,0.0,0.0,0.0,0.0,-0.0,-0.0,2.0,0.282024,0.280788,0.282024,0.283253,,,,,,
299620,0.000487,0.02722,0.035784,-2.9e-05,1e-06,-0.001065,0.0,-0.0,-0.0,2.0,0.282024,0.280914,0.282024,0.283128,,,,,,
299640,0.00048,0.026853,0.035784,-0.001064,0.0,0.0,0.0,-0.0,-0.0,2.0,0.282024,0.275332,0.282024,0.288495,,,,,,
299660,0.000238,0.026858,0.035909,-0.001093,0.0,-0.001065,0.0,-0.0,-0.0,2.0,0.282024,0.275213,0.282024,0.288606,,,,,,
299680,-0.000128,0.026864,0.035914,-0.001093,-0.001064,-0.001064,0.0,-0.0,-0.0,2.0,0.282024,0.268852,0.282024,0.294365,,,,,,
299700,-0.00061,0.027117,0.036043,-0.001093,-0.001065,-0.001064,0.0,-0.0,-0.0,2.0,0.282024,0.274059,0.282024,0.289678,,,,,,
299720,-0.000726,0.027486,0.036045,-2.9e-05,-0.001065,-0.001064,0.0,-0.0,-0.0,2.0,0.282024,0.279689,0.282024,0.284332,,,,,,
299740,-0.000476,0.027725,0.036164,0.0,-0.001064,1e-06,0.0,-0.0,-0.0,2.0,0.282024,0.279805,0.282024,0.284218,,,,,,
299760,-0.000108,0.027719,0.036281,-3e-05,-0.0,-0.001065,0.0,-0.0,-0.0,2.0,0.282024,0.285668,0.282024,0.278312,,,,,,
299780,0.000254,0.027468,0.036276,-2.9e-05,0.0,-0.001065,0.0,-0.0,-0.0,2.0,0.282024,0.280627,0.282024,0.283411,,,,,,
299800,0.000373,0.027222,0.036396,-0.001064,0.0,0.0,0.0,-0.0,-0.0,2.0,0.282024,0.275333,0.282024,0.288495,,,,,,
299820,0.000248,0.02698,0.03652,-0.001093,0.0,-0.001065,0.0,-0.0,-0.0,2.0,0.282024,0.275042,0.282024,0.288766,,,,,,
299840,-0.000118,0.026986,0.036524,-0.001093,-0.001064,-0.001064,0.0,-0.0,-0.0,2.0,0.282024,0.274618,0.282024,0.289161,,,,,,
299860,-0.00048,0.027237,0.03653,-0.001064,-0.001064,1e-06,0.0,-0.0,-0.0,2.0,0.282024,0.27434,0.282024,0.289418,,,,,,
299880,-0.00084,0.027488,0.036657,-0.001064,-0.001064,1e-06,0.0,-0.0,-0.0,2.0,0.282024,0.273745,0.282024,0.289967,,,,,,
299900,-0.000709,0.027852,0.036777,-3e-05,-0.001065,-0.001064,0.0,-0.0,-0.0,2.0,0.282024,0.279508,0.282024,0.284508,,,,,,
299920,-0.000467,0.027847,0.036652,0.0,-0.001064,0.0,0.0,-0.0,-0.0,2.0,0.282024,0.279923,0.282024,0.284102,,,,,,
299940,-9.9e-05,0.027841,0.036769,0.0,0.0,0.0,0.0,-0.0,-0.0,2.0,0.282024,0.280336,0.282024,0.283698,,,,,,
299960,0.000384,0.027465,0.036884,-2.9e-05,0.0,-0.001065,0.0,-0.0,-0.0,2.0,0.282024,0.280734,0.282024,0.283306,,,,,,
299980,0.000382,0.027343,0.036884,-0.001093,0.0,-0.001065,0.0,-0.0,-0.0,2.0,0.282024,0.275302,0.282024,0.288523,,,,,,
300000,0.000133,0.027104,0.036887,-0.001064,0.0,0.0,0.0,-0.0,-0.0,2.0,0.282024,0.27502,0.282024,0.288786,,,,,,
300020,-0.000107,0.02723,0.037013,-0.001064,-0.001064,0.0,0.0,-0.0,-0.0,2.0,0.282024,0.274585,0.282024,0.289191,,,,,,
300040,-0.000588,0.027605,0.037019,-0.001094,-0.001065,-0.001064,0.0,-0.0,-0.0,2.0,0.282024,0.274168,0.282024,0.289578,,,,,,
300060,-0.000708,0.02773,0.037021,0.0,-0.001064,1e-06,0.0,-0.0,-0.0,2.0,0.282024,0.273853,0.282024,0.289869,,,,,,
300080,-0.000703,0.027974,0.037021,0.0,-0.001064,1e-06,0.0,-0.0,-0.0,2.0,0.282024,0.279471,0.282024,0.284545,,,,,,
300100,-0.000338,0.027845,0.037138,-3e-05,-0.0,-0.001065,0.0,-0.0,-0.0,2.0,0.282024,0.279875,0.282024,0.28415,,,,,,
300120,2.2e-05,0.027594,0.037011,0.0,0.0,0.0,0.0,-0.0,-0.0,2.0,0.282024,0.280435,0.282024,0.283601,,,,,,
300140,0.000384,0.027343,0.037006,0.0,0.0,0.0,0.0,-0.0,-0.0,2.0,0.282024,0.280849,0.282024,0.283192,,,,,,
300160,0.000259,0.027101,0.03713,-0.001064,-0.001064,-0.0,0.0,-0.0,-0.0,2.0,0.282024,0.274966,0.282024,0.288837,,,,,,
300180,1.5e-05,0.027106,0.037133,-0.001093,-0.001064,-0.001065,0.0,-0.0,-0.0,2.0,0.282024,0.27484,0.282024,0.288955,,,,,,
300200,-0.000349,0.027235,0.037138,-0.001064,-0.001064,0.0,0.0,-0.0,-0.0,2.0,0.282024,0.274254,0.282024,0.289498,,,,,,
300220,-0.000711,0.027486,0.037143,-0.001064,-0.001064,1e-06,0.0,-0.0,-0.0,2.0,0.282024,0.273972,0.282024,0.289758,,,,,,
300240,-0.000704,0.027852,0.037143,-3e-05,-1e-06,-0.001065,0.0,-0.0,-0.0,2.0,0.282024,0.279438,0.282024,0.284576,,,,,,
300260,-0.000462,0.027847,0.037018,-3e-05,-0.001065,-0.001064,0.0,-0.0,-0.0,2.0,0.282024,0.279853,0.282024,0.284171,,,,,,
300280,2.4e-05,0.027716,0.037011,0.001064,0.0,0.0,0.0,-0.0,-0.0,2.0,0.282024,0.280399,0.282024,0.283636,,,,,,
300300,0.000266,0.027468,0.03713,-2.9e-05,0.0,-0.001065,0.0,-0.0,-0.0,2.0,0.282024,0.280524,0.282024,0.283513,,,,,,
300320,0.000381,0.027221,0.037006,-0.001093,0.0,-0.001065,0.0,-0.0,-0.0,2.0,0.282024,0.275068,0.282024,0.288742,,,,,,
300340,0.000257,0.027101,0.037008,-0.001064,-0.001064,-0.0,0.0,-0.0,-0.0,2.0,0.282024,0.275088,0.282024,0.288723,,,,,,
300360,-0.000109,0.027108,0.037013,-0.002128,-0.001064,0.0,0.0,-0.0,-0.0,2.0,0.282024,0.274508,0.282024,0.289262,,,,,,
300380,-0.000471,0.027359,0.037018,-0.001064,-0.001064,1e-06,0.0,-0.0,-0.0,2.0,0.282024,0.274076,0.282024,0.289662,,,,,,
300400,-0.00083,0.027732,0.037023,-0.001094,-0.001065,-0.001064,0.0,-0.0,-0.0,2.0,0.282024,0.273795,0.282024,0.289922,,,,,,
300420,-0.000706,0.027852,0.037021,0.0,0.0,0.0,0.0,-0.0,-0.0,2.0,0.282024,0.279551,0.282024,0.284467,,,,,,
300440,-0.00034,0.027845,0.037016,0.001064,0.0,0.0,0.0,-0.0,-0.0,2.0,0.282024,0.279799,0.282024,0.284224,,,,,,
300460,-9.9e-05,0.027718,0.036891,-3e-05,-0.0,-0.001065,0.087266,-0.0,-0.0,2.0,0.282024,0.15,0.282024,0.365852,,,,,,
300480,0.000506,0.027341,0.037004,-2.9e-05,1e-06,-0.001065,0.087266,-0.0,-0.0,2.0,0.282024,0.15,0.282024,0.363064,,,,,,
300500,0.001366,0.027203,0.037603,0.003135,3e-06,-0.002129,0.087266,-0.0,-0.0,2.0,0.282024,0.15,0.282024,0.355974,,,,,,
300520,0.003329,0.027164,0.038308,0.006299,-0.001054,-0.003197,0.087266,-0.0,-0.0,2.0,0.282024,0.177059,0.282024,0.347852,,,,,,
300540,0.007368,0.027206,0.038984,0.010584,-0.001049,-0.002137,0.087266,-0.0,-0.0,2.0,0.282024,0.219811,0.282024,0.328793,,,,,,
300560,0.013484,0.027327,0.039514,0.015934,-0.00105,-0.001079,0.087266,-0.0,-0.0,2.0,0.282024,0.254932,0.282024,0.305803,,,,,,
300580,0.02143,0.027529,0.039883,0.02019,-0.002105,-0.00111,0.087266,-0.0,-0.0,2.0,0.282024,0.291123,0.282024,0.272482,,,,,,
300600,0.031335,0.028055,0.040097,0.023352,-0.000997,-0.002162,0.087266,-0.0,-0.0,2.0,0.282024,0.314739,0.282024,0.242622,,,,,,
300620,0.042948,0.028419,0.040281,0.026544,-0.000972,-0.002173,0.087266,-0.0,-0.0,2.0,0.282024,0.337835,0.282024,0.201907,,,,,,
300640,0.05554,0.028504,0.040816,0.028643,0.000177,-0.003189,0.087266,-0.0,-0.0,2.0,0.282024,0.359982,0.282024,0.15,,,,,,
300660,0.069239,0.028415,0.041819,0.029678,0.000295,-0.004248,0.087266,-0.0,-0.0,2.0,0.282024,0.370181,0.282024,0.15,,,,,,
300680,0.083305,0.028161,0.043175,0.029649,0.000443,-0.005305,0.087266,-0.0,-0.0,2.0,0.282024,0.384347,0.282024,0.15,,,,,,
300700,0.096893,0.027635,0.044922,0.027523,0.000515,-0.005298,0.087266,-0.0,-0.0,2.0,0.282024,0.390675,0.282024,0.15,,,,,,
300720,0.110241,0.027202,0.04678,0.027526,0.000585,-0.005291,0.087266,-0.0,-0.0,2.0,0.282024,0.393529,0.282024,0.15,,,,,,
300740,0.122498,0.027011,0.048637,0.024331,-0.000406,-0.005413,0.087266,-0.0,-0.0,2.0,0.282024,0.399202,0.282024,0.15,,,,,,
300760,0.133656,0.02697,0.050133,0.021167,-0.000487,-0.004362,0.087266,-0.0,-0.0,2.0,0.282024,0.397459,0.282024,0.15,,,,,,
300780,0.143231,0.027094,0.051401,0.016934,-0.001651,-0.003465,0.087266,-0.0,-0.0,2.0,0.282024,0.39114,0.282024,0.15,,,,,,
300800,0.150611,0.027527,0.05244,0.011611,-0.001625,-0.003477,0.087266,-0.0,-0.0,2.0,0.282024,0.379537,0.282024,0.15,,,,,,
300820,0.155656,0.027765,0.053648,0.006318,-0.001773,-0.002434,0.087266,-0.0,-0.0,2.0,0.282024,0.365737,0.282024,0.15,,,,,,
300840,0.158262,0.028192,0.054894,0.000966,-0.001599,-0.00349,0.087266,-0.0,-0.0,2.0,0.282024,0.353319,0.282024,0.159492,,,,,,
300860,0.158417,0.028316,0.05634,-0.003316,-0.000379,-0.004373,0.087266,-0.0,-0.0,2.0,0.282024,0.333997,0.282024,0.209904,,,,,,
300880,0.156474,0.02815,0.057726,-0.007543,-0.000554,-0.003321,0.087266,-0.0,-0.0,2.0,0.282024,0.310845,0.282024,0.248162,,,,,,
300900,0.152687,0.02767,0.059296,-0.01073,0.000486,-0.003157,0.087266,-0.0,-0.0,2.0,0.282024,0.298657,0.282024,0.263843,,,,,,
300920,0.147559,0.027484,0.060869,-0.013922,0.000469,-0.003159,0.087266,-0.0,-0.0,2.0,0.282024,0.278614,0.282024,0.285376,,,,,,
300940,0.141452,0.027085,0.062603,-0.015013,0.0006,-0.004216,0.087266,-0.0,-0.0,2.0,0.282024,0.26105,0.282024,0.300962,,,,,,
300960,0.13461,0.026834,0.064451,-0.016077,0.000571,-0.00422,0.087266,-0.0,-0.0,2.0,0.282024,0.246909,0.282024,0.311743,,,,,,
300980,0.127539,0.026709,0.066547,-0.016108,-0.000379,-0.005415,0.087266,-0.0,-0.0,2.0,0.282024,0.238224,0.282024,0.31769,,,,,,
301000,0.120597,0.0267,0.068871,-0.015044,-0.000416,-0.005412,0.087266,-0.0,-0.0,2.0,0.282024,0.229011,0.282024,0.323489,,,,,,
301020,0.114023,0.026572,0.071204,-0.013979,-0.000452,-0.00541,0.087266,-0.0,-0.0,2.0,0.282024,0.227148,0.282024,0.324601,,,,,,
301040,0.108049,0.026438,0.073383,-0.011849,-0.000484,-0.005407,0.087266,-0.0,-0.0,2.0,0.282024,0.233851,0.282024,0.320505,,,,,,
301060,0.103194,0.026519,0.075548,-0.009721,-0.00051,-0.005404,0.087266,-0.0,-0.0,2.0,0.282024,0.241511,0.282024,0.315496,,,,,,
301080,0.099543,0.026334,0.077332,-0.0065,-0.000636,-0.004343,0.087266,-0.0,-0.0,2.0,0.282024,0.262906,0.282024,0.299438,,,,,,
301100,0.097359,0.026242,0.078603,-0.002215,-0.000749,-0.003282,0.087266,-0.0,-0.0,2.0,0.282024,0.272515,0.282024,0.291093,,,,,,
301120,0.096762,0.026213,0.07971,-8.6e-05,-0.000751,-0.003282,0.087266,-0.0,-0.0,2.0,0.282024,0.293996,0.282024,0.269273,,,,,,
301140,0.09762,0.026014,0.080547,0.003138,0.000207,-0.002119,0.087266,-0.0,-0.0,2.0,0.282024,0.305034,0.282024,0.255928,,,,,,
301160,0.099585,0.02603,0.080997,0.004199,-0.000847,-0.002224,0.087266,-0.0,-0.0,2.0,0.282024,0.316853,0.282024,0.23949,,,,,,
301180,0.102038,0.026024,0.081435,0.005294,0.000108,-0.001059,0.087266,-0.0,-0.0,2.0,0.282024,0.324124,0.282024,0.227951,,,,,,
301200,0.104617,0.026019,0.081763,0.005291,-0.000947,-0.00117,0.087266,-0.0,-0.0,2.0,0.282024,0.326704,0.282024,0.223532,,,,,,
301220,0.107195,0.026134,0.082068,0.004226,-0.000944,-0.001172,0.087266,-0.0,-0.0,2.0,0.282024,0.32506,0.282024,0.22637,,,,,,
301240,0.109149,0.025908,0.082407,0.003165,0.000116,-0.001058,0.087266,-0.0,-0.0,2.0,0.282024,0.322775,0.282024,0.23019,,,,,,
301260,0.1105,0.025831,0.082754,0.001034,-0.00094,-0.001175,0.087266,-0.0,-0.0,2.0,0.282024,0.315283,0.282024,0.241825,,,,,,
301280,0.110997,0.025904,0.083221,-0.001095,-0.00094,-0.001176,0.087266,-0.0,-0.0,2.0,0.282024,0.306694,0.282024,0.253767,,,,,,
301300,0.110631,0.025778,0.083601,-0.002159,-0.00094,-0.001176,0.087266,-0.0,-0.0,2.0,0.282024,0.301788,0.282024,0.260031,,,,,,
301320,0.109662,0.025794,0.084111,-0.003223,-0.000941,-0.001175,0.087266,-0.0,-0.0,2.0,0.282024,0.296358,0.282024,0.266557,,,,,,
301340,0.108196,0.025844,0.084374,-0.003223,-0.000943,-0.001173,0.087266,-0.0,-0.0,2.0,0.282024,0.295295,0.282024,0.267788,,,,,,
301360,0.106744,0.026011,0.084767,-0.00426,-0.001058,-0.000113,0.087266,-0.0,-0.0,2.0,0.282024,0.288984,0.282024,0.274808,,,,,,
301380,0.1054,0.026057,0.085027,-0.00322,0.000112,-0.001059,0.087266,-0.0,-0.0,2.0,0.282024,0.293198,0.282024,0.270174,,,,,,
301400,0.104067,0.026232,0.085174,-0.003223,-0.000948,-0.001169,0.087266,-0.0,-0.0,2.0,0.282024,0.292165,0.282024,0.27133,,,,,,
301420,0.103203,0.026147,0.085186,-0.002131,-0.001059,-0.00011,0.087266,-0.0,-0.0,2.0,0.282024,0.296781,0.282024,0.266062,,,,,,
301440,0.10259,0.026047,0.085328,-0.001092,0.000109,-0.001059,0.087266,-0.0,-0.0,2.0,0.282024,0.30164,0.282024,0.260215,,,,,,
301460,0.102589,0.026053,0.085206,-0.001064,0.0,0.0,0.087266,-0.0,-0.0,2.0,0.282024,0.301979,0.282024,0.259794,,,,,,
301480,0.102705,0.025926,0.08521,0.001064,0.0,0.0,0.087266,-0.0,-0.0,2.0,0.282024,0.307332,0.282024,0.252924,,,,,,
301500,0.102948,0.025921,0.085083,0.0,0.0,0.0,0.087266,-0.0,-0.0,2.0,0.282024,0.307897,0.282024,0.252172,,,,,,
301520,0.103312,0.025911,0.084952,-3e-06,-0.001059,-0.00011,0.087266,-0.0,-0.0,2.0,0.282024,0.308462,0.282024,0.251416,,,,,,
301540,0.103432,0.025912,0.084828,-0.001067,-0.001059,-0.00011,0.087266,-0.0,-0.0,2.0,0.282024,0.304158,0.282024,0.257051,,,,,,
301560,0.103437,0.026034,0.084822,-0.001064,0.0,0.0,0.087266,-0.0,-0.0,2.0,0.282024,0.309366,0.282024,0.250193,,,,,,
301580,0.102944,0.02594,0.084718,-0.001067,-0.001059,-0.000109,0.087266,-0.0,-0.0,2.0,0.282024,0.299367,0.282024,0.262991,,,,,,
301600,0.102578,0.025956,0.084727,-0.002159,-0.00095,-0.001168,0.087266,-0.0,-0.0,2.0,0.282024,0.304315,0.282024,0.256851,,,,,,
301620,0.10208,0.025855,0.084729,-0.001092,0.000108,-0.001059,0.087266,-0.0,-0.0,2.0,0.282024,0.304003,0.282024,0.257249,,,,,,
301640,0.10147,0.025889,0.084622,-0.001067,-0.001059,-0.000108,0.087266,-0.0,-0.0,2.0,0.282024,0.29882,0.282024,0.263648,,,,,,
301660,0.101099,0.025783,0.084637,-0.001067,-0.001059,-0.000107,0.087266,-0.0,-0.0,2.0,0.282024,0.303729,0.282024,0.257596,,,,,,
301680,0.100737,0.025927,0.084518,-0.001067,-0.001059,-0.000107,0.087266,-0.0,-0.0,2.0,0.282024,0.303665,0.282024,0.257678,,,,,,
301700,0.100498,0.026066,0.084396,-0.001067,-0.001059,-0.000107,0.087266,-0.0,-0.0,2.0,0.282024,0.303691,0.282024,0.257645,,,,,,
301720,0.100126,0.025967,0.084289,-0.001092,0.000106,-0.001059,0.087266,-0.0,-0.0,2.0,0.282024,0.303591,0.282024,0.257772,,,,,,
301740,0.100122,0.026099,0.084025,-0.001067,-0.001059,-0.000106,0.087266,-0.0,-0.0,2.0,0.282024,0.303874,0.282024,0.257413,,,,,,
301760,0.099999,0.026111,0.083907,0.0,0.0,0.0,0.087266,-0.0,-0.0,2.0,0.282024,0.308878,0.282024,0.250854,,,,,,
301780,0.099876,0.026123,0.083788,-0.001064,0.0,0.0,0.087266,-0.0,-0.0,2.0,0.282024,0.304164,0.282024,0.257043,,,,,,
301800,0.09999,0.026008,0.083548,-0.001067,-0.001059,-0.000106,0.087266,-0.0,-0.0,2.0,0.282024,0.309282,0.282024,0.250308,,,,,,
301820,0.099745,0.026025,0.083433,-0.001064,0.0,0.0,0.087266,-0.0,-0.0,2.0,0.282024,0.304552,0.282024,0.256547,,,,,,
301840,0.099742,0.026037,0.08319,-0.001067,-0.001059,-0.000106,0.087266,-0.0,-0.0,2.0,0.282024,0.304813,0.282024,0.256213,,,,,,
301860,0.099619,0.026048,0.083071,-0.001064,0.0,0.0,0.087266,-0.0,-0.0,2.0,0.282024,0.304949,0.282024,0.256038,,,,,,
301880,0.099257,0.026192,0.082952,-0.001064,0.0,0.0,0.087266,-0.0,-0.0,2.0,0.282024,0.304842,0.282024,0.256176,,,,,,
301900,0.099134,0.026204,0.082834,-0.001067,-0.001059,-0.000105,0.087266,-0.0,-0.0,2.0,0.282024,0.304854,0.282024,0.25616,,,,,,
301920,0.098882,0.026225,0.082581,-0.001064,0.0,0.0,0.087266,-0.0,-0.0,2.0,0.282024,0.304962,0.282024,0.256021,,,,,,
301940,0.098637,0.026242,0.082465,-0.001064,0.0,0.0,0.087266,-0.0,-0.0,2.0,0.282024,0.304969,0.282024,0.256013,,,,,,
301960,0.098147,0.026275,0.082234,-0.001039,-0.001163,0.000955,0.087266,-0.0,-0.0,2.0,0.282024,0.304709,0.282024,0.256347,,,,,,
301980,0.0979,0.026298,0.081996,-0.001064,0.0,0.0,0.087266,-0.0,-0.0,2.0,0.282024,0.304676,0.282024,0.256389,,,,,,
302000,0.097532,0.026325,0.081762,-0.001064,0.0,0.0,0.087266,-0.0,-0.0,2.0,0.282024,0.304537,0.282024,0.256567,,,,,,
302020,0.097158,0.026352,0.081513,-0.001067,-0.001059,-0.000103,0.087266,-0.0,-0.0,2.0,0.282024,0.299384,0.282024,0.262971,,,,,,
302040,0.096666,0.026391,0.081159,-0.001064,0.0,0.0,0.087266,-0.0,-0.0,2.0,0.282024,0.30408,0.282024,0.257151,,,,,,
302060,0.096302,0.026546,0.080797,-0.001067,-0.001059,-0.000102,0.087266,-0.0,-0.0,2.0,0.282024,0.298921,0.282024,0.263527,,,,,,
302080,0.09605,0.026446,0.080566,-0.001039,-0.001161,0.000958,0.087266,-0.0,-0.0,2.0,0.282024,0.303829,0.282024,0.25747,,,,,,
302100,0.095558,0.026605,0.080192,-0.001064,0.0,0.0,0.087266,-0.0,-0.0,2.0,0.282024,0.303523,0.282024,0.257858,,,,,,
302120,0.095315,0.026755,0.079827,-0.001067,-0.001059,-0.000101,0.087266,-0.0,-0.0,2.0,0.282024,0.303438,0.282024,0.257965,,,,,,
302140,0.095068,0.026777,0.07959,-0.001064,0.0,0.0,0.087266,-0.0,-0.0,2.0,0.282024,0.303488,0.282024,0.257903,,,,,,
302160,0.094821,0.026804,0.079231,-0.001064,0.0,0.0,0.087266,-0.0,-0.0,2.0,0.282024,0.303269,0.282024,0.258179,,,,,,
302180,0.094568,0.02671,0.078877,-0.001067,-0.001059,-0.000101,0.087266,-0.0,-0.0,2.0,0.282024,0.303183,0.282024,0.258287,,,,,,
302200,0.094314,0.026736,0.078504,-0.001064,0.0,0.0,0.087266,-0.0,-0.0,2.0,0.282024,0.303066,0.282024,0.258435,,,,,,
302220,0.094183,0.026637,0.078148,-0.001067,-0.00106,-0.0001,0.087266,-0.0,-0.0,2.0,0.282024,0.303094,0.282024,0.2584,,,,,,
302240,0.09394,0.026786,0.077783,-0.001064,0.0,0.0,0.087266,-0.0,-0.0,2.0,0.282024,0.302992,0.282024,0.258528,,,,,,
302260,0.093809,0.026687,0.077427,-0.001064,0.0,0.0,0.087266,-0.0,-0.0,2.0,0.282024,0.303119,0.282024,0.258368,,,,,,
302280,0.093685,0.026703,0.077186,-3e-06,-0.00106,-0.0001,0.087266,-0.0,-0.0,2.0,0.282024,0.30301,0.282024,0.258506,,,,,,
302300,0.093558,0.026846,0.076805,-0.001067,-0.00106,-9.9e-05,0.087266,-0.0,-0.0,2.0,0.282024,0.303004,0.282024,0.258513,,,,,,
302320,0.093427,0.026746,0.076449,0.0,0.0,0.0,0.087266,-0.0,-0.0,2.0,0.282024,0.307908,0.282024,0.252158,,,,,,
302340,0.093423,0.026764,0.076084,-0.001039,-0.001159,0.000961,0.087266,-0.0,-0.0,2.0,0.282024,0.303141,0.282024,0.25834,,,,,,
302360,0.093298,0.02678,0.075844,-0.001067,-0.00106,-9.9e-05,0.087266,-0.0,-0.0,2.0,0.282024,0.308152,0.282024,0.251832,,,,,,
302380,0.093173,0.026796,0.075603,0.0,0.0,0.0,0.087266,-0.0,-0.0,2.0,0.282024,0.303144,0.282024,0.258336,,,,,,
302400,0.09317,0.026808,0.07536,-0.001067,-0.00106,-9.9e-05,0.087266,-0.0,-0.0,2.0,0.282024,0.303267,0.282024,0.258182,,,,,,
302420,0.092802,0.026834,0.075125,-0.001093,9.9e-05,-0.00106,0.087266,-0.0,-0.0,2.0,0.282024,0.307895,0.282024,0.252175,,,,,,
302440,0.092799,0.026845,0.074882,-0.001067,-0.00106,-9.9e-05,0.087266,-0.0,-0.0,2.0,0.282024,0.30313,0.282024,0.258354,,,,,,
302460,0.092796,0.026857,0.074639,-0.001067,-0.00106,-9.9e-05,0.087266,-0.0,-0.0,2.0,0.282024,0.30812,0.282024,0.251874,,,,,,
302480,0.092428,0.026997,0.074506,-0.001067,-0.00106,-9.8e-05,0.087266,-0.0,-0.0,2.0,0.282024,0.302971,0.282024,0.258554,,,,,,
302500,0.092548,0.026998,0.074382,-0.001067,-0.00106,-9.8e-05,0.087266,-0.0,-0.0,2.0,0.282024,0.303217,0.282024,0.258244,,,,,,
302520,0.092308,0.027135,0.07426,-2.9e-05,9.8e-05,-0.00106,0.087266,-0.0,-0.0,2.0,0.282024,0.303069,0.282024,0.258431,,,,,,
302540,0.092179,0.02703,0.074025,-0.001067,-0.00106,-9.8e-05,0.087266,-0.0,-0.0,2.0,0.282024,0.303044,0.282024,0.258462,,,,,,
302560,0.092179,0.02703,0.074025,0.0,0.0,0.0,0.087266,-0.0,-0.0,2.0,0.282024,0.30316,0.282024,0.258316,,,,,,
302580,0.091933,0.027045,0.073909,-0.001064,0.0,0.0,0.087266,-0.0,-0.0,2.0,0.282024,0.303002,0.282024,0.258515,,,,,,
302600,0.091927,0.026929,0.073793,-0.001067,-0.00106,-9.8e-05,0.087266,-0.0,-0.0,2.0,0.282024,0.30787,0.282024,0.252209,,,,,,
302620,0.091809,0.027061,0.073668,-0.001067,-0.00106,-9.8e-05,0.087266,-0.0,-0.0,2.0,0.282024,0.303073,0.282024,0.258425,,,,,,
302640,0.091812,0.027188,0.073541,-0.001064,0.0,0.0,0.087266,-0.0,-0.0,2.0,0.282024,0.308064,0.282024,0.25195,,,,,,
302660,0.091688,0.027199,0.073422,-3e-06,-0.00106,-9.7e-05,0.087266,-0.0,-0.0,2.0,0.282024,0.303143,0.282024,0.258337,,,,,,
302680,0.091688,0.027199,0.073422,-0.001067,-0.00106,-9.7e-05,0.087266,-0.0,-0.0,2.0,0.282024,0.303239,0.282024,0.258217,,,,,,
302700,0.091688,0.027199,0.073422,-2.9e-05,9.7e-05,-0.00106,0.087266,-0.0,-0.0,2.0,0.282024,0.308099,0.282024,0.251903,,,,,,
302720,0.091448,0.027336,0.0733,-0.001067,-0.00106,-9.7e-05,0.087266,-0.0,-0.0,2.0,0.282024,0.303045,0.282024,0.258461,,,,,,
302740,0.091561,0.027087,0.073309,-0.001067,-0.00106,-9.7e-05,0.087266,-0.0,-0.0,2.0,0.282024,0.308283,0.282024,0.251657,,,,,,
302760,0.091443,0.027214,0.073306,0.0,0.0,0.0,0.087266,-0.0,-0.0,2.0,0.282024,0.303234,0.282024,0.258223,,,,,,
302780,0.091443,0.027214,0.073306,-0.001067,-0.00106,-9.7e-05,0.087266,-0.0,-0.0,2.0,0.282024,0.303445,0.282024,0.257956,,,,,,
302800,0.091443,0.027214,0.073306,-2.9e-05,9.7e-05,-0.00106,0.087266,-0.0,-0.0,2.0,0.282024,0.308416,0.282024,0.251477,,,,,,
302820,0.091565,0.027209,0.073303,-0.001096,-0.000962,-0.001158,0.087266,-0.0,-0.0,2.0,0.282024,0.303626,0.282024,0.257727,,,,,,
302840,0.091443,0.027214,0.073306,-2.9e-05,9.7e-05,-0.00106,0.087266,-0.0,-0.0,2.0,0.282024,0.308591,0.282024,0.251242,,,,,,
302860,0.091321,0.027219,0.073309,-0.001093,9.7e-05,-0.00106,0.087266,-0.0,-0.0,2.0,0.282024,0.303545,0.282024,0.257831,,,,,,
302880,0.091442,0.027219,0.073184,-3e-06,-0.00106,-9.7e-05,0.087266,-0.0,-0.0,2.0,0.282024,0.308642,0.282024,0.251174,,,,,,
302900,0.091319,0.027345,0.073168,-0.001067,-0.00106,-9.7e-05,0.087266,-0.0,-0.0,2.0,0.282024,0.303847,0.282024,0.257447,,,,,,
302920,0.09131,0.027101,0.073179,-0.001067,-0.00106,-9.7e-05,0.087266,-0.0,-0.0,2.0,0.282024,0.303803,0.282024,0.257503,,,,,,
302940,0.091308,0.027107,0.073058,0.0,0.0,0.0,0.087266,-0.0,-0.0,2.0,0.282024,0.304019,0.282024,0.257228,,,,,,
302960,0.091308,0.027107,0.073058,-0.001093,9.7e-05,-0.00106,0.087266,-0.0,-0.0,2.0,0.282024,0.308964,0.282024,0.250738,,,,,,
302980,0.091304,0.026985,0.073063,-2.9e-05,9.7e-05,-0.00106,0.087266,-0.0,-0.0,2.0,0.282024,0.309056,0.282024,0.250614,,,,,,
303000,0.091435,0.027224,0.073049,-0.001067,-0.00106,-9.7e-05,0.087266,-0.0,-0.0,2.0,0.282024,0.304274,0.282024,0.256903,,,,,,
303020,0.091433,0.027229,0.072928,-2.9e-05,9.7e-05,-0.00106,0.087266,-0.0,-0.0,2.0,0.282024,0.309212,0.282024,0.250403,,,,,,
303040,0.091311,0.027234,0.07293,-0.001067,-0.00106,-9.7e-05,0.087266,-0.0,-0.0,2.0,0.282024,0.304323,0.282024,0.25684,,,,,,
303060,0.091432,0.027235,0.072806,-0.001067,-0.00106,-9.7e-05,0.087266,-0.0,-0.0,2.0,0.282024,0.309522,0.282024,0.249981,,,,,,
303080,0.091188,0.027244,0.072812,0.0,0.0,0.0,0.087266,-0.0,-0.0,2.0,0.282024,0.304502,0.282024,0.256612,,,,,,
303100,0.091184,0.027122,0.072817,-0.001067,-0.00106,-9.7e-05,0.087266,-0.0,-0.0,2.0,0.282024,0.304569,0.282024,0.256526,,,,,,
303120,0.091179,0.027001,0.072823,-2.9e-05,9.7e-05,-0.00106,0.087266,-0.0,-0.0,2.0,0.282024,0.309505,0.282024,0.250004,,,,,,
303140,0.091182,0.027128,0.072695,-0.001096,-0.000963,-0.001157,0.087266,-0.0,-0.0,2.0,0.282024,0.304733,0.282024,0.256315,,,,,,
303160,0.091185,0.027256,0.072568,-3e-06,-0.00106,-9.7e-05,0.087266,-0.0,-0.0,2.0,0.282024,0.309684,0.282024,0.24976,,,,,,
303180,0.090946,0.027387,0.072568,-0.001064,0.0,0.0,0.087266,-0.0,-0.0,2.0,0.282024,0.304525,0.282024,0.256583,,,,,,
303200,0.091184,0.027261,0.072447,-0.001067,-0.00106,-9.7e-05,0.087266,-0.0,-0.0,2.0,0.282024,0.309711,0.282024,0.249723,,,,,,
303220,0.09106,0.027271,0.072328,-3e-06,-0.00106,-9.7e-05,0.087266,-0.0,-0.0,2.0,0.282024,0.304935,0.282024,0.256056,,,,,,
303240,0.09106,0.027271,0.072328,-0.001096,-0.000963,-0.001157,0.087266,-0.0,-0.0,2.0,0.282024,0.309877,0.282024,0.249495,,,,,,
303260,0.090941,0.027404,0.072203,-3e-06,-0.00106,-9.7e-05,0.087266,-0.0,-0.0,2.0,0.282024,0.304987,0.282024,0.255989,,,,,,
303280,0.091057,0.027283,0.072085,-0.001064,0.0,0.0,0.087266,-0.0,-0.0,2.0,0.282024,0.305171,0.282024,0.255751,,,,,,
303300,0.090931,0.027165,0.072093,-2.9e-05,9.7e-05,-0.00106,0.087266,-0.0,-0.0,2.0,0.282024,0.309983,0.282024,0.249351,,,,,,
303320,0.09094,0.027409,0.072082,-0.001067,-0.00106,-9.7e-05,0.087266,-0.0,-0.0,2.0,0.282024,0.305076,0.282024,0.255874,,,,,,
303340,0.09094,0.027409,0.072082,-2.9e-05,9.7e-05,-0.00106,0.087266,-0.0,-0.0,2.0,0.282024,0.310013,0.282024,0.24931,,,,,,
303360,0.090816,0.027419,0.071963,-3e-06,-0.00106,-9.7e-05,0.087266,-0.0,-0.0,2.0,0.282024,0.305118,0.282024,0.255819,,,,,,
303380,0.09106,0.02741,0.071957,-0.001067,-0.00106,-9.7e-05,0.087266,-0.0,-0.0,2.0,0.282024,0.31027,0.282024,0.248956,,,,,,
303400,0.090934,0.027293,0.071966,-0.001064,0.0,0.0,0.087266,-0.0,-0.0,2.0,0.282024,0.310365,0.282024,0.248826,,,,,,
303420,0.09106,0.02741,0.071957,-0.001067,-0.00106,-9.7e-05,0.087266,-0.0,-0.0,2.0,0.282024,0.305596,0.282024,0.255201,,,,,,
303440,0.090695,0.027424,0.071965,-2.9e-05,9.6e-05,-0.00106,0.087266,-0.0,-0.0,2.0,0.282024,0.305426,0.282024,0.255422,,,,,,
303460,0.090812,0.027298,0.071968,-0.001093,9.7e-05,-0.00106,0.087266,-0.0,-0.0,2.0,0.282024,0.305619,0.282024,0.255172,,,,,,
303480,0.090928,0.027177,0.071849,0.0,0.0,0.0,0.087266,-0.0,-0.0,2.0,0.282024,0.310654,0.282024,0.248427,,,,,,
303500,0.090567,0.027312,0.071852,-0.001093,9.6e-05,-0.00106,0.087266,-0.0,-0.0,2.0,0.282024,0.305522,0.282024,0.255298,,,,,,
303520,0.090567,0.027312,0.071852,-2.9e-05,9.6e-05,-0.00106,0.087266,-0.0,-0.0,2.0,0.282024,0.310311,0.282024,0.2489,,,,,,
303540,0.090574,0.027562,0.071719,-3e-06,-0.00106,-9.6e-05,0.087266,-0.0,-0.0,2.0,0.282024,0.305538,0.282024,0.255277,,,,,,
303560,0.090692,0.027435,0.071722,-0.001093,9.6e-05,-0.00106,0.087266,-0.0,-0.0,2.0,0.282024,0.31056,0.282024,0.248556,,,,,,
303580,0.090568,0.027445,0.071603,-0.001067,-0.00106,-9.6e-05,0.087266,-0.0,-0.0,2.0,0.282024,0.305682,0.282024,0.255089,,,,,,
303600,0.090567,0.027451,0.071482,-0.001067,-0.00106,-9.6e-05,0.087266,-0.0,-0.0,2.0,0.282024,0.310716,0.282024,0.248341,,,,,,
303620,0.090323,0.02746,0.071487,0.0,0.0,0.0,0.087266,-0.0,-0.0,2.0,0.282024,0.305694,0.282024,0.255075,,,,,,
303640,0.090441,0.027334,0.07149,-0.001067,-0.00106,-9.6e-05,0.087266,-0.0,-0.0,2.0,0.282024,0.305889,0.282024,0.254821,,,,,,
303660,0.090197,0.027343,0.071495,-2.9e-05,9.6e-05,-0.00106,0.087266,-0.0,-0.0,2.0,0.282024,0.310531,0.282024,0.248596,,,,,,
303680,0.090075,0.027348,0.071498,-0.00216,-0.000964,-0.001156,0.087266,-0.0,-0.0,2.0,0.282024,0.305635,0.282024,0.255151,,,,,,
303700,0.090078,0.027475,0.071371,-3.2e-05,-0.000964,-0.001156,0.087266,-0.0,-0.0,2.0,0.282024,0.310412,0.282024,0.248761,,,,,,
303720,0.089837,0.027726,0.071352,-0.001094,9.5e-05,-0.00106,0.087266,-0.0,-0.0,2.0,0.282024,0.305511,0.282024,0.255311,,,,,,
303740,0.089836,0.027732,0.071231,-0.001067,-0.00106,-9.6e-05,0.087266,-0.0,-0.0,2.0,0.282024,0.305441,0.282024,0.255403,,,,,,
303760,0.089592,0.027741,0.071236,-0.001067,-0.00106,-9.5e-05,0.087266,-0.0,-0.0,2.0,0.282024,0.305247,0.282024,0.255653,,,,,,
303780,0.089708,0.02762,0.071117,-0.001064,0.0,0.0,0.087266,-0.0,-0.0,2.0,0.282024,0.310254,0.282024,0.248978,,,,,,
303800,0.089341,0.027639,0.071003,-3e-06,-0.00106,-9.5e-05,0.087266,-0.0,-0.0,2.0,0.282024,0.305227,0.282024,0.25568,,,,,,
303820,0.089339,0.027645,0.070882,-0.001067,-0.00106,-9.5e-05,0.087266,-0.0,-0.0,2.0,0.282024,0.305258,0.282024,0.255639,,,,,,
303840,0.089218,0.027649,0.070884,-2.9e-05,9.5e-05,-0.00106,0.087266,-0.0,-0.0,2.0,0.282024,0.310024,0.282024,0.249294,,,,,,
303860,0.089215,0.027661,0.070641,-0.001067,-0.00106,-9.5e-05,0.087266,-0.0,-0.0,2.0,0.282024,0.305216,0.282024,0.255693,,,,,,
303880,0.089093,0.027665,0.070644,-0.001094,9.5e-05,-0.00106,0.087266,-0.0,-0.0,2.0,0.282024,0.309993,0.282024,0.249337,,,,,,
303900,0.088852,0.027801,0.070522,-0.001094,9.4e-05,-0.00106,0.087266,-0.0,-0.0,2.0,0.282024,0.304805,0.282024,0.256223,,,,,,
303920,0.088972,0.027802,0.070398,-0.001067,-0.00106,-9.5e-05,0.087266,-0.0,-0.0,2.0,0.282024,0.309944,0.282024,0.249404,,,,,,
303940,0.088723,0.027695,0.070287,-0.001064,0.0,0.0,0.087266,-0.0,-0.0,2.0,0.282024,0.304877,0.282024,0.25613,,,,,,
303960,0.088839,0.027574,0.070168,-0.001067,-0.00106,-9.4e-05,0.087266,-0.0,-0.0,2.0,0.282024,0.309742,0.282024,0.24968,,,,,,
303980,0.088598,0.027711,0.070046,-3e-06,-0.00106,-9.4e-05,0.087266,-0.0,-0.0,2.0,0.282024,0.3048,0.282024,0.25623,,,,,,
304000,0.088476,0.027715,0.070049,-0.001096,-0.000966,-0.001155,0.087266,-0.0,-0.0,2.0,0.282024,0.304706,0.282024,0.25635,,,,,,
304020,0.088596,0.027716,0.069924,0.0,0.0,0.0,0.087266,-0.0,-0.0,2.0,0.282024,0.309706,0.282024,0.249729,,,,,,
304040,0.088477,0.027848,0.0698,-0.001094,9.4e-05,-0.00106,0.087266,-0.0,-0.0,2.0,0.282024,0.304761,0.282024,0.256279,,,,,,
304060,0.08835,0.027851,0.06979,-3e-05,9.4e-05,-0.00106,0.087266,-0.0,-0.0,2.0,0.282024,0.309392,0.282024,0.250158,,,,,,
304080,0.08823,0.027983,0.069666,-0.001064,0.0,0.0,0.087266,-0.0,-0.0,2.0,0.282024,0.304434,0.282024,0.256699,,,,,,
304100,0.088226,0.027861,0.069671,-0.001094,9.4e-05,-0.00106,0.087266,-0.0,-0.0,2.0,0.282024,0.309311,0.282024,0.250268,,,,,,
304120,0.087973,0.027631,0.069565,-0.001067,-0.00106,-9.4e-05,0.087266,-0.0,-0.0,2.0,0.282024,0.30421,0.282024,0.256985,,,,,,
304140,0.088215,0.027628,0.069438,-0.001067,-0.00106,-9.4e-05,0.087266,-0.0,-0.0,2.0,0.282024,0.309466,0.282024,0.250056,,,,,,
304160,0.08797,0.027642,0.069322,0.0,0.0,0.0,0.087266,-0.0,-0.0,2.0,0.282024,0.304365,0.282024,0.256786,,,,,,
304180,0.08809,0.027643,0.069198,-0.001067,-0.00106,-9.4e-05,0.087266,-0.0,-0.0,2.0,0.282024,0.304504,0.282024,0.256609,,,,,,
304200,0.08809,0.027643,0.069198,-2.9e-05,9.4e-05,-0.001061,0.087266,-0.0,-0.0,2.0,0.282024,0.309382,0.282024,0.250171,,,,,,
304220,0.088093,0.027771,0.069071,-0.001096,-0.000966,-0.001154,0.087266,-0.0,-0.0,2.0,0.282024,0.304542,0.282024,0.25656,,,,,,
304240,0.088099,0.02802,0.068938,-3e-06,-0.00106,-9.4e-05,0.087266,-0.0,-0.0,2.0,0.282024,0.309303,0.282024,0.250279,,,,,,
304260,0.087852,0.027907,0.068949,-0.001094,9.3e-05,-0.001061,0.087266,-0.0,-0.0,2.0,0.282024,0.304207,0.282024,0.256989,,,,,,
304280,0.088086,0.02766,0.068833,-0.001064,0.0,0.0,0.087266,-0.0,-0.0,2.0,0.282024,0.309321,0.282024,0.250254,,,,,,
304300,0.087958,0.027548,0.068719,-0.001067,-0.00106,-9.4e-05,0.087266,-0.0,-0.0,2.0,0.282024,0.30921,0.282024,0.250406,,,,,,
304320,0.087832,0.02743,0.068727,-0.001067,-0.00106,-9.3e-05,0.087266,-0.0,-0.0,2.0,0.282024,0.304368,0.282024,0.256783,,,,,,
304340,0.087709,0.02744,0.068608,-3e-06,-0.00106,-9.3e-05,0.087266,-0.0,-0.0,2.0,0.282024,0.304255,0.282024,0.256928,,,,,,
304360,0.087829,0.027441,0.068483,-0.001064,0.0,0.0,0.087266,-0.0,-0.0,2.0,0.282024,0.304375,0.282024,0.256774,,,,,,
304380,0.087707,0.027445,0.068486,-0.001093,9.3e-05,-0.001061,0.087266,-0.0,-0.0,2.0,0.282024,0.309141,0.282024,0.250499,,,,,,
304400,0.087712,0.0277,0.068232,-0.001067,-0.00106,-9.3e-05,0.087266,-0.0,-0.0,2.0,0.282024,0.304141,0.282024,0.257073,,,,,,
304420,0.087471,0.027836,0.06811,-3e-05,9.3e-05,-0.001061,0.087266,-0.0,-0.0,2.0,0.282024,0.308923,0.282024,0.250794,,,,,,
304440,0.087468,0.027847,0.067867,-0.001064,0.0,0.0,0.087266,-0.0,-0.0,2.0,0.282024,0.303917,0.282024,0.257358,,,,,,
304460,0.087584,0.027726,0.067748,-0.001067,-0.00106,-9.3e-05,0.087266,-0.0,-0.0,2.0,0.282024,0.309044,0.282024,0.25063,,,,,,
304480,0.087206,0.027626,0.067505,0.0,0.0,0.0,0.087266,-0.0,-0.0,2.0,0.282024,0.303795,0.282024,0.257513,,,,,,
304500,0.087327,0.027627,0.067381,-0.001064,0.0,0.0,0.087266,-0.0,-0.0,2.0,0.282024,0.303917,0.282024,0.257358,,,,,,
304520,0.087077,0.02752,0.06727,-2.9e-05,9.3e-05,-0.001061,0.087266,-0.0,-0.0,2.0,0.282024,0.308532,0.282024,0.251321,,,,,,
304540,0.087074,0.02753,0.067027,-0.002128,0.0,0.0,0.087266,-0.0,-0.0,2.0,0.282024,0.303647,0.282024,0.257701,,,,,,
304560,0.086953,0.027667,0.066781,-3e-06,-0.00106,-9.2e-05,0.087266,-0.0,-0.0,2.0,0.282024,0.308412,0.282024,0.251483,,,,,,
304580,0.086585,0.027691,0.066545,-0.001067,-0.00106,-9.2e-05,0.087266,-0.0,-0.0,2.0,0.282024,0.303135,0.282024,0.258348,,,,,,
304600,0.086582,0.027702,0.066301,-0.001067,-0.00106,-9.2e-05,0.087266,-0.0,-0.0,2.0,0.282024,0.307886,0.282024,0.252187,,,,,,
304620,0.086339,0.027843,0.066058,-0.001067,-0.00106,-9.2e-05,0.087266,-0.0,-0.0,2.0,0.282024,0.302865,0.282024,0.258687,,,,,,
304640,0.086214,0.027858,0.065817,-0.001067,-0.00106,-9.2e-05,0.087266,-0.0,-0.0,2.0,0.282024,0.302706,0.282024,0.258887,,,,,,
304660,0.08608,0.027749,0.06557,0.0,0.0,0.0,0.087266,-0.0,-0.0,2.0,0.282024,0.302557,0.282024,0.259073,,,,,,
304680,0.086078,0.027754,0.065448,-0.001064,0.0,0.0,0.087266,-0.0,-0.0,2.0,0.282024,0.30252,0.282024,0.25912,,,,,,
304700,0.085953,0.027769,0.065207,0.0,0.0,0.0,0.087266,-0.0,-0.0,2.0,0.282024,0.307151,0.282024,0.253165,,,,,,
304720,0.085832,0.027906,0.064961,-0.001067,-0.00106,-9.1e-05,0.087266,-0.0,-0.0,2.0,0.282024,0.302087,0.282024,0.25966,,,,,,
304740,0.085829,0.027916,0.064718,0.0,0.0,0.0,0.087266,-0.0,-0.0,2.0,0.282024,0.307091,0.282024,0.253244,,,,,,
304760,0.085706,0.027926,0.064599,-0.001067,-0.00106,-9.1e-05,0.087266,-0.0,-0.0,2.0,0.282024,0.302021,0.282024,0.259742,,,,,,
304780,0.085699,0.027815,0.06436,-0.001067,-0.00106,-9.1e-05,0.087266,-0.0,-0.0,2.0,0.282024,0.30198,0.282024,0.259793,,,,,,
304800,0.085579,0.027946,0.064236,0.0,0.0,0.0,0.087266,-0.0,-0.0,2.0,0.282024,0.301823,0.282024,0.259988,,,,,,
304820,0.085694,0.02783,0.063995,-0.001067,-0.00106,-9.1e-05,0.087266,-0.0,-0.0,2.0,0.282024,0.301906,0.282024,0.259885,,,,,,
304840,0.085569,0.027845,0.063754,0.0,0.0,0.0,0.087266,-0.0,-0.0,2.0,0.282024,0.306677,0.282024,0.25379,,,,,,
304860,0.08569,0.027846,0.06363,-0.001064,0.0,0.0,0.087266,-0.0,-0.0,2.0,0.282024,0.301844,0.282024,0.259962,,,,,,
304880,0.085687,0.027857,0.063387,2.7e-05,-0.001151,0.00097,0.087266,-0.0,-0.0,2.0,0.282024,0.306727,0.282024,0.253724,,,,,,
304900,0.085563,0.027866,0.063267,-0.001067,-0.00106,-9.1e-05,0.087266,-0.0,-0.0,2.0,0.282024,0.301634,0.282024,0.260222,,,,,,
304920,0.085686,0.027995,0.063016,-0.001064,0.0,0.0,0.087266,-0.0,-0.0,2.0,0.282024,0.301725,0.282024,0.26011,,,,,,
304940,0.085434,0.028012,0.062766,0.0,0.0,0.0,0.087266,-0.0,-0.0,2.0,0.282024,0.301442,0.282024,0.260459,,,,,,
304960,0.085432,0.028017,0.062645,-0.001094,9.1e-05,-0.001061,0.087266,-0.0,-0.0,2.0,0.282024,0.306321,0.282024,0.254256,,,,,,
304980,0.085545,0.027774,0.062531,0.0,0.0,0.0,0.087266,-0.0,-0.0,2.0,0.282024,0.306273,0.282024,0.254319,,,,,,
305000,0.085667,0.027903,0.06228,-0.001067,-0.00106,-9.1e-05,0.087266,-0.0,-0.0,2.0,0.282024,0.30156,0.282024,0.260314,,,,,,
305020,0.085658,0.027664,0.062168,-0.001067,-0.00106,-9.1e-05,0.087266,-0.0,-0.0,2.0,0.282024,0.306444,0.282024,0.254096,,,,,,
305040,0.085659,0.027797,0.06192,-3e-06,-0.00106,-9.1e-05,0.087266,-0.0,-0.0,2.0,0.282024,0.301495,0.282024,0.260394,,,,,,
305060,0.085783,0.02792,0.06179,-0.001067,-0.00106,-9.1e-05,0.087266,-0.0,-0.0,2.0,0.282024,0.306637,0.282024,0.253841,,,,,,
305080,0.085538,0.027933,0.061674,-0.001064,0.0,0.0,0.087266,-0.0,-0.0,2.0,0.282024,0.301292,0.282024,0.260644,,,,,,
305100,0.08578,0.027931,0.061547,-0.001064,0.0,0.0,0.087266,-0.0,-0.0,2.0,0.282024,0.301379,0.282024,0.260538,,,,,,
305120,0.085657,0.02794,0.061428,-3e-05,9.1e-05,-0.001061,0.087266,-0.0,-0.0,2.0,0.282024,0.306288,0.282024,0.2543,,,,,,
305140,0.085651,0.027823,0.061311,-0.001064,0.0,0.0,0.087266,-0.0,-0.0,2.0,0.282024,0.301179,0.282024,0.260783,,,,,,
305160,0.08589,0.027699,0.061189,-3e-06,-0.00106,-9.1e-05,0.087266,-0.0,-0.0,2.0,0.282024,0.306455,0.282024,0.254081,,,,,,
305180,0.085645,0.027712,0.061073,-3e-06,-0.00106,-9.1e-05,0.087266,-0.0,-0.0,2.0,0.282024,0.301233,0.282024,0.260717,,,,,,
305200,0.085766,0.027708,0.06107,-0.001067,-0.00106,-9.1e-05,0.087266,-0.0,-0.0,2.0,0.282024,0.301325,0.282024,0.260604,,,,,,
305220,0.085645,0.027712,0.061073,-2.9e-05,9.1e-05,-0.001061,0.087266,-0.0,-0.0,2.0,0.282024,0.306101,0.282024,0.254544,,,,,,
305240,0.08565,0.027961,0.060941,-0.001096,-0.000969,-0.001152,0.087266,-0.0,-0.0,2.0,0.282024,0.301139,0.282024,0.260833,,,,,,
305260,0.085528,0.027965,0.060943,-0.001067,-0.00106,-9.1e-05,0.087266,-0.0,-0.0,2.0,0.282024,0.300851,0.282024,0.261187,,,,,,
305280,0.085525,0.027843,0.060948,-0.001064,0.0,0.0,0.087266,-0.0,-0.0,2.0,0.282024,0.300797,0.282024,0.261253,,,,,,
305300,0.085523,0.027848,0.060827,-0.001067,-0.00106,-9.1e-05,0.087266,-0.0,-0.0,2.0,0.282024,0.305713,0.282024,0.25505,,,,,,
305320,0.085398,0.02773,0.060834,0.0,0.0,0.0,0.087266,-0.0,-0.0,2.0,0.282024,0.300728,0.282024,0.261338,,,,,,
305340,0.085638,0.027601,0.060834,-0.001093,9.1e-05,-0.001061,0.087266,-0.0,-0.0,2.0,0.282024,0.305876,0.282024,0.254837,,,,,,
305360,0.085634,0.027479,0.06084,-3.2e-05,-0.000969,-0.001152,0.087266,-0.0,-0.0,2.0,0.282024,0.305715,0.282024,0.255046,,,,,,
