time_ms,roll,pitch,yaw,reference_roll,reference_pitch,reference_yaw,reference_throttle,throttle_1,throttle_2,throttle_3,throttle_4,roll_predicted,pitch_predicted,yaw_predicted,roll_rate_predicted,pitch_rate_predicted,yaw_rate_predicted,value1,value2,value3,value4,value5,value6
486217,0.003073,-0.007541,-0.320233,0.0,-0.0,-0.0,2.0,0.282024,0.266983,0.282024,0.295991,,,,,,,0.003803,-0.006298,-0.223244,-0.0,0.000398,0.000114
486237,0.002933,-0.00744,-0.320233,0.0,-0.0,-0.0,2.0,0.282024,0.263061,0.282024,0.299309,,,,,,,0.003663,-0.00629,-0.223242,-3.2e-05,0.000408,0.000114
486257,0.002932,-0.007441,-0.320119,0.0,-0.0,-0.0,2.0,0.282024,0.266613,0.282024,0.296309,,,,,,,0.003784,-0.006282,-0.22324,-0.024104,0.000407,0.000125
486277,0.003073,-0.007541,-0.320233,0.0,-0.0,-0.0,2.0,0.282024,0.270738,0.282024,0.292696,,,,,,,0.003923,-0.006274,-0.223238,-0.023989,0.000396,0.000113
486297,0.003193,-0.007522,-0.320232,0.0,-0.0,-0.0,2.0,0.282024,0.269434,0.282024,0.293853,,,,,,,0.003923,-0.006266,-0.223235,9.9e-05,0.000397,0.000113
486317,0.003193,-0.007522,-0.320118,0.0,-0.0,-0.0,2.0,0.282024,0.268295,0.282024,0.294853,,,,,,,0.003923,-0.006258,-0.223233,0.0001,0.000396,0.000124
486337,0.003212,-0.007643,-0.320117,0.0,-0.0,-0.0,2.0,0.282024,0.265311,0.282024,0.297421,,,,,,,0.003924,-0.00625,-0.223231,0.003691,0.000383,0.000124
486357,0.003314,-0.007502,-0.320231,0.0,-0.0,-0.0,2.0,0.282024,0.268385,0.282024,0.294775,,,,,,,0.004064,-0.006242,-0.223228,-0.003877,0.000397,0.000113
486377,0.003314,-0.007502,-0.320231,0.0,-0.0,-0.0,2.0,0.282024,0.269073,0.282024,0.294172,,,,,,,0.004044,-0.006234,-0.223226,9.9e-05,0.000396,0.000112
486397,0.003193,-0.007522,-0.320118,0.0,-0.0,-0.0,2.0,0.282024,0.266271,0.282024,0.296603,,,,,,,0.003923,-0.006226,-0.223224,0.0,0.000393,0.000124
486417,0.003193,-0.007522,-0.320118,0.0,-0.0,-0.0,2.0,0.282024,0.264706,0.282024,0.297932,,,,,,,0.003924,-0.006218,-0.223221,-0.000183,0.000392,0.000123
486437,0.003174,-0.007401,-0.320232,0.0,-0.0,-0.0,2.0,0.282024,0.269641,0.282024,0.293671,,,,,,,0.004044,-0.006211,-0.223219,-0.027781,0.000404,0.000112
486457,0.003314,-0.007502,-0.320231,0.0,-0.0,-0.0,2.0,0.282024,0.267039,0.282024,0.295943,,,,,,,0.003924,-0.006203,-0.223217,0.024004,0.000393,0.000111
486477,0.003333,-0.007623,-0.320117,0.0,-0.0,-0.0,2.0,0.282024,0.268863,0.282024,0.294356,,,,,,,0.004043,-0.006195,-0.223214,0.003974,0.00038,0.000123
486497,0.003313,-0.007503,-0.320003,0.0,-0.0,-0.0,2.0,0.282024,0.267169,0.282024,0.295831,,,,,,,0.004044,-0.006187,-0.223212,-8.4e-05,0.000391,0.000134
486517,0.003313,-0.007503,-0.320117,0.0,-0.0,-0.0,2.0,0.282024,0.266941,0.282024,0.296028,,,,,,,0.004044,-0.006179,-0.22321,-0.0001,0.00039,0.000122
486537,0.003333,-0.007623,-0.320231,0.0,-0.0,-0.0,2.0,0.282024,0.267325,0.282024,0.295696,,,,,,,0.004064,-0.006172,-0.223207,0.0,0.000378,0.000111
486557,0.003212,-0.007643,-0.320117,0.0,-0.0,-0.0,2.0,0.282024,0.265952,0.282024,0.296876,,,,,,,0.003942,-0.006164,-0.223205,0.000102,0.000375,0.000122
486577,0.003072,-0.007542,-0.320118,0.0,-0.0,-0.0,2.0,0.282024,0.263691,0.282024,0.298784,,,,,,,0.003803,-0.006156,-0.223202,-0.000115,0.000384,0.000121
486597,0.003072,-0.007542,-0.320118,0.0,-0.0,-0.0,2.0,0.282024,0.265768,0.282024,0.297032,,,,,,,0.003823,-0.006149,-0.2232,-0.00406,0.000384,0.000121
486617,0.003213,-0.007642,-0.320232,0.0,-0.0,-0.0,2.0,0.282024,0.270213,0.282024,0.293163,,,,,,,0.003942,-0.006141,-0.223198,0.000184,0.000373,0.00011
486637,0.003232,-0.007763,-0.320117,0.0,-0.0,-0.0,2.0,0.282024,0.269274,0.282024,0.293995,,,,,,,0.003961,-0.006134,-0.223195,0.000116,0.00036,0.000121
486657,0.003231,-0.007763,-0.320003,0.0,-0.0,-0.0,2.0,0.282024,0.265457,0.282024,0.297297,,,,,,,0.003963,-0.006127,-0.223193,-0.000186,0.000359,0.000132
486677,0.003352,-0.007744,-0.320117,0.0,-0.0,-0.0,2.0,0.282024,0.268095,0.282024,0.295027,,,,,,,0.004083,-0.00612,-0.223191,-8.6e-05,0.00036,0.00012
486697,0.003353,-0.007743,-0.320231,0.0,-0.0,-0.0,2.0,0.282024,0.268514,0.282024,0.294662,,,,,,,0.004063,-0.006112,-0.223188,0.004045,0.00036,0.000109
486717,0.003232,-0.007763,-0.320117,0.0,-0.0,-0.0,2.0,0.282024,0.266395,0.282024,0.296496,,,,,,,0.003962,-0.006105,-0.223186,1.7e-05,0.000357,0.00012
486737,0.003091,-0.007662,-0.320004,0.0,-0.0,-0.0,2.0,0.282024,0.266539,0.282024,0.296373,,,,,,,0.003943,-0.006098,-0.223183,-0.024089,0.000366,0.000131
486757,0.003212,-0.007643,-0.320117,0.0,-0.0,-0.0,2.0,0.282024,0.267515,0.282024,0.295532,,,,,,,0.003943,-0.006091,-0.223181,-1.6e-05,0.000368,0.000119
486777,0.003232,-0.007763,-0.320232,0.0,-0.0,-0.0,2.0,0.282024,0.26772,0.282024,0.295354,,,,,,,0.003962,-0.006083,-0.223179,8.7e-05,0.000355,0.000108
486797,0.003251,-0.007884,-0.320117,0.0,-0.0,-0.0,2.0,0.282024,0.267664,0.282024,0.295402,,,,,,,0.003962,-0.006076,-0.223176,0.003875,0.000342,0.000119
486817,0.003231,-0.007763,-0.320003,0.0,-0.0,-0.0,2.0,0.282024,0.266889,0.282024,0.296072,,,,,,,0.003962,-0.006069,-0.223174,0.0,0.000353,0.00013
486837,0.003232,-0.007763,-0.320117,0.0,-0.0,-0.0,2.0,0.282024,0.268051,0.282024,0.295066,,,,,,,0.004083,-0.006062,-0.223171,-0.024106,0.000353,0.000118
486857,0.003372,-0.007864,-0.320231,0.0,-0.0,-0.0,2.0,0.282024,0.268336,0.282024,0.294818,,,,,,,0.004102,-0.006055,-0.223169,8.8e-05,0.000342,0.000107
486877,0.003251,-0.007884,-0.320117,0.0,-0.0,-0.0,2.0,0.282024,0.267339,0.282024,0.295684,,,,,,,0.003981,-0.006049,-0.223167,0.000104,0.000339,0.000118
486897,0.00313,-0.007903,-0.320003,0.0,-0.0,-0.0,2.0,0.282024,0.264624,0.282024,0.298002,,,,,,,0.003861,-0.006042,-0.223164,-0.000115,0.000337,0.000129
486917,0.00327,-0.008004,-0.320003,0.0,-0.0,-0.0,2.0,0.282024,0.268533,0.282024,0.294645,,,,,,,0.004001,-0.006035,-0.223162,-9e-05,0.000326,0.000129
486937,0.003251,-0.007884,-0.320117,0.0,-0.0,-0.0,2.0,0.282024,0.268197,0.282024,0.294939,,,,,,,0.004001,-0.006029,-0.223159,-0.003858,0.000337,0.000117
486957,0.003251,-0.007884,-0.320117,0.0,-0.0,-0.0,2.0,0.282024,0.267686,0.282024,0.295383,,,,,,,0.003981,-0.006022,-0.223157,7.2e-05,0.000337,0.000117
486977,0.00327,-0.008004,-0.320003,0.0,-0.0,-0.0,2.0,0.282024,0.265834,0.282024,0.296976,,,,,,,0.003982,-0.006015,-0.223154,0.003774,0.000324,0.000128
486997,0.003372,-0.007864,-0.320117,0.0,-0.0,-0.0,2.0,0.282024,0.268515,0.282024,0.294661,,,,,,,0.004102,-0.006009,-0.223152,0.0,0.000337,0.000116
487017,0.003372,-0.007864,-0.320231,0.0,-0.0,-0.0,2.0,0.282024,0.268064,0.282024,0.295054,,,,,,,0.004102,-0.006002,-0.22315,0.0,0.000337,0.000105
487037,0.003372,-0.007864,-0.320231,0.0,-0.0,-0.0,2.0,0.282024,0.268176,0.282024,0.294957,,,,,,,0.004102,-0.005995,-0.223147,8.8e-05,0.000336,0.000105
487057,0.003251,-0.007884,-0.320117,0.0,-0.0,-0.0,2.0,0.282024,0.265275,0.282024,0.297451,,,,,,,0.003982,-0.005989,-0.223145,-9.9e-05,0.000333,0.000116
487077,0.003232,-0.007763,-0.320117,0.0,-0.0,-0.0,2.0,0.282024,0.267537,0.282024,0.295512,,,,,,,0.003962,-0.005982,-0.223143,-1.6e-05,0.000345,0.000116
487097,0.003251,-0.007884,-0.320117,0.0,-0.0,-0.0,2.0,0.282024,0.268303,0.282024,0.294846,,,,,,,0.003981,-0.005975,-0.223141,-0.0,0.000332,0.000115
487117,0.003232,-0.007763,-0.320117,0.0,-0.0,-0.0,2.0,0.282024,0.265395,0.282024,0.297349,,,,,,,0.003861,-0.005968,-0.223138,0.020031,0.000343,0.000115
487137,0.003251,-0.007884,-0.320117,0.0,-0.0,-0.0,2.0,0.282024,0.268186,0.282024,0.294948,,,,,,,0.003962,-0.005962,-0.223136,0.003945,0.000331,0.000115
487157,0.003352,-0.007744,-0.320117,0.0,-0.0,-0.0,2.0,0.282024,0.268936,0.282024,0.294292,,,,,,,0.004083,-0.005955,-0.223134,0.0,0.000344,0.000115
487177,0.003353,-0.007743,-0.320231,0.0,-0.0,-0.0,2.0,0.282024,0.268485,0.282024,0.294687,,,,,,,0.004083,-0.005948,-0.223131,0.0,0.000343,0.000103
487197,0.003353,-0.007743,-0.320231,0.0,-0.0,-0.0,2.0,0.282024,0.267037,0.282024,0.295944,,,,,,,0.003962,-0.005941,-0.223129,0.024091,0.000343,0.000103
487217,0.003232,-0.007763,-0.320117,0.0,-0.0,-0.0,2.0,0.282024,0.265847,0.282024,0.296965,,,,,,,0.003963,-0.005934,-0.223127,-9.9e-05,0.00034,0.000114
487237,0.003232,-0.007763,-0.320117,0.0,-0.0,-0.0,2.0,0.282024,0.268325,0.282024,0.294827,,,,,,,0.003962,-0.005928,-0.223125,-8.7e-05,0.000339,0.000114
487257,0.003232,-0.007763,-0.320117,0.0,-0.0,-0.0,2.0,0.282024,0.267789,0.282024,0.295293,,,,,,,0.003842,-0.005921,-0.223122,0.024004,0.000339,0.000113
487277,0.003232,-0.007763,-0.320117,0.0,-0.0,-0.0,2.0,0.282024,0.267437,0.282024,0.295599,,,,,,,0.003842,-0.005914,-0.22312,0.024005,0.000338,0.000113
487297,0.003232,-0.007763,-0.320117,0.0,-0.0,-0.0,2.0,0.282024,0.268881,0.282024,0.29434,,,,,,,0.003962,-0.005907,-0.223118,-0.0,0.000337,0.000113
487317,0.003473,-0.007724,-0.320116,0.0,-0.0,-0.0,2.0,0.282024,0.272311,0.282024,0.291279,,,,,,,0.004203,-0.005901,-0.223116,9.9e-05,0.00034,0.000113
487337,0.003453,-0.007604,-0.320116,0.0,-0.0,-0.0,2.0,0.282024,0.268566,0.282024,0.294616,,,,,,,0.004184,-0.005894,-0.223113,-1.6e-05,0.000352,0.000113
487357,0.003454,-0.007603,-0.320231,0.0,-0.0,-0.0,2.0,0.282024,0.268109,0.282024,0.295016,,,,,,,0.004184,-0.005887,-0.223111,8.5e-05,0.000351,0.000101
487377,0.003453,-0.007604,-0.320116,0.0,-0.0,-0.0,2.0,0.282024,0.268114,0.282024,0.295011,,,,,,,0.004184,-0.00588,-0.223109,1e-06,0.00035,0.000112
487397,0.003453,-0.007604,-0.320116,0.0,-0.0,-0.0,2.0,0.282024,0.268875,0.282024,0.294345,,,,,,,0.004184,-0.005873,-0.223107,-8.5e-05,0.00035,0.000112
487417,0.003454,-0.007603,-0.320231,0.0,-0.0,-0.0,2.0,0.282024,0.266342,0.282024,0.296542,,,,,,,0.004083,-0.005866,-0.223105,0.020029,0.000349,0.0001
487437,0.003353,-0.007743,-0.320231,0.0,-0.0,-0.0,2.0,0.282024,0.267756,0.282024,0.295322,,,,,,,0.004083,-0.005859,-0.223103,8.7e-05,0.000334,0.0001
487457,0.003352,-0.007744,-0.320117,0.0,-0.0,-0.0,2.0,0.282024,0.267485,0.282024,0.295557,,,,,,,0.004083,-0.005852,-0.2231,-0.0001,0.000334,0.000111
487477,0.003454,-0.007603,-0.320231,0.0,-0.0,-0.0,2.0,0.282024,0.26827,0.282024,0.294875,,,,,,,0.004083,-0.005846,-0.223098,0.020128,0.000347,0.0001
487497,0.003454,-0.007603,-0.320231,0.0,-0.0,-0.0,2.0,0.282024,0.269027,0.282024,0.294212,,,,,,,0.004184,-0.005839,-0.223096,-1.6e-05,0.000346,0.0001
487517,0.003574,-0.007584,-0.32023,0.0,-0.0,-0.0,2.0,0.282024,0.269222,0.282024,0.294041,,,,,,,0.004184,-0.005832,-0.223094,0.024004,0.000348,9.9e-05
487537,0.003555,-0.007463,-0.32023,0.0,-0.0,-0.0,2.0,0.282024,0.26984,0.282024,0.293494,,,,,,,0.004304,-0.005825,-0.223092,-0.00386,0.000359,9.9e-05
487557,0.003695,-0.007565,-0.32023,0.0,-0.0,-0.0,2.0,0.282024,0.272281,0.282024,0.291305,,,,,,,0.004425,-0.005818,-0.22309,9.9e-05,0.000348,9.9e-05
487577,0.003574,-0.007584,-0.32023,0.0,-0.0,-0.0,2.0,0.282024,0.268822,0.282024,0.294392,,,,,,,0.004305,-0.005811,-0.223088,0.0,0.000345,9.9e-05
487597,0.003454,-0.007603,-0.320231,0.0,-0.0,-0.0,2.0,0.282024,0.267856,0.282024,0.295235,,,,,,,0.004184,-0.005804,-0.223086,1e-06,0.000343,9.9e-05
487617,0.003333,-0.007623,-0.320231,0.0,-0.0,-0.0,2.0,0.282024,0.269654,0.282024,0.293659,,,,,,,0.004203,-0.005797,-0.223085,-0.027864,0.00034,9.8e-05
487637,0.003454,-0.007603,-0.320345,0.0,-0.0,-0.0,2.0,0.282024,0.271834,0.282024,0.29171,,,,,,,0.004184,-0.00579,-0.223083,9.9e-05,0.000342,8.7e-05
487657,0.003435,-0.007483,-0.320345,0.0,-0.0,-0.0,2.0,0.282024,0.271466,0.282024,0.292042,,,,,,,0.004164,-0.005784,-0.223081,9.9e-05,0.000353,8.7e-05
487677,0.003555,-0.007463,-0.320345,0.0,-0.0,-0.0,2.0,0.282024,0.269888,0.282024,0.293452,,,,,,,0.004184,-0.005777,-0.223079,0.02021,0.000354,8.6e-05
487697,0.003675,-0.007444,-0.32023,0.0,-0.0,-0.0,2.0,0.282024,0.272997,0.282024,0.290654,,,,,,,0.004425,-0.00577,-0.223077,-0.003861,0.000355,9.8e-05
487717,0.003675,-0.007444,-0.32023,0.0,-0.0,-0.0,2.0,0.282024,0.270441,0.282024,0.292961,,,,,,,0.004406,-0.005763,-0.223075,-0.0,0.000355,9.8e-05
487737,0.003555,-0.007463,-0.32023,0.0,-0.0,-0.0,2.0,0.282024,0.270167,0.282024,0.293204,,,,,,,0.004425,-0.005756,-0.223073,-0.027864,0.000352,9.7e-05
487757,0.003574,-0.007584,-0.32023,0.0,-0.0,-0.0,2.0,0.282024,0.269334,0.282024,0.293942,,,,,,,0.004285,-0.005749,-0.223071,0.003876,0.000339,9.7e-05
487777,0.003333,-0.007623,-0.320231,0.0,-0.0,-0.0,2.0,0.282024,0.270134,0.282024,0.293234,,,,,,,0.004285,-0.005742,-0.223069,-0.044132,0.000335,9.7e-05
487797,0.003435,-0.007483,-0.320345,0.0,-0.0,-0.0,2.0,0.282024,0.269469,0.282024,0.293822,,,,,,,0.004165,-0.005735,-0.223068,-1.6e-05,0.000348,8.5e-05
487817,0.003454,-0.007603,-0.320345,0.0,-0.0,-0.0,2.0,0.282024,0.271382,0.282024,0.292118,,,,,,,0.004184,-0.005728,-0.223066,0.0001,0.000335,8.5e-05
487837,0.003555,-0.007463,-0.320345,0.0,-0.0,-0.0,2.0,0.282024,0.271147,0.282024,0.292329,,,,,,,0.004285,-0.005721,-0.223064,8.2e-05,0.000349,8.5e-05
487857,0.003676,-0.007444,-0.320344,0.0,-0.0,-0.0,2.0,0.282024,0.271473,0.282024,0.292036,,,,,,,0.004406,-0.005714,-0.223063,-5.9e-05,0.00035,8.5e-05
487877,0.003676,-0.007444,-0.320516,0.0,-0.0,-0.0,2.0,0.282024,0.268722,0.282024,0.29448,,,,,,,0.004407,-0.005707,-0.223061,-9.9e-05,0.000349,6.7e-05
487897,0.003656,-0.007324,-0.320402,0.0,-0.0,-0.0,2.0,0.282024,0.269848,0.282024,0.293487,,,,,,,0.004387,-0.0057,-0.223059,5.8e-05,0.00036,7.9e-05
487917,0.003536,-0.007343,-0.320345,0.0,-0.0,-0.0,2.0,0.282024,0.266924,0.282024,0.296042,,,,,,,0.004266,-0.005693,-0.223058,-3.4e-05,0.000358,8.4e-05
487937,0.003295,-0.007382,-0.320346,0.0,-0.0,-0.0,2.0,0.282024,0.269731,0.282024,0.293591,,,,,,,0.004266,-0.005686,-0.223056,-0.048006,0.000353,8.4e-05
487957,0.003295,-0.007382,-0.320518,0.0,-0.0,-0.0,2.0,0.282024,0.26783,0.282024,0.295258,,,,,,,0.004025,-0.005679,-0.223054,3.6e-05,0.000352,6.7e-05
487977,0.003295,-0.007382,-0.320346,0.0,-0.0,-0.0,2.0,0.282024,0.269156,0.282024,0.294098,,,,,,,0.004025,-0.005672,-0.223053,1e-06,0.000352,8.4e-05
487997,0.003435,-0.007483,-0.320345,0.0,-0.0,-0.0,2.0,0.282024,0.267817,0.282024,0.29527,,,,,,,0.004025,-0.005665,-0.223051,0.027781,0.000341,8.4e-05
488017,0.003536,-0.007343,-0.320517,0.0,-0.0,-0.0,2.0,0.282024,0.270522,0.282024,0.292888,,,,,,,0.004146,-0.005659,-0.22305,0.024004,0.000354,6.6e-05
488037,0.003657,-0.007323,-0.320516,0.0,-0.0,-0.0,2.0,0.282024,0.271932,0.282024,0.291622,,,,,,,0.004387,-0.00565,-0.223048,-1e-06,0.000355,6.6e-05
488057,0.003758,-0.007183,-0.320516,0.0,-0.0,-0.0,2.0,0.282024,0.269818,0.282024,0.293514,,,,,,,0.004387,-0.005643,-0.223047,0.020125,0.000369,6.6e-05
488077,0.003637,-0.007203,-0.320516,0.0,-0.0,-0.0,2.0,0.282024,0.269238,0.282024,0.294026,,,,,,,0.004368,-0.005636,-0.223046,1e-06,0.000366,6.6e-05
488097,0.003396,-0.007242,-0.320517,0.0,-0.0,-0.0,2.0,0.282024,0.269062,0.282024,0.294181,,,,,,,0.004228,-0.005629,-0.223044,-0.020141,0.000361,6.6e-05
488117,0.003396,-0.007242,-0.320517,0.0,-0.0,-0.0,2.0,0.282024,0.267123,0.282024,0.29587,,,,,,,0.004007,-0.005621,-0.223043,0.023905,0.000361,6.6e-05
488137,0.003295,-0.007382,-0.320518,0.0,-0.0,-0.0,2.0,0.282024,0.271159,0.282024,0.292318,,,,,,,0.004005,-0.005614,-0.223042,0.00406,0.000346,6.5e-05
488157,0.003295,-0.007382,-0.320346,0.0,-0.0,-0.0,2.0,0.282024,0.270456,0.282024,0.292947,,,,,,,0.004025,-0.005607,-0.22304,-1e-06,0.000345,8.2e-05
488177,0.003656,-0.007324,-0.320402,0.0,-0.0,-0.0,2.0,0.282024,0.274103,0.282024,0.289638,,,,,,,0.004266,-0.0056,-0.223039,0.024022,0.00035,7.7e-05
488197,0.003777,-0.007304,-0.320516,0.0,-0.0,-0.0,2.0,0.282024,0.27478,0.282024,0.28901,,,,,,,0.004507,-0.005593,-0.223037,9.9e-05,0.000352,6.5e-05
488217,0.003758,-0.007183,-0.320516,0.0,-0.0,-0.0,2.0,0.282024,0.270884,0.282024,0.292564,,,,,,,0.004488,-0.005586,-0.223036,0.000138,0.000363,6.5e-05
488237,0.003598,-0.006962,-0.320345,0.0,-0.0,-0.0,2.0,0.282024,0.270596,0.282024,0.292822,,,,,,,0.004469,-0.005579,-0.223034,-0.028017,0.000384,8.2e-05
488257,0.003497,-0.007102,-0.320517,0.0,-0.0,-0.0,2.0,0.282024,0.270267,0.282024,0.293115,,,,,,,0.004329,-0.005571,-0.223033,-0.020125,0.00037,6.5e-05
488277,0.003377,-0.007121,-0.320518,0.0,-0.0,-0.0,2.0,0.282024,0.269968,0.282024,0.293381,,,,,,,0.004107,-0.005564,-0.223032,1.7e-05,0.000367,6.4e-05
488297,0.003276,-0.007261,-0.320518,0.0,-0.0,-0.0,2.0,0.282024,0.269607,0.282024,0.2937,,,,,,,0.004005,-0.005556,-0.22303,0.00015,0.000352,6.4e-05
488317,0.003295,-0.007382,-0.320346,0.0,-0.0,-0.0,2.0,0.282024,0.274332,0.282024,0.289425,,,,,,,0.004146,-0.005549,-0.223029,-0.024042,0.00034,8.1e-05
488337,0.003657,-0.007323,-0.320631,0.0,-0.0,-0.0,2.0,0.282024,0.27292,0.282024,0.290724,,,,,,,0.004267,-0.005543,-0.223028,0.024084,0.000345,5.3e-05
488357,0.003758,-0.007183,-0.320516,0.0,-0.0,-0.0,2.0,0.282024,0.274291,0.282024,0.289464,,,,,,,0.004507,-0.005536,-0.223026,-0.00378,0.000358,6.4e-05
488377,0.003859,-0.007043,-0.320515,0.0,-0.0,-0.0,2.0,0.282024,0.272671,0.282024,0.290951,,,,,,,0.004608,-0.005529,-0.223025,-0.003742,0.000371,6.4e-05
488397,0.003839,-0.006923,-0.320516,0.0,-0.0,-0.0,2.0,0.282024,0.270751,0.282024,0.292684,,,,,,,0.00457,-0.005521,-0.223024,-1.6e-05,0.000383,6.4e-05
488417,0.003719,-0.006942,-0.320516,0.0,-0.0,-0.0,2.0,0.282024,0.270403,0.282024,0.292994,,,,,,,0.004449,-0.005513,-0.223023,0.0,0.00038,6.4e-05
488437,0.003618,-0.007082,-0.320516,0.0,-0.0,-0.0,2.0,0.282024,0.270112,0.282024,0.293253,,,,,,,0.004348,-0.005506,-0.223021,1.7e-05,0.000365,6.3e-05
488457,0.003517,-0.007222,-0.320517,0.0,-0.0,-0.0,2.0,0.282024,0.268447,0.282024,0.29472,,,,,,,0.004248,-0.005499,-0.22302,-9.9e-05,0.00035,6.3e-05
488477,0.003657,-0.007323,-0.320516,0.0,-0.0,-0.0,2.0,0.282024,0.274298,0.282024,0.289457,,,,,,,0.004387,-0.005492,-0.223019,3.5e-05,0.00034,6.3e-05
488497,0.003758,-0.007183,-0.32063,0.0,-0.0,-0.0,2.0,0.282024,0.271523,0.282024,0.291991,,,,,,,0.004388,-0.005485,-0.223018,0.020123,0.000353,5.2e-05
488517,0.003758,-0.007183,-0.32063,0.0,-0.0,-0.0,2.0,0.282024,0.271456,0.282024,0.292051,,,,,,,0.004489,-0.005478,-0.223017,-1.6e-05,0.000352,5.2e-05
488537,0.003859,-0.007043,-0.32063,0.0,-0.0,-0.0,2.0,0.282024,0.269841,0.282024,0.293493,,,,,,,0.004469,-0.005471,-0.223015,0.023981,0.000366,5.2e-05
488557,0.00384,-0.006923,-0.32063,0.0,-0.0,-0.0,2.0,0.282024,0.272906,0.282024,0.290737,,,,,,,0.00457,-0.005463,-0.223014,0.0001,0.000377,5.1e-05
488577,0.0037,-0.006821,-0.320631,0.0,-0.0,-0.0,2.0,0.282024,0.270849,0.282024,0.292596,,,,,,,0.00445,-0.005456,-0.223013,-0.003881,0.000386,5.1e-05
488597,0.003599,-0.006961,-0.320631,0.0,-0.0,-0.0,2.0,0.282024,0.270386,0.282024,0.293009,,,,,,,0.004329,-0.005448,-0.223012,9.3e-05,0.000371,5.1e-05
488617,0.003497,-0.007102,-0.320517,0.0,-0.0,-0.0,2.0,0.282024,0.27148,0.282024,0.29203,,,,,,,0.004349,-0.005441,-0.223011,-0.024082,0.000357,6.2e-05
488637,0.003638,-0.007203,-0.320631,0.0,-0.0,-0.0,2.0,0.282024,0.272726,0.282024,0.290901,,,,,,,0.004368,-0.005434,-0.22301,-1e-06,0.000346,5.1e-05
488657,0.003638,-0.007203,-0.320631,0.0,-0.0,-0.0,2.0,0.282024,0.270957,0.282024,0.292499,,,,,,,0.004247,-0.005427,-0.223009,0.024083,0.000345,5.1e-05
488677,0.003637,-0.007203,-0.320516,0.0,-0.0,-0.0,2.0,0.282024,0.271942,0.282024,0.291613,,,,,,,0.004368,-0.00542,-0.223008,0.0,0.000345,6.2e-05
488697,0.003618,-0.007082,-0.320516,0.0,-0.0,-0.0,2.0,0.282024,0.273092,0.282024,0.290567,,,,,,,0.004489,-0.005413,-0.223007,-0.027963,0.000356,6.2e-05
488717,0.003719,-0.006942,-0.32063,0.0,-0.0,-0.0,2.0,0.282024,0.273416,0.282024,0.29027,,,,,,,0.004449,-0.005406,-0.223005,0.0001,0.000369,5e-05
488737,0.003599,-0.006961,-0.320631,0.0,-0.0,-0.0,2.0,0.282024,0.273924,0.282024,0.289803,,,,,,,0.004449,-0.005399,-0.223004,-0.023904,0.000366,5e-05
488757,0.003618,-0.007082,-0.320516,0.0,-0.0,-0.0,2.0,0.282024,0.26992,0.282024,0.293424,,,,,,,0.004349,-0.005391,-0.223003,-8.3e-05,0.000354,6.2e-05
488777,0.003517,-0.007222,-0.320517,0.0,-0.0,-0.0,2.0,0.282024,0.272116,0.282024,0.291455,,,,,,,0.004368,-0.005384,-0.223002,-0.024067,0.000339,6.2e-05
488797,0.003517,-0.007222,-0.320631,0.0,-0.0,-0.0,2.0,0.282024,0.271481,0.282024,0.292028,,,,,,,0.004247,-0.005378,-0.223001,8e-05,0.000338,5e-05
488817,0.003536,-0.007343,-0.320517,0.0,-0.0,-0.0,2.0,0.282024,0.271954,0.282024,0.291602,,,,,,,0.004267,-0.005371,-0.223,0.0,0.000326,6.1e-05
488837,0.003657,-0.007323,-0.320516,0.0,-0.0,-0.0,2.0,0.282024,0.272564,0.282024,0.291049,,,,,,,0.004368,-0.005364,-0.222999,0.003879,0.000327,6.1e-05
488857,0.003739,-0.007063,-0.32063,0.0,-0.0,-0.0,2.0,0.282024,0.272998,0.282024,0.290653,,,,,,,0.004469,-0.005358,-0.222998,-1.7e-05,0.000352,5e-05
488877,0.003859,-0.007043,-0.32063,0.0,-0.0,-0.0,2.0,0.282024,0.272116,0.282024,0.291455,,,,,,,0.004469,-0.005351,-0.222996,0.024081,0.000354,5e-05
488897,0.003738,-0.007063,-0.320516,0.0,-0.0,-0.0,2.0,0.282024,0.271084,0.282024,0.292386,,,,,,,0.004469,-0.005344,-0.222995,1e-06,0.000351,6.1e-05
488917,0.003598,-0.006962,-0.320517,0.0,-0.0,-0.0,2.0,0.282024,0.27042,0.282024,0.292979,,,,,,,0.00445,-0.005336,-0.222994,-0.024104,0.00036,6.1e-05
488937,0.003618,-0.007082,-0.320631,0.0,-0.0,-0.0,2.0,0.282024,0.271828,0.282024,0.291716,,,,,,,0.004349,-0.005329,-0.222993,0.0,0.000348,4.9e-05
488957,0.003517,-0.007222,-0.320631,0.0,-0.0,-0.0,2.0,0.282024,0.271419,0.282024,0.292085,,,,,,,0.004228,-0.005322,-0.222992,0.003959,0.000333,4.9e-05
488977,0.003498,-0.007101,-0.320631,0.0,-0.0,-0.0,2.0,0.282024,0.272069,0.282024,0.291498,,,,,,,0.004228,-0.005316,-0.222991,7.8e-05,0.000344,4.9e-05
488997,0.003598,-0.006962,-0.320517,0.0,-0.0,-0.0,2.0,0.282024,0.273219,0.282024,0.290451,,,,,,,0.004329,-0.005309,-0.22299,-9.3e-05,0.000357,6e-05
489017,0.003719,-0.006942,-0.32063,0.0,-0.0,-0.0,2.0,0.282024,0.275208,0.282024,0.288611,,,,,,,0.004449,-0.005302,-0.222989,9.9e-05,0.000359,4.9e-05
489037,0.0037,-0.006821,-0.320631,0.0,-0.0,-0.0,2.0,0.282024,0.272599,0.282024,0.291017,,,,,,,0.00445,-0.005294,-0.222988,-0.003881,0.00037,4.9e-05
489057,0.003699,-0.006822,-0.320516,0.0,-0.0,-0.0,2.0,0.282024,0.271698,0.282024,0.291833,,,,,,,0.00443,-0.005287,-0.222987,0.0,0.000369,6e-05
489077,0.003579,-0.006841,-0.320517,0.0,-0.0,-0.0,2.0,0.282024,0.272384,0.282024,0.291212,,,,,,,0.00443,-0.00528,-0.222986,-0.024079,0.000367,6e-05
489097,0.003579,-0.006841,-0.320631,0.0,-0.0,-0.0,2.0,0.282024,0.272119,0.282024,0.291452,,,,,,,0.00431,-0.005272,-0.222985,-0.0,0.000366,4.8e-05
489117,0.003478,-0.006981,-0.320631,0.0,-0.0,-0.0,2.0,0.282024,0.27114,0.282024,0.292335,,,,,,,0.004209,-0.005265,-0.222983,1e-06,0.000351,4.8e-05
489137,0.003478,-0.006981,-0.320631,0.0,-0.0,-0.0,2.0,0.282024,0.272401,0.282024,0.291196,,,,,,,0.004208,-0.005258,-0.222982,7.7e-05,0.00035,4.8e-05
489157,0.003599,-0.006961,-0.320631,0.0,-0.0,-0.0,2.0,0.282024,0.275366,0.282024,0.288464,,,,,,,0.004329,-0.005251,-0.222982,2.3e-05,0.000352,4.8e-05
489177,0.00372,-0.006942,-0.320745,0.0,-0.0,-0.0,2.0,0.282024,0.272884,0.282024,0.290757,,,,,,,0.004329,-0.005244,-0.222981,0.02408,0.000353,3.7e-05
489197,0.00382,-0.006802,-0.32063,0.0,-0.0,-0.0,2.0,0.282024,0.275229,0.282024,0.288591,,,,,,,0.00457,-0.005237,-0.22298,-0.003781,0.000366,4.8e-05
489217,0.00384,-0.006923,-0.32063,0.0,-0.0,-0.0,2.0,0.282024,0.271465,0.282024,0.292043,,,,,,,0.004551,-0.00523,-0.222979,0.003781,0.000353,4.8e-05
489237,0.00382,-0.006802,-0.32063,0.0,-0.0,-0.0,2.0,0.282024,0.2732,0.282024,0.290468,,,,,,,0.00457,-0.005223,-0.222978,-0.003865,0.000365,4.8e-05
489257,0.003719,-0.006942,-0.320516,0.0,-0.0,-0.0,2.0,0.282024,0.272249,0.282024,0.291335,,,,,,,0.004449,-0.005215,-0.222977,-0.0,0.00035,5.9e-05
489277,0.003498,-0.007101,-0.320631,0.0,-0.0,-0.0,2.0,0.282024,0.271801,0.282024,0.29174,,,,,,,0.004348,-0.005209,-0.222976,-0.023909,0.000333,4.7e-05
489297,0.003497,-0.007102,-0.320517,0.0,-0.0,-0.0,2.0,0.282024,0.273822,0.282024,0.289897,,,,,,,0.004348,-0.005202,-0.222975,-0.024005,0.000333,5.9e-05
489317,0.003758,-0.007183,-0.32063,0.0,-0.0,-0.0,2.0,0.282024,0.275391,0.282024,0.28844,,,,,,,0.004348,-0.005195,-0.222973,0.027984,0.000324,4.7e-05
489337,0.003758,-0.007183,-0.32063,0.0,-0.0,-0.0,2.0,0.282024,0.274321,0.282024,0.289436,,,,,,,0.004489,-0.005189,-0.222972,-1e-06,0.000323,4.7e-05
489357,0.003999,-0.007144,-0.320629,0.0,-0.0,-0.0,2.0,0.282024,0.274718,0.282024,0.289068,,,,,,,0.00473,-0.005182,-0.222972,-0.0,0.000327,4.7e-05
489377,0.00398,-0.007024,-0.320629,0.0,-0.0,-0.0,2.0,0.282024,0.274654,0.282024,0.289127,,,,,,,0.004831,-0.005176,-0.222971,-0.024004,0.000338,4.7e-05
489397,0.003961,-0.006903,-0.320744,0.0,-0.0,-0.0,2.0,0.282024,0.272604,0.282024,0.291012,,,,,,,0.004691,-0.005169,-0.22297,5.9e-05,0.000349,3.6e-05
489417,0.003739,-0.007063,-0.32063,0.0,-0.0,-0.0,2.0,0.282024,0.269086,0.282024,0.29416,,,,,,,0.00447,-0.005162,-0.222969,-9.8e-05,0.000333,4.7e-05
489437,0.003638,-0.007203,-0.320631,0.0,-0.0,-0.0,2.0,0.282024,0.27016,0.282024,0.29321,,,,,,,0.004349,-0.005155,-0.222968,0.003781,0.000318,4.7e-05
489457,0.003638,-0.007203,-0.320631,0.0,-0.0,-0.0,2.0,0.282024,0.275198,0.282024,0.288621,,,,,,,0.004368,-0.005149,-0.222967,2e-05,0.000317,4.7e-05
489477,0.003778,-0.007304,-0.32063,0.0,-0.0,-0.0,2.0,0.282024,0.274644,0.282024,0.289137,,,,,,,0.004388,-0.005143,-0.222966,0.024019,0.000307,4.7e-05
489497,0.003879,-0.007164,-0.32063,0.0,-0.0,-0.0,2.0,0.282024,0.273905,0.282024,0.28982,,,,,,,0.004508,-0.005137,-0.222965,0.020123,0.00032,4.7e-05
489517,0.003999,-0.007144,-0.320629,0.0,-0.0,-0.0,2.0,0.282024,0.275294,0.282024,0.288531,,,,,,,0.00473,-0.00513,-0.222964,-1e-06,0.000321,4.7e-05
489537,0.004101,-0.007004,-0.320743,0.0,-0.0,-0.0,2.0,0.282024,0.274975,0.282024,0.288829,,,,,,,0.004831,-0.005124,-0.222963,-0.0,0.000335,3.5e-05
489557,0.0041,-0.007004,-0.320629,0.0,-0.0,-0.0,2.0,0.282024,0.273819,0.282024,0.2899,,,,,,,0.004831,-0.005117,-0.222963,0.0,0.000334,4.6e-05
489577,0.003859,-0.007043,-0.32063,0.0,-0.0,-0.0,2.0,0.282024,0.269447,0.282024,0.293842,,,,,,,0.00459,-0.00511,-0.222962,-9.8e-05,0.00033,4.6e-05
489597,0.003618,-0.007082,-0.320516,0.0,-0.0,-0.0,2.0,0.282024,0.270504,0.282024,0.292904,,,,,,,0.00447,-0.005104,-0.222961,-0.024181,0.000325,5.7e-05
489617,0.003758,-0.007183,-0.32063,0.0,-0.0,-0.0,2.0,0.282024,0.275314,0.282024,0.288512,,,,,,,0.004488,-0.005097,-0.22296,0.0001,0.000314,4.6e-05
489637,0.003778,-0.007304,-0.32063,0.0,-0.0,-0.0,2.0,0.282024,0.276002,0.282024,0.287867,,,,,,,0.004508,-0.005091,-0.222959,9.9e-05,0.000302,4.6e-05
489657,0.004019,-0.007265,-0.320629,0.0,-0.0,-0.0,2.0,0.282024,0.27338,0.282024,0.290303,,,,,,,0.004629,-0.005085,-0.222958,0.023904,0.000305,4.6e-05
489677,0.00426,-0.007226,-0.320628,0.0,-0.0,-0.0,2.0,0.282024,0.278504,0.282024,0.285482,,,,,,,0.00499,-0.005079,-0.222957,9.8e-05,0.000308,4.6e-05
489697,0.004341,-0.006965,-0.320628,0.0,-0.0,-0.0,2.0,0.282024,0.274353,0.282024,0.289406,,,,,,,0.004971,-0.005073,-0.222956,0.020123,0.000334,4.6e-05
489717,0.004221,-0.006985,-0.320628,0.0,-0.0,-0.0,2.0,0.282024,0.271691,0.282024,0.291839,,,,,,,0.004952,-0.005066,-0.222955,-9.9e-05,0.000331,4.6e-05
489737,0.00398,-0.007024,-0.320629,0.0,-0.0,-0.0,2.0,0.282024,0.27114,0.282024,0.292335,,,,,,,0.004831,-0.005059,-0.222954,-0.024103,0.000326,4.5e-05
489757,0.003879,-0.007164,-0.32063,0.0,-0.0,-0.0,2.0,0.282024,0.27306,0.282024,0.290596,,,,,,,0.004609,-0.005053,-0.222953,-0.0,0.000312,4.5e-05
489777,0.003657,-0.007323,-0.320631,0.0,-0.0,-0.0,2.0,0.282024,0.270659,0.282024,0.292766,,,,,,,0.004388,-0.005047,-0.222952,-9.9e-05,0.000295,4.5e-05
489797,0.003797,-0.007424,-0.32063,0.0,-0.0,-0.0,2.0,0.282024,0.276392,0.282024,0.287499,,,,,,,0.004527,-0.005041,-0.222952,0.000116,0.000285,4.5e-05
489817,0.003918,-0.007405,-0.320629,0.0,-0.0,-0.0,2.0,0.282024,0.275744,0.282024,0.288109,,,,,,,0.004648,-0.005035,-0.222951,-1e-06,0.000286,4.5e-05
489837,0.00426,-0.007225,-0.320742,0.0,-0.0,-0.0,2.0,0.282024,0.277964,0.282024,0.286002,,,,,,,0.004889,-0.00503,-0.22295,0.0203,0.000303,3.4e-05
489857,0.004381,-0.007206,-0.320742,0.0,-0.0,-0.0,2.0,0.282024,0.277805,0.282024,0.286154,,,,,,,0.00511,-0.005024,-0.222949,0.000177,0.000305,3.4e-05
489877,0.004361,-0.007086,-0.320627,0.0,-0.0,-0.0,2.0,0.282024,0.273322,0.282024,0.290356,,,,,,,0.005092,-0.005017,-0.222948,-0.0001,0.000316,4.5e-05
489897,0.004241,-0.007105,-0.320742,0.0,-0.0,-0.0,2.0,0.282024,0.273114,0.282024,0.290546,,,,,,,0.004971,-0.005011,-0.222947,1e-06,0.000313,3.4e-05
489917,0.003899,-0.007284,-0.320744,0.0,-0.0,-0.0,2.0,0.282024,0.273405,0.282024,0.29028,,,,,,,0.004749,-0.005005,-0.222947,-0.023987,0.000295,3.3e-05
489937,0.003677,-0.007443,-0.320745,0.0,-0.0,-0.0,2.0,0.282024,0.269741,0.282024,0.293582,,,,,,,0.004388,-0.004999,-0.222946,0.003865,0.000278,3.3e-05
489957,0.003696,-0.007564,-0.32063,0.0,-0.0,-0.0,2.0,0.282024,0.274172,0.282024,0.289574,,,,,,,0.004407,-0.004994,-0.222945,0.00388,0.000266,4.4e-05
489977,0.003938,-0.007525,-0.320744,0.0,-0.0,-0.0,2.0,0.282024,0.279059,0.282024,0.284945,,,,,,,0.004667,-0.004988,-0.222944,0.000115,0.000269,3.3e-05
489997,0.004159,-0.007365,-0.320743,0.0,-0.0,-0.0,2.0,0.282024,0.277654,0.282024,0.286299,,,,,,,0.004768,-0.004982,-0.222944,0.024183,0.000285,3.3e-05
490017,0.00426,-0.007226,-0.320628,0.0,-0.0,-0.0,2.0,0.282024,0.277282,0.282024,0.286655,,,,,,,0.00501,-0.004978,-0.222943,-0.003961,0.000298,4.5e-05
490037,0.004361,-0.007086,-0.320627,0.0,-0.0,-0.0,2.0,0.282024,0.278424,0.282024,0.285559,,,,,,,0.005231,-0.004971,-0.222942,-0.027863,0.000311,4.4e-05
490057,0.004241,-0.007105,-0.320742,0.0,-0.0,-0.0,2.0,0.282024,0.272696,0.282024,0.290929,,,,,,,0.004971,-0.004965,-0.222941,-2.3e-05,0.000309,3.3e-05
490077,0.003879,-0.007164,-0.32063,0.0,-0.0,-0.0,2.0,0.282024,0.269752,0.282024,0.293572,,,,,,,0.00461,-0.004958,-0.22294,-9.8e-05,0.000302,4.4e-05
490097,0.003638,-0.007203,-0.320631,0.0,-0.0,-0.0,2.0,0.282024,0.273435,0.282024,0.290252,,,,,,,0.004508,-0.004952,-0.22294,-0.027868,0.000298,4.4e-05
490117,0.003657,-0.007323,-0.320631,0.0,-0.0,-0.0,2.0,0.282024,0.274381,0.282024,0.289381,,,,,,,0.004388,-0.004947,-0.222939,-0.0,0.000285,4.4e-05
490137,0.003898,-0.007284,-0.320629,0.0,-0.0,-0.0,2.0,0.282024,0.274903,0.282024,0.288896,,,,,,,0.004388,-0.004941,-0.222938,0.048007,0.000288,4.4e-05
490157,0.004019,-0.007265,-0.320629,0.0,-0.0,-0.0,2.0,0.282024,0.278441,0.282024,0.285543,,,,,,,0.004749,-0.004935,-0.222937,9.9e-05,0.00029,4.4e-05
490177,0.00424,-0.007105,-0.320628,0.0,-0.0,-0.0,2.0,0.282024,0.279748,0.282024,0.284274,,,,,,,0.005091,-0.004929,-0.222936,-0.023998,0.000305,4.4e-05
490197,0.004462,-0.006945,-0.320741,0.0,-0.0,-0.0,2.0,0.282024,0.275789,0.282024,0.288067,,,,,,,0.005072,-0.004923,-0.222935,0.024079,0.000321,3.2e-05
490217,0.004201,-0.006864,-0.320628,0.0,-0.0,-0.0,2.0,0.282024,0.272079,0.282024,0.291489,,,,,,,0.004932,-0.004916,-0.222935,-9.9e-05,0.000328,4.4e-05
490237,0.00396,-0.006903,-0.320629,0.0,-0.0,-0.0,2.0,0.282024,0.272224,0.282024,0.291358,,,,,,,0.004812,-0.00491,-0.222934,-0.024103,0.000323,4.3e-05
490257,0.003859,-0.007043,-0.32063,0.0,-0.0,-0.0,2.0,0.282024,0.273258,0.282024,0.290415,,,,,,,0.00457,-0.004904,-0.222933,0.003881,0.000309,4.3e-05
490277,0.003739,-0.007063,-0.32063,0.0,-0.0,-0.0,2.0,0.282024,0.2744,0.282024,0.289363,,,,,,,0.004469,-0.004897,-0.222932,0.0,0.000306,4.3e-05
490297,0.003778,-0.007304,-0.32063,0.0,-0.0,-0.0,2.0,0.282024,0.275285,0.282024,0.288539,,,,,,,0.004489,-0.004891,-0.222931,0.003881,0.000282,4.3e-05
490317,0.003999,-0.007144,-0.320629,0.0,-0.0,-0.0,2.0,0.282024,0.277398,0.282024,0.286544,,,,,,,0.00473,-0.004886,-0.22293,-1e-06,0.000297,4.3e-05
490337,0.004221,-0.006984,-0.320742,0.0,-0.0,-0.0,2.0,0.282024,0.278653,0.282024,0.285338,,,,,,,0.004951,-0.00488,-0.22293,8.3e-05,0.000312,3.2e-05
490357,0.004201,-0.006864,-0.320628,0.0,-0.0,-0.0,2.0,0.282024,0.276722,0.282024,0.287186,,,,,,,0.005052,-0.004873,-0.222929,-0.02402,0.000324,4.3e-05
490377,0.004081,-0.006884,-0.320629,0.0,-0.0,-0.0,2.0,0.282024,0.271832,0.282024,0.291712,,,,,,,0.004812,-0.004867,-0.222928,-9.8e-05,0.000321,4.3e-05
490397,0.00384,-0.006923,-0.32063,0.0,-0.0,-0.0,2.0,0.282024,0.272493,0.282024,0.291113,,,,,,,0.004692,-0.00486,-0.222927,-0.024178,0.000317,4.3e-05
490417,0.003739,-0.007062,-0.320745,0.0,-0.0,-0.0,2.0,0.282024,0.274688,0.282024,0.289096,,,,,,,0.004469,-0.004854,-0.222926,9.4e-05,0.000302,3.1e-05
490437,0.003638,-0.007203,-0.320631,0.0,-0.0,-0.0,2.0,0.282024,0.275157,0.282024,0.288659,,,,,,,0.004368,-0.004848,-0.222926,1.6e-05,0.000287,4.2e-05
490457,0.003778,-0.007304,-0.32063,0.0,-0.0,-0.0,2.0,0.282024,0.274186,0.282024,0.289561,,,,,,,0.004369,-0.004842,-0.222925,0.027785,0.000277,4.2e-05
490477,0.004,-0.007144,-0.320743,0.0,-0.0,-0.0,2.0,0.282024,0.280228,0.282024,0.283803,,,,,,,0.004749,-0.004837,-0.222924,-0.003784,0.000292,3.1e-05
490497,0.004221,-0.006984,-0.320742,0.0,-0.0,-0.0,2.0,0.282024,0.277512,0.282024,0.286435,,,,,,,0.004851,-0.004831,-0.222923,0.02012,0.000307,3.1e-05
490517,0.004322,-0.006844,-0.320742,0.0,-0.0,-0.0,2.0,0.282024,0.276648,0.282024,0.287257,,,,,,,0.005053,-0.004825,-0.222923,-1.6e-05,0.000321,3.1e-05
490537,0.004182,-0.006743,-0.320743,0.0,-0.0,-0.0,2.0,0.282024,0.27558,0.282024,0.288263,,,,,,,0.005033,-0.004818,-0.222922,-0.024019,0.00033,3.1e-05
490557,0.004062,-0.006763,-0.320743,0.0,-0.0,-0.0,2.0,0.282024,0.274207,0.282024,0.289542,,,,,,,0.004792,-0.004812,-0.222922,1e-06,0.000328,3.1e-05
490577,0.003719,-0.006942,-0.32063,0.0,-0.0,-0.0,2.0,0.282024,0.274068,0.282024,0.28967,,,,,,,0.00457,-0.004805,-0.222921,-0.023987,0.000309,4.2e-05
490597,0.003739,-0.007063,-0.32063,0.0,-0.0,-0.0,2.0,0.282024,0.275637,0.282024,0.28821,,,,,,,0.004469,-0.004799,-0.22292,-0.0,0.000296,4.2e-05
490617,0.003758,-0.007183,-0.32063,0.0,-0.0,-0.0,2.0,0.282024,0.276026,0.282024,0.287844,,,,,,,0.004489,-0.004793,-0.222919,-7.9e-05,0.000284,4.2e-05
490637,0.004,-0.007144,-0.320743,0.0,-0.0,-0.0,2.0,0.282024,0.277474,0.282024,0.286471,,,,,,,0.004609,-0.004788,-0.222918,0.024081,0.000287,3e-05
490657,0.004221,-0.006984,-0.320742,0.0,-0.0,-0.0,2.0,0.282024,0.277381,0.282024,0.28656,,,,,,,0.004851,-0.004782,-0.222918,0.020121,0.000303,3.1e-05
490677,0.004322,-0.006844,-0.320742,0.0,-0.0,-0.0,2.0,0.282024,0.277873,0.282024,0.286089,,,,,,,0.005053,-0.004776,-0.222917,-0.0,0.000316,3e-05
490697,0.004283,-0.006603,-0.320742,0.0,-0.0,-0.0,2.0,0.282024,0.277725,0.282024,0.286231,,,,,,,0.005033,-0.004769,-0.222917,-0.003782,0.000339,3e-05
490717,0.003922,-0.006662,-0.320744,0.0,-0.0,-0.0,2.0,0.282024,0.274777,0.282024,0.289013,,,,,,,0.004773,-0.004763,-0.222916,-0.024003,0.000333,3e-05
490737,0.003719,-0.006942,-0.32063,0.0,-0.0,-0.0,2.0,0.282024,0.270858,0.282024,0.292588,,,,,,,0.004451,-0.004756,-0.222915,-0.000182,0.000304,4.1e-05
490757,0.003739,-0.007063,-0.32063,0.0,-0.0,-0.0,2.0,0.282024,0.276124,0.282024,0.287752,,,,,,,0.00447,-0.00475,-0.222915,-7.7e-05,0.000292,4.1e-05
490777,0.003778,-0.007303,-0.320744,0.0,-0.0,-0.0,2.0,0.282024,0.275701,0.282024,0.28815,,,,,,,0.004368,-0.004745,-0.222914,0.027965,0.000267,3e-05
490797,0.003879,-0.007163,-0.320744,0.0,-0.0,-0.0,2.0,0.282024,0.279558,0.282024,0.284459,,,,,,,0.004629,-0.004739,-0.222913,-0.003783,0.00028,3e-05
490817,0.00412,-0.007124,-0.320743,0.0,-0.0,-0.0,2.0,0.282024,0.278759,0.282024,0.285236,,,,,,,0.004851,-0.004734,-0.222913,-7.8e-05,0.000284,3e-05
490837,0.004323,-0.006844,-0.320856,0.0,-0.0,-0.0,2.0,0.282024,0.280124,0.282024,0.283906,,,,,,,0.005072,-0.004728,-0.222912,-0.003709,0.000311,1.9e-05
490857,0.004182,-0.006743,-0.320743,0.0,-0.0,-0.0,2.0,0.282024,0.275028,0.282024,0.288779,,,,,,,0.004913,-0.004721,-0.222912,-1.5e-05,0.000321,3e-05
490877,0.004062,-0.006763,-0.320743,0.0,-0.0,-0.0,2.0,0.282024,0.273119,0.282024,0.290542,,,,,,,0.004793,-0.004715,-0.222911,-9.9e-05,0.000318,3e-05
490897,0.00386,-0.007043,-0.320744,0.0,-0.0,-0.0,2.0,0.282024,0.275804,0.282024,0.288053,,,,,,,0.004691,-0.004709,-0.22291,-0.020121,0.000289,3e-05
490917,0.003879,-0.007163,-0.320744,0.0,-0.0,-0.0,2.0,0.282024,0.275379,0.282024,0.288451,,,,,,,0.004489,-0.004703,-0.22291,0.024099,0.000277,3e-05
490937,0.003778,-0.007303,-0.320744,0.0,-0.0,-0.0,2.0,0.282024,0.276656,0.282024,0.287249,,,,,,,0.004508,-0.004698,-0.222909,9.6e-05,0.000262,2.9e-05
490957,0.003899,-0.007284,-0.320744,0.0,-0.0,-0.0,2.0,0.282024,0.27812,0.282024,0.285852,,,,,,,0.004629,-0.004692,-0.222908,-1e-06,0.000264,2.9e-05
490977,0.004121,-0.007124,-0.320857,0.0,-0.0,-0.0,2.0,0.282024,0.279701,0.282024,0.28432,,,,,,,0.004749,-0.004687,-0.222908,0.020297,0.000279,1.8e-05
490997,0.004222,-0.006984,-0.320857,0.0,-0.0,-0.0,2.0,0.282024,0.279748,0.282024,0.284274,,,,,,,0.004952,-0.004681,-0.222907,8.3e-05,0.000293,1.8e-05
491017,0.004202,-0.006864,-0.320743,0.0,-0.0,-0.0,2.0,0.282024,0.275757,0.282024,0.288097,,,,,,,0.004933,-0.004675,-0.222907,-0.0001,0.000304,2.9e-05
491037,0.004081,-0.006883,-0.320743,0.0,-0.0,-0.0,2.0,0.282024,0.276952,0.282024,0.286968,,,,,,,0.004932,-0.004669,-0.222906,-0.024003,0.000301,2.9e-05
491057,0.00386,-0.007043,-0.320744,0.0,-0.0,-0.0,2.0,0.282024,0.273393,0.282024,0.290291,,,,,,,0.004591,-0.004664,-0.222906,-9.9e-05,0.000285,2.9e-05
491077,0.003759,-0.007183,-0.320745,0.0,-0.0,-0.0,2.0,0.282024,0.273035,0.282024,0.290619,,,,,,,0.004369,-0.004658,-0.222905,0.023921,0.00027,2.9e-05
491097,0.003537,-0.007342,-0.320745,0.0,-0.0,-0.0,2.0,0.282024,0.276273,0.282024,0.287611,,,,,,,0.004369,-0.004653,-0.222905,-0.020121,0.000254,2.9e-05
491117,0.003759,-0.007182,-0.320859,0.0,-0.0,-0.0,2.0,0.282024,0.280077,0.282024,0.283952,,,,,,,0.004508,-0.004647,-0.222904,-0.003704,0.000269,1.7e-05
491137,0.004,-0.007143,-0.320858,0.0,-0.0,-0.0,2.0,0.282024,0.279927,0.282024,0.284099,,,,,,,0.004609,-0.004642,-0.222904,0.024102,0.000273,1.8e-05
491157,0.004101,-0.007004,-0.320743,0.0,-0.0,-0.0,2.0,0.282024,0.278376,0.282024,0.285606,,,,,,,0.004831,-0.004636,-0.222903,-0.0,0.000286,2.9e-05
491177,0.004202,-0.006864,-0.320743,0.0,-0.0,-0.0,2.0,0.282024,0.278043,0.282024,0.285926,,,,,,,0.004932,-0.004631,-0.222903,-7.4e-05,0.000299,2.9e-05
491197,0.004081,-0.006883,-0.320743,0.0,-0.0,-0.0,2.0,0.282024,0.278102,0.282024,0.285869,,,,,,,0.004932,-0.004625,-0.222902,-0.024004,0.000297,2.9e-05
491217,0.00384,-0.006922,-0.320744,0.0,-0.0,-0.0,2.0,0.282024,0.272858,0.282024,0.290781,,,,,,,0.004571,-0.004619,-0.222901,-2.3e-05,0.000292,2.9e-05
491237,0.003478,-0.006981,-0.320631,0.087266,-0.0,-0.0,2.0,0.282024,0.217414,0.282024,0.330099,,,,,,,0.00445,-0.004613,-0.222901,-0.048083,0.000286,4e-05
491257,0.003498,-0.007101,-0.320746,0.087266,-0.0,-0.0,2.0,0.282024,0.217809,0.282024,0.329886,,,,,,,0.004228,-0.004607,-0.2229,1.6e-05,0.000273,2.8e-05
491277,0.003739,-0.007062,-0.320745,0.087266,-0.0,-0.0,2.0,0.282024,0.221167,0.282024,0.328041,,,,,,,0.004348,-0.004602,-0.2229,0.02418,0.000277,2.8e-05
491297,0.004843,-0.007008,-0.320625,0.087266,-0.0,-0.0,2.0,0.282024,0.231083,0.282024,0.322229,,,,,,,0.005211,-0.004596,-0.222899,0.072207,0.000282,4e-05
491317,0.006931,-0.006917,-0.320614,0.087266,-0.0,-0.0,2.0,0.282024,0.245947,0.282024,0.312426,,,,,,,0.007037,-0.00459,-0.222898,0.124237,0.00029,4.1e-05
491337,0.010123,-0.006772,-0.320707,0.087266,-0.0,-0.0,2.0,0.282024,0.261179,0.282024,0.300857,,,,,,,0.009866,-0.004585,-0.222897,0.19661,0.000304,3.2e-05
491357,0.014198,-0.006729,-0.32096,0.087266,-0.0,-0.0,2.0,0.282024,0.275841,0.282024,0.288018,,,,,,,0.013799,-0.004578,-0.222897,0.225005,0.000308,7e-06
491377,0.019497,-0.00661,-0.321134,0.087266,-0.0,-0.0,2.0,0.282024,0.28667,0.282024,0.277266,,,,,,,0.018757,-0.004572,-0.222897,0.292915,0.000319,-1.1e-05
491397,0.025701,-0.006711,-0.32174,0.087266,-0.0,-0.0,2.0,0.282024,0.301789,0.282024,0.260031,,,,,,,0.024818,-0.004566,-0.222898,0.321451,0.000308,-7.1e-05
491417,0.032526,-0.006831,-0.322144,0.087266,-0.0,-0.0,2.0,0.282024,0.310942,0.282024,0.248027,,,,,,,0.031504,-0.00456,-0.222899,0.349107,0.000296,-0.000111
491437,0.039574,-0.006786,-0.322695,0.087266,-0.0,-0.0,2.0,0.282024,0.316148,0.282024,0.240545,,,,,,,0.038549,-0.004554,-0.222902,0.349551,0.0003,-0.000166
491457,0.046641,-0.006859,-0.323107,0.087266,-0.0,-0.0,2.0,0.282024,0.320225,0.282024,0.234294,,,,,,,0.045616,-0.004548,-0.222905,0.349689,0.000292,-0.000207
491477,0.053247,-0.007131,-0.32339,0.087266,-0.0,-0.0,2.0,0.282024,0.315787,0.282024,0.241081,,,,,,,0.052223,-0.004542,-0.22291,0.349446,0.000264,-0.000235
491497,0.059091,-0.007278,-0.323678,0.087266,-0.0,-0.0,2.0,0.282024,0.313088,0.282024,0.245007,,,,,,,0.058448,-0.004537,-0.222915,0.273535,0.000249,-0.000263
491517,0.064088,-0.007564,-0.3238,0.087266,-0.0,-0.0,2.0,0.282024,0.3082,0.282024,0.251767,,,,,,,0.063671,-0.004532,-0.22292,0.22859,0.00022,-0.000275
491537,0.067862,-0.007935,-0.323723,0.087266,-0.0,-0.0,2.0,0.282024,0.298353,0.282024,0.264206,,,,,,,0.067706,-0.004528,-0.222925,0.176517,0.000182,-0.000267
491557,0.070633,-0.008222,-0.323676,0.087266,-0.0,-0.0,2.0,0.282024,0.284128,0.282024,0.279898,,,,,,,0.0706,-0.004524,-0.222931,0.152139,0.000153,-0.000261
491577,0.072441,-0.008668,-0.323656,0.087266,-0.0,-0.0,2.0,0.282024,0.277252,0.282024,0.286683,,,,,,,0.072769,-0.004522,-0.222936,0.080077,0.000108,-0.000259
491597,0.073363,-0.009016,-0.323498,0.087266,-0.0,-0.0,2.0,0.282024,0.271267,0.282024,0.292221,,,,,,,0.073952,-0.00452,-0.222941,0.02821,7.3e-05,-0.000243
491617,0.073803,-0.009443,-0.323355,0.087266,-0.0,-0.0,2.0,0.282024,0.26029,0.282024,0.301579,,,,,,,0.074393,-0.004518,-0.222945,0.027929,3e-05,-0.000228
491637,0.073963,-0.009668,-0.323229,0.087266,-0.0,-0.0,2.0,0.282024,0.257892,0.282024,0.303496,,,,,,,0.074673,-0.004518,-0.22295,0.003913,8e-06,-0.000215
491657,0.074344,-0.009734,-0.323098,0.087266,-0.0,-0.0,2.0,0.282024,0.259923,0.282024,0.301875,,,,,,,0.074953,-0.004518,-0.222954,0.024097,1e-06,-0.000201
491677,0.074965,-0.00976,-0.322959,0.087266,-0.0,-0.0,2.0,0.282024,0.261231,0.282024,0.300815,,,,,,,0.075435,-0.004518,-0.222958,0.051956,-1e-06,-0.000187
491697,0.076088,-0.009828,-0.3228,0.087266,-0.0,-0.0,2.0,0.282024,0.269119,0.282024,0.294131,,,,,,,0.076577,-0.004518,-0.222962,0.048175,-8e-06,-0.000171
491717,0.078074,-0.009883,-0.322492,0.087266,-0.0,-0.0,2.0,0.282024,0.279481,0.282024,0.284535,,,,,,,0.078301,-0.004518,-0.222965,0.100236,-1.4e-05,-0.00014
491737,0.080565,-0.009976,-0.322332,0.087266,-0.0,-0.0,2.0,0.282024,0.285762,0.282024,0.278214,,,,,,,0.080532,-0.004518,-0.222967,0.152184,-2.3e-05,-0.000123
491757,0.083558,-0.01011,-0.322146,0.087266,-0.0,-0.0,2.0,0.282024,0.29388,0.282024,0.269403,,,,,,,0.083538,-0.004519,-0.222969,0.149395,-3.6e-05,-0.000105
491777,0.087292,-0.010241,-0.322038,0.087266,-0.0,-0.0,2.0,0.282024,0.301512,0.282024,0.260373,,,,,,,0.087036,-0.00452,-0.222971,0.196397,-4.9e-05,-9.4e-05
491797,0.091513,-0.010293,-0.321961,0.087266,-0.0,-0.0,2.0,0.282024,0.311307,0.282024,0.24752,,,,,,,0.091231,-0.004521,-0.222973,0.201626,-5.4e-05,-8.6e-05
491817,0.095834,-0.010193,-0.322104,0.087266,-0.0,-0.0,2.0,0.282024,0.312778,0.282024,0.245448,,,,,,,0.095452,-0.004522,-0.222975,0.221568,-4.4e-05,-0.0001
491837,0.100315,-0.010312,-0.322223,0.087266,-0.0,-0.0,2.0,0.282024,0.316182,0.282024,0.240495,,,,,,,0.099913,-0.004523,-0.222977,0.225576,-5.6e-05,-0.000112
491857,0.104536,-0.010349,-0.322349,0.087266,-0.0,-0.0,2.0,0.282024,0.316504,0.282024,0.240013,,,,,,,0.104254,-0.004524,-0.222979,0.201607,-6e-05,-0.000124
491877,0.108495,-0.010298,-0.322598,0.087266,-0.0,-0.0,2.0,0.282024,0.317149,0.282024,0.239044,,,,,,,0.108361,-0.004525,-0.222982,0.172369,-5.4e-05,-0.000149
491897,0.111854,-0.010351,-0.322755,0.087266,-0.0,-0.0,2.0,0.282024,0.311658,0.282024,0.24703,,,,,,,0.11172,-0.004526,-0.222985,0.172151,-6e-05,-0.000164
491917,0.114445,-0.010288,-0.322783,0.087266,-0.0,-0.0,2.0,0.282024,0.308312,0.282024,0.251617,,,,,,,0.114693,-0.004527,-0.222988,0.096234,-5.3e-05,-0.000166
491937,0.116563,-0.010311,-0.322776,0.087266,-0.0,-0.0,2.0,0.282024,0.304478,0.282024,0.256642,,,,,,,0.116923,-0.004529,-0.222992,0.073775,-5.5e-05,-0.000165
491957,0.117824,-0.010467,-0.32281,0.087266,-0.0,-0.0,2.0,0.282024,0.296769,0.282024,0.266077,,,,,,,0.118293,-0.00453,-0.222995,0.052119,-7.1e-05,-0.000168
491977,0.118325,-0.010508,-0.322779,0.087266,-0.0,-0.0,2.0,0.282024,0.289703,0.282024,0.274032,,,,,,,0.119055,-0.004531,-0.222998,0.000114,-7.5e-05,-0.000165
491997,0.118466,-0.010615,-0.322651,0.087266,-0.0,-0.0,2.0,0.282024,0.285172,0.282024,0.278825,,,,,,,0.119296,-0.004533,-0.223002,-0.020038,-8.5e-05,-0.000152
492017,0.118205,-0.010535,-0.32267,0.087266,-0.0,-0.0,2.0,0.282024,0.282332,0.282024,0.281715,,,,,,,0.119176,-0.004534,-0.223004,-0.020053,-8.7e-05,-0.000152
492037,0.117825,-0.010474,-0.322696,0.087266,-0.0,-0.0,2.0,0.282024,0.279176,0.282024,0.284831,,,,,,,0.118676,-0.004536,-0.223008,-0.024054,-7.1e-05,-0.000156
492057,0.117565,-0.010393,-0.322714,0.087266,-0.0,-0.0,2.0,0.282024,0.281436,0.282024,0.282611,,,,,,,0.118435,-0.004537,-0.223011,-0.027871,-6.3e-05,-0.000157
492077,0.117705,-0.010494,-0.322702,0.087266,-0.0,-0.0,2.0,0.282024,0.28467,0.282024,0.279342,,,,,,,0.118435,-0.004539,-0.223014,-1e-06,-7.3e-05,-0.000156
492097,0.118326,-0.010515,-0.322664,0.087266,-0.0,-0.0,2.0,0.282024,0.288995,0.282024,0.274797,,,,,,,0.118795,-0.00454,-0.223017,0.051921,-7.5e-05,-0.000152
492117,0.119194,-0.010496,-0.322672,0.087266,-0.0,-0.0,2.0,0.282024,0.294916,0.282024,0.268223,,,,,,,0.119683,-0.004541,-0.22302,0.048128,-7.3e-05,-0.000152
492137,0.120557,-0.010519,-0.32259,0.087266,-0.0,-0.0,2.0,0.282024,0.29974,0.282024,0.262541,,,,,,,0.120925,-0.004543,-0.223023,0.072045,-7.5e-05,-0.000144
492157,0.122186,-0.010621,-0.322545,0.087266,-0.0,-0.0,2.0,0.282024,0.303852,0.282024,0.257441,,,,,,,0.122535,-0.004545,-0.223026,0.076067,-8.5e-05,-0.000139
492177,0.123916,-0.010576,-0.322613,0.087266,-0.0,-0.0,2.0,0.282024,0.307461,0.282024,0.252754,,,,,,,0.124264,-0.004546,-0.223029,0.076044,-8e-05,-0.000145
492197,0.125766,-0.010519,-0.322559,0.087266,-0.0,-0.0,2.0,0.282024,0.308742,0.282024,0.251038,,,,,,,0.126014,-0.004548,-0.223031,0.096088,-7.4e-05,-0.00014
492217,0.127516,-0.010601,-0.322504,0.087266,-0.0,-0.0,2.0,0.282024,0.308939,0.282024,0.250773,,,,,,,0.127865,-0.004549,-0.223034,0.076073,-8.2e-05,-0.000134
492237,0.129106,-0.010455,-0.322582,0.087266,-0.0,-0.0,2.0,0.282024,0.307349,0.282024,0.252902,,,,,,,0.129475,-0.004551,-0.223037,0.071923,-6.8e-05,-0.000141
492257,0.130355,-0.010497,-0.322558,0.087266,-0.0,-0.0,2.0,0.282024,0.306627,0.282024,0.253855,,,,,,,0.130844,-0.004552,-0.22304,0.048111,-7.2e-05,-0.000139
492277,0.131217,-0.010478,-0.322503,0.087266,-0.0,-0.0,2.0,0.282024,0.304733,0.282024,0.256315,,,,,,,0.131826,-0.004554,-0.223042,0.02414,-7e-05,-0.000133
492297,0.131725,-0.010518,-0.322526,0.087266,-0.0,-0.0,2.0,0.282024,0.300642,0.282024,0.261442,,,,,,,0.132327,-0.004555,-0.223045,0.025638,-7.3e-05,-0.000135
492317,0.131597,-0.010539,-0.322475,0.087266,-0.0,-0.0,2.0,0.282024,0.295734,0.282024,0.267281,,,,,,,0.132335,-0.004557,-0.223048,-0.001597,-7.5e-05,-0.00013
492337,0.131236,-0.010598,-0.322495,0.087266,-0.0,-0.0,2.0,0.282024,0.292189,0.282024,0.271303,,,,,,,0.132087,-0.004558,-0.22305,-0.024039,-8.1e-05,-0.000131
492357,0.130856,-0.010538,-0.322523,0.087266,-0.0,-0.0,2.0,0.282024,0.293672,0.282024,0.269639,,,,,,,0.131707,-0.00456,-0.223053,-0.023943,-7.5e-05,-0.000134
492377,0.130336,-0.010385,-0.322451,0.087266,-0.0,-0.0,2.0,0.282024,0.292066,0.282024,0.271439,,,,,,,0.131207,-0.004561,-0.223055,-0.027957,-5.9e-05,-0.000127
492397,0.130216,-0.010404,-0.322457,0.087266,-0.0,-0.0,2.0,0.282024,0.292915,0.282024,0.270492,,,,,,,0.130827,-0.004562,-0.223058,0.023848,-6.1e-05,-0.000127
492417,0.130216,-0.010404,-0.322457,0.087266,-0.0,-0.0,2.0,0.282024,0.298675,0.282024,0.263822,,,,,,,0.130927,-0.004564,-0.223061,0.003995,-6.1e-05,-0.000127
492437,0.130578,-0.010353,-0.322323,0.087266,-0.0,-0.0,2.0,0.282024,0.30387,0.282024,0.257418,,,,,,,0.131307,-0.004565,-0.223063,0.000197,-5.6e-05,-0.000113
492457,0.131098,-0.010514,-0.322281,0.087266,-0.0,-0.0,2.0,0.282024,0.303195,0.282024,0.258272,,,,,,,0.131688,-0.004566,-0.223065,0.027959,-7.2e-05,-0.000109
492477,0.131698,-0.010407,-0.322362,0.087266,-0.0,-0.0,2.0,0.282024,0.305848,0.282024,0.254874,,,,,,,0.132308,-0.004567,-0.223067,0.024013,-6.1e-05,-0.000116
492497,0.132226,-0.010567,-0.322377,0.087266,-0.0,-0.0,2.0,0.282024,0.305016,0.282024,0.255951,,,,,,,0.132816,-0.004569,-0.22307,0.027956,-7.7e-05,-0.000118
492517,0.132486,-0.01064,-0.32247,0.087266,-0.0,-0.0,2.0,0.282024,0.304541,0.282024,0.256561,,,,,,,0.133216,-0.00457,-0.223072,0.000115,-8.4e-05,-0.000127
492537,0.132605,-0.010612,-0.322577,0.087266,-0.0,-0.0,2.0,0.282024,0.302036,0.282024,0.259723,,,,,,,0.133336,-0.004572,-0.223075,1.6e-05,-8.1e-05,-0.000137
492557,0.132465,-0.010512,-0.322592,0.087266,-0.0,-0.0,2.0,0.282024,0.301726,0.282024,0.260108,,,,,,,0.133336,-0.004573,-0.223077,-0.027843,-7.1e-05,-0.000138
492577,0.132345,-0.010531,-0.322598,0.087266,-0.0,-0.0,2.0,0.282024,0.300212,0.282024,0.261967,,,,,,,0.133076,-0.004575,-0.22308,1e-06,-7.3e-05,-0.000139
492597,0.131985,-0.010591,-0.322619,0.087266,-0.0,-0.0,2.0,0.282024,0.29727,0.282024,0.265488,,,,,,,0.132696,-0.004576,-0.223083,0.003806,-7.9e-05,-0.000141
492617,0.131484,-0.01055,-0.322654,0.087266,-0.0,-0.0,2.0,0.282024,0.298743,0.282024,0.263741,,,,,,,0.132455,-0.004578,-0.223086,-0.047991,-7.4e-05,-0.000144
492637,0.131356,-0.010579,-0.322489,0.087266,-0.0,-0.0,2.0,0.282024,0.298698,0.282024,0.263794,,,,,,,0.132087,-0.004579,-0.223088,-9.8e-05,-7.7e-05,-0.000127
492657,0.131217,-0.010486,-0.322389,0.087266,-0.0,-0.0,2.0,0.282024,0.302003,0.282024,0.259765,,,,,,,0.131948,-0.004581,-0.223091,0.0,-6.8e-05,-0.000117
492677,0.131199,-0.010382,-0.322168,0.087266,-0.0,-0.0,2.0,0.282024,0.303212,0.282024,0.258251,,,,,,,0.131929,-0.004582,-0.223093,0.000134,-5.7e-05,-9.4e-05
492697,0.13146,-0.010471,-0.322033,0.087266,-0.0,-0.0,2.0,0.282024,0.304409,0.282024,0.256731,,,,,,,0.13205,-0.004583,-0.223095,0.027989,-6.6e-05,-8.1e-05
492717,0.131579,-0.010443,-0.32214,0.087266,-0.0,-0.0,2.0,0.282024,0.30713,0.282024,0.253192,,,,,,,0.132309,-0.004584,-0.223097,9.9e-05,-6.3e-05,-9.1e-05
492737,0.131599,-0.010563,-0.322133,0.087266,-0.0,-0.0,2.0,0.282024,0.305402,0.282024,0.255453,,,,,,,0.13233,-0.004586,-0.223098,-0.000114,-7.5e-05,-9e-05
492757,0.131479,-0.010583,-0.322139,0.087266,-0.0,-0.0,2.0,0.282024,0.302968,0.282024,0.258559,,,,,,,0.132209,-0.004587,-0.2231,-9.9e-05,-7.7e-05,-9.1e-05
492777,0.131219,-0.010502,-0.32216,0.087266,-0.0,-0.0,2.0,0.282024,0.302182,0.282024,0.259542,,,,,,,0.131989,-0.004589,-0.223102,-0.007909,-6.8e-05,-9.3e-05
492797,0.130977,-0.010534,-0.322288,0.087266,-0.0,-0.0,2.0,0.282024,0.304125,0.282024,0.257093,,,,,,,0.131828,-0.00459,-0.223104,-0.023965,-7.1e-05,-0.000105
492817,0.130617,-0.010593,-0.322308,0.087266,-0.0,-0.0,2.0,0.282024,0.303481,0.282024,0.257911,,,,,,,0.131448,-0.004592,-0.223106,-0.020047,-7.7e-05,-0.000107
492837,0.130449,-0.010373,-0.322272,0.087266,-0.0,-0.0,2.0,0.282024,0.304629,0.282024,0.256449,,,,,,,0.1312,-0.004593,-0.223108,-0.004045,-5.5e-05,-0.000103
492857,0.13021,-0.010421,-0.322172,0.087266,-0.0,-0.0,2.0,0.282024,0.305946,0.282024,0.254746,,,,,,,0.13106,-0.004594,-0.22311,-0.023946,-6e-05,-9.3e-05
492877,0.13007,-0.010321,-0.322186,0.087266,-0.0,-0.0,2.0,0.282024,0.304241,0.282024,0.256946,,,,,,,0.130801,-0.004595,-0.223112,-9.9e-05,-5e-05,-9.4e-05
492897,0.129931,-0.010228,-0.322085,0.087266,-0.0,-0.0,2.0,0.282024,0.30642,0.282024,0.254126,,,,,,,0.1307,-0.004596,-0.223114,-0.007804,-4e-05,-8.4e-05
492917,0.12983,-0.010368,-0.322085,0.087266,-0.0,-0.0,2.0,0.282024,0.307091,0.282024,0.253244,,,,,,,0.13056,-0.004597,-0.223115,0.0,-5.4e-05,-8.4e-05
492937,0.129729,-0.010508,-0.322084,0.087266,-0.0,-0.0,2.0,0.282024,0.307474,0.282024,0.252736,,,,,,,0.130441,-0.004598,-0.223117,0.003781,-6.8e-05,-8.4e-05
492957,0.12959,-0.010416,-0.321984,0.087266,-0.0,-0.0,2.0,0.282024,0.307078,0.282024,0.253261,,,,,,,0.13032,-0.0046,-0.223118,1e-06,-5.9e-05,-7.4e-05
492977,0.12935,-0.010455,-0.321997,0.087266,-0.0,-0.0,2.0,0.282024,0.307656,0.282024,0.252494,,,,,,,0.1302,-0.004601,-0.22312,-0.023926,-6.3e-05,-7.5e-05
492997,0.129201,-0.010348,-0.322068,0.087266,-0.0,-0.0,2.0,0.282024,0.306253,0.282024,0.254346,,,,,,,0.12994,-0.004602,-0.223122,-0.001666,-5.2e-05,-8.2e-05
493017,0.128941,-0.010267,-0.322089,0.087266,-0.0,-0.0,2.0,0.282024,0.30561,0.282024,0.255183,,,,,,,0.129692,-0.004603,-0.223123,-0.00401,-4.4e-05,-8.4e-05
493037,0.128561,-0.010206,-0.322116,0.087266,-0.0,-0.0,2.0,0.282024,0.306334,0.282024,0.25424,,,,,,,0.129432,-0.004604,-0.223125,-0.027957,-3.7e-05,-8.6e-05
493057,0.1282,-0.010258,-0.32225,0.087266,-0.0,-0.0,2.0,0.282024,0.30541,0.282024,0.255443,,,,,,,0.129051,-0.004605,-0.223127,-0.024188,-4.2e-05,-9.9e-05
493077,0.12784,-0.010325,-0.322156,0.087266,-0.0,-0.0,2.0,0.282024,0.304917,0.282024,0.256079,,,,,,,0.128551,-0.004606,-0.223129,0.0038,-4.9e-05,-9e-05
493097,0.127339,-0.010284,-0.322189,0.087266,-0.0,-0.0,2.0,0.282024,0.305641,0.282024,0.255142,,,,,,,0.128189,-0.004606,-0.223131,-0.02392,-4.5e-05,-9.3e-05
493117,0.12673,-0.010383,-0.322165,0.087266,-0.0,-0.0,2.0,0.282024,0.305645,0.282024,0.255138,,,,,,,0.127701,-0.004607,-0.223132,-0.047977,-5.5e-05,-9e-05
493137,0.126229,-0.010342,-0.322198,0.087266,-0.0,-0.0,2.0,0.282024,0.305458,0.282024,0.25538,,,,,,,0.12708,-0.004608,-0.223134,-0.024034,-5.1e-05,-9.3e-05
493157,0.12571,-0.010189,-0.322124,0.087266,-0.0,-0.0,2.0,0.282024,0.305673,0.282024,0.255102,,,,,,,0.126581,-0.004609,-0.223136,-0.027959,-3.5e-05,-8.6e-05
493177,0.125081,-0.010168,-0.322106,0.087266,-0.0,-0.0,2.0,0.282024,0.30525,0.282024,0.255649,,,,,,,0.125952,-0.00461,-0.223138,-0.027959,-3.3e-05,-8.4e-05
493197,0.124561,-0.010007,-0.322146,0.087266,-0.0,-0.0,2.0,0.282024,0.303302,0.282024,0.258137,,,,,,,0.125312,-0.00461,-0.223139,-0.00411,-1.7e-05,-8.8e-05
493217,0.12396,-0.010106,-0.322178,0.087266,-0.0,-0.0,2.0,0.282024,0.305604,0.282024,0.255191,,,,,,,0.124831,-0.004611,-0.223141,-0.027961,-2.7e-05,-9.1e-05
493237,0.123471,-0.010186,-0.322146,0.087266,-0.0,-0.0,2.0,0.282024,0.305639,0.282024,0.255146,,,,,,,0.124303,-0.004612,-0.223143,-0.020156,-3.5e-05,-8.7e-05
493257,0.122971,-0.010144,-0.322178,0.087266,-0.0,-0.0,2.0,0.282024,0.303801,0.282024,0.257506,,,,,,,0.123703,-0.004612,-0.223145,-0.000317,-3e-05,-9e-05
493277,0.12247,-0.010103,-0.322211,0.087266,-0.0,-0.0,2.0,0.282024,0.307446,0.282024,0.252774,,,,,,,0.123321,-0.004613,-0.223146,-0.02395,-2.6e-05,-9.3e-05
493297,0.121989,-0.010183,-0.322236,0.087266,-0.0,-0.0,2.0,0.282024,0.306322,0.282024,0.254255,,,,,,,0.122821,-0.004613,-0.223148,-0.020143,-3.4e-05,-9.6e-05
493317,0.121601,-0.010122,-0.322204,0.087266,-0.0,-0.0,2.0,0.282024,0.307053,0.282024,0.253294,,,,,,,0.122452,-0.004614,-0.22315,-0.02405,-2.8e-05,-9.2e-05
493337,0.121221,-0.010069,-0.322116,0.087266,-0.0,-0.0,2.0,0.282024,0.309195,0.282024,0.250425,,,,,,,0.122091,-0.004614,-0.223152,-0.027748,-2.3e-05,-8.3e-05
493357,0.120721,-0.010028,-0.322148,0.087266,-0.0,-0.0,2.0,0.282024,0.306937,0.282024,0.253446,,,,,,,0.121591,-0.004615,-0.223154,-0.027962,-1.8e-05,-8.6e-05
493377,0.12036,-0.010087,-0.322166,0.087266,-0.0,-0.0,2.0,0.282024,0.30723,0.282024,0.253059,,,,,,,0.121211,-0.004615,-0.223155,-0.02407,-2.4e-05,-8.8e-05
493397,0.119992,-0.010147,-0.322128,0.087266,-0.0,-0.0,2.0,0.282024,0.309123,0.282024,0.250523,,,,,,,0.120843,-0.004616,-0.223157,-0.023975,-3e-05,-8.4e-05
493417,0.119511,-0.010226,-0.322152,0.087266,-0.0,-0.0,2.0,0.282024,0.305767,0.282024,0.25498,,,,,,,0.120343,-0.004617,-0.223159,-0.02026,-3.8e-05,-8.6e-05
493437,0.11913,-0.010165,-0.322178,0.087266,-0.0,-0.0,2.0,0.282024,0.307764,0.282024,0.25235,,,,,,,0.119981,-0.004617,-0.223161,-0.024052,-3.2e-05,-8.9e-05
493457,0.118649,-0.010244,-0.322202,0.087266,-0.0,-0.0,2.0,0.282024,0.309551,0.282024,0.249942,,,,,,,0.119601,-0.004618,-0.223162,-0.044001,-4e-05,-9.1e-05
493477,0.118249,-0.010063,-0.322234,0.087266,-0.0,-0.0,2.0,0.282024,0.307876,0.282024,0.2522,,,,,,,0.11912,-0.004618,-0.223164,-0.027964,-2.2e-05,-9.4e-05
493497,0.117881,-0.010123,-0.322195,0.087266,-0.0,-0.0,2.0,0.282024,0.307517,0.282024,0.252679,,,,,,,0.118612,-0.004619,-0.223166,-9.8e-05,-2.8e-05,-9e-05
493517,0.11726,-0.010101,-0.322232,0.087266,-0.0,-0.0,2.0,0.282024,0.306922,0.282024,0.253467,,,,,,,0.118111,-0.004619,-0.223168,-0.024073,-2.5e-05,-9.3e-05
493537,0.116639,-0.01008,-0.322269,0.087266,-0.0,-0.0,2.0,0.282024,0.305199,0.282024,0.255716,,,,,,,0.11751,-0.00462,-0.22317,-0.028064,-2.3e-05,-9.7e-05
493557,0.116158,-0.010159,-0.322293,0.087266,-0.0,-0.0,2.0,0.282024,0.308504,0.282024,0.251359,,,,,,,0.117009,-0.004621,-0.223172,-0.023955,-3.1e-05,-9.9e-05
493577,0.11555,-0.010259,-0.322266,0.087266,-0.0,-0.0,2.0,0.282024,0.304311,0.282024,0.256856,,,,,,,0.116261,-0.004621,-0.223174,0.003694,-4.1e-05,-9.6e-05
493597,0.114808,-0.010257,-0.322308,0.087266,-0.0,-0.0,2.0,0.282024,0.30689,0.282024,0.253509,,,,,,,0.11578,-0.004622,-0.223176,-0.048014,-4.1e-05,-0.0001
493617,0.114308,-0.010223,-0.322225,0.087266,-0.0,-0.0,2.0,0.282024,0.307416,0.282024,0.252814,,,,,,,0.115179,-0.004623,-0.223178,-0.027951,-3.7e-05,-9.2e-05
493637,0.113579,-0.010342,-0.322203,0.087266,-0.0,-0.0,2.0,0.282024,0.306975,0.282024,0.253397,,,,,,,0.114551,-0.004624,-0.223179,-0.047998,-4.9e-05,-8.9e-05
493657,0.112958,-0.01032,-0.322239,0.087266,-0.0,-0.0,2.0,0.282024,0.306808,0.282024,0.253617,,,,,,,0.11393,-0.004625,-0.223181,-0.048034,-4.7e-05,-9.3e-05
493677,0.112458,-0.010279,-0.322268,0.087266,-0.0,-0.0,2.0,0.282024,0.304734,0.282024,0.256314,,,,,,,0.113209,-0.004626,-0.223183,-0.004105,-4.2e-05,-9.6e-05
493697,0.11183,-0.010258,-0.322246,0.087266,-0.0,-0.0,2.0,0.282024,0.306811,0.282024,0.253613,,,,,,,0.1127,-0.004626,-0.223185,-0.027967,-4e-05,-9.3e-05
493717,0.111229,-0.010364,-0.322161,0.087266,-0.0,-0.0,2.0,0.282024,0.306356,0.282024,0.254211,,,,,,,0.11208,-0.004627,-0.223187,-0.024075,-5.1e-05,-8.4e-05
493737,0.110747,-0.010436,-0.322299,0.087266,-0.0,-0.0,2.0,0.282024,0.306859,0.282024,0.253549,,,,,,,0.111579,-0.004628,-0.223189,-0.020165,-5.8e-05,-9.8e-05
493757,0.110246,-0.010395,-0.322328,0.087266,-0.0,-0.0,2.0,0.282024,0.307204,0.282024,0.253094,,,,,,,0.111097,-0.00463,-0.22319,-0.02406,-5.4e-05,-0.000101
493777,0.109879,-0.010455,-0.322288,0.087266,-0.0,-0.0,2.0,0.282024,0.308275,0.282024,0.251667,,,,,,,0.11071,-0.004631,-0.223192,-0.020152,-6e-05,-9.7e-05
493797,0.109378,-0.010413,-0.322317,0.087266,-0.0,-0.0,2.0,0.282024,0.307697,0.282024,0.252439,,,,,,,0.110248,-0.004632,-0.223194,-0.027952,-5.5e-05,-9.9e-05
493817,0.108897,-0.010492,-0.32234,0.087266,-0.0,-0.0,2.0,0.282024,0.307357,0.282024,0.252891,,,,,,,0.109748,-0.004633,-0.223196,-0.024061,-6.3e-05,-0.000101
493837,0.108376,-0.010331,-0.322375,0.087266,-0.0,-0.0,2.0,0.282024,0.30608,0.282024,0.254571,,,,,,,0.109247,-0.004634,-0.223198,-0.028068,-4.7e-05,-0.000105
493857,0.107895,-0.01041,-0.322398,0.087266,-0.0,-0.0,2.0,0.282024,0.307281,0.282024,0.252992,,,,,,,0.108766,-0.004635,-0.2232,-0.027971,-5.5e-05,-0.000107
493877,0.107407,-0.010496,-0.322248,0.087266,-0.0,-0.0,2.0,0.282024,0.307095,0.282024,0.253239,,,,,,,0.108258,-0.004636,-0.223202,-0.023978,-6.3e-05,-9.2e-05
493897,0.107047,-0.010555,-0.322265,0.087266,-0.0,-0.0,2.0,0.282024,0.306805,0.282024,0.253621,,,,,,,0.107758,-0.004637,-0.223204,0.003794,-6.9e-05,-9.3e-05
493917,0.106565,-0.010634,-0.322288,0.087266,-0.0,-0.0,2.0,0.282024,0.307085,0.282024,0.253251,,,,,,,0.107397,-0.004639,-0.223206,-0.02017,-7.7e-05,-9.5e-05
493937,0.106185,-0.010573,-0.322311,0.087266,-0.0,-0.0,2.0,0.282024,0.30818,0.282024,0.251794,,,,,,,0.107036,-0.00464,-0.223208,-0.024064,-7e-05,-9.7e-05
493957,0.105938,-0.010613,-0.322264,0.087266,-0.0,-0.0,2.0,0.282024,0.308641,0.282024,0.251174,,,,,,,0.106675,-0.004642,-0.22321,-0.001374,-7.4e-05,-9.2e-05
493977,0.105557,-0.010559,-0.322173,0.087266,-0.0,-0.0,2.0,0.282024,0.309805,0.282024,0.249595,,,,,,,0.106408,-0.004643,-0.223212,-0.023883,-6.9e-05,-8.3e-05
493997,0.105197,-0.010618,-0.322189,0.087266,-0.0,-0.0,2.0,0.282024,0.308642,0.282024,0.251174,,,,,,,0.106047,-0.004644,-0.223214,-0.023986,-7.4e-05,-8.5e-05
494017,0.104936,-0.010531,-0.32232,0.087266,-0.0,-0.0,2.0,0.282024,0.308767,0.282024,0.251005,,,,,,,0.105807,-0.004645,-0.223215,-0.02405,-7.8e-05,-8.6e-05
494037,0.104575,-0.010596,-0.322223,0.087266,-0.0,-0.0,2.0,0.282024,0.309969,0.282024,0.24937,,,,,,,0.105446,-0.004647,-0.223217,-0.027872,-7.2e-05,-8.8e-05
494057,0.104214,-0.010649,-0.322353,0.087266,-0.0,-0.0,2.0,0.282024,0.308263,0.282024,0.251684,,,,,,,0.105066,-0.004649,-0.223219,-0.024156,-7.7e-05,-0.0001
