time_ms,roll,pitch,yaw,reference_roll,reference_pitch,reference_yaw,reference_throttle,throttle_1,throttle_2,throttle_3,throttle_4,roll_predicted,pitch_predicted,yaw_predicted,roll_rate_predicted,pitch_rate_predicted,yaw_rate_predicted,value1,value2,value3,value4,value5,value6
297737,-8e-05,-0.018007,-0.276851,0.0,-0.0,-0.0,2.0,0.282024,0.271086,0.282024,0.292384,,,,,,,0.00065,-0.013245,-0.176023,0.0,4.7e-05,-0.00027
297757,-0.000322,-0.01804,-0.276853,0.0,-0.0,-0.0,2.0,0.282024,0.269973,0.282024,0.293377,,,,,,,0.000529,-0.013244,-0.176029,-0.024081,4.3e-05,-0.000269
297777,-0.000565,-0.018074,-0.276739,0.0,-0.0,-0.0,2.0,0.282024,0.267537,0.282024,0.295513,,,,,,,0.000287,-0.013244,-0.176034,-0.024183,4e-05,-0.000257
297797,-0.000703,-0.01797,-0.27674,0.0,-0.0,-0.0,2.0,0.282024,0.26988,0.282024,0.293459,,,,,,,0.000166,-0.013243,-0.176039,-0.027654,5e-05,-0.000257
297817,-0.000564,-0.018074,-0.276855,0.0,-0.0,-0.0,2.0,0.282024,0.27272,0.282024,0.290907,,,,,,,0.000166,-0.013242,-0.176044,9.9e-05,4e-05,-0.000268
297837,-0.000443,-0.018057,-0.276854,0.0,-0.0,-0.0,2.0,0.282024,0.271885,0.282024,0.291664,,,,,,,0.000287,-0.013241,-0.17605,-1e-06,4.1e-05,-0.000267
297857,-0.000201,-0.018023,-0.276852,0.0,-0.0,-0.0,2.0,0.282024,0.272564,0.282024,0.291048,,,,,,,0.000529,-0.01324,-0.176055,-1e-06,4.5e-05,-0.000267
297877,-6.4e-05,-0.018127,-0.276851,0.0,-0.0,-0.0,2.0,0.282024,0.274872,0.282024,0.288925,,,,,,,0.000788,-0.013239,-0.176061,-0.024186,3.4e-05,-0.000266
297897,4.2e-05,-0.01799,-0.276967,0.0,-0.0,-0.0,2.0,0.282024,0.269227,0.282024,0.294036,,,,,,,0.00065,-0.013239,-0.176066,0.024199,4.8e-05,-0.000277
297917,-0.000201,-0.018023,-0.276852,0.0,-0.0,-0.0,2.0,0.282024,0.267091,0.282024,0.295898,,,,,,,0.000546,-0.013238,-0.176071,-0.003453,4.4e-05,-0.000265
297937,-0.000547,-0.018195,-0.276855,0.0,-0.0,-0.0,2.0,0.282024,0.266968,0.282024,0.296004,,,,,,,0.000288,-0.013237,-0.176077,-0.020828,2.7e-05,-0.000265
297957,-0.000684,-0.018091,-0.276972,0.0,-0.0,-0.0,2.0,0.282024,0.269143,0.282024,0.29411,,,,,,,4.7e-05,-0.013236,-0.176082,0.0,3.7e-05,-0.000276
297977,-0.000684,-0.018091,-0.276972,0.0,-0.0,-0.0,2.0,0.282024,0.268731,0.282024,0.294472,,,,,,,-7.4e-05,-0.013236,-0.176088,0.024068,3.7e-05,-0.000275
297997,-0.000546,-0.018195,-0.276972,0.0,-0.0,-0.0,2.0,0.282024,0.27319,0.282024,0.290477,,,,,,,0.000184,-0.013235,-0.176093,9.9e-05,2.7e-05,-0.000275
298017,-0.000304,-0.018161,-0.27697,0.0,-0.0,-0.0,2.0,0.282024,0.272557,0.282024,0.291055,,,,,,,0.000426,-0.013234,-0.176099,-1e-06,3e-05,-0.000274
298037,-4.6e-05,-0.018248,-0.276968,0.0,-0.0,-0.0,2.0,0.282024,0.273973,0.282024,0.289758,,,,,,,0.000685,-0.013234,-0.176104,-0.00012,2.1e-05,-0.000273
298057,-2.8e-05,-0.018369,-0.277084,0.0,-0.0,-0.0,2.0,0.282024,0.270842,0.282024,0.292602,,,,,,,0.000685,-0.013234,-0.17611,0.003577,9e-06,-0.000284
298077,-0.000287,-0.018282,-0.27697,0.0,-0.0,-0.0,2.0,0.282024,0.2692,0.282024,0.294059,,,,,,,0.000564,-0.013233,-0.176115,-0.024081,1.8e-05,-0.000272
298097,-0.000546,-0.018195,-0.276972,0.0,-0.0,-0.0,2.0,0.282024,0.265785,0.282024,0.297018,,,,,,,0.000185,-0.013233,-0.176121,-0.000114,2.7e-05,-0.000272
298117,-0.000787,-0.018228,-0.27709,0.0,-0.0,-0.0,2.0,0.282024,0.268069,0.282024,0.29505,,,,,,,-5.6e-05,-0.013232,-0.176126,1e-06,2.3e-05,-0.000283
298137,-0.000787,-0.018228,-0.27709,0.0,-0.0,-0.0,2.0,0.282024,0.269497,0.282024,0.293798,,,,,,,-0.000177,-0.013232,-0.176132,0.024082,2.3e-05,-0.000283
298157,-0.000649,-0.018332,-0.277089,0.0,-0.0,-0.0,2.0,0.282024,0.270912,0.282024,0.292539,,,,,,,-4.1e-05,-0.013232,-0.176137,0.024317,1.3e-05,-0.000282
298177,-0.00039,-0.018419,-0.277087,0.0,-0.0,-0.0,2.0,0.282024,0.272035,0.282024,0.291529,,,,,,,0.000202,-0.013231,-0.176143,0.027438,4e-06,-0.000281
298197,-0.000149,-0.018386,-0.277085,0.0,-0.0,-0.0,2.0,0.282024,0.274739,0.282024,0.289049,,,,,,,0.000582,-0.013231,-0.176149,-0.000122,7e-06,-0.000281
298217,-0.000147,-0.018386,-0.277202,0.0,-0.0,-0.0,2.0,0.282024,0.270792,0.282024,0.292647,,,,,,,0.000582,-0.013231,-0.176154,0.000222,7e-06,-0.000292
298237,-0.000407,-0.018299,-0.277087,0.0,-0.0,-0.0,2.0,0.282024,0.26923,0.282024,0.294033,,,,,,,0.000461,-0.013231,-0.17616,-0.027438,1.6e-05,-0.00028
298257,-0.000649,-0.018332,-0.277089,0.0,-0.0,-0.0,2.0,0.282024,0.269225,0.282024,0.294037,,,,,,,0.000203,-0.013231,-0.176166,-0.024302,1.3e-05,-0.000279
298277,-0.000769,-0.018349,-0.277206,0.0,-0.0,-0.0,2.0,0.282024,0.269197,0.282024,0.294063,,,,,,,-4e-05,-0.01323,-0.176171,0.000222,1.1e-05,-0.00029
298297,-0.001149,-0.018279,-0.277093,0.0,-0.0,-0.0,2.0,0.282024,0.266426,0.282024,0.29647,,,,,,,-0.000298,-0.01323,-0.176177,-0.024194,1.8e-05,-0.000278
298317,-0.001253,-0.018417,-0.277094,0.0,-0.0,-0.0,2.0,0.282024,0.266229,0.282024,0.296638,,,,,,,-0.000539,-0.01323,-0.176183,0.003258,4e-06,-0.000278
298337,-0.00127,-0.018296,-0.277094,0.0,-0.0,-0.0,2.0,0.282024,0.27092,0.282024,0.292533,,,,,,,-0.000419,-0.013229,-0.176188,-0.024082,1.6e-05,-0.000277
298357,-0.001286,-0.018175,-0.27721,0.0,-0.0,-0.0,2.0,0.282024,0.269674,0.282024,0.293641,,,,,,,-0.000539,-0.013229,-0.176194,-0.003359,2.8e-05,-0.000289
298377,-0.001529,-0.018208,-0.277095,0.0,-0.0,-0.0,2.0,0.282024,0.266539,0.282024,0.296373,,,,,,,-0.000798,-0.013229,-0.1762,-9.9e-05,2.5e-05,-0.000277
298397,-0.001909,-0.018138,-0.277098,0.0,-0.0,-0.0,2.0,0.282024,0.265451,0.282024,0.297302,,,,,,,-0.001057,-0.013228,-0.176205,-0.02418,3.2e-05,-0.000276
298417,-0.002409,-0.018085,-0.277101,0.0,-0.0,-0.0,2.0,0.282024,0.265179,0.282024,0.297533,,,,,,,-0.001436,-0.013227,-0.176211,-0.048276,3.7e-05,-0.000276
298437,-0.002772,-0.018135,-0.277103,0.0,-0.0,-0.0,2.0,0.282024,0.264364,0.282024,0.29822,,,,,,,-0.00192,-0.013227,-0.176216,-0.02418,3.2e-05,-0.000276
298457,-0.003013,-0.018169,-0.277105,0.0,-0.0,-0.0,2.0,0.282024,0.266439,0.282024,0.296458,,,,,,,-0.002283,-0.013226,-0.176222,1e-06,2.9e-05,-0.000275
298477,-0.003255,-0.018203,-0.277107,0.0,-0.0,-0.0,2.0,0.282024,0.267998,0.282024,0.295112,,,,,,,-0.002405,-0.013225,-0.176227,-0.023858,2.5e-05,-0.000275
298497,-0.003272,-0.018082,-0.277107,0.0,-0.0,-0.0,2.0,0.282024,0.268666,0.282024,0.294529,,,,,,,-0.002525,-0.013225,-0.176233,-0.003344,3.7e-05,-0.000274
298517,-0.00315,-0.018065,-0.277222,0.0,-0.0,-0.0,2.0,0.282024,0.270902,0.282024,0.292548,,,,,,,-0.002438,-0.013224,-0.176238,0.003666,3.9e-05,-0.000285
298537,-0.00341,-0.017978,-0.277107,0.0,-0.0,-0.0,2.0,0.282024,0.265418,0.282024,0.29733,,,,,,,-0.002679,-0.013223,-0.176244,-9.9e-05,4.7e-05,-0.000273
298557,-0.003669,-0.01789,-0.277108,0.0,-0.0,-0.0,2.0,0.282024,0.264658,0.282024,0.297973,,,,,,,-0.002921,-0.013222,-0.176249,-0.003443,5.6e-05,-0.000273
298577,-0.004031,-0.017941,-0.277111,0.0,-0.0,-0.0,2.0,0.282024,0.264911,0.282024,0.29776,,,,,,,-0.003163,-0.013221,-0.176255,-0.027539,5.1e-05,-0.000273
298597,-0.004394,-0.017992,-0.277113,0.0,-0.0,-0.0,2.0,0.282024,0.265406,0.282024,0.29734,,,,,,,-0.003543,-0.01322,-0.17626,-0.02408,4.6e-05,-0.000272
298617,-0.004636,-0.018025,-0.277115,0.0,-0.0,-0.0,2.0,0.282024,0.264313,0.282024,0.298263,,,,,,,-0.003888,-0.013219,-0.176266,-0.003458,4.2e-05,-0.000272
298637,-0.004878,-0.018059,-0.277116,0.0,-0.0,-0.0,2.0,0.282024,0.266017,0.282024,0.29682,,,,,,,-0.004026,-0.013219,-0.176271,-0.02408,3.9e-05,-0.000271
298657,-0.004896,-0.017938,-0.276999,0.0,-0.0,-0.0,2.0,0.282024,0.265897,0.282024,0.296922,,,,,,,-0.004147,-0.013218,-0.176276,-0.003682,5.1e-05,-0.000259
298677,-0.004894,-0.017938,-0.277116,0.0,-0.0,-0.0,2.0,0.282024,0.267293,0.282024,0.295724,,,,,,,-0.004164,-0.013217,-0.176282,0.0,5.1e-05,-0.00027
298697,-0.005032,-0.017834,-0.277116,0.0,-0.0,-0.0,2.0,0.282024,0.264463,0.282024,0.298137,,,,,,,-0.004301,-0.013216,-0.176287,-0.000113,6.1e-05,-0.00027
298717,-0.005274,-0.017868,-0.277118,0.0,-0.0,-0.0,2.0,0.282024,0.263139,0.282024,0.299244,,,,,,,-0.004544,-0.013215,-0.176292,0.000125,5.8e-05,-0.000269
298737,-0.005638,-0.017918,-0.277003,0.0,-0.0,-0.0,2.0,0.282024,0.263469,0.282024,0.298969,,,,,,,-0.004786,-0.013214,-0.176298,-0.024181,5.2e-05,-0.000258
298757,-0.005999,-0.017969,-0.277122,0.0,-0.0,-0.0,2.0,0.282024,0.262958,0.282024,0.299394,,,,,,,-0.005148,-0.013213,-0.176303,-0.02418,4.7e-05,-0.000269
298777,-0.006103,-0.018107,-0.277123,0.0,-0.0,-0.0,2.0,0.282024,0.264765,0.282024,0.297882,,,,,,,-0.00539,-0.013212,-0.176308,0.00336,3.3e-05,-0.000268
298797,-0.006362,-0.018019,-0.277124,0.0,-0.0,-0.0,2.0,0.282024,0.264932,0.282024,0.297741,,,,,,,-0.005512,-0.013211,-0.176313,-0.023853,4.2e-05,-0.000268
298817,-0.006363,-0.018019,-0.277008,0.0,-0.0,-0.0,2.0,0.282024,0.263951,0.282024,0.298567,,,,,,,-0.005632,-0.01321,-0.176319,-0.0001,4.2e-05,-0.000256
298837,-0.00638,-0.017898,-0.277007,0.0,-0.0,-0.0,2.0,0.282024,0.268554,0.282024,0.294627,,,,,,,-0.005528,-0.013209,-0.176324,-0.024207,5.4e-05,-0.000255
298857,-0.006379,-0.017898,-0.277124,0.0,-0.0,-0.0,2.0,0.282024,0.263394,0.282024,0.299032,,,,,,,-0.005769,-0.013208,-0.176329,0.023981,5.4e-05,-0.000266
298877,-0.006742,-0.017949,-0.277126,0.0,-0.0,-0.0,2.0,0.282024,0.261552,0.282024,0.300552,,,,,,,-0.006012,-0.013207,-0.176334,0.000128,4.9e-05,-0.000266
298897,-0.007104,-0.017999,-0.277128,0.0,-0.0,-0.0,2.0,0.282024,0.26169,0.282024,0.30044,,,,,,,-0.006254,-0.013206,-0.17634,-0.023938,4.3e-05,-0.000266
298917,-0.007363,-0.017912,-0.277128,0.0,-0.0,-0.0,2.0,0.282024,0.262147,0.282024,0.300064,,,,,,,-0.006511,-0.013205,-0.176345,-0.02418,5.2e-05,-0.000265
298937,-0.007466,-0.01805,-0.277246,0.0,-0.0,-0.0,2.0,0.282024,0.263182,0.282024,0.299208,,,,,,,-0.006752,-0.013204,-0.17635,0.003348,3.8e-05,-0.000276
298957,-0.007605,-0.017946,-0.27713,0.0,-0.0,-0.0,2.0,0.282024,0.262979,0.282024,0.299377,,,,,,,-0.006874,-0.013203,-0.176356,-0.0001,4.9e-05,-0.000264
298977,-0.007622,-0.017825,-0.277129,0.0,-0.0,-0.0,2.0,0.282024,0.264744,0.282024,0.2979,,,,,,,-0.006892,-0.013202,-0.176361,0.000226,6.1e-05,-0.000264
298997,-0.007744,-0.017842,-0.277013,0.0,-0.0,-0.0,2.0,0.282024,0.264468,0.282024,0.298133,,,,,,,-0.006908,-0.0132,-0.176366,-0.020964,5.9e-05,-0.000252
299017,-0.007622,-0.017825,-0.277129,0.0,-0.0,-0.0,2.0,0.282024,0.265159,0.282024,0.297549,,,,,,,-0.006891,-0.013199,-0.176371,-0.0,6e-05,-0.000263
299037,-0.007605,-0.017946,-0.27713,0.0,-0.0,-0.0,2.0,0.282024,0.264728,0.282024,0.297914,,,,,,,-0.006892,-0.013198,-0.176377,0.003586,4.8e-05,-0.000262
299057,-0.007847,-0.01798,-0.277131,0.0,-0.0,-0.0,2.0,0.282024,0.263878,0.282024,0.298628,,,,,,,-0.006996,-0.013197,-0.176382,-0.023851,4.5e-05,-0.000262
299077,-0.00783,-0.018101,-0.277132,0.0,-0.0,-0.0,2.0,0.282024,0.26293,0.282024,0.299417,,,,,,,-0.007099,-0.013196,-0.176387,-0.0001,3.2e-05,-0.000261
299097,-0.007847,-0.01798,-0.277131,0.0,-0.0,-0.0,2.0,0.282024,0.264134,0.282024,0.298414,,,,,,,-0.007115,-0.013195,-0.176392,-0.000229,4.4e-05,-0.000261
299117,-0.007845,-0.01798,-0.277247,0.0,-0.0,-0.0,2.0,0.282024,0.265487,0.282024,0.297271,,,,,,,-0.007115,-0.013195,-0.176397,0.000101,4.4e-05,-0.000272
299137,-0.007845,-0.01798,-0.277247,0.0,-0.0,-0.0,2.0,0.282024,0.261543,0.282024,0.30056,,,,,,,-0.007237,-0.013194,-0.176403,0.024211,4.4e-05,-0.000271
299157,-0.007845,-0.01798,-0.277247,0.0,-0.0,-0.0,2.0,0.282024,0.26416,0.282024,0.298392,,,,,,,-0.007115,-0.013193,-0.176408,-0.0,4.4e-05,-0.000271
299177,-0.007966,-0.017997,-0.277248,0.0,-0.0,-0.0,2.0,0.282024,0.264511,0.282024,0.298097,,,,,,,-0.007114,-0.013192,-0.176414,-0.024246,4.2e-05,-0.00027
299197,-0.007845,-0.017981,-0.277414,0.0,-0.0,-0.0,2.0,0.282024,0.264153,0.282024,0.298398,,,,,,,-0.007115,-0.013191,-0.176419,0.000165,4.4e-05,-0.000286
299217,-0.007949,-0.018118,-0.277248,0.0,-0.0,-0.0,2.0,0.282024,0.262333,0.282024,0.299911,,,,,,,-0.007236,-0.01319,-0.176425,0.003361,3e-05,-0.000269
299237,-0.007966,-0.017997,-0.277248,0.0,-0.0,-0.0,2.0,0.282024,0.263284,0.282024,0.299124,,,,,,,-0.007236,-0.013189,-0.17643,-1e-06,4.2e-05,-0.000269
299257,-0.008087,-0.018014,-0.277249,0.0,-0.0,-0.0,2.0,0.282024,0.263351,0.282024,0.299068,,,,,,,-0.007235,-0.013189,-0.176436,-0.024244,4e-05,-0.000268
299277,-0.007965,-0.017998,-0.277414,0.0,-0.0,-0.0,2.0,0.282024,0.263656,0.282024,0.298813,,,,,,,-0.007235,-0.013188,-0.176441,1e-06,4.2e-05,-0.000284
299297,-0.007965,-0.017997,-0.277364,0.0,-0.0,-0.0,2.0,0.282024,0.262199,0.282024,0.300022,,,,,,,-0.007374,-0.013187,-0.176446,0.027657,4.2e-05,-0.000279
299317,-0.007983,-0.017876,-0.277247,0.0,-0.0,-0.0,2.0,0.282024,0.26077,0.282024,0.30119,,,,,,,-0.007356,-0.013186,-0.176452,0.02062,5.4e-05,-0.000266
299337,-0.007966,-0.017997,-0.277248,0.0,-0.0,-0.0,2.0,0.282024,0.263336,0.282024,0.29908,,,,,,,-0.007235,-0.013185,-0.176457,-0.00023,4.2e-05,-0.000266
299357,-0.007965,-0.017998,-0.277414,0.0,-0.0,-0.0,2.0,0.282024,0.265619,0.282024,0.297159,,,,,,,-0.007115,-0.013184,-0.176463,-0.023981,4.1e-05,-0.000282
299377,-0.007845,-0.01798,-0.277247,0.0,-0.0,-0.0,2.0,0.282024,0.262702,0.282024,0.299607,,,,,,,-0.007236,-0.013183,-0.176468,0.024081,4.3e-05,-0.000265
299397,-0.007726,-0.017963,-0.27713,0.0,-0.0,-0.0,2.0,0.282024,0.265041,0.282024,0.29765,,,,,,,-0.006996,-0.013182,-0.176473,9.9e-05,4.5e-05,-0.000253
299417,-0.007605,-0.017946,-0.27713,0.0,-0.0,-0.0,2.0,0.282024,0.263757,0.282024,0.298729,,,,,,,-0.006856,-0.013182,-0.176479,-0.003589,4.6e-05,-0.000252
299437,-0.007466,-0.01805,-0.277246,0.0,-0.0,-0.0,2.0,0.282024,0.264169,0.282024,0.298384,,,,,,,-0.006735,-0.013181,-0.176484,-1e-06,3.6e-05,-0.000263
299457,-0.007328,-0.018154,-0.277246,0.0,-0.0,-0.0,2.0,0.282024,0.26539,0.282024,0.297354,,,,,,,-0.006616,-0.01318,-0.176489,0.003689,2.5e-05,-0.000263
299477,-0.007329,-0.018154,-0.27713,0.0,-0.0,-0.0,2.0,0.282024,0.263928,0.282024,0.298586,,,,,,,-0.006616,-0.01318,-0.176494,0.003459,2.5e-05,-0.00025
299497,-0.007467,-0.01805,-0.27713,0.0,-0.0,-0.0,2.0,0.282024,0.262559,0.282024,0.299725,,,,,,,-0.006599,-0.013179,-0.176499,-0.02744,3.6e-05,-0.00025
299517,-0.007467,-0.01805,-0.27713,0.0,-0.0,-0.0,2.0,0.282024,0.262839,0.282024,0.299493,,,,,,,-0.006598,-0.013178,-0.176504,-0.02767,3.6e-05,-0.000249
299537,-0.007466,-0.01805,-0.277246,0.0,-0.0,-0.0,2.0,0.282024,0.264541,0.282024,0.298072,,,,,,,-0.006615,-0.013178,-0.176509,-0.02398,3.6e-05,-0.000261
299557,-0.007483,-0.017929,-0.277245,0.0,-0.0,-0.0,2.0,0.282024,0.261198,0.282024,0.300842,,,,,,,-0.006874,-0.013177,-0.176514,0.024309,4.8e-05,-0.00026
299577,-0.007622,-0.017825,-0.277129,0.0,-0.0,-0.0,2.0,0.282024,0.260901,0.282024,0.301084,,,,,,,-0.006874,-0.013176,-0.17652,-0.003359,5.8e-05,-0.000248
299597,-0.007605,-0.017946,-0.27713,0.0,-0.0,-0.0,2.0,0.282024,0.263202,0.282024,0.299191,,,,,,,-0.006752,-0.013175,-0.176525,-0.024309,4.6e-05,-0.000247
299617,-0.007483,-0.017929,-0.277245,0.0,-0.0,-0.0,2.0,0.282024,0.262946,0.282024,0.299404,,,,,,,-0.006752,-0.013174,-0.17653,0.0,4.7e-05,-0.000259
299637,-0.007345,-0.018033,-0.277245,0.0,-0.0,-0.0,2.0,0.282024,0.261882,0.282024,0.300282,,,,,,,-0.006753,-0.013173,-0.176535,0.027669,3.7e-05,-0.000258
299657,-0.007346,-0.018033,-0.277129,0.0,-0.0,-0.0,2.0,0.282024,0.262277,0.282024,0.299957,,,,,,,-0.006616,-0.013172,-0.17654,1.4e-05,3.7e-05,-0.000246
299677,-0.007225,-0.018016,-0.277128,0.0,-0.0,-0.0,2.0,0.282024,0.262391,0.282024,0.299863,,,,,,,-0.006494,-0.013172,-0.176545,-0.000229,3.8e-05,-0.000245
299697,-0.007103,-0.018,-0.277244,0.0,-0.0,-0.0,2.0,0.282024,0.262579,0.282024,0.299708,,,,,,,-0.006355,-0.013171,-0.17655,-0.003589,4e-05,-0.000256
299717,-0.006964,-0.018105,-0.27741,0.0,-0.0,-0.0,2.0,0.282024,0.263338,0.282024,0.299078,,,,,,,-0.006235,-0.01317,-0.176555,0.000191,2.9e-05,-0.000272
299737,-0.006844,-0.018087,-0.277243,0.0,-0.0,-0.0,2.0,0.282024,0.261671,0.282024,0.300455,,,,,,,-0.006236,-0.013169,-0.17656,0.024309,3.1e-05,-0.000255
299757,-0.006862,-0.017966,-0.277126,0.0,-0.0,-0.0,2.0,0.282024,0.261824,0.282024,0.30033,,,,,,,-0.006114,-0.013169,-0.176565,-0.003589,4.3e-05,-0.000243
299777,-0.006724,-0.01807,-0.277242,0.0,-0.0,-0.0,2.0,0.282024,0.263541,0.282024,0.298909,,,,,,,-0.005871,-0.013168,-0.17657,-0.02426,3.3e-05,-0.000254
299797,-0.006464,-0.018159,-0.277408,0.0,-0.0,-0.0,2.0,0.282024,0.264976,0.282024,0.297705,,,,,,,-0.005734,-0.013168,-0.176576,6.7e-05,2.4e-05,-0.00027
299817,-0.006223,-0.018124,-0.27724,0.0,-0.0,-0.0,2.0,0.282024,0.264193,0.282024,0.298364,,,,,,,-0.005631,-0.013167,-0.176581,0.02754,2.7e-05,-0.000253
299837,-0.006102,-0.018107,-0.277239,0.0,-0.0,-0.0,2.0,0.282024,0.264579,0.282024,0.29804,,,,,,,-0.005372,-0.013166,-0.176586,9.8e-05,2.9e-05,-0.000252
299857,-0.005844,-0.018194,-0.277238,0.0,-0.0,-0.0,2.0,0.282024,0.263948,0.282024,0.298569,,,,,,,-0.005112,-0.013166,-0.176591,-0.00019,2e-05,-0.000252
299877,-0.00548,-0.018145,-0.277402,0.0,-0.0,-0.0,2.0,0.282024,0.265768,0.282024,0.297033,,,,,,,-0.004871,-0.013166,-0.176596,0.024181,2.5e-05,-0.000268
299897,-0.005221,-0.018232,-0.277401,0.0,-0.0,-0.0,2.0,0.282024,0.264932,0.282024,0.297742,,,,,,,-0.00463,-0.013165,-0.176601,0.027735,1.6e-05,-0.000267
299917,-0.005101,-0.018214,-0.277234,0.0,-0.0,-0.0,2.0,0.282024,0.264536,0.282024,0.298076,,,,,,,-0.004388,-0.013165,-0.176607,0.003444,1.8e-05,-0.00025
299937,-0.00486,-0.01818,-0.277233,0.0,-0.0,-0.0,2.0,0.282024,0.262667,0.282024,0.299635,,,,,,,-0.004249,-0.013164,-0.176612,0.023852,2.1e-05,-0.000249
299957,-0.004738,-0.018164,-0.277398,0.0,-0.0,-0.0,2.0,0.282024,0.266108,0.282024,0.296742,,,,,,,-0.003886,-0.013164,-0.176617,-0.024208,2.3e-05,-0.000265
299977,-0.004478,-0.018252,-0.277514,0.0,-0.0,-0.0,2.0,0.282024,0.265075,0.282024,0.297621,,,,,,,-0.003766,-0.013163,-0.176622,0.003665,1.4e-05,-0.000276
299997,-0.004238,-0.018217,-0.277229,0.0,-0.0,-0.0,2.0,0.282024,0.261852,0.282024,0.300307,,,,,,,-0.003766,-0.013163,-0.176628,0.051505,1.7e-05,-0.000247
300017,-0.004238,-0.018217,-0.277229,0.0,-0.0,-0.0,2.0,0.282024,0.262292,0.282024,0.299945,,,,,,,-0.003507,-0.013163,-0.176633,-0.00024,1.7e-05,-0.000247
300037,-0.003978,-0.018304,-0.277344,0.0,-0.0,-0.0,2.0,0.282024,0.263104,0.282024,0.299273,,,,,,,-0.003231,-0.013162,-0.176638,-0.003431,9e-06,-0.000258
300057,-0.003598,-0.018375,-0.277509,0.0,-0.0,-0.0,2.0,0.282024,0.26582,0.282024,0.296988,,,,,,,-0.00299,-0.013162,-0.176643,0.024409,2e-06,-0.000274
300077,-0.003495,-0.018236,-0.277341,0.0,-0.0,-0.0,2.0,0.282024,0.265692,0.282024,0.297097,,,,,,,-0.002766,-0.013162,-0.176648,0.000324,1.5e-05,-0.000256
300097,-0.003375,-0.018219,-0.277224,0.0,-0.0,-0.0,2.0,0.282024,0.263043,0.282024,0.299323,,,,,,,-0.002628,-0.013162,-0.176653,-0.00336,1.7e-05,-0.000244
300117,-0.002995,-0.01829,-0.277222,0.0,-0.0,-0.0,2.0,0.282024,0.266341,0.282024,0.296543,,,,,,,-0.002264,-0.013162,-0.176658,-0.000126,1e-05,-0.000243
300137,-0.002753,-0.018257,-0.277386,0.0,-0.0,-0.0,2.0,0.282024,0.266848,0.282024,0.296108,,,,,,,-0.002006,-0.013162,-0.176663,-0.003247,1.3e-05,-0.000259
300157,-0.002615,-0.018361,-0.277386,0.0,-0.0,-0.0,2.0,0.282024,0.262755,0.282024,0.299563,,,,,,,-0.002006,-0.013161,-0.176668,0.024305,3e-06,-0.000259
300177,-0.002495,-0.018343,-0.277219,0.0,-0.0,-0.0,2.0,0.282024,0.265294,0.282024,0.297435,,,,,,,-0.001765,-0.013161,-0.176673,9.8e-05,5e-06,-0.000242
300197,-0.002252,-0.01831,-0.277333,0.0,-0.0,-0.0,2.0,0.282024,0.264333,0.282024,0.298246,,,,,,,-0.001522,-0.013161,-0.176678,-1.9e-05,8e-06,-0.000252
300217,-0.002009,-0.018277,-0.277498,0.0,-0.0,-0.0,2.0,0.282024,0.26484,0.282024,0.297819,,,,,,,-0.001262,-0.013161,-0.176683,-0.003362,1.1e-05,-0.000268
300237,-0.001613,-0.018468,-0.277495,0.0,-0.0,-0.0,2.0,0.282024,0.266414,0.282024,0.29648,,,,,,,-0.001022,-0.013161,-0.176688,0.027781,-8e-06,-0.000268
300257,-0.001388,-0.018313,-0.277493,0.0,-0.0,-0.0,2.0,0.282024,0.2633,0.282024,0.29911,,,,,,,-0.0009,-0.013161,-0.176694,0.048396,8e-06,-0.000267
300277,-0.001251,-0.018418,-0.277376,0.0,-0.0,-0.0,2.0,0.282024,0.264276,0.282024,0.298295,,,,,,,-0.00052,-0.013161,-0.176699,-0.000225,-3e-06,-0.000255
300297,-0.00099,-0.018504,-0.277607,0.0,-0.0,-0.0,2.0,0.282024,0.26796,0.282024,0.295145,,,,,,,-0.00014,-0.013161,-0.176705,-0.023968,-1.1e-05,-0.000277
300317,-0.000626,-0.018454,-0.277721,0.0,-0.0,-0.0,2.0,0.282024,0.266292,0.282024,0.296585,,,,,,,-3.5e-05,-0.013161,-0.17671,0.027768,-6e-06,-0.000288
300337,-0.000403,-0.018299,-0.277602,0.0,-0.0,-0.0,2.0,0.282024,0.266009,0.282024,0.296827,,,,,,,0.000205,-0.013161,-0.176716,0.024387,9e-06,-0.000276
300357,-0.000282,-0.018282,-0.277601,0.0,-0.0,-0.0,2.0,0.282024,0.264343,0.282024,0.298238,,,,,,,0.000449,-0.013161,-0.176721,-1e-06,1.1e-05,-0.000275
300377,-3.9e-05,-0.018248,-0.277716,0.0,-0.0,-0.0,2.0,0.282024,0.26583,0.282024,0.29698,,,,,,,0.000709,-0.013161,-0.176727,-0.003572,1.4e-05,-0.000286
300397,0.000221,-0.018335,-0.27783,0.0,-0.0,-0.0,2.0,0.282024,0.267888,0.282024,0.295208,,,,,,,0.00095,-0.013161,-0.176732,0.000334,5e-06,-0.000297
300417,0.000479,-0.018423,-0.277712,0.0,-0.0,-0.0,2.0,0.282024,0.266496,0.282024,0.29641,,,,,,,0.00107,-0.01316,-0.176738,0.027763,-3e-06,-0.000284
300437,0.000598,-0.018406,-0.277595,0.0,-0.0,-0.0,2.0,0.282024,0.266844,0.282024,0.296111,,,,,,,0.001329,-0.013161,-0.176744,-0.000122,-2e-06,-0.000272
300457,0.000858,-0.018493,-0.277709,0.0,-0.0,-0.0,2.0,0.282024,0.266122,0.282024,0.29673,,,,,,,0.00159,-0.013161,-0.17675,-0.000222,-1e-05,-0.000283
300477,0.001118,-0.01858,-0.277823,0.0,-0.0,-0.0,2.0,0.282024,0.267841,0.282024,0.295248,,,,,,,0.001848,-0.013161,-0.176755,0.000114,-1.9e-05,-0.000294
300497,0.001343,-0.018425,-0.277821,0.0,-0.0,-0.0,2.0,0.282024,0.267506,0.282024,0.295539,,,,,,,0.001951,-0.013161,-0.176761,0.0244,-4e-06,-0.000293
300517,0.001341,-0.018425,-0.277589,0.0,-0.0,-0.0,2.0,0.282024,0.262883,0.282024,0.299456,,,,,,,0.001933,-0.013161,-0.176767,0.02743,-4e-06,-0.000269
300537,0.001582,-0.018392,-0.277587,0.0,-0.0,-0.0,2.0,0.282024,0.26504,0.282024,0.297651,,,,,,,0.002193,-0.013161,-0.176772,0.023847,-0.0,-0.000268
300557,0.001722,-0.018495,-0.277818,0.0,-0.0,-0.0,2.0,0.282024,0.269617,0.282024,0.293692,,,,,,,0.002573,-0.013161,-0.176778,-0.023967,-1.1e-05,-0.000291
300577,0.001947,-0.01834,-0.277816,0.0,-0.0,-0.0,2.0,0.282024,0.264403,0.282024,0.298188,,,,,,,0.002434,-0.013161,-0.176783,0.048597,5e-06,-0.00029
300597,0.001945,-0.018341,-0.277583,0.0,-0.0,-0.0,2.0,0.282024,0.266416,0.282024,0.296478,,,,,,,0.002675,-0.013161,-0.176789,9.9e-05,5e-06,-0.000266
300617,0.002066,-0.018324,-0.277582,0.0,-0.0,-0.0,2.0,0.282024,0.265194,0.282024,0.29752,,,,,,,0.002798,-0.013161,-0.176794,-0.000232,7e-06,-0.000266
300637,0.002326,-0.018411,-0.277697,0.0,-0.0,-0.0,2.0,0.282024,0.266957,0.282024,0.296013,,,,,,,0.003057,-0.013161,-0.1768,-0.000217,-2e-06,-0.000277
300657,0.002586,-0.018498,-0.277811,0.0,-0.0,-0.0,2.0,0.282024,0.265715,0.282024,0.297077,,,,,,,0.003177,-0.013161,-0.176805,0.027664,-1.1e-05,-0.000287
300677,0.002826,-0.018464,-0.277692,0.0,-0.0,-0.0,2.0,0.282024,0.266113,0.282024,0.296738,,,,,,,0.003435,-0.013161,-0.176811,0.024297,-7e-06,-0.000275
300697,0.002946,-0.018448,-0.277575,0.0,-0.0,-0.0,2.0,0.282024,0.26628,0.282024,0.296595,,,,,,,0.003694,-0.013162,-0.176816,-0.003582,-6e-06,-0.000263
300717,0.003085,-0.018551,-0.27769,0.0,-0.0,-0.0,2.0,0.282024,0.268615,0.282024,0.294574,,,,,,,0.003937,-0.013162,-0.176822,-0.024198,-1.6e-05,-0.000274
300737,0.003449,-0.0185,-0.277803,0.0,-0.0,-0.0,2.0,0.282024,0.267331,0.282024,0.295691,,,,,,,0.004057,-0.013162,-0.176827,0.024298,-1.1e-05,-0.000284
300757,0.003448,-0.018501,-0.277687,0.0,-0.0,-0.0,2.0,0.282024,0.267228,0.282024,0.295779,,,,,,,0.004176,-0.013162,-0.176833,0.000317,-1.1e-05,-0.000272
300777,0.00343,-0.01838,-0.27757,0.0,-0.0,-0.0,2.0,0.282024,0.26336,0.282024,0.29906,,,,,,,0.004162,-0.013163,-0.176838,-0.00033,1e-06,-0.00026
300797,0.003552,-0.018363,-0.277685,0.0,-0.0,-0.0,2.0,0.282024,0.26501,0.282024,0.297675,,,,,,,0.0043,-0.013163,-0.176844,-0.00368,3e-06,-0.000271
300817,0.00369,-0.018467,-0.277801,0.0,-0.0,-0.0,2.0,0.282024,0.26846,0.282024,0.294709,,,,,,,0.00442,-0.013163,-0.176849,0.0001,-8e-06,-0.000282
300837,0.003689,-0.018467,-0.277684,0.0,-0.0,-0.0,2.0,0.282024,0.266631,0.282024,0.296294,,,,,,,0.004419,-0.013163,-0.176854,0.000216,-8e-06,-0.00027
300857,0.003793,-0.018329,-0.277683,0.0,-0.0,-0.0,2.0,0.282024,0.264032,0.282024,0.298499,,,,,,,0.00442,-0.013163,-0.17686,0.020616,6e-06,-0.000269
300877,0.003931,-0.018433,-0.277682,0.0,-0.0,-0.0,2.0,0.282024,0.267597,0.282024,0.29546,,,,,,,0.004663,-0.013163,-0.176865,-0.000216,-4e-06,-0.000269
300897,0.004175,-0.018399,-0.277912,0.0,-0.0,-0.0,2.0,0.282024,0.271394,0.282024,0.292107,,,,,,,0.004903,-0.013163,-0.176871,0.000414,-1e-06,-0.000291
300917,0.004295,-0.018382,-0.277795,0.0,-0.0,-0.0,2.0,0.282024,0.266283,0.282024,0.296592,,,,,,,0.004887,-0.013163,-0.176876,0.027644,1e-06,-0.000279
300937,0.004416,-0.018365,-0.277794,0.0,-0.0,-0.0,2.0,0.282024,0.267446,0.282024,0.295591,,,,,,,0.005146,-0.013163,-0.176882,-0.0,3e-06,-0.000278
300957,0.004554,-0.018469,-0.277792,0.0,-0.0,-0.0,2.0,0.282024,0.268103,0.282024,0.29502,,,,,,,0.005285,-0.013163,-0.176888,-0.000215,-8e-06,-0.000277
300977,0.004813,-0.018556,-0.277906,0.0,-0.0,-0.0,2.0,0.282024,0.270039,0.282024,0.293318,,,,,,,0.005526,-0.013163,-0.176893,0.003466,-1.6e-05,-0.000288
300997,0.004934,-0.018539,-0.277905,0.0,-0.0,-0.0,2.0,0.282024,0.267757,0.282024,0.295322,,,,,,,0.005543,-0.013164,-0.176899,0.024294,-1.5e-05,-0.000288
301017,0.005054,-0.018522,-0.277787,0.0,-0.0,-0.0,2.0,0.282024,0.267514,0.282024,0.295532,,,,,,,0.005664,-0.013164,-0.176905,0.024093,-1.3e-05,-0.000275
301037,0.004916,-0.018418,-0.277789,0.0,-0.0,-0.0,2.0,0.282024,0.269255,0.282024,0.294011,,,,,,,0.005786,-0.013164,-0.17691,-0.027774,-3e-06,-0.000275
301057,0.004935,-0.018538,-0.278021,0.0,-0.0,-0.0,2.0,0.282024,0.268236,0.282024,0.294904,,,,,,,0.005787,-0.013164,-0.176916,-0.024079,-1.5e-05,-0.000297
301077,0.004935,-0.018538,-0.278021,0.0,-0.0,-0.0,2.0,0.282024,0.266786,0.282024,0.296161,,,,,,,0.005648,-0.013164,-0.176922,0.003582,-1.5e-05,-0.000297
301097,0.004795,-0.018435,-0.27779,0.0,-0.0,-0.0,2.0,0.282024,0.265632,0.282024,0.297148,,,,,,,0.005526,-0.013165,-0.176928,-0.0,-4e-06,-0.000273
301117,0.004795,-0.018435,-0.27779,0.0,-0.0,-0.0,2.0,0.282024,0.265536,0.282024,0.297229,,,,,,,0.005527,-0.013165,-0.176933,-0.000329,-4e-06,-0.000273
301137,0.004935,-0.018538,-0.278021,0.0,-0.0,-0.0,2.0,0.282024,0.269768,0.282024,0.293558,,,,,,,0.005648,-0.013165,-0.176939,0.003468,-1.4e-05,-0.000295
301157,0.004814,-0.018555,-0.278022,0.0,-0.0,-0.0,2.0,0.282024,0.267696,0.282024,0.295374,,,,,,,0.005544,-0.013165,-0.176945,0.00023,-1.6e-05,-0.000295
301177,0.004797,-0.018435,-0.277906,0.0,-0.0,-0.0,2.0,0.282024,0.266976,0.282024,0.295997,,,,,,,0.005543,-0.013165,-0.17695,-0.003137,-4e-06,-0.000283
301197,0.004779,-0.018314,-0.27779,0.0,-0.0,-0.0,2.0,0.282024,0.267335,0.282024,0.295687,,,,,,,0.005527,-0.013165,-0.176956,-0.00358,8e-06,-0.00027
301217,0.004902,-0.018297,-0.278021,0.0,-0.0,-0.0,2.0,0.282024,0.270129,0.282024,0.293238,,,,,,,0.005648,-0.013165,-0.176962,-0.003268,1e-05,-0.000293
301237,0.004797,-0.018435,-0.277906,0.0,-0.0,-0.0,2.0,0.282024,0.267212,0.282024,0.295794,,,,,,,0.005527,-0.013165,-0.176967,1e-06,-4e-06,-0.000281
301257,0.004916,-0.018418,-0.277789,0.0,-0.0,-0.0,2.0,0.282024,0.267158,0.282024,0.29584,,,,,,,0.005526,-0.013165,-0.176973,0.024095,-2e-06,-0.000269
301277,0.004899,-0.018298,-0.277789,0.0,-0.0,-0.0,2.0,0.282024,0.267989,0.282024,0.29512,,,,,,,0.005647,-0.013165,-0.176978,-0.003366,1e-05,-0.000268
301297,0.005037,-0.018401,-0.277788,0.0,-0.0,-0.0,2.0,0.282024,0.270282,0.282024,0.293102,,,,,,,0.005768,-0.013165,-0.176984,-0.000127,-1e-06,-0.000267
301317,0.005054,-0.018522,-0.277787,0.0,-0.0,-0.0,2.0,0.282024,0.270327,0.282024,0.293062,,,,,,,0.005784,-0.013166,-0.176989,0.000114,-1.3e-05,-0.000267
301337,0.004898,-0.018298,-0.277673,0.0,-0.0,-0.0,2.0,0.282024,0.267315,0.282024,0.295705,,,,,,,0.005646,-0.013166,-0.176994,-0.003364,1e-05,-0.000255
301357,0.004897,-0.018298,-0.277556,0.0,-0.0,-0.0,2.0,0.282024,0.265686,0.282024,0.297102,,,,,,,0.005629,-0.013166,-0.176999,-0.000326,1e-05,-0.000243
301377,0.005019,-0.018281,-0.277671,0.0,-0.0,-0.0,2.0,0.282024,0.268424,0.282024,0.294741,,,,,,,0.005751,-0.013165,-0.177004,-0.000226,1.1e-05,-0.000254
301397,0.005037,-0.018401,-0.277788,0.0,-0.0,-0.0,2.0,0.282024,0.268996,0.282024,0.294239,,,,,,,0.005767,-0.013165,-0.177009,0.000213,-1e-06,-0.000265
301417,0.005036,-0.018402,-0.277671,0.0,-0.0,-0.0,2.0,0.282024,0.268267,0.282024,0.294877,,,,,,,0.005767,-0.013165,-0.177015,0.0,-1e-06,-0.000253
301437,0.005035,-0.018402,-0.277555,0.0,-0.0,-0.0,2.0,0.282024,0.268273,0.282024,0.294873,,,,,,,0.005767,-0.013165,-0.17702,-0.000214,-1e-06,-0.00024
301457,0.005174,-0.018506,-0.27767,0.0,-0.0,-0.0,2.0,0.282024,0.270787,0.282024,0.292651,,,,,,,0.005888,-0.013165,-0.177025,0.003237,-1.1e-05,-0.000251
301477,0.005279,-0.018368,-0.277785,0.0,-0.0,-0.0,2.0,0.282024,0.268545,0.282024,0.294635,,,,,,,0.005887,-0.013165,-0.17703,0.024293,3e-06,-0.000262
301497,0.005141,-0.018264,-0.277787,0.0,-0.0,-0.0,2.0,0.282024,0.267653,0.282024,0.295412,,,,,,,0.005887,-0.013165,-0.177035,-0.003152,1.3e-05,-0.000262
301517,0.005157,-0.018385,-0.27767,0.0,-0.0,-0.0,2.0,0.282024,0.26698,0.282024,0.295994,,,,,,,0.005872,-0.013165,-0.17704,0.003038,1e-06,-0.00025
301537,0.005279,-0.018368,-0.277785,0.0,-0.0,-0.0,2.0,0.282024,0.27119,0.282024,0.292291,,,,,,,0.006009,-0.013165,-0.177045,9.9e-05,3e-06,-0.000261
301557,0.005279,-0.018368,-0.277785,0.0,-0.0,-0.0,2.0,0.282024,0.268311,0.282024,0.294839,,,,,,,0.005888,-0.013165,-0.177051,0.02408,3e-06,-0.00026
301577,0.005158,-0.018385,-0.277786,0.0,-0.0,-0.0,2.0,0.282024,0.268464,0.282024,0.294706,,,,,,,0.005888,-0.013165,-0.177056,1e-06,1e-06,-0.00026
301597,0.005157,-0.018385,-0.27767,0.0,-0.0,-0.0,2.0,0.282024,0.267474,0.282024,0.295567,,,,,,,0.005888,-0.013165,-0.177061,-0.000101,1e-06,-0.000248
301617,0.005141,-0.018264,-0.277787,0.0,-0.0,-0.0,2.0,0.282024,0.268488,0.282024,0.294684,,,,,,,0.005872,-0.013165,-0.177066,-1.4e-05,1.3e-05,-0.000259
301637,0.005141,-0.018264,-0.277787,0.0,-0.0,-0.0,2.0,0.282024,0.268968,0.282024,0.294264,,,,,,,0.005872,-0.013165,-0.177071,-0.0,1.3e-05,-0.000258
301657,0.005003,-0.01816,-0.277788,0.0,-0.0,-0.0,2.0,0.282024,0.267719,0.282024,0.295355,,,,,,,0.005751,-0.013165,-0.177076,-0.003363,2.3e-05,-0.000258
301677,0.005019,-0.018281,-0.277671,0.0,-0.0,-0.0,2.0,0.282024,0.268671,0.282024,0.294524,,,,,,,0.005734,-0.013164,-0.177081,0.003139,1.1e-05,-0.000246
301697,0.00502,-0.018281,-0.277788,0.0,-0.0,-0.0,2.0,0.282024,0.269146,0.282024,0.294107,,,,,,,0.005751,-0.013164,-0.177087,-0.0,1.1e-05,-0.000257
301717,0.00502,-0.018281,-0.277788,0.0,-0.0,-0.0,2.0,0.282024,0.269382,0.282024,0.293899,,,,,,,0.005768,-0.013164,-0.177092,-0.003364,1.1e-05,-0.000257
301737,0.005037,-0.018401,-0.277788,0.0,-0.0,-0.0,2.0,0.282024,0.271172,0.282024,0.292307,,,,,,,0.005887,-0.013164,-0.177097,-0.023768,-1e-06,-0.000256
301757,0.00502,-0.018281,-0.277788,0.0,-0.0,-0.0,2.0,0.282024,0.270213,0.282024,0.293163,,,,,,,0.005872,-0.013164,-0.177102,-0.024081,1.1e-05,-0.000256
301777,0.005141,-0.018264,-0.277787,0.0,-0.0,-0.0,2.0,0.282024,0.271683,0.282024,0.291847,,,,,,,0.005871,-0.013164,-0.177107,9.9e-05,1.3e-05,-0.000255
301797,0.005003,-0.01816,-0.277788,0.0,-0.0,-0.0,2.0,0.282024,0.26885,0.282024,0.294367,,,,,,,0.005734,-0.013163,-0.177112,0.0,2.3e-05,-0.000255
301817,0.004899,-0.018298,-0.277789,0.0,-0.0,-0.0,2.0,0.282024,0.269589,0.282024,0.293717,,,,,,,0.005751,-0.013163,-0.177117,-0.02408,9e-06,-0.000254
301837,0.004899,-0.018298,-0.277789,0.0,-0.0,-0.0,2.0,0.282024,0.27047,0.282024,0.292935,,,,,,,0.005751,-0.013163,-0.177122,-0.02408,9e-06,-0.000254
301857,0.00502,-0.018281,-0.277788,0.0,-0.0,-0.0,2.0,0.282024,0.271878,0.282024,0.291671,,,,,,,0.00575,-0.013162,-0.177127,9.9e-05,1.1e-05,-0.000253
301877,0.004899,-0.018298,-0.277789,0.0,-0.0,-0.0,2.0,0.282024,0.267064,0.282024,0.295921,,,,,,,0.00563,-0.013162,-0.177132,-0.000113,9e-06,-0.000253
301897,0.004916,-0.018418,-0.277789,0.0,-0.0,-0.0,2.0,0.282024,0.270441,0.282024,0.29296,,,,,,,0.005768,-0.013162,-0.177137,-0.024066,-3e-06,-0.000252
301917,0.004899,-0.018298,-0.277789,0.0,-0.0,-0.0,2.0,0.282024,0.268319,0.282024,0.294832,,,,,,,0.00563,-0.013162,-0.177142,-8.6e-05,9e-06,-0.000252
301937,0.004883,-0.018177,-0.277789,0.0,-0.0,-0.0,2.0,0.282024,0.269544,0.282024,0.293756,,,,,,,0.005613,-0.013162,-0.177147,0.0,2.1e-05,-0.000251
301957,0.004762,-0.018194,-0.27779,0.0,-0.0,-0.0,2.0,0.282024,0.267912,0.282024,0.295187,,,,,,,0.005493,-0.013161,-0.177152,-0.0001,2e-05,-0.000251
301977,0.004762,-0.018194,-0.27779,0.0,-0.0,-0.0,2.0,0.282024,0.269384,0.282024,0.293897,,,,,,,0.005492,-0.013161,-0.177157,1.4e-05,2e-05,-0.00025
301997,0.004762,-0.018194,-0.27779,0.0,-0.0,-0.0,2.0,0.282024,0.269894,0.282024,0.293446,,,,,,,0.005492,-0.01316,-0.177162,-1e-06,2e-05,-0.00025
302017,0.004884,-0.018176,-0.277905,0.0,-0.0,-0.0,2.0,0.282024,0.268821,0.282024,0.294392,,,,,,,0.005494,-0.01316,-0.177167,0.023981,2.1e-05,-0.000261
302037,0.004883,-0.018177,-0.277789,0.0,-0.0,-0.0,2.0,0.282024,0.270347,0.282024,0.293044,,,,,,,0.005613,-0.013159,-0.177172,0.0,2.1e-05,-0.000249
302057,0.004745,-0.018073,-0.27779,0.0,-0.0,-0.0,2.0,0.282024,0.269942,0.282024,0.293404,,,,,,,0.005596,-0.013159,-0.177177,-0.02408,3.1e-05,-0.000248
302077,0.004745,-0.018073,-0.27779,0.0,-0.0,-0.0,2.0,0.282024,0.271097,0.282024,0.292374,,,,,,,0.005596,-0.013158,-0.177182,-0.024082,3.1e-05,-0.000248
302097,0.004728,-0.017952,-0.277791,0.0,-0.0,-0.0,2.0,0.282024,0.269786,0.282024,0.293543,,,,,,,0.005458,-0.013158,-0.177187,0.0,4.3e-05,-0.000247
302117,0.004624,-0.01809,-0.277792,0.0,-0.0,-0.0,2.0,0.282024,0.269658,0.282024,0.293655,,,,,,,0.005354,-0.013157,-0.177192,0.0,3e-05,-0.000247
302137,0.004624,-0.01809,-0.277792,0.0,-0.0,-0.0,2.0,0.282024,0.270692,0.282024,0.292736,,,,,,,0.005371,-0.013156,-0.177197,-0.003351,3e-05,-0.000246
302157,0.004624,-0.01809,-0.277792,0.0,-0.0,-0.0,2.0,0.282024,0.272672,0.282024,0.29095,,,,,,,0.005476,-0.013156,-0.177202,-0.024203,2.9e-05,-0.000246
302177,0.004746,-0.018072,-0.277907,0.0,-0.0,-0.0,2.0,0.282024,0.271465,0.282024,0.292043,,,,,,,0.005475,-0.013155,-0.177207,0.000209,3.1e-05,-0.000257
302197,0.004745,-0.018073,-0.27779,0.0,-0.0,-0.0,2.0,0.282024,0.270576,0.282024,0.292839,,,,,,,0.005475,-0.013155,-0.177212,0.0,3.1e-05,-0.000245
302217,0.004624,-0.01809,-0.277792,0.0,-0.0,-0.0,2.0,0.282024,0.270249,0.282024,0.293131,,,,,,,0.005458,-0.013154,-0.177217,-0.02073,2.9e-05,-0.000244
302237,0.004607,-0.017969,-0.277792,0.0,-0.0,-0.0,2.0,0.282024,0.270207,0.282024,0.293168,,,,,,,0.005338,-0.013153,-0.177222,-0.000209,4.1e-05,-0.000244
302257,0.004608,-0.017968,-0.277908,0.0,-0.0,-0.0,2.0,0.282024,0.269338,0.282024,0.293938,,,,,,,0.005216,-0.013152,-0.177227,0.024289,4.1e-05,-0.000255
302277,0.004382,-0.018123,-0.277794,0.0,-0.0,-0.0,2.0,0.282024,0.270359,0.282024,0.293033,,,,,,,0.005233,-0.013152,-0.177232,-0.02408,2.6e-05,-0.000243
302297,0.004503,-0.018106,-0.277793,0.0,-0.0,-0.0,2.0,0.282024,0.26892,0.282024,0.294306,,,,,,,0.005096,-0.013151,-0.177237,0.027345,2.7e-05,-0.000243
302317,0.004486,-0.017986,-0.277793,0.0,-0.0,-0.0,2.0,0.282024,0.27189,0.282024,0.29166,,,,,,,0.005217,-0.01315,-0.177242,-0.000123,3.9e-05,-0.000242
302337,0.004608,-0.017968,-0.277908,0.0,-0.0,-0.0,2.0,0.282024,0.270936,0.282024,0.292518,,,,,,,0.005217,-0.01315,-0.177247,0.02408,4.1e-05,-0.000253
302357,0.004607,-0.017969,-0.277792,0.0,-0.0,-0.0,2.0,0.282024,0.270131,0.282024,0.293237,,,,,,,0.005216,-0.013149,-0.177252,0.024095,4.1e-05,-0.000241
302377,0.004468,-0.017865,-0.277677,0.0,-0.0,-0.0,2.0,0.282024,0.268475,0.282024,0.294696,,,,,,,0.0052,-0.013148,-0.177257,-0.000307,5.1e-05,-0.000229
302397,0.004365,-0.018002,-0.277794,0.0,-0.0,-0.0,2.0,0.282024,0.27085,0.282024,0.292595,,,,,,,0.005216,-0.013147,-0.177261,-0.02408,3.7e-05,-0.00024
302417,0.004365,-0.018002,-0.277794,0.0,-0.0,-0.0,2.0,0.282024,0.269383,0.282024,0.293899,,,,,,,0.004975,-0.013146,-0.177266,0.024081,3.7e-05,-0.00024
302437,0.004261,-0.01814,-0.277795,0.0,-0.0,-0.0,2.0,0.282024,0.270654,0.282024,0.29277,,,,,,,0.004992,-0.013146,-0.177271,1e-06,2.3e-05,-0.000239
302457,0.004261,-0.01814,-0.277795,0.0,-0.0,-0.0,2.0,0.282024,0.271003,0.282024,0.292458,,,,,,,0.004992,-0.013145,-0.177276,0.0,2.3e-05,-0.000239
302477,0.004365,-0.018002,-0.277794,0.0,-0.0,-0.0,2.0,0.282024,0.273454,0.282024,0.290235,,,,,,,0.005096,-0.013145,-0.177281,-0.000109,3.7e-05,-0.000238
302497,0.004365,-0.018002,-0.277794,0.0,-0.0,-0.0,2.0,0.282024,0.271324,0.282024,0.29217,,,,,,,0.005096,-0.013144,-0.177285,0.0,3.7e-05,-0.000238
302517,0.004365,-0.018002,-0.277794,0.0,-0.0,-0.0,2.0,0.282024,0.2707,0.282024,0.292729,,,,,,,0.005096,-0.013143,-0.17729,0.0,3.7e-05,-0.000237
302537,0.004364,-0.018003,-0.277678,0.0,-0.0,-0.0,2.0,0.282024,0.27251,0.282024,0.291098,,,,,,,0.005216,-0.013142,-0.177295,-0.02429,3.7e-05,-0.000225
302557,0.004382,-0.018123,-0.277794,0.0,-0.0,-0.0,2.0,0.282024,0.271203,0.282024,0.292278,,,,,,,0.005112,-0.013142,-0.177299,-0.0,2.5e-05,-0.000236
302577,0.004261,-0.01814,-0.277795,0.0,-0.0,-0.0,2.0,0.282024,0.270535,0.282024,0.292877,,,,,,,0.004992,-0.013141,-0.177304,-1.4e-05,2.3e-05,-0.000236
302597,0.004036,-0.018295,-0.277797,0.0,-0.0,-0.0,2.0,0.282024,0.26998,0.282024,0.29337,,,,,,,0.004871,-0.013141,-0.177309,-0.020714,7e-06,-0.000236
302617,0.00414,-0.018157,-0.277796,0.0,-0.0,-0.0,2.0,0.282024,0.272211,0.282024,0.291369,,,,,,,0.004871,-0.013141,-0.177314,-1e-06,2.1e-05,-0.000235
302637,0.004244,-0.018019,-0.277795,0.0,-0.0,-0.0,2.0,0.282024,0.271546,0.282024,0.29197,,,,,,,0.004871,-0.01314,-0.177318,0.020715,3.5e-05,-0.000235
302657,0.004244,-0.018019,-0.277795,0.0,-0.0,-0.0,2.0,0.282024,0.271821,0.282024,0.291722,,,,,,,0.004975,-0.013139,-0.177323,-0.0,3.5e-05,-0.000234
302677,0.004382,-0.018123,-0.277794,0.0,-0.0,-0.0,2.0,0.282024,0.270772,0.282024,0.292665,,,,,,,0.005112,-0.013139,-0.177328,0.000124,2.4e-05,-0.000234
302697,0.004381,-0.018124,-0.277678,0.0,-0.0,-0.0,2.0,0.282024,0.271317,0.282024,0.292176,,,,,,,0.005096,-0.013138,-0.177332,0.00314,2.4e-05,-0.000221
302717,0.004261,-0.01814,-0.277795,0.0,-0.0,-0.0,2.0,0.282024,0.270484,0.282024,0.292922,,,,,,,0.004992,-0.013138,-0.177337,1e-06,2.3e-05,-0.000233
302737,0.004002,-0.018053,-0.277797,0.0,-0.0,-0.0,2.0,0.282024,0.270411,0.282024,0.292987,,,,,,,0.004871,-0.013137,-0.177341,-0.027444,3.1e-05,-0.000233
302757,0.004002,-0.018053,-0.277797,0.087266,-0.0,-0.0,2.0,0.282024,0.22272,0.282024,0.327166,,,,,,,0.004733,-0.013137,-0.177346,1e-06,3.1e-05,-0.000232
302777,0.004106,-0.017915,-0.277796,0.087266,-0.0,-0.0,2.0,0.282024,0.225646,0.282024,0.325484,,,,,,,0.004837,-0.013136,-0.177351,-0.000122,4.5e-05,-0.000232
302797,0.004469,-0.017865,-0.277793,0.087266,-0.0,-0.0,2.0,0.282024,0.224379,0.282024,0.326218,,,,,,,0.004958,-0.013135,-0.177355,0.048159,5e-05,-0.000231
302817,0.005452,-0.017851,-0.277667,0.087266,-0.0,-0.0,2.0,0.282024,0.232903,0.282024,0.321101,,,,,,,0.005819,-0.013134,-0.17736,0.072453,5.1e-05,-0.000218
302837,0.007194,-0.017977,-0.277533,0.087266,-0.0,-0.0,2.0,0.282024,0.243086,0.282024,0.314421,,,,,,,0.007423,-0.013133,-0.177364,0.09989,3.8e-05,-0.000204
302857,0.009906,-0.017968,-0.277619,0.087266,-0.0,-0.0,2.0,0.282024,0.257347,0.282024,0.303926,,,,,,,0.010011,-0.013132,-0.177368,0.124485,3.9e-05,-0.000212
302877,0.013601,-0.017943,-0.27769,0.087266,-0.0,-0.0,2.0,0.282024,0.263713,0.282024,0.298766,,,,,,,0.013205,-0.013131,-0.177373,0.22434,4.2e-05,-0.000219
302897,0.018145,-0.017799,-0.27791,0.087266,-0.0,-0.0,2.0,0.282024,0.276227,0.282024,0.287654,,,,,,,0.017643,-0.01313,-0.177377,0.245349,5.6e-05,-0.00024
302917,0.023344,-0.01793,-0.278225,0.087266,-0.0,-0.0,2.0,0.282024,0.284345,0.282024,0.279676,,,,,,,0.022705,-0.013129,-0.177382,0.272881,4.3e-05,-0.000271
302937,0.029287,-0.018076,-0.278631,0.087266,-0.0,-0.0,2.0,0.282024,0.291045,0.282024,0.272568,,,,,,,0.028423,-0.013129,-0.177388,0.317671,2.8e-05,-0.000311
302957,0.035592,-0.018168,-0.279014,0.087266,-0.0,-0.0,2.0,0.282024,0.297822,0.282024,0.264837,,,,,,,0.034728,-0.013128,-0.177394,0.317731,1.9e-05,-0.000349
302977,0.042055,-0.018481,-0.279424,0.087266,-0.0,-0.0,2.0,0.282024,0.30354,0.282024,0.257836,,,,,,,0.041294,-0.013128,-0.177402,0.297117,-1.2e-05,-0.000389
302997,0.048397,-0.018807,-0.279818,0.087266,-0.0,-0.0,2.0,0.282024,0.30326,0.282024,0.25819,,,,,,,0.047495,-0.013128,-0.17741,0.325144,-4.5e-05,-0.000428
303017,0.054097,-0.018977,-0.28005,0.087266,-0.0,-0.0,2.0,0.282024,0.301257,0.282024,0.260688,,,,,,,0.053457,-0.013129,-0.177418,0.272873,-6.2e-05,-0.00045
303037,0.059438,-0.019197,-0.280329,0.087266,-0.0,-0.0,2.0,0.282024,0.300145,0.282024,0.262049,,,,,,,0.059041,-0.013131,-0.177428,0.224492,-8.4e-05,-0.000477
303057,0.064141,-0.019258,-0.280621,0.087266,-0.0,-0.0,2.0,0.282024,0.294151,0.282024,0.269096,,,,,,,0.06374,-0.013132,-0.177437,0.225199,-9e-05,-0.000505
303077,0.067959,-0.019204,-0.280655,0.087266,-0.0,-0.0,2.0,0.282024,0.289115,0.282024,0.274668,,,,,,,0.067822,-0.013134,-0.177448,0.172636,-8.4e-05,-0.000508
303097,0.071172,-0.019236,-0.280704,0.087266,-0.0,-0.0,2.0,0.282024,0.282233,0.282024,0.281815,,,,,,,0.071158,-0.013136,-0.177458,0.148365,-8.7e-05,-0.000512
303117,0.073748,-0.019112,-0.280778,0.087266,-0.0,-0.0,2.0,0.282024,0.277508,0.282024,0.286438,,,,,,,0.073872,-0.013137,-0.177468,0.120801,-7.5e-05,-0.000518
303137,0.075737,-0.019199,-0.280749,0.087266,-0.0,-0.0,2.0,0.282024,0.272666,0.282024,0.290955,,,,,,,0.075977,-0.013139,-0.177478,0.097581,-8.3e-05,-0.000514
303157,0.077116,-0.019371,-0.28069,0.087266,-0.0,-0.0,2.0,0.282024,0.267928,0.282024,0.295173,,,,,,,0.077587,-0.013141,-0.177489,0.051821,-0.0001,-0.000507
303177,0.078605,-0.019407,-0.28068,0.087266,-0.0,-0.0,2.0,0.282024,0.267211,0.282024,0.295794,,,,,,,0.078949,-0.013143,-0.177499,0.076841,-0.000103,-0.000505
303197,0.079847,-0.019476,-0.280628,0.087266,-0.0,-0.0,2.0,0.282024,0.26638,0.282024,0.296509,,,,,,,0.080213,-0.013145,-0.177509,0.072479,-0.00011,-0.000499
303217,0.081226,-0.019648,-0.280566,0.087266,-0.0,-0.0,2.0,0.282024,0.268095,0.282024,0.295027,,,,,,,0.081576,-0.013147,-0.177519,0.075871,-0.000127,-0.000492
303237,0.082836,-0.019666,-0.280549,0.087266,-0.0,-0.0,2.0,0.282024,0.272007,0.282024,0.291553,,,,,,,0.083184,-0.01315,-0.177529,0.075969,-0.000129,-0.000489
303257,0.084928,-0.019615,-0.280513,0.087266,-0.0,-0.0,2.0,0.282024,0.276589,0.282024,0.287313,,,,,,,0.08503,-0.013152,-0.177538,0.125206,-0.000123,-0.000484
303277,0.087141,-0.019546,-0.28047,0.087266,-0.0,-0.0,2.0,0.282024,0.278168,0.282024,0.285806,,,,,,,0.08726,-0.013155,-0.177548,0.121751,-0.000116,-0.000479
303297,0.089993,-0.019627,-0.280508,0.087266,-0.0,-0.0,2.0,0.282024,0.286768,0.282024,0.277163,,,,,,,0.090094,-0.013157,-0.177558,0.1253,-0.000124,-0.000482
303317,0.09331,-0.019512,-0.280643,0.087266,-0.0,-0.0,2.0,0.282024,0.293095,0.282024,0.27029,,,,,,,0.093174,-0.013159,-0.177567,0.172627,-0.000112,-0.000494
303337,0.096788,-0.019627,-0.280693,0.087266,-0.0,-0.0,2.0,0.282024,0.294526,0.282024,0.268669,,,,,,,0.096526,-0.013162,-0.177577,0.197743,-0.000124,-0.000498
303357,0.100502,-0.019699,-0.280793,0.087266,-0.0,-0.0,2.0,0.282024,0.299922,0.282024,0.26232,,,,,,,0.100366,-0.013164,-0.177587,0.172589,-0.000131,-0.000507
303377,0.10448,-0.019857,-0.28092,0.087266,-0.0,-0.0,2.0,0.282024,0.302645,0.282024,0.258964,,,,,,,0.104207,-0.013167,-0.177597,0.200004,-0.000146,-0.000519
303397,0.1082,-0.019934,-0.280942,0.087266,-0.0,-0.0,2.0,0.282024,0.303082,0.282024,0.258414,,,,,,,0.107944,-0.01317,-0.177608,0.196523,-0.000154,-0.00052
303417,0.111799,-0.020028,-0.280963,0.087266,-0.0,-0.0,2.0,0.282024,0.303193,0.282024,0.258275,,,,,,,0.111664,-0.013173,-0.177618,0.172383,-0.000163,-0.000521
303437,0.11514,-0.020028,-0.281113,0.087266,-0.0,-0.0,2.0,0.282024,0.303598,0.282024,0.257763,,,,,,,0.115126,-0.013176,-0.177629,0.148322,-0.000162,-0.000535
303457,0.117981,-0.019983,-0.281174,0.087266,-0.0,-0.0,2.0,0.282024,0.300851,0.282024,0.261187,,,,,,,0.118098,-0.01318,-0.17764,0.122214,-0.000157,-0.00054
303477,0.12047,-0.020111,-0.281192,0.087266,-0.0,-0.0,2.0,0.282024,0.297353,0.282024,0.265391,,,,,,,0.120577,-0.013183,-0.177651,0.124072,-0.00017,-0.000541
303497,0.122459,-0.020187,-0.281239,0.087266,-0.0,-0.0,2.0,0.282024,0.294877,0.282024,0.268267,,,,,,,0.122688,-0.013186,-0.177661,0.099934,-0.000177,-0.000545
303517,0.123828,-0.020236,-0.281207,0.087266,-0.0,-0.0,2.0,0.282024,0.28883,0.282024,0.274973,,,,,,,0.124178,-0.01319,-0.177672,0.075694,-0.000182,-0.00054
303537,0.12481,-0.020218,-0.28115,0.087266,-0.0,-0.0,2.0,0.282024,0.285336,0.282024,0.278656,,,,,,,0.125299,-0.013193,-0.177683,0.048149,-0.00018,-0.000534
303557,0.125576,-0.020347,-0.281264,0.087266,-0.0,-0.0,2.0,0.282024,0.285308,0.282024,0.278684,,,,,,,0.126185,-0.013197,-0.177694,0.024175,-0.000192,-0.000544
303577,0.126075,-0.020406,-0.281115,0.087266,-0.0,-0.0,2.0,0.282024,0.283637,0.282024,0.280398,,,,,,,0.126684,-0.013201,-0.177704,0.024139,-0.000198,-0.000528
303597,0.126316,-0.020371,-0.281103,0.087266,-0.0,-0.0,2.0,0.282024,0.28254,0.282024,0.281507,,,,,,,0.127046,-0.013205,-0.177715,6.9e-05,-0.000194,-0.000526
303617,0.126558,-0.020328,-0.281206,0.087266,-0.0,-0.0,2.0,0.282024,0.282707,0.282024,0.281339,,,,,,,0.127288,-0.013209,-0.177726,9.9e-05,-0.000189,-0.000535
303637,0.12692,-0.020284,-0.281071,0.087266,-0.0,-0.0,2.0,0.282024,0.282219,0.282024,0.281829,,,,,,,0.127529,-0.013212,-0.177736,0.024023,-0.000184,-0.00052
303657,0.127306,-0.020352,-0.281095,0.087266,-0.0,-0.0,2.0,0.282024,0.283985,0.282024,0.280044,,,,,,,0.127899,-0.013216,-0.177747,0.027519,-0.000191,-0.000522
303677,0.127926,-0.020386,-0.281055,0.087266,-0.0,-0.0,2.0,0.282024,0.286503,0.282024,0.277441,,,,,,,0.128415,-0.01322,-0.177757,0.04813,-0.000194,-0.000517
303697,0.128667,-0.020402,-0.281009,0.087266,-0.0,-0.0,2.0,0.282024,0.288639,0.282024,0.275178,,,,,,,0.129156,-0.013224,-0.177768,0.048142,-0.000195,-0.000511
303717,0.129554,-0.020521,-0.280999,0.087266,-0.0,-0.0,2.0,0.282024,0.289893,0.282024,0.273826,,,,,,,0.130008,-0.013228,-0.177778,0.054949,-0.000206,-0.000509
303737,0.130639,-0.020364,-0.28094,0.087266,-0.0,-0.0,2.0,0.282024,0.293269,0.282024,0.270094,,,,,,,0.131007,-0.013232,-0.177788,0.072264,-0.00019,-0.000502
303757,0.131767,-0.020449,-0.280917,0.087266,-0.0,-0.0,2.0,0.282024,0.297011,0.282024,0.265794,,,,,,,0.132238,-0.013236,-0.177798,0.051724,-0.000198,-0.000499
303777,0.132878,-0.020404,-0.281016,0.087266,-0.0,-0.0,2.0,0.282024,0.296725,0.282024,0.266128,,,,,,,0.133349,-0.013239,-0.177808,0.051649,-0.000194,-0.000508
303797,0.134221,-0.020325,-0.281051,0.087266,-0.0,-0.0,2.0,0.282024,0.29841,0.282024,0.264138,,,,,,,0.134589,-0.013243,-0.177818,0.072287,-0.000185,-0.00051
303817,0.13547,-0.020392,-0.281019,0.087266,-0.0,-0.0,2.0,0.282024,0.299044,0.282024,0.26338,,,,,,,0.13582,-0.013247,-0.177828,0.075656,-0.000192,-0.000506
303837,0.13658,-0.020347,-0.281116,0.087266,-0.0,-0.0,2.0,0.282024,0.299917,0.282024,0.262325,,,,,,,0.137051,-0.013251,-0.177839,0.051633,-0.000187,-0.000515
303857,0.137691,-0.02031,-0.281097,0.087266,-0.0,-0.0,2.0,0.282024,0.299613,0.282024,0.262693,,,,,,,0.13805,-0.013254,-0.177849,0.073935,-0.000183,-0.000512
303877,0.138449,-0.020438,-0.281156,0.087266,-0.0,-0.0,2.0,0.282024,0.300095,0.282024,0.262109,,,,,,,0.13904,-0.013258,-0.177859,0.027622,-0.000195,-0.000517
303897,0.13906,-0.020351,-0.281172,0.087266,-0.0,-0.0,2.0,0.282024,0.298028,0.282024,0.264593,,,,,,,0.139661,-0.013262,-0.177869,0.025822,-0.000186,-0.000517
303917,0.139439,-0.020419,-0.281143,0.087266,-0.0,-0.0,2.0,0.282024,0.298605,0.282024,0.263905,,,,,,,0.140168,-0.013266,-0.17788,0.000198,-0.000192,-0.000513
303937,0.139456,-0.02054,-0.281136,0.087266,-0.0,-0.0,2.0,0.282024,0.295288,0.282024,0.267795,,,,,,,0.140307,-0.01327,-0.17789,-0.024004,-0.000204,-0.000511
303957,0.139456,-0.02054,-0.281136,0.087266,-0.0,-0.0,2.0,0.282024,0.292962,0.282024,0.27044,,,,,,,0.140187,-0.013274,-0.1779,-8.6e-05,-0.000204,-0.00051
303977,0.139198,-0.020454,-0.281157,0.087266,-0.0,-0.0,2.0,0.282024,0.293277,0.282024,0.270085,,,,,,,0.140049,-0.013277,-0.17791,-0.024011,-0.000195,-0.000512
303997,0.13894,-0.020368,-0.281179,0.087266,-0.0,-0.0,2.0,0.282024,0.292113,0.282024,0.271388,,,,,,,0.139791,-0.013281,-0.177921,-0.024131,-0.000186,-0.000513
304017,0.138931,-0.020368,-0.281129,0.087266,-0.0,-0.0,2.0,0.282024,0.294522,0.282024,0.268674,,,,,,,0.139661,-0.013285,-0.177931,1.2e-05,-0.000185,-0.000507
304037,0.138931,-0.020377,-0.281013,0.087266,-0.0,-0.0,2.0,0.282024,0.294969,0.282024,0.268162,,,,,,,0.139541,-0.013289,-0.177941,0.024009,-0.000186,-0.000494
304057,0.138931,-0.020368,-0.281129,0.087266,-0.0,-0.0,2.0,0.282024,0.296915,0.282024,0.265906,,,,,,,0.139661,-0.013292,-0.177951,-0.0,-0.000185,-0.000505
304077,0.139198,-0.020454,-0.281157,0.087266,-0.0,-0.0,2.0,0.282024,0.297874,0.282024,0.264775,,,,,,,0.139791,-0.013296,-0.177961,0.027411,-0.000193,-0.000507
304097,0.139439,-0.020419,-0.281143,0.087266,-0.0,-0.0,2.0,0.282024,0.299488,0.282024,0.262845,,,,,,,0.140049,-0.0133,-0.177971,0.024011,-0.000189,-0.000504
304117,0.139577,-0.020522,-0.281129,0.087266,-0.0,-0.0,2.0,0.282024,0.300282,0.282024,0.261881,,,,,,,0.140307,-0.013304,-0.177981,-1e-06,-0.000199,-0.000502
304137,0.139818,-0.020487,-0.281115,0.087266,-0.0,-0.0,2.0,0.282024,0.299986,0.282024,0.262242,,,,,,,0.140428,-0.013308,-0.177991,0.024015,-0.000195,-0.000499
304157,0.139818,-0.020487,-0.281115,0.087266,-0.0,-0.0,2.0,0.282024,0.300143,0.282024,0.262051,,,,,,,0.140548,-0.013312,-0.178001,0.0,-0.000195,-0.000498
304177,0.139697,-0.020505,-0.281122,0.087266,-0.0,-0.0,2.0,0.282024,0.299744,0.282024,0.262535,,,,,,,0.140428,-0.013316,-0.178011,-1.4e-05,-0.000196,-0.000498
304197,0.139456,-0.02054,-0.281136,0.087266,-0.0,-0.0,2.0,0.282024,0.300305,0.282024,0.261854,,,,,,,0.140307,-0.01332,-0.178021,-0.024017,-0.000199,-0.000498
304217,0.139198,-0.020454,-0.281157,0.087266,-0.0,-0.0,2.0,0.282024,0.300105,0.282024,0.262097,,,,,,,0.140066,-0.013324,-0.178031,-0.027404,-0.00019,-0.0005
304237,0.138948,-0.020497,-0.281005,0.087266,-0.0,-0.0,2.0,0.282024,0.300722,0.282024,0.261344,,,,,,,0.139808,-0.013328,-0.178041,-0.025747,-0.000194,-0.000483
304257,0.138707,-0.020524,-0.281135,0.087266,-0.0,-0.0,2.0,0.282024,0.299205,0.282024,0.263186,,,,,,,0.139438,-0.013331,-0.178051,-9.9e-05,-0.000196,-0.000495
304277,0.138604,-0.020662,-0.281134,0.087266,-0.0,-0.0,2.0,0.282024,0.301796,0.282024,0.260022,,,,,,,0.139334,-0.013335,-0.17806,2.9e-05,-0.00021,-0.000494
304297,0.138483,-0.020688,-0.281025,0.087266,-0.0,-0.0,2.0,0.282024,0.30106,0.282024,0.26093,,,,,,,0.139214,-0.01334,-0.17807,-9.9e-05,-0.000212,-0.000482
304317,0.138603,-0.02067,-0.281018,0.087266,-0.0,-0.0,2.0,0.282024,0.303175,0.282024,0.258297,,,,,,,0.139213,-0.013344,-0.17808,0.024015,-0.00021,-0.000481
304337,0.138724,-0.020653,-0.281011,0.087266,-0.0,-0.0,2.0,0.282024,0.304963,0.282024,0.25602,,,,,,,0.139351,-0.013348,-0.17809,0.020621,-0.000208,-0.000479
304357,0.138741,-0.020773,-0.281003,0.087266,-0.0,-0.0,2.0,0.282024,0.305325,0.282024,0.255553,,,,,,,0.139472,-0.013352,-0.178099,-0.0,-0.000219,-0.000477
304377,0.138741,-0.020773,-0.281003,0.087266,-0.0,-0.0,2.0,0.282024,0.305551,0.282024,0.255259,,,,,,,0.139472,-0.013357,-0.178109,-0.0,-0.000219,-0.000476
304397,0.1385,-0.020808,-0.281017,0.087266,-0.0,-0.0,2.0,0.282024,0.305594,0.282024,0.255203,,,,,,,0.139351,-0.013361,-0.178118,-0.024,-0.000222,-0.000477
304417,0.138259,-0.020843,-0.281031,0.087266,-0.0,-0.0,2.0,0.282024,0.304173,0.282024,0.257032,,,,,,,0.139127,-0.013366,-0.178128,-0.027524,-0.000225,-0.000477
304437,0.138018,-0.020878,-0.281044,0.087266,-0.0,-0.0,2.0,0.282024,0.303774,0.282024,0.25754,,,,,,,0.138749,-0.01337,-0.178137,-9.9e-05,-0.000228,-0.000478
304457,0.137759,-0.020792,-0.281066,0.087266,-0.0,-0.0,2.0,0.282024,0.304459,0.282024,0.256667,,,,,,,0.138507,-0.013375,-0.178147,-0.003489,-0.000219,-0.000479
304477,0.137389,-0.020853,-0.28092,0.087266,-0.0,-0.0,2.0,0.282024,0.305568,0.282024,0.255238,,,,,,,0.13824,-0.013379,-0.178156,-0.024028,-0.000224,-0.000463
304497,0.137027,-0.020914,-0.280825,0.087266,-0.0,-0.0,2.0,0.282024,0.304492,0.282024,0.256624,,,,,,,0.137879,-0.013384,-0.178165,-0.024131,-0.00023,-0.000453
304517,0.136786,-0.02094,-0.280954,0.087266,-0.0,-0.0,2.0,0.282024,0.307076,0.282024,0.253263,,,,,,,0.137637,-0.013388,-0.178174,-0.024003,-0.000232,-0.000465
304537,0.136424,-0.021001,-0.280859,0.087266,-0.0,-0.0,2.0,0.282024,0.306094,0.282024,0.254553,,,,,,,0.137276,-0.013393,-0.178184,-0.024103,-0.000238,-0.000454
304557,0.136037,-0.020933,-0.280837,0.087266,-0.0,-0.0,2.0,0.282024,0.303668,0.282024,0.257674,,,,,,,0.136769,-0.013398,-0.178193,-0.000219,-0.000231,-0.000451
304577,0.135555,-0.021011,-0.280748,0.087266,-0.0,-0.0,2.0,0.282024,0.305498,0.282024,0.255328,,,,,,,0.136406,-0.013402,-0.178202,-0.02414,-0.000238,-0.000442
304597,0.134918,-0.020857,-0.280797,0.087266,-0.0,-0.0,2.0,0.282024,0.303318,0.282024,0.258117,,,,,,,0.135787,-0.013407,-0.178211,-0.02764,-0.000222,-0.000446
304617,0.134306,-0.020944,-0.280781,0.087266,-0.0,-0.0,2.0,0.282024,0.304216,0.282024,0.256978,,,,,,,0.135158,-0.013412,-0.17822,-0.024136,-0.00023,-0.000443
304637,0.133566,-0.02092,-0.280945,0.087266,-0.0,-0.0,2.0,0.282024,0.303132,0.282024,0.258351,,,,,,,0.134418,-0.013416,-0.178229,-0.024212,-0.000227,-0.000458
304657,0.132705,-0.020921,-0.280999,0.087266,-0.0,-0.0,2.0,0.282024,0.304246,0.282024,0.256939,,,,,,,0.133677,-0.013421,-0.178238,-0.048136,-0.000227,-0.000463
304677,0.131835,-0.020923,-0.281003,0.087266,-0.0,-0.0,2.0,0.282024,0.302009,0.282024,0.259757,,,,,,,0.132687,-0.013425,-0.178247,-0.024217,-0.000227,-0.000462
304697,0.130853,-0.020942,-0.281063,0.087266,-0.0,-0.0,2.0,0.282024,0.302319,0.282024,0.259371,,,,,,,0.131826,-0.01343,-0.178256,-0.048241,-0.000228,-0.000468
304717,0.129846,-0.020848,-0.280964,0.087266,-0.0,-0.0,2.0,0.282024,0.301935,0.282024,0.259849,,,,,,,0.130836,-0.013434,-0.178266,-0.051657,-0.000218,-0.000457
304737,0.128736,-0.020884,-0.28098,0.087266,-0.0,-0.0,2.0,0.282024,0.301759,0.282024,0.260068,,,,,,,0.129837,-0.013439,-0.178275,-0.073866,-0.000222,-0.000457
304757,0.127754,-0.020903,-0.281039,0.087266,-0.0,-0.0,2.0,0.282024,0.30108,0.282024,0.260905,,,,,,,0.128726,-0.013443,-0.178284,-0.04826,-0.000223,-0.000462
304777,0.126764,-0.020921,-0.281047,0.087266,-0.0,-0.0,2.0,0.282024,0.301824,0.282024,0.259987,,,,,,,0.127736,-0.013448,-0.178293,-0.048255,-0.000224,-0.000462
304797,0.125902,-0.02093,-0.280983,0.087266,-0.0,-0.0,2.0,0.282024,0.3011,0.282024,0.260881,,,,,,,0.126755,-0.013452,-0.178302,-0.024362,-0.000225,-0.000455
304817,0.124895,-0.020821,-0.281114,0.087266,-0.0,-0.0,2.0,0.282024,0.302325,0.282024,0.259363,,,,,,,0.125885,-0.013457,-0.178312,-0.051658,-0.000213,-0.000467
304837,0.124034,-0.02083,-0.281049,0.087266,-0.0,-0.0,2.0,0.282024,0.302752,0.282024,0.258829,,,,,,,0.125024,-0.013461,-0.178321,-0.051708,-0.000214,-0.00046
304857,0.123302,-0.020934,-0.281037,0.087266,-0.0,-0.0,2.0,0.282024,0.304927,0.282024,0.256066,,,,,,,0.124274,-0.013465,-0.17833,-0.048159,-0.000224,-0.000458
304877,0.122682,-0.0209,-0.281075,0.087266,-0.0,-0.0,2.0,0.282024,0.305138,0.282024,0.255794,,,,,,,0.123534,-0.01347,-0.178339,-0.02414,-0.00022,-0.00046
304897,0.121958,-0.021012,-0.280997,0.087266,-0.0,-0.0,2.0,0.282024,0.30421,0.282024,0.256985,,,,,,,0.12281,-0.013474,-0.178348,-0.02423,-0.000231,-0.000452
304917,0.12133,-0.020978,-0.280984,0.087266,-0.0,-0.0,2.0,0.282024,0.306408,0.282024,0.254142,,,,,,,0.122182,-0.013479,-0.178357,-0.024114,-0.000227,-0.00045
304937,0.120589,-0.020962,-0.281028,0.087266,-0.0,-0.0,2.0,0.282024,0.305884,0.282024,0.254827,,,,,,,0.121561,-0.013483,-0.178366,-0.048161,-0.000225,-0.000453
304957,0.119969,-0.020929,-0.281066,0.087266,-0.0,-0.0,2.0,0.282024,0.306967,0.282024,0.253407,,,,,,,0.120958,-0.013488,-0.178376,-0.051563,-0.000221,-0.000456
304977,0.119221,-0.020912,-0.281059,0.087266,-0.0,-0.0,2.0,0.282024,0.304678,0.282024,0.256386,,,,,,,0.120193,-0.013492,-0.178385,-0.048259,-0.000219,-0.000454
304997,0.11848,-0.020896,-0.281102,0.087266,-0.0,-0.0,2.0,0.282024,0.305539,0.282024,0.255275,,,,,,,0.119452,-0.013497,-0.178394,-0.048174,-0.000217,-0.000458
305017,0.117628,-0.021017,-0.281094,0.087266,-0.0,-0.0,2.0,0.282024,0.304173,0.282024,0.257032,,,,,,,0.1186,-0.013501,-0.178403,-0.048267,-0.000229,-0.000456
305037,0.116887,-0.021001,-0.281137,0.087266,-0.0,-0.0,2.0,0.282024,0.302502,0.282024,0.259142,,,,,,,0.117739,-0.013506,-0.178412,-0.024329,-0.000227,-0.000459
305057,0.115897,-0.021027,-0.281025,0.087266,-0.0,-0.0,2.0,0.282024,0.303093,0.282024,0.258401,,,,,,,0.116877,-0.01351,-0.178421,-0.049695,-0.000229,-0.000447
305077,0.114932,-0.021166,-0.281072,0.087266,-0.0,-0.0,2.0,0.282024,0.301864,0.282024,0.259938,,,,,,,0.115905,-0.013515,-0.17843,-0.048365,-0.000242,-0.000451
305097,0.113925,-0.021063,-0.281082,0.087266,-0.0,-0.0,2.0,0.282024,0.302678,0.282024,0.258922,,,,,,,0.114922,-0.013519,-0.178439,-0.053079,-0.000231,-0.000451
305117,0.112822,-0.021099,-0.281142,0.087266,-0.0,-0.0,2.0,0.282024,0.301443,0.282024,0.260458,,,,,,,0.113812,-0.013524,-0.178448,-0.05167,-0.000235,-0.000456
305137,0.111833,-0.021117,-0.281144,0.087266,-0.0,-0.0,2.0,0.282024,0.302117,0.282024,0.259623,,,,,,,0.112812,-0.013529,-0.178457,-0.049668,-0.000236,-0.000456
305157,0.110729,-0.021153,-0.281202,0.087266,-0.0,-0.0,2.0,0.282024,0.300846,0.282024,0.261192,,,,,,,0.111685,-0.013534,-0.178466,-0.044816,-0.000239,-0.000461
305177,0.109723,-0.021057,-0.281094,0.087266,-0.0,-0.0,2.0,0.282024,0.301863,0.282024,0.259939,,,,,,,0.110712,-0.013538,-0.178475,-0.051679,-0.000229,-0.000449
305197,0.108757,-0.021196,-0.28114,0.087266,-0.0,-0.0,2.0,0.282024,0.301983,0.282024,0.259789,,,,,,,0.10973,-0.013543,-0.178484,-0.048274,-0.000242,-0.000452
305217,0.107758,-0.021094,-0.281197,0.087266,-0.0,-0.0,2.0,0.282024,0.301485,0.282024,0.260406,,,,,,,0.10873,-0.013548,-0.178493,-0.048291,-0.000232,-0.000457
305237,0.106889,-0.021094,-0.281192,0.087266,-0.0,-0.0,2.0,0.282024,0.303273,0.282024,0.258173,,,,,,,0.107878,-0.013553,-0.178502,-0.051506,-0.000231,-0.000456
305257,0.106147,-0.021084,-0.281116,0.087266,-0.0,-0.0,2.0,0.282024,0.302476,0.282024,0.259175,,,,,,,0.106999,-0.013557,-0.178511,-0.024253,-0.00023,-0.000447
305277,0.105279,-0.021085,-0.28111,0.087266,-0.0,-0.0,2.0,0.282024,0.302322,0.282024,0.259368,,,,,,,0.106235,-0.013562,-0.17852,-0.044892,-0.000229,-0.000446
305297,0.104538,-0.021068,-0.281149,0.087266,-0.0,-0.0,2.0,0.282024,0.304217,0.282024,0.256976,,,,,,,0.10551,-0.013566,-0.178529,-0.048166,-0.000227,-0.000449
305317,0.103789,-0.021058,-0.281021,0.087266,-0.0,-0.0,2.0,0.282024,0.304348,0.282024,0.256809,,,,,,,0.104768,-0.013571,-0.178538,-0.049485,-0.000226,-0.000435
305337,0.103065,-0.021162,-0.281054,0.087266,-0.0,-0.0,2.0,0.282024,0.302409,0.282024,0.259258,,,,,,,0.103917,-0.013575,-0.178547,-0.024239,-0.000236,-0.000438
305357,0.102324,-0.021145,-0.281092,0.087266,-0.0,-0.0,2.0,0.282024,0.304038,0.282024,0.257205,,,,,,,0.103313,-0.01358,-0.178555,-0.051585,-0.000234,-0.000441
305377,0.101576,-0.021134,-0.280964,0.087266,-0.0,-0.0,2.0,0.282024,0.303395,0.282024,0.25802,,,,,,,0.102555,-0.013585,-0.178564,-0.049459,-0.000232,-0.000427
305397,0.100835,-0.021118,-0.281002,0.087266,-0.0,-0.0,2.0,0.282024,0.301263,0.282024,0.26068,,,,,,,0.101687,-0.013589,-0.178573,-0.024323,-0.00023,-0.00043
305417,0.100076,-0.02098,-0.281045,0.087266,-0.0,-0.0,2.0,0.282024,0.301947,0.282024,0.259834,,,,,,,0.100945,-0.013594,-0.178582,-0.027628,-0.000216,-0.000433
305437,0.099087,-0.020998,-0.281043,0.087266,-0.0,-0.0,2.0,0.282024,0.300746,0.282024,0.261315,,,,,,,0.10006,-0.013598,-0.17859,-0.048304,-0.000217,-0.000432
305457,0.098225,-0.020999,-0.281085,0.087266,-0.0,-0.0,2.0,0.282024,0.300569,0.282024,0.261532,,,,,,,0.099198,-0.013602,-0.178599,-0.048287,-0.000217,-0.000435
305477,0.097362,-0.021005,-0.281011,0.087266,-0.0,-0.0,2.0,0.282024,0.299023,0.282024,0.263405,,,,,,,0.098215,-0.013607,-0.178608,-0.024342,-0.000217,-0.000427
305497,0.096494,-0.021005,-0.281002,0.087266,-0.0,-0.0,2.0,0.282024,0.301635,0.282024,0.260221,,,,,,,0.097467,-0.013611,-0.178616,-0.048204,-0.000217,-0.000425
