time_ms,roll,pitch,yaw,roll_rate,pitch_rate,yaw_rate,reference_roll,reference_pitch,reference_yaw,reference_throttle,throttle_1,throttle_2,throttle_3,throttle_4,roll_predicted,pitch_predicted,yaw_predicted,roll_rate_predicted,pitch_rate_predicted,yaw_rate_predicted
961308,0.001327,-0.027767,0.062807,-0.001064,-0.001064,-1e-06,0.0,-0.0,-0.0,3.032258,0.327388,0.313464,0.327388,0.340552,,,,,,
961328,0.001201,-0.027885,0.062805,-0.001064,-0.001064,-1e-06,0.0,-0.0,-0.0,3.032258,0.327388,0.318172,0.327388,0.336265,,,,,,
961348,0.001205,-0.027763,0.062805,0.0,-0.001064,-1e-06,0.0,-0.0,-0.0,3.032258,0.327388,0.318198,0.327388,0.336241,,,,,,
961368,0.001327,-0.027767,0.062807,0.0,-0.001064,-1e-06,0.0,-0.0,-0.0,3.032258,0.327388,0.318338,0.327388,0.336111,,,,,,
961388,0.001574,-0.027652,0.06281,0.0,-0.001064,-2e-06,0.0,-0.0,-0.0,3.032258,0.327388,0.318601,0.327388,0.335866,,,,,,
961408,0.001817,-0.02766,0.062935,2.9e-05,-0.001062,-0.001067,0.0,-0.0,-0.0,3.032258,0.327388,0.318864,0.327388,0.335622,,,,,,
961428,0.001813,-0.027782,0.062935,-0.001035,2e-06,-0.001065,0.0,-0.0,-0.0,3.032258,0.327388,0.318767,0.327388,0.335712,,,,,,
961448,0.001815,-0.027782,0.062814,-0.001035,2e-06,-0.001065,0.0,-0.0,-0.0,3.032258,0.327388,0.314148,0.327388,0.339939,,,,,,
961468,0.001693,-0.027778,0.062812,-0.001035,2e-06,-0.001065,0.0,-0.0,-0.0,3.032258,0.327388,0.314197,0.327388,0.339895,,,,,,
961488,0.001563,-0.028018,0.062811,-0.001064,0.0,0.0,0.0,-0.0,-0.0,3.032258,0.327388,0.314106,0.327388,0.339977,,,,,,
961508,0.001572,-0.027774,0.062688,0.0,0.0,0.0,0.0,-0.0,-0.0,3.032258,0.327388,0.318806,0.327388,0.335675,,,,,,
961528,0.001572,-0.027774,0.062688,0.0,-0.001064,-2e-06,0.0,-0.0,-0.0,3.032258,0.327388,0.318837,0.327388,0.335647,,,,,,
961548,0.001941,-0.027664,0.062815,3e-05,-0.001062,-0.001067,0.0,-0.0,-0.0,3.032258,0.327388,0.319219,0.327388,0.335289,,,,,,
961568,0.002055,-0.027912,0.062817,3e-05,2e-06,-0.001065,0.0,-0.0,-0.0,3.032258,0.327388,0.319239,0.327388,0.335271,,,,,,
961588,0.002181,-0.027794,0.062819,3e-05,2e-06,-0.001065,0.0,-0.0,-0.0,3.032258,0.327388,0.3194,0.327388,0.335121,,,,,,
961608,0.002181,-0.027794,0.062819,-0.001035,2e-06,-0.001065,0.0,-0.0,-0.0,3.032258,0.327388,0.314796,0.327388,0.339356,,,,,,
961628,0.002179,-0.027915,0.062697,-0.001064,-0.001064,-2e-06,0.0,-0.0,-0.0,3.032258,0.327388,0.314837,0.327388,0.339318,,,,,,
961648,0.001935,-0.027908,0.062694,-0.001064,-0.001064,-2e-06,0.0,-0.0,-0.0,3.032258,0.327388,0.314644,0.327388,0.339493,,,,,,
961668,0.001935,-0.027908,0.062694,-3e-05,-0.001066,0.001063,0.0,-0.0,-0.0,3.032258,0.327388,0.319461,0.327388,0.335063,,,,,,
961688,0.002181,-0.027794,0.062819,0.0,-0.001064,-2e-06,0.0,-0.0,-0.0,3.032258,0.327388,0.319734,0.327388,0.334807,,,,,,
961708,0.002177,-0.027916,0.062819,3e-05,-0.001062,-0.001067,0.0,-0.0,-0.0,3.032258,0.327388,0.319771,0.327388,0.334772,,,,,,
961728,0.002299,-0.027919,0.06282,3e-05,-0.001062,-0.001067,0.0,-0.0,-0.0,3.032258,0.327388,0.319803,0.327388,0.334742,,,,,,
961748,0.002173,-0.028038,0.062819,-0.001034,-0.001062,-0.001067,0.0,-0.0,-0.0,3.032258,0.327388,0.315088,0.327388,0.339091,,,,,,
961768,0.002179,-0.027915,0.062697,-0.001035,2e-06,-0.001065,0.0,-0.0,-0.0,3.032258,0.327388,0.31514,0.327388,0.339045,,,,,,
961788,0.002057,-0.027912,0.062695,-0.001035,2e-06,-0.001065,0.0,-0.0,-0.0,3.032258,0.327388,0.315066,0.327388,0.339112,,,,,,
961808,0.001931,-0.02803,0.062694,-0.001064,0.0,0.0,0.0,-0.0,-0.0,3.032258,0.327388,0.314984,0.327388,0.339186,,,,,,
961828,0.001935,-0.027908,0.062694,0.0,-0.001064,-2e-06,0.0,-0.0,-0.0,3.032258,0.327388,0.319796,0.327388,0.334749,,,,,,
961848,0.002057,-0.027912,0.062695,0.0,0.0,0.0,0.0,-0.0,-0.0,3.032258,0.327388,0.319951,0.327388,0.334603,,,,,,
961868,0.002421,-0.027923,0.062822,3e-05,3e-06,-0.001065,0.0,-0.0,-0.0,3.032258,0.327388,0.320338,0.327388,0.334238,,,,,,
961888,0.002543,-0.027927,0.062824,-0.001034,3e-06,-0.001065,0.0,-0.0,-0.0,3.032258,0.327388,0.320373,0.327388,0.334205,,,,,,
961908,0.002421,-0.027923,0.062822,-0.001034,-0.001062,-0.001067,0.0,-0.0,-0.0,3.032258,0.327388,0.315675,0.327388,0.338558,,,,,,
961928,0.002179,-0.027915,0.062697,-0.001034,-0.001062,-0.001067,0.0,-0.0,-0.0,3.032258,0.327388,0.315491,0.327388,0.338726,,,,,,
961948,0.00206,-0.02779,0.062695,-0.001064,-0.001064,-2e-06,0.0,-0.0,-0.0,3.032258,0.327388,0.315423,0.327388,0.338788,,,,,,
961968,0.002308,-0.027675,0.062698,0.0,-0.001064,-2e-06,0.0,-0.0,-0.0,3.032258,0.327388,0.320461,0.327388,0.334122,,,,,,
961988,0.002307,-0.027675,0.06282,0.0,-0.001064,-2e-06,0.0,-0.0,-0.0,3.032258,0.327388,0.3205,0.327388,0.334085,,,,,,
962008,0.002547,-0.027805,0.062824,0.0,-0.001064,-3e-06,0.0,-0.0,-0.0,3.032258,0.327388,0.320773,0.327388,0.333827,,,,,,
962028,0.002913,-0.027816,0.062829,0.0,0.0,0.0,0.0,-0.0,-0.0,3.032258,0.327388,0.321169,0.327388,0.333451,,,,,,
962048,0.003029,-0.027942,0.062952,3e-05,3e-06,-0.001065,0.0,-0.0,-0.0,3.032258,0.327388,0.321338,0.327388,0.333291,,,,,,
962068,0.003029,-0.027942,0.062952,-0.001034,3e-06,-0.001065,0.0,-0.0,-0.0,3.032258,0.327388,0.321271,0.327388,0.333354,,,,,,
962088,0.003033,-0.02782,0.062952,-0.001035,3e-06,-0.001065,0.0,-0.0,-0.0,3.032258,0.327388,0.321463,0.327388,0.333171,,,,,,
962108,0.003161,-0.027702,0.062832,-0.001064,-0.001064,-3e-06,0.0,-0.0,-0.0,3.032258,0.327388,0.317042,0.327388,0.337309,,,,,,
962128,0.003042,-0.027576,0.06283,0.0,-0.001064,-3e-06,0.0,-0.0,-0.0,3.032258,0.327388,0.316991,0.327388,0.337355,,,,,,
962148,0.003042,-0.027576,0.06283,0.0,0.0,0.0,0.0,-0.0,-0.0,3.032258,0.327388,0.321655,0.327388,0.332989,,,,,,
962168,0.003157,-0.027824,0.062832,3e-05,3e-06,-0.001065,0.0,-0.0,-0.0,3.032258,0.327388,0.321696,0.327388,0.332949,,,,,,
962188,0.003279,-0.027828,0.062834,3e-05,3e-06,-0.001065,0.0,-0.0,-0.0,3.032258,0.327388,0.321873,0.327388,0.332781,,,,,,
962208,0.003397,-0.027954,0.062835,3e-05,4e-06,-0.001065,0.0,-0.0,-0.0,3.032258,0.327388,0.322046,0.327388,0.332614,,,,,,
962228,0.003279,-0.027828,0.062834,-0.001035,-0.001061,-0.001068,0.0,-0.0,-0.0,3.032258,0.327388,0.317407,0.327388,0.336973,,,,,,
962248,0.003157,-0.027824,0.062832,-0.001064,-0.001064,-3e-06,0.0,-0.0,-0.0,3.032258,0.327388,0.317485,0.327388,0.336901,,,,,,
962268,0.003161,-0.027702,0.062832,-0.001064,-0.001064,-3e-06,0.0,-0.0,-0.0,3.032258,0.327388,0.317552,0.327388,0.336839,,,,,,
962288,0.003283,-0.027706,0.062833,0.0,-0.001064,-3e-06,0.0,-0.0,-0.0,3.032258,0.327388,0.317731,0.327388,0.336674,,,,,,
962308,0.003155,-0.027824,0.062954,3e-05,3e-06,-0.001065,0.0,-0.0,-0.0,3.032258,0.327388,0.322264,0.327388,0.332406,,,,,,
962328,0.003029,-0.027942,0.062952,3e-05,3e-06,-0.001065,0.0,-0.0,-0.0,3.032258,0.327388,0.322082,0.327388,0.332581,,,,,,
962348,0.003273,-0.02795,0.062956,-0.001034,3e-06,-0.001065,0.0,-0.0,-0.0,3.032258,0.327388,0.322498,0.327388,0.332181,,,,,,
962368,0.003395,-0.027954,0.062957,-0.001034,4e-06,-0.001065,0.0,-0.0,-0.0,3.032258,0.327388,0.318094,0.327388,0.336338,,,,,,
962388,0.003151,-0.027946,0.062954,3e-05,-0.001061,-0.001068,0.0,-0.0,-0.0,3.032258,0.327388,0.317925,0.327388,0.336494,,,,,,
962408,0.002913,-0.027816,0.062829,3e-05,-0.001061,-0.001068,0.0,-0.0,-0.0,3.032258,0.327388,0.317631,0.327388,0.336766,,,,,,
962428,0.003033,-0.02782,0.062952,-0.001064,0.0,0.0,0.0,-0.0,-0.0,3.032258,0.327388,0.317806,0.327388,0.336604,,,,,,
962448,0.003155,-0.027824,0.062954,-0.001035,3e-06,-0.001065,0.0,-0.0,-0.0,3.032258,0.327388,0.322567,0.327388,0.332115,,,,,,
962468,0.003033,-0.02782,0.062952,-0.001035,3e-06,-0.001065,0.0,-0.0,-0.0,3.032258,0.327388,0.322512,0.327388,0.332167,,,,,,
962488,0.003029,-0.027942,0.062952,3e-05,-0.001061,-0.001068,0.0,-0.0,-0.0,3.032258,0.327388,0.322568,0.327388,0.332114,,,,,,
962508,0.003033,-0.02782,0.062952,0.0,-0.001064,-3e-06,0.0,-0.0,-0.0,3.032258,0.327388,0.322759,0.327388,0.33193,,,,,,
962528,0.003029,-0.027942,0.062952,0.0,-0.001064,-3e-06,0.0,-0.0,-0.0,3.032258,0.327388,0.318235,0.327388,0.336207,,,,,,
962548,0.003033,-0.02782,0.062952,0.0,-0.001064,-3e-06,0.0,-0.0,-0.0,3.032258,0.327388,0.318298,0.327388,0.336148,,,,,,
962568,0.002915,-0.027695,0.06295,3e-05,-0.001061,-0.001068,0.0,-0.0,-0.0,3.032258,0.327388,0.318116,0.327388,0.336317,,,,,,
962588,0.002911,-0.027817,0.06295,-0.001064,-0.001064,-3e-06,0.0,-0.0,-0.0,3.032258,0.327388,0.322752,0.327388,0.331937,,,,,,
962608,0.002915,-0.027695,0.06295,-0.001064,0.0,0.0,0.0,-0.0,-0.0,3.032258,0.327388,0.318232,0.327388,0.33621,,,,,,
962628,0.002907,-0.027939,0.062951,-0.001064,0.0,0.0,0.0,-0.0,-0.0,3.032258,0.327388,0.322987,0.327388,0.33171,,,,,,
962648,0.002909,-0.027817,0.063072,-0.001035,3e-06,-0.001065,0.0,-0.0,-0.0,3.032258,0.327388,0.323048,0.327388,0.331652,,,,,,
962668,0.003031,-0.027821,0.063074,-0.001035,-0.001061,-0.001068,0.0,-0.0,-0.0,3.032258,0.327388,0.323221,0.327388,0.331485,,,,,,
962688,0.003157,-0.027702,0.063075,3e-05,-0.001061,-0.001068,0.0,-0.0,-0.0,3.032258,0.327388,0.318828,0.327388,0.335655,,,,,,
962708,0.002789,-0.027813,0.062949,-0.001035,-0.001061,-0.001068,0.0,-0.0,-0.0,3.032258,0.327388,0.318409,0.327388,0.336045,,,,,,
962728,0.002667,-0.027809,0.062947,3e-05,3e-06,-0.001065,0.0,-0.0,-0.0,3.032258,0.327388,0.318348,0.327388,0.336102,,,,,,
962748,0.002789,-0.027813,0.062949,3e-05,3e-06,-0.001065,0.0,-0.0,-0.0,3.032258,0.327388,0.323093,0.327388,0.331608,,,,,,
962768,0.002911,-0.027817,0.06295,0.0,0.0,0.0,0.0,-0.0,-0.0,3.032258,0.327388,0.323261,0.327388,0.331446,,,,,,
962788,0.002785,-0.027935,0.062949,0.0,-0.001064,-3e-06,0.0,-0.0,-0.0,3.032258,0.327388,0.318756,0.327388,0.335722,,,,,,
962808,0.002905,-0.027939,0.063072,-0.001064,-0.001064,-3e-06,0.0,-0.0,-0.0,3.032258,0.327388,0.318927,0.327388,0.335562,,,,,,
962828,0.002905,-0.027939,0.063072,-0.001064,-0.001064,-3e-06,0.0,-0.0,-0.0,3.032258,0.327388,0.318985,0.327388,0.335509,,,,,,
962848,0.002787,-0.027813,0.063071,-0.001035,3e-06,-0.001065,0.0,-0.0,-0.0,3.032258,0.327388,0.323495,0.327388,0.33122,,,,,,
962868,0.002665,-0.027809,0.063069,-0.001035,3e-06,-0.001065,0.0,-0.0,-0.0,3.032258,0.327388,0.323308,0.327388,0.331401,,,,,,
962888,0.002545,-0.027805,0.062945,3e-05,-0.001062,-0.001067,0.0,-0.0,-0.0,3.032258,0.327388,0.318677,0.327388,0.335796,,,,,,
962908,0.002541,-0.027927,0.062946,0.0,0.0,0.0,0.0,-0.0,-0.0,3.032258,0.327388,0.318725,0.327388,0.335751,,,,,,
962928,0.002659,-0.028053,0.062947,0.0,0.0,0.0,0.0,-0.0,-0.0,3.032258,0.327388,0.319018,0.327388,0.335478,,,,,,
962948,0.002781,-0.028057,0.062949,0.0,0.0,0.0,0.0,-0.0,-0.0,3.032258,0.327388,0.323746,0.327388,0.330976,,,,,,
962968,0.00278,-0.028057,0.063071,-0.001064,-0.001064,-3e-06,0.0,-0.0,-0.0,3.032258,0.327388,0.32367,0.327388,0.33105,,,,,,
962988,0.002661,-0.027931,0.063069,-0.001064,-0.001064,-3e-06,0.0,-0.0,-0.0,3.032258,0.327388,0.323738,0.327388,0.330983,,,,,,
963008,0.002665,-0.027809,0.063069,3e-05,-0.001061,-0.001067,0.0,-0.0,-0.0,3.032258,0.327388,0.323793,0.327388,0.33093,,,,,,
963028,0.002543,-0.027805,0.063067,-0.001035,-0.001062,-0.001067,0.0,-0.0,-0.0,3.032258,0.327388,0.319043,0.327388,0.335454,,,,,,
963048,0.002419,-0.027923,0.062944,-0.001064,-0.001064,-3e-06,0.0,-0.0,-0.0,3.032258,0.327388,0.318976,0.327388,0.335517,,,,,,
963068,0.002667,-0.027809,0.062947,0.0,-0.001064,-3e-06,0.0,-0.0,-0.0,3.032258,0.327388,0.319389,0.327388,0.335131,,,,,,
963088,0.002541,-0.027927,0.062946,0.0,-0.001064,-3e-06,0.0,-0.0,-0.0,3.032258,0.327388,0.32388,0.327388,0.330846,,,,,,
963108,0.002539,-0.027927,0.063067,3e-05,-0.001062,-0.001067,0.0,-0.0,-0.0,3.032258,0.327388,0.323802,0.327388,0.330922,,,,,,
963128,0.002665,-0.027809,0.063069,-0.001035,3e-06,-0.001065,0.0,-0.0,-0.0,3.032258,0.327388,0.32397,0.327388,0.330759,,,,,,
963148,0.002787,-0.027813,0.063071,-0.001035,3e-06,-0.001065,0.0,-0.0,-0.0,3.032258,0.327388,0.324261,0.327388,0.330475,,,,,,
963168,0.002669,-0.027687,0.063069,-0.001064,-0.001064,-3e-06,0.0,-0.0,-0.0,3.032258,0.327388,0.319651,0.327388,0.334885,,,,,,
963188,0.002427,-0.027679,0.062944,-0.001035,-0.001062,-0.001067,0.0,-0.0,-0.0,3.032258,0.327388,0.319473,0.327388,0.335052,,,,,,
963208,0.002421,-0.027801,0.063066,-0.001035,3e-06,-0.001065,0.0,-0.0,-0.0,3.032258,0.327388,0.319391,0.327388,0.335128,,,,,,
963228,0.002421,-0.027801,0.063066,-0.001035,3e-06,-0.001065,0.0,-0.0,-0.0,3.032258,0.327388,0.323996,0.327388,0.330734,,,,,,
963248,0.002421,-0.027801,0.063066,0.0,-0.001064,-3e-06,0.0,-0.0,-0.0,3.032258,0.327388,0.324041,0.327388,0.330689,,,,,,
963268,0.002421,-0.027801,0.063066,0.0,-0.001064,-3e-06,0.0,-0.0,-0.0,3.032258,0.327388,0.324089,0.327388,0.330643,,,,,,
963288,0.002421,-0.027801,0.063066,0.0,-0.001064,-3e-06,0.0,-0.0,-0.0,3.032258,0.327388,0.324263,0.327388,0.330474,,,,,,
963308,0.002665,-0.027809,0.063069,-0.001064,-0.001064,-3e-06,0.0,-0.0,-0.0,3.032258,0.327388,0.319991,0.327388,0.334565,,,,,,
963328,0.002547,-0.027683,0.063067,-0.001064,-0.001064,-3e-06,0.0,-0.0,-0.0,3.032258,0.327388,0.319929,0.327388,0.334624,,,,,,
963348,0.002299,-0.027798,0.063064,-0.001035,-0.001062,-0.001067,0.0,-0.0,-0.0,3.032258,0.327388,0.319742,0.327388,0.334799,,,,,,
963368,0.002179,-0.027672,0.063184,-0.001035,2e-06,-0.001065,0.0,-0.0,-0.0,3.032258,0.327388,0.319546,0.327388,0.334983,,,,,,
963388,0.002295,-0.02792,0.063064,3e-05,2e-06,-0.001065,0.0,-0.0,-0.0,3.032258,0.327388,0.324252,0.327388,0.330484,,,,,,
963408,0.002543,-0.027805,0.063067,0.0,0.0,0.0,0.0,-0.0,-0.0,3.032258,0.327388,0.324654,0.327388,0.330092,,,,,,
963428,0.002669,-0.027687,0.063069,0.0,-0.001064,-3e-06,0.0,-0.0,-0.0,3.032258,0.327388,0.32482,0.327388,0.329929,,,,,,
963448,0.002795,-0.027569,0.06307,-0.001035,-0.001061,-0.001068,0.0,-0.0,-0.0,3.032258,0.327388,0.324987,0.327388,0.329765,,,,,,
963468,0.002547,-0.027683,0.063067,-0.001035,-0.001062,-0.001067,0.0,-0.0,-0.0,3.032258,0.327388,0.320143,0.327388,0.334422,,,,,,
963488,0.002429,-0.027557,0.063065,-0.001035,3e-06,-0.001065,0.0,-0.0,-0.0,3.032258,0.327388,0.320081,0.327388,0.33448,,,,,,
963508,0.002305,-0.027675,0.062942,-0.001064,-0.001064,-2e-06,0.0,-0.0,-0.0,3.032258,0.327388,0.320012,0.327388,0.334546,,,,,,
963528,0.002305,-0.027675,0.062942,0.0,-0.001064,-2e-06,0.0,-0.0,-0.0,3.032258,0.327388,0.320055,0.327388,0.334505,,,,,,
963548,0.002301,-0.027797,0.062942,0.0,-0.001064,-2e-06,0.0,-0.0,-0.0,3.032258,0.327388,0.320095,0.327388,0.334468,,,,,,
963568,0.002303,-0.027676,0.063064,0.0,-0.001064,-2e-06,0.0,-0.0,-0.0,3.032258,0.327388,0.324685,0.327388,0.330061,,,,,,
963588,0.002421,-0.027801,0.063066,0.0,-0.001064,-3e-06,0.0,-0.0,-0.0,3.032258,0.327388,0.324967,0.327388,0.329785,,,,,,
963608,0.002795,-0.027569,0.06307,-0.001035,3e-06,-0.001065,0.0,-0.0,-0.0,3.032258,0.327388,0.325361,0.327388,0.329398,,,,,,
963628,0.002664,-0.027809,0.063191,-0.001035,3e-06,-0.001065,0.0,-0.0,-0.0,3.032258,0.327388,0.320759,0.327388,0.33384,,,,,,
963648,0.002185,-0.02755,0.063062,-0.001035,-0.001062,-0.001067,0.0,-0.0,-0.0,3.032258,0.327388,0.320356,0.327388,0.334221,,,,,,
963668,0.001937,-0.027664,0.063059,3e-05,-0.001062,-0.001067,0.0,-0.0,-0.0,3.032258,0.327388,0.320165,0.327388,0.334402,,,,,,
963688,0.001937,-0.027664,0.063059,2.9e-05,2e-06,-0.001065,0.0,-0.0,-0.0,3.032258,0.327388,0.324621,0.327388,0.330124,,,,,,
963708,0.002177,-0.027794,0.063062,3e-05,2e-06,-0.001065,0.0,-0.0,-0.0,3.032258,0.327388,0.324881,0.327388,0.32987,,,,,,
963728,0.002055,-0.02779,0.063061,0.0,0.0,0.0,0.0,-0.0,-0.0,3.032258,0.327388,0.324681,0.327388,0.330065,,,,,,
963748,0.002181,-0.027672,0.063062,0.0,-0.001064,-2e-06,0.0,-0.0,-0.0,3.032258,0.327388,0.324965,0.327388,0.329787,,,,,,
963768,0.002181,-0.027672,0.063062,-0.001094,-0.001067,0.001062,0.0,-0.0,-0.0,3.032258,0.327388,0.320599,0.327388,0.333992,,,,,,
963788,0.002303,-0.027676,0.063064,-0.001064,-0.001064,-2e-06,0.0,-0.0,-0.0,3.032258,0.327388,0.320757,0.327388,0.333842,,,,,,
963808,0.002057,-0.027668,0.063182,-0.001035,-0.001062,-0.001067,0.0,-0.0,-0.0,3.032258,0.327388,0.320567,0.327388,0.334022,,,,,,
963828,0.00181,-0.027782,0.063179,-0.001035,-0.001062,-0.001067,0.0,-0.0,-0.0,3.032258,0.327388,0.320245,0.327388,0.334326,,,,,,
963848,0.001697,-0.027534,0.063055,-0.001035,2e-06,-0.001065,0.0,-0.0,-0.0,3.032258,0.327388,0.324717,0.327388,0.33003,,,,,,
963868,0.001811,-0.027782,0.063057,3e-05,2e-06,-0.001065,0.0,-0.0,-0.0,3.032258,0.327388,0.324857,0.327388,0.329893,,,,,,
963888,0.001815,-0.02766,0.063057,0.0,0.0,0.0,0.0,-0.0,-0.0,3.032258,0.327388,0.324896,0.327388,0.329854,,,,,,
963908,0.001937,-0.027664,0.063059,0.0,0.0,0.0,0.0,-0.0,-0.0,3.032258,0.327388,0.320508,0.327388,0.334077,,,,,,
963928,0.002063,-0.027546,0.06306,-0.001064,0.0,0.0,0.0,-0.0,-0.0,3.032258,0.327388,0.32079,0.327388,0.333811,,,,,,
963948,0.001697,-0.027534,0.063055,-0.001035,2e-06,-0.001065,0.0,-0.0,-0.0,3.032258,0.327388,0.320482,0.327388,0.334102,,,,,,
963968,0.001449,-0.027649,0.063052,-0.001035,2e-06,-0.001065,0.0,-0.0,-0.0,3.032258,0.327388,0.320154,0.327388,0.334412,,,,,,
963988,0.001449,-0.027649,0.063052,-0.001035,-0.001063,-0.001066,0.0,-0.0,-0.0,3.032258,0.327388,0.320185,0.327388,0.334383,,,,,,
964008,0.001449,-0.027649,0.063052,-0.001064,-0.001064,-2e-06,0.0,-0.0,-0.0,3.032258,0.327388,0.32488,0.327388,0.32987,,,,,,
964028,0.001451,-0.027527,0.063174,0.0,-0.001064,-2e-06,0.0,-0.0,-0.0,3.032258,0.327388,0.32037,0.327388,0.334208,,,,,,
964048,0.001451,-0.027527,0.063174,0.0,-0.001064,-2e-06,0.0,-0.0,-0.0,3.032258,0.327388,0.320398,0.327388,0.334181,,,,,,
964068,0.001324,-0.027645,0.063294,-0.001035,-0.001063,-0.001066,0.0,-0.0,-0.0,3.032258,0.327388,0.324722,0.327388,0.330026,,,,,,
964088,0.00145,-0.027527,0.063296,-0.001035,2e-06,-0.001065,0.0,-0.0,-0.0,3.032258,0.327388,0.324865,0.327388,0.329886,,,,,,
964108,0.001328,-0.027523,0.063294,-0.001035,1e-06,-0.001065,0.0,-0.0,-0.0,3.032258,0.327388,0.320363,0.327388,0.334214,,,,,,
964128,0.001084,-0.027515,0.063291,-0.001064,-0.001064,-1e-06,0.0,-0.0,-0.0,3.032258,0.327388,0.320158,0.327388,0.334408,,,,,,
964148,0.000958,-0.027633,0.063289,2.9e-05,1e-06,-0.001065,0.0,-0.0,-0.0,3.032258,0.327388,0.320061,0.327388,0.334499,,,,,,
964168,0.001198,-0.027763,0.063292,-0.001035,1e-06,-0.001065,0.0,-0.0,-0.0,3.032258,0.327388,0.324726,0.327388,0.330022,,,,,,
964188,0.001324,-0.027645,0.063294,-0.001064,0.0,0.0,0.0,-0.0,-0.0,3.032258,0.327388,0.324865,0.327388,0.329885,,,,,,
964208,0.00132,-0.027767,0.063294,0.0,-0.001064,-1e-06,0.0,-0.0,-0.0,3.032258,0.327388,0.324884,0.327388,0.329867,,,,,,
964228,0.001324,-0.027645,0.063294,2.9e-05,-0.001063,-0.001066,0.0,-0.0,-0.0,3.032258,0.327388,0.324914,0.327388,0.329838,,,,,,
964248,0.001324,-0.027645,0.063294,0.0,-0.001064,-1e-06,0.0,-0.0,-0.0,3.032258,0.327388,0.32494,0.327388,0.329811,,,,,,
964268,0.001451,-0.027527,0.063174,-0.001064,-0.001064,-2e-06,0.0,-0.0,-0.0,3.032258,0.327388,0.320677,0.327388,0.333918,,,,,,
964288,0.00145,-0.027527,0.063296,0.0,-0.001064,-2e-06,0.0,-0.0,-0.0,3.032258,0.327388,0.320703,0.327388,0.333893,,,,,,
964308,0.001324,-0.027645,0.063294,-0.001035,-0.001063,-0.001066,0.0,-0.0,-0.0,3.032258,0.327388,0.320485,0.327388,0.334099,,,,,,
964328,0.00132,-0.027767,0.063294,-0.001035,1e-06,-0.001065,0.0,-0.0,-0.0,3.032258,0.327388,0.320507,0.327388,0.334078,,,,,,
964348,0.001324,-0.027645,0.063294,-0.001064,0.0,0.0,0.0,-0.0,-0.0,3.032258,0.327388,0.325197,0.327388,0.329559,,,,,,
964368,0.001328,-0.027523,0.063294,0.0,-0.001064,-1e-06,0.0,-0.0,-0.0,3.032258,0.327388,0.325228,0.327388,0.329529,,,,,,
964388,0.001575,-0.027409,0.063297,2.9e-05,2e-06,-0.001065,0.0,-0.0,-0.0,3.032258,0.327388,0.325482,0.327388,0.329279,,,,,,
964408,0.001452,-0.027405,0.063417,5.8e-05,3e-06,-0.002129,0.0,-0.0,-0.0,3.032258,0.327388,0.320741,0.327388,0.333857,,,,,,
964428,0.001208,-0.027397,0.063414,2.9e-05,-0.001063,-0.001066,0.0,-0.0,-0.0,3.032258,0.327388,0.320538,0.327388,0.334049,,,,,,
964448,0.001091,-0.027271,0.06329,2.9e-05,1e-06,-0.001065,0.0,-0.0,-0.0,3.032258,0.327388,0.320453,0.327388,0.334129,,,,,,
964468,0.001209,-0.027397,0.063292,0.0,0.0,0.0,0.0,-0.0,-0.0,3.032258,0.327388,0.325121,0.327388,0.329634,,,,,,
964488,0.001328,-0.027523,0.063294,0.0,0.0,0.0,0.0,-0.0,-0.0,3.032258,0.327388,0.325252,0.327388,0.329505,,,,,,
964508,0.001206,-0.027519,0.063292,0.0,-0.001064,-1e-06,0.0,-0.0,-0.0,3.032258,0.327388,0.320754,0.327388,0.333844,,,,,,
964528,0.001208,-0.027397,0.063414,-0.001064,-0.001064,-1e-06,0.0,-0.0,-0.0,3.032258,0.327388,0.320782,0.327388,0.333818,,,,,,
964548,0.001086,-0.027393,0.063412,-0.001064,0.0,0.0,0.0,-0.0,-0.0,3.032258,0.327388,0.32069,0.327388,0.333905,,,,,,
964568,0.001334,-0.027279,0.063415,-0.001035,1e-06,-0.001065,0.0,-0.0,-0.0,3.032258,0.327388,0.325474,0.327388,0.329287,,,,,,
964588,0.00096,-0.027511,0.063411,2.9e-05,1e-06,-0.001065,0.0,-0.0,-0.0,3.032258,0.327388,0.325029,0.327388,0.329725,,,,,,
964608,0.000847,-0.027263,0.063287,2.9e-05,-0.001063,-0.001066,0.0,-0.0,-0.0,3.032258,0.327388,0.320406,0.327388,0.334174,,,,,,
964628,0.000965,-0.027389,0.063289,0.0,-0.001064,-1e-06,0.0,-0.0,-0.0,3.032258,0.327388,0.325073,0.327388,0.329681,,,,,,
964648,0.001333,-0.027401,0.063172,-0.001064,0.0,0.0,0.0,-0.0,-0.0,3.032258,0.327388,0.325433,0.327388,0.329327,,,,,,
964668,0.001211,-0.027397,0.06317,-0.001064,0.0,0.0,0.0,-0.0,-0.0,3.032258,0.327388,0.325343,0.327388,0.329416,,,,,,
964688,0.001207,-0.027519,0.06317,-0.001064,-0.001064,-1e-06,0.0,-0.0,-0.0,3.032258,0.327388,0.325363,0.327388,0.329397,,,,,,
964708,0.001089,-0.027393,0.063169,-0.001064,-0.001064,-1e-06,0.0,-0.0,-0.0,3.032258,0.327388,0.320871,0.327388,0.333734,,,,,,
964728,0.000967,-0.027389,0.063167,-0.001064,-0.001064,-1e-06,0.0,-0.0,-0.0,3.032258,0.327388,0.320777,0.327388,0.333823,,,,,,
964748,0.000971,-0.027267,0.063167,-0.001035,-0.001063,-0.001066,0.0,-0.0,-0.0,3.032258,0.327388,0.3208,0.327388,0.333802,,,,,,
964768,0.000849,-0.027263,0.063165,-0.001035,1e-06,-0.001065,0.0,-0.0,-0.0,3.032258,0.327388,0.325113,0.327388,0.329642,,,,,,
964788,0.000965,-0.027389,0.063289,-0.001035,1e-06,-0.001065,0.0,-0.0,-0.0,3.032258,0.327388,0.325237,0.327388,0.32952,,,,,,
964808,0.000725,-0.02726,0.063285,-0.001064,0.0,0.0,0.0,-0.0,-0.0,3.032258,0.327388,0.325031,0.327388,0.329722,,,,,,
964828,0.00084,-0.027507,0.063287,-0.001064,0.0,0.0,0.0,-0.0,-0.0,3.032258,0.327388,0.320744,0.327388,0.333854,,,,,,
964848,0.00084,-0.027507,0.063287,2.9e-05,1e-06,-0.001065,0.0,-0.0,-0.0,3.032258,0.327388,0.320761,0.327388,0.333838,,,,,,
964868,0.00084,-0.027507,0.063287,2.9e-05,1e-06,-0.001065,0.0,-0.0,-0.0,3.032258,0.327388,0.320777,0.327388,0.333823,,,,,,
964888,0.000841,-0.027507,0.063165,2.9e-05,-0.001063,-0.001066,0.0,-0.0,-0.0,3.032258,0.327388,0.320668,0.327388,0.333926,,,,,,
964908,0.000597,-0.0275,0.063162,2.9e-05,-0.001064,-0.001065,0.0,-0.0,-0.0,3.032258,0.327388,0.320453,0.327388,0.334129,,,,,,
964928,0.000719,-0.027504,0.063164,-0.001064,-0.001064,-1e-06,0.0,-0.0,-0.0,3.032258,0.327388,0.325118,0.327388,0.329637,,,,,,
964948,0.000963,-0.027511,0.063167,-0.001064,0.0,0.0,0.0,-0.0,-0.0,3.032258,0.327388,0.325359,0.327388,0.3294,,,,,,
964968,0.000967,-0.027389,0.063167,-0.001064,-0.001064,-1e-06,0.0,-0.0,-0.0,3.032258,0.327388,0.325501,0.327388,0.329261,,,,,,
964988,0.000971,-0.027267,0.063167,0.0,-0.001064,-1e-06,0.0,-0.0,-0.0,3.032258,0.327388,0.320995,0.327388,0.333617,,,,,,
965008,0.000718,-0.027504,0.063286,2.9e-05,1e-06,-0.001065,0.0,-0.0,-0.0,3.032258,0.327388,0.320774,0.327388,0.333826,,,,,,
965028,0.000723,-0.027382,0.063164,-0.001035,1e-06,-0.001065,0.0,-0.0,-0.0,3.032258,0.327388,0.320669,0.327388,0.333926,,,,,,
965048,0.000723,-0.027382,0.063164,-0.001035,1e-06,-0.001065,0.0,-0.0,-0.0,3.032258,0.327388,0.320807,0.327388,0.333794,,,,,,
965068,0.000601,-0.027378,0.063162,0.0,-0.001064,-1e-06,0.0,-0.0,-0.0,3.032258,0.327388,0.320705,0.327388,0.333891,,,,,,
965088,0.000719,-0.027504,0.063164,2.9e-05,1e-06,-0.001065,0.0,-0.0,-0.0,3.032258,0.327388,0.325236,0.327388,0.329521,,,,,,
965108,0.000723,-0.027382,0.063164,2.9e-05,1e-06,-0.001065,0.0,-0.0,-0.0,3.032258,0.327388,0.325255,0.327388,0.329503,,,,,,
965128,0.000967,-0.027389,0.063167,-0.001064,0.0,0.0,0.0,-0.0,-0.0,3.032258,0.327388,0.325496,0.327388,0.329265,,,,,,
965148,0.000845,-0.027385,0.063165,-0.001064,0.0,0.0,0.0,-0.0,-0.0,3.032258,0.327388,0.320997,0.327388,0.333615,,,,,,
965168,0.000841,-0.027507,0.063165,-0.001035,-0.001063,-0.001066,0.0,-0.0,-0.0,3.032258,0.327388,0.321009,0.327388,0.333603,,,,,,
965188,0.000481,-0.027374,0.063039,2.9e-05,-0.001064,-0.001065,0.0,-0.0,-0.0,3.032258,0.327388,0.320557,0.327388,0.334031,,,,,,
965208,0.000473,-0.027618,0.063039,0.0,-0.001064,-1e-06,0.0,-0.0,-0.0,3.032258,0.327388,0.320686,0.327388,0.333909,,,,,,
965228,0.000481,-0.027374,0.063039,0.0,-0.001064,-1e-06,0.0,-0.0,-0.0,3.032258,0.327388,0.320704,0.327388,0.333892,,,,,,
965248,0.000473,-0.027618,0.063039,-0.001035,1e-06,-0.001065,0.0,-0.0,-0.0,3.032258,0.327388,0.320578,0.327388,0.334011,,,,,,
965268,0.000355,-0.027492,0.063037,-0.001035,0.0,-0.001065,0.0,-0.0,-0.0,3.032258,0.327388,0.320475,0.327388,0.334109,,,,,,
965288,0.000355,-0.027492,0.063037,-0.001064,0.0,0.0,0.0,-0.0,-0.0,3.032258,0.327388,0.320608,0.327388,0.333983,,,,,,
965308,0.000237,-0.027366,0.063035,-0.001064,0.0,0.0,0.0,-0.0,-0.0,3.032258,0.327388,0.320504,0.327388,0.334082,,,,,,
965328,0.000357,-0.02737,0.063159,-0.001035,0.0,-0.001065,0.0,-0.0,-0.0,3.032258,0.327388,0.325156,0.327388,0.3296,,,,,,
965348,0.000361,-0.027248,0.063159,2.9e-05,0.0,-0.001065,0.0,-0.0,-0.0,3.032258,0.327388,0.325041,0.327388,0.329713,,,,,,
965368,0.000109,-0.027484,0.063155,5.9e-05,-0.001064,-0.002129,0.0,-0.0,-0.0,3.032258,0.327388,0.320272,0.327388,0.334301,,,,,,
965388,-7e-06,-0.027359,0.063032,2.9e-05,-0.001064,-0.001065,0.0,-0.0,-0.0,3.032258,0.327388,0.324708,0.327388,0.330039,,,,,,
965408,0.000235,-0.027488,0.062914,0.0,0.0,0.0,0.0,-0.0,-0.0,3.032258,0.327388,0.324935,0.327388,0.329817,,,,,,
965428,0.00036,-0.02737,0.062915,-0.001064,-0.001064,-0.0,0.0,-0.0,-0.0,3.032258,0.327388,0.320519,0.327388,0.334068,,,,,,
965448,0.000238,-0.027366,0.062913,0.0,-0.001064,-0.0,0.0,-0.0,-0.0,3.032258,0.327388,0.320406,0.327388,0.334174,,,,,,
965468,0.000119,-0.02724,0.063034,-0.001064,-0.001064,-0.0,0.0,-0.0,-0.0,3.032258,0.327388,0.320421,0.327388,0.33416,,,,,,
965488,-0.000251,-0.027351,0.063029,-0.001035,-0.0,-0.001065,0.0,-0.0,-0.0,3.032258,0.327388,0.320073,0.327388,0.334488,,,,,,
965508,-0.000129,-0.027355,0.06303,-0.001035,-0.0,-0.001065,0.0,-0.0,-0.0,3.032258,0.327388,0.324726,0.327388,0.330021,,,,,,
965528,-0.000255,-0.027473,0.063029,-0.001035,-0.0,-0.001065,0.0,-0.0,-0.0,3.032258,0.327388,0.324608,0.327388,0.330136,,,,,,
965548,-0.000129,-0.027355,0.06303,2.9e-05,-0.0,-0.001065,0.0,-0.0,-0.0,3.032258,0.327388,0.324721,0.327388,0.330026,,,,,,
965568,-0.000125,-0.027233,0.06303,-0.0,-0.001064,0.0,0.0,-0.0,-0.0,3.032258,0.327388,0.324601,0.327388,0.330143,,,,,,
965588,-6e-06,-0.027359,0.06291,0.0,0.0,0.0,0.0,-0.0,-0.0,3.032258,0.327388,0.32471,0.327388,0.330037,,,,,,
965608,-7e-06,-0.027359,0.063032,-0.001035,-0.0,-0.001065,0.0,-0.0,-0.0,3.032258,0.327388,0.320165,0.327388,0.334401,,,,,,
965628,-0.000129,-0.027355,0.06303,-0.001035,-0.0,-0.001065,0.0,-0.0,-0.0,3.032258,0.327388,0.324592,0.327388,0.330152,,,,,,
965648,-0.000124,-0.027233,0.062908,-0.0,-0.001064,0.0,0.0,-0.0,-0.0,3.032258,0.327388,0.324596,0.327388,0.330149,,,,,,
965668,-0.000372,-0.027347,0.062905,-0.001064,-0.001064,0.0,0.0,-0.0,-0.0,3.032258,0.327388,0.319937,0.327388,0.334616,,,,,,
965688,-0.000251,-0.027351,0.063029,-0.0,-0.001064,0.0,0.0,-0.0,-0.0,3.032258,0.327388,0.320047,0.327388,0.334512,,,,,,
965708,-0.000251,-0.027351,0.063029,-0.001035,-0.0,-0.001065,0.0,-0.0,-0.0,3.032258,0.327388,0.324466,0.327388,0.330275,,,,,,
965728,-0.000125,-0.027233,0.06303,-0.001035,-0.0,-0.001065,0.0,-0.0,-0.0,3.032258,0.327388,0.324578,0.327388,0.330166,,,,,,
965748,-0.000246,-0.027229,0.062907,-0.001064,-0.001064,0.0,0.0,-0.0,-0.0,3.032258,0.327388,0.324586,0.327388,0.330158,,,,,,
965768,-0.000368,-0.027225,0.062905,2.9e-05,-0.0,-0.001065,0.0,-0.0,-0.0,3.032258,0.327388,0.319918,0.327388,0.334634,,,,,,
965788,-0.000372,-0.027347,0.062905,2.9e-05,-0.0,-0.001065,0.0,-0.0,-0.0,3.032258,0.327388,0.324333,0.327388,0.330405,,,,,,
965808,-0.00012,-0.027111,0.062908,2.9e-05,-0.0,-0.001065,0.0,-0.0,-0.0,3.032258,0.327388,0.32456,0.327388,0.330184,,,,,,
965828,-0.000128,-0.027355,0.062908,-0.0,-0.001064,0.0,0.0,-0.0,-0.0,3.032258,0.327388,0.324549,0.327388,0.330194,,,,,,
965848,-0.000244,-0.027229,0.062785,-0.001064,-0.001064,0.0,0.0,-0.0,-0.0,3.032258,0.327388,0.319891,0.327388,0.33466,,,,,,
965868,-0.00013,-0.027477,0.062787,-0.001035,-0.0,-0.001065,0.0,-0.0,-0.0,3.032258,0.327388,0.319996,0.327388,0.33456,,,,,,
965888,-0.000246,-0.027229,0.062907,-0.001064,0.0,0.0,0.0,-0.0,-0.0,3.032258,0.327388,0.324431,0.327388,0.330309,,,,,,
965908,-0.000372,-0.027347,0.062905,-0.001064,-0.001064,0.0,0.0,-0.0,-0.0,3.032258,0.327388,0.319884,0.327388,0.334666,,,,,,
965928,-0.000368,-0.027225,0.062905,-0.0,-0.001064,0.0,0.0,-0.0,-0.0,3.032258,0.327388,0.31988,0.327388,0.33467,,,,,,
965948,-0.000372,-0.027347,0.062905,2.9e-05,-0.001065,-0.001064,0.0,-0.0,-0.0,3.032258,0.327388,0.324418,0.327388,0.330322,,,,,,
965968,-0.00025,-0.027351,0.062907,2.9e-05,-0.0,-0.001065,0.0,-0.0,-0.0,3.032258,0.327388,0.324401,0.327388,0.330339,,,,,,
965988,-2e-06,-0.027237,0.06291,2.9e-05,-0.0,-0.001065,0.0,-0.0,-0.0,3.032258,0.327388,0.324629,0.327388,0.330117,,,,,,
966008,-4e-06,-0.027359,0.062788,-0.001064,0.0,0.0,0.0,-0.0,-0.0,3.032258,0.327388,0.320083,0.327388,0.334478,,,,,,
966028,-4e-06,-0.027359,0.062788,-0.001064,0.0,0.0,0.0,-0.0,-0.0,3.032258,0.327388,0.320208,0.327388,0.334361,,,,,,
966048,-0.000252,-0.027473,0.062785,-0.001064,0.0,0.0,0.0,-0.0,-0.0,3.032258,0.327388,0.319845,0.327388,0.334702,,,,,,
966068,-0.000494,-0.027343,0.062903,-0.001035,-1e-06,-0.001065,0.0,-0.0,-0.0,3.032258,0.327388,0.319736,0.327388,0.334805,,,,,,
966088,-0.000494,-0.027343,0.062903,-0.001035,-1e-06,-0.001065,0.0,-0.0,-0.0,3.032258,0.327388,0.324278,0.327388,0.330459,,,,,,
966108,-0.00049,-0.027221,0.062903,2.9e-05,-0.001065,-0.001064,0.0,-0.0,-0.0,3.032258,0.327388,0.324271,0.327388,0.330466,,,,,,
966128,-0.000372,-0.027347,0.062905,2.9e-05,-0.001065,-0.001064,0.0,-0.0,-0.0,3.032258,0.327388,0.324248,0.327388,0.330488,,,,,,
966148,-0.00025,-0.027351,0.062907,-0.0,-0.001064,0.0,0.0,-0.0,-0.0,3.032258,0.327388,0.324356,0.327388,0.330383,,,,,,
966168,-0.000126,-0.027355,0.062787,-0.001064,-0.001064,0.0,0.0,-0.0,-0.0,3.032258,0.327388,0.319921,0.327388,0.334631,,,,,,
966188,-0.000122,-0.027233,0.062787,-0.001064,-0.001064,0.0,0.0,-0.0,-0.0,3.032258,0.327388,0.319921,0.327388,0.334631,,,,,,
966208,-0.000252,-0.027473,0.062785,-0.001064,-0.001064,0.0,0.0,-0.0,-0.0,3.032258,0.327388,0.319793,0.327388,0.334752,,,,,,
966228,-0.000494,-0.027343,0.062903,-0.001064,0.0,0.0,0.0,-0.0,-0.0,3.032258,0.327388,0.319682,0.327388,0.334855,,,,,,
966248,-0.000616,-0.027339,0.062902,0.0,0.0,0.0,0.0,-0.0,-0.0,3.032258,0.327388,0.324112,0.327388,0.330621,,,,,,
966268,-0.000372,-0.027347,0.062905,2.9e-05,-0.0,-0.001065,0.0,-0.0,-0.0,3.032258,0.327388,0.32433,0.327388,0.330408,,,,,,
966288,-0.000122,-0.027233,0.062787,2.9e-05,-0.0,-0.001065,0.0,-0.0,-0.0,3.032258,0.327388,0.324555,0.327388,0.330188,,,,,,
966308,-4e-06,-0.027359,0.062788,-0.001035,-0.0,-0.001065,0.0,-0.0,-0.0,3.032258,0.327388,0.324539,0.327388,0.330204,,,,,,
966328,-0.000124,-0.027355,0.062665,-0.001064,-0.001064,0.0,0.087266,-0.0,-0.0,3.032258,0.327388,0.210567,0.327388,0.403848,,,,,,
966348,-0.000254,-0.027595,0.062663,2.9e-05,-0.0,-0.001065,0.087266,-0.0,-0.0,3.032258,0.327388,0.215619,0.327388,0.40182,,,,,,
966368,0.000481,-0.027374,0.063039,0.003222,1e-06,-0.001065,0.087266,-0.0,-0.0,3.032258,0.327388,0.229785,0.327388,0.395625,,,,,,
966388,0.002554,-0.027318,0.063432,0.007479,-0.001062,-0.001067,0.087266,-0.0,-0.0,3.032258,0.327388,0.257421,0.327388,0.381219,,,,,,
966408,0.006836,-0.026965,0.06373,0.011735,7e-06,-0.001065,0.087266,-0.0,-0.0,3.032258,0.327388,0.289096,0.327388,0.360389,,,,,,
966428,0.012946,-0.026795,0.063938,0.017056,-0.00105,-0.001078,0.087266,-0.0,-0.0,3.032258,0.327388,0.308741,0.327388,0.344695,,,,,,
966448,0.021631,-0.026457,0.063792,0.021285,-0.001064,-2.3e-05,0.087266,-0.0,-0.0,3.032258,0.327388,0.333772,0.327388,0.320831,,,,,,
966468,0.032159,-0.025924,0.063297,0.023386,-0.001098,0.00103,0.087266,-0.0,-0.0,3.032258,0.327388,0.358054,0.327388,0.292214,,,,,,
966488,0.04378,-0.025663,0.062814,0.025515,-0.00111,0.001017,0.087266,-0.0,-0.0,3.032258,0.327388,0.377763,0.327388,0.263238,,,,,,
966508,0.055884,-0.025531,0.062322,0.025516,-0.001122,0.001003,0.087266,-0.0,-0.0,3.032258,0.327388,0.386198,0.327388,0.248546,,,,,,
966528,0.068112,-0.025398,0.06195,0.02445,-7.2e-05,0.001062,0.087266,-0.0,-0.0,3.032258,0.327388,0.391175,0.327388,0.239,,,,,,
966548,0.0796,-0.02548,0.061568,0.022347,0.001061,8.5e-05,0.087266,-0.0,-0.0,3.032258,0.327388,0.392233,0.327388,0.236873,,,,,,
966568,0.089499,-0.025649,0.061548,0.018092,0.0,0.0,0.087266,-0.0,-0.0,3.032258,0.327388,0.3853,0.327388,0.250193,,,,,,
966588,0.097666,-0.026379,0.061652,0.014924,0.001163,-0.000956,0.087266,-0.0,-0.0,3.032258,0.327388,0.376935,0.327388,0.264594,,,,,,
966608,0.103646,-0.026808,0.061853,0.010668,0.001169,-0.000949,0.087266,-0.0,-0.0,3.032258,0.327388,0.362884,0.327388,0.285682,,,,,,
966628,0.108019,-0.027676,0.06206,0.005347,0.001173,-0.000944,0.087266,-0.0,-0.0,3.032258,0.327388,0.355037,0.327388,0.296134,,,,,,
966648,0.110435,-0.028493,0.062369,0.001091,0.001175,-0.000941,0.087266,-0.0,-0.0,3.032258,0.327388,0.345256,0.327388,0.308088,,,,,,
966668,0.110907,-0.028994,0.062399,-0.001064,0.0,0.0,0.087266,-0.0,-0.0,3.032258,0.327388,0.333377,0.327388,0.321247,,,,,,
966688,0.110413,-0.029217,0.062288,-0.002125,-0.001058,-0.000117,0.087266,-0.0,-0.0,3.032258,0.327388,0.324534,0.327388,0.330209,,,,,,
966708,0.109191,-0.029173,0.062148,-0.003162,0.000116,-0.001058,0.087266,-0.0,-0.0,3.032258,0.327388,0.314508,0.327388,0.339616,,,,,,
966728,0.107855,-0.02923,0.061659,-0.003189,-0.001058,-0.000115,0.087266,-0.0,-0.0,3.032258,0.327388,0.318301,0.327388,0.336145,,,,,,
966748,0.106648,-0.028809,0.061256,-0.002128,0.0,0.0,0.087266,-0.0,-0.0,3.032258,0.327388,0.317564,0.327388,0.336828,,,,,,
966768,0.106044,-0.028772,0.060887,-0.001061,-0.001058,-0.000113,0.087266,-0.0,-0.0,3.032258,0.327388,0.326473,0.327388,0.3283,,,,,,
966788,0.106172,-0.028756,0.060523,0.001064,0.0,0.0,0.087266,-0.0,-0.0,3.032258,0.327388,0.335569,0.327388,0.31892,,,,,,
966808,0.106905,-0.028879,0.060169,0.002098,-0.000114,0.001059,0.087266,-0.0,-0.0,3.032258,0.327388,0.340942,0.327388,0.313026,,,,,,
966828,0.108242,-0.029147,0.059947,0.003162,-0.000115,0.001058,0.087266,-0.0,-0.0,3.032258,0.327388,0.346735,0.327388,0.306349,,,,,,
966848,0.110081,-0.029071,0.059842,0.003193,0.0,0.0,0.087266,-0.0,-0.0,3.032258,0.327388,0.348672,0.327388,0.304037,,,,,,
966868,0.112035,-0.029242,0.05975,0.003193,0.0,0.0,0.087266,-0.0,-0.0,3.032258,0.327388,0.354749,0.327388,0.296502,,,,,,
966888,0.114,-0.029047,0.059638,0.00426,-0.001057,-0.000121,0.087266,-0.0,-0.0,3.032258,0.327388,0.3528,0.327388,0.298967,,,,,,
966908,0.115718,-0.028968,0.05953,0.003227,-0.000934,-0.00118,0.087266,-0.0,-0.0,3.032258,0.327388,0.354588,0.327388,0.296707,,,,,,
966928,0.117188,-0.028764,0.059524,0.002159,0.000124,-0.001057,0.087266,-0.0,-0.0,3.032258,0.327388,0.352288,0.327388,0.299606,,,,,,
966948,0.118295,-0.028674,0.059534,0.001068,-0.001057,-0.000126,0.087266,-0.0,-0.0,3.032258,0.327388,0.349673,0.327388,0.302826,,,,,,
966968,0.118774,-0.028824,0.059787,3e-05,0.000126,-0.001057,0.087266,-0.0,-0.0,3.032258,0.327388,0.346527,0.327388,0.306595,,,,,,
966988,0.118523,-0.028953,0.060036,-0.001064,0.0,0.0,0.087266,-0.0,-0.0,3.032258,0.327388,0.338624,0.327388,0.315603,,,,,,
967008,0.118031,-0.028954,0.060277,-0.002098,0.000125,-0.001057,0.087266,-0.0,-0.0,3.032258,0.327388,0.338885,0.327388,0.315316,,,,,,
967028,0.117297,-0.028948,0.060516,-0.002098,0.000125,-0.001057,0.087266,-0.0,-0.0,3.032258,0.327388,0.338692,0.327388,0.315528,,,,,,
967048,0.116313,-0.028818,0.060857,-0.002094,-0.000934,-0.001181,0.087266,-0.0,-0.0,3.032258,0.327388,0.338495,0.327388,0.315745,,,,,,
967068,0.115575,-0.028933,0.061103,-0.002094,-0.000934,-0.00118,0.087266,-0.0,-0.0,3.032258,0.327388,0.338238,0.327388,0.316027,,,,,,
967088,0.1146,-0.028798,0.061334,-0.00103,-0.000936,-0.001179,0.087266,-0.0,-0.0,3.032258,0.327388,0.33791,0.327388,0.316387,,,,,,
967108,0.11422,-0.028921,0.061571,-0.00103,-0.000936,-0.001179,0.087266,-0.0,-0.0,3.032258,0.327388,0.3423,0.327388,0.311493,,,,,,
967128,0.114102,-0.028688,0.0618,-0.001034,0.000121,-0.001058,0.087266,-0.0,-0.0,3.032258,0.327388,0.342681,0.327388,0.311059,,,,,,
967148,0.113852,-0.02881,0.061927,3e-06,-0.001057,-0.000121,0.087266,-0.0,-0.0,3.032258,0.327388,0.342824,0.327388,0.310895,,,,,,
967168,0.11386,-0.028566,0.061913,3e-06,-0.001057,-0.000121,0.087266,-0.0,-0.0,3.032258,0.327388,0.343412,0.327388,0.310223,,,,,,
967188,0.113738,-0.028563,0.061912,-0.001064,0.0,0.0,0.087266,-0.0,-0.0,3.032258,0.327388,0.343677,0.327388,0.309918,,,,,,
967208,0.113858,-0.028681,0.061798,-0.001064,0.0,0.0,0.087266,-0.0,-0.0,3.032258,0.327388,0.344256,0.327388,0.30925,,,,,,
967228,0.113864,-0.028552,0.06167,-0.001064,0.0,0.0,0.087266,-0.0,-0.0,3.032258,0.327388,0.34897,0.327388,0.303677,,,,,,
967248,0.113622,-0.028538,0.061547,-0.001034,0.000121,-0.001058,0.087266,-0.0,-0.0,3.032258,0.327388,0.345002,0.327388,0.308384,,,,,,
967268,0.113377,-0.028646,0.061431,-0.001061,-0.001057,-0.00012,0.087266,-0.0,-0.0,3.032258,0.327388,0.345248,0.327388,0.308098,,,,,,
967288,0.11301,-0.028751,0.061314,-0.001064,0.0,0.0,0.087266,-0.0,-0.0,3.032258,0.327388,0.345397,0.327388,0.307923,,,,,,
967308,0.112519,-0.028859,0.061318,-0.001064,0.0,0.0,0.087266,-0.0,-0.0,3.032258,0.327388,0.345448,0.327388,0.307864,,,,,,
967328,0.112148,-0.02884,0.061183,-0.002128,0.0,0.0,0.087266,-0.0,-0.0,3.032258,0.327388,0.345683,0.327388,0.307588,,,,,,
967348,0.111657,-0.028948,0.061187,-0.002128,0.0,0.0,0.087266,-0.0,-0.0,3.032258,0.327388,0.341533,0.327388,0.312361,,,,,,
967368,0.110926,-0.028927,0.061183,-0.00103,-0.00094,-0.001176,0.087266,-0.0,-0.0,3.032258,0.327388,0.341216,0.327388,0.312718,,,,,,
967388,0.110441,-0.028907,0.061058,-0.001061,-0.001058,-0.000117,0.087266,-0.0,-0.0,3.032258,0.327388,0.341343,0.327388,0.312576,,,,,,
967408,0.109947,-0.028891,0.061044,-0.002128,0.0,0.0,0.087266,-0.0,-0.0,3.032258,0.327388,0.341212,0.327388,0.312724,,,,,,
967428,0.109578,-0.029002,0.061048,-0.001061,-0.001058,-0.000116,0.087266,-0.0,-0.0,3.032258,0.327388,0.345604,0.327388,0.307681,,,,,,
967448,0.109216,-0.02887,0.061039,-0.00103,-0.000942,-0.001174,0.087266,-0.0,-0.0,3.032258,0.327388,0.345677,0.327388,0.307596,,,,,,
967468,0.108729,-0.028856,0.061036,-0.00103,-0.000942,-0.001174,0.087266,-0.0,-0.0,3.032258,0.327388,0.345531,0.327388,0.307767,,,,,,
967488,0.108485,-0.028849,0.061035,-0.001061,-0.001058,-0.000115,0.087266,-0.0,-0.0,3.032258,0.327388,0.345822,0.327388,0.307426,,,,,,
967508,0.108246,-0.028721,0.061027,-0.001034,0.000115,-0.001058,0.087266,-0.0,-0.0,3.032258,0.327388,0.345992,0.327388,0.307226,,,,,,
967528,0.107626,-0.028823,0.061018,-0.001034,0.000114,-0.001059,0.087266,-0.0,-0.0,3.032258,0.327388,0.345713,0.327388,0.307553,,,,,,
967548,0.107135,-0.028931,0.061022,-0.001064,0.0,0.0,0.087266,-0.0,-0.0,3.032258,0.327388,0.341605,0.327388,0.31228,,,,,,
967568,0.106648,-0.028918,0.061019,-0.002098,0.000113,-0.001059,0.087266,-0.0,-0.0,3.032258,0.327388,0.345591,0.327388,0.307696,,,,,,
967588,0.106282,-0.028907,0.061017,-0.002095,-0.000945,-0.001172,0.087266,-0.0,-0.0,3.032258,0.327388,0.345635,0.327388,0.307645,,,,,,
967608,0.105792,-0.02877,0.060996,-0.002125,-0.001058,-0.000112,0.087266,-0.0,-0.0,3.032258,0.327388,0.345671,0.327388,0.307602,,,,,,
967628,0.105181,-0.028759,0.061114,-0.002098,0.000112,-0.001059,0.087266,-0.0,-0.0,3.032258,0.327388,0.345475,0.327388,0.307832,,,,,,
967648,0.104694,-0.028745,0.061111,-0.002095,-0.000947,-0.00117,0.087266,-0.0,-0.0,3.032258,0.327388,0.345362,0.327388,0.307964,,,,,,
967668,0.104205,-0.028737,0.061229,-0.001034,0.000111,-0.001059,0.087266,-0.0,-0.0,3.032258,0.327388,0.345251,0.327388,0.308094,,,,,,
967688,0.103591,-0.028842,0.061232,-0.001034,0.00011,-0.001059,0.087266,-0.0,-0.0,3.032258,0.327388,0.34492,0.327388,0.30848,,,,,,
967708,0.103344,-0.028826,0.061097,-0.001061,-0.001059,-0.00011,0.087266,-0.0,-0.0,3.032258,0.327388,0.344986,0.327388,0.308403,,,,,,
967728,0.10297,-0.02906,0.061107,-0.001064,0.0,0.0,0.087266,-0.0,-0.0,3.032258,0.327388,0.34495,0.327388,0.308444,,,,,,
967748,0.102601,-0.029171,0.061111,-0.001061,-0.001059,-0.000109,0.087266,-0.0,-0.0,3.032258,0.327388,0.344912,0.327388,0.308488,,,,,,
967768,0.102114,-0.029157,0.061108,-0.001061,-0.001059,-0.000109,0.087266,-0.0,-0.0,3.032258,0.327388,0.344888,0.327388,0.308517,,,,,,
967788,0.101872,-0.029035,0.061222,-0.00103,-0.00095,-0.001167,0.087266,-0.0,-0.0,3.032258,0.327388,0.344957,0.327388,0.308436,,,,,,
967808,0.101512,-0.028896,0.061091,-0.001031,-0.000951,-0.001167,0.087266,-0.0,-0.0,3.032258,0.327388,0.344907,0.327388,0.308495,,,,,,
967828,0.101272,-0.028767,0.061083,-0.001034,0.000108,-0.001059,0.087266,-0.0,-0.0,3.032258,0.327388,0.344941,0.327388,0.308455,,,,,,
967848,0.100531,-0.028867,0.061073,-0.001031,-0.000952,-0.001166,0.087266,-0.0,-0.0,3.032258,0.327388,0.344432,0.327388,0.309046,,,,,,
967868,0.100166,-0.028856,0.061071,-0.001031,-0.000952,-0.001166,0.087266,-0.0,-0.0,3.032258,0.327388,0.340286,0.327388,0.313761,,,,,,
967888,0.099916,-0.028977,0.061197,-0.002098,0.000106,-0.001059,0.087266,-0.0,-0.0,3.032258,0.327388,0.34018,0.327388,0.313879,,,,,,
967908,0.099429,-0.028963,0.061194,-0.001034,0.000106,-0.001059,0.087266,-0.0,-0.0,3.032258,0.327388,0.344187,0.327388,0.30933,,,,,,
967928,0.099063,-0.028953,0.061191,-0.001061,-0.001059,-0.000105,0.087266,-0.0,-0.0,3.032258,0.327388,0.339879,0.327388,0.314215,,,,,,
967948,0.09845,-0.028817,0.061291,-0.001061,-0.001059,-0.000105,0.087266,-0.0,-0.0,3.032258,0.327388,0.343756,0.327388,0.309827,,,,,,
967968,0.098197,-0.02906,0.061424,-0.001064,0.0,0.0,0.087266,-0.0,-0.0,3.032258,0.327388,0.34387,0.327388,0.309696,,,,,,
967988,0.097957,-0.028931,0.061416,-0.001034,0.000104,-0.00106,0.087266,-0.0,-0.0,3.032258,0.327388,0.343859,0.327388,0.309708,,,,,,
968008,0.097469,-0.028917,0.061412,-0.001034,0.000104,-0.00106,0.087266,-0.0,-0.0,3.032258,0.327388,0.34363,0.327388,0.309972,,,,,,
968028,0.097227,-0.028904,0.061289,-0.001031,-0.000956,-0.001163,0.087266,-0.0,-0.0,3.032258,0.327388,0.343474,0.327388,0.310152,,,,,,
968048,0.097106,-0.028901,0.061288,-0.001061,-0.001059,-0.000103,0.087266,-0.0,-0.0,3.032258,0.327388,0.343548,0.327388,0.310066,,,,,,
968068,0.096978,-0.029135,0.061178,-0.001064,0.0,0.0,0.087266,-0.0,-0.0,3.032258,0.327388,0.343626,0.327388,0.309977,,,,,,
968088,0.096986,-0.028892,0.061166,-0.001064,0.0,0.0,0.087266,-0.0,-0.0,3.032258,0.327388,0.343794,0.327388,0.309783,,,,,,
968108,0.096742,-0.028885,0.061164,-0.001064,0.0,0.0,0.087266,-0.0,-0.0,3.032258,0.327388,0.343887,0.327388,0.309677,,,,,,
968128,0.096498,-0.028878,0.061162,-0.001034,0.000103,-0.00106,0.087266,-0.0,-0.0,3.032258,0.327388,0.343845,0.327388,0.309725,,,,,,
968148,0.096373,-0.028996,0.061167,-0.001064,0.0,0.0,0.087266,-0.0,-0.0,3.032258,0.327388,0.343892,0.327388,0.309671,,,,,,
968168,0.096249,-0.028998,0.061288,-0.001033,0.000102,-0.00106,0.087266,-0.0,-0.0,3.032258,0.327388,0.343961,0.327388,0.309591,,,,,,
968188,0.096123,-0.029117,0.061293,-0.001064,0.0,0.0,0.087266,-0.0,-0.0,3.032258,0.327388,0.344015,0.327388,0.309529,,,,,,
968208,0.096241,-0.029242,0.0613,-0.001061,-0.001059,-0.000102,0.087266,-0.0,-0.0,3.032258,0.327388,0.344263,0.327388,0.309241,,,,,,
968228,0.095994,-0.029357,0.061304,3.4e-05,-0.000957,-0.001162,0.087266,-0.0,-0.0,3.032258,0.327388,0.348229,0.327388,0.30457,,,,,,
968248,0.095994,-0.029357,0.061304,3e-06,-0.001059,-0.000102,0.087266,-0.0,-0.0,3.032258,0.327388,0.344244,0.327388,0.309263,,,,,,
968268,0.095999,-0.029229,0.061176,-0.001061,-0.001059,-0.000102,0.087266,-0.0,-0.0,3.032258,0.327388,0.344526,0.327388,0.308937,,,,,,
968288,0.095746,-0.029342,0.061169,-0.001064,0.0,0.0,0.087266,-0.0,-0.0,3.032258,0.327388,0.344353,0.327388,0.309137,,,,,,
968308,0.095628,-0.029217,0.061163,-0.001061,-0.001059,-0.000102,0.087266,-0.0,-0.0,3.032258,0.327388,0.344511,0.327388,0.308954,,,,,,
968328,0.095266,-0.029084,0.061154,-0.00103,-0.000958,-0.001161,0.087266,-0.0,-0.0,3.032258,0.327388,0.34436,0.327388,0.30913,,,,,,
968348,0.095022,-0.029078,0.061152,-0.00103,-0.000958,-0.001161,0.087266,-0.0,-0.0,3.032258,0.327388,0.344162,0.327388,0.309359,,,,,,
968368,0.094901,-0.029074,0.061151,-0.00103,-0.000959,-0.001161,0.087266,-0.0,-0.0,3.032258,0.327388,0.344197,0.327388,0.309319,,,,,,
968388,0.094657,-0.029067,0.06115,-0.001033,0.000101,-0.00106,0.087266,-0.0,-0.0,3.032258,0.327388,0.344134,0.327388,0.309392,,,,,,
968408,0.094289,-0.029062,0.061269,-0.001061,-0.001059,-0.0001,0.087266,-0.0,-0.0,3.032258,0.327388,0.344058,0.327388,0.309479,,,,,,
968428,0.09404,-0.029183,0.061394,-0.001033,0.0001,-0.00106,0.087266,-0.0,-0.0,3.032258,0.327388,0.34397,0.327388,0.30958,,,,,,
968448,0.093792,-0.029298,0.061398,-0.001033,0.0001,-0.00106,0.087266,-0.0,-0.0,3.032258,0.327388,0.343768,0.327388,0.309813,,,,,,
968468,0.093674,-0.029172,0.061392,-0.00103,-0.00096,-0.00116,0.087266,-0.0,-0.0,3.032258,0.327388,0.343904,0.327388,0.309656,,,,,,
968488,0.093305,-0.029284,0.061395,-0.00103,-0.00096,-0.001159,0.087266,-0.0,-0.0,3.032258,0.327388,0.343576,0.327388,0.310034,,,,,,
968508,0.092812,-0.029268,0.06138,-0.001061,-0.00106,-9.9e-05,0.087266,-0.0,-0.0,3.032258,0.327388,0.343246,0.327388,0.310413,,,,,,
968528,0.092446,-0.029257,0.061377,-0.001064,0.0,0.0,0.087266,-0.0,-0.0,3.032258,0.327388,0.343151,0.327388,0.310522,,,,,,
968548,0.092086,-0.029119,0.061247,-0.001033,9.8e-05,-0.00106,0.087266,-0.0,-0.0,3.032258,0.327388,0.342822,0.327388,0.310898,,,,,,
968568,0.091843,-0.029112,0.061245,-0.001061,-0.00106,-9.8e-05,0.087266,-0.0,-0.0,3.032258,0.327388,0.342819,0.327388,0.310902,,,,,,
968588,0.091603,-0.028983,0.061238,-0.001061,-0.00106,-9.7e-05,0.087266,-0.0,-0.0,3.032258,0.327388,0.342681,0.327388,0.311059,,,,,,
968608,0.091355,-0.029098,0.061241,-0.001033,9.7e-05,-0.00106,0.087266,-0.0,-0.0,3.032258,0.327388,0.342423,0.327388,0.311353,,,,,,
968628,0.091115,-0.028969,0.061234,-0.001061,-0.00106,-9.7e-05,0.087266,-0.0,-0.0,3.032258,0.327388,0.34241,0.327388,0.311368,,,,,,
968648,0.091115,-0.028969,0.061234,-0.001034,9.7e-05,-0.00106,0.087266,-0.0,-0.0,3.032258,0.327388,0.342491,0.327388,0.311276,,,,,,
968668,0.090871,-0.028962,0.061232,-0.001034,9.7e-05,-0.00106,0.087266,-0.0,-0.0,3.032258,0.327388,0.342225,0.327388,0.311577,,,,,,
968688,0.090986,-0.02921,0.061244,-0.001061,-0.00106,-9.7e-05,0.087266,-0.0,-0.0,3.032258,0.327388,0.342378,0.327388,0.311404,,,,,,
968708,0.090868,-0.029084,0.061238,-0.001064,0.0,0.0,0.087266,-0.0,-0.0,3.032258,0.327388,0.342341,0.327388,0.311446,,,,,,
968728,0.090618,-0.029205,0.061363,-0.001064,0.0,0.0,0.087266,-0.0,-0.0,3.032258,0.327388,0.34231,0.327388,0.311481,,,,,,
968748,0.090744,-0.029086,0.061359,-0.001061,-0.00106,-9.6e-05,0.087266,-0.0,-0.0,3.032258,0.327388,0.342481,0.327388,0.311287,,,,,,
968768,0.09062,-0.028959,0.061341,-0.001034,9.6e-05,-0.00106,0.087266,-0.0,-0.0,3.032258,0.327388,0.342446,0.327388,0.311327,,,,,,
968788,0.090504,-0.028828,0.061213,3.3e-05,-0.000964,-0.001157,0.087266,-0.0,-0.0,3.032258,0.327388,0.342284,0.327388,0.311511,,,,,,
968808,0.09026,-0.028821,0.061211,-0.001031,-0.000964,-0.001156,0.087266,-0.0,-0.0,3.032258,0.327388,0.34212,0.327388,0.311697,,,,,,
968828,0.090013,-0.028936,0.061214,-0.001034,9.6e-05,-0.00106,0.087266,-0.0,-0.0,3.032258,0.327388,0.34196,0.327388,0.311878,,,,,,
968848,0.089889,-0.029049,0.061097,-0.001064,0.0,0.0,0.087266,-0.0,-0.0,3.032258,0.327388,0.341903,0.327388,0.311943,,,,,,
968868,0.089527,-0.028916,0.061089,-0.001064,0.0,0.0,0.087266,-0.0,-0.0,3.032258,0.327388,0.341643,0.327388,0.312238,,,,,,
968888,0.089034,-0.02903,0.061213,-0.001031,-0.000965,-0.001155,0.087266,-0.0,-0.0,3.032258,0.327388,0.341253,0.327388,0.312677,,,,,,
968908,0.088672,-0.028897,0.061204,-0.001062,-0.00106,-9.4e-05,0.087266,-0.0,-0.0,3.032258,0.327388,0.34108,0.327388,0.312872,,,,,,
968928,0.088426,-0.028896,0.061324,-0.001034,9.4e-05,-0.001061,0.087266,-0.0,-0.0,3.032258,0.327388,0.340902,0.327388,0.313072,,,,,,
968948,0.088061,-0.028885,0.061321,-0.001034,9.4e-05,-0.001061,0.087266,-0.0,-0.0,3.032258,0.327388,0.340602,0.327388,0.313408,,,,,,
968968,0.087934,-0.02888,0.061309,-0.001031,-0.000967,-0.001154,0.087266,-0.0,-0.0,3.032258,0.327388,0.340507,0.327388,0.313515,,,,,,
968988,0.087815,-0.028754,0.061303,-0.001034,9.3e-05,-0.001061,0.087266,-0.0,-0.0,3.032258,0.327388,0.340284,0.327388,0.313763,,,,,,
969008,0.087564,-0.028991,0.061312,-0.001033,9.3e-05,-0.001061,0.087266,-0.0,-0.0,3.032258,0.327388,0.340084,0.327388,0.313986,,,,,,
969028,0.087566,-0.028986,0.06119,-0.001064,0.0,0.0,0.087266,-0.0,-0.0,3.032258,0.327388,0.340081,0.327388,0.31399,,,,,,
969048,0.087444,-0.028982,0.061189,-0.001064,0.0,0.0,0.087266,-0.0,-0.0,3.032258,0.327388,0.339978,0.327388,0.314105,,,,,,
969068,0.087318,-0.0291,0.061193,-0.001062,-0.00106,-9.3e-05,0.087266,-0.0,-0.0,3.032258,0.327388,0.339869,0.327388,0.314226,,,,,,
969088,0.0872,-0.028975,0.061187,-0.001062,-0.00106,-9.3e-05,0.087266,-0.0,-0.0,3.032258,0.327388,0.339888,0.327388,0.314205,,,,,,
969108,0.086955,-0.028973,0.061307,-0.001033,9.2e-05,-0.001061,0.087266,-0.0,-0.0,3.032258,0.327388,0.339682,0.327388,0.314434,,,,,,
969128,0.08696,-0.028846,0.06118,-0.001031,-0.000968,-0.001153,0.087266,-0.0,-0.0,3.032258,0.327388,0.339562,0.327388,0.314567,,,,,,
969148,0.086953,-0.02909,0.061191,-0.001062,-0.00106,-9.2e-05,0.087266,-0.0,-0.0,3.032258,0.327388,0.339662,0.327388,0.314456,,,,,,
969168,0.086953,-0.02909,0.061191,-0.001033,9.2e-05,-0.001061,0.087266,-0.0,-0.0,3.032258,0.327388,0.339533,0.327388,0.314599,,,,,,
969188,0.086705,-0.029205,0.061194,3.1e-05,9.2e-05,-0.001061,0.087266,-0.0,-0.0,3.032258,0.327388,0.339309,0.327388,0.314848,,,,,,
969208,0.086709,-0.029083,0.061189,3e-06,-0.00106,-9.2e-05,0.087266,-0.0,-0.0,3.032258,0.327388,0.339425,0.327388,0.314719,,,,,,
969228,0.086831,-0.029086,0.06119,-0.001033,9.2e-05,-0.001061,0.087266,-0.0,-0.0,3.032258,0.327388,0.343734,0.327388,0.309853,,,,,,
969248,0.086713,-0.028961,0.061183,-0.001034,9.2e-05,-0.001061,0.087266,-0.0,-0.0,3.032258,0.327388,0.343501,0.327388,0.31012,,,,,,
969268,0.086589,-0.029074,0.061066,3e-06,-0.00106,-9.2e-05,0.087266,-0.0,-0.0,3.032258,0.327388,0.33929,0.327388,0.314868,,,,,,
969288,0.086463,-0.029193,0.06107,-0.001064,0.0,0.0,0.087266,-0.0,-0.0,3.032258,0.327388,0.339045,0.327388,0.315139,,,,,,
969308,0.086581,-0.029318,0.061077,-0.001064,0.0,0.0,0.087266,-0.0,-0.0,3.032258,0.327388,0.343344,0.327388,0.310301,,,,,,
969328,0.086585,-0.029196,0.061071,-0.001064,0.0,0.0,0.087266,-0.0,-0.0,3.032258,0.327388,0.343467,0.327388,0.310159,,,,,,
969348,0.086585,-0.029196,0.061071,-0.001033,9.2e-05,-0.001061,0.087266,-0.0,-0.0,3.032258,0.327388,0.343453,0.327388,0.310176,,,,,,
969368,0.086343,-0.029072,0.061186,3.4e-05,-0.000968,-0.001153,0.087266,-0.0,-0.0,3.032258,0.327388,0.338898,0.327388,0.315302,,,,,,
969388,0.086471,-0.028949,0.06106,3.3e-05,-0.000968,-0.001153,0.087266,-0.0,-0.0,3.032258,0.327388,0.339105,0.327388,0.315073,,,,,,
969408,0.086593,-0.028952,0.061061,3.1e-05,9.2e-05,-0.001061,0.087266,-0.0,-0.0,3.032258,0.327388,0.339074,0.327388,0.315107,,,,,,
969428,0.086463,-0.029193,0.06107,-0.001033,9.2e-05,-0.001061,0.087266,-0.0,-0.0,3.032258,0.327388,0.338948,0.327388,0.315247,,,,,,
969448,0.086338,-0.029311,0.061075,3e-06,-0.00106,-9.2e-05,0.087266,-0.0,-0.0,3.032258,0.327388,0.338822,0.327388,0.315385,,,,,,
969468,0.086338,-0.029311,0.061075,-0.001033,9.2e-05,-0.001061,0.087266,-0.0,-0.0,3.032258,0.327388,0.338806,0.327388,0.315403,,,,,,
969488,0.086094,-0.029304,0.061073,-0.001033,9.2e-05,-0.001061,0.087266,-0.0,-0.0,3.032258,0.327388,0.338585,0.327388,0.315646,,,,,,
969508,0.08622,-0.029186,0.061068,-0.001062,-0.00106,-9.2e-05,0.087266,-0.0,-0.0,3.032258,0.327388,0.3388,0.327388,0.31541,,,,,,
969528,0.086223,-0.029064,0.061063,-0.001064,0.0,0.0,0.087266,-0.0,-0.0,3.032258,0.327388,0.342996,0.327388,0.310699,,,,,,
969548,0.086096,-0.029187,0.061189,-0.001033,9.2e-05,-0.001061,0.087266,-0.0,-0.0,3.032258,0.327388,0.342865,0.327388,0.310849,,,,,,
969568,0.08598,-0.029057,0.061061,3e-06,-0.00106,-9.1e-05,0.087266,-0.0,-0.0,3.032258,0.327388,0.338515,0.327388,0.315723,,,,,,
969588,0.08585,-0.029297,0.061071,3.1e-05,9.1e-05,-0.001061,0.087266,-0.0,-0.0,3.032258,0.327388,0.338378,0.327388,0.315874,,,,,,
969608,0.085854,-0.029175,0.061066,3.1e-05,9.1e-05,-0.001061,0.087266,-0.0,-0.0,3.032258,0.327388,0.338243,0.327388,0.316022,,,,,,
969628,0.085974,-0.029295,0.06095,-0.001062,-0.00106,-9.1e-05,0.087266,-0.0,-0.0,3.032258,0.327388,0.338312,0.327388,0.315946,,,,,,
969648,0.085978,-0.029173,0.060945,-0.001062,-0.00106,-9.1e-05,0.087266,-0.0,-0.0,3.032258,0.327388,0.338288,0.327388,0.315972,,,,,,
969668,0.085606,-0.02929,0.061069,-0.001062,-0.00106,-9.1e-05,0.087266,-0.0,-0.0,3.032258,0.327388,0.337937,0.327388,0.316357,,,,,,
969688,0.085732,-0.029172,0.061065,-0.001062,-0.00106,-9.1e-05,0.087266,-0.0,-0.0,3.032258,0.327388,0.338143,0.327388,0.316132,,,,,,
969708,0.085732,-0.029172,0.061065,-0.001033,9.1e-05,-0.001061,0.087266,-0.0,-0.0,3.032258,0.327388,0.342349,0.327388,0.311436,,,,,,
969728,0.085492,-0.029043,0.061057,-0.001033,9.1e-05,-0.001061,0.087266,-0.0,-0.0,3.032258,0.327388,0.342114,0.327388,0.311704,,,,,,
969748,0.085492,-0.029043,0.061057,3.3e-05,-0.000969,-0.001152,0.087266,-0.0,-0.0,3.032258,0.327388,0.34195,0.327388,0.311889,,,,,,
969768,0.085376,-0.028912,0.060929,3.3e-05,-0.00097,-0.001152,0.087266,-0.0,-0.0,3.032258,0.327388,0.337585,0.327388,0.316741,,,,,,
969788,0.085486,-0.029281,0.060946,-0.001033,9.1e-05,-0.001061,0.087266,-0.0,-0.0,3.032258,0.327388,0.341881,0.327388,0.311968,,,,,,
969808,0.085612,-0.029163,0.060942,-0.001064,0.0,0.0,0.087266,-0.0,-0.0,3.032258,0.327388,0.341958,0.327388,0.311881,,,,,,
969828,0.085483,-0.029403,0.060951,0.0,0.0,0.0,0.087266,-0.0,-0.0,3.032258,0.327388,0.337703,0.327388,0.316612,,,,,,
969848,0.085362,-0.029283,0.061067,3.1e-05,9.1e-05,-0.001061,0.087266,-0.0,-0.0,3.032258,0.327388,0.337575,0.327388,0.316752,,,,,,
969868,0.085362,-0.029283,0.061067,3.4e-05,-0.00097,-0.001152,0.087266,-0.0,-0.0,3.032258,0.327388,0.33754,0.327388,0.31679,,,,,,
969888,0.085372,-0.029034,0.060935,-0.001062,-0.00106,-9.1e-05,0.087266,-0.0,-0.0,3.032258,0.327388,0.337513,0.327388,0.31682,,,,,,
969908,0.085245,-0.029029,0.060922,-0.001033,9.1e-05,-0.001061,0.087266,-0.0,-0.0,3.032258,0.327388,0.337243,0.327388,0.317114,,,,,,
969928,0.085241,-0.02915,0.060928,-0.001033,9.1e-05,-0.001061,0.087266,-0.0,-0.0,3.032258,0.327388,0.341432,0.327388,0.312475,,,,,,
969948,0.085239,-0.029267,0.060811,3e-06,-0.00106,-9.1e-05,0.087266,-0.0,-0.0,3.032258,0.327388,0.341517,0.327388,0.312379,,,,,,
969968,0.085116,-0.029269,0.060932,3.1e-05,9e-05,-0.001061,0.087266,-0.0,-0.0,3.032258,0.327388,0.341251,0.327388,0.31268,,,,,,
969988,0.085237,-0.029272,0.060933,-0.001033,9.1e-05,-0.001061,0.087266,-0.0,-0.0,3.032258,0.327388,0.341329,0.327388,0.312591,,,,,,
970008,0.085365,-0.029149,0.060807,-0.001062,-0.00106,-9.1e-05,0.087266,-0.0,-0.0,3.032258,0.327388,0.337275,0.327388,0.317079,,,,,,
970028,0.085368,-0.029156,0.06094,-0.001062,-0.00106,-9.1e-05,0.087266,-0.0,-0.0,3.032258,0.327388,0.337251,0.327388,0.317105,,,,,,
970048,0.084997,-0.029143,0.060926,-0.001033,9e-05,-0.001061,0.087266,-0.0,-0.0,3.032258,0.327388,0.336751,0.327388,0.317647,,,,,,
970068,0.084876,-0.02914,0.060925,-0.001064,0.0,0.0,0.087266,-0.0,-0.0,3.032258,0.327388,0.336727,0.327388,0.317673,,,,,,
970088,0.084994,-0.029265,0.060931,-0.001033,9e-05,-0.001061,0.087266,-0.0,-0.0,3.032258,0.327388,0.341036,0.327388,0.312921,,,,,,
970108,0.084994,-0.029265,0.060931,-0.001033,9e-05,-0.001061,0.087266,-0.0,-0.0,3.032258,0.327388,0.340882,0.327388,0.313094,,,,,,
970128,0.085121,-0.029142,0.060805,3e-06,-0.00106,-9.1e-05,0.087266,-0.0,-0.0,3.032258,0.327388,0.340942,0.327388,0.313027,,,,,,
970148,0.084994,-0.029265,0.060931,3e-06,-0.00106,-9e-05,0.087266,-0.0,-0.0,3.032258,0.327388,0.336665,0.327388,0.31774,,,,,,
970168,0.084994,-0.029265,0.060931,-0.001033,9e-05,-0.001061,0.087266,-0.0,-0.0,3.032258,0.327388,0.34076,0.327388,0.313231,,,,,,
970188,0.085119,-0.029147,0.060927,-0.001064,0.0,0.0,0.087266,-0.0,-0.0,3.032258,0.327388,0.336703,0.327388,0.317699,,,,,,
970208,0.085001,-0.029022,0.06092,-0.001031,-0.00097,-0.001151,0.087266,-0.0,-0.0,3.032258,0.327388,0.336544,0.327388,0.317871,,,,,,
970228,0.084757,-0.029015,0.060919,-0.001033,9e-05,-0.001061,0.087266,-0.0,-0.0,3.032258,0.327388,0.336173,0.327388,0.318271,,,,,,
970248,0.084759,-0.029009,0.060797,-0.001064,0.0,0.0,0.087266,-0.0,-0.0,3.032258,0.327388,0.340378,0.327388,0.313659,,,,,,
970268,0.084996,-0.02926,0.060809,-0.001062,-0.00106,-9e-05,0.087266,-0.0,-0.0,3.032258,0.327388,0.340662,0.327388,0.31334,,,,,,
970288,0.084997,-0.029143,0.060926,-0.001062,-0.00106,-9e-05,0.087266,-0.0,-0.0,3.032258,0.327388,0.340632,0.327388,0.313374,,,,,,
970308,0.084876,-0.02914,0.060925,3.4e-05,-0.00097,-0.001151,0.087266,-0.0,-0.0,3.032258,0.327388,0.336228,0.327388,0.318213,,,,,,
970328,0.084883,-0.028896,0.060914,3.3e-05,-0.00097,-0.001151,0.087266,-0.0,-0.0,3.032258,0.327388,0.336179,0.327388,0.318265,,,,,,
970348,0.084761,-0.028893,0.060913,3.1e-05,9e-05,-0.001061,0.087266,-0.0,-0.0,3.032258,0.327388,0.336037,0.327388,0.318418,,,,,,
970368,0.084761,-0.028893,0.060913,3.1e-05,9e-05,-0.001061,0.087266,-0.0,-0.0,3.032258,0.327388,0.335867,0.327388,0.318601,,,,,,
970388,0.084759,-0.029009,0.060797,0.0,0.0,0.0,0.087266,-0.0,-0.0,3.032258,0.327388,0.335808,0.327388,0.318664,,,,,,
970408,0.084756,-0.029131,0.060802,0.0,0.0,0.0,0.087266,-0.0,-0.0,3.032258,0.327388,0.335755,0.327388,0.31872,,,,,,
970428,0.08463,-0.02925,0.060806,-0.001064,0.0,0.0,0.087266,-0.0,-0.0,3.032258,0.327388,0.339864,0.327388,0.314232,,,,,,
970448,0.084634,-0.029128,0.060801,-0.001062,-0.00106,-9e-05,0.087266,-0.0,-0.0,3.032258,0.327388,0.339943,0.327388,0.314144,,,,,,
970468,0.084759,-0.029009,0.060797,-0.001062,-0.00106,-9e-05,0.087266,-0.0,-0.0,3.032258,0.327388,0.340015,0.327388,0.314064,,,,,,
970488,0.084636,-0.029011,0.060918,-0.001033,9e-05,-0.001061,0.087266,-0.0,-0.0,3.032258,0.327388,0.33986,0.327388,0.314236,,,,,,
970508,0.084517,-0.028886,0.060911,3.3e-05,-0.000971,-0.001151,0.087266,-0.0,-0.0,3.032258,0.327388,0.339707,0.327388,0.314406,,,,,,
970528,0.084399,-0.02876,0.060905,3.3e-05,-0.000971,-0.001151,0.087266,-0.0,-0.0,3.032258,0.327388,0.335272,0.327388,0.319238,,,,,,
970548,0.084392,-0.029004,0.060916,3.1e-05,9e-05,-0.001061,0.087266,-0.0,-0.0,3.032258,0.327388,0.335091,0.327388,0.319432,,,,,,
970568,0.084634,-0.029128,0.060801,-0.001064,0.0,0.0,0.087266,-0.0,-0.0,3.032258,0.327388,0.335254,0.327388,0.319258,,,,,,
970588,0.08463,-0.02925,0.060806,0.0,0.0,0.0,0.087266,-0.0,-0.0,3.032258,0.327388,0.339597,0.327388,0.314528,,,,,,
970608,0.084628,-0.029255,0.060928,-0.001062,-0.00106,-9e-05,0.087266,-0.0,-0.0,3.032258,0.327388,0.335276,0.327388,0.319234,,,,,,
970628,0.084514,-0.029008,0.060917,-0.001033,9e-05,-0.001061,0.087266,-0.0,-0.0,3.032258,0.327388,0.339287,0.327388,0.314872,,,,,,
970648,0.084636,-0.029011,0.060918,-0.001062,-0.00106,-9e-05,0.087266,-0.0,-0.0,3.032258,0.327388,0.339467,0.327388,0.314673,,,,,,
970668,0.084639,-0.028889,0.060912,-0.001031,-0.00097,-0.001151,0.087266,-0.0,-0.0,3.032258,0.327388,0.33942,0.327388,0.314724,,,,,,
970688,0.084398,-0.028877,0.060789,-0.001034,9e-05,-0.001061,0.087266,-0.0,-0.0,3.032258,0.327388,0.339027,0.327388,0.315159,,,,,,
970708,0.084272,-0.028995,0.060793,-0.001033,9e-05,-0.001061,0.087266,-0.0,-0.0,3.032258,0.327388,0.334582,0.327388,0.319974,,,,,,
970728,0.084274,-0.02899,0.060671,3.1e-05,9e-05,-0.001061,0.087266,-0.0,-0.0,3.032258,0.327388,0.334528,0.327388,0.32003,,,,,,
