time_ms,roll,pitch,yaw,roll_rate,pitch_rate,yaw_rate,reference_roll,reference_pitch,reference_yaw,reference_throttle,throttle_1,throttle_2,throttle_3,throttle_4,roll_predicted,pitch_predicted,yaw_predicted,roll_rate_predicted,pitch_rate_predicted,yaw_rate_predicted
351598,-0.008612,0.013478,-0.04585,0.0,-0.001064,9e-06,0.0,-0.0,-0.0,2.0,0.282024,0.279702,0.282024,0.284319,,,,,,
351618,-0.008609,0.013356,-0.045729,-1.4e-05,-0.001073,-0.001055,0.001965,-0.0,-0.0,2.0,0.282024,0.279879,0.282024,0.284146,,,,,,
351638,-0.00849,0.013481,-0.045851,0.0,0.0,0.0,0.005785,-0.0,-0.0,2.0,0.282024,0.277084,0.282024,0.286843,,,,,,
351658,-0.008365,0.013361,-0.045852,0.0,0.0,0.0,0.007649,-0.0,-0.0,2.0,0.282024,0.27579,0.282024,0.288066,,,,,,
351678,-0.008241,0.013242,-0.045854,-1.4e-05,-9e-06,-0.001064,0.012635,-0.0,-0.0,2.0,0.282024,0.272038,0.282024,0.291526,,,,,,
351698,-0.007997,0.013248,-0.045855,0.0,0.0,0.0,0.012635,-0.0,-0.0,2.0,0.282024,0.27225,0.282024,0.291334,,,,,,
351718,-0.008,0.013369,-0.045977,-1.4e-05,-9e-06,-0.001064,0.017331,-0.0,-0.0,2.0,0.282024,0.268576,0.282024,0.294607,,,,,,
351738,-0.007875,0.01325,-0.045978,-0.001064,-0.001064,8e-06,0.022622,-0.0,-0.0,2.0,0.282024,0.264427,0.282024,0.298167,,,,,,
351758,-0.007878,0.013372,-0.045978,-1.4e-05,-8e-06,-0.001064,0.024916,-0.0,-0.0,2.0,0.282024,0.262586,0.282024,0.299703,,,,,,
351778,-0.007636,0.013377,-0.046223,0.0,0.0,0.0,0.029067,-0.0,-0.0,2.0,0.282024,0.259365,0.282024,0.302324,,,,,,
351798,-0.00727,0.013385,-0.046348,0.0,-0.001064,8e-06,0.032513,-0.0,-0.0,2.0,0.282024,0.258631,0.282024,0.30291,,,,,,
351818,-0.006658,0.013277,-0.046474,0.002129,-0.001064,7e-06,0.035944,-0.0,-0.0,2.0,0.282024,0.256236,0.282024,0.304795,,,,,,
351838,-0.005805,0.013296,-0.046724,0.002128,0.0,0.0,0.037645,-0.0,-0.0,2.0,0.282024,0.257401,0.282024,0.303884,,,,,,
351858,-0.004341,0.013207,-0.0471,0.003207,5e-06,0.001064,0.041595,-0.0,-0.0,2.0,0.282024,0.25716,0.282024,0.304073,,,,,,
351878,-0.002513,0.013251,-0.047487,0.004257,-0.001064,3e-06,0.045032,-0.0,-0.0,2.0,0.282024,0.257681,0.282024,0.303662,,,,,,
351898,-0.000197,0.013306,-0.04799,0.006385,-0.001064,0.0,0.048114,-0.0,-0.0,2.0,0.282024,0.258856,0.282024,0.30273,,,,,,
351918,0.002854,0.013257,-0.048498,0.00745,-0.001064,-3e-06,0.049806,-0.0,-0.0,2.0,0.282024,0.261822,0.282024,0.300331,,,,,,
351938,0.006638,0.013107,-0.049252,0.007464,-7e-06,0.001064,0.053521,-0.0,-0.0,2.0,0.282024,0.265448,0.282024,0.297304,,,,,,
351958,0.010904,0.013216,-0.05001,0.009592,-1.2e-05,0.001064,0.056419,-0.0,-0.0,2.0,0.282024,0.268292,0.282024,0.294856,,,,,,
351978,0.015784,0.013222,-0.050777,0.01172,-0.001081,0.001047,0.059169,-0.0,-0.0,2.0,0.282024,0.271661,0.282024,0.291866,,,,,,
351998,0.021279,0.013003,-0.051656,0.012784,-0.001087,0.001041,0.061818,-0.0,-0.0,2.0,0.282024,0.27556,0.282024,0.288282,,,,,,
352018,0.027624,0.012937,-0.052791,0.013862,-5.9e-05,0.002128,0.06338,-0.0,-0.0,2.0,0.282024,0.280818,0.282024,0.283223,,,,,,
352038,0.034461,0.012769,-0.053921,0.014926,-7.3e-05,0.002127,0.065064,-0.0,-0.0,2.0,0.282024,0.287763,0.282024,0.276112,,,,,,
352058,0.041666,0.012622,-0.055179,0.01599,-8.9e-05,0.002127,0.068161,-0.0,-0.0,2.0,0.282024,0.2922,0.282024,0.27129,,,,,,
352078,0.049233,0.012495,-0.056544,0.017054,-0.000105,0.002126,0.069449,-0.0,-0.0,2.0,0.282024,0.296563,0.282024,0.266317,,,,,,
352098,0.057293,0.012278,-0.058154,0.017054,-0.000122,0.002125,0.072812,-0.0,-0.0,2.0,0.282024,0.30125,0.282024,0.260696,,,,,,
352118,0.065482,0.011956,-0.059763,0.017066,-0.000209,0.003186,0.074112,-0.0,-0.0,2.0,0.282024,0.305815,0.282024,0.254917,,,,,,
352138,0.073666,0.011887,-0.06125,0.017065,-0.000235,0.003184,0.076167,-0.0,-0.0,2.0,0.282024,0.309781,0.282024,0.249626,,,,,,
352158,0.081603,0.011708,-0.062957,0.017052,-0.000173,0.002122,0.077933,-0.0,-0.0,2.0,0.282024,0.313738,0.282024,0.244074,,,,,,
352178,0.089432,0.011424,-0.064794,0.016,-0.000285,0.00318,0.079566,-0.0,-0.0,2.0,0.282024,0.316269,0.282024,0.240365,,,,,,
352198,0.096891,0.011142,-0.066611,0.014946,-0.000412,0.004237,0.079566,-0.0,-0.0,2.0,0.282024,0.319522,0.282024,0.235399,,,,,,
352218,0.103619,0.010842,-0.068299,0.013871,0.000728,0.003286,0.082344,-0.0,-0.0,2.0,0.282024,0.320585,0.282024,0.233725,,,,,,
352238,0.109855,0.010666,-0.07011,0.01174,-0.00035,0.003174,0.083081,-0.0,-0.0,2.0,0.282024,0.321275,0.282024,0.232623,,,,,,
352258,0.115253,0.010242,-0.072161,0.009611,-0.000367,0.003172,0.083972,-0.0,-0.0,2.0,0.282024,0.322698,0.282024,0.230316,,,,,,
352278,0.1199,0.01003,-0.073954,0.008557,0.000547,0.004354,0.084514,-0.0,-0.0,2.0,0.282024,0.322515,0.282024,0.230615,,,,,,
352298,0.12358,0.009791,-0.075763,0.005364,0.000531,0.004356,0.085648,-0.0,-0.0,2.0,0.282024,0.321369,0.282024,0.232473,,,,,,
352318,0.126157,0.009516,-0.077564,0.003223,-0.000402,0.003167,0.08628,-0.0,-0.0,2.0,0.282024,0.31986,0.282024,0.23487,,,,,,
352338,0.127874,0.009227,-0.079597,0.001095,0.000648,0.003302,0.08676,-0.0,-0.0,2.0,0.282024,0.317913,0.282024,0.237884,,,,,,
352358,0.128491,0.009012,-0.081525,-0.001025,0.00051,0.004358,0.087081,-0.0,-0.0,2.0,0.282024,0.315348,0.282024,0.241729,,,,,,
352378,0.128259,0.008739,-0.083095,-0.002101,-0.000408,0.003167,0.087188,-0.0,-0.0,2.0,0.282024,0.312337,0.282024,0.246074,,,,,,
352398,0.127156,0.008542,-0.08453,-0.003175,-0.00027,0.002111,0.087257,-0.0,-0.0,2.0,0.282024,0.310165,0.282024,0.2491,,,,,,
352418,0.125339,0.008162,-0.085494,-0.00532,0.001056,0.000133,0.087193,-0.0,-0.0,2.0,0.282024,0.307608,0.282024,0.252557,,,,,,
352438,0.123275,0.007738,-0.08596,-0.006385,0.0,0.0,0.086998,-0.0,-0.0,2.0,0.282024,0.304933,0.282024,0.256058,,,,,,
352458,0.120724,0.00737,-0.085711,-0.006393,0.000128,-0.001057,0.08649,-0.0,-0.0,2.0,0.282024,0.302099,0.282024,0.259645,,,,,,
352478,0.117798,0.007072,-0.08485,-0.006408,0.000375,-0.003171,0.085879,-0.0,-0.0,2.0,0.282024,0.300539,0.282024,0.261569,,,,,,
352498,0.114989,0.006897,-0.083873,-0.007472,-0.000691,-0.003294,0.085144,-0.0,-0.0,2.0,0.282024,0.297647,0.282024,0.265044,,,,,,
352518,0.112175,0.006846,-0.082903,-0.007465,-0.000819,-0.002234,0.084722,-0.0,-0.0,2.0,0.282024,0.297517,0.282024,0.265198,,,,,,
352538,0.10912,0.006904,-0.081833,-0.0064,0.000232,-0.002116,0.083742,-0.0,-0.0,2.0,0.282024,0.294572,0.282024,0.268617,,,,,,
352558,0.106301,0.006981,-0.080866,-0.0064,0.000226,-0.002116,0.082217,-0.0,-0.0,2.0,0.282024,0.295197,0.282024,0.267901,,,,,,
352578,0.10362,0.006828,-0.080021,-0.006401,-0.000838,-0.002227,0.082217,-0.0,-0.0,2.0,0.282024,0.293342,0.282024,0.270012,,,,,,
352598,0.100927,0.006806,-0.079288,-0.005336,-0.000844,-0.002225,0.079817,-0.0,-0.0,2.0,0.282024,0.294674,0.282024,0.2685,,,,,,
352618,0.098609,0.006684,-0.078681,-0.005336,-0.00085,-0.002223,0.078801,-0.0,-0.0,2.0,0.282024,0.293783,0.282024,0.269513,,,,,,
352638,0.096535,0.006573,-0.078072,-0.005336,-0.000854,-0.002221,0.077658,-0.0,-0.0,2.0,0.282024,0.29465,0.282024,0.268527,,,,,,
352658,0.094699,0.006606,-0.07771,-0.0032,0.000101,-0.001059,0.075538,-0.0,-0.0,2.0,0.282024,0.294847,0.282024,0.268302,,,,,,
352678,0.093248,0.006295,-0.077465,-0.003199,9.9e-05,-0.00106,0.073578,-0.0,-0.0,2.0,0.282024,0.296719,0.282024,0.266136,,,,,,
352698,0.092273,0.006124,-0.077208,-0.003199,9.8e-05,-0.00106,0.071473,-0.0,-0.0,2.0,0.282024,0.297491,0.282024,0.265228,,,,,,
352718,0.09143,0.005847,-0.077201,-0.001064,0.0,0.0,0.070403,-0.0,-0.0,2.0,0.282024,0.299148,0.282024,0.263255,,,,,,
352738,0.090825,0.005702,-0.0772,-0.001064,0.0,0.0,0.068042,-0.0,-0.0,2.0,0.282024,0.301798,0.282024,0.260018,,,,,,
352758,0.09059,0.005454,-0.077311,-0.001064,0.0,0.0,0.064653,-0.0,-0.0,2.0,0.282024,0.303904,0.282024,0.257375,,,,,,
352778,0.090346,0.005456,-0.077556,-1e-06,-0.00106,-9.6e-05,0.06258,-0.0,-0.0,2.0,0.282024,0.30511,0.282024,0.25583,,,,,,
352798,0.090106,0.005336,-0.077795,-0.001064,0.0,0.0,0.061163,-0.0,-0.0,2.0,0.282024,0.305883,0.282024,0.254828,,,,,,
352818,0.090221,0.005479,-0.078164,-0.001065,-0.00106,-9.6e-05,0.057851,-0.0,-0.0,2.0,0.282024,0.308118,0.282024,0.251877,,,,,,
352838,0.090098,0.005485,-0.078408,-0.001065,-0.00106,-9.6e-05,0.05479,-0.0,-0.0,2.0,0.282024,0.310017,0.282024,0.249304,,,,,,
352858,0.089847,0.005619,-0.078901,-0.001064,0.0,0.0,0.051881,-0.0,-0.0,2.0,0.282024,0.311722,0.282024,0.246939,,,,,,
352878,0.089475,0.005743,-0.079273,-0.002123,-0.001155,0.000965,0.048859,-0.0,-0.0,2.0,0.282024,0.312009,0.282024,0.246536,,,,,,
352898,0.088864,0.005741,-0.079763,-0.002129,-0.00106,-9.4e-05,0.048859,-0.0,-0.0,2.0,0.282024,0.311628,0.282024,0.247072,,,,,,
352918,0.087998,0.005972,-0.080264,-0.003187,-0.001154,0.000967,0.043017,-0.0,-0.0,2.0,0.282024,0.314785,0.282024,0.242555,,,,,,
352938,0.086884,0.006192,-0.080752,-0.004257,-0.00106,-9.2e-05,0.041019,-0.0,-0.0,2.0,0.282024,0.313946,0.282024,0.243774,,,,,,
352958,0.085415,0.006276,-0.081252,-0.004257,-0.00106,-9.1e-05,0.038407,-0.0,-0.0,2.0,0.282024,0.313277,0.282024,0.244737,,,,,,
352978,0.083574,0.006466,-0.081758,-0.005321,0.0,0.0,0.033799,-0.0,-0.0,2.0,0.282024,0.313637,0.282024,0.24422,,,,,,
352998,0.081358,0.006762,-0.082255,-0.005321,0.0,0.0,0.031616,-0.0,-0.0,2.0,0.282024,0.312219,0.282024,0.246241,,,,,,
353018,0.078666,0.006783,-0.082501,-0.006386,-0.001061,-8.4e-05,0.027821,-0.0,-0.0,2.0,0.282024,0.311519,0.282024,0.247224,,,,,,
353038,0.075471,0.007149,-0.082762,-0.007458,-0.000981,-0.001141,0.024201,-0.0,-0.0,2.0,0.282024,0.31179,0.282024,0.246844,,,,,,
353058,0.071911,0.007491,-0.082779,-0.008522,-0.000985,-0.001138,0.022442,-0.0,-0.0,2.0,0.282024,0.309211,0.282024,0.250404,,,,,,
353078,0.067866,0.007804,-0.082552,-0.010651,-0.00099,-0.001134,0.019788,-0.0,-0.0,2.0,0.282024,0.306878,0.282024,0.253524,,,,,,
353098,0.063217,0.00796,-0.081954,-0.011724,-0.000928,-0.002192,0.013258,-0.0,-0.0,2.0,0.282024,0.306671,0.282024,0.253798,,,,,,
353118,0.058072,0.008224,-0.081464,-0.01278,-0.001001,-0.001124,0.011135,-0.0,-0.0,2.0,0.282024,0.30322,0.282024,0.258241,,,,,,
353138,0.052693,0.008353,-0.080738,-0.013853,-0.000951,-0.002182,0.007847,-0.0,-0.0,2.0,0.282024,0.300355,0.282024,0.261794,,,,,,
353158,0.046467,0.008207,-0.079988,-0.014917,9.9e-05,-0.002126,0.005293,-0.0,-0.0,2.0,0.282024,0.296381,0.282024,0.26653,,,,,,
353178,0.039751,0.008169,-0.079251,-0.014908,4.2e-05,-0.001063,0.000775,-0.0,-0.0,2.0,0.282024,0.291798,0.282024,0.271737,,,,,,
353198,0.032793,0.008006,-0.078613,-0.01598,7e-05,-0.002127,-0.003074,-0.0,-0.0,2.0,0.282024,0.289608,0.282024,0.274135,,,,,,
353218,0.025472,0.007832,-0.077863,-0.017044,5.4e-05,-0.002128,-0.006741,-0.0,-0.0,2.0,0.282024,0.285422,0.282024,0.278566,,,,,,
353238,0.017903,0.007778,-0.077366,-0.017044,3.8e-05,-0.002128,-0.009639,-0.0,-0.0,2.0,0.282024,0.280392,0.282024,0.283643,,,,,,
353258,0.010102,0.007351,-0.076846,-0.0181,1.1e-05,-0.001064,-0.012923,-0.0,-0.0,2.0,0.282024,0.277014,0.282024,0.28691,,,,,,
353278,0.002053,0.007042,-0.076214,-0.018099,2e-06,-0.001064,-0.017835,-0.0,-0.0,2.0,0.282024,0.274632,0.282024,0.289148,,,,,,
353298,-0.006001,0.006858,-0.075562,-0.018106,-1.3e-05,-0.002128,-0.021027,-0.0,-0.0,2.0,0.282024,0.270881,0.282024,0.292568,,,,,,
353318,-0.014056,0.006679,-0.075176,-0.017035,-1.5e-05,-0.001064,-0.023028,-0.0,-0.0,2.0,0.282024,0.266099,0.282024,0.29675,,,,,,
353338,-0.021984,0.006384,-0.074772,-0.018099,-2.3e-05,-0.001064,-0.027656,-0.0,-0.0,2.0,0.282024,0.26345,0.282024,0.298985,,,,,,
353358,-0.029673,0.006225,-0.074255,-0.017034,-3.2e-05,-0.001064,-0.031293,-0.0,-0.0,2.0,0.282024,0.261927,0.282024,0.300245,,,,,,
353378,-0.037241,0.006072,-0.073855,-0.01597,-4e-05,-0.001064,-0.032991,-0.0,-0.0,2.0,0.282024,0.258905,0.282024,0.302691,,,,,,
353398,-0.044322,0.00594,-0.073453,-0.014912,-9.4e-05,-0.002126,-0.036381,-0.0,-0.0,2.0,0.282024,0.255802,0.282024,0.305132,,,,,,
353418,-0.051032,0.005701,-0.073053,-0.013841,-5.4e-05,-0.001063,-0.040031,-0.0,-0.0,2.0,0.282024,0.255069,0.282024,0.305698,,,,,,
353438,-0.057254,0.005483,-0.072653,-0.012777,-6.1e-05,-0.001062,-0.043635,-0.0,-0.0,2.0,0.282024,0.254713,0.282024,0.305972,,,,,,
353458,-0.062866,0.005285,-0.072378,-0.012776,-6.7e-05,-0.001062,-0.045667,-0.0,-0.0,2.0,0.282024,0.253528,0.282024,0.306875,,,,,,
353478,-0.06799,0.004985,-0.072122,-0.010648,-7.2e-05,-0.001062,-0.048358,-0.0,-0.0,2.0,0.282024,0.255213,0.282024,0.305587,,,,,,
353498,-0.07274,0.004577,-0.071859,-0.009583,-7.7e-05,-0.001061,-0.050778,-0.0,-0.0,2.0,0.282024,0.255102,0.282024,0.305673,,,,,,
353518,-0.076633,0.004079,-0.071608,-0.008518,-8.1e-05,-0.001061,-0.05377,-0.0,-0.0,2.0,0.282024,0.254333,0.282024,0.306263,,,,,,
353538,-0.07992,0.003722,-0.071479,-0.007454,-8.5e-05,-0.001061,-0.05744,-0.0,-0.0,2.0,0.282024,0.258386,0.282024,0.303105,,,,,,
353558,-0.082715,0.00326,-0.07136,-0.005321,0.001061,-8.8e-05,-0.060575,-0.0,-0.0,2.0,0.282024,0.262298,0.282024,0.29994,,,,,,
353578,-0.085032,0.003065,-0.071114,-0.00426,-9e-05,-0.00106,-0.061903,-0.0,-0.0,2.0,0.282024,0.263287,0.282024,0.299121,,,,,,
353598,-0.086852,0.002756,-0.071108,-0.003196,-9.2e-05,-0.00106,-0.064433,-0.0,-0.0,2.0,0.282024,0.263864,0.282024,0.29864,,,,,,
353618,-0.088063,0.002346,-0.071126,-0.002131,-9.4e-05,-0.00106,-0.066902,-0.0,-0.0,2.0,0.282024,0.266649,0.282024,0.296279,,,,,,
353638,-0.088659,0.001959,-0.071137,-0.002128,0.0,0.0,-0.068138,-0.0,-0.0,2.0,0.282024,0.268901,0.282024,0.294323,,,,,,
353658,-0.089142,0.001825,-0.071016,-0.001064,0.0,0.0,-0.07035,-0.0,-0.0,2.0,0.282024,0.271968,0.282024,0.291589,,,,,,
353678,-0.089508,0.001812,-0.071013,-2e-06,-0.001155,-0.000965,-0.072343,-0.0,-0.0,2.0,0.282024,0.274911,0.282024,0.288888,,,,,,
353698,-0.089508,0.001806,-0.071134,-2e-06,-9.5e-05,-0.00106,-0.074897,-0.0,-0.0,2.0,0.282024,0.275182,0.282024,0.288636,,,,,,
353718,-0.08939,0.001927,-0.071252,-0.001064,-0.00106,9.5e-05,-0.07704,-0.0,-0.0,2.0,0.282024,0.276899,0.282024,0.287019,,,,,,
353738,-0.089268,0.001926,-0.071374,-0.001064,-0.00106,9.5e-05,-0.078043,-0.0,-0.0,2.0,0.282024,0.279394,0.282024,0.28462,,,,,,
353758,-0.089521,0.002166,-0.07124,-2e-06,-0.001155,-0.000965,-0.079667,-0.0,-0.0,2.0,0.282024,0.278772,0.282024,0.285223,,,,,,
353778,-0.089647,0.002278,-0.071355,-0.001066,-0.001155,-0.000965,-0.081149,-0.0,-0.0,2.0,0.282024,0.279783,0.282024,0.28424,,,,,,
353798,-0.090018,0.00226,-0.071486,-0.002131,-0.001156,-0.000964,-0.082113,-0.0,-0.0,2.0,0.282024,0.280231,0.282024,0.283801,,,,,,
353818,-0.090632,0.002365,-0.071353,-0.002128,0.0,0.0,-0.083692,-0.0,-0.0,2.0,0.282024,0.279305,0.282024,0.284706,,,,,,
353838,-0.091489,0.002456,-0.07134,-0.002128,-0.00106,9.7e-05,-0.083692,-0.0,-0.0,2.0,0.282024,0.278665,0.282024,0.285327,,,,,,
353858,-0.092596,0.002544,-0.071215,-0.003198,-0.001256,-0.002021,-0.083692,-0.0,-0.0,2.0,0.282024,0.276175,0.282024,0.287704,,,,,,
353878,-0.093823,0.002738,-0.071314,-0.003192,-0.00106,0.0001,-0.085839,-0.0,-0.0,2.0,0.282024,0.276874,0.282024,0.287042,,,,,,
353898,-0.095413,0.002687,-0.07119,-0.004257,-0.001059,0.000101,-0.086358,-0.0,-0.0,2.0,0.282024,0.274389,0.282024,0.289373,,,,,,
353918,-0.097128,0.002881,-0.070918,-0.00426,-0.001162,-0.000956,-0.086899,-0.0,-0.0,2.0,0.282024,0.273478,0.282024,0.290213,,,,,,
353938,-0.099097,0.003183,-0.070772,-0.005324,-0.001164,-0.000954,-0.087184,-0.0,-0.0,2.0,0.282024,0.270473,0.282024,0.292932,,,,,,
353958,-0.101431,0.003466,-0.070742,-0.006389,-0.001167,-0.000951,-0.087245,-0.0,-0.0,2.0,0.282024,0.268694,0.282024,0.294504,,,,,,
353978,-0.103761,0.003633,-0.070596,-0.00532,-0.002117,0.00022,-0.087241,-0.0,-0.0,2.0,0.282024,0.266837,0.282024,0.296117,,,,,,
353998,-0.106343,0.004041,-0.070311,-0.006389,-0.001171,-0.000945,-0.087153,-0.0,-0.0,2.0,0.282024,0.262911,0.282024,0.299433,,,,,,
354018,-0.108925,0.004444,-0.070147,-0.00639,-0.001174,-0.000942,-0.086951,-0.0,-0.0,2.0,0.282024,0.260628,0.282024,0.301305,,,,,,
354038,-0.11175,0.004838,-0.069977,-0.00639,-0.001176,-0.000939,-0.086215,-0.0,-0.0,2.0,0.282024,0.257671,0.282024,0.30367,,,,,,
354058,-0.114456,0.005115,-0.069828,-0.006385,-0.001057,0.000122,-0.085867,-0.0,-0.0,2.0,0.282024,0.255077,0.282024,0.305692,,,,,,
354078,-0.117164,0.00565,-0.069406,-0.006391,-0.001181,-0.000933,-0.085218,-0.0,-0.0,2.0,0.282024,0.25219,0.282024,0.307884,,,,,,
354098,-0.119624,0.006058,-0.069236,-0.006391,-0.001184,-0.00093,-0.084165,-0.0,-0.0,2.0,0.282024,0.249114,0.282024,0.310155,,,,,,
354118,-0.122083,0.006474,-0.068944,-0.005327,-0.001186,-0.000927,-0.083106,-0.0,-0.0,2.0,0.282024,0.247945,0.282024,0.311002,,,,,,
354138,-0.124425,0.007017,-0.068643,-0.004263,-0.001188,-0.000924,-0.081864,-0.0,-0.0,2.0,0.282024,0.244723,0.282024,0.313286,,,,,,
354158,-0.126276,0.007455,-0.068356,-0.004263,-0.002246,-0.000788,-0.080461,-0.0,-0.0,2.0,0.282024,0.243759,0.282024,0.313957,,,,,,
354178,-0.127765,0.008028,-0.068065,-0.004273,-0.001327,-0.001976,-0.079714,-0.0,-0.0,2.0,0.282024,0.241702,0.282024,0.315367,,,,,,
354198,-0.128999,0.00848,-0.067894,-0.002127,-0.001055,0.000137,-0.078547,-0.0,-0.0,2.0,0.282024,0.24354,0.282024,0.314108,,,,,,
354218,-0.129753,0.008965,-0.0675,-0.001071,-0.002248,-0.00078,-0.07688,-0.0,-0.0,2.0,0.282024,0.243338,0.282024,0.314247,,,,,,
354238,-0.130134,0.009456,-0.067219,-0.001082,-0.002387,-0.001834,-0.074088,-0.0,-0.0,2.0,0.282024,0.240404,0.282024,0.316243,,,,,,
354258,-0.130024,0.009833,-0.067076,-9e-06,-0.001193,-0.000917,-0.07269,-0.0,-0.0,2.0,0.282024,0.241271,0.282024,0.315659,,,,,,
354278,-0.129544,0.010109,-0.066825,-9e-06,-0.001193,-0.000918,-0.07018,-0.0,-0.0,2.0,0.282024,0.241425,0.282024,0.315554,,,,,,
354298,-0.128809,0.010272,-0.066574,0.001053,-0.000137,-0.001055,-0.06902,-0.0,-0.0,2.0,0.282024,0.23895,0.282024,0.317211,,,,,,
354318,-0.127964,0.01056,-0.066329,0.001053,-0.000136,-0.001056,-0.066637,-0.0,-0.0,2.0,0.282024,0.24162,0.282024,0.315422,,,,,,
354338,-0.127112,0.010841,-0.066193,0.002117,-0.000135,-0.001056,-0.064157,-0.0,-0.0,2.0,0.282024,0.240108,0.282024,0.316441,,,,,,
354358,-0.125894,0.011133,-0.066064,0.003182,-0.001189,-0.000922,-0.061652,-0.0,-0.0,2.0,0.282024,0.238899,0.282024,0.317245,,,,,,
354378,-0.124562,0.011438,-0.065827,0.003184,-0.002244,-0.000792,-0.059349,-0.0,-0.0,2.0,0.282024,0.23798,0.282024,0.31785,,,,,,
354398,-0.122979,0.011743,-0.065704,0.003196,-0.002112,0.000261,-0.057599,-0.0,-0.0,2.0,0.282024,0.237796,0.282024,0.31797,,,,,,
354418,-0.121164,0.012421,-0.065563,0.003183,-0.002241,-0.000799,-0.053641,-0.0,-0.0,2.0,0.282024,0.235746,0.282024,0.3193,,,,,,
354438,-0.119097,0.012871,-0.065319,0.003181,-0.001183,-0.00093,-0.051803,-0.0,-0.0,2.0,0.282024,0.24016,0.282024,0.316406,,,,,,
354458,-0.116921,0.013683,-0.065179,0.005308,-0.001181,-0.000933,-0.048294,-0.0,-0.0,2.0,0.282024,0.238907,0.282024,0.317239,,,,,,
354478,-0.114489,0.014138,-0.065064,0.006372,-0.001179,-0.000936,-0.045112,-0.0,-0.0,2.0,0.282024,0.240238,0.282024,0.316354,,,,,,
354498,-0.111798,0.014356,-0.064956,0.006372,-0.001176,-0.000939,-0.041903,-0.0,-0.0,2.0,0.282024,0.239781,0.282024,0.31666,,,,,,
354518,-0.10886,0.014211,-0.065005,0.007451,-0.001058,0.000116,-0.04028,-0.0,-0.0,2.0,0.282024,0.241005,0.282024,0.315838,,,,,,
354538,-0.105787,0.013711,-0.064952,0.007451,-0.001058,0.000112,-0.03814,-0.0,-0.0,2.0,0.282024,0.241868,0.282024,0.315254,,,,,,
354558,-0.102464,0.013218,-0.064888,0.006371,-0.000109,-0.001059,-0.032391,-0.0,-0.0,2.0,0.282024,0.241659,0.282024,0.315396,,,,,,
354578,-0.098791,0.012974,-0.064948,0.00745,0.0,0.0,-0.029685,-0.0,-0.0,2.0,0.282024,0.244566,0.282024,0.313396,,,,,,
354598,-0.094994,0.012851,-0.065112,0.008514,0.0,0.0,-0.027571,-0.0,-0.0,2.0,0.282024,0.248059,0.282024,0.310919,,,,,,
354618,-0.090963,0.012858,-0.065284,0.008515,-0.00106,9.7e-05,-0.022684,-0.0,-0.0,2.0,0.282024,0.247299,0.282024,0.311465,,,,,,
354638,-0.086565,0.012994,-0.065563,0.00958,-0.00212,0.000184,-0.018738,-0.0,-0.0,2.0,0.282024,0.249678,0.282024,0.309744,,,,,,
354658,-0.081933,0.013261,-0.065852,0.010645,-0.002121,0.000174,-0.015026,-0.0,-0.0,2.0,0.282024,0.250483,0.282024,0.309152,,,,,,
354678,-0.076813,0.013663,-0.066251,0.010644,-0.002122,0.000163,-0.013178,-0.0,-0.0,2.0,0.282024,0.253325,0.282024,0.307029,,,,,,
354698,-0.071686,0.013701,-0.066675,0.010643,-0.001061,7.6e-05,-0.010845,-0.0,-0.0,2.0,0.282024,0.259411,0.282024,0.302287,,,,,,
354718,-0.066063,0.013635,-0.067095,0.011721,7e-05,0.001062,-0.005266,-0.0,-0.0,2.0,0.282024,0.259446,0.282024,0.302259,,,,,,
354738,-0.060439,0.01345,-0.067527,0.012771,0.0,0.0,-0.003062,-0.0,-0.0,2.0,0.282024,0.264056,0.282024,0.298479,,,,,,
354758,-0.05456,0.012905,-0.068089,0.012771,-0.001063,5.8e-05,0.002304,-0.0,-0.0,2.0,0.282024,0.264496,0.282024,0.29811,,,,,,
354778,-0.048443,0.012612,-0.06875,0.013849,-0.001011,0.001115,0.004672,-0.0,-0.0,2.0,0.282024,0.267475,0.282024,0.295566,,,,,,
354798,-0.042092,0.012578,-0.069294,0.012785,-0.001019,0.001108,0.008783,-0.0,-0.0,2.0,0.282024,0.269267,0.282024,0.294,,,,,,
354818,-0.035748,0.012668,-0.069966,0.012771,0.0,0.0,0.012465,-0.0,-0.0,2.0,0.282024,0.273031,0.282024,0.290623,,,,,,
354838,-0.029163,0.012891,-0.070623,0.013849,3.1e-05,0.001064,0.016122,-0.0,-0.0,2.0,0.282024,0.275296,0.282024,0.288529,,,,,,
354858,-0.022695,0.012991,-0.071276,0.014913,-0.00104,0.001088,0.017921,-0.0,-0.0,2.0,0.282024,0.278819,0.282024,0.285178,,,,,,
354878,-0.015978,0.01286,-0.072064,0.013835,-0.001064,1.7e-05,0.01988,-0.0,-0.0,2.0,0.282024,0.282344,0.282024,0.281704,,,,,,
354898,-0.009263,0.012856,-0.072725,0.013849,1e-05,0.001064,0.024604,-0.0,-0.0,2.0,0.282024,0.2838,0.282024,0.280232,,,,,,
354918,-0.002906,0.012598,-0.073378,0.012784,3e-06,0.001064,0.026787,-0.0,-0.0,2.0,0.282024,0.286819,0.282024,0.277109,,,,,,
354938,0.003452,0.012344,-0.074025,0.012784,-4e-06,0.001064,0.03152,-0.0,-0.0,2.0,0.282024,0.286386,0.282024,0.277563,,,,,,
354958,0.009444,0.012079,-0.074665,0.011706,0.0,0.0,0.035993,-0.0,-0.0,2.0,0.282024,0.285914,0.282024,0.278055,,,,,,
354978,0.015192,0.01181,-0.075311,0.010655,-1.6e-05,0.001064,0.039267,-0.0,-0.0,2.0,0.282024,0.287691,0.282024,0.276188,,,,,,
354998,0.020565,0.011773,-0.075818,0.010655,-0.001086,0.001042,0.040922,-0.0,-0.0,2.0,0.282024,0.288774,0.282024,0.275034,,,,,,
355018,0.02557,0.011845,-0.076213,0.009578,-0.001064,-2.7e-05,0.044125,-0.0,-0.0,2.0,0.282024,0.288472,0.282024,0.275357,,,,,,
355038,0.030077,0.012146,-0.07673,0.008513,-0.001064,-3.2e-05,0.047484,-0.0,-0.0,2.0,0.282024,0.289288,0.282024,0.274481,,,,,,
355058,0.034471,0.012195,-0.076984,0.008514,0.0,0.0,0.050975,-0.0,-0.0,2.0,0.282024,0.288385,0.282024,0.27545,,,,,,
355078,0.038383,0.012106,-0.077247,0.00745,0.0,0.0,0.052766,-0.0,-0.0,2.0,0.282024,0.288292,0.282024,0.27555,,,,,,
355098,0.042054,0.012003,-0.077264,0.006373,4.5e-05,-0.001063,0.055127,-0.0,-0.0,2.0,0.282024,0.289242,0.282024,0.27453,,,,,,
355118,0.045239,0.011758,-0.077261,0.006373,4.8e-05,-0.001063,0.058584,-0.0,-0.0,2.0,0.282024,0.287481,0.282024,0.276411,,,,,,
355138,0.048422,0.011637,-0.077274,0.005321,0.0,0.0,0.061682,-0.0,-0.0,2.0,0.282024,0.285944,0.282024,0.278024,,,,,,
355158,0.051236,0.0115,-0.07727,0.005309,5.5e-05,-0.001063,0.062974,-0.0,-0.0,2.0,0.282024,0.287057,0.282024,0.276858,,,,,,
355178,0.053683,0.011472,-0.077283,0.005309,5.7e-05,-0.001063,0.065482,-0.0,-0.0,2.0,0.282024,0.286994,0.282024,0.276925,,,,,,
355198,0.056126,0.011444,-0.07728,0.004256,-0.001063,-6e-05,0.068034,-0.0,-0.0,2.0,0.282024,0.285331,0.282024,0.27866,,,,,,
355218,0.058449,0.011418,-0.077534,0.004256,-0.001062,-6.2e-05,0.068034,-0.0,-0.0,2.0,0.282024,0.287024,0.282024,0.276894,,,,,,
355238,0.060647,0.011503,-0.077548,0.004257,0.0,0.0,0.072329,-0.0,-0.0,2.0,0.282024,0.285513,0.282024,0.278472,,,,,,
355258,0.062962,0.0116,-0.077791,0.004256,-0.001062,-6.7e-05,0.073619,-0.0,-0.0,2.0,0.282024,0.286234,0.282024,0.277722,,,,,,
355278,0.065038,0.011684,-0.077926,0.004244,-0.000993,-0.001131,0.076304,-0.0,-0.0,2.0,0.282024,0.285813,0.282024,0.27816,,,,,,
355298,0.06723,0.011777,-0.078168,0.004257,0.0,0.0,0.077432,-0.0,-0.0,2.0,0.282024,0.28658,0.282024,0.27736,,,,,,
355318,0.069428,0.011866,-0.078302,0.004256,-0.001062,-7.4e-05,0.079243,-0.0,-0.0,2.0,0.282024,0.286857,0.282024,0.277069,,,,,,
355338,0.071757,0.011717,-0.078426,0.004244,7.6e-05,-0.001062,0.080757,-0.0,-0.0,2.0,0.282024,0.287443,0.282024,0.276451,,,,,,
355358,0.073955,0.011808,-0.078559,0.005321,0.0,0.0,0.08208,-0.0,-0.0,2.0,0.282024,0.289613,0.282024,0.27413,,,,,,
355378,0.076528,0.011546,-0.078663,0.005321,0.0,0.0,0.082684,-0.0,-0.0,2.0,0.282024,0.289468,0.282024,0.274287,,,,,,
355398,0.079102,0.011402,-0.078663,0.004257,0.0,0.0,0.083329,-0.0,-0.0,2.0,0.282024,0.292372,0.282024,0.271099,,,,,,
355418,0.081675,0.011264,-0.078783,0.005321,0.0,0.0,0.084364,-0.0,-0.0,2.0,0.282024,0.293444,0.282024,0.269897,,,,,,
355438,0.084126,0.011121,-0.078903,0.005321,0.0,0.0,0.08562,-0.0,-0.0,2.0,0.282024,0.294255,0.282024,0.268978,,,,,,
355458,0.0867,0.010982,-0.079021,0.004245,9.2e-05,-0.00106,0.086199,-0.0,-0.0,2.0,0.282024,0.294131,0.282024,0.269119,,,,,,
355478,0.089145,0.010967,-0.079265,0.005321,0.0,0.0,0.086543,-0.0,-0.0,2.0,0.282024,0.297089,0.282024,0.265701,,,,,,
355498,0.091475,0.01082,-0.079382,0.004257,0.0,0.0,0.087009,-0.0,-0.0,2.0,0.282024,0.296859,0.282024,0.265971,,,,,,
355518,0.093803,0.01068,-0.079619,0.004257,0.0,0.0,0.087215,-0.0,-0.0,2.0,0.282024,0.296807,0.282024,0.266032,,,,,,
355538,0.095884,0.010652,-0.079862,0.004257,0.0,0.0,0.087261,-0.0,-0.0,2.0,0.282024,0.299683,0.282024,0.26261,,,,,,
355558,0.097719,0.010492,-0.080085,0.003193,0.0,0.0,0.087185,-0.0,-0.0,2.0,0.282024,0.299489,0.282024,0.262844,,,,,,
355578,0.09944,0.010322,-0.080201,0.002128,0.0,0.0,0.086945,-0.0,-0.0,2.0,0.282024,0.299327,0.282024,0.263039,,,,,,
355598,0.100672,0.01014,-0.08044,0.002118,0.000107,-0.001059,0.08659,-0.0,-0.0,2.0,0.282024,0.300397,0.282024,0.261742,,,,,,
355618,0.101782,0.009824,-0.080537,0.002128,0.0,0.0,0.08616,-0.0,-0.0,2.0,0.282024,0.301431,0.282024,0.260473,,,,,,
355638,0.102645,0.009749,-0.080784,0.001064,0.0,0.0,0.085302,-0.0,-0.0,2.0,0.282024,0.30111,0.282024,0.260868,,,,,,
355658,0.103264,0.00953,-0.080768,0.0,0.0,0.0,0.084785,-0.0,-0.0,2.0,0.282024,0.301869,0.282024,0.25993,,,,,,
355678,0.103511,0.009424,-0.080882,-1e-05,0.00011,-0.001059,0.08362,-0.0,-0.0,2.0,0.282024,0.30133,0.282024,0.260598,,,,,,
355698,0.103515,0.009315,-0.081118,-0.001064,0.0,0.0,0.0824,-0.0,-0.0,2.0,0.282024,0.30069,0.282024,0.261384,,,,,,
355718,0.103275,0.00919,-0.081235,-0.001064,0.0,0.0,0.081761,-0.0,-0.0,2.0,0.282024,0.300956,0.282024,0.261058,,,,,,
355738,0.102909,0.009181,-0.081359,-0.001064,0.0,0.0,0.081042,-0.0,-0.0,2.0,0.282024,0.299702,0.282024,0.262587,,,,,,
355758,0.1023,0.009157,-0.081362,-0.002138,0.000109,-0.001059,0.078442,-0.0,-0.0,2.0,0.282024,0.301054,0.282024,0.260937,,,,,,
355778,0.101567,0.009011,-0.081467,-0.002139,-0.000951,-0.001167,0.077619,-0.0,-0.0,2.0,0.282024,0.301114,0.282024,0.260863,,,,,,
355798,0.100962,0.008871,-0.081586,-0.002128,0.0,0.0,0.075413,-0.0,-0.0,2.0,0.282024,0.302185,0.282024,0.259537,,,,,,
355818,0.100231,0.008841,-0.08159,-0.002128,0.0,0.0,0.074181,-0.0,-0.0,2.0,0.282024,0.302519,0.282024,0.259121,,,,,,
355838,0.099626,0.008701,-0.081709,-0.002128,0.0,0.0,0.071525,-0.0,-0.0,2.0,0.282024,0.303868,0.282024,0.257421,,,,,,
355858,0.098899,0.008433,-0.081807,-0.002137,0.000105,-0.001059,0.070229,-0.0,-0.0,2.0,0.282024,0.304256,0.282024,0.256926,,,,,,
355878,0.097929,0.008278,-0.081929,-0.002128,0.0,0.0,0.067932,-0.0,-0.0,2.0,0.282024,0.305131,0.282024,0.255804,,,,,,
355898,0.097202,0.008132,-0.082048,-0.002128,0.0,0.0,0.065447,-0.0,-0.0,2.0,0.282024,0.306285,0.282024,0.254304,,,,,,
355918,0.096354,0.007847,-0.081905,-0.003193,0.0,0.0,0.063858,-0.0,-0.0,2.0,0.282024,0.306758,0.282024,0.253683,,,,,,
355938,0.095135,0.007803,-0.082034,-0.003201,0.000101,-0.001059,0.061411,-0.0,-0.0,2.0,0.282024,0.306123,0.282024,0.254515,,,,,,
355958,0.093916,0.00776,-0.082163,-0.003201,0.0001,-0.00106,0.057217,-0.0,-0.0,2.0,0.282024,0.306641,0.282024,0.253836,,,,,,
355978,0.092453,0.007578,-0.08215,-0.004257,0.0,0.0,0.055729,-0.0,-0.0,2.0,0.282024,0.30809,0.282024,0.251914,,,,,,
355998,0.090741,0.007513,-0.082266,-0.004257,0.0,0.0,0.052977,-0.0,-0.0,2.0,0.282024,0.307336,0.282024,0.252919,,,,,,
356018,0.088544,0.00754,-0.082162,-0.005322,-0.00106,-9.4e-05,0.04902,-0.0,-0.0,2.0,0.282024,0.30705,0.282024,0.253298,,,,,,
356038,0.086223,0.007445,-0.08216,-0.006394,-0.000969,-0.001152,0.047196,-0.0,-0.0,2.0,0.282024,0.306714,0.282024,0.253741,,,,,,
356058,0.083649,0.007583,-0.082168,-0.007458,-0.000972,-0.001149,0.044014,-0.0,-0.0,2.0,0.282024,0.305683,0.282024,0.255089,,,,,,
356078,0.080466,0.007692,-0.082056,-0.007458,8.6e-05,-0.001061,0.040802,-0.0,-0.0,2.0,0.282024,0.304243,0.282024,0.256943,,,,,,
356098,0.077045,0.007665,-0.081817,-0.008522,8.2e-05,-0.001061,0.037097,-0.0,-0.0,2.0,0.282024,0.302974,0.282024,0.258551,,,,,,
356118,0.07337,0.007755,-0.081689,-0.008522,7.8e-05,-0.001061,0.034425,-0.0,-0.0,2.0,0.282024,0.300835,0.282024,0.261207,,,,,,
356138,0.069334,0.007826,-0.081454,-0.009586,7.4e-05,-0.001062,0.031323,-0.0,-0.0,2.0,0.282024,0.300209,0.282024,0.261972,,,,,,
356158,0.065056,0.007885,-0.081095,-0.010651,-0.000993,-0.001131,0.028337,-0.0,-0.0,2.0,0.282024,0.299336,0.282024,0.263028,,,,,,
356178,0.060407,0.007934,-0.080841,-0.010651,-0.000998,-0.001127,0.023945,-0.0,-0.0,2.0,0.282024,0.29767,0.282024,0.265017,,,,,,
356198,0.055392,0.008088,-0.080482,-0.011716,-0.001004,-0.001122,0.022185,-0.0,-0.0,2.0,0.282024,0.293921,0.282024,0.269358,,,,,,
356218,0.050376,0.008247,-0.08024,-0.011716,-0.001009,-0.001117,0.018268,-0.0,-0.0,2.0,0.282024,0.293157,0.282024,0.27022,,,,,,
356238,0.044995,0.00839,-0.079873,-0.01278,-0.001015,-0.001111,0.014682,-0.0,-0.0,2.0,0.282024,0.291904,0.282024,0.27162,,,,,,
356258,0.039491,0.008533,-0.079623,-0.01278,4.2e-05,-0.001063,0.01105,-0.0,-0.0,2.0,0.282024,0.289033,0.282024,0.274755,,,,,,
356278,0.033743,0.008669,-0.07949,-0.01278,-0.001028,-0.0011,0.009013,-0.0,-0.0,2.0,0.282024,0.286381,0.282024,0.277568,,,,,,
356298,0.028,0.008682,-0.079229,-0.01278,-0.001034,-0.001094,0.006072,-0.0,-0.0,2.0,0.282024,0.284369,0.282024,0.27965,,,,,,
356318,0.022257,0.008698,-0.079085,-0.012771,-0.001064,-2.4e-05,-0.000424,-0.0,-0.0,2.0,0.282024,0.284901,0.282024,0.279104,,,,,,
356338,0.016506,0.008958,-0.078833,-0.01278,-0.001047,-0.001082,-0.002554,-0.0,-0.0,2.0,0.282024,0.282259,0.282024,0.281789,,,,,,
356358,0.01076,0.009097,-0.078696,-0.01278,-0.001053,-0.001076,-0.005418,-0.0,-0.0,2.0,0.282024,0.28013,0.282024,0.2839,,,,,,
356378,0.005013,0.009237,-0.078418,-0.012781,-0.001059,-0.00107,-0.009277,-0.0,-0.0,2.0,0.282024,0.278738,0.282024,0.285256,,,,,,
356398,-0.000612,0.009383,-0.078272,-0.011706,-0.001064,1e-06,-0.013089,-0.0,-0.0,2.0,0.282024,0.277362,0.282024,0.286578,,,,,,
356418,-0.005991,0.00954,-0.07788,-0.012781,-0.001071,-0.001058,-0.017066,-0.0,-0.0,2.0,0.282024,0.276302,0.282024,0.287584,,,,,,
356438,-0.011376,0.00982,-0.077605,-0.011717,-0.001076,-0.001052,-0.01913,-0.0,-0.0,2.0,0.282024,0.27545,0.282024,0.288384,,,,,,
356458,-0.016635,0.009985,-0.077219,-0.010653,-0.001082,-0.001046,-0.023313,-0.0,-0.0,2.0,0.282024,0.27463,0.282024,0.289149,,,,,,
356478,-0.021526,0.010166,-0.076817,-0.011717,-0.001087,-0.001041,-0.027644,-0.0,-0.0,2.0,0.282024,0.274201,0.282024,0.289547,,,,,,
356498,-0.026296,0.010351,-0.076534,-0.010653,-0.001092,-0.001036,-0.030207,-0.0,-0.0,2.0,0.282024,0.274195,0.282024,0.289552,,,,,,
356518,-0.031066,0.010542,-0.076019,-0.009589,-0.001097,-0.001031,-0.034349,-0.0,-0.0,2.0,0.282024,0.273713,0.282024,0.289997,,,,,,
356538,-0.035592,0.01074,-0.075732,-0.010653,-0.001101,-0.001026,-0.036726,-0.0,-0.0,2.0,0.282024,0.272055,0.282024,0.29151,,,,,,
356558,-0.040002,0.011066,-0.075454,-0.009589,-0.001106,-0.001021,-0.040197,-0.0,-0.0,2.0,0.282024,0.273029,0.282024,0.290625,,,,,,
356578,-0.044405,0.011272,-0.075039,-0.009589,-0.00111,-0.001016,-0.043644,-0.0,-0.0,2.0,0.282024,0.27229,0.282024,0.291297,,,,,,
356598,-0.048449,0.011614,-0.074758,-0.00959,-0.001115,-0.001012,-0.045302,-0.0,-0.0,2.0,0.282024,0.270415,0.282024,0.292983,,,,,,
356618,-0.052488,0.011838,-0.074355,-0.009603,-0.001174,-0.00207,-0.049614,-0.0,-0.0,2.0,0.282024,0.270647,0.282024,0.292776,,,,,,
356638,-0.056407,0.01206,-0.074195,-0.008526,-0.001123,-0.001003,-0.051836,-0.0,-0.0,2.0,0.282024,0.271039,0.282024,0.292425,,,,,,
356658,-0.060324,0.012291,-0.073788,-0.008526,-0.001126,-0.000998,-0.053642,-0.0,-0.0,2.0,0.282024,0.269387,0.282024,0.293895,,,,,,
356678,-0.063989,0.012409,-0.073372,-0.008526,-0.00113,-0.000994,-0.057805,-0.0,-0.0,2.0,0.282024,0.269756,0.282024,0.293569,,,,,,
356698,-0.067654,0.012403,-0.073094,-0.008527,-7.2e-05,-0.001062,-0.059768,-0.0,-0.0,2.0,0.282024,0.268436,0.282024,0.29473,,,,,,
356718,-0.071188,0.012163,-0.072702,-0.008527,-7.6e-05,-0.001062,-0.062728,-0.0,-0.0,2.0,0.282024,0.269717,0.282024,0.293604,,,,,,
356738,-0.074482,0.012055,-0.072309,-0.007461,-0.00114,-0.000982,-0.065344,-0.0,-0.0,2.0,0.282024,0.269184,0.282024,0.294074,,,,,,
356758,-0.077776,0.011949,-0.071915,-0.007475,-0.000165,-0.002122,-0.066659,-0.0,-0.0,2.0,0.282024,0.267599,0.282024,0.295459,,,,,,
356778,-0.080828,0.011847,-0.071646,-0.007462,-8.6e-05,-0.001061,-0.069684,-0.0,-0.0,2.0,0.282024,0.267599,0.282024,0.295459,,,,,,
356798,-0.083756,0.011756,-0.071255,-0.006398,-8.9e-05,-0.001061,-0.069684,-0.0,-0.0,2.0,0.282024,0.265261,0.282024,0.297464,,,,,,
356818,-0.086685,0.011671,-0.070742,-0.006397,-0.001152,-0.000968,-0.073764,-0.0,-0.0,2.0,0.282024,0.267934,0.282024,0.295168,,,,,,
356838,-0.089491,0.011591,-0.070231,-0.00641,-0.00019,-0.00212,-0.07535,-0.0,-0.0,2.0,0.282024,0.266944,0.282024,0.296025,,,,,,
356858,-0.092054,0.011632,-0.069947,-0.006398,-9.8e-05,-0.00106,-0.076446,-0.0,-0.0,2.0,0.282024,0.265793,0.282024,0.297011,,,,,,
356878,-0.094613,0.011442,-0.069443,-0.005333,-0.000101,-0.00106,-0.078647,-0.0,-0.0,2.0,0.282024,0.267265,0.282024,0.295748,,,,,,
356898,-0.096932,0.011384,-0.068937,-0.005333,-0.000103,-0.001059,-0.079444,-0.0,-0.0,2.0,0.282024,0.266028,0.282024,0.29681,,,,,,
356918,-0.099256,0.011442,-0.068546,-0.005345,-0.000211,-0.002118,-0.080959,-0.0,-0.0,2.0,0.282024,0.2654,0.282024,0.297345,,,,,,
356938,-0.101332,0.011388,-0.068164,-0.005333,-0.000108,-0.001059,-0.082327,-0.0,-0.0,2.0,0.282024,0.26483,0.282024,0.297828,,,,,,
356958,-0.103405,0.011462,-0.067642,-0.004269,-0.00011,-0.001059,-0.083133,-0.0,-0.0,2.0,0.282024,0.265582,0.282024,0.297191,,,,,,
356978,-0.105363,0.011542,-0.067133,-0.004268,-0.00117,-0.000946,-0.084283,-0.0,-0.0,2.0,0.282024,0.264912,0.282024,0.297759,,,,,,
356998,-0.107317,0.011502,-0.06663,-0.00428,-0.001286,-0.002002,-0.085147,-0.0,-0.0,2.0,0.282024,0.262241,0.282024,0.299987,,,,,,
357018,-0.108782,0.011593,-0.066237,-0.004269,-0.000116,-0.001058,-0.085764,-0.0,-0.0,2.0,0.282024,0.263362,0.282024,0.299058,,,,,,
357038,-0.110492,0.011562,-0.065738,-0.003205,-0.000117,-0.001058,-0.086223,-0.0,-0.0,2.0,0.282024,0.264133,0.282024,0.298414,,,,,,
357058,-0.111956,0.011661,-0.065223,-0.003204,-0.001176,-0.000939,-0.086859,-0.0,-0.0,2.0,0.282024,0.263441,0.282024,0.298993,,,,,,
357078,-0.113304,0.011766,-0.064721,-0.003216,-0.001298,-0.001995,-0.087151,-0.0,-0.0,2.0,0.282024,0.262599,0.282024,0.299692,,,,,,
357098,-0.1144,0.011743,-0.064462,-0.003205,-0.000121,-0.001057,-0.087263,-0.0,-0.0,2.0,0.282024,0.261794,0.282024,0.300354,,,,,,
357118,-0.115505,0.011857,-0.063963,-0.003205,-0.000123,-0.001057,-0.087259,-0.0,-0.0,2.0,0.282024,0.262689,0.282024,0.299617,,,,,,
357138,-0.116477,0.011853,-0.063462,-0.00214,-0.001181,-0.000933,-0.087196,-0.0,-0.0,2.0,0.282024,0.26182,0.282024,0.300333,,,,,,
357158,-0.117332,0.011969,-0.063078,-0.002152,-0.001306,-0.001989,-0.086875,-0.0,-0.0,2.0,0.282024,0.260851,0.282024,0.301124,,,,,,
357178,-0.118069,0.01196,-0.062835,-0.002141,-0.000125,-0.001057,-0.08662,-0.0,-0.0,2.0,0.282024,0.260052,0.282024,0.301771,,,,,,
357198,-0.118311,0.011973,-0.062466,-0.002141,-0.000126,-0.001057,-0.085759,-0.0,-0.0,2.0,0.282024,0.260961,0.282024,0.301035,,,,,,
357218,-0.118679,0.012112,-0.061967,-1.1e-05,-0.001183,-0.000931,-0.085266,-0.0,-0.0,2.0,0.282024,0.260228,0.282024,0.301629,,,,,,
357238,-0.118803,0.012252,-0.061593,-2.4e-05,-0.001309,-0.001987,-0.084138,-0.0,-0.0,2.0,0.282024,0.261011,0.282024,0.300994,,,,,,
357258,-0.118676,0.012149,-0.061359,-0.00109,-0.000252,-0.002114,-0.083058,-0.0,-0.0,2.0,0.282024,0.258435,0.282024,0.303065,,,,,,
357278,-0.118299,0.012052,-0.061117,0.0,0.0,0.0,-0.082477,-0.0,-0.0,2.0,0.282024,0.260074,0.282024,0.301753,,,,,,
357298,-0.118171,0.011963,-0.06064,-1.3e-05,-0.000125,-0.001057,-0.080815,-0.0,-0.0,2.0,0.282024,0.25878,0.282024,0.302792,,,,,,
357318,-0.118048,0.011982,-0.060399,-2.4e-05,-0.001307,-0.001988,-0.07984,-0.0,-0.0,2.0,0.282024,0.258068,0.282024,0.303357,,,,,,
357338,-0.117926,0.011993,-0.060279,-0.001075,-0.001182,-0.000932,-0.077667,-0.0,-0.0,2.0,0.282024,0.254511,0.282024,0.306126,,,,,,
357358,-0.118043,0.011882,-0.060041,-0.001064,0.0,0.0,-0.076813,-0.0,-0.0,2.0,0.282024,0.253681,0.282024,0.306759,,,,,,
357378,-0.118167,0.012021,-0.059667,-0.001064,0.0,0.0,-0.075148,-0.0,-0.0,2.0,0.282024,0.25209,0.282024,0.307959,,,,,,
357398,-0.118291,0.012161,-0.059293,-2.4e-05,-0.001308,-0.001988,-0.072529,-0.0,-0.0,2.0,0.282024,0.251618,0.282024,0.308311,,,,,,
357418,-0.118165,0.01205,-0.059181,-2.4e-05,-0.001308,-0.001988,-0.070426,-0.0,-0.0,2.0,0.282024,0.249909,0.282024,0.309575,,,,,,
357438,-0.11792,0.012072,-0.058941,2e-06,-0.001057,0.000125,-0.068198,-0.0,-0.0,2.0,0.282024,0.248178,0.282024,0.310833,,,,,,
357458,-0.117543,0.011975,-0.0587,-0.001064,0.0,0.0,-0.06698,-0.0,-0.0,2.0,0.282024,0.247409,0.282024,0.311387,,,,,,
357478,-0.117427,0.012237,-0.058444,-1.3e-05,-0.000125,-0.001057,-0.064471,-0.0,-0.0,2.0,0.282024,0.245233,0.282024,0.312929,,,,,,
357498,-0.117061,0.012255,-0.058328,0.001051,-0.000124,-0.001057,-0.061896,-0.0,-0.0,2.0,0.282024,0.243245,0.282024,0.314311,,,,,,
357518,-0.116692,0.012152,-0.058218,-1.1e-05,-0.001181,-0.000933,-0.059312,-0.0,-0.0,2.0,0.282024,0.241227,0.282024,0.315689,,,,,,
357538,-0.116082,0.012177,-0.058106,0.001066,-0.001057,0.000123,-0.057788,-0.0,-0.0,2.0,0.282024,0.240347,0.282024,0.316281,,,,,,
357558,-0.11559,0.012328,-0.057852,0.001053,-0.00118,-0.000934,-0.055351,-0.0,-0.0,2.0,0.282024,0.240584,0.282024,0.316122,,,,,,
357578,-0.114741,0.012475,-0.057857,0.001053,-0.001179,-0.000935,-0.051569,-0.0,-0.0,2.0,0.282024,0.237828,0.282024,0.31795,,,,,,
357598,-0.113763,0.012626,-0.057854,0.00213,-0.001057,0.000121,-0.048256,-0.0,-0.0,2.0,0.282024,0.237725,0.282024,0.318017,,,,,,
357618,-0.112666,0.012659,-0.05787,0.003194,-0.001057,0.00012,-0.045163,-0.0,-0.0,2.0,0.282024,0.235819,0.282024,0.319253,,,,,,
357638,-0.111076,0.012706,-0.057882,0.003194,-0.001058,0.000118,-0.041931,-0.0,-0.0,2.0,0.282024,0.234204,0.282024,0.320283,,,,,,
357658,-0.109242,0.012761,-0.057898,0.004258,-0.001058,0.000116,-0.040237,-0.0,-0.0,2.0,0.282024,0.236486,0.282024,0.318823,,,,,,
357678,-0.107164,0.012816,-0.058039,0.004257,0.0,0.0,-0.036871,-0.0,-0.0,2.0,0.282024,0.237353,0.282024,0.31826,,,,,,
357698,-0.104477,0.012897,-0.058066,0.005321,0.0,0.0,-0.033665,-0.0,-0.0,2.0,0.282024,0.238948,0.282024,0.317213,,,,,,
357718,-0.101547,0.012978,-0.058218,0.006385,0.0,0.0,-0.030415,-0.0,-0.0,2.0,0.282024,0.240709,0.282024,0.316038,,,,,,
357738,-0.098129,0.013075,-0.058376,0.00745,0.0,0.0,-0.026149,-0.0,-0.0,2.0,0.282024,0.241937,0.282024,0.315207,,,,,,
357758,-0.094337,0.013054,-0.058655,0.008515,-0.001059,0.0001,-0.022351,-0.0,-0.0,2.0,0.282024,0.24398,0.282024,0.313803,,,,,,
357778,-0.089941,0.013049,-0.059074,0.009579,-0.00106,9.6e-05,-0.018755,-0.0,-0.0,2.0,0.282024,0.246692,0.282024,0.311898,,,,,,
357798,-0.085178,0.013182,-0.059358,0.010657,-0.00097,0.001151,-0.016948,-0.0,-0.0,2.0,0.282024,0.249321,0.282024,0.310005,,,,,,
357818,-0.079927,0.013326,-0.059768,0.010643,-0.001061,8.5e-05,-0.013218,-0.0,-0.0,2.0,0.282024,0.252572,0.282024,0.307598,,,,,,
357838,-0.074316,0.013485,-0.060192,0.011706,0.0,0.0,-0.011098,-0.0,-0.0,2.0,0.282024,0.259265,0.282024,0.302404,,,,,,
357858,-0.068213,0.013655,-0.060731,0.012784,0.001134,0.000989,-0.005533,-0.0,-0.0,2.0,0.282024,0.259712,0.282024,0.302045,,,,,,
357878,-0.061985,0.013589,-0.061288,0.013834,0.001062,-6.6e-05,-0.003082,-0.0,-0.0,2.0,0.282024,0.264626,0.282024,0.298,,,,,,
357898,-0.055384,0.013411,-0.061959,0.014899,0.0,0.0,0.000157,-0.0,-0.0,2.0,0.282024,0.267319,0.282024,0.295701,,,,,,
357918,-0.048292,0.013005,-0.062769,0.014913,5.1e-05,0.001063,0.004571,-0.0,-0.0,2.0,0.282024,0.269434,0.282024,0.293854,,,,,,
357938,-0.041203,0.012727,-0.063569,0.014912,0.001107,0.00102,0.007338,-0.0,-0.0,2.0,0.282024,0.274489,0.282024,0.28928,,,,,,
357958,-0.03387,0.012461,-0.064365,0.014912,3.6e-05,0.001064,0.01217,-0.0,-0.0,2.0,0.282024,0.278028,0.282024,0.28594,,,,,,
357978,-0.026534,0.012077,-0.065277,0.015976,2.8e-05,0.001064,0.014844,-0.0,-0.0,2.0,0.282024,0.281517,0.282024,0.28253,,,,,,
357998,-0.01932,0.011695,-0.066192,0.015976,2.1e-05,0.001064,0.016922,-0.0,-0.0,2.0,0.282024,0.285268,0.282024,0.278726,,,,,,
358018,-0.011984,0.011323,-0.067088,0.014911,1.3e-05,0.001064,0.0221,-0.0,-0.0,2.0,0.282024,0.285237,0.282024,0.278757,,,,,,
358038,-0.004766,0.01083,-0.06811,0.013858,0.001074,0.002123,0.025303,-0.0,-0.0,2.0,0.282024,0.288121,0.282024,0.275731,,,,,,
358058,0.002078,0.010576,-0.068999,0.013846,0.001062,0.001066,0.029233,-0.0,-0.0,2.0,0.282024,0.290188,0.282024,0.273505,,,,,,
358078,0.008683,0.010197,-0.069893,0.013846,-9e-06,0.001064,0.031473,-0.0,-0.0,2.0,0.282024,0.291711,0.282024,0.271834,,,,,,
358098,0.014925,0.00969,-0.070886,0.012781,0.001048,0.00108,0.03459,-0.0,-0.0,2.0,0.282024,0.292373,0.282024,0.271098,,,,,,
358118,0.020925,0.00918,-0.071885,0.011726,0.001019,0.00215,0.038834,-0.0,-0.0,2.0,0.282024,0.292062,0.282024,0.271444,,,,,,
358138,0.026433,0.008778,-0.072755,0.010661,-5.6e-05,0.002128,0.040568,-0.0,-0.0,2.0,0.282024,0.294671,0.282024,0.268503,,,,,,
358158,0.031455,0.008363,-0.073619,0.009578,0.0,0.0,0.043776,-0.0,-0.0,2.0,0.282024,0.292876,0.282024,0.270536,,,,,,
358178,0.036105,0.008065,-0.074724,0.008522,-3.8e-05,0.001064,0.046923,-0.0,-0.0,2.0,0.282024,0.293921,0.282024,0.269357,,,,,,
358198,0.040273,0.007627,-0.075579,0.007466,-8.6e-05,0.002127,0.050037,-0.0,-0.0,2.0,0.282024,0.293136,0.282024,0.270244,,,,,,
358218,0.043951,0.007171,-0.076294,0.006393,-4.7e-05,0.001063,0.052952,-0.0,-0.0,2.0,0.282024,0.290577,0.282024,0.27308,,,,,,
358238,0.047257,0.006954,-0.07727,0.006393,-5e-05,0.001063,0.055669,-0.0,-0.0,2.0,0.282024,0.290991,0.282024,0.272627,,,,,,
358258,0.049958,0.006591,-0.07812,0.005328,-5.3e-05,0.001063,0.057998,-0.0,-0.0,2.0,0.282024,0.289701,0.282024,0.274034,,,,,,
358278,0.052532,0.006347,-0.078971,0.004264,-5.6e-05,0.001063,0.059754,-0.0,-0.0,2.0,0.282024,0.288732,0.282024,0.275079,,,,,,
358298,0.054858,0.006218,-0.079825,0.00427,-0.000117,0.002125,0.062995,-0.0,-0.0,2.0,0.282024,0.28807,0.282024,0.275786,,,,,,
358318,0.056695,0.006064,-0.080421,0.003199,-6e-05,0.001063,0.065486,-0.0,-0.0,2.0,0.282024,0.286023,0.282024,0.277942,,,,,,
358338,0.058533,0.005919,-0.081274,0.003193,0.0,0.0,0.067864,-0.0,-0.0,2.0,0.282024,0.284039,0.282024,0.279988,,,,,,
358358,0.060124,0.00588,-0.081888,0.002134,-0.001126,0.000998,0.070117,-0.0,-0.0,2.0,0.282024,0.285155,0.282024,0.278843,,,,,,
358378,0.061464,0.005946,-0.082248,0.003199,-0.001128,0.000997,0.071573,-0.0,-0.0,2.0,0.282024,0.28506,0.282024,0.27894,,,,,,
358398,0.06292,0.00625,-0.082266,0.002121,-0.000995,-0.001129,0.07275,-0.0,-0.0,2.0,0.282024,0.283655,0.282024,0.28038,,,,,,
358418,0.064251,0.006549,-0.082269,0.002121,-0.000994,-0.00113,0.076034,-0.0,-0.0,2.0,0.282024,0.283834,0.282024,0.280197,,,,,,
358438,0.065583,0.006844,-0.082151,0.003192,-0.001062,-7e-05,0.077566,-0.0,-0.0,2.0,0.282024,0.283688,0.282024,0.280346,,,,,,
358458,0.067046,0.007014,-0.081801,0.003185,-0.000991,-0.001133,0.078778,-0.0,-0.0,2.0,0.282024,0.282262,0.282024,0.281786,,,,,,
358478,0.068749,0.007196,-0.081556,0.00212,-0.000989,-0.001135,0.080452,-0.0,-0.0,2.0,0.282024,0.283879,0.282024,0.280151,,,,,,
358498,0.070336,0.007248,-0.081186,0.003184,-0.000987,-0.001136,0.081866,-0.0,-0.0,2.0,0.282024,0.284017,0.282024,0.280011,,,,,,
358518,0.072053,0.007187,-0.080947,0.004249,7.7e-05,-0.001061,0.083171,-0.0,-0.0,2.0,0.282024,0.284317,0.282024,0.279704,,,,,,
358538,0.07413,0.007144,-0.080813,0.003185,7.9e-05,-0.001061,0.083718,-0.0,-0.0,2.0,0.282024,0.287011,0.282024,0.276907,,,,,,
358558,0.076218,0.006974,-0.080568,0.004249,8.1e-05,-0.001061,0.084864,-0.0,-0.0,2.0,0.282024,0.287685,0.282024,0.276195,,,,,,
358578,0.078433,0.006565,-0.080296,0.005314,8.3e-05,-0.001061,0.084864,-0.0,-0.0,2.0,0.282024,0.289263,0.282024,0.274508,,,,,,
358598,0.081007,0.006424,-0.080289,0.00425,8.6e-05,-0.001061,0.08627,-0.0,-0.0,2.0,0.282024,0.29009,0.282024,0.273612,,,,,,
358618,0.083465,0.006151,-0.080154,0.005321,0.0,0.0,0.086549,-0.0,-0.0,2.0,0.282024,0.293169,0.282024,0.270206,,,,,,
358638,0.086049,0.005761,-0.080013,0.005316,0.001152,-0.000969,0.087049,-0.0,-0.0,2.0,0.282024,0.294606,0.282024,0.268578,,,,,,
358658,0.088877,0.005391,-0.080111,0.005322,0.00106,9.4e-05,0.087233,-0.0,-0.0,2.0,0.282024,0.296425,0.282024,0.266478,,,,,,
358678,0.091465,0.00489,-0.080203,0.005321,0.0,0.0,0.087265,-0.0,-0.0,2.0,0.282024,0.298179,0.282024,0.264414,,,,,,
358698,0.094181,0.004267,-0.080165,0.005317,0.00116,-0.000959,0.087208,-0.0,-0.0,2.0,0.282024,0.300054,0.282024,0.262159,,,,,,
358718,0.096891,0.003771,-0.080251,0.005322,0.001059,0.000103,0.087121,-0.0,-0.0,2.0,0.282024,0.30193,0.282024,0.259855,,,,,,
358738,0.099489,0.003027,-0.080325,0.004257,0.001059,0.000106,0.086557,-0.0,-0.0,2.0,0.282024,0.304031,0.282024,0.257213,,,,,,
358758,0.101717,0.002397,-0.080526,0.004257,0.001059,0.000108,0.086022,-0.0,-0.0,2.0,0.282024,0.304403,0.282024,0.256738,,,,,,
358778,0.103945,0.001768,-0.080726,0.003193,0.001058,0.00011,0.085528,-0.0,-0.0,2.0,0.282024,0.306192,0.282024,0.254425,,,,,,
358798,0.105686,0.001113,-0.080807,0.003193,0.001058,0.000112,0.084519,-0.0,-0.0,2.0,0.282024,0.306552,0.282024,0.253953,,,,,,
358818,0.107183,0.000455,-0.081011,0.002129,0.001058,0.000114,0.083969,-0.0,-0.0,2.0,0.282024,0.306453,0.282024,0.254084,,,,,,
358838,0.108309,-0.000218,-0.081202,0.001064,0.001058,0.000115,0.082876,-0.0,-0.0,2.0,0.282024,0.306465,0.282024,0.254067,,,,,,
358858,0.109075,-0.000899,-0.081533,-0.0,0.001058,0.000116,0.081656,-0.0,-0.0,2.0,0.282024,0.30776,0.282024,0.252355,,,,,,
358878,0.10947,-0.001595,-0.081853,-0.0,0.001058,0.000116,0.080286,-0.0,-0.0,2.0,0.282024,0.307477,0.282024,0.252731,,,,,,
358898,0.109251,-0.0022,-0.082066,-0.001064,0.001058,0.000116,0.079542,-0.0,-0.0,2.0,0.282024,0.306385,0.282024,0.254173,,,,,,
358918,0.108906,-0.002683,-0.082408,-0.002129,0.001058,0.000116,0.077477,-0.0,-0.0,2.0,0.282024,0.306071,0.282024,0.254583,,,,,,
358938,0.108322,-0.003297,-0.082747,-0.002128,0.0,0.0,0.075876,-0.0,-0.0,2.0,0.282024,0.306736,0.282024,0.253712,,,,,,
358958,0.107234,-0.003689,-0.083091,-0.002128,0.0,0.0,0.073378,-0.0,-0.0,2.0,0.282024,0.30622,0.282024,0.254389,,,,,,
358978,0.106143,-0.003844,-0.083341,-0.003193,0.0,0.0,0.072029,-0.0,-0.0,2.0,0.282024,0.306389,0.282024,0.254167,,,,,,
358998,0.104935,-0.004133,-0.083466,-0.003192,-0.001058,-0.000111,0.069411,-0.0,-0.0,2.0,0.282024,0.30731,0.282024,0.252954,,,,,,
359018,0.103462,-0.004073,-0.083476,-0.004252,-0.000949,-0.001168,0.068258,-0.0,-0.0,2.0,0.282024,0.307102,0.282024,0.253229,,,,,,
359038,0.101857,-0.003774,-0.083499,-0.004252,-0.00095,-0.001167,0.065889,-0.0,-0.0,2.0,0.282024,0.306164,0.282024,0.254462,,,,,,
359058,0.100008,-0.003492,-0.083404,-0.004253,-0.000953,-0.001165,0.062662,-0.0,-0.0,2.0,0.282024,0.30707,0.282024,0.253271,,,,,,
359078,0.098161,-0.003094,-0.083207,-0.004253,-0.000955,-0.001163,0.060702,-0.0,-0.0,2.0,0.282024,0.305704,0.282024,0.255062,,,,,,
359098,0.09619,-0.002816,-0.08311,-0.005318,-0.000957,-0.001162,0.060702,-0.0,-0.0,2.0,0.282024,0.304406,0.282024,0.256734,,,,,,
359118,0.093977,-0.002554,-0.082894,-0.005318,-0.00096,-0.001159,0.057251,-0.0,-0.0,2.0,0.282024,0.305221,0.282024,0.255688,,,,,,
359138,0.091524,-0.002418,-0.082795,-0.005318,-0.000963,-0.001157,0.05314,-0.0,-0.0,2.0,0.282024,0.306309,0.282024,0.254272,,,,,,
359158,0.088955,-0.002414,-0.08257,-0.006383,-0.000965,-0.001155,0.04936,-0.0,-0.0,2.0,0.282024,0.30566,0.282024,0.255118,,,,,,
359178,0.086269,-0.002531,-0.082461,-0.007447,-0.000969,-0.001152,0.04747,-0.0,-0.0,2.0,0.282024,0.305137,0.282024,0.255795,,,,,,
359198,0.083451,-0.002409,-0.082363,-0.007447,8.9e-05,-0.001061,0.044275,-0.0,-0.0,2.0,0.282024,0.305382,0.282024,0.255479,,,,,,
359218,0.080272,-0.002429,-0.08214,-0.007447,8.5e-05,-0.001061,0.041076,-0.0,-0.0,2.0,0.282024,0.303949,0.282024,0.257317,,,,,,
359238,0.077099,-0.002569,-0.081912,-0.007447,8.2e-05,-0.001061,0.03732,-0.0,-0.0,2.0,0.282024,0.30288,0.282024,0.258668,,,,,,
359258,0.073799,-0.002709,-0.08179,-0.008511,7.8e-05,-0.001061,0.035381,-0.0,-0.0,2.0,0.282024,0.30197,0.282024,0.259805,,,,,,
359278,0.070138,-0.002864,-0.081685,-0.008511,7.5e-05,-0.001062,0.031291,-0.0,-0.0,2.0,0.282024,0.302257,0.282024,0.259449,,,,,,
359298,0.066471,-0.002901,-0.081462,-0.008511,-0.000991,-0.001133,0.028134,-0.0,-0.0,2.0,0.282024,0.301917,0.282024,0.259871,,,,,,
359318,0.06244,-0.002951,-0.081241,-0.009575,-0.000996,-0.001129,0.024023,-0.0,-0.0,2.0,0.282024,0.300497,0.282024,0.26162,,,,,,
359338,0.058286,-0.003006,-0.081018,-0.010639,-0.001,-0.001124,0.021855,-0.0,-0.0,2.0,0.282024,0.299158,0.282024,0.263242,,,,,,
359358,0.053883,-0.002951,-0.080677,-0.010636,-0.000948,-0.002183,0.018194,-0.0,-0.0,2.0,0.282024,0.298656,0.282024,0.263845,,,,,,
359378,0.04948,-0.002888,-0.080576,-0.010639,5.3e-05,-0.001063,0.014555,-0.0,-0.0,2.0,0.282024,0.296637,0.282024,0.266231,,,,,,
359398,0.044833,-0.002839,-0.080231,-0.010639,4.8e-05,-0.001063,0.010783,-0.0,-0.0,2.0,0.282024,0.296037,0.282024,0.266929,,,,,,
359418,0.040065,-0.002792,-0.080005,-0.010639,4.3e-05,-0.001063,0.008232,-0.0,-0.0,2.0,0.282024,0.29451,0.282024,0.268688,,,,,,
359438,0.035174,-0.00275,-0.079655,-0.010639,-0.001026,-0.001101,0.003775,-0.0,-0.0,2.0,0.282024,0.294209,0.282024,0.26903,,,,,,
359458,0.030289,-0.002827,-0.079422,-0.011703,-0.001032,-0.001096,0.000261,-0.0,-0.0,2.0,0.282024,0.293258,0.282024,0.270106,,,,,,
359478,0.025156,-0.002791,-0.079082,-0.011703,-0.001037,-0.001091,-0.00158,-0.0,-0.0,2.0,0.282024,0.289403,0.282024,0.274357,,,,,,
359498,0.020027,-0.002875,-0.078844,-0.011703,-0.001043,-0.001085,-0.005004,-0.0,-0.0,2.0,0.282024,0.28819,0.282024,0.275658,,,,,,
359518,0.015016,-0.00283,-0.078619,-0.011703,1.6e-05,-0.001064,-0.009703,-0.0,-0.0,2.0,0.282024,0.287967,0.282024,0.275895,,,,,,
359538,0.009765,-0.002916,-0.078254,-0.011703,-0.001054,-0.001075,-0.01361,-0.0,-0.0,2.0,0.282024,0.287007,0.282024,0.276912,,,,,,
359558,0.004759,-0.002991,-0.078022,-0.011703,-0.001059,-0.001069,-0.017317,-0.0,-0.0,2.0,0.282024,0.286073,0.282024,0.27789,,,,,,
359578,-0.000247,-0.003064,-0.077909,-0.011703,-0.0,-0.001064,-0.019185,-0.0,-0.0,2.0,0.282024,0.285395,0.282024,0.278594,,,,,,
359598,-0.005254,-0.003136,-0.077551,-0.010639,-6e-06,-0.001064,-0.020995,-0.0,-0.0,2.0,0.282024,0.283071,0.282024,0.280972,,,,,,
359618,-0.010016,-0.003197,-0.077311,-0.010639,-1.1e-05,-0.001064,-0.027336,-0.0,-0.0,2.0,0.282024,0.282616,0.282024,0.281431,,,,,,
359638,-0.014778,-0.003258,-0.07719,-0.010639,-1.6e-05,-0.001064,-0.029773,-0.0,-0.0,2.0,0.282024,0.282523,0.282024,0.281524,,,,,,
359658,-0.019419,-0.003313,-0.076946,-0.009575,-0.001085,-0.001043,-0.029773,-0.0,-0.0,2.0,0.282024,0.27909,0.282024,0.284915,,,,,,
359678,-0.023938,-0.003361,-0.076714,-0.009574,-2.5e-05,-0.001064,-0.037181,-0.0,-0.0,2.0,0.282024,0.281234,0.282024,0.282811,,,,,,
359698,-0.028212,-0.003401,-0.076587,-0.009574,-3e-05,-0.001064,-0.03884,-0.0,-0.0,2.0,0.282024,0.280928,0.282024,0.283115,,,,,,
359718,-0.032366,-0.003434,-0.076351,-0.00851,-3.4e-05,-0.001064,-0.042792,-0.0,-0.0,2.0,0.282024,0.280778,0.282024,0.283263,,,,,,
359738,-0.036392,-0.003583,-0.076101,-0.009574,-0.001102,-0.001025,-0.046136,-0.0,-0.0,2.0,0.282024,0.280273,0.282024,0.28376,,,,,,
359758,-0.04018,-0.003603,-0.075984,-0.00851,-4.3e-05,-0.001063,-0.049247,-0.0,-0.0,2.0,0.282024,0.281399,0.282024,0.282647,,,,,,
359778,-0.043971,-0.003497,-0.075728,-0.00851,-0.00111,-0.001016,-0.052222,-0.0,-0.0,2.0,0.282024,0.280796,0.282024,0.283244,,,,,,
359798,-0.047637,-0.003508,-0.075486,-0.00851,-0.001114,-0.001012,-0.05416,-0.0,-0.0,2.0,0.282024,0.279513,0.282024,0.284504,,,,,,
359818,-0.051187,-0.003394,-0.075362,-0.00851,-5.4e-05,-0.001063,-0.055747,-0.0,-0.0,2.0,0.282024,0.278046,0.282024,0.285924,,,,,,
359838,-0.054606,-0.003394,-0.075104,-0.00745,-0.001063,5.8e-05,-0.059043,-0.0,-0.0,2.0,0.282024,0.279597,0.282024,0.284422,,,,,,
359858,-0.057912,-0.003264,-0.074734,-0.007446,-0.001124,-0.001001,-0.060527,-0.0,-0.0,2.0,0.282024,0.278235,0.282024,0.285741,,,,,,
359878,-0.061213,-0.003261,-0.07461,-0.007446,-0.001127,-0.000997,-0.064474,-0.0,-0.0,2.0,0.282024,0.278719,0.282024,0.285274,,,,,,
359898,-0.064388,-0.003249,-0.074349,-0.007446,-0.00113,-0.000994,-0.067112,-0.0,-0.0,2.0,0.282024,0.278317,0.282024,0.285663,,,,,,
359918,-0.067694,-0.00312,-0.074096,-0.007446,-0.001134,-0.00099,-0.069407,-0.0,-0.0,2.0,0.282024,0.277558,0.282024,0.286391,,,,,,
359938,-0.070756,-0.002976,-0.073722,-0.007447,-0.001137,-0.000986,-0.070559,-0.0,-0.0,2.0,0.282024,0.276114,0.282024,0.287761,,,,,,
359958,-0.07394,-0.00284,-0.073467,-0.007447,-0.00114,-0.000983,-0.07271,-0.0,-0.0,2.0,0.282024,0.275329,0.282024,0.288498,,,,,,
359978,-0.077006,-0.002577,-0.073206,-0.007447,-0.001143,-0.000979,-0.075336,-0.0,-0.0,2.0,0.282024,0.274993,0.282024,0.288812,,,,,,
359998,-0.080068,-0.002436,-0.072949,-0.007447,-0.001146,-0.000976,-0.076866,-0.0,-0.0,2.0,0.282024,0.273821,0.282024,0.289898,,,,,,
360018,-0.08313,-0.002166,-0.07255,-0.007447,-0.001149,-0.000972,-0.077842,-0.0,-0.0,2.0,0.282024,0.273908,0.282024,0.289817,,,,,,
360038,-0.086201,-0.001779,-0.072279,-0.007448,-0.001152,-0.000969,-0.079883,-0.0,-0.0,2.0,0.282024,0.273116,0.282024,0.290545,,,,,,
360058,-0.089141,-0.001625,-0.071896,-0.007448,-0.001155,-0.000965,-0.080782,-0.0,-0.0,2.0,0.282024,0.26982,0.282024,0.293512,,,,,,
360078,-0.092085,-0.001348,-0.071507,-0.007448,-0.001158,-0.000962,-0.082243,-0.0,-0.0,2.0,0.282024,0.268654,0.282024,0.294539,,,,,,
360098,-0.094911,-0.00095,-0.071232,-0.007449,-0.00116,-0.000959,-0.083433,-0.0,-0.0,2.0,0.282024,0.269095,0.282024,0.294152,,,,,,
360118,-0.09786,-0.000549,-0.070833,-0.006385,-0.001163,-0.000955,-0.084493,-0.0,-0.0,2.0,0.282024,0.267601,0.282024,0.295457,,,,,,
360138,-0.100693,-0.000143,-0.070446,-0.006385,-0.002225,-0.000845,-0.08495,-0.0,-0.0,2.0,0.282024,0.265706,0.282024,0.297085,,,,,,
360158,-0.103519,0.000257,-0.070165,-0.00745,-0.001278,-0.002007,-0.085426,-0.0,-0.0,2.0,0.282024,0.263809,0.282024,0.298686,,,,,,
360178,-0.106215,0.000425,-0.069776,-0.006386,-0.001171,-0.000945,-0.086192,-0.0,-0.0,2.0,0.282024,0.262237,0.282024,0.29999,,,,,,
360198,-0.108801,0.000964,-0.069366,-0.005322,-0.002231,-0.000827,-0.086654,-0.0,-0.0,2.0,0.282024,0.26049,0.282024,0.301417,,,,,,
360218,-0.111258,0.001265,-0.06897,-0.005324,-0.001294,-0.001997,-0.087132,-0.0,-0.0,2.0,0.282024,0.26067,0.282024,0.301271,,,,,,
360238,-0.113596,0.001692,-0.068566,-0.005323,-0.001178,-0.000937,-0.087229,-0.0,-0.0,2.0,0.282024,0.258812,0.282024,0.302766,,,,,,
360258,-0.115565,0.002011,-0.068172,-0.004259,-0.00118,-0.000934,-0.087256,-0.0,-0.0,2.0,0.282024,0.257183,0.282024,0.304054,,,,,,
360278,-0.117531,0.002452,-0.067758,-0.004259,-0.001182,-0.000932,-0.087109,-0.0,-0.0,2.0,0.282024,0.257256,0.282024,0.303997,,,,,,
360298,-0.11926,0.00291,-0.067236,-0.003198,-0.00131,-0.001987,-0.086811,-0.0,-0.0,2.0,0.282024,0.255535,0.282024,0.305339,,,,,,
360318,-0.120498,0.003248,-0.066969,-0.003196,-0.001184,-0.000929,-0.086594,-0.0,-0.0,2.0,0.282024,0.254298,0.282024,0.306289,,,,,,
360338,-0.12148,0.003481,-0.066578,-0.003196,-0.001185,-0.000927,-0.086254,-0.0,-0.0,2.0,0.282024,0.256912,0.282024,0.304267,,,,,,
360358,-0.122223,0.003851,-0.066061,-0.001068,-0.001186,-0.000927,-0.085066,-0.0,-0.0,2.0,0.282024,0.257138,0.282024,0.30409,,,,,,
360378,-0.122844,0.004219,-0.065667,-0.001073,-0.001317,-0.001982,-0.084379,-0.0,-0.0,2.0,0.282024,0.256026,0.282024,0.304958,,,,,,
360398,-0.123091,0.004355,-0.065292,-0.001073,-0.001318,-0.001982,-0.083753,-0.0,-0.0,2.0,0.282024,0.25529,0.282024,0.305527,,,,,,
360418,-0.122974,0.004496,-0.065043,-5e-06,-0.000131,-0.001056,-0.082401,-0.0,-0.0,2.0,0.282024,0.254235,0.282024,0.306338,,,,,,
360438,-0.122848,0.004408,-0.064565,-5e-06,-0.00013,-0.001056,-0.080913,-0.0,-0.0,2.0,0.282024,0.25495,0.282024,0.30579,,,,,,
360458,-0.122604,0.004438,-0.064204,-4e-06,-0.001186,-0.000926,-0.079393,-0.0,-0.0,2.0,0.282024,0.253849,0.282024,0.306631,,,,,,
360478,-0.122353,0.004218,-0.063978,-8e-06,-0.001316,-0.001983,-0.077717,-0.0,-0.0,2.0,0.282024,0.252631,0.282024,0.307553,,,,,,
360498,-0.122227,0.004115,-0.063744,-0.001068,-0.001186,-0.000927,-0.076608,-0.0,-0.0,2.0,0.282024,0.251779,0.282024,0.308192,,,,,,
360518,-0.122227,0.004388,-0.063232,-0.001069,-0.00013,-0.001056,-0.074907,-0.0,-0.0,2.0,0.282024,0.248351,0.282024,0.310709,,,,,,
360538,-0.122227,0.004411,-0.062867,-0.001069,-0.00013,-0.001056,-0.073121,-0.0,-0.0,2.0,0.282024,0.246757,0.282024,0.311852,,,,,,
360558,-0.122231,0.004547,-0.062616,-5e-06,-0.00013,-0.001056,-0.071332,-0.0,-0.0,2.0,0.282024,0.247112,0.282024,0.311599,,,,,,
360578,-0.121991,0.004692,-0.062369,-4e-06,-0.001186,-0.000927,-0.068685,-0.0,-0.0,2.0,0.282024,0.244952,0.282024,0.313126,,,,,,
360598,-0.12174,0.004471,-0.062143,-4e-06,-0.002242,-0.000798,-0.0671,-0.0,-0.0,2.0,0.282024,0.243737,0.282024,0.313972,,,,,,
360618,-0.121374,0.004505,-0.061783,-4e-06,-0.002242,-0.000799,-0.064673,-0.0,-0.0,2.0,0.282024,0.241833,0.282024,0.315277,,,,,,
360638,-0.120887,0.004786,-0.061398,-4e-06,-0.001185,-0.000928,-0.062142,-0.0,-0.0,2.0,0.282024,0.241988,0.282024,0.315172,,,,,,
360658,-0.120403,0.004938,-0.061153,0.00106,-0.001184,-0.000929,-0.059509,-0.0,-0.0,2.0,0.282024,0.23999,0.282024,0.31652,,,,,,
360678,-0.11968,0.005219,-0.060904,0.002123,-0.000127,-0.001057,-0.056358,-0.0,-0.0,2.0,0.282024,0.2377,0.282024,0.318033,,,,,,
360698,-0.118702,0.005392,-0.060532,0.002123,-0.000126,-0.001057,-0.053709,-0.0,-0.0,2.0,0.282024,0.238202,0.282024,0.317705,,,,,,
360718,-0.117601,0.00557,-0.060162,0.002117,-0.00025,-0.002114,-0.052094,-0.0,-0.0,2.0,0.282024,0.237711,0.282024,0.318027,,,,,,
360738,-0.116021,0.005754,-0.05993,0.003187,-0.000123,-0.001057,-0.048121,-0.0,-0.0,2.0,0.282024,0.237525,0.282024,0.318148,,,,,,
360758,-0.114316,0.006071,-0.05956,0.003186,-0.000121,-0.001057,-0.045831,-0.0,-0.0,2.0,0.282024,0.239053,0.282024,0.317143,,,,,,
360778,-0.112126,0.006517,-0.059311,0.00425,-0.000119,-0.001058,-0.042066,-0.0,-0.0,2.0,0.282024,0.23964,0.282024,0.316753,,,,,,
360798,-0.10969,0.006848,-0.059072,0.005307,-0.000233,-0.002116,-0.038817,-0.0,-0.0,2.0,0.282024,0.240936,0.282024,0.315885,,,,,,
360818,-0.106881,0.007189,-0.058826,0.006371,-0.001285,-0.002003,-0.035489,-0.0,-0.0,2.0,0.282024,0.240452,0.282024,0.31621,,,,,,
360838,-0.103595,0.007666,-0.05859,0.007443,-0.002227,-0.000838,-0.033803,-0.0,-0.0,2.0,0.282024,0.241939,0.282024,0.315206,,,,,,
360858,-0.099811,0.008035,-0.058356,0.008507,-0.002224,-0.000847,-0.029789,-0.0,-0.0,2.0,0.282024,0.243745,0.282024,0.313966,,,,,,
360878,-0.095794,0.008776,-0.058108,0.008505,-0.001161,-0.000958,-0.025937,-0.0,-0.0,2.0,0.282024,0.245889,0.282024,0.312467,,,,,,
360898,-0.09117,0.009412,-0.057883,0.009569,-0.001157,-0.000963,-0.023439,-0.0,-0.0,2.0,0.282024,0.249742,0.282024,0.309697,,,,,,
360918,-0.086178,0.010175,-0.05777,0.010632,-0.001152,-0.000969,-0.019956,-0.0,-0.0,2.0,0.282024,0.254863,0.282024,0.305856,,,,,,
360938,-0.080699,0.010946,-0.057786,0.011696,-0.001147,-0.000975,-0.017595,-0.0,-0.0,2.0,0.282024,0.257505,0.282024,0.303802,,,,,,
360958,-0.074976,0.011729,-0.057684,0.01276,-0.002202,-0.000902,-0.012692,-0.0,-0.0,2.0,0.282024,0.260023,0.282024,0.301795,,,,,,
360978,-0.068888,0.012518,-0.05771,0.013824,-0.003258,-0.000842,-0.00901,-0.0,-0.0,2.0,0.282024,0.262001,0.282024,0.300184,,,,,,
