time_ms,roll,pitch,yaw,reference_roll,reference_pitch,reference_yaw,reference_throttle,throttle_1,throttle_2,throttle_3,throttle_4,roll_predicted,pitch_predicted,yaw_predicted,roll_rate_predicted,pitch_rate_predicted,yaw_rate_predicted,value1,value2,value3,value4,value5,value6
337897,0.001103,-0.018214,-0.281743,0.0,-0.0,-0.0,2.0,0.282024,0.27386,0.282024,0.289861,,,,,,,0.001851,-0.013359,-0.18273,-0.003512,3.7e-05,-8.8e-05
337917,0.000878,-0.018369,-0.281745,0.0,-0.0,-0.0,2.0,0.282024,0.276661,0.282024,0.287244,,,,,,,0.00173,-0.013359,-0.182732,-0.024116,2.2e-05,-8.8e-05
337937,0.000758,-0.018388,-0.281797,0.0,-0.0,-0.0,2.0,0.282024,0.276784,0.282024,0.287128,,,,,,,0.001505,-0.013358,-0.182733,-0.003359,2e-05,-9.3e-05
337957,0.000775,-0.018509,-0.281797,0.0,-0.0,-0.0,2.0,0.282024,0.277426,0.282024,0.286517,,,,,,,0.001505,-0.013358,-0.182735,0.0,8e-06,-9.3e-05
337977,0.001017,-0.018474,-0.281795,0.0,-0.0,-0.0,2.0,0.282024,0.279342,0.282024,0.28467,,,,,,,0.001747,-0.013358,-0.182737,-1e-06,1.1e-05,-9.3e-05
337997,0.001242,-0.018319,-0.281909,0.0,-0.0,-0.0,2.0,0.282024,0.281373,0.282024,0.282673,,,,,,,0.001989,-0.013358,-0.182739,-0.003315,2.7e-05,-0.000104
338017,0.001362,-0.018302,-0.281792,0.0,-0.0,-0.0,2.0,0.282024,0.277722,0.282024,0.286234,,,,,,,0.001972,-0.013357,-0.182741,0.02406,2.8e-05,-9.2e-05
338037,0.001258,-0.01844,-0.281793,0.0,-0.0,-0.0,2.0,0.282024,0.276745,0.282024,0.287165,,,,,,,0.001972,-0.013357,-0.182743,0.003414,1.5e-05,-9.2e-05
338057,0.001017,-0.018474,-0.281795,0.0,-0.0,-0.0,2.0,0.282024,0.276003,0.282024,0.287866,,,,,,,0.001869,-0.013356,-0.182745,-0.02438,1.1e-05,-9.2e-05
338077,0.000897,-0.018491,-0.281912,0.0,-0.0,-0.0,2.0,0.282024,0.275884,0.282024,0.287978,,,,,,,0.001626,-0.013356,-0.182747,0.000222,9e-06,-0.000104
338097,0.000671,-0.018647,-0.281798,0.0,-0.0,-0.0,2.0,0.282024,0.275821,0.282024,0.288037,,,,,,,0.001402,-0.013356,-0.182749,1.5e-05,-6e-06,-9.2e-05
338117,0.000775,-0.018509,-0.281797,0.0,-0.0,-0.0,2.0,0.282024,0.277271,0.282024,0.286664,,,,,,,0.001384,-0.013356,-0.182751,0.024073,8e-06,-9.2e-05
338137,0.001001,-0.018353,-0.281911,0.0,-0.0,-0.0,2.0,0.282024,0.279947,0.282024,0.284079,,,,,,,0.00161,-0.013356,-0.182752,0.02416,2.3e-05,-0.000103
338157,0.001138,-0.018457,-0.281794,0.0,-0.0,-0.0,2.0,0.282024,0.279663,0.282024,0.284357,,,,,,,0.001869,-0.013355,-0.182754,-0.000206,1.3e-05,-9.1e-05
338177,0.00138,-0.018423,-0.281908,0.0,-0.0,-0.0,2.0,0.282024,0.278571,0.282024,0.285417,,,,,,,0.001989,-0.013355,-0.182756,0.024293,1.6e-05,-0.000102
338197,0.00126,-0.01844,-0.281909,0.0,-0.0,-0.0,2.0,0.282024,0.279864,0.282024,0.28416,,,,,,,0.00211,-0.013355,-0.182758,-0.023974,1.4e-05,-0.000102
338217,0.001018,-0.018474,-0.281911,0.0,-0.0,-0.0,2.0,0.282024,0.274393,0.282024,0.28937,,,,,,,0.001749,-0.013354,-0.18276,-9.9e-05,1.1e-05,-0.000102
338237,0.000776,-0.018508,-0.281913,0.0,-0.0,-0.0,2.0,0.282024,0.273721,0.282024,0.289989,,,,,,,0.001507,-0.013354,-0.182762,-9.9e-05,7e-06,-0.000102
338257,0.000534,-0.018543,-0.281915,0.0,-0.0,-0.0,2.0,0.282024,0.274284,0.282024,0.28947,,,,,,,0.001265,-0.013354,-0.182764,-8.5e-05,4e-06,-0.000102
338277,0.000638,-0.018405,-0.281914,0.0,-0.0,-0.0,2.0,0.282024,0.277258,0.282024,0.286677,,,,,,,0.001265,-0.013354,-0.182766,0.020659,1.8e-05,-0.000102
338297,0.000759,-0.018387,-0.281913,0.0,-0.0,-0.0,2.0,0.282024,0.280779,0.282024,0.283261,,,,,,,0.00149,-0.013354,-0.182769,-0.00012,1.9e-05,-0.000101
338317,0.001019,-0.018474,-0.282027,0.0,-0.0,-0.0,2.0,0.282024,0.27878,0.282024,0.285216,,,,,,,0.001627,-0.013353,-0.182771,0.024308,1.1e-05,-0.000113
338337,0.00126,-0.01844,-0.281909,0.0,-0.0,-0.0,2.0,0.282024,0.281119,0.282024,0.282925,,,,,,,0.00199,-0.013353,-0.182773,-0.000121,1.4e-05,-0.000101
338357,0.00126,-0.01844,-0.281909,0.0,-0.0,-0.0,2.0,0.282024,0.278563,0.282024,0.285425,,,,,,,0.00199,-0.013353,-0.182775,-1e-06,1.4e-05,-0.0001
338377,0.001018,-0.018474,-0.281911,0.0,-0.0,-0.0,2.0,0.282024,0.274658,0.282024,0.289123,,,,,,,0.001749,-0.013352,-0.182777,-9.9e-05,1.1e-05,-0.0001
338397,0.000759,-0.018387,-0.281913,0.0,-0.0,-0.0,2.0,0.282024,0.274476,0.282024,0.289292,,,,,,,0.001507,-0.013352,-0.182779,-0.0035,1.9e-05,-0.0001
338417,0.000621,-0.018284,-0.281914,0.0,-0.0,-0.0,2.0,0.282024,0.276294,0.282024,0.287591,,,,,,,0.001351,-0.013352,-0.182781,-1.4e-05,3e-05,-0.0001
338437,0.000621,-0.018284,-0.281914,0.0,-0.0,-0.0,2.0,0.282024,0.276803,0.282024,0.28711,,,,,,,0.00123,-0.013351,-0.182783,0.024074,3e-05,-0.0001
338457,0.000742,-0.018267,-0.281913,0.0,-0.0,-0.0,2.0,0.282024,0.28029,0.282024,0.283743,,,,,,,0.001472,-0.013351,-0.182785,9.9e-05,3.1e-05,-0.0001
338477,0.001122,-0.018336,-0.28191,0.0,-0.0,-0.0,2.0,0.282024,0.282107,0.282024,0.281941,,,,,,,0.001835,-0.01335,-0.182787,0.003297,2.4e-05,-9.9e-05
338497,0.001364,-0.018302,-0.282024,0.0,-0.0,-0.0,2.0,0.282024,0.279368,0.282024,0.284645,,,,,,,0.001973,-0.013349,-0.182789,0.024291,2.8e-05,-0.000111
338517,0.001242,-0.018319,-0.281909,0.0,-0.0,-0.0,2.0,0.282024,0.279379,0.282024,0.284634,,,,,,,0.002093,-0.013349,-0.182791,-0.023974,2.6e-05,-9.9e-05
338537,0.001104,-0.018215,-0.28191,0.0,-0.0,-0.0,2.0,0.282024,0.276148,0.282024,0.287729,,,,,,,0.001956,-0.013348,-0.182793,-0.024174,3.6e-05,-9.9e-05
338557,0.000847,-0.018128,-0.282028,0.0,-0.0,-0.0,2.0,0.282024,0.276612,0.282024,0.287291,,,,,,,0.001714,-0.013347,-0.182795,-0.027272,4.5e-05,-0.00011
338577,0.000604,-0.018163,-0.281914,0.0,-0.0,-0.0,2.0,0.282024,0.273791,0.282024,0.289925,,,,,,,0.001335,-0.013347,-0.182797,-0.000113,4.1e-05,-9.9e-05
338597,0.000604,-0.018163,-0.281914,0.0,-0.0,-0.0,2.0,0.282024,0.274842,0.282024,0.288952,,,,,,,0.001214,-0.013346,-0.182799,0.023973,4.1e-05,-9.8e-05
338617,0.000847,-0.018128,-0.282028,0.0,-0.0,-0.0,2.0,0.282024,0.280184,0.282024,0.283847,,,,,,,0.001456,-0.013345,-0.182801,0.024173,4.5e-05,-0.00011
338637,0.000985,-0.018232,-0.282027,0.0,-0.0,-0.0,2.0,0.282024,0.281243,0.282024,0.282803,,,,,,,0.001713,-0.013344,-0.182803,0.000317,3.4e-05,-0.000109
338657,0.001226,-0.018198,-0.282025,0.0,-0.0,-0.0,2.0,0.282024,0.278655,0.282024,0.285336,,,,,,,0.001836,-0.013344,-0.182805,0.024073,3.7e-05,-0.000109
338677,0.001364,-0.018302,-0.282024,0.0,-0.0,-0.0,2.0,0.282024,0.281669,0.282024,0.282379,,,,,,,0.002198,-0.013343,-0.182808,-0.020572,2.7e-05,-0.000109
338697,0.001243,-0.018319,-0.282025,0.0,-0.0,-0.0,2.0,0.282024,0.276183,0.282024,0.287696,,,,,,,0.001974,-0.013342,-0.18281,-8.6e-05,2.5e-05,-0.000109
338717,0.000863,-0.018249,-0.281912,0.0,-0.0,-0.0,2.0,0.282024,0.273035,0.282024,0.290619,,,,,,,0.001595,-0.013342,-0.182812,-0.00033,3.2e-05,-9.7e-05
338737,0.000621,-0.018284,-0.281914,0.0,-0.0,-0.0,2.0,0.282024,0.273594,0.282024,0.290107,,,,,,,0.001352,-0.013341,-0.182814,-0.0001,2.9e-05,-9.7e-05
338757,0.000501,-0.018301,-0.282031,0.0,-0.0,-0.0,2.0,0.282024,0.276689,0.282024,0.287218,,,,,,,0.001232,-0.013341,-0.182816,1e-06,2.7e-05,-0.000109
338777,0.000604,-0.018163,-0.281914,0.0,-0.0,-0.0,2.0,0.282024,0.280003,0.282024,0.284025,,,,,,,0.001351,-0.01334,-0.182818,-0.003316,4.1e-05,-9.7e-05
338797,0.000863,-0.018249,-0.281912,0.0,-0.0,-0.0,2.0,0.282024,0.27858,0.282024,0.285409,,,,,,,0.001472,-0.013339,-0.18282,0.024074,3.2e-05,-9.6e-05
338817,0.001122,-0.018336,-0.28191,0.0,-0.0,-0.0,2.0,0.282024,0.281956,0.282024,0.282093,,,,,,,0.001852,-0.013339,-0.182822,-0.000119,2.3e-05,-9.6e-05
338837,0.001243,-0.018319,-0.282025,0.0,-0.0,-0.0,2.0,0.282024,0.280544,0.282024,0.283493,,,,,,,0.001973,-0.013338,-0.182824,9.9e-05,2.5e-05,-0.000107
338857,0.001002,-0.018353,-0.282027,0.0,-0.0,-0.0,2.0,0.282024,0.276739,0.282024,0.287171,,,,,,,0.001853,-0.013338,-0.182826,-0.024072,2.1e-05,-0.000107
338877,0.000759,-0.018387,-0.281913,0.0,-0.0,-0.0,2.0,0.282024,0.275043,0.282024,0.288765,,,,,,,0.001612,-0.013337,-0.182828,-0.024378,1.8e-05,-9.5e-05
338897,0.000501,-0.018301,-0.282031,0.0,-0.0,-0.0,2.0,0.282024,0.276397,0.282024,0.287494,,,,,,,0.001352,-0.013337,-0.18283,-0.024073,2.6e-05,-0.000107
338917,0.000396,-0.018439,-0.281916,0.0,-0.0,-0.0,2.0,0.282024,0.27661,0.282024,0.287293,,,,,,,0.001127,-0.013337,-0.182832,0.0,1.3e-05,-9.5e-05
338937,0.000534,-0.018543,-0.281915,0.0,-0.0,-0.0,2.0,0.282024,0.27991,0.282024,0.284116,,,,,,,0.001247,-0.013336,-0.182834,0.003513,2e-06,-9.5e-05
338957,0.000777,-0.018508,-0.282029,0.0,-0.0,-0.0,2.0,0.282024,0.281736,0.282024,0.282312,,,,,,,0.001507,-0.013336,-0.182836,0.000113,6e-06,-0.000106
338977,0.00114,-0.018457,-0.282026,0.0,-0.0,-0.0,2.0,0.282024,0.280946,0.282024,0.283097,,,,,,,0.001749,-0.013336,-0.182838,0.024158,1.1e-05,-0.000106
338997,0.001157,-0.018578,-0.282026,0.0,-0.0,-0.0,2.0,0.282024,0.278718,0.282024,0.285275,,,,,,,0.001887,-0.013336,-0.182841,1.4e-05,-1e-06,-0.000106
339017,0.00114,-0.018457,-0.282026,0.0,-0.0,-0.0,2.0,0.282024,0.277844,0.282024,0.286117,,,,,,,0.00187,-0.013336,-0.182843,0.0,1.1e-05,-0.000105
339037,0.000881,-0.01837,-0.282028,0.0,-0.0,-0.0,2.0,0.282024,0.275586,0.282024,0.288258,,,,,,,0.001611,-0.013335,-0.182845,-1.4e-05,1.9e-05,-0.000105
339057,0.000535,-0.018542,-0.282031,0.0,-0.0,-0.0,2.0,0.282024,0.274518,0.282024,0.289253,,,,,,,0.001387,-0.013335,-0.182847,-0.024172,2e-06,-0.000105
339077,0.000535,-0.018542,-0.282031,0.0,-0.0,-0.0,2.0,0.282024,0.274303,0.282024,0.289452,,,,,,,0.001144,-0.013335,-0.182849,0.02421,2e-06,-0.000105
339097,0.000535,-0.018542,-0.282031,0.0,-0.0,-0.0,2.0,0.282024,0.279783,0.282024,0.28424,,,,,,,0.001369,-0.013335,-0.182851,-0.020572,2e-06,-0.000105
339117,0.000898,-0.018491,-0.282028,0.0,-0.0,-0.0,2.0,0.282024,0.279489,0.282024,0.284527,,,,,,,0.001508,-0.013335,-0.182853,0.024073,7e-06,-0.000105
339137,0.001157,-0.018578,-0.282026,0.0,-0.0,-0.0,2.0,0.282024,0.2791,0.282024,0.284905,,,,,,,0.001766,-0.013335,-0.182855,0.024073,-1e-06,-0.000104
339157,0.001399,-0.018543,-0.282024,0.0,-0.0,-0.0,2.0,0.282024,0.281991,0.282024,0.282057,,,,,,,0.002129,-0.013335,-0.182857,9.9e-05,2e-06,-0.000104
339177,0.001399,-0.018543,-0.282024,0.0,-0.0,-0.0,2.0,0.282024,0.27863,0.282024,0.28536,,,,,,,0.002146,-0.013335,-0.182859,-0.003402,2e-06,-0.000103
339197,0.001157,-0.018578,-0.282026,0.0,-0.0,-0.0,2.0,0.282024,0.274097,0.282024,0.289643,,,,,,,0.001888,-0.013335,-0.182861,-0.000113,-1e-06,-0.000103
339217,0.000811,-0.01875,-0.28203,0.0,-0.0,-0.0,2.0,0.282024,0.274499,0.282024,0.289271,,,,,,,0.001646,-0.013335,-0.182863,-0.020756,-1.9e-05,-0.000104
339237,0.000673,-0.018646,-0.282031,0.0,-0.0,-0.0,2.0,0.282024,0.274916,0.282024,0.288884,,,,,,,0.001421,-0.013335,-0.182866,-0.003516,-8e-06,-0.000103
339257,0.000691,-0.018767,-0.282031,0.0,-0.0,-0.0,2.0,0.282024,0.277875,0.282024,0.286088,,,,,,,0.001404,-0.013336,-0.182868,0.003402,-2e-05,-0.000103
339277,0.000813,-0.01875,-0.282146,0.0,-0.0,-0.0,2.0,0.282024,0.278016,0.282024,0.285952,,,,,,,0.001421,-0.013336,-0.18287,0.024312,-1.9e-05,-0.000115
339297,0.001175,-0.018698,-0.282143,0.0,-0.0,-0.0,2.0,0.282024,0.280101,0.282024,0.283929,,,,,,,0.001785,-0.013336,-0.182872,0.024072,-1.3e-05,-0.000114
339317,0.001417,-0.018664,-0.282141,0.0,-0.0,-0.0,2.0,0.282024,0.280911,0.282024,0.283131,,,,,,,0.002026,-0.013337,-0.182874,0.024172,-1e-05,-0.000114
339337,0.001296,-0.018681,-0.282142,0.0,-0.0,-0.0,2.0,0.282024,0.277649,0.282024,0.286303,,,,,,,0.002043,-0.013337,-0.182877,-0.003403,-1.2e-05,-0.000113
339357,0.001071,-0.018836,-0.282144,0.0,-0.0,-0.0,2.0,0.282024,0.275192,0.282024,0.288626,,,,,,,0.001906,-0.013337,-0.182879,-0.020768,-2.7e-05,-0.000113
339377,0.000951,-0.018853,-0.282145,0.0,-0.0,-0.0,2.0,0.282024,0.275032,0.282024,0.288775,,,,,,,0.001681,-0.013338,-0.182881,-9.9e-05,-2.9e-05,-0.000113
339397,0.000692,-0.018767,-0.282147,0.0,-0.0,-0.0,2.0,0.282024,0.275772,0.282024,0.288083,,,,,,,0.001439,-0.013338,-0.182883,-0.003417,-2e-05,-0.000113
339417,0.000588,-0.018905,-0.282148,0.0,-0.0,-0.0,2.0,0.282024,0.277661,0.282024,0.286292,,,,,,,0.001439,-0.013339,-0.182886,-0.024073,-3.4e-05,-0.000113
339437,0.000847,-0.018991,-0.282146,0.0,-0.0,-0.0,2.0,0.282024,0.278163,0.282024,0.285811,,,,,,,0.001439,-0.01334,-0.182888,0.02749,-4.2e-05,-0.000113
339457,0.001211,-0.01894,-0.282259,0.0,-0.0,-0.0,2.0,0.282024,0.280789,0.282024,0.283252,,,,,,,0.001698,-0.01334,-0.18289,0.048471,-3.7e-05,-0.000124
339477,0.00133,-0.018923,-0.282142,0.0,-0.0,-0.0,2.0,0.282024,0.281251,0.282024,0.282794,,,,,,,0.00206,-0.013341,-0.182893,9.9e-05,-3.5e-05,-0.000112
339497,0.001313,-0.018802,-0.282142,0.0,-0.0,-0.0,2.0,0.282024,0.27977,0.282024,0.284253,,,,,,,0.002183,-0.013342,-0.182895,-0.027702,-2.3e-05,-0.000112
339517,0.001314,-0.018802,-0.282258,0.0,-0.0,-0.0,2.0,0.282024,0.278055,0.282024,0.285915,,,,,,,0.002062,-0.013342,-0.182897,-0.003418,-2.3e-05,-0.000123
339537,0.000968,-0.018974,-0.282145,0.0,-0.0,-0.0,2.0,0.282024,0.273526,0.282024,0.290169,,,,,,,0.001681,-0.013343,-0.182899,0.003319,-4e-05,-0.000112
339557,0.000588,-0.018905,-0.282148,0.0,-0.0,-0.0,2.0,0.282024,0.273783,0.282024,0.289933,,,,,,,0.00144,-0.013344,-0.182902,-0.024172,-3.3e-05,-0.000112
339577,0.000589,-0.018905,-0.282264,0.0,-0.0,-0.0,2.0,0.282024,0.279666,0.282024,0.284354,,,,,,,0.00144,-0.013344,-0.182904,-0.023972,-3.3e-05,-0.000123
339597,0.000727,-0.019008,-0.282263,0.0,-0.0,-0.0,2.0,0.282024,0.277668,0.282024,0.286286,,,,,,,0.001318,-0.013345,-0.182906,0.027718,-4.3e-05,-0.000123
339617,0.000831,-0.01887,-0.282262,0.0,-0.0,-0.0,2.0,0.282024,0.280102,0.282024,0.283927,,,,,,,0.001577,-0.013346,-0.182909,-0.003093,-3e-05,-0.000122
339637,0.00109,-0.018957,-0.28226,0.0,-0.0,-0.0,2.0,0.282024,0.282065,0.282024,0.281984,,,,,,,0.001923,-0.013346,-0.182911,-0.020568,-3.8e-05,-0.000122
339657,0.001314,-0.018802,-0.282258,0.0,-0.0,-0.0,2.0,0.282024,0.278656,0.282024,0.285335,,,,,,,0.001924,-0.013347,-0.182914,0.024072,-2.3e-05,-0.000121
339677,0.001073,-0.018836,-0.28226,0.0,-0.0,-0.0,2.0,0.282024,0.276988,0.282024,0.286934,,,,,,,0.001924,-0.013347,-0.182916,-0.024086,-2.6e-05,-0.000121
339697,0.000848,-0.018991,-0.282262,0.0,-0.0,-0.0,2.0,0.282024,0.275057,0.282024,0.288753,,,,,,,0.001683,-0.013348,-0.182919,-0.020752,-4.1e-05,-0.000121
339717,0.00071,-0.018887,-0.282263,0.0,-0.0,-0.0,2.0,0.282024,0.276147,0.282024,0.28773,,,,,,,0.00144,-0.013349,-0.182921,1e-06,-3.1e-05,-0.000121
339737,0.000467,-0.018922,-0.282149,0.0,-0.0,-0.0,2.0,0.282024,0.275839,0.282024,0.288021,,,,,,,0.001199,-0.013349,-0.182923,-0.000226,-3.4e-05,-0.00011
339757,0.000486,-0.019043,-0.282265,0.0,-0.0,-0.0,2.0,0.282024,0.277588,0.282024,0.286362,,,,,,,0.001199,-0.01335,-0.182926,0.003419,-4.6e-05,-0.000121
339777,0.00071,-0.018887,-0.282263,0.0,-0.0,-0.0,2.0,0.282024,0.280837,0.282024,0.283204,,,,,,,0.00144,-0.013351,-0.182928,9.9e-05,-3.1e-05,-0.00012
339797,0.001073,-0.018836,-0.28226,0.0,-0.0,-0.0,2.0,0.282024,0.281242,0.282024,0.282804,,,,,,,0.001682,-0.013351,-0.18293,0.024172,-2.6e-05,-0.00012
339817,0.001193,-0.018819,-0.282259,0.0,-0.0,-0.0,2.0,0.282024,0.279838,0.282024,0.284186,,,,,,,0.001924,-0.013352,-0.182933,-1e-06,-2.4e-05,-0.00012
339837,0.001073,-0.018836,-0.28226,0.0,-0.0,-0.0,2.0,0.282024,0.278198,0.282024,0.285777,,,,,,,0.001925,-0.013352,-0.182935,-0.024297,-2.5e-05,-0.000119
339857,0.000953,-0.018853,-0.282377,0.0,-0.0,-0.0,2.0,0.282024,0.278925,0.282024,0.285075,,,,,,,0.001802,-0.013353,-0.182938,-0.023747,-2.7e-05,-0.000131
339877,0.000589,-0.018905,-0.282264,0.0,-0.0,-0.0,2.0,0.282024,0.275701,0.282024,0.28815,,,,,,,0.00144,-0.013353,-0.18294,-0.024072,-3.2e-05,-0.000119
339897,0.000468,-0.018922,-0.282265,0.0,-0.0,-0.0,2.0,0.282024,0.274313,0.282024,0.289443,,,,,,,0.001199,-0.013354,-0.182943,-0.0001,-3.4e-05,-0.000119
339917,0.000469,-0.018922,-0.282381,0.0,-0.0,-0.0,2.0,0.282024,0.277439,0.282024,0.286505,,,,,,,0.001183,-0.013355,-0.182945,0.003421,-3.4e-05,-0.000131
339937,0.000694,-0.018766,-0.282379,0.0,-0.0,-0.0,2.0,0.282024,0.279165,0.282024,0.284842,,,,,,,0.001321,-0.013355,-0.182948,0.020651,-1.8e-05,-0.00013
339957,0.000953,-0.018853,-0.282377,0.0,-0.0,-0.0,2.0,0.282024,0.281546,0.282024,0.282501,,,,,,,0.001683,-0.013356,-0.18295,9.9e-05,-2.7e-05,-0.00013
339977,0.001195,-0.018819,-0.282375,0.0,-0.0,-0.0,2.0,0.282024,0.280198,0.282024,0.283834,,,,,,,0.001925,-0.013356,-0.182953,-1e-06,-2.3e-05,-0.000129
339997,0.001315,-0.018801,-0.282374,0.0,-0.0,-0.0,2.0,0.282024,0.280831,0.282024,0.28321,,,,,,,0.002062,-0.013357,-0.182956,-0.003321,-2.2e-05,-0.000129
340017,0.00097,-0.018974,-0.282377,0.0,-0.0,-0.0,2.0,0.282024,0.27646,0.282024,0.287435,,,,,,,0.001821,-0.013358,-0.182958,-0.024071,-3.9e-05,-0.000129
340037,0.000727,-0.019008,-0.282263,0.0,-0.0,-0.0,2.0,0.282024,0.272654,0.282024,0.290966,,,,,,,0.001459,-0.013358,-0.182961,-0.0002,-4.2e-05,-0.000117
340057,0.000469,-0.018922,-0.282381,0.0,-0.0,-0.0,2.0,0.282024,0.275982,0.282024,0.287885,,,,,,,0.001321,-0.013359,-0.182963,-0.024084,-3.3e-05,-0.000129
340077,0.000469,-0.018922,-0.282381,0.0,-0.0,-0.0,2.0,0.282024,0.277462,0.282024,0.286483,,,,,,,0.0012,-0.01336,-0.182966,1e-06,-3.3e-05,-0.000129
340097,0.00059,-0.018904,-0.28238,0.0,-0.0,-0.0,2.0,0.282024,0.276087,0.282024,0.287787,,,,,,,0.0012,-0.01336,-0.182968,0.023973,-3.2e-05,-0.000128
340117,0.00097,-0.018974,-0.282377,0.0,-0.0,-0.0,2.0,0.282024,0.282218,0.282024,0.28183,,,,,,,0.001683,-0.013361,-0.182971,0.003505,-3.8e-05,-0.000128
340137,0.001212,-0.018939,-0.282375,0.0,-0.0,-0.0,2.0,0.282024,0.279727,0.282024,0.284295,,,,,,,0.001821,-0.013362,-0.182973,0.024071,-3.5e-05,-0.000127
340157,0.00135,-0.019043,-0.282374,0.0,-0.0,-0.0,2.0,0.282024,0.278418,0.282024,0.285565,,,,,,,0.001959,-0.013363,-0.182976,0.024086,-4.5e-05,-0.000127
340177,0.001108,-0.019077,-0.282376,0.0,-0.0,-0.0,2.0,0.282024,0.276344,0.282024,0.287545,,,,,,,0.001943,-0.013364,-0.182978,-0.020765,-4.9e-05,-0.000127
340197,0.00097,-0.018974,-0.282377,0.0,-0.0,-0.0,2.0,0.282024,0.275147,0.282024,0.288668,,,,,,,0.001701,-0.013364,-0.182981,-9.9e-05,-3.8e-05,-0.000127
340217,0.000573,-0.018784,-0.28238,0.0,-0.0,-0.0,2.0,0.282024,0.275847,0.282024,0.288013,,,,,,,0.001442,-0.013365,-0.182983,-0.027492,-1.9e-05,-0.000127
340237,0.000452,-0.018801,-0.282381,0.0,-0.0,-0.0,2.0,0.282024,0.277424,0.282024,0.286519,,,,,,,0.001304,-0.013365,-0.182986,-0.024072,-2.1e-05,-0.000126
340257,0.000711,-0.018887,-0.282379,0.0,-0.0,-0.0,2.0,0.282024,0.281025,0.282024,0.283018,,,,,,,0.001441,-0.013366,-0.182988,0.000113,-2.9e-05,-0.000126
340277,0.001074,-0.018836,-0.282376,0.0,-0.0,-0.0,2.0,0.282024,0.281965,0.282024,0.282083,,,,,,,0.001683,-0.013366,-0.182991,0.024171,-2.4e-05,-0.000125
340297,0.001195,-0.018819,-0.282375,0.0,-0.0,-0.0,2.0,0.282024,0.281179,0.282024,0.282866,,,,,,,0.001924,-0.013367,-0.182994,9.9e-05,-2.2e-05,-0.000125
340317,0.001333,-0.018922,-0.282374,0.0,-0.0,-0.0,2.0,0.282024,0.278007,0.282024,0.285961,,,,,,,0.002063,-0.013367,-0.182996,-0.0001,-3.3e-05,-0.000125
340337,0.001315,-0.018801,-0.282374,0.0,-0.0,-0.0,2.0,0.282024,0.278215,0.282024,0.285761,,,,,,,0.002046,-0.013368,-0.182999,0.0,-2e-05,-0.000125
340357,0.000815,-0.018749,-0.282378,0.0,-0.0,-0.0,2.0,0.282024,0.273469,0.282024,0.290221,,,,,,,0.001667,-0.013368,-0.183001,-0.024185,-1.5e-05,-0.000125
340377,0.000434,-0.01868,-0.282265,0.0,-0.0,-0.0,2.0,0.282024,0.273671,0.282024,0.290035,,,,,,,0.001304,-0.013369,-0.183003,-0.027815,-8e-06,-0.000113
340397,0.000314,-0.018697,-0.282382,0.0,-0.0,-0.0,2.0,0.282024,0.277275,0.282024,0.286661,,,,,,,0.001165,-0.013369,-0.183006,-0.024072,-1e-05,-0.000125
340417,0.000452,-0.018801,-0.282381,0.0,-0.0,-0.0,2.0,0.282024,0.277967,0.282024,0.285999,,,,,,,0.001062,-0.013369,-0.183008,0.024087,-2e-05,-0.000124
340437,0.00059,-0.018904,-0.28238,0.0,-0.0,-0.0,2.0,0.282024,0.281047,0.282024,0.282996,,,,,,,0.00132,-0.01337,-0.183011,0.000113,-3.1e-05,-0.000124
340457,0.000832,-0.01887,-0.282378,0.0,-0.0,-0.0,2.0,0.282024,0.280131,0.282024,0.2839,,,,,,,0.001562,-0.01337,-0.183013,-1e-06,-2.7e-05,-0.000123
340477,0.001074,-0.018836,-0.282376,0.0,-0.0,-0.0,2.0,0.282024,0.281356,0.282024,0.28269,,,,,,,0.001804,-0.013371,-0.183016,9.9e-05,-2.4e-05,-0.000123
340497,0.000936,-0.018732,-0.282377,0.0,-0.0,-0.0,2.0,0.282024,0.276994,0.282024,0.286929,,,,,,,0.001666,-0.013371,-0.183018,1e-06,-1.3e-05,-0.000123
340517,0.000694,-0.018766,-0.282379,0.0,-0.0,-0.0,2.0,0.282024,0.273127,0.282024,0.290535,,,,,,,0.001425,-0.013371,-0.183021,-0.000199,-1.7e-05,-0.000123
340537,0.000452,-0.018801,-0.282381,0.0,-0.0,-0.0,2.0,0.282024,0.277649,0.282024,0.286304,,,,,,,0.001303,-0.013372,-0.183023,-0.023971,-2e-05,-0.000123
340557,0.000211,-0.018835,-0.282383,0.0,-0.0,-0.0,2.0,0.282024,0.276937,0.282024,0.286982,,,,,,,0.001062,-0.013372,-0.183026,-0.024072,-2.3e-05,-0.000123
340577,0.000331,-0.018818,-0.282382,0.0,-0.0,-0.0,2.0,0.282024,0.278258,0.282024,0.285719,,,,,,,0.001062,-0.013372,-0.183028,-0.0,-2.2e-05,-0.000122
340597,0.00059,-0.018904,-0.28238,0.0,-0.0,-0.0,2.0,0.282024,0.281082,0.282024,0.282962,,,,,,,0.001304,-0.013373,-0.183031,0.003296,-3e-05,-0.000122
340617,0.000937,-0.018732,-0.282493,0.0,-0.0,-0.0,2.0,0.282024,0.280078,0.282024,0.283951,,,,,,,0.001545,-0.013373,-0.183033,0.024295,-1.3e-05,-0.000133
340637,0.001057,-0.018715,-0.282376,0.0,-0.0,-0.0,2.0,0.282024,0.278072,0.282024,0.285898,,,,,,,0.001666,-0.013374,-0.183035,0.024072,-1.1e-05,-0.000121
340657,0.000815,-0.018749,-0.282378,0.0,-0.0,-0.0,2.0,0.282024,0.278466,0.282024,0.285519,,,,,,,0.001788,-0.013374,-0.183038,-0.048367,-1.5e-05,-0.000121
340677,0.000677,-0.018646,-0.282379,0.0,-0.0,-0.0,2.0,0.282024,0.277515,0.282024,0.286432,,,,,,,0.001545,-0.013374,-0.18304,-0.027493,-4e-06,-0.000121
340697,0.000314,-0.018697,-0.282382,0.0,-0.0,-0.0,2.0,0.282024,0.274851,0.282024,0.288944,,,,,,,0.001166,-0.013374,-0.183043,-0.024085,-9e-06,-0.000121
340717,7.3e-05,-0.018731,-0.282384,0.0,-0.0,-0.0,2.0,0.282024,0.274909,0.282024,0.28889,,,,,,,0.000924,-0.013374,-0.183045,-0.024171,-1.3e-05,-0.000121
340737,0.000193,-0.018714,-0.282383,0.0,-0.0,-0.0,2.0,0.282024,0.278016,0.282024,0.285952,,,,,,,0.000924,-0.013375,-0.183048,-0.0,-1.1e-05,-0.00012
340757,0.000435,-0.01868,-0.282381,0.0,-0.0,-0.0,2.0,0.282024,0.27916,0.282024,0.284847,,,,,,,0.001046,-0.013375,-0.18305,0.023848,-8e-06,-0.00012
340777,0.000695,-0.018766,-0.282495,0.0,-0.0,-0.0,2.0,0.282024,0.279427,0.282024,0.284588,,,,,,,0.001303,-0.013375,-0.183053,0.02431,-1.6e-05,-0.000131
340797,0.000815,-0.018749,-0.282378,0.0,-0.0,-0.0,2.0,0.282024,0.281817,0.282024,0.282231,,,,,,,0.00165,-0.013375,-0.183055,-0.020789,-1.5e-05,-0.000119
340817,0.000936,-0.018732,-0.282377,0.0,-0.0,-0.0,2.0,0.282024,0.278199,0.282024,0.285776,,,,,,,0.001545,-0.013376,-0.183058,0.024071,-1.3e-05,-0.000119
340837,0.000573,-0.018784,-0.28238,0.0,-0.0,-0.0,2.0,0.282024,0.274114,0.282024,0.289627,,,,,,,0.001304,-0.013376,-0.18306,-9.9e-05,-1.8e-05,-0.000119
340857,0.000211,-0.018835,-0.282383,0.0,-0.0,-0.0,2.0,0.282024,0.274281,0.282024,0.289473,,,,,,,0.001045,-0.013376,-0.183062,-0.020765,-2.3e-05,-0.000119
340877,7.3e-05,-0.018731,-0.282384,0.0,-0.0,-0.0,2.0,0.282024,0.276677,0.282024,0.287229,,,,,,,0.000803,-0.013377,-0.183065,0.0,-1.3e-05,-0.000119
340897,-4.8e-05,-0.018749,-0.282385,0.0,-0.0,-0.0,2.0,0.282024,0.277125,0.282024,0.286804,,,,,,,0.000682,-0.013377,-0.183067,0.0,-1.4e-05,-0.000119
340917,0.000195,-0.018714,-0.282499,0.0,-0.0,-0.0,2.0,0.282024,0.276836,0.282024,0.287079,,,,,,,0.000803,-0.013377,-0.18307,0.024211,-1.1e-05,-0.00013
340937,0.000436,-0.01868,-0.282497,0.0,-0.0,-0.0,2.0,0.282024,0.281256,0.282024,0.282789,,,,,,,0.001166,-0.013377,-0.183072,9.9e-05,-7e-06,-0.000129
340957,0.000695,-0.018766,-0.282495,0.0,-0.0,-0.0,2.0,0.282024,0.279647,0.282024,0.284373,,,,,,,0.001305,-0.013378,-0.183075,0.024071,-1.6e-05,-0.000129
340977,0.000574,-0.018783,-0.282496,0.0,-0.0,-0.0,2.0,0.282024,0.276065,0.282024,0.287808,,,,,,,0.001304,-0.013378,-0.183077,0.000126,-1.8e-05,-0.000129
340997,0.000331,-0.018818,-0.282382,0.0,-0.0,-0.0,2.0,0.282024,0.27544,0.282024,0.288394,,,,,,,0.001184,-0.013378,-0.18308,-0.024397,-2.1e-05,-0.000117
341017,9.1e-05,-0.018852,-0.2825,0.0,-0.0,-0.0,2.0,0.282024,0.276642,0.282024,0.287262,,,,,,,0.000942,-0.013379,-0.183082,-0.024086,-2.4e-05,-0.000129
341037,-0.000151,-0.018886,-0.282502,0.0,-0.0,-0.0,2.0,0.282024,0.27436,0.282024,0.2894,,,,,,,0.00058,-0.013379,-0.183085,-9.8e-05,-2.8e-05,-0.000129
341057,-0.000168,-0.018766,-0.282502,0.0,-0.0,-0.0,2.0,0.282024,0.275035,0.282024,0.288772,,,,,,,0.000442,-0.01338,-0.183087,0.023972,-1.6e-05,-0.000128
341077,-4.7e-05,-0.018748,-0.282501,0.0,-0.0,-0.0,2.0,0.282024,0.282466,0.282024,0.281582,,,,,,,0.000803,-0.01338,-0.18309,-0.023887,-1.4e-05,-0.000128
341097,0.000212,-0.018835,-0.282499,0.0,-0.0,-0.0,2.0,0.282024,0.278036,0.282024,0.285933,,,,,,,0.000822,-0.013381,-0.183093,0.023971,-2.3e-05,-0.000128
341117,0.000453,-0.018801,-0.282497,0.0,-0.0,-0.0,2.0,0.282024,0.278962,0.282024,0.285039,,,,,,,0.001063,-0.013381,-0.183095,0.024071,-1.9e-05,-0.000127
341137,0.00035,-0.018939,-0.282498,0.0,-0.0,-0.0,2.0,0.282024,0.279056,0.282024,0.284948,,,,,,,0.001201,-0.013382,-0.183098,-0.024072,-3.3e-05,-0.000127
341157,0.000229,-0.018956,-0.282499,0.0,-0.0,-0.0,2.0,0.282024,0.275285,0.282024,0.288539,,,,,,,0.00096,-0.013382,-0.1831,-9.9e-05,-3.4e-05,-0.000127
341177,-1.3e-05,-0.01899,-0.282501,0.0,-0.0,-0.0,2.0,0.282024,0.275842,0.282024,0.288017,,,,,,,0.000718,-0.013383,-0.183103,1e-06,-3.8e-05,-0.000127
341197,-0.000254,-0.019025,-0.282503,0.0,-0.0,-0.0,2.0,0.282024,0.274561,0.282024,0.289213,,,,,,,0.000476,-0.013384,-0.183105,-9.9e-05,-4.1e-05,-0.000127
341217,-0.000375,-0.019042,-0.282504,0.0,-0.0,-0.0,2.0,0.282024,0.275048,0.282024,0.288761,,,,,,,0.000356,-0.013385,-0.183108,-9.9e-05,-4.3e-05,-0.000127
341237,-0.000237,-0.019145,-0.282503,0.0,-0.0,-0.0,2.0,0.282024,0.278618,0.282024,0.285372,,,,,,,0.000476,-0.013385,-0.18311,0.003408,-5.3e-05,-0.000126
341257,-1.3e-05,-0.01899,-0.282501,0.0,-0.0,-0.0,2.0,0.282024,0.278371,0.282024,0.285611,,,,,,,0.000597,-0.013386,-0.183113,0.024071,-3.8e-05,-0.000126
341277,0.000108,-0.018973,-0.2825,0.0,-0.0,-0.0,2.0,0.282024,0.279439,0.282024,0.284575,,,,,,,0.000838,-0.013387,-0.183115,-1e-06,-3.6e-05,-0.000125
341297,0.000108,-0.018973,-0.2825,0.0,-0.0,-0.0,2.0,0.282024,0.277991,0.282024,0.285976,,,,,,,0.000838,-0.013388,-0.183118,0.0,-3.6e-05,-0.000125
341317,-1.3e-05,-0.01899,-0.282501,0.0,-0.0,-0.0,2.0,0.282024,0.276637,0.282024,0.287267,,,,,,,0.000718,-0.013389,-0.18312,1e-06,-3.7e-05,-0.000125
341337,-0.000256,-0.019025,-0.282387,0.0,-0.0,-0.0,2.0,0.282024,0.273988,0.282024,0.289744,,,,,,,0.000476,-0.013389,-0.183123,-0.000328,-4.1e-05,-0.000113
341357,-0.000375,-0.019042,-0.282504,0.0,-0.0,-0.0,2.0,0.282024,0.276046,0.282024,0.287825,,,,,,,0.000338,-0.01339,-0.183125,0.003423,-4.2e-05,-0.000125
341377,-0.000513,-0.018938,-0.282505,0.0,-0.0,-0.0,2.0,0.282024,0.276853,0.282024,0.287062,,,,,,,0.000217,-0.013391,-0.183128,0.0,-3.2e-05,-0.000125
341397,-0.000513,-0.018938,-0.282505,0.0,-0.0,-0.0,2.0,0.282024,0.275127,0.282024,0.288687,,,,,,,9.7e-05,-0.013391,-0.18313,0.023972,-3.2e-05,-0.000124
341417,-0.000375,-0.019042,-0.282504,0.0,-0.0,-0.0,2.0,0.282024,0.278762,0.282024,0.285233,,,,,,,0.000355,-0.013392,-0.183133,1.4e-05,-4.2e-05,-0.000124
341437,-0.000151,-0.018886,-0.282502,0.0,-0.0,-0.0,2.0,0.282024,0.278959,0.282024,0.285042,,,,,,,0.000459,-0.013393,-0.183135,0.024071,-2.7e-05,-0.000124
341457,-0.000151,-0.018886,-0.282502,0.0,-0.0,-0.0,2.0,0.282024,0.279163,0.282024,0.284844,,,,,,,0.000579,-0.013393,-0.183138,8.6e-05,-2.6e-05,-0.000123
341477,-0.000134,-0.019007,-0.282502,0.0,-0.0,-0.0,2.0,0.282024,0.276381,0.282024,0.287509,,,,,,,0.000597,-0.013394,-0.18314,-8.6e-05,-3.8e-05,-0.000123
341497,-0.000151,-0.018886,-0.282502,0.0,-0.0,-0.0,2.0,0.282024,0.278695,0.282024,0.285298,,,,,,,0.000579,-0.013394,-0.183143,0.0001,-2.6e-05,-0.000123
341517,-0.000375,-0.019042,-0.282504,0.0,-0.0,-0.0,2.0,0.282024,0.27476,0.282024,0.289028,,,,,,,0.000356,-0.013395,-0.183145,-9.9e-05,-4.2e-05,-0.000123
341537,-0.000496,-0.019059,-0.282505,0.0,-0.0,-0.0,2.0,0.282024,0.275052,0.282024,0.288757,,,,,,,0.000234,-0.013396,-0.183148,0.00013,-4.3e-05,-0.000123
341557,-0.000513,-0.018938,-0.282505,0.0,-0.0,-0.0,2.0,0.282024,0.277261,0.282024,0.286675,,,,,,,0.000217,-0.013397,-0.18315,0.0,-3.1e-05,-0.000122
341577,-0.000393,-0.018921,-0.282504,0.0,-0.0,-0.0,2.0,0.282024,0.278235,0.282024,0.285742,,,,,,,0.000217,-0.013397,-0.183152,0.024071,-2.9e-05,-0.000122
341597,-0.000393,-0.018921,-0.282504,0.0,-0.0,-0.0,2.0,0.282024,0.279258,0.282024,0.284752,,,,,,,0.000337,-0.013398,-0.183155,0.0001,-2.9e-05,-0.000122
341617,-0.000254,-0.019025,-0.282503,0.0,-0.0,-0.0,2.0,0.282024,0.279186,0.282024,0.284821,,,,,,,0.000476,-0.013399,-0.183157,-1e-06,-4e-05,-0.000122
341637,-0.000116,-0.019128,-0.282502,0.0,-0.0,-0.0,2.0,0.282024,0.279406,0.282024,0.284607,,,,,,,0.000614,-0.013399,-0.18316,1.4e-05,-5e-05,-0.000121
341657,-0.000116,-0.019128,-0.282502,0.0,-0.0,-0.0,2.0,0.282024,0.276644,0.282024,0.287261,,,,,,,0.000493,-0.0134,-0.183162,0.024072,-5e-05,-0.000121
341677,-0.000358,-0.019163,-0.282504,0.0,-0.0,-0.0,2.0,0.282024,0.276665,0.282024,0.287241,,,,,,,0.000493,-0.013401,-0.183165,-0.024071,-5.3e-05,-0.000121
341697,-0.000497,-0.019059,-0.282389,0.0,-0.0,-0.0,2.0,0.282024,0.277056,0.282024,0.286869,,,,,,,0.000355,-0.013402,-0.183167,-0.024301,-4.3e-05,-0.000109
341717,-0.000497,-0.019059,-0.282389,0.0,-0.0,-0.0,2.0,0.282024,0.276017,0.282024,0.287853,,,,,,,0.000112,-0.013403,-0.183169,0.024072,-4.3e-05,-0.000109
341737,-0.000497,-0.019059,-0.282389,0.0,-0.0,-0.0,2.0,0.282024,0.277785,0.282024,0.286173,,,,,,,0.000233,-0.013404,-0.183171,-0.0,-4.3e-05,-0.000109
341757,-0.000359,-0.019163,-0.282388,0.0,-0.0,-0.0,2.0,0.282024,0.278939,0.282024,0.285062,,,,,,,0.000371,-0.013405,-0.183173,-2e-06,-5.3e-05,-0.000108
341777,-9.9e-05,-0.019249,-0.282503,0.0,-0.0,-0.0,2.0,0.282024,0.280414,0.282024,0.283621,,,,,,,0.00051,-0.013406,-0.183176,0.024171,-6.1e-05,-0.00012
341797,-9.9e-05,-0.019249,-0.282503,0.0,-0.0,-0.0,2.0,0.282024,0.277279,0.282024,0.286657,,,,,,,0.000493,-0.013408,-0.183178,0.027479,-6.1e-05,-0.000119
341817,-0.000237,-0.019145,-0.282503,0.0,-0.0,-0.0,2.0,0.282024,0.275494,0.282024,0.288344,,,,,,,0.000494,-0.013409,-0.18318,-9.9e-05,-5.1e-05,-0.000119
341837,-0.000376,-0.019042,-0.282388,0.0,-0.0,-0.0,2.0,0.282024,0.276703,0.282024,0.287205,,,,,,,0.000355,-0.01341,-0.183183,-0.00023,-4e-05,-0.000108
341857,-0.000497,-0.019059,-0.282389,0.0,-0.0,-0.0,2.0,0.282024,0.274457,0.282024,0.28931,,,,,,,0.000113,-0.01341,-0.183185,0.023972,-4.2e-05,-0.000107
341877,-0.000618,-0.019076,-0.28239,0.0,-0.0,-0.0,2.0,0.282024,0.276398,0.282024,0.287493,,,,,,,0.000112,-0.013411,-0.183187,1e-06,-4.4e-05,-0.000107
341897,-0.000602,-0.019197,-0.282274,0.0,-0.0,-0.0,2.0,0.282024,0.277443,0.282024,0.286501,,,,,,,0.000112,-0.013412,-0.183189,0.003189,-5.6e-05,-9.5e-05
341917,-0.000359,-0.019163,-0.282388,0.0,-0.0,-0.0,2.0,0.282024,0.278268,0.282024,0.28571,,,,,,,0.00025,-0.013413,-0.183191,0.024072,-5.2e-05,-0.000107
341937,-0.000238,-0.019146,-0.282387,0.0,-0.0,-0.0,2.0,0.282024,0.280411,0.282024,0.283624,,,,,,,0.000491,-0.013414,-0.183194,9.9e-05,-5e-05,-0.000106
341957,-0.000118,-0.019128,-0.282386,0.0,-0.0,-0.0,2.0,0.282024,0.278505,0.282024,0.285481,,,,,,,0.000613,-0.013415,-0.183196,-0.0,-4.8e-05,-0.000106
341977,-0.000118,-0.019128,-0.282386,0.0,-0.0,-0.0,2.0,0.282024,0.280171,0.282024,0.28386,,,,,,,0.000733,-0.013416,-0.183198,-0.023972,-4.8e-05,-0.000106
341997,-0.000359,-0.019163,-0.282388,0.0,-0.0,-0.0,2.0,0.282024,0.276861,0.282024,0.287055,,,,,,,0.000492,-0.013417,-0.1832,-0.024072,-5.2e-05,-0.000106
342017,-0.000499,-0.019059,-0.282273,0.0,-0.0,-0.0,2.0,0.282024,0.275874,0.282024,0.287987,,,,,,,0.000232,-0.013418,-0.183202,1e-06,-4.1e-05,-9.4e-05
342037,-0.00074,-0.019093,-0.282275,0.0,-0.0,-0.0,2.0,0.282024,0.276388,0.282024,0.287503,,,,,,,9.5e-05,-0.013419,-0.183204,-0.020896,-4.5e-05,-9.4e-05
342057,-0.000618,-0.019076,-0.28239,0.0,-0.0,-0.0,2.0,0.282024,0.278385,0.282024,0.285597,,,,,,,0.000112,-0.01342,-0.183206,-1e-06,-4.3e-05,-0.000105
342077,-0.000497,-0.019059,-0.282389,0.0,-0.0,-0.0,2.0,0.282024,0.280176,0.282024,0.283855,,,,,,,0.00025,-0.013421,-0.183208,-0.003321,-4.1e-05,-0.000105
342097,-0.00036,-0.019163,-0.282272,0.0,-0.0,-0.0,2.0,0.282024,0.278073,0.282024,0.285897,,,,,,,0.000354,-0.013422,-0.18321,0.003175,-5.1e-05,-9.3e-05
342117,-0.000238,-0.019146,-0.282387,0.0,-0.0,-0.0,2.0,0.282024,0.280725,0.282024,0.283315,,,,,,,0.000612,-0.013423,-0.183212,-0.023972,-4.9e-05,-0.000105
342137,-0.000118,-0.019128,-0.282386,0.0,-0.0,-0.0,2.0,0.282024,0.277601,0.282024,0.28635,,,,,,,0.000492,-0.013424,-0.183214,0.024072,-4.8e-05,-0.000104
342157,-0.000359,-0.019163,-0.282388,0.0,-0.0,-0.0,2.0,0.282024,0.27569,0.282024,0.28816,,,,,,,0.000353,-0.013424,-0.183216,0.003636,-5.1e-05,-0.000104
342177,-0.000602,-0.019197,-0.282274,0.0,-0.0,-0.0,2.0,0.282024,0.275236,0.282024,0.288585,,,,,,,0.000251,-0.013425,-0.183218,-0.024389,-5.4e-05,-9.3e-05
342197,-0.00048,-0.01918,-0.282389,0.0,-0.0,-0.0,2.0,0.282024,0.27709,0.282024,0.286837,,,,,,,0.000129,-0.013426,-0.18322,0.024072,-5.2e-05,-0.000104
342217,-0.000601,-0.019197,-0.28239,0.0,-0.0,-0.0,2.0,0.282024,0.277154,0.282024,0.286776,,,,,,,0.000129,-0.013428,-0.183222,1e-06,-5.4e-05,-0.000104
342237,-0.00048,-0.01918,-0.282389,0.0,-0.0,-0.0,2.0,0.282024,0.276917,0.282024,0.287002,,,,,,,0.000251,-0.013429,-0.183224,-0.0001,-5.2e-05,-0.000103
342257,-0.000238,-0.019146,-0.282387,0.0,-0.0,-0.0,2.0,0.282024,0.280256,0.282024,0.283776,,,,,,,0.000474,-0.01343,-0.183226,0.003506,-4.9e-05,-0.000103
342277,-0.000256,-0.019025,-0.282387,0.0,-0.0,-0.0,2.0,0.282024,0.278098,0.282024,0.285873,,,,,,,0.000475,-0.01343,-0.183228,-1.5e-05,-3.7e-05,-0.000103
342297,-0.000376,-0.019042,-0.282388,0.0,-0.0,-0.0,2.0,0.282024,0.274702,0.282024,0.289083,,,,,,,0.00037,-0.013431,-0.18323,-0.003289,-3.8e-05,-0.000103
342317,-0.00048,-0.01918,-0.282389,0.0,-0.0,-0.0,2.0,0.282024,0.277129,0.282024,0.2868,,,,,,,0.000354,-0.013432,-0.183232,-0.020665,-5.2e-05,-0.000103
342337,-0.000618,-0.019076,-0.28239,0.0,-0.0,-0.0,2.0,0.282024,0.276562,0.282024,0.287338,,,,,,,0.000129,-0.013433,-0.183234,-0.003421,-4.1e-05,-0.000103
342357,-0.000739,-0.019093,-0.282391,0.0,-0.0,-0.0,2.0,0.282024,0.27336,0.282024,0.290321,,,,,,,-0.000129,-0.013434,-0.183236,0.023959,-4.3e-05,-0.000102
342377,-0.000739,-0.019093,-0.282391,0.0,-0.0,-0.0,2.0,0.282024,0.277444,0.282024,0.2865,,,,,,,-9e-06,-0.013435,-0.183239,-0.0,-4.3e-05,-0.000102
342397,-0.000515,-0.018938,-0.282389,0.0,-0.0,-0.0,2.0,0.282024,0.281006,0.282024,0.283037,,,,,,,0.000215,-0.013436,-0.183241,9.9e-05,-2.7e-05,-0.000102
342417,-0.000394,-0.018921,-0.282388,0.0,-0.0,-0.0,2.0,0.282024,0.277762,0.282024,0.286196,,,,,,,0.000216,-0.013436,-0.183243,0.024072,-2.6e-05,-0.000102
342437,-0.000376,-0.019042,-0.282388,0.0,-0.0,-0.0,2.0,0.282024,0.278811,0.282024,0.285185,,,,,,,0.000475,-0.013437,-0.183245,-0.024058,-3.8e-05,-0.000101
342457,-0.000376,-0.019042,-0.282388,0.0,-0.0,-0.0,2.0,0.282024,0.278533,0.282024,0.285454,,,,,,,0.000475,-0.013437,-0.183247,-0.024072,-3.8e-05,-0.000101
342477,-0.000497,-0.019059,-0.282389,0.0,-0.0,-0.0,2.0,0.282024,0.274721,0.282024,0.289065,,,,,,,0.000234,-0.013438,-0.183249,-9.9e-05,-3.9e-05,-0.000101
342497,-0.000739,-0.019093,-0.282391,0.0,-0.0,-0.0,2.0,0.282024,0.275977,0.282024,0.287891,,,,,,,0.000112,-0.013439,-0.183251,-0.024071,-4.3e-05,-0.000101
342517,-0.000756,-0.018973,-0.282391,0.0,-0.0,-0.0,2.0,0.282024,0.276624,0.282024,0.287279,,,,,,,-2.6e-05,-0.01344,-0.183253,-1.4e-05,-3e-05,-0.000101
342537,-0.000756,-0.018973,-0.282391,0.0,-0.0,-0.0,2.0,0.282024,0.277224,0.282024,0.28671,,,,,,,-2.6e-05,-0.013441,-0.183255,0.0,-3e-05,-0.000101
342557,-0.000515,-0.018938,-0.282389,0.0,-0.0,-0.0,2.0,0.282024,0.278062,0.282024,0.285908,,,,,,,9.5e-05,-0.013441,-0.183257,0.024072,-2.7e-05,-0.0001
342577,-0.000394,-0.018921,-0.282388,0.0,-0.0,-0.0,2.0,0.282024,0.278197,0.282024,0.285778,,,,,,,0.000216,-0.013442,-0.183258,0.024072,-2.5e-05,-0.0001
342597,-0.000256,-0.019025,-0.282387,0.0,-0.0,-0.0,2.0,0.282024,0.27896,0.282024,0.285041,,,,,,,0.000458,-0.013442,-0.183261,0.00342,-3.5e-05,-0.0001
342617,-0.000256,-0.019025,-0.282387,0.0,-0.0,-0.0,2.0,0.282024,0.277702,0.282024,0.286253,,,,,,,0.000475,-0.013443,-0.183263,-0.0,-3.5e-05,-9.9e-05
342637,-0.000497,-0.019059,-0.282389,0.0,-0.0,-0.0,2.0,0.282024,0.278057,0.282024,0.285912,,,,,,,0.000353,-0.013444,-0.183265,-0.023972,-3.9e-05,-9.9e-05
342657,-0.000756,-0.018973,-0.282391,0.0,-0.0,-0.0,2.0,0.282024,0.27445,0.282024,0.289317,,,,,,,9.5e-05,-0.013444,-0.183267,-0.024172,-3e-05,-9.9e-05
342677,-0.000756,-0.018973,-0.282391,0.0,-0.0,-0.0,2.0,0.282024,0.27926,0.282024,0.28475,,,,,,,9.4e-05,-0.013445,-0.183269,-0.023972,-3e-05,-9.9e-05
342697,-0.000756,-0.018973,-0.282391,0.0,-0.0,-0.0,2.0,0.282024,0.277149,0.282024,0.286781,,,,,,,-2.6e-05,-0.013445,-0.183271,0.0,-3e-05,-9.9e-05
342717,-0.000618,-0.019076,-0.28239,0.0,-0.0,-0.0,2.0,0.282024,0.278329,0.282024,0.285651,,,,,,,0.000112,-0.013446,-0.183273,1.4e-05,-4e-05,-9.9e-05
342737,-0.000376,-0.019042,-0.282388,0.0,-0.0,-0.0,2.0,0.282024,0.280218,0.282024,0.283814,,,,,,,0.000336,-0.013447,-0.183275,0.003506,-3.7e-05,-9.8e-05
342757,-0.000254,-0.019025,-0.282503,0.0,-0.0,-0.0,2.0,0.282024,0.280376,0.282024,0.283659,,,,,,,0.000474,-0.013447,-0.183276,0.000329,-3.5e-05,-0.00011
342777,-0.000256,-0.019025,-0.282387,0.0,-0.0,-0.0,2.0,0.282024,0.277975,0.282024,0.285991,,,,,,,0.000492,-0.013448,-0.183279,-0.003407,-3.5e-05,-9.8e-05
342797,-0.000376,-0.019042,-0.282388,0.0,-0.0,-0.0,2.0,0.282024,0.275025,0.282024,0.288781,,,,,,,0.000354,-0.013449,-0.183281,-0.0001,-3.6e-05,-9.8e-05
342817,-0.000635,-0.018955,-0.28239,0.0,-0.0,-0.0,2.0,0.282024,0.276629,0.282024,0.287275,,,,,,,0.000234,-0.01345,-0.183283,-0.027722,-2.8e-05,-9.8e-05
342837,-0.000756,-0.018973,-0.282391,0.0,-0.0,-0.0,2.0,0.282024,0.276303,0.282024,0.287583,,,,,,,-2.6e-05,-0.01345,-0.183285,0.0,-2.9e-05,-9.8e-05
342857,-0.000756,-0.018973,-0.282391,0.0,-0.0,-0.0,2.0,0.282024,0.277183,0.282024,0.286749,,,,,,,-2.6e-05,-0.013451,-0.183286,-0.0,-2.9e-05,-9.7e-05
342877,-0.000635,-0.018955,-0.28239,0.0,-0.0,-0.0,2.0,0.282024,0.278569,0.282024,0.285419,,,,,,,9.5e-05,-0.013451,-0.183289,-1e-06,-2.8e-05,-9.7e-05
342897,-0.000375,-0.019042,-0.282504,0.0,-0.0,-0.0,2.0,0.282024,0.28072,0.282024,0.28332,,,,,,,0.000353,-0.013452,-0.183291,0.000329,-3.6e-05,-0.000108
342917,-0.000256,-0.019025,-0.282387,0.087266,-0.0,-0.0,2.0,0.282024,0.233458,0.282024,0.320753,,,,,,,0.000475,-0.013453,-0.183293,-0.0,-3.4e-05,-9.6e-05
342937,-0.000238,-0.019146,-0.282387,0.087266,-0.0,-0.0,2.0,0.282024,0.230999,0.282024,0.32228,,,,,,,0.000476,-0.013453,-0.183295,0.003192,-4.6e-05,-9.6e-05
342957,-0.000254,-0.019025,-0.282503,0.087266,-0.0,-0.0,2.0,0.282024,0.23586,0.282024,0.319226,,,,,,,0.000613,-0.013454,-0.183297,-0.027294,-3.4e-05,-0.000108
342977,0.000124,-0.019094,-0.282384,0.087266,-0.0,-0.0,2.0,0.282024,0.231779,0.282024,0.321799,,,,,,,0.000596,-0.013455,-0.183299,0.05155,-4.1e-05,-9.6e-05
342997,0.000987,-0.019095,-0.282377,0.087266,-0.0,-0.0,2.0,0.282024,0.241021,0.282024,0.315828,,,,,,,0.001475,-0.013456,-0.183301,0.048356,-4.1e-05,-9.5e-05
343017,0.002731,-0.019217,-0.282362,0.087266,-0.0,-0.0,2.0,0.282024,0.251973,0.282024,0.308046,,,,,,,0.003062,-0.013457,-0.183303,0.079466,-5.3e-05,-9.3e-05
343037,0.005304,-0.019097,-0.282453,0.087266,-0.0,-0.0,2.0,0.282024,0.260633,0.282024,0.301302,,,,,,,0.00529,-0.013457,-0.183304,0.148358,-4.1e-05,-0.000102
343057,0.008637,-0.019117,-0.282584,0.087266,-0.0,-0.0,2.0,0.282024,0.270931,0.282024,0.292523,,,,,,,0.008363,-0.013458,-0.183307,0.200229,-4.3e-05,-0.000115
343077,0.012576,-0.019048,-0.282767,0.087266,-0.0,-0.0,2.0,0.282024,0.277196,0.282024,0.286736,,,,,,,0.012196,-0.013459,-0.183309,0.221064,-3.6e-05,-0.000133
343097,0.017257,-0.018996,-0.282984,0.087266,-0.0,-0.0,2.0,0.282024,0.285799,0.282024,0.278175,,,,,,,0.016774,-0.01346,-0.183312,0.241615,-3.1e-05,-0.000154
343117,0.022474,-0.019235,-0.283298,0.087266,-0.0,-0.0,2.0,0.282024,0.294437,0.282024,0.26877,,,,,,,0.021955,-0.013461,-0.183315,0.248936,-5.5e-05,-0.000185
343137,0.028072,-0.019541,-0.283591,0.087266,-0.0,-0.0,2.0,0.282024,0.298936,0.282024,0.263509,,,,,,,0.027414,-0.013462,-0.183319,0.276524,-8.5e-05,-0.000214
343157,0.033653,-0.019721,-0.283988,0.087266,-0.0,-0.0,2.0,0.282024,0.302894,0.282024,0.258651,,,,,,,0.032995,-0.013464,-0.183324,0.27662,-0.000103,-0.000253
343177,0.038973,-0.019817,-0.284146,0.087266,-0.0,-0.0,2.0,0.282024,0.301578,0.282024,0.260292,,,,,,,0.038334,-0.013466,-0.183329,0.272884,-0.000112,-0.000269
343197,0.043794,-0.019857,-0.284423,0.087266,-0.0,-0.0,2.0,0.282024,0.298619,0.282024,0.263888,,,,,,,0.043414,-0.013468,-0.183334,0.221077,-0.000116,-0.000296
343217,0.048254,-0.019951,-0.284634,0.087266,-0.0,-0.0,2.0,0.282024,0.29783,0.282024,0.264828,,,,,,,0.047993,-0.013471,-0.18334,0.197466,-0.000125,-0.000316
343237,0.051952,-0.019906,-0.284811,0.087266,-0.0,-0.0,2.0,0.282024,0.292668,0.282024,0.270768,,,,,,,0.051811,-0.013473,-0.183347,0.173479,-0.00012,-0.000333
343257,0.054783,-0.019865,-0.284842,0.087266,-0.0,-0.0,2.0,0.282024,0.283806,0.282024,0.280226,,,,,,,0.054786,-0.013475,-0.183354,0.144862,-0.000116,-0.000336
343277,0.057013,-0.01991,-0.284938,0.087266,-0.0,-0.0,2.0,0.282024,0.278553,0.282024,0.285435,,,,,,,0.057241,-0.013478,-0.18336,0.100076,-0.00012,-0.000345
343297,0.058739,-0.019907,-0.284883,0.087266,-0.0,-0.0,2.0,0.282024,0.275892,0.282024,0.28797,,,,,,,0.059105,-0.01348,-0.183367,0.072582,-0.00012,-0.000338
343317,0.059743,-0.02001,-0.284899,0.087266,-0.0,-0.0,2.0,0.282024,0.26827,0.282024,0.294875,,,,,,,0.060231,-0.013483,-0.183374,0.048328,-0.00013,-0.000339
343337,0.060503,-0.020147,-0.284871,0.087266,-0.0,-0.0,2.0,0.282024,0.264569,0.282024,0.298048,,,,,,,0.061095,-0.013485,-0.183381,0.027466,-0.000143,-0.000336
343357,0.061107,-0.020056,-0.284968,0.087266,-0.0,-0.0,2.0,0.282024,0.264692,0.282024,0.297944,,,,,,,0.061715,-0.013488,-0.183388,0.024391,-0.000134,-0.000345
343377,0.061607,-0.020111,-0.284834,0.087266,-0.0,-0.0,2.0,0.282024,0.262206,0.282024,0.300016,,,,,,,0.062216,-0.013491,-0.183394,0.024155,-0.000139,-0.000331
343397,0.062211,-0.020023,-0.284816,0.087266,-0.0,-0.0,2.0,0.282024,0.26341,0.282024,0.299019,,,,,,,0.062821,-0.013494,-0.183401,0.02402,-0.00013,-0.000328
343417,0.063303,-0.019863,-0.28495,0.087266,-0.0,-0.0,2.0,0.282024,0.263781,0.282024,0.298709,,,,,,,0.063303,-0.013496,-0.183406,0.072266,-0.000119,-0.000326
343437,0.064423,-0.019951,-0.284793,0.087266,-0.0,-0.0,2.0,0.282024,0.271618,0.282024,0.291905,,,,,,,0.064893,-0.013499,-0.183414,0.051854,-0.000122,-0.000325
343457,0.066149,-0.019948,-0.284732,0.087266,-0.0,-0.0,2.0,0.282024,0.275734,0.282024,0.288118,,,,,,,0.066516,-0.013501,-0.183421,0.072347,-0.000122,-0.000318
343477,0.068379,-0.019993,-0.284818,0.087266,-0.0,-0.0,2.0,0.282024,0.283114,0.282024,0.280928,,,,,,,0.068607,-0.013503,-0.183427,0.100171,-0.000126,-0.000326
343497,0.070972,-0.019989,-0.284773,0.087266,-0.0,-0.0,2.0,0.282024,0.28466,0.282024,0.279352,,,,,,,0.070837,-0.013506,-0.183434,0.172319,-0.000125,-0.000321
343517,0.073702,-0.020088,-0.284717,0.087266,-0.0,-0.0,2.0,0.282024,0.290579,0.282024,0.273079,,,,,,,0.073821,-0.013509,-0.18344,0.121801,-0.000135,-0.000315
343537,0.077037,-0.02009,-0.284869,0.087266,-0.0,-0.0,2.0,0.282024,0.296337,0.282024,0.266581,,,,,,,0.077022,-0.013511,-0.183447,0.148556,-0.000135,-0.000329
343557,0.080372,-0.020096,-0.284899,0.087266,-0.0,-0.0,2.0,0.282024,0.300017,0.282024,0.262204,,,,,,,0.080357,-0.013514,-0.183453,0.148548,-0.000135,-0.000332
343577,0.083707,-0.020101,-0.284926,0.087266,-0.0,-0.0,2.0,0.282024,0.298874,0.282024,0.263584,,,,,,,0.08357,-0.013517,-0.18346,0.172592,-0.000136,-0.000334
343597,0.087046,-0.020107,-0.284998,0.087266,-0.0,-0.0,2.0,0.282024,0.301318,0.282024,0.260613,,,,,,,0.087026,-0.013519,-0.183466,0.149593,-0.000136,-0.00034
343617,0.090139,-0.020152,-0.284909,0.087266,-0.0,-0.0,2.0,0.282024,0.299681,0.282024,0.262611,,,,,,,0.090125,-0.013522,-0.183473,0.148235,-0.00014,-0.000331
343637,0.092991,-0.02022,-0.285058,0.087266,-0.0,-0.0,2.0,0.282024,0.298425,0.282024,0.264121,,,,,,,0.092977,-0.013525,-0.18348,0.148389,-0.000147,-0.000345
343657,0.09548,-0.020352,-0.284986,0.087266,-0.0,-0.0,2.0,0.282024,0.296595,0.282024,0.26628,,,,,,,0.095587,-0.013528,-0.183487,0.124157,-0.000159,-0.000337
343677,0.097711,-0.020392,-0.285044,0.087266,-0.0,-0.0,2.0,0.282024,0.294549,0.282024,0.268643,,,,,,,0.097318,-0.01353,-0.183492,0.124053,-0.000159,-0.000333
343697,0.099441,-0.020388,-0.28501,0.087266,-0.0,-0.0,2.0,0.282024,0.291249,0.282024,0.272343,,,,,,,0.099308,-0.013534,-0.183498,0.096464,-0.000156,-0.00034
343717,0.100913,-0.020292,-0.285108,0.087266,-0.0,-0.0,2.0,0.282024,0.291129,0.282024,0.272476,,,,,,,0.1014,-0.013538,-0.183507,0.048474,-0.000153,-0.000347
343737,0.102017,-0.020254,-0.285054,0.087266,-0.0,-0.0,2.0,0.282024,0.288178,0.282024,0.27567,,,,,,,0.102262,-0.01354,-0.183512,0.048452,-0.000152,-0.000342
343757,0.103006,-0.020235,-0.285055,0.087266,-0.0,-0.0,2.0,0.282024,0.285051,0.282024,0.27895,,,,,,,0.103494,-0.013544,-0.183521,0.048275,-0.000146,-0.00034
343777,0.103644,-0.020388,-0.285017,0.087266,-0.0,-0.0,2.0,0.282024,0.282413,0.282024,0.281634,,,,,,,0.104236,-0.013547,-0.183528,0.027533,-0.000161,-0.000336
343797,0.104368,-0.020276,-0.2851,0.087266,-0.0,-0.0,2.0,0.282024,0.282217,0.282024,0.281831,,,,,,,0.104857,-0.01355,-0.183534,0.048166,-0.00015,-0.000343
343817,0.104995,-0.020309,-0.285117,0.087266,-0.0,-0.0,2.0,0.282024,0.282343,0.282024,0.281704,,,,,,,0.105484,-0.013553,-0.183541,0.048172,-0.000153,-0.000345
343837,0.105616,-0.020342,-0.285084,0.087266,-0.0,-0.0,2.0,0.282024,0.284012,0.282024,0.280016,,,,,,,0.106225,-0.013556,-0.183548,0.024146,-0.000156,-0.00034
343857,0.10646,-0.020219,-0.285045,0.087266,-0.0,-0.0,2.0,0.282024,0.286261,0.282024,0.277694,,,,,,,0.106949,-0.013559,-0.183555,0.04826,-0.000143,-0.000336
343877,0.107329,-0.020216,-0.28505,0.087266,-0.0,-0.0,2.0,0.282024,0.285514,0.282024,0.278471,,,,,,,0.107576,-0.013561,-0.18356,0.044661,-0.000134,-0.000338
343897,0.108432,-0.020172,-0.285109,0.087266,-0.0,-0.0,2.0,0.282024,0.28981,0.282024,0.273916,,,,,,,0.108921,-0.013565,-0.183569,0.048273,-0.000138,-0.000341
343917,0.109663,-0.020117,-0.285097,0.087266,-0.0,-0.0,2.0,0.282024,0.291655,0.282024,0.271895,,,,,,,0.109782,-0.013567,-0.183573,0.073806,-0.000136,-0.00034
343937,0.111025,-0.020165,-0.285022,0.087266,-0.0,-0.0,2.0,0.282024,0.291157,0.282024,0.272445,,,,,,,0.110996,-0.013569,-0.18358,0.075691,-0.000131,-0.000322
343957,0.112376,-0.020092,-0.285003,0.087266,-0.0,-0.0,2.0,0.282024,0.292873,0.282024,0.270539,,,,,,,0.112744,-0.013573,-0.183589,0.072283,-0.000129,-0.000328
343977,0.113883,-0.020236,-0.28508,0.087266,-0.0,-0.0,2.0,0.282024,0.295908,0.282024,0.267079,,,,,,,0.11387,-0.013575,-0.183593,0.09993,-0.000147,-0.000337
343997,0.115493,-0.020248,-0.285041,0.087266,-0.0,-0.0,2.0,0.282024,0.296366,0.282024,0.266547,,,,,,,0.115353,-0.013577,-0.1836,0.075841,-0.000152,-0.000317
344017,0.116716,-0.020192,-0.284974,0.087266,-0.0,-0.0,2.0,0.282024,0.295459,0.282024,0.267599,,,,,,,0.116825,-0.01358,-0.183607,0.072274,-0.00013,-0.000326
344037,0.118068,-0.020119,-0.284952,0.087266,-0.0,-0.0,2.0,0.282024,0.297557,0.282024,0.26515,,,,,,,0.118194,-0.013583,-0.183613,0.072386,-0.000134,-0.000334
344057,0.119178,-0.020074,-0.285058,0.087266,-0.0,-0.0,2.0,0.282024,0.295403,0.282024,0.267663,,,,,,,0.119676,-0.013586,-0.183621,0.046311,-0.000126,-0.000331
344077,0.12016,-0.020054,-0.285002,0.087266,-0.0,-0.0,2.0,0.282024,0.293716,0.282024,0.269589,,,,,,,0.120408,-0.013588,-0.183626,0.048146,-0.000127,-0.000326
344097,0.120919,-0.020197,-0.284835,0.087266,-0.0,-0.0,2.0,0.282024,0.294067,0.282024,0.269191,,,,,,,0.121269,-0.013591,-0.183633,0.048243,-0.000127,-0.00032
344117,0.121409,-0.020119,-0.284977,0.087266,-0.0,-0.0,2.0,0.282024,0.291819,0.282024,0.271714,,,,,,,0.121897,-0.013593,-0.183639,0.02759,-0.000143,-0.000321
344137,0.12165,-0.020083,-0.284965,0.087266,-0.0,-0.0,2.0,0.282024,0.289255,0.282024,0.274517,,,,,,,0.122277,-0.013596,-0.183645,0.020568,-0.000126,-0.000319
344157,0.121788,-0.020186,-0.284952,0.087266,-0.0,-0.0,2.0,0.282024,0.286805,0.282024,0.277123,,,,,,,0.122519,-0.013599,-0.183653,-0.0001,-0.000136,-0.000317
344177,0.121908,-0.020169,-0.284946,0.087266,-0.0,-0.0,2.0,0.282024,0.28807,0.282024,0.275786,,,,,,,0.122622,-0.013601,-0.183658,0.003437,-0.000134,-0.000316
344197,0.121908,-0.020169,-0.284946,0.087266,-0.0,-0.0,2.0,0.282024,0.28757,0.282024,0.276317,,,,,,,0.122639,-0.013604,-0.183664,-0.0,-0.000134,-0.000315
344217,0.121891,-0.020048,-0.284952,0.087266,-0.0,-0.0,2.0,0.282024,0.287723,0.282024,0.276155,,,,,,,0.122639,-0.013607,-0.183672,-0.003452,-0.000121,-0.000315
344237,0.121908,-0.020169,-0.284946,0.087266,-0.0,-0.0,2.0,0.282024,0.287793,0.282024,0.27608,,,,,,,0.122621,-0.013609,-0.183677,0.003452,-0.000133,-0.000314
344257,0.122012,-0.020031,-0.284946,0.087266,-0.0,-0.0,2.0,0.282024,0.290108,0.282024,0.273593,,,,,,,0.122742,-0.013612,-0.183683,0.00354,-0.000131,-0.000313
344277,0.122132,-0.020013,-0.28494,0.087266,-0.0,-0.0,2.0,0.282024,0.290891,0.282024,0.272737,,,,,,,0.122879,-0.013614,-0.18369,9.9e-05,-0.000129,-0.000311
344297,0.122391,-0.020091,-0.285036,0.087266,-0.0,-0.0,2.0,0.282024,0.290063,0.282024,0.273642,,,,,,,0.123001,-0.013617,-0.183696,0.02405,-0.000124,-0.000321
344317,0.12276,-0.020038,-0.285069,0.087266,-0.0,-0.0,2.0,0.282024,0.292096,0.282024,0.271407,,,,,,,0.123362,-0.01362,-0.183704,0.025661,-0.000119,-0.000323
344337,0.123002,-0.020003,-0.285056,0.087266,-0.0,-0.0,2.0,0.282024,0.290862,0.282024,0.272769,,,,,,,0.123611,-0.013622,-0.18371,0.024009,-0.000115,-0.000322
344357,0.123243,-0.019967,-0.285044,0.087266,-0.0,-0.0,2.0,0.282024,0.292886,0.282024,0.270524,,,,,,,0.123973,-0.013625,-0.183716,9.9e-05,-0.000111,-0.00032
344377,0.123605,-0.019914,-0.285025,0.087266,-0.0,-0.0,2.0,0.282024,0.293725,0.282024,0.269579,,,,,,,0.124214,-0.013626,-0.183721,9.9e-05,-0.000108,-0.000318
344397,0.123863,-0.02,-0.285005,0.087266,-0.0,-0.0,2.0,0.282024,0.293632,0.282024,0.269685,,,,,,,0.124472,-0.013629,-0.183728,0.000113,-0.000116,-0.000315
344417,0.124122,-0.020085,-0.284985,0.087266,-0.0,-0.0,2.0,0.282024,0.293875,0.282024,0.26941,,,,,,,0.124834,-0.013631,-0.183735,0.003551,-0.000122,-0.000312
344437,0.124242,-0.020067,-0.284979,0.087266,-0.0,-0.0,2.0,0.282024,0.293612,0.282024,0.269707,,,,,,,0.124972,-0.013633,-0.18374,9.9e-05,-0.000121,-0.000311
344457,0.124363,-0.02005,-0.284973,0.087266,-0.0,-0.0,2.0,0.282024,0.292453,0.282024,0.271008,,,,,,,0.125093,-0.013636,-0.183746,-1e-06,-0.000119,-0.00031
344477,0.124483,-0.020032,-0.284966,0.087266,-0.0,-0.0,2.0,0.282024,0.292621,0.282024,0.270821,,,,,,,0.125214,-0.013638,-0.183752,-1e-06,-0.000117,-0.000308
344497,0.124466,-0.019912,-0.284973,0.087266,-0.0,-0.0,2.0,0.282024,0.291525,0.282024,0.272039,,,,,,,0.125196,-0.01364,-0.183759,0.0,-0.000104,-0.000308
344517,0.124225,-0.019947,-0.284986,0.087266,-0.0,-0.0,2.0,0.282024,0.29063,0.282024,0.273023,,,,,,,0.125076,-0.013642,-0.183765,1e-06,-0.000106,-0.000308
344537,0.124225,-0.019947,-0.284986,0.087266,-0.0,-0.0,2.0,0.282024,0.291296,0.282024,0.272292,,,,,,,0.124955,-0.013644,-0.183771,0.003452,-0.000119,-0.000308
344557,0.124242,-0.020067,-0.284979,0.087266,-0.0,-0.0,2.0,0.282024,0.290919,0.282024,0.272706,,,,,,,0.124835,-0.013647,-0.183777,0.024021,-0.000107,-0.000308
344577,0.124122,-0.020085,-0.284985,0.087266,-0.0,-0.0,2.0,0.282024,0.293739,0.282024,0.269564,,,,,,,0.124972,-0.013649,-0.183783,0.0001,-0.000119,-0.000307
344597,0.124225,-0.019947,-0.284986,0.087266,-0.0,-0.0,2.0,0.282024,0.293203,0.282024,0.270168,,,,,,,0.124973,-0.013651,-0.183789,-1e-06,-0.000119,-0.000306
344617,0.124363,-0.02005,-0.284973,0.087266,-0.0,-0.0,2.0,0.282024,0.293083,0.282024,0.270304,,,,,,,0.124972,-0.013654,-0.183796,0.020581,-0.000105,-0.000305
344637,0.124483,-0.020032,-0.284966,0.087266,-0.0,-0.0,2.0,0.282024,0.295296,0.282024,0.267787,,,,,,,0.125196,-0.013656,-0.183802,8.5e-05,-0.000103,-0.000304
344657,0.124474,-0.019912,-0.285025,0.087266,-0.0,-0.0,2.0,0.282024,0.293573,0.282024,0.269752,,,,,,,0.125222,-0.013658,-0.183808,0.0,-0.000114,-0.000319
344677,0.124371,-0.020042,-0.28514,0.087266,-0.0,-0.0,2.0,0.282024,0.29269,0.282024,0.270744,,,,,,,0.125101,-0.01366,-0.183814,0.02404,-0.000114,-0.000319
344697,0.124242,-0.02006,-0.285095,0.087266,-0.0,-0.0,2.0,0.282024,0.293112,0.282024,0.27027,,,,,,,0.125093,-0.013662,-0.18382,-0.024028,-0.000118,-0.000303
344717,0.124122,-0.020085,-0.284985,0.087266,-0.0,-0.0,2.0,0.282024,0.293802,0.282024,0.269492,,,,,,,0.12499,-0.013665,-0.183827,-0.003469,-0.000117,-0.000302
344737,0.124001,-0.020103,-0.284992,0.087266,-0.0,-0.0,2.0,0.282024,0.293349,0.282024,0.270004,,,,,,,0.124852,-0.013667,-0.183833,0.0,-0.000118,-0.000314
344757,0.123984,-0.019974,-0.285115,0.087266,-0.0,-0.0,2.0,0.282024,0.295715,0.282024,0.267303,,,,,,,0.124851,-0.01367,-0.183839,-0.02389,-0.00012,-0.000314
344777,0.124104,-0.019957,-0.285108,0.087266,-0.0,-0.0,2.0,0.282024,0.294087,0.282024,0.269169,,,,,,,0.124714,-0.013672,-0.183845,0.02402,-0.000106,-0.000302
344797,0.124104,-0.019964,-0.284992,0.087266,-0.0,-0.0,2.0,0.282024,0.294813,0.282024,0.268341,,,,,,,0.124835,-0.013674,-0.183851,-0.0,-0.000105,-0.000313
344817,0.124225,-0.019939,-0.285102,0.087266,-0.0,-0.0,2.0,0.282024,0.295934,0.282024,0.267049,,,,,,,0.124955,-0.013676,-0.183857,-0.0,-0.000103,-0.000311
344837,0.124363,-0.020042,-0.285089,0.087266,-0.0,-0.0,2.0,0.282024,0.295293,0.282024,0.267789,,,,,,,0.124973,-0.013678,-0.183864,0.024022,-0.000114,-0.000298
344857,0.124242,-0.02006,-0.285095,0.087266,-0.0,-0.0,2.0,0.282024,0.295562,0.282024,0.267479,,,,,,,0.125093,-0.013681,-0.18387,-0.0,-0.000113,-0.000309
344877,0.124242,-0.02006,-0.285095,0.087266,-0.0,-0.0,2.0,0.282024,0.296045,0.282024,0.266921,,,,,,,0.125093,-0.013683,-0.183876,2.5e-05,-0.000113,-0.000308
344897,0.124104,-0.019964,-0.284992,0.087266,-0.0,-0.0,2.0,0.282024,0.294804,0.282024,0.268351,,,,,,,0.124963,-0.013685,-0.183882,-0.025562,-0.000104,-0.00031
344917,0.123966,-0.019854,-0.285122,0.087266,-0.0,-0.0,2.0,0.282024,0.295431,0.282024,0.267631,,,,,,,0.124835,-0.013687,-0.183888,-0.0,-0.000104,-0.000309
344937,0.123846,-0.019872,-0.285128,0.087266,-0.0,-0.0,2.0,0.282024,0.295261,0.282024,0.267827,,,,,,,0.124697,-0.013689,-0.183894,0.0,-9.4e-05,-0.000298
344957,0.123725,-0.019897,-0.285018,0.087266,-0.0,-0.0,2.0,0.282024,0.292888,0.282024,0.270522,,,,,,,0.124439,-0.013691,-0.1839,0.003315,-9.8e-05,-0.000299
344977,0.123725,-0.019897,-0.285018,0.087266,-0.0,-0.0,2.0,0.282024,0.29638,0.282024,0.266531,,,,,,,0.124473,-0.013693,-0.183906,-0.003438,-9.8e-05,-0.000298
344997,0.123742,-0.020017,-0.285011,0.087266,-0.0,-0.0,2.0,0.282024,0.296557,0.282024,0.266325,,,,,,,0.124473,-0.013695,-0.183912,-0.0,-0.000109,-0.000297
345017,0.123742,-0.020017,-0.285011,0.087266,-0.0,-0.0,2.0,0.282024,0.296791,0.282024,0.26605,,,,,,,0.124473,-0.013697,-0.183918,-1.1e-05,-0.00011,-0.000285
345037,0.123863,-0.020007,-0.284889,0.087266,-0.0,-0.0,2.0,0.282024,0.296887,0.282024,0.265938,,,,,,,0.124473,-0.013699,-0.183924,0.023995,-0.000108,-0.000283
345057,0.123863,-0.020007,-0.284889,0.087266,-0.0,-0.0,2.0,0.282024,0.297354,0.282024,0.265389,,,,,,,0.124593,-0.013701,-0.18393,-2.5e-05,-0.000108,-0.000283
345077,0.123863,-0.02,-0.285005,0.087266,-0.0,-0.0,2.0,0.282024,0.297293,0.282024,0.265461,,,,,,,0.124593,-0.013704,-0.183935,2.5e-05,-0.000107,-0.000294
345097,0.123984,-0.01999,-0.284883,0.087266,-0.0,-0.0,2.0,0.282024,0.29969,0.282024,0.2626,,,,,,,0.124713,-0.013706,-0.183941,-0.003353,-9.3e-05,-0.000282
345117,0.124001,-0.02011,-0.284876,0.087266,-0.0,-0.0,2.0,0.282024,0.297588,0.282024,0.265114,,,,,,,0.124697,-0.013708,-0.183947,0.003438,-0.000105,-0.000281
345137,0.123863,-0.020007,-0.284889,0.087266,-0.0,-0.0,2.0,0.282024,0.295638,0.282024,0.267392,,,,,,,0.124594,-0.01371,-0.183953,-0.000124,-0.000107,-0.000281
345157,0.123742,-0.020025,-0.284896,0.087266,-0.0,-0.0,2.0,0.282024,0.295854,0.282024,0.267142,,,,,,,0.124491,-0.013712,-0.183958,-0.003526,-0.000108,-0.000292
345177,0.123639,-0.020163,-0.284895,0.087266,-0.0,-0.0,2.0,0.282024,0.298312,0.282024,0.264255,,,,,,,0.12449,-0.013714,-0.183964,-0.02746,-0.00011,-0.000281
345197,0.123501,-0.02006,-0.284908,0.087266,-0.0,-0.0,2.0,0.282024,0.295749,0.282024,0.267263,,,,,,,0.124232,-0.013717,-0.183969,-9.9e-05,-0.000111,-0.000281
345217,0.12326,-0.020096,-0.284921,0.087266,-0.0,-0.0,2.0,0.282024,0.297163,0.282024,0.265614,,,,,,,0.124111,-0.013719,-0.183975,-0.024047,-0.000115,-0.000282
345237,0.123243,-0.019975,-0.284928,0.087266,-0.0,-0.0,2.0,0.282024,0.298264,0.282024,0.264312,,,,,,,0.12399,-0.013721,-0.183981,2.7e-05,-0.000114,-0.000293
345257,0.123277,-0.020208,-0.28503,0.087266,-0.0,-0.0,2.0,0.282024,0.298868,0.282024,0.26359,,,,,,,0.12399,-0.013723,-0.183986,-0.0,-0.000114,-0.00028
345277,0.123398,-0.020198,-0.284907,0.087266,-0.0,-0.0,2.0,0.282024,0.298986,0.282024,0.263449,,,,,,,0.12399,-0.013726,-0.183992,0.027474,-0.000124,-0.000278
345297,0.123518,-0.020181,-0.284901,0.087266,-0.0,-0.0,2.0,0.282024,0.300654,0.282024,0.261428,,,,,,,0.124249,-0.013728,-0.183998,-0.024049,-0.000124,-0.000278
345317,0.123518,-0.020181,-0.284901,0.087266,-0.0,-0.0,2.0,0.282024,0.299864,0.282024,0.26239,,,,,,,0.124249,-0.013731,-0.184003,-0.0,-0.000121,-0.000288
345337,0.123519,-0.020173,-0.285017,0.087266,-0.0,-0.0,2.0,0.282024,0.299567,0.282024,0.262749,,,,,,,0.124249,-0.013733,-0.184009,1.4e-05,-0.000121,-0.000288
345357,0.123398,-0.020191,-0.285023,0.087266,-0.0,-0.0,2.0,0.282024,0.299835,0.282024,0.262425,,,,,,,0.124249,-0.013736,-0.184015,-0.024021,-0.000123,-0.000276
345377,0.123157,-0.020234,-0.28492,0.087266,-0.0,-0.0,2.0,0.282024,0.297234,0.282024,0.265531,,,,,,,0.123991,-0.013738,-0.18402,0.003312,-0.000125,-0.000276
345397,0.123019,-0.020131,-0.284933,0.087266,-0.0,-0.0,2.0,0.282024,0.299559,0.282024,0.262759,,,,,,,0.123887,-0.01374,-0.184026,-0.027458,-0.000115,-0.000289
345417,0.122898,-0.020148,-0.28494,0.087266,-0.0,-0.0,2.0,0.282024,0.298031,0.282024,0.264589,,,,,,,0.123646,-0.013743,-0.184032,-8.5e-05,-0.00013,-0.000277
345437,0.122795,-0.020287,-0.284939,0.087266,-0.0,-0.0,2.0,0.282024,0.297844,0.282024,0.264811,,,,,,,0.123501,-0.013745,-0.184037,-0.000105,-0.000119,-0.000273
345457,0.12277,-0.020166,-0.284895,0.087266,-0.0,-0.0,2.0,0.282024,0.300218,0.282024,0.26196,,,,,,,0.1235,-0.013748,-0.184043,-6e-06,-0.000119,-0.000272
345477,0.122908,-0.020276,-0.284766,0.087266,-0.0,-0.0,2.0,0.282024,0.301774,0.282024,0.260049,,,,,,,0.123629,-0.01375,-0.184048,-1.5e-05,-0.000117,-0.000276
345497,0.122898,-0.020148,-0.28494,0.087266,-0.0,-0.0,2.0,0.282024,0.30139,0.282024,0.260524,,,,,,,0.123646,-0.013753,-0.184054,4.9e-05,-0.000128,-0.000286
345517,0.123019,-0.020123,-0.285049,0.087266,-0.0,-0.0,2.0,0.282024,0.301491,0.282024,0.260399,,,,,,,0.123646,-0.013755,-0.184059,0.024036,-0.000127,-0.000274
345537,0.122915,-0.020269,-0.284933,0.087266,-0.0,-0.0,2.0,0.282024,0.300805,0.282024,0.261243,,,,,,,0.123646,-0.013757,-0.184065,-0.003439,-0.000116,-0.000274
345557,0.122649,-0.020184,-0.284901,0.087266,-0.0,-0.0,2.0,0.282024,0.300133,0.282024,0.262063,,,,,,,0.123508,-0.01376,-0.18407,0.003441,-0.000129,-0.000285
345577,0.122529,-0.020201,-0.284907,0.087266,-0.0,-0.0,2.0,0.282024,0.300957,0.282024,0.261057,,,,,,,0.12338,-0.013762,-0.184076,0.001511,-0.000118,-0.000286
345597,0.122391,-0.020098,-0.284921,0.087266,-0.0,-0.0,2.0,0.282024,0.301295,0.282024,0.26064,,,,,,,0.123259,-0.013765,-0.184081,-0.024006,-0.000123,-0.00027
345617,0.122391,-0.020098,-0.284921,0.087266,-0.0,-0.0,2.0,0.282024,0.299559,0.282024,0.262759,,,,,,,0.123018,-0.013767,-0.184087,0.023923,-0.000122,-0.00027
345637,0.122288,-0.020236,-0.28492,0.087266,-0.0,-0.0,2.0,0.282024,0.300116,0.282024,0.262084,,,,,,,0.123018,-0.013769,-0.184092,-0.00355,-0.000112,-0.00027
345657,0.12215,-0.020134,-0.284933,0.087266,-0.0,-0.0,2.0,0.282024,0.301812,0.282024,0.260002,,,,,,,0.123001,-0.013772,-0.184098,-0.024036,-0.000113,-0.00027
