time_ms,roll,pitch,yaw,roll_rate,pitch_rate,yaw_rate,reference_roll,reference_pitch,reference_yaw,reference_throttle,throttle_1,throttle_2,throttle_3,throttle_4,roll_predicted,pitch_predicted,yaw_predicted,roll_rate_predicted,pitch_rate_predicted,yaw_rate_predicted
1121488,0.000405,-0.025901,0.05363,2.8e-05,0.001065,-0.001064,0.0,-0.0,-0.0,3.032258,0.327388,0.32388,0.327388,0.330846,,,,,,
1121508,0.000405,-0.025901,0.05363,0.001092,0.002129,-0.001064,0.0,-0.0,-0.0,3.032258,0.327388,0.323777,0.327388,0.330946,,,,,,
1121528,0.000528,-0.025904,0.05351,2.8e-05,0.001065,-0.001064,0.0,-0.0,-0.0,3.032258,0.327388,0.324118,0.327388,0.330614,,,,,,
1121548,0.000652,-0.025907,0.05339,-0.001037,1e-06,-0.001065,0.0,-0.0,-0.0,3.032258,0.327388,0.328823,0.327388,0.325945,,,,,,
1121568,0.000772,-0.026033,0.053269,-0.001064,-0.001064,-1e-06,0.0,-0.0,-0.0,3.032258,0.327388,0.328838,0.327388,0.32593,,,,,,
1121588,0.000891,-0.026158,0.053271,-0.002128,-0.002128,-2e-06,0.0,-0.0,-0.0,3.032258,0.327388,0.328629,0.327388,0.326141,,,,,,
1121608,0.000771,-0.026155,0.053148,-0.002128,-0.002128,-2e-06,0.0,-0.0,-0.0,3.032258,0.327388,0.328423,0.327388,0.326349,,,,,,
1121628,0.000647,-0.026274,0.053024,-0.001064,-0.002128,-1e-06,0.0,-0.0,-0.0,3.032258,0.327388,0.328326,0.327388,0.326447,,,,,,
1121648,0.000281,-0.026264,0.053019,0.0,-0.001064,-0.0,0.0,-0.0,-0.0,3.032258,0.327388,0.32364,0.327388,0.331079,,,,,,
1121668,4.2e-05,-0.026135,0.052894,0.0,0.0,0.0,0.0,-0.0,-0.0,3.032258,0.327388,0.323534,0.327388,0.331182,,,,,,
1121688,4.5e-05,-0.026136,0.05265,-0.0,0.001064,0.0,0.0,-0.0,-0.0,3.032258,0.327388,0.319315,0.327388,0.3352,,,,,,
1121708,0.000172,-0.026017,0.05253,2.8e-05,0.001064,-0.001064,0.0,-0.0,-0.0,3.032258,0.327388,0.323996,0.327388,0.330733,,,,,,
1121728,0.000419,-0.026022,0.05228,-0.001037,0.001065,-0.001064,0.0,-0.0,-0.0,3.032258,0.327388,0.328582,0.327388,0.326188,,,,,,
1121748,0.000543,-0.026025,0.052159,-0.002128,-0.001064,-1e-06,0.0,-0.0,-0.0,3.032258,0.327388,0.328702,0.327388,0.326067,,,,,,
1121768,0.000539,-0.026269,0.051916,-0.002128,-0.002128,-1e-06,0.0,-0.0,-0.0,3.032258,0.327388,0.328488,0.327388,0.326284,,,,,,
1121788,0.000539,-0.026269,0.051916,-0.002128,-0.002128,-1e-06,0.0,-0.0,-0.0,3.032258,0.327388,0.328276,0.327388,0.326497,,,,,,
1121808,0.000297,-0.026263,0.051791,-0.001036,-0.001064,-0.001065,0.0,-0.0,-0.0,3.032258,0.327388,0.327956,0.327388,0.326819,,,,,,
1121828,-6.9e-05,-0.026253,0.051786,2.8e-05,-0.001064,-0.001065,0.0,-0.0,-0.0,3.032258,0.327388,0.323367,0.327388,0.331343,,,,,,
1121848,-0.000308,-0.026125,0.051661,0.0,0.0,0.0,0.0,-0.0,-0.0,3.032258,0.327388,0.318678,0.327388,0.335795,,,,,,
1121868,-0.000308,-0.026125,0.051661,0.0,0.0,0.0,0.0,-0.0,-0.0,3.032258,0.327388,0.318905,0.327388,0.335583,,,,,,
1121888,-0.000183,-0.026006,0.051662,0.0,0.0,0.0,0.0,-0.0,-0.0,3.032258,0.327388,0.323698,0.327388,0.331023,,,,,,
1121908,5.6e-05,-0.026134,0.051787,-0.001036,0.0,-0.001065,0.0,-0.0,-0.0,3.032258,0.327388,0.32393,0.327388,0.330797,,,,,,
1121928,0.000178,-0.026137,0.051789,-0.001036,0.0,-0.001065,0.0,-0.0,-0.0,3.032258,0.327388,0.328511,0.327388,0.32626,,,,,,
1121948,0.000176,-0.026137,0.051911,-0.002101,-0.001064,-0.001065,0.0,-0.0,-0.0,3.032258,0.327388,0.328401,0.327388,0.326371,,,,,,
1121968,0.000297,-0.02614,0.052034,-0.001036,-0.001064,-0.001065,0.0,-0.0,-0.0,3.032258,0.327388,0.328066,0.327388,0.326709,,,,,,
1121988,5.1e-05,-0.026134,0.052153,-0.001036,-0.001064,-0.001065,0.0,-0.0,-0.0,3.032258,0.327388,0.327842,0.327388,0.326933,,,,,,
1122008,-7.1e-05,-0.026009,0.052395,-0.001037,-0.001064,-0.001065,0.0,-0.0,-0.0,3.032258,0.327388,0.327841,0.327388,0.326935,,,,,,
1122028,-0.00032,-0.026126,0.052524,2.8e-05,-0.001065,-0.001064,0.0,-0.0,-0.0,3.032258,0.327388,0.323352,0.327388,0.331357,,,,,,
1122048,-0.000323,-0.026126,0.052768,2.8e-05,-0.0,-0.001065,0.0,-0.0,-0.0,3.032258,0.327388,0.323467,0.327388,0.331247,,,,,,
1122068,-0.000326,-0.026126,0.053011,-0.0,-0.001064,0.0,0.0,-0.0,-0.0,3.032258,0.327388,0.323455,0.327388,0.331258,,,,,,
1122088,-0.000326,-0.026004,0.053255,-0.0,-0.001064,0.0,0.0,-0.0,-0.0,3.032258,0.327388,0.323446,0.327388,0.331267,,,,,,
1122108,-0.000209,-0.026007,0.053622,2.8e-05,-0.0,-0.001065,0.0,-0.0,-0.0,3.032258,0.327388,0.323556,0.327388,0.331161,,,,,,
1122128,-9.3e-05,-0.026132,0.053868,5.6e-05,-0.0,-0.002129,0.0,-0.0,-0.0,3.032258,0.327388,0.323663,0.327388,0.331057,,,,,,
1122148,-9.6e-05,-0.026132,0.054112,-0.001009,-0.0,-0.002129,0.0,-0.0,-0.0,3.032258,0.327388,0.328245,0.327388,0.326528,,,,,,
1122168,-0.000101,-0.026254,0.054234,-0.002101,-0.001064,-0.001064,0.0,-0.0,-0.0,3.032258,0.327388,0.328117,0.327388,0.326657,,,,,,
1122188,1.8e-05,-0.026257,0.054479,-0.002101,-0.001064,-0.001065,0.0,-0.0,-0.0,3.032258,0.327388,0.32778,0.327388,0.326996,,,,,,
1122208,-0.000111,-0.026376,0.054721,-0.001036,-0.001064,-0.001064,0.0,-0.0,-0.0,3.032258,0.327388,0.327666,0.327388,0.32711,,,,,,
1122228,-0.00048,-0.026365,0.05496,-0.001036,-0.001065,-0.001064,0.0,-0.0,-0.0,3.032258,0.327388,0.327664,0.327388,0.327112,,,,,,
1122248,-0.000722,-0.026237,0.055079,-0.0,-0.001064,1e-06,0.0,-0.0,-0.0,3.032258,0.327388,0.323054,0.327388,0.331645,,,,,,
1122268,-0.000848,-0.026233,0.055321,-0.0,-0.001064,1e-06,0.0,-0.0,-0.0,3.032258,0.327388,0.318228,0.327388,0.336213,,,,,,
1122288,-0.000849,-0.026233,0.055443,0.001092,-1e-06,-0.001065,0.0,-0.0,-0.0,3.032258,0.327388,0.317976,0.327388,0.336447,,,,,,
1122308,-0.000973,-0.026229,0.055563,2.8e-05,-1e-06,-0.001065,0.0,-0.0,-0.0,3.032258,0.327388,0.318187,0.327388,0.336251,,,,,,
1122328,-0.000973,-0.026229,0.055563,2.8e-05,-1e-06,-0.001065,0.0,-0.0,-0.0,3.032258,0.327388,0.32298,0.327388,0.331717,,,,,,
1122348,-0.000732,-0.026358,0.055566,-0.001036,-1e-06,-0.001065,0.0,-0.0,-0.0,3.032258,0.327388,0.327564,0.327388,0.327212,,,,,,
1122368,-0.000366,-0.026368,0.055571,-0.002128,0.0,0.0,0.0,-0.0,-0.0,3.032258,0.327388,0.331954,0.327388,0.322734,,,,,,
1122388,-0.000244,-0.026372,0.055573,-0.002128,-0.001064,0.0,0.0,-0.0,-0.0,3.032258,0.327388,0.331837,0.327388,0.322856,,,,,,
1122408,-0.000246,-0.026494,0.055451,-0.001064,-0.001064,0.0,0.0,-0.0,-0.0,3.032258,0.327388,0.331717,0.327388,0.32298,,,,,,
1122428,-0.000487,-0.026365,0.055448,-0.001064,-0.001064,1e-06,0.0,-0.0,-0.0,3.032258,0.327388,0.327305,0.327388,0.327471,,,,,,
1122448,-0.000729,-0.026358,0.055322,2.8e-05,-1e-06,-0.001065,0.0,-0.0,-0.0,3.032258,0.327388,0.322807,0.327388,0.331884,,,,,,
1122468,-0.000724,-0.026236,0.055201,0.001064,0.0,0.0,0.0,-0.0,-0.0,3.032258,0.327388,0.318213,0.327388,0.336228,,,,,,
1122488,-0.000844,-0.026233,0.055077,0.001064,-0.001064,1e-06,0.0,-0.0,-0.0,3.032258,0.327388,0.318204,0.327388,0.336235,,,,,,
1122508,-0.000721,-0.026237,0.054957,-0.0,-0.001064,1e-06,0.0,-0.0,-0.0,3.032258,0.327388,0.322885,0.327388,0.331809,,,,,,
1122528,-0.000599,-0.026362,0.054715,-0.001064,-0.001064,1e-06,0.0,-0.0,-0.0,3.032258,0.327388,0.323103,0.327388,0.331598,,,,,,
1122548,-0.000479,-0.026488,0.054594,-0.002128,-0.001064,1e-06,0.0,-0.0,-0.0,3.032258,0.327388,0.3277,0.327388,0.327076,,,,,,
1122568,-0.000108,-0.026376,0.054477,-0.002128,-0.001064,0.0,0.0,-0.0,-0.0,3.032258,0.327388,0.331874,0.327388,0.322817,,,,,,
1122588,-0.000104,-0.026376,0.054234,-0.001064,0.0,0.0,0.0,-0.0,-0.0,3.032258,0.327388,0.331652,0.327388,0.323048,,,,,,
1122608,-0.000218,-0.026128,0.05411,-0.001064,0.0,0.0,0.0,-0.0,-0.0,3.032258,0.327388,0.327236,0.327388,0.32754,,,,,,
1122628,-0.000457,-0.026,0.053985,2.8e-05,0.001064,-0.001065,0.0,-0.0,-0.0,3.032258,0.327388,0.322854,0.327388,0.331838,,,,,,
1122648,-0.000576,-0.025997,0.05374,2.8e-05,-1e-06,-0.001065,0.0,-0.0,-0.0,3.032258,0.327388,0.32296,0.327388,0.331737,,,,,,
1122668,-0.000456,-0.026122,0.053619,0.0,0.0,0.0,0.0,-0.0,-0.0,3.032258,0.327388,0.318375,0.327388,0.336077,,,,,,
1122688,-0.000339,-0.026369,0.053499,-0.0,-0.002128,1e-06,0.0,-0.0,-0.0,3.032258,0.327388,0.323061,0.327388,0.331639,,,,,,
1122708,-0.000463,-0.026488,0.053375,-0.001064,-0.002128,1e-06,0.0,-0.0,-0.0,3.032258,0.327388,0.323054,0.327388,0.331646,,,,,,
1122728,-0.000461,-0.026488,0.053254,-0.001064,-0.002128,1e-06,0.0,-0.0,-0.0,3.032258,0.327388,0.323047,0.327388,0.331652,,,,,,
1122748,-0.000334,-0.02637,0.053133,-0.001064,-0.001064,0.0,0.0,-0.0,-0.0,3.032258,0.327388,0.327311,0.327388,0.327465,,,,,,
1122768,-0.000204,-0.026129,0.053013,-0.001036,-0.0,-0.001065,0.0,-0.0,-0.0,3.032258,0.327388,0.327196,0.327388,0.32758,,,,,,
1122788,-0.000318,-0.025882,0.052889,-0.001037,0.001064,-0.001065,0.0,-0.0,-0.0,3.032258,0.327388,0.327419,0.327388,0.327358,,,,,,
1122808,-0.000437,-0.025879,0.052644,-0.001037,0.002128,-0.001066,0.0,-0.0,-0.0,3.032258,0.327388,0.327291,0.327388,0.327485,,,,,,
1122828,-0.000312,-0.02588,0.052392,-0.001064,0.001064,-0.0,0.0,-0.0,-0.0,3.032258,0.327388,0.323029,0.327388,0.33167,,,,,,
1122848,-0.000313,-0.026002,0.05227,0.0,0.0,0.0,0.0,-0.0,-0.0,3.032258,0.327388,0.323017,0.327388,0.331681,,,,,,
1122868,-0.000313,-0.026125,0.052026,-0.0,-0.001064,0.0,0.0,-0.0,-0.0,3.032258,0.327388,0.323018,0.327388,0.33168,,,,,,
1122888,-0.000193,-0.02625,0.051906,-0.0,-0.002128,0.0,0.0,-0.0,-0.0,3.032258,0.327388,0.323125,0.327388,0.331578,,,,,,
1122908,-0.000319,-0.026491,0.051783,-0.0,-0.003193,1e-06,0.0,-0.0,-0.0,3.032258,0.327388,0.323015,0.327388,0.331683,,,,,,
1122928,-0.000313,-0.026369,0.051539,-0.0,-0.002128,1e-06,0.0,-0.0,-0.0,3.032258,0.327388,0.323011,0.327388,0.331688,,,,,,
1122948,-0.000311,-0.026369,0.051417,-0.001064,-0.001064,0.0,0.0,-0.0,-0.0,3.032258,0.327388,0.323123,0.327388,0.331579,,,,,,
1122968,-0.000185,-0.02625,0.051297,-0.001036,-0.0,-0.001065,0.0,-0.0,-0.0,3.032258,0.327388,0.327498,0.327388,0.327278,,,,,,
1122988,-6.1e-05,-0.026253,0.051176,-0.001036,0.001064,-0.001065,0.0,-0.0,-0.0,3.032258,0.327388,0.327495,0.327388,0.327281,,,,,,
1123008,-0.000175,-0.026006,0.051053,-0.001064,0.001064,-0.0,0.0,-0.0,-0.0,3.032258,0.327388,0.327381,0.327388,0.327395,,,,,,
1123028,-0.000296,-0.026003,0.050929,-0.001064,0.001064,-0.0,0.0,-0.0,-0.0,3.032258,0.327388,0.327486,0.327388,0.32729,,,,,,
1123048,-0.000294,-0.026003,0.050807,0.0,0.0,0.0,0.0,-0.0,-0.0,3.032258,0.327388,0.322876,0.327388,0.331817,,,,,,
1123068,-0.000297,-0.026125,0.050807,2.8e-05,-0.001065,-0.001064,0.0,-0.0,-0.0,3.032258,0.327388,0.322641,0.327388,0.332043,,,,,,
1123088,-0.000421,-0.026244,0.050684,0.001064,-0.002128,1e-06,0.0,-0.0,-0.0,3.032258,0.327388,0.322751,0.327388,0.331938,,,,,,
1123108,-0.000547,-0.026485,0.05056,-0.0,-0.002128,1e-06,0.0,-0.0,-0.0,3.032258,0.327388,0.318398,0.327388,0.336056,,,,,,
1123128,-0.000424,-0.026488,0.05044,-0.001064,-0.002128,1e-06,0.0,-0.0,-0.0,3.032258,0.327388,0.322962,0.327388,0.331735,,,,,,
1123148,-0.00018,-0.026494,0.050443,-0.001064,-0.001064,0.0,0.0,-0.0,-0.0,3.032258,0.327388,0.327448,0.327388,0.327328,,,,,,
1123168,-0.000177,-0.026372,0.050443,-0.001064,0.0,0.0,0.0,-0.0,-0.0,3.032258,0.327388,0.327454,0.327388,0.327322,,,,,,
1123188,-0.000177,-0.026372,0.050443,-0.0021,0.001064,-0.001065,0.0,-0.0,-0.0,3.032258,0.327388,0.331854,0.327388,0.322838,,,,,,
1123208,-0.000169,-0.026128,0.050321,-0.001036,0.001064,-0.001065,0.0,-0.0,-0.0,3.032258,0.327388,0.327436,0.327388,0.32734,,,,,,
1123228,-0.000294,-0.026247,0.05032,-0.001036,0.001064,-0.001065,0.0,-0.0,-0.0,3.032258,0.327388,0.327316,0.327388,0.327461,,,,,,
1123248,-0.000294,-0.026247,0.05032,2.8e-05,0.001064,-0.001065,0.0,-0.0,-0.0,3.032258,0.327388,0.322703,0.327388,0.331984,,,,,,
1123268,-0.000417,-0.026366,0.050196,2.8e-05,-0.0,-0.001065,0.0,-0.0,-0.0,3.032258,0.327388,0.322693,0.327388,0.331994,,,,,,
1123288,-0.000424,-0.02661,0.050196,2.8e-05,-0.002129,-0.001064,0.0,-0.0,-0.0,3.032258,0.327388,0.323032,0.327388,0.331667,,,,,,
1123308,-0.000425,-0.026733,0.050074,-0.0,-0.003193,1e-06,0.0,-0.0,-0.0,3.032258,0.327388,0.323029,0.327388,0.33167,,,,,,
1123328,-0.000184,-0.026861,0.050078,-0.001064,-0.003193,1e-06,0.0,-0.0,-0.0,3.032258,0.327388,0.323021,0.327388,0.331678,,,,,,
1123348,6.3e-05,-0.026745,0.050081,-0.001064,-0.002128,-0.0,0.0,-0.0,-0.0,3.032258,0.327388,0.327512,0.327388,0.327264,,,,,,
1123368,-5.4e-05,-0.026498,0.050201,-0.001064,-0.001064,0.0,0.0,-0.0,-0.0,3.032258,0.327388,0.327515,0.327388,0.327261,,,,,,
1123388,-0.000176,-0.026495,0.0502,-0.001036,0.001064,-0.001065,0.0,-0.0,-0.0,3.032258,0.327388,0.327402,0.327388,0.327374,,,,,,
1123408,-0.000172,-0.026251,0.050321,-0.001036,0.002128,-0.001065,0.0,-0.0,-0.0,3.032258,0.327388,0.327391,0.327388,0.327385,,,,,,
1123428,-0.000172,-0.026251,0.050321,2.8e-05,0.002128,-0.001065,0.0,-0.0,-0.0,3.032258,0.327388,0.32301,0.327388,0.331688,,,,,,
1123448,-0.000172,-0.026251,0.050321,2.8e-05,0.001064,-0.001065,0.0,-0.0,-0.0,3.032258,0.327388,0.322885,0.327388,0.331809,,,,,,
1123468,-0.000177,-0.026372,0.050443,2.8e-05,-0.001064,-0.001064,0.0,-0.0,-0.0,3.032258,0.327388,0.322994,0.327388,0.331704,,,,,,
1123488,-0.000186,-0.026739,0.050443,-0.001036,-0.002129,-0.001064,0.0,-0.0,-0.0,3.032258,0.327388,0.323106,0.327388,0.331596,,,,,,
1123508,-6.7e-05,-0.026864,0.050445,-0.001064,-0.003193,0.0,0.0,-0.0,-0.0,3.032258,0.327388,0.327588,0.327388,0.327188,,,,,,
1123528,5.4e-05,-0.026867,0.050569,-0.001064,-0.003193,-0.0,0.0,-0.0,-0.0,3.032258,0.327388,0.32748,0.327388,0.327296,,,,,,
1123548,-6.7e-05,-0.026742,0.050689,-0.0,-0.002128,0.0,0.0,-0.0,-0.0,3.032258,0.327388,0.327258,0.327388,0.327518,,,,,,
1123568,-0.000186,-0.026494,0.050931,2.8e-05,-0.0,-0.001065,0.0,-0.0,-0.0,3.032258,0.327388,0.327261,0.327388,0.327515,,,,,,
1123588,-0.000426,-0.026244,0.05105,5.6e-05,0.002128,-0.00213,0.0,-0.0,-0.0,3.032258,0.327388,0.322879,0.327388,0.331815,,,,,,
1123608,-0.000418,-0.025878,0.051172,5.5e-05,0.002128,-0.00213,0.0,-0.0,-0.0,3.032258,0.327388,0.322978,0.327388,0.331719,,,,,,
1123628,-0.0003,-0.026003,0.051295,-0.001037,0.002128,-0.001065,0.0,-0.0,-0.0,3.032258,0.327388,0.323081,0.327388,0.33162,,,,,,
1123648,-6.3e-05,-0.026131,0.051542,-0.001036,-0.0,-0.001065,0.0,-0.0,-0.0,3.032258,0.327388,0.327557,0.327388,0.327219,,,,,,
1123668,4.7e-05,-0.0265,0.051788,-0.001036,-0.001064,-0.001065,0.0,-0.0,-0.0,3.032258,0.327388,0.327664,0.327388,0.327112,,,,,,
1123688,0.000157,-0.026749,0.052165,-0.001036,-0.003193,-0.001065,0.0,-0.0,-0.0,3.032258,0.327388,0.327775,0.327388,0.327001,,,,,,
1123708,2.9e-05,-0.026868,0.052407,-0.001036,-0.003193,-0.001065,0.0,-0.0,-0.0,3.032258,0.327388,0.327662,0.327388,0.327114,,,,,,
1123728,2.7e-05,-0.026746,0.052773,2.8e-05,-0.002128,-0.001065,0.0,-0.0,-0.0,3.032258,0.327388,0.322828,0.327388,0.331864,,,,,,
1123748,-9.3e-05,-0.026498,0.053137,2.8e-05,-0.001064,-0.001064,0.0,-0.0,-0.0,3.032258,0.327388,0.322836,0.327388,0.331856,,,,,,
1123768,-0.000337,-0.02637,0.053377,2.8e-05,0.001064,-0.001065,0.0,-0.0,-0.0,3.032258,0.327388,0.322828,0.327388,0.331864,,,,,,
1123788,-0.000332,-0.026003,0.053743,2.8e-05,0.002128,-0.001065,0.0,-0.0,-0.0,3.032258,0.327388,0.323167,0.327388,0.331537,,,,,,
1123808,-0.000225,-0.026372,0.05411,-0.001036,0.002128,-0.001065,0.0,-0.0,-0.0,3.032258,0.327388,0.323153,0.327388,0.33155,,,,,,
1123828,0.00014,-0.02626,0.05448,-0.001036,0.001064,-0.001064,0.0,-0.0,-0.0,3.032258,0.327388,0.327853,0.327388,0.326922,,,,,,
1123848,0.000128,-0.026504,0.054846,-0.001036,0.0,-0.001065,0.0,-0.0,-0.0,3.032258,0.327388,0.32773,0.327388,0.327046,,,,,,
1123868,0.000245,-0.026507,0.055213,-0.001036,-0.001064,-0.001065,0.0,-0.0,-0.0,3.032258,0.327388,0.327726,0.327388,0.32705,,,,,,
1123888,0.000115,-0.026626,0.055578,-0.001036,-0.002128,-0.001065,0.0,-0.0,-0.0,3.032258,0.327388,0.327724,0.327388,0.327052,,,,,,
1123908,-1e-05,-0.026622,0.05582,-0.001036,-0.002128,-0.001065,0.0,-0.0,-0.0,3.032258,0.327388,0.323005,0.327388,0.331694,,,,,,
1123928,-1.3e-05,-0.026622,0.056063,2.8e-05,-0.002128,-0.001065,0.0,-0.0,-0.0,3.032258,0.327388,0.322895,0.327388,0.331799,,,,,,
1123948,-0.000139,-0.026741,0.056062,-0.0,-0.001064,0.0,0.0,-0.0,-0.0,3.032258,0.327388,0.322893,0.327388,0.331801,,,,,,
1123968,-0.000254,-0.026494,0.05606,0.0,0.0,0.0,0.0,-0.0,-0.0,3.032258,0.327388,0.322891,0.327388,0.331803,,,,,,
1123988,-0.000374,-0.02649,0.055937,-0.001064,0.0,0.0,0.0,-0.0,-0.0,3.032258,0.327388,0.323004,0.327388,0.331694,,,,,,
1124008,-0.000369,-0.026368,0.055815,0.0,0.001064,-0.0,0.0,-0.0,-0.0,3.032258,0.327388,0.322767,0.327388,0.331923,,,,,,
1124028,-0.000124,-0.026375,0.055696,2.8e-05,0.002128,-0.001065,0.0,-0.0,-0.0,3.032258,0.327388,0.322875,0.327388,0.331819,,,,,,
1124048,-0.000126,-0.026497,0.055574,-0.001036,0.001064,-0.001065,0.0,-0.0,-0.0,3.032258,0.327388,0.322984,0.327388,0.331713,,,,,,
1124068,-0.000248,-0.026616,0.055329,-0.001036,-0.001064,-0.001064,0.0,-0.0,-0.0,3.032258,0.327388,0.322857,0.327388,0.331836,,,,,,
1124088,-0.000249,-0.026738,0.055207,-0.001036,-0.002129,-0.001064,0.0,-0.0,-0.0,3.032258,0.327388,0.322973,0.327388,0.331724,,,,,,
1124108,-0.000127,-0.026741,0.055209,-0.001064,-0.002128,0.0,0.0,-0.0,-0.0,3.032258,0.327388,0.327238,0.327388,0.327538,,,,,,
1124128,-0.000126,-0.026741,0.055087,-0.001064,-0.002128,0.0,0.0,-0.0,-0.0,3.032258,0.327388,0.327244,0.327388,0.327532,,,,,,
1124148,-0.000126,-0.026741,0.055087,-0.001064,-0.002128,0.0,0.0,-0.0,-0.0,3.032258,0.327388,0.327243,0.327388,0.327533,,,,,,
1124168,-0.000371,-0.026735,0.055205,-0.0,-0.001064,0.0,0.0,-0.0,-0.0,3.032258,0.327388,0.327126,0.327388,0.32765,,,,,,
1124188,-0.000365,-0.026491,0.055205,0.0,0.0,0.0,0.0,-0.0,-0.0,3.032258,0.327388,0.322745,0.327388,0.331944,,,,,,
1124208,-0.00061,-0.026484,0.055324,2.8e-05,0.001064,-0.001065,0.0,-0.0,-0.0,3.032258,0.327388,0.322615,0.327388,0.332068,,,,,,
1124228,-0.000483,-0.026243,0.055448,5.6e-05,0.002127,-0.00213,0.0,-0.0,-0.0,3.032258,0.327388,0.322608,0.327388,0.332075,,,,,,
1124248,-0.000612,-0.026484,0.055446,-0.001008,0.001063,-0.00213,0.0,-0.0,-0.0,3.032258,0.327388,0.322705,0.327388,0.331982,,,,,,
1124268,-0.000609,-0.026362,0.055446,-0.001036,-0.001065,-0.001064,0.0,-0.0,-0.0,3.032258,0.327388,0.3273,0.327388,0.327476,,,,,,
1124288,-0.000495,-0.026609,0.055569,-0.002128,-0.002128,1e-06,0.0,-0.0,-0.0,3.032258,0.327388,0.327174,0.327388,0.327602,,,,,,
1124308,-0.000253,-0.026616,0.055695,-0.002128,-0.002128,1e-06,0.0,-0.0,-0.0,3.032258,0.327388,0.327059,0.327388,0.327717,,,,,,
1124328,-0.000381,-0.026856,0.055693,-0.001064,-0.002128,1e-06,0.0,-0.0,-0.0,3.032258,0.327388,0.326831,0.327388,0.327944,,,,,,
1124348,-0.000625,-0.02685,0.05569,-0.001064,-0.001064,1e-06,0.0,-0.0,-0.0,3.032258,0.327388,0.326588,0.327388,0.328186,,,,,,
1124368,-0.000988,-0.026717,0.055685,-0.0,-0.001064,1e-06,0.0,-0.0,-0.0,3.032258,0.327388,0.317477,0.327388,0.336908,,,,,,
1124388,-0.001232,-0.026711,0.055682,0.0,0.0,0.0,0.0,-0.0,-0.0,3.032258,0.327388,0.317222,0.327388,0.337143,,,,,,
1124408,-0.001224,-0.026467,0.05556,2.8e-05,-1e-06,-0.001065,0.0,-0.0,-0.0,3.032258,0.327388,0.31732,0.327388,0.337053,,,,,,
1124428,-0.001342,-0.026341,0.055558,2.8e-05,0.001063,-0.001066,0.0,-0.0,-0.0,3.032258,0.327388,0.321899,0.327388,0.332756,,,,,,
1124448,-0.0011,-0.02647,0.05544,-0.001036,-1e-06,-0.001065,0.0,-0.0,-0.0,3.032258,0.327388,0.326608,0.327388,0.328166,,,,,,
1124468,-0.000973,-0.026352,0.055319,-0.002128,-0.001064,1e-06,0.0,-0.0,-0.0,3.032258,0.327388,0.326588,0.327388,0.328186,,,,,,
1124488,-0.000739,-0.026724,0.055322,-0.002128,-0.001064,1e-06,0.0,-0.0,-0.0,3.032258,0.327388,0.330766,0.327388,0.323962,,,,,,
1124508,-0.000858,-0.026599,0.055321,-0.002128,-0.001064,1e-06,0.0,-0.0,-0.0,3.032258,0.327388,0.330418,0.327388,0.324319,,,,,,
1124528,-0.00111,-0.026836,0.055439,-0.001036,-1e-06,-0.001065,0.0,-0.0,-0.0,3.032258,0.327388,0.325855,0.327388,0.328911,,,,,,
1124548,-0.001595,-0.026701,0.055433,2.8e-05,-2e-06,-0.001065,0.0,-0.0,-0.0,3.032258,0.327388,0.321191,0.327388,0.33343,,,,,,
1124568,-0.001837,-0.026572,0.055552,0.001064,0.0,0.0,0.0,-0.0,-0.0,3.032258,0.327388,0.316549,0.327388,0.337761,,,,,,
1124588,-0.001841,-0.026694,0.055552,0.001064,0.0,0.0,0.0,-0.0,-0.0,3.032258,0.327388,0.316752,0.327388,0.337575,,,,,,
1124608,-0.001842,-0.026694,0.055673,-0.0,-0.001064,2e-06,0.0,-0.0,-0.0,3.032258,0.327388,0.316599,0.327388,0.337715,,,,,,
1124628,-0.00172,-0.026697,0.055675,-0.001064,-0.001064,2e-06,0.0,-0.0,-0.0,3.032258,0.327388,0.321292,0.327388,0.333334,,,,,,
1124648,-0.00172,-0.026697,0.055675,-0.001064,-0.001064,2e-06,0.0,-0.0,-0.0,3.032258,0.327388,0.325778,0.327388,0.328988,,,,,,
1124668,-0.001598,-0.0267,0.055677,-0.0021,-0.001066,-0.001063,0.0,-0.0,-0.0,3.032258,0.327388,0.325517,0.327388,0.329245,,,,,,
1124688,-0.00148,-0.026826,0.055678,-0.0021,-2e-06,-0.001065,0.0,-0.0,-0.0,3.032258,0.327388,0.329705,0.327388,0.325049,,,,,,
1124708,-0.001469,-0.02646,0.055678,-0.001036,0.001063,-0.001066,0.0,-0.0,-0.0,3.032258,0.327388,0.32968,0.327388,0.325074,,,,,,
1124728,-0.001834,-0.02645,0.055552,-0.001064,0.001064,-2e-06,0.0,-0.0,-0.0,3.032258,0.327388,0.325077,0.327388,0.329678,,,,,,
1124748,-0.001708,-0.026331,0.055553,-0.001064,0.0,0.0,0.0,-0.0,-0.0,3.032258,0.327388,0.320624,0.327388,0.333967,,,,,,
1124768,-0.001842,-0.026694,0.055673,2.8e-05,-2e-06,-0.001065,0.0,-0.0,-0.0,3.032258,0.327388,0.320823,0.327388,0.333779,,,,,,
1124788,-0.001842,-0.026694,0.055673,2.8e-05,-0.001066,-0.001063,0.0,-0.0,-0.0,3.032258,0.327388,0.320671,0.327388,0.333923,,,,,,
1124808,-0.0016,-0.026823,0.055555,-0.0,-0.002128,3e-06,0.0,-0.0,-0.0,3.032258,0.327388,0.320867,0.327388,0.333738,,,,,,
1124828,-0.001725,-0.026941,0.055553,-0.0,-0.003193,6e-06,0.0,-0.0,-0.0,3.032258,0.327388,0.320835,0.327388,0.333768,,,,,,
1124848,-0.001603,-0.026945,0.055555,-0.0,-0.002128,3e-06,0.0,-0.0,-0.0,3.032258,0.327388,0.320684,0.327388,0.333911,,,,,,
1124868,-0.001605,-0.026944,0.055677,2.9e-05,-0.001066,-0.001063,0.0,-0.0,-0.0,3.032258,0.327388,0.320776,0.327388,0.333824,,,,,,
1124888,-0.00172,-0.026697,0.055675,-0.001036,-2e-06,-0.001065,0.0,-0.0,-0.0,3.032258,0.327388,0.32517,0.327388,0.329587,,,,,,
1124908,-0.001713,-0.026453,0.055675,-0.001036,0.001062,-0.001066,0.0,-0.0,-0.0,3.032258,0.327388,0.325136,0.327388,0.32962,,,,,,
1124928,-0.00159,-0.026456,0.055555,-0.001036,0.001063,-0.001066,0.0,-0.0,-0.0,3.032258,0.327388,0.325096,0.327388,0.329659,,,,,,
1124948,-0.00171,-0.026331,0.055675,-0.001036,0.001062,-0.001066,0.0,-0.0,-0.0,3.032258,0.327388,0.324949,0.327388,0.329803,,,,,,
1124968,-0.00171,-0.026331,0.055675,-0.001036,-2e-06,-0.001065,0.0,-0.0,-0.0,3.032258,0.327388,0.324912,0.327388,0.329839,,,,,,
1124988,-0.001591,-0.026456,0.055677,2.8e-05,-2e-06,-0.001065,0.0,-0.0,-0.0,3.032258,0.327388,0.32476,0.327388,0.329988,,,,,,
1125008,-0.001713,-0.026453,0.055675,2.8e-05,-0.001066,-0.001063,0.0,-0.0,-0.0,3.032258,0.327388,0.320185,0.327388,0.334383,,,,,,
1125028,-0.001964,-0.02669,0.055672,2.8e-05,-0.002131,-0.00106,0.0,-0.0,-0.0,3.032258,0.327388,0.320149,0.327388,0.334416,,,,,,
1125048,-0.001842,-0.026694,0.055673,-0.0,-0.002128,4e-06,0.0,-0.0,-0.0,3.032258,0.327388,0.320353,0.327388,0.334224,,,,,,
1125068,-0.001844,-0.026816,0.055551,-0.0,-0.002128,4e-06,0.0,-0.0,-0.0,3.032258,0.327388,0.32032,0.327388,0.334255,,,,,,
1125088,-0.001719,-0.026697,0.055553,-0.001064,-0.002128,4e-06,0.0,-0.0,-0.0,3.032258,0.327388,0.324715,0.327388,0.330032,,,,,,
1125108,-0.00172,-0.026697,0.055675,-0.001064,-0.001064,2e-06,0.0,-0.0,-0.0,3.032258,0.327388,0.324682,0.327388,0.330064,,,,,,
1125128,-0.001718,-0.026575,0.055797,-0.001036,0.001062,-0.001066,0.0,-0.0,-0.0,3.032258,0.327388,0.324649,0.327388,0.330097,,,,,,
1125148,-0.001837,-0.026449,0.055795,-0.001036,0.002126,-0.001069,0.0,-0.0,-0.0,3.032258,0.327388,0.324731,0.327388,0.330016,,,,,,
1125168,-0.00171,-0.026331,0.055675,-0.001036,0.002127,-0.001068,0.0,-0.0,-0.0,3.032258,0.327388,0.320027,0.327388,0.334532,,,,,,
1125188,-0.001829,-0.026205,0.055674,2.8e-05,0.001062,-0.001067,0.0,-0.0,-0.0,3.032258,0.327388,0.319753,0.327388,0.334789,,,,,,
1125208,-0.001832,-0.026328,0.055674,2.8e-05,-2e-06,-0.001065,0.0,-0.0,-0.0,3.032258,0.327388,0.319711,0.327388,0.334828,,,,,,
1125228,-0.00183,-0.026328,0.055552,-0.001036,-0.00213,-0.001061,0.0,-0.0,-0.0,3.032258,0.327388,0.319914,0.327388,0.334638,,,,,,
1125248,-0.001841,-0.026694,0.055552,-0.001064,-0.002128,4e-06,0.0,-0.0,-0.0,3.032258,0.327388,0.320118,0.327388,0.334446,,,,,,
1125268,-0.001722,-0.026819,0.055553,-0.001064,-0.003193,5e-06,0.0,-0.0,-0.0,3.032258,0.327388,0.319973,0.327388,0.334583,,,,,,
1125288,-0.001478,-0.026826,0.055556,-2.9e-05,-0.002127,0.001068,0.0,-0.0,-0.0,3.032258,0.327388,0.324255,0.327388,0.330481,,,,,,
1125308,-0.001724,-0.026819,0.055675,-0.0,-0.001064,2e-06,0.0,-0.0,-0.0,3.032258,0.327388,0.324225,0.327388,0.330511,,,,,,
1125328,-0.001718,-0.026575,0.055797,2.8e-05,-2e-06,-0.001065,0.0,-0.0,-0.0,3.032258,0.327388,0.319759,0.327388,0.334784,,,,,,
1125348,-0.001959,-0.026446,0.055794,2.8e-05,0.001062,-0.001067,0.0,-0.0,-0.0,3.032258,0.327388,0.319722,0.327388,0.334818,,,,,,
1125368,-0.001952,-0.026202,0.055794,2.8e-05,0.002126,-0.001069,0.0,-0.0,-0.0,3.032258,0.327388,0.319685,0.327388,0.334853,,,,,,
1125388,-0.001952,-0.026202,0.055794,-0.001036,0.001062,-0.001067,0.0,-0.0,-0.0,3.032258,0.327388,0.319531,0.327388,0.334998,,,,,,
1125408,-0.001829,-0.026205,0.055674,-0.001036,-2e-06,-0.001065,0.0,-0.0,-0.0,3.032258,0.327388,0.324271,0.327388,0.330466,,,,,,
1125428,-0.001832,-0.026328,0.055674,-0.002129,-0.001064,2e-06,0.0,-0.0,-0.0,3.032258,0.327388,0.324234,0.327388,0.330501,,,,,,
1125448,-0.001595,-0.026578,0.055677,-0.001064,-0.002128,3e-06,0.0,-0.0,-0.0,3.032258,0.327388,0.328438,0.327388,0.326334,,,,,,
1125468,-0.001473,-0.026582,0.055678,-0.001064,-0.001064,2e-06,0.0,-0.0,-0.0,3.032258,0.327388,0.328411,0.327388,0.326361,,,,,,
1125488,-0.001722,-0.026697,0.055797,-0.001036,-0.001066,-0.001063,0.0,-0.0,-0.0,3.032258,0.327388,0.323796,0.327388,0.330927,,,,,,
1125508,-0.001962,-0.026568,0.055794,2.8e-05,-0.001066,-0.001063,0.0,-0.0,-0.0,3.032258,0.327388,0.319316,0.327388,0.335199,,,,,,
1125528,-0.002201,-0.026439,0.055669,-0.0,-0.001064,2e-06,0.0,-0.0,-0.0,3.032258,0.327388,0.314386,0.327388,0.339725,,,,,,
1125548,-0.002201,-0.026439,0.055669,-0.0,-0.001064,2e-06,0.0,-0.0,-0.0,3.032258,0.327388,0.314465,0.327388,0.339654,,,,,,
1125568,-0.002203,-0.026439,0.055791,-0.0,-0.001064,2e-06,0.0,-0.0,-0.0,3.032258,0.327388,0.31443,0.327388,0.339685,,,,,,
1125588,-0.002203,-0.026439,0.055791,-0.0,-0.001064,2e-06,0.0,-0.0,-0.0,3.032258,0.327388,0.319158,0.327388,0.335347,,,,,,
1125608,-0.002203,-0.026439,0.055791,-0.001064,-0.001064,2e-06,0.0,-0.0,-0.0,3.032258,0.327388,0.319115,0.327388,0.335387,,,,,,
1125628,-0.002206,-0.026561,0.05579,-0.001036,-0.001067,-0.001062,0.0,-0.0,-0.0,3.032258,0.327388,0.323637,0.327388,0.331082,,,,,,
1125648,-0.002084,-0.026565,0.055792,-0.001036,-2e-06,-0.001065,0.0,-0.0,-0.0,3.032258,0.327388,0.323483,0.327388,0.331232,,,,,,
1125668,-0.001834,-0.026327,0.055795,-0.001036,-2e-06,-0.001065,0.0,-0.0,-0.0,3.032258,0.327388,0.327921,0.327388,0.326854,,,,,,
1125688,-0.001951,-0.026202,0.055672,-0.001036,-2e-06,-0.001065,0.0,-0.0,-0.0,3.032258,0.327388,0.323163,0.327388,0.33154,,,,,,
1125708,-0.002069,-0.026077,0.055671,-0.001036,0.001062,-0.001067,0.0,-0.0,-0.0,3.032258,0.327388,0.32313,0.327388,0.331573,,,,,,
1125728,-0.002198,-0.026317,0.055669,-0.001036,-2e-06,-0.001065,0.0,-0.0,-0.0,3.032258,0.327388,0.323091,0.327388,0.33161,,,,,,
1125748,-0.00232,-0.026314,0.055667,0.0,0.0,0.0,0.0,-0.0,-0.0,3.032258,0.327388,0.318469,0.327388,0.335989,,,,,,
1125768,-0.002566,-0.026307,0.055786,-0.0,-0.002128,5e-06,0.0,-0.0,-0.0,3.032258,0.327388,0.313517,0.327388,0.340505,,,,,,
1125788,-0.002571,-0.026429,0.055908,-0.0,-0.002128,5e-06,0.0,-0.0,-0.0,3.032258,0.327388,0.313465,0.327388,0.340551,,,,,,
1125808,-0.00294,-0.02654,0.055903,-0.0,-0.002128,6e-06,0.0,-0.0,-0.0,3.032258,0.327388,0.313419,0.327388,0.340592,,,,,,
1125828,-0.002816,-0.026422,0.056026,-0.0,-0.002128,6e-06,0.0,-0.0,-0.0,3.032258,0.327388,0.318041,0.327388,0.336387,,,,,,
1125848,-0.002809,-0.026178,0.056026,-0.001064,-0.001064,3e-06,0.0,-0.0,-0.0,3.032258,0.327388,0.317756,0.327388,0.336651,,,,,,
1125868,-0.002689,-0.026181,0.05615,-0.001036,-3e-06,-0.001065,0.0,-0.0,-0.0,3.032258,0.327388,0.322172,0.327388,0.332494,,,,,,
1125888,-0.002931,-0.026052,0.056269,-0.001036,0.001061,-0.001068,0.0,-0.0,-0.0,3.032258,0.327388,0.322121,0.327388,0.332543,,,,,,
1125908,-0.002926,-0.025807,0.056391,-0.001037,0.002125,-0.001071,0.0,-0.0,-0.0,3.032258,0.327388,0.322179,0.327388,0.332488,,,,,,
1125928,-0.002926,-0.025807,0.056391,-0.001037,0.001061,-0.001068,0.0,-0.0,-0.0,3.032258,0.327388,0.321998,0.327388,0.33266,,,,,,
1125948,-0.002806,-0.025811,0.056514,2.8e-05,0.001061,-0.001068,0.0,-0.0,-0.0,3.032258,0.327388,0.321826,0.327388,0.332825,,,,,,
1125968,-0.002931,-0.025929,0.056512,2.8e-05,-3e-06,-0.001065,0.0,-0.0,-0.0,3.032258,0.327388,0.317162,0.327388,0.337198,,,,,,
1125988,-0.002933,-0.026052,0.05639,2.8e-05,-0.001067,-0.001061,0.0,-0.0,-0.0,3.032258,0.327388,0.317097,0.327388,0.337259,,,,,,
1126008,-0.002933,-0.026052,0.05639,-0.001064,-0.002128,6e-06,0.0,-0.0,-0.0,3.032258,0.327388,0.317158,0.327388,0.337202,,,,,,
1126028,-0.00282,-0.026421,0.05627,-0.001064,-0.002128,6e-06,0.0,-0.0,-0.0,3.032258,0.327388,0.321704,0.327388,0.332941,,,,,,
1126048,-0.00282,-0.026421,0.05627,-0.001064,-0.002128,6e-06,0.0,-0.0,-0.0,3.032258,0.327388,0.321543,0.327388,0.333095,,,,,,
1126068,-0.002818,-0.026421,0.056148,-2.8e-05,-0.002125,0.001071,0.0,-0.0,-0.0,3.032258,0.327388,0.321482,0.327388,0.333153,,,,,,
1126088,-0.003055,-0.026171,0.056145,-2.8e-05,-0.001061,0.001068,0.0,-0.0,-0.0,3.032258,0.327388,0.316708,0.327388,0.337616,,,,,,
1126108,-0.003055,-0.026171,0.056145,0.001064,0.0,0.0,0.0,-0.0,-0.0,3.032258,0.327388,0.316771,0.327388,0.337558,,,,,,
1126128,-0.003045,-0.025805,0.056145,0.001092,-3e-06,-0.001065,0.0,-0.0,-0.0,3.032258,0.327388,0.311887,0.327388,0.341953,,,,,,
1126148,-0.003163,-0.025679,0.056144,2.7e-05,0.001061,-0.001068,0.0,-0.0,-0.0,3.032258,0.327388,0.312064,0.327388,0.341796,,,,,,
1126168,-0.003041,-0.025683,0.056146,-0.001037,0.001061,-0.001068,0.0,-0.0,-0.0,3.032258,0.327388,0.316703,0.327388,0.33762,,,,,,
1126188,-0.00317,-0.025923,0.056144,-0.001037,-3e-06,-0.001065,0.0,-0.0,-0.0,3.032258,0.327388,0.316757,0.327388,0.337571,,,,,,
1126208,-0.003052,-0.026049,0.056145,-0.002101,-3e-06,-0.001065,0.0,-0.0,-0.0,3.032258,0.327388,0.321308,0.327388,0.333319,,,,,,
1126228,-0.002923,-0.025808,0.056147,-0.002129,-0.001064,3e-06,0.0,-0.0,-0.0,3.032258,0.327388,0.321018,0.327388,0.333595,,,,,,
1126248,-0.002924,-0.025808,0.056269,-0.002129,-0.001064,3e-06,0.0,-0.0,-0.0,3.032258,0.327388,0.325031,0.327388,0.329722,,,,,,
1126268,-0.003165,-0.025679,0.056266,-0.001037,-3e-06,-0.001065,0.0,-0.0,-0.0,3.032258,0.327388,0.320201,0.327388,0.334368,,,,,,
1126288,-0.003528,-0.025546,0.056261,2.7e-05,-4e-06,-0.001065,0.0,-0.0,-0.0,3.032258,0.327388,0.315505,0.327388,0.338713,,,,,,
1126308,-0.003531,-0.025669,0.056261,2.7e-05,-4e-06,-0.001065,0.0,-0.0,-0.0,3.032258,0.327388,0.315547,0.327388,0.338676,,,,,,
1126328,-0.003534,-0.025791,0.056261,0.001092,-4e-06,-0.001065,0.0,-0.0,-0.0,3.032258,0.327388,0.315479,0.327388,0.338737,,,,,,
1126348,-0.003416,-0.025916,0.056262,0.001064,-0.001064,4e-06,0.0,-0.0,-0.0,3.032258,0.327388,0.315646,0.327388,0.338585,,,,,,
1126368,-0.003297,-0.026041,0.056264,-0.0,-0.003193,1.1e-05,0.0,-0.0,-0.0,3.032258,0.327388,0.31593,0.327388,0.338327,,,,,,
1126388,-0.002931,-0.026052,0.056269,-2.8e-05,-0.00319,0.001074,0.0,-0.0,-0.0,3.032258,0.327388,0.315986,0.327388,0.338276,,,,,,
1126408,-0.002687,-0.026059,0.056272,-0.0,-0.002128,6e-06,0.0,-0.0,-0.0,3.032258,0.327388,0.316052,0.327388,0.338216,,,,,,
1126428,-0.002434,-0.025699,0.056397,2.7e-05,-0.001067,-0.001062,0.0,-0.0,-0.0,3.032258,0.327388,0.320746,0.327388,0.333853,,,,,,
1126448,-0.002428,-0.025455,0.056397,2.7e-05,-3e-06,-0.001065,0.0,-0.0,-0.0,3.032258,0.327388,0.320698,0.327388,0.333898,,,,,,
1126468,-0.002299,-0.025215,0.056399,2.7e-05,0.002126,-0.001069,0.0,-0.0,-0.0,3.032258,0.327388,0.320995,0.327388,0.333616,,,,,,
1126488,-0.002056,-0.025221,0.056524,-0.001037,0.002126,-0.001069,0.0,-0.0,-0.0,3.032258,0.327388,0.321183,0.327388,0.333438,,,,,,
1126508,-0.001814,-0.025228,0.056649,-0.001037,0.002127,-0.001068,0.0,-0.0,-0.0,3.032258,0.327388,0.321483,0.327388,0.333152,,,,,,
1126528,-0.001448,-0.025239,0.056654,-0.001037,-2e-06,-0.001065,0.087266,-0.0,-0.0,3.032258,0.327388,0.214464,0.327388,0.402292,,,,,,
1126548,-0.001455,-0.025483,0.056654,2.7e-05,-2e-06,-0.001065,0.087266,-0.0,-0.0,3.032258,0.327388,0.211232,0.327388,0.403586,,,,,,
1126568,-0.000603,-0.025386,0.057162,0.003247,-0.001066,-0.002128,0.087266,-0.0,-0.0,3.032258,0.327388,0.225582,0.327388,0.397543,,,,,,
1126588,0.002085,-0.025219,0.05744,0.008568,-0.00106,-0.002131,0.087266,-0.0,-0.0,3.032258,0.327388,0.253717,0.327388,0.38334,,,,,,
1126608,0.007093,-0.025118,0.057622,0.012771,-0.001064,-8e-06,0.087266,-0.0,-0.0,3.032258,0.327388,0.28594,0.327388,0.362698,,,,,,
1126628,0.014668,-0.025089,0.057465,0.01913,-0.002144,0.001033,0.087266,-0.0,-0.0,3.032258,0.327388,0.316244,0.327388,0.33804,,,,,,
1126648,0.024455,-0.024751,0.056968,0.023361,-0.001116,0.002102,0.087266,-0.0,-0.0,3.032258,0.327388,0.345233,0.327388,0.308115,,,,,,
1126668,0.035955,-0.024446,0.05611,0.026555,-0.00114,0.002089,0.087266,-0.0,-0.0,3.032258,0.327388,0.369111,0.327388,0.276752,,,,,,
1126688,0.048911,-0.024535,0.05527,0.028682,-0.000104,0.002127,0.087266,-0.0,-0.0,3.032258,0.327388,0.381653,0.327388,0.256672,,,,,,
1126708,0.06211,-0.024854,0.054194,0.02868,0.00093,0.002191,0.087266,-0.0,-0.0,3.032258,0.327388,0.39081,0.327388,0.239726,,,,,,
1126728,0.0747,-0.025026,0.053344,0.025509,0.003104,0.0013,0.087266,-0.0,-0.0,3.032258,0.327388,0.392792,0.327388,0.235733,,,,,,
1126748,0.085933,-0.025644,0.052617,0.021253,0.002029,0.001243,0.087266,-0.0,-0.0,3.032258,0.327388,0.387103,0.327388,0.246863,,,,,,
1126768,0.094959,-0.026703,0.052272,0.014894,0.002119,0.000202,0.087266,-0.0,-0.0,3.032258,0.327388,0.3799,0.327388,0.259672,,,,,,
1126788,0.101534,-0.027701,0.052016,0.008511,0.001059,0.000108,0.087266,-0.0,-0.0,3.032258,0.327388,0.366787,0.327388,0.280156,,,,,,
1126808,0.105567,-0.028026,0.051712,0.003166,-0.00117,0.000947,0.087266,-0.0,-0.0,3.032258,0.327388,0.354958,0.327388,0.296235,,,,,,
1126828,0.106675,-0.027926,0.051601,-0.002122,-0.002116,-0.000227,0.087266,-0.0,-0.0,3.032258,0.327388,0.336067,0.327388,0.318386,,,,,,
1126848,0.10571,-0.027291,0.051552,-0.005286,-0.002004,-0.001283,0.087266,-0.0,-0.0,3.032258,0.327388,0.313509,0.327388,0.340512,,,,,,
1126868,0.103043,-0.026604,0.051249,-0.006357,0.000109,-0.001059,0.087266,-0.0,-0.0,3.032258,0.327388,0.297135,0.327388,0.354252,,,,,,
1126888,0.099633,-0.026026,0.051061,-0.006385,0.0,0.0,0.087266,-0.0,-0.0,3.032258,0.327388,0.283265,0.327388,0.364611,,,,,,
1126908,0.096338,-0.02594,0.050907,-0.005294,0.000102,-0.00106,0.087266,-0.0,-0.0,3.032258,0.327388,0.274617,0.327388,0.370538,,,,,,
1126928,0.093643,-0.026235,0.050775,-0.003165,0.0001,-0.00106,0.087266,-0.0,-0.0,3.032258,0.327388,0.282857,0.327388,0.3649,,,,,,
1126948,0.092163,-0.026797,0.05054,-0.002126,-0.00106,-9.8e-05,0.087266,-0.0,-0.0,3.032258,0.327388,0.296674,0.327388,0.354614,,,,,,
1126968,0.091903,-0.027401,0.050566,0.001067,-0.00106,-9.8e-05,0.087266,-0.0,-0.0,3.032258,0.327388,0.310944,0.327388,0.342782,,,,,,
1126988,0.093118,-0.027797,0.050602,0.002104,-0.002218,0.000862,0.087266,-0.0,-0.0,3.032258,0.327388,0.325615,0.327388,0.329149,,,,,,
1127008,0.095443,-0.027731,0.050624,0.004233,-0.00222,0.000857,0.087266,-0.0,-0.0,3.032258,0.327388,0.344393,0.327388,0.309092,,,,,,
1127028,0.098266,-0.027305,0.050509,0.006388,-0.001059,-0.000104,0.087266,-0.0,-0.0,3.032258,0.327388,0.350935,0.327388,0.301282,,,,,,
1127048,0.101707,-0.026534,0.0505,0.008542,0.000108,-0.001059,0.087266,-0.0,-0.0,3.032258,0.327388,0.354099,0.327388,0.297329,,,,,,
1127068,0.105512,-0.026131,0.050396,0.007471,0.002229,-0.000834,0.087266,-0.0,-0.0,3.032258,0.327388,0.357675,0.327388,0.292712,,,,,,
1127088,0.109422,-0.026095,0.050302,0.007471,0.002232,-0.000826,0.087266,-0.0,-0.0,3.032258,0.327388,0.361256,0.327388,0.28792,,,,,,
1127108,0.112721,-0.026412,0.050233,0.005343,0.002235,-0.000818,0.087266,-0.0,-0.0,3.032258,0.327388,0.36036,0.327388,0.289136,,,,,,
1127128,0.115395,-0.026962,0.050287,0.003193,0.0,0.0,0.087266,-0.0,-0.0,3.032258,0.327388,0.35902,0.327388,0.290933,,,,,,
1127148,0.116848,-0.027607,0.050341,7e-06,-0.002114,-0.000248,0.087266,-0.0,-0.0,3.032258,0.327388,0.353132,0.327388,0.29855,,,,,,
1127168,0.117451,-0.027864,0.050359,-0.002118,-0.003171,-0.000374,0.087266,-0.0,-0.0,3.032258,0.327388,0.346009,0.327388,0.307206,,,,,,
1127188,0.116844,-0.027621,0.050584,-0.003157,-0.00199,-0.001306,0.087266,-0.0,-0.0,3.032258,0.327388,0.337645,0.327388,0.316676,,,,,,
1127208,0.115268,-0.026981,0.050651,-0.003161,-0.000935,-0.00118,0.087266,-0.0,-0.0,3.032258,0.327388,0.328202,0.327388,0.326571,,,,,,
1127228,0.113198,-0.026572,0.050729,-0.003165,0.00012,-0.001058,0.087266,-0.0,-0.0,3.032258,0.327388,0.318211,0.327388,0.336229,,,,,,
1127248,0.11137,-0.026284,0.050695,-0.003165,0.000118,-0.001058,0.087266,-0.0,-0.0,3.032258,0.327388,0.312772,0.327388,0.341169,,,,,,
1127268,0.109775,-0.026619,0.050827,-0.003193,0.0,0.0,0.087266,-0.0,-0.0,3.032258,0.327388,0.316282,0.327388,0.338005,,,,,,
1127288,0.108421,-0.02683,0.050823,-0.002128,0.0,0.0,0.087266,-0.0,-0.0,3.032258,0.327388,0.319696,0.327388,0.334843,,,,,,
1127308,0.107432,-0.027301,0.050964,-0.0021,0.000114,-0.001058,0.087266,-0.0,-0.0,3.032258,0.327388,0.328339,0.327388,0.326434,,,,,,
1127328,0.107188,-0.027295,0.050963,-0.001032,-0.000944,-0.001172,0.087266,-0.0,-0.0,3.032258,0.327388,0.336874,0.327388,0.317514,,,,,,
1127348,0.107557,-0.027182,0.050959,3.2e-05,-0.000944,-0.001173,0.087266,-0.0,-0.0,3.032258,0.327388,0.341498,0.327388,0.312401,,,,,,
1127368,0.108048,-0.027072,0.050955,3.2e-05,-0.000943,-0.001173,0.087266,-0.0,-0.0,3.032258,0.327388,0.346122,0.327388,0.307074,,,,,,
1127388,0.108788,-0.026723,0.05094,0.001067,-0.001058,-0.000116,0.087266,-0.0,-0.0,3.032258,0.327388,0.34297,0.327388,0.310729,,,,,,
1127408,0.109285,-0.026615,0.050946,0.001092,0.000116,-0.001058,0.087266,-0.0,-0.0,3.032258,0.327388,0.344094,0.327388,0.309437,,,,,,
1127428,0.10989,-0.026757,0.051078,0.001064,0.0,0.0,0.087266,-0.0,-0.0,3.032258,0.327388,0.340927,0.327388,0.313043,,,,,,
1127448,0.110128,-0.026892,0.051208,0.0,0.0,0.0,0.087266,-0.0,-0.0,3.032258,0.327388,0.341651,0.327388,0.312228,,,,,,
1127468,0.109995,-0.027261,0.05135,-0.001035,0.000117,-0.001058,0.087266,-0.0,-0.0,3.032258,0.327388,0.338043,0.327388,0.316241,,,,,,
1127488,0.109994,-0.027153,0.051586,-0.001035,0.000117,-0.001058,0.087266,-0.0,-0.0,3.032258,0.327388,0.338247,0.327388,0.316017,,,,,,
1127508,0.109622,-0.027279,0.051834,-0.001032,-0.000941,-0.001175,0.087266,-0.0,-0.0,3.032258,0.327388,0.333947,0.327388,0.320646,,,,,,
1127528,0.109136,-0.027152,0.051946,-0.002097,-0.000942,-0.001174,0.087266,-0.0,-0.0,3.032258,0.327388,0.333916,0.327388,0.320679,,,,,,
1127548,0.108391,-0.027268,0.052182,-0.002093,-0.002001,-0.001289,0.087266,-0.0,-0.0,3.032258,0.327388,0.333876,0.327388,0.320721,,,,,,
1127568,0.108026,-0.02715,0.052416,-0.002093,-0.002001,-0.001288,0.087266,-0.0,-0.0,3.032258,0.327388,0.338112,0.327388,0.316165,,,,,,
1127588,0.107533,-0.027158,0.052778,-0.002097,-0.000944,-0.001173,0.087266,-0.0,-0.0,3.032258,0.327388,0.337859,0.327388,0.316442,,,,,,
1127608,0.107163,-0.027162,0.053019,-0.0021,0.000114,-0.001059,0.087266,-0.0,-0.0,3.032258,0.327388,0.342136,0.327388,0.311679,,,,,,
1127628,0.106427,-0.027164,0.053379,-0.002103,0.001171,-0.000946,0.087266,-0.0,-0.0,3.032258,0.327388,0.337744,0.327388,0.316568,,,,,,
1127648,0.106061,-0.027046,0.053614,-0.001039,0.001171,-0.000946,0.087266,-0.0,-0.0,3.032258,0.327388,0.337772,0.327388,0.316537,,,,,,
1127668,0.105568,-0.027162,0.053739,2.6e-05,0.00117,-0.000947,0.087266,-0.0,-0.0,3.032258,0.327388,0.333377,0.327388,0.321247,,,,,,
1127688,0.105323,-0.026917,0.053836,2.8e-05,0.000112,-0.001059,0.087266,-0.0,-0.0,3.032258,0.327388,0.333592,0.327388,0.321021,,,,,,
1127708,0.104831,-0.027142,0.053724,6e-06,-0.002117,-0.000223,0.087266,-0.0,-0.0,3.032258,0.327388,0.333592,0.327388,0.321021,,,,,,
1127728,0.104718,-0.026889,0.053589,-0.001061,-0.001058,-0.000111,0.087266,-0.0,-0.0,3.032258,0.327388,0.333917,0.327388,0.320678,,,,,,
1127748,0.104344,-0.027239,0.053484,-0.002125,-0.001058,-0.000111,0.087266,-0.0,-0.0,3.032258,0.327388,0.338113,0.327388,0.316164,,,,,,
1127768,0.104227,-0.027108,0.053355,-0.00319,-0.001058,-0.000111,0.087266,-0.0,-0.0,3.032258,0.327388,0.34233,0.327388,0.311459,,,,,,
1127788,0.103616,-0.027208,0.053236,-0.00319,-0.001059,-0.00011,0.087266,-0.0,-0.0,3.032258,0.327388,0.341886,0.327388,0.311963,,,,,,
1127808,0.103001,-0.027191,0.053222,-0.002125,-0.001059,-0.000109,0.087266,-0.0,-0.0,3.032258,0.327388,0.337524,0.327388,0.316808,,,,,,
1127828,0.102388,-0.027298,0.053224,-0.001035,0.000109,-0.001059,0.087266,-0.0,-0.0,3.032258,0.327388,0.333072,0.327388,0.321567,,,,,,
1127848,0.101664,-0.027036,0.053206,2.9e-05,0.000108,-0.001059,0.087266,-0.0,-0.0,3.032258,0.327388,0.328432,0.327388,0.32634,,,,,,
1127868,0.10105,-0.026904,0.053308,-0.001036,0.000107,-0.001059,0.087266,-0.0,-0.0,3.032258,0.327388,0.328255,0.327388,0.326518,,,,,,
1127888,0.100684,-0.026895,0.053306,-0.001036,0.000107,-0.001059,0.087266,-0.0,-0.0,3.032258,0.327388,0.332574,0.327388,0.322088,,,,,,
1127908,0.100437,-0.027011,0.05331,-0.0021,0.000107,-0.001059,0.087266,-0.0,-0.0,3.032258,0.327388,0.33692,0.327388,0.317465,,,,,,
1127928,0.10031,-0.027136,0.053437,-0.002097,-0.000952,-0.001166,0.087266,-0.0,-0.0,3.032258,0.327388,0.341071,0.327388,0.312882,,,,,,
1127948,0.100055,-0.027501,0.053576,-0.002093,-0.002012,-0.001272,0.087266,-0.0,-0.0,3.032258,0.327388,0.341083,0.327388,0.312869,,,,,,
1127968,0.100056,-0.027385,0.053691,-0.001058,-0.002118,-0.000213,0.087266,-0.0,-0.0,3.032258,0.327388,0.340995,0.327388,0.312967,,,,,,
1127988,0.099683,-0.02751,0.053938,6e-06,-0.002118,-0.000212,0.087266,-0.0,-0.0,3.032258,0.327388,0.340799,0.327388,0.313187,,,,,,
1128008,0.099328,-0.027136,0.053917,2.9e-05,0.000106,-0.001059,0.087266,-0.0,-0.0,3.032258,0.327388,0.336805,0.327388,0.317589,,,,,,
1128028,0.098844,-0.027001,0.053908,2.6e-05,0.001164,-0.000954,0.087266,-0.0,-0.0,3.032258,0.327388,0.332497,0.327388,0.322169,,,,,,
1128048,0.098727,-0.026871,0.053779,2.3e-05,0.002223,-0.00085,0.087266,-0.0,-0.0,3.032258,0.327388,0.332839,0.327388,0.321811,,,,,,
1128068,0.098604,-0.026983,0.053663,-0.001067,0.001059,0.000105,0.087266,-0.0,-0.0,3.032258,0.327388,0.3326,0.327388,0.322062,,,,,,
1128088,0.098475,-0.027224,0.053674,-0.002126,-0.001059,-0.000105,0.087266,-0.0,-0.0,3.032258,0.327388,0.337112,0.327388,0.317256,,,,,,
1128108,0.098099,-0.027451,0.053552,-0.00212,-0.003177,-0.000313,0.087266,-0.0,-0.0,3.032258,0.327388,0.337083,0.327388,0.317287,,,,,,
1128128,0.09785,-0.027573,0.053678,-0.00212,-0.003177,-0.000312,0.087266,-0.0,-0.0,3.032258,0.327388,0.336731,0.327388,0.317669,,,,,,
1128148,0.097361,-0.027566,0.053796,-0.002126,-0.001059,-0.000103,0.087266,-0.0,-0.0,3.032258,0.327388,0.336289,0.327388,0.318146,,,,,,
1128168,0.096638,-0.027188,0.053895,-0.001035,0.000103,-0.00106,0.087266,-0.0,-0.0,3.032258,0.327388,0.336057,0.327388,0.318396,,,,,,
1128188,0.096028,-0.027173,0.05389,-0.001038,0.001161,-0.000958,0.087266,-0.0,-0.0,3.032258,0.327388,0.3317,0.327388,0.322998,,,,,,
1128208,0.09542,-0.026912,0.053864,-0.001038,0.001161,-0.000958,0.087266,-0.0,-0.0,3.032258,0.327388,0.331317,0.327388,0.323394,,,,,,
1128228,0.094922,-0.027266,0.053878,-0.001038,0.00116,-0.000959,0.087266,-0.0,-0.0,3.032258,0.327388,0.331011,0.327388,0.32371,,,,,,
1128248,0.094678,-0.027259,0.053877,-0.001061,-0.001059,-0.000101,0.087266,-0.0,-0.0,3.032258,0.327388,0.330921,0.327388,0.323803,,,,,,
1128268,0.094184,-0.027491,0.053885,-0.002123,-0.002119,-0.0002,0.087266,-0.0,-0.0,3.032258,0.327388,0.330614,0.327388,0.324119,,,,,,
1128288,0.093697,-0.027479,0.053881,-0.002123,-0.002119,-0.000199,0.087266,-0.0,-0.0,3.032258,0.327388,0.334541,0.327388,0.320016,,,,,,
1128308,0.093207,-0.027472,0.053999,-0.002097,-0.000961,-0.001159,0.087266,-0.0,-0.0,3.032258,0.327388,0.334232,0.327388,0.320345,,,,,,
1128328,0.092839,-0.027339,0.053981,-0.002099,9.9e-05,-0.00106,0.087266,-0.0,-0.0,3.032258,0.327388,0.333806,0.327388,0.320795,,,,,,
1128348,0.092352,-0.027327,0.053977,-0.002099,9.8e-05,-0.00106,0.087266,-0.0,-0.0,3.032258,0.327388,0.333581,0.327388,0.321032,,,,,,
1128368,0.09199,-0.027196,0.053969,-0.001035,9.8e-05,-0.00106,0.087266,-0.0,-0.0,3.032258,0.327388,0.333127,0.327388,0.32151,,,,,,
1128388,0.091746,-0.02719,0.053967,-0.001035,9.8e-05,-0.00106,0.087266,-0.0,-0.0,3.032258,0.327388,0.333109,0.327388,0.321528,,,,,,
1128408,0.09138,-0.02718,0.053964,-0.001062,-0.00106,-9.7e-05,0.087266,-0.0,-0.0,3.032258,0.327388,0.332972,0.327388,0.321673,,,,,,
1128428,0.091011,-0.027293,0.053967,-0.001062,-0.00106,-9.7e-05,0.087266,-0.0,-0.0,3.032258,0.327388,0.32844,0.327388,0.326332,,,,,,
1128448,0.090893,-0.027168,0.053961,0.0,0.0,0.0,0.087266,-0.0,-0.0,3.032258,0.327388,0.328173,0.327388,0.3266,,,,,,
1128468,0.090644,-0.027289,0.054086,2.9e-05,9.6e-05,-0.00106,0.087266,-0.0,-0.0,3.032258,0.327388,0.328142,0.327388,0.326632,,,,,,
1128488,0.090403,-0.027032,0.053942,-0.001036,9.6e-05,-0.00106,0.087266,-0.0,-0.0,3.032258,0.327388,0.332483,0.327388,0.322184,,,,,,
1128508,0.089909,-0.027264,0.053949,-0.0021,9.6e-05,-0.00106,0.087266,-0.0,-0.0,3.032258,0.327388,0.332316,0.327388,0.322358,,,,,,
1128528,0.089909,-0.027264,0.053949,-0.002097,-0.000964,-0.001156,0.087266,-0.0,-0.0,3.032258,0.327388,0.332034,0.327388,0.322651,,,,,,
1128548,0.089777,-0.027626,0.053965,-0.002094,-0.002024,-0.001251,0.087266,-0.0,-0.0,3.032258,0.327388,0.336174,0.327388,0.31827,,,,,,
1128568,0.089409,-0.027622,0.054084,-0.002123,-0.00212,-0.00019,0.087266,-0.0,-0.0,3.032258,0.327388,0.335785,0.327388,0.318688,,,,,,
1128588,0.089047,-0.027491,0.054075,-0.001088,-0.002215,0.000871,0.087266,-0.0,-0.0,3.032258,0.327388,0.331165,0.327388,0.323551,,,,,,
1128608,0.088562,-0.027357,0.054066,-0.001064,0.0,0.0,0.087266,-0.0,-0.0,3.032258,0.327388,0.330982,0.327388,0.32374,,,,,,
1128628,0.088198,-0.027231,0.05418,2.6e-05,0.001154,-0.000967,0.087266,-0.0,-0.0,3.032258,0.327388,0.326252,0.327388,0.328519,,,,,,
1128648,0.08808,-0.027106,0.054173,2.4e-05,0.002214,-0.000873,0.087266,-0.0,-0.0,3.032258,0.327388,0.326172,0.327388,0.328598,,,,,,
1128668,0.087834,-0.027217,0.054055,2.6e-05,0.001153,-0.000967,0.087266,-0.0,-0.0,3.032258,0.327388,0.330498,0.327388,0.324238,,,,,,
1128688,0.087831,-0.027339,0.05406,-0.001035,9.3e-05,-0.001061,0.087266,-0.0,-0.0,3.032258,0.327388,0.330508,0.327388,0.324228,,,,,,
1128708,0.087821,-0.027704,0.054077,-0.001059,-0.00212,-0.000187,0.087266,-0.0,-0.0,3.032258,0.327388,0.330491,0.327388,0.324244,,,,,,
1128728,0.087943,-0.027707,0.054078,-0.001059,-0.00212,-0.000187,0.087266,-0.0,-0.0,3.032258,0.327388,0.334749,0.327388,0.319795,,,,,,
1128748,0.087939,-0.027829,0.054083,-0.001056,-0.00318,-0.000281,0.087266,-0.0,-0.0,3.032258,0.327388,0.334643,0.327388,0.319908,,,,,,
1128768,0.087696,-0.027823,0.054081,-0.001062,-0.00106,-9.3e-05,0.087266,-0.0,-0.0,3.032258,0.327388,0.334334,0.327388,0.320236,,,,,,
1128788,0.087333,-0.027452,0.054174,-0.001035,9.3e-05,-0.001061,0.087266,-0.0,-0.0,3.032258,0.327388,0.329999,0.327388,0.324749,,,,,,
1128808,0.087089,-0.027445,0.054172,-0.00104,0.002213,-0.000875,0.087266,-0.0,-0.0,3.032258,0.327388,0.329786,0.327388,0.324966,,,,,,
1128828,0.086976,-0.027193,0.054039,-0.00104,0.002213,-0.000876,0.087266,-0.0,-0.0,3.032258,0.327388,0.329902,0.327388,0.324847,,,,,,
1128848,0.086969,-0.027437,0.054049,2.7e-05,0.001153,-0.000968,0.087266,-0.0,-0.0,3.032258,0.327388,0.329539,0.327388,0.325218,,,,,,
1128868,0.087088,-0.027562,0.054056,-0.001032,-0.000968,-0.001153,0.087266,-0.0,-0.0,3.032258,0.327388,0.329753,0.327388,0.325,,,,,,
1128888,0.086962,-0.027681,0.05406,-0.001059,-0.00212,-0.000185,0.087266,-0.0,-0.0,3.032258,0.327388,0.334107,0.327388,0.320477,,,,,,
1128908,0.087081,-0.027806,0.054066,-0.001057,-0.003181,-0.000278,0.087266,-0.0,-0.0,3.032258,0.327388,0.333984,0.327388,0.320607,,,,,,
1128928,0.087206,-0.027687,0.054062,-0.001059,-0.00212,-0.000185,0.087266,-0.0,-0.0,3.032258,0.327388,0.333889,0.327388,0.320708,,,,,,
1128948,0.087091,-0.02744,0.05405,2.9e-05,9.3e-05,-0.001061,0.087266,-0.0,-0.0,3.032258,0.327388,0.333792,0.327388,0.320809,,,,,,
1128968,0.086724,-0.027436,0.054169,2.4e-05,0.002213,-0.000876,0.087266,-0.0,-0.0,3.032258,0.327388,0.329313,0.327388,0.325448,,,,,,
1128988,0.08661,-0.027184,0.054036,-0.00104,0.002213,-0.000876,0.087266,-0.0,-0.0,3.032258,0.327388,0.329535,0.327388,0.325222,,,,,,
1129008,0.086603,-0.027428,0.054046,2.7e-05,0.001152,-0.000969,0.087266,-0.0,-0.0,3.032258,0.327388,0.329519,0.327388,0.325239,,,,,,
1129028,0.086725,-0.027431,0.054047,-0.001035,9.2e-05,-0.001061,0.087266,-0.0,-0.0,3.032258,0.327388,0.32937,0.327388,0.32539,,,,,,
1129048,0.086719,-0.027675,0.054058,-0.001059,-0.00212,-0.000184,0.087266,-0.0,-0.0,3.032258,0.327388,0.333838,0.327388,0.320761,,,,,,
1129068,0.086719,-0.027675,0.054058,-0.001057,-0.003181,-0.000277,0.087266,-0.0,-0.0,3.032258,0.327388,0.329327,0.327388,0.325434,,,,,,
1129088,0.086593,-0.027793,0.054062,-0.001057,-0.003181,-0.000276,0.087266,-0.0,-0.0,3.032258,0.327388,0.328989,0.327388,0.325777,,,,,,
1129108,0.0866,-0.02755,0.054052,3.2e-05,-0.000968,-0.001153,0.087266,-0.0,-0.0,3.032258,0.327388,0.333251,0.327388,0.32138,,,,,,
1129128,0.086478,-0.027547,0.054051,-0.001038,0.001152,-0.000969,0.087266,-0.0,-0.0,3.032258,0.327388,0.333252,0.327388,0.321378,,,,,,
1129148,0.08648,-0.027541,0.053929,-0.00104,0.002212,-0.000877,0.087266,-0.0,-0.0,3.032258,0.327388,0.329092,0.327388,0.325672,,,,,,
1129168,0.086358,-0.027538,0.053928,-0.00104,0.002212,-0.000877,0.087266,-0.0,-0.0,3.032258,0.327388,0.329084,0.327388,0.32568,,,,,,
1129188,0.08648,-0.027541,0.053929,-0.001038,0.001152,-0.000969,0.087266,-0.0,-0.0,3.032258,0.327388,0.329056,0.327388,0.325709,,,,,,
1129208,0.086351,-0.027782,0.053939,3.2e-05,-0.000968,-0.001152,0.087266,-0.0,-0.0,3.032258,0.327388,0.328926,0.327388,0.32584,,,,,,
1129228,0.086355,-0.02766,0.053933,5e-06,-0.002121,-0.000184,0.087266,-0.0,-0.0,3.032258,0.327388,0.328898,0.327388,0.325869,,,,,,
1129248,0.086224,-0.027906,0.054065,5e-06,-0.002121,-0.000183,0.087266,-0.0,-0.0,3.032258,0.327388,0.328757,0.327388,0.326011,,,,,,
1129268,0.086351,-0.027782,0.053939,5e-06,-0.002121,-0.000184,0.087266,-0.0,-0.0,3.032258,0.327388,0.328967,0.327388,0.325799,,,,,,
1129288,0.086101,-0.02802,0.053947,-0.001032,-0.000969,-0.001152,0.087266,-0.0,-0.0,3.032258,0.327388,0.328718,0.327388,0.326051,,,,,,
1129308,0.086357,-0.027655,0.053812,-0.002128,0.0,0.0,0.087266,-0.0,-0.0,3.032258,0.327388,0.333097,0.327388,0.32154,,,,,,
1129328,0.086231,-0.027774,0.053816,-0.002128,0.0,0.0,0.087266,-0.0,-0.0,3.032258,0.327388,0.332867,0.327388,0.321782,,,,,,
1129348,0.086115,-0.027644,0.053688,-0.001064,0.0,0.0,0.087266,-0.0,-0.0,3.032258,0.327388,0.332626,0.327388,0.322035,,,,,,
1129368,0.085749,-0.027634,0.053685,-0.001064,0.0,0.0,0.087266,-0.0,-0.0,3.032258,0.327388,0.332613,0.327388,0.322048,,,,,,
1129388,0.08563,-0.027509,0.053679,0.0,0.0,0.0,0.087266,-0.0,-0.0,3.032258,0.327388,0.328071,0.327388,0.326703,,,,,,
1129408,0.085505,-0.027628,0.053683,0.001067,-0.00106,-9.1e-05,0.087266,-0.0,-0.0,3.032258,0.327388,0.323336,0.327388,0.331373,,,,,,
1129428,0.085388,-0.027498,0.053555,0.001067,-0.00106,-9.1e-05,0.087266,-0.0,-0.0,3.032258,0.327388,0.323175,0.327388,0.331529,,,,,,
1129448,0.085261,-0.027622,0.053681,3.2e-05,-0.00097,-0.001151,0.087266,-0.0,-0.0,3.032258,0.327388,0.323376,0.327388,0.331335,,,,,,
1129468,0.085261,-0.027622,0.053681,-0.001035,9.1e-05,-0.001061,0.087266,-0.0,-0.0,3.032258,0.327388,0.327949,0.327388,0.326826,,,,,,
1129488,0.085622,-0.027758,0.053811,-0.001035,9.1e-05,-0.001061,0.087266,-0.0,-0.0,3.032258,0.327388,0.332308,0.327388,0.322366,,,,,,
1129508,0.085623,-0.027642,0.053927,-0.002097,-0.000969,-0.001152,0.087266,-0.0,-0.0,3.032258,0.327388,0.336481,0.327388,0.31794,,,,,,
1129528,0.085621,-0.027647,0.054049,-0.002126,-0.00106,-9.1e-05,0.087266,-0.0,-0.0,3.032258,0.327388,0.336228,0.327388,0.318212,,,,,,
1129548,0.085501,-0.027527,0.054165,-0.001062,-0.00106,-9.1e-05,0.087266,-0.0,-0.0,3.032258,0.327388,0.331867,0.327388,0.322824,,,,,,
1129568,0.085254,-0.027643,0.054168,2.9e-05,9.1e-05,-0.001061,0.087266,-0.0,-0.0,3.032258,0.327388,0.327197,0.327388,0.327579,,,,,,
1129588,0.085135,-0.027518,0.054162,0.0,0.0,0.0,0.087266,-0.0,-0.0,3.032258,0.327388,0.322539,0.327388,0.332142,,,,,,
1129608,0.085013,-0.027515,0.054161,0.0,0.0,0.0,0.087266,-0.0,-0.0,3.032258,0.327388,0.322624,0.327388,0.33206,,,,,,
1129628,0.085015,-0.027509,0.054039,2.9e-05,9e-05,-0.001061,0.087266,-0.0,-0.0,3.032258,0.327388,0.322699,0.327388,0.331988,,,,,,
1129648,0.085015,-0.027509,0.054039,-0.001035,9e-05,-0.001061,0.087266,-0.0,-0.0,3.032258,0.327388,0.327386,0.327388,0.327391,,,,,,
1129668,0.085386,-0.027392,0.053915,-0.001062,-0.00106,-9.1e-05,0.087266,-0.0,-0.0,3.032258,0.327388,0.331865,0.327388,0.322827,,,,,,
1129688,0.085503,-0.027633,0.053805,-0.001062,-0.00106,-9.1e-05,0.087266,-0.0,-0.0,3.032258,0.327388,0.33592,0.327388,0.318543,,,,,,
1129708,0.085745,-0.027645,0.053928,-0.001062,-0.00106,-9.1e-05,0.087266,-0.0,-0.0,3.032258,0.327388,0.335671,0.327388,0.31881,,,,,,
1129728,0.08562,-0.027764,0.053933,2.9e-05,9.1e-05,-0.001061,0.087266,-0.0,-0.0,3.032258,0.327388,0.331416,0.327388,0.323292,,,,,,
1129748,0.085383,-0.027514,0.05392,0.001093,9.1e-05,-0.001061,0.087266,-0.0,-0.0,3.032258,0.327388,0.327308,0.327388,0.327468,,,,,,
1129768,0.085384,-0.027397,0.054037,0.001096,-0.00097,-0.001152,0.087266,-0.0,-0.0,3.032258,0.327388,0.323019,0.327388,0.33168,,,,,,
1129788,0.08563,-0.027286,0.054155,0.0,0.0,0.0,0.087266,-0.0,-0.0,3.032258,0.327388,0.32747,0.327388,0.327306,,,,,,
1129808,0.085995,-0.027296,0.054158,2.9e-05,9.1e-05,-0.001061,0.087266,-0.0,-0.0,3.032258,0.327388,0.332186,0.327388,0.322493,,,,,,
1129828,0.086239,-0.027302,0.05416,-0.001033,-0.000969,-0.001152,0.087266,-0.0,-0.0,3.032258,0.327388,0.332372,0.327388,0.3223,,,,,,
1129848,0.08648,-0.02743,0.054167,-0.001062,-0.00106,-9.2e-05,0.087266,-0.0,-0.0,3.032258,0.327388,0.33246,0.327388,0.322207,,,,,,
1129868,0.086473,-0.027674,0.054178,-0.001062,-0.00106,-9.2e-05,0.087266,-0.0,-0.0,3.032258,0.327388,0.332101,0.327388,0.322581,,,,,,
1129888,0.08648,-0.02743,0.054167,-0.001033,-0.000968,-0.001153,0.087266,-0.0,-0.0,3.032258,0.327388,0.331978,0.327388,0.322709,,,,,,
1129908,0.086238,-0.027418,0.054043,3.2e-05,-0.000969,-0.001152,0.087266,-0.0,-0.0,3.032258,0.327388,0.327564,0.327388,0.327212,,,,,,
1129928,0.085875,-0.027287,0.054035,2e-06,-0.00106,-9.1e-05,0.087266,-0.0,-0.0,3.032258,0.327388,0.322943,0.327388,0.331753,,,,,,
1129948,0.085875,-0.027287,0.054035,0.0,0.0,0.0,0.087266,-0.0,-0.0,3.032258,0.327388,0.32305,0.327388,0.33165,,,,,,
1129968,0.085874,-0.027292,0.054157,0.0,0.0,0.0,0.087266,-0.0,-0.0,3.032258,0.327388,0.327511,0.327388,0.327265,,,,,,
1129988,0.08587,-0.027414,0.054162,-0.001035,9.1e-05,-0.001061,0.087266,-0.0,-0.0,3.032258,0.327388,0.327593,0.327388,0.327183,,,,,,
1130008,0.086114,-0.027421,0.054164,-0.001035,9.2e-05,-0.001061,0.087266,-0.0,-0.0,3.032258,0.327388,0.33208,0.327388,0.322603,,,,,,
1130028,0.086233,-0.027546,0.054171,-0.001032,-0.000969,-0.001152,0.087266,-0.0,-0.0,3.032258,0.327388,0.331938,0.327388,0.322751,,,,,,
1130048,0.086233,-0.027546,0.054171,-0.001032,-0.000969,-0.001152,0.087266,-0.0,-0.0,3.032258,0.327388,0.331794,0.327388,0.322901,,,,,,
1130068,0.086229,-0.027668,0.054176,-0.001032,-0.000969,-0.001152,0.087266,-0.0,-0.0,3.032258,0.327388,0.331774,0.327388,0.322921,,,,,,
1130088,0.086112,-0.027537,0.054048,-0.001062,-0.00106,-9.2e-05,0.087266,-0.0,-0.0,3.032258,0.327388,0.327354,0.327388,0.327422,,,,,,
1130108,0.085863,-0.027658,0.054173,-0.001062,-0.00106,-9.1e-05,0.087266,-0.0,-0.0,3.032258,0.327388,0.32711,0.327388,0.327666,,,,,,
1130128,0.085752,-0.027289,0.054156,-0.001064,0.0,0.0,0.087266,-0.0,-0.0,3.032258,0.327388,0.327088,0.327388,0.327688,,,,,,
1130148,0.08563,-0.027286,0.054155,0.0,0.0,0.0,0.087266,-0.0,-0.0,3.032258,0.327388,0.327182,0.327388,0.327594,,,,,,
1130168,0.085753,-0.027173,0.054273,2.6e-05,0.001151,-0.00097,0.087266,-0.0,-0.0,3.032258,0.327388,0.327054,0.327388,0.327721,,,,,,
1130188,0.085997,-0.027179,0.054275,2.6e-05,0.001152,-0.000969,0.087266,-0.0,-0.0,3.032258,0.327388,0.327014,0.327388,0.327762,,,,,,
1130208,0.085872,-0.027298,0.054279,2.9e-05,9.1e-05,-0.001061,0.087266,-0.0,-0.0,3.032258,0.327388,0.331619,0.327388,0.323082,,,,,,
1130228,0.085995,-0.027296,0.054158,-0.001033,-0.000969,-0.001152,0.087266,-0.0,-0.0,3.032258,0.327388,0.327279,0.327388,0.327497,,,,,,
1130248,0.086111,-0.027543,0.05417,-0.00103,-0.002029,-0.001244,0.087266,-0.0,-0.0,3.032258,0.327388,0.327133,0.327388,0.327643,,,,,,
1130268,0.086114,-0.027421,0.054164,-0.001059,-0.002121,-0.000183,0.087266,-0.0,-0.0,3.032258,0.327388,0.331307,0.327388,0.323405,,,,,,
1130288,0.085867,-0.027536,0.054168,-0.001059,-0.002121,-0.000183,0.087266,-0.0,-0.0,3.032258,0.327388,0.331171,0.327388,0.323545,,,,,,
1130308,0.085748,-0.027411,0.054161,-0.001062,-0.00106,-9.1e-05,0.087266,-0.0,-0.0,3.032258,0.327388,0.331155,0.327388,0.323562,,,,,,
1130328,0.085755,-0.027167,0.054151,2.6e-05,0.001151,-0.00097,0.087266,-0.0,-0.0,3.032258,0.327388,0.331258,0.327388,0.323456,,,,,,
1130348,0.085509,-0.027166,0.054271,2.4e-05,0.002212,-0.000879,0.087266,-0.0,-0.0,3.032258,0.327388,0.326582,0.327388,0.328191,,,,,,
1130368,0.085638,-0.026926,0.054261,2.4e-05,0.002212,-0.000879,0.087266,-0.0,-0.0,3.032258,0.327388,0.326661,0.327388,0.328113,,,,,,
1130388,0.085388,-0.027163,0.05427,2.9e-05,9.1e-05,-0.001061,0.087266,-0.0,-0.0,3.032258,0.327388,0.326504,0.327388,0.328269,,,,,,
1130408,0.08575,-0.027295,0.054278,3.1e-05,-0.000969,-0.001152,0.087266,-0.0,-0.0,3.032258,0.327388,0.326683,0.327388,0.328091,,,,,,
1130428,0.08574,-0.02766,0.054294,-0.001059,-0.002121,-0.000182,0.087266,-0.0,-0.0,3.032258,0.327388,0.331176,0.327388,0.32354,,,,,,
1130448,0.085862,-0.027663,0.054295,-0.001057,-0.003181,-0.000274,0.087266,-0.0,-0.0,3.032258,0.327388,0.331027,0.327388,0.323693,,,,,,
1130468,0.085862,-0.027663,0.054295,-0.001086,-0.003272,0.000787,0.087266,-0.0,-0.0,3.032258,0.327388,0.330893,0.327388,0.323831,,,,,,
1130488,0.085865,-0.027542,0.054289,-0.001062,-0.00106,-9.1e-05,0.087266,-0.0,-0.0,3.032258,0.327388,0.330769,0.327388,0.323959,,,,,,
1130508,0.085631,-0.02717,0.054272,2.6e-05,0.001151,-0.00097,0.087266,-0.0,-0.0,3.032258,0.327388,0.33076,0.327388,0.323969,,,,,,
1130528,0.085506,-0.027288,0.054276,2.4e-05,0.002212,-0.000879,0.087266,-0.0,-0.0,3.032258,0.327388,0.326308,0.327388,0.328463,,,,,,
1130548,0.085757,-0.027051,0.054267,2.4e-05,0.002212,-0.000878,0.087266,-0.0,-0.0,3.032258,0.327388,0.326623,0.327388,0.328151,,,,,,
1130568,0.08575,-0.027295,0.054278,2.6e-05,0.001151,-0.00097,0.087266,-0.0,-0.0,3.032258,0.327388,0.326467,0.327388,0.328305,,,,,,
1130588,0.085994,-0.027301,0.05428,-0.001033,-0.000969,-0.001152,0.087266,-0.0,-0.0,3.032258,0.327388,0.330957,0.327388,0.323766,,,,,,
1130608,0.085865,-0.027542,0.054289,-0.001057,-0.003181,-0.000274,0.087266,-0.0,-0.0,3.032258,0.327388,0.331039,0.327388,0.323682,,,,,,
1130628,0.085865,-0.027542,0.054289,-0.001057,-0.003181,-0.000274,0.087266,-0.0,-0.0,3.032258,0.327388,0.326459,0.327388,0.328313,,,,,,
1130648,0.085983,-0.027667,0.054296,5e-06,-0.002121,-0.000183,0.087266,-0.0,-0.0,3.032258,0.327388,0.330533,0.327388,0.324202,,,,,,
1130668,0.085865,-0.027542,0.054289,3e-06,-0.00106,-9.1e-05,0.087266,-0.0,-0.0,3.032258,0.327388,0.330632,0.327388,0.3241,,,,,,
1130688,0.08575,-0.027295,0.054278,2.6e-05,0.001151,-0.00097,0.087266,-0.0,-0.0,3.032258,0.327388,0.326263,0.327388,0.328582,,,,,,
1130708,0.085637,-0.027042,0.054145,-0.00104,0.002212,-0.000879,0.087266,-0.0,-0.0,3.032258,0.327388,0.326395,0.327388,0.328377,,,,,,
1130728,0.08588,-0.027049,0.054147,-0.001038,0.001152,-0.000969,0.087266,-0.0,-0.0,3.032258,0.327388,0.326489,0.327388,0.328284,,,,,,
