time_ms,roll,pitch,yaw,reference_roll,reference_pitch,reference_yaw,reference_throttle,throttle_1,throttle_2,throttle_3,throttle_4,roll_predicted,pitch_predicted,yaw_predicted,roll_rate_predicted,pitch_rate_predicted,yaw_rate_predicted,value1,value2,value3,value4,value5,value6
35751,-0.004883,-5.2e-05,-0.021241,-0.0,-0.0,-0.0,3.0,0.0,0.0,0.0,0.0,-0.0,-30.565296,-0.0,0.0,-3.478465,-0.0,-0.002376,0.0,0.0,0.001674,0.0,0.0
35771,-0.005005,-5.2e-05,-0.020875,-0.0,-0.0,-0.0,3.0,0.0,0.0,0.0,0.0,-0.0,-30.633623,-0.0,0.0,-3.314948,-0.0,-0.002347,0.0,0.0,-0.001511,0.0,0.0
35791,-0.005249,-5.4e-05,-0.020752,0.001247,-0.0,-0.0,3.0,0.0,0.0,0.0,0.0,3e-06,-30.698758,-0.0,0.001103,-3.161932,0.0,-0.002398,0.0,0.0,-0.005612,0.0,0.0
35811,-0.005368,-0.0003,-0.020753,0.002394,-0.0,-0.0,3.0,0.0,0.0,0.0,0.0,4.2e-05,-30.760912,-1e-06,0.003963,-3.019572,2e-06,-0.002506,0.0,0.0,-0.005849,0.0,0.0
35831,-0.005366,-0.000544,-0.020754,0.004576,-0.0,-0.0,3.0,0.0,0.0,0.0,0.0,0.000146,-30.820299,-6e-06,0.00882,-2.887931,7e-06,-0.002605,0.0,0.0,-0.003693,0.0,0.0
35851,-0.004998,-0.000662,-0.020754,0.006225,-0.0,-0.0,3.0,0.0,0.0,0.0,0.0,0.00036,-30.877134,-2.1e-05,0.015372,-2.766997,1.6e-05,-0.002655,0.0,0.0,0.002552,0.0,0.0
35871,-0.004754,-0.00066,-0.020754,0.008435,-0.0,-0.0,3.0,0.0,0.0,0.0,0.0,0.000704,-30.93163,-5e-05,0.022961,-2.656706,3e-05,-0.002564,0.0,0.0,0.008367,0.0,0.0
35891,-0.004633,-0.000536,-0.020754,0.009608,-0.0,-0.0,3.0,0.0,0.0,0.0,0.0,0.001198,-30.984,-0.000101,0.030626,-2.556952,5e-05,-0.002397,0.0,0.0,0.007389,0.0,0.0
35911,-0.004636,-0.000292,-0.020753,0.011451,-0.0,-0.0,3.0,0.0,0.0,0.0,0.0,0.00183,-31.034453,-0.000178,0.037816,-2.467605,7.5e-05,-0.002271,0.0,0.0,0.004702,0.0,0.0
35931,-0.00488,-0.000295,-0.020753,0.013316,-0.0,-0.0,3.0,0.0,0.0,0.0,0.0,0.0026,-31.083196,-0.000286,0.045072,-2.388521,0.000104,-0.002204,0.0,0.0,0.00068,0.0,0.0
35951,-0.005002,-0.000296,-0.020631,0.015193,-0.0,-0.0,3.0,0.0,0.0,0.0,0.0,0.003508,-31.130433,-0.000429,0.052231,-2.31955,0.000137,-0.002228,0.0,0.0,-0.003993,0.0,0.0
35971,-0.005124,-0.000297,-0.020631,0.016209,-0.0,-0.0,3.0,0.0,0.0,0.0,0.0,0.004551,-31.176365,-0.000611,0.058382,-2.260544,0.000174,-0.00232,0.0,0.0,-0.004618,0.0,0.0
35991,-0.005123,-0.000419,-0.020631,0.018304,-0.0,-0.0,3.0,0.0,0.0,0.0,0.0,0.005706,-31.221192,-0.000835,0.06385,-2.211367,0.000213,-0.002399,0.0,0.0,-0.00293,0.0,0.0
36011,-0.004878,-0.000539,-0.020632,0.019407,-0.0,-0.0,3.0,0.0,0.0,0.0,0.0,0.006973,-31.265107,-0.001106,0.068755,-2.171893,0.000256,-0.002424,0.0,0.0,0.002793,0.0,0.0
36031,-0.004633,-0.000536,-0.020754,0.02192,-0.0,-0.0,3.0,0.0,0.0,0.0,0.0,0.008335,-31.308305,-0.001427,0.073517,-2.142016,0.0003,-0.002352,0.0,0.0,0.003846,0.0,0.0
36051,-0.004635,-0.000415,-0.020875,0.023182,-0.0,-0.0,3.0,0.0,0.0,0.0,0.0,0.009806,-31.350976,-0.001801,0.078162,-2.121649,0.000347,-0.002251,0.0,0.0,0.004279,0.0,0.0
36071,-0.004636,-0.000292,-0.020753,0.024986,-0.0,-0.0,3.0,0.0,0.0,0.0,0.0,0.011374,-31.39331,-0.002234,0.081975,-2.110728,0.000397,-0.002178,0.0,0.0,0.002709,0.0,0.0
36091,-0.004758,-0.000294,-0.020753,0.026787,-0.0,-0.0,3.0,0.0,0.0,0.0,0.0,0.013034,-31.435496,-0.002731,0.085521,-2.109214,0.000449,-0.002132,0.0,0.0,-0.000848,0.0,0.0
36111,-0.004759,-0.000171,-0.020753,0.02853,-0.0,-0.0,3.0,0.0,0.0,0.0,0.0,0.014787,-31.477721,-0.0033,0.088703,-2.117093,0.000502,-0.002147,0.0,0.0,-0.000569,0.0,0.0
36131,-0.004881,-0.000173,-0.020875,0.030293,-0.0,-0.0,3.0,0.0,0.0,0.0,0.0,0.01663,-31.520172,-0.003948,0.091459,-2.134374,0.000558,-0.002181,0.0,0.0,-0.002428,0.0,0.0
36151,-0.004758,-0.000294,-0.020997,0.031592,-0.0,-0.0,3.0,0.0,0.0,0.0,0.0,0.018562,-31.563039,-0.004686,0.093382,-2.161093,0.000616,-0.002222,0.0,0.0,0.00105,0.0,0.0
36171,-0.004879,-0.000417,-0.020997,0.032737,-0.0,-0.0,3.0,0.0,0.0,0.0,0.0,0.020571,-31.60651,-0.005524,0.094044,-2.197307,0.000676,-0.002204,0.0,0.0,0.000696,0.0,0.0
36191,-0.004879,-0.000417,-0.020997,0.035221,-0.0,-0.0,3.0,0.0,0.0,0.0,0.0,0.022647,-31.650775,-0.006476,0.094744,-2.243097,0.000737,-0.002227,0.0,0.0,-0.001401,0.0,0.0
36211,-0.005002,-0.000297,-0.020997,0.036185,-0.0,-0.0,3.0,0.0,0.0,0.0,0.0,0.024816,-31.696025,-0.007556,0.095178,-2.298562,0.000801,-0.002275,0.0,0.0,-0.002984,0.0,0.0
36231,-0.005125,-0.000176,-0.020997,0.038069,-0.0,-0.0,3.0,0.0,0.0,0.0,0.0,0.027074,-31.742456,-0.008786,0.094757,-2.363815,0.000865,-0.002339,0.0,0.0,-0.004217,0.0,0.0
36251,-0.005125,-0.000176,-0.020997,0.039821,-0.0,-0.0,3.0,0.0,0.0,0.0,0.0,0.029436,-31.790262,-0.010188,0.09423,-2.438985,0.000932,-0.002411,0.0,0.0,-0.002716,0.0,0.0
36271,-0.005127,-5.4e-05,-0.020997,0.041434,-0.0,-0.0,3.0,0.0,0.0,0.0,0.0,0.031926,-31.839643,-0.011791,0.093197,-2.524203,0.001,-0.002457,0.0,0.0,-0.001764,0.0,0.0
36291,-0.005127,-5.4e-05,-0.021119,0.043081,-0.0,-0.0,3.0,0.0,0.0,0.0,0.0,0.034565,-31.890799,-0.013633,0.09146,-2.619602,0.00107,-0.002488,0.0,0.0,-0.001128,0.0,0.0
36311,-0.005005,-5.3e-05,-0.021363,0.044119,-0.0,-0.0,3.0,0.0,0.0,0.0,0.0,0.037383,-31.943935,-0.01576,0.088414,-2.725307,0.00114,-0.002494,0.0,0.0,0.001587,0.0,0.0
36331,-0.005005,-5.4e-05,-0.021485,0.04509,-0.0,-0.0,3.0,0.0,0.0,0.0,0.0,0.040406,-31.999255,-0.018232,0.0835,-2.841422,0.001211,-0.002467,0.0,0.0,0.001015,0.0,0.0
36351,-0.004883,-5.3e-05,-0.021611,0.047295,-0.0,-0.0,3.0,0.0,0.0,0.0,0.0,0.043676,-32.056968,-0.021125,0.077884,-2.968026,0.00128,-0.00245,0.0,0.0,0.003225,0.0,0.0
36371,-0.004883,-5.3e-05,-0.021611,0.048368,-0.0,-0.0,3.0,0.0,0.0,0.0,0.0,0.047293,-32.117281,-0.024543,0.07133,-3.105152,0.001347,-0.002395,0.0,0.0,0.002062,0.0,0.0
36391,-0.004762,7e-05,-0.021733,0.050243,-0.0,-0.0,3.0,0.0,0.0,0.0,0.0,0.051367,-32.1804,-0.028627,0.063125,-3.252773,0.00141,-0.00236,0.0,0.0,0.003878,0.0,0.0
36411,-0.004763,0.000192,-0.021732,0.051198,-0.0,-0.0,3.0,0.0,0.0,0.0,0.0,0.056073,-32.246533,-0.033581,0.052668,-3.410789,0.001468,-0.002294,0.0,0.0,0.002458,0.0,0.0
36431,-0.004641,0.000194,-0.02161,0.052854,-0.0,-0.0,3.0,0.0,0.0,0.0,0.0,0.061655,-32.315879,-0.039702,0.039135,-3.578997,0.001517,-0.002252,0.0,0.0,0.001572,0.0,0.0
36451,-0.00464,7.3e-05,-0.021362,0.054372,-0.0,-0.0,3.0,0.0,0.0,0.0,0.0,0.068516,-32.388632,-0.04745,0.022079,-3.757076,0.001552,-0.00219,0.0,0.0,0.002856,0.0,0.0
36471,-0.004762,7.1e-05,-0.021362,0.05512,-0.0,-0.0,3.0,0.0,0.0,0.0,0.0,0.077333,-32.46497,-0.057581,-0.000959,-3.944555,0.001567,-0.002141,0.0,0.0,-0.000734,0.0,0.0
36491,-0.005005,-5.3e-05,-0.021363,0.057162,-0.0,-0.0,3.0,0.0,0.0,0.0,0.0,0.089307,-32.545055,-0.071428,-0.031941,-4.140792,0.001553,-0.002166,0.0,0.0,-0.002756,0.0,0.0
36511,-0.005003,-0.000175,-0.021241,0.05825,-0.0,-0.0,3.0,0.0,0.0,0.0,0.0,0.106888,-32.629009,-0.091608,-0.075213,-4.34494,0.001495,-0.002248,0.0,0.0,-0.003584,0.0,0.0
36531,-0.005003,-0.000175,-0.021241,0.059032,-0.0,-0.0,3.0,0.0,0.0,0.0,0.0,0.135745,-32.716882,-0.124091,-0.141169,-4.55592,0.001367,-0.002309,0.0,0.0,-0.002292,0.0,0.0
36551,-0.005005,-5.3e-05,-0.021119,0.060852,-0.0,-0.0,3.0,0.0,0.0,0.0,0.0,0.192634,-32.808517,-0.186191,-0.250604,-4.772398,0.001125,-0.002348,0.0,0.0,-0.001466,0.0,0.0
36571,-0.004884,7e-05,-0.02124,0.061697,-0.0,-0.0,3.0,0.0,0.0,0.0,0.0,0.356178,-32.902814,-0.357665,-0.450024,-4.99276,-0.000861,-0.002361,0.0,0.0,0.001324,0.0,0.0
36591,-0.004762,7.2e-05,-0.02124,0.06316,-0.0,-0.0,3.0,0.0,0.0,0.0,0.0,2.312967,-32.982353,-2.327282,-0.956694,-5.214997,-0.02439,-0.002338,0.0,0.0,0.000847,0.0,0.0
36611,-0.004762,7.2e-05,-0.02124,0.064393,-0.0,-0.0,3.0,0.0,0.0,0.0,0.0,-2.465811,-32.979823,2.422834,-1.518244,-5.435077,-0.100623,-0.002289,0.0,0.0,0.002387,0.0,0.0
36631,-0.004883,-5.2e-05,-0.021363,0.065631,-0.0,-0.0,3.0,0.0,0.0,0.0,0.0,-3.130951,-32.920598,3.067728,-0.134859,-5.653938,-0.176233,-0.002261,0.0,0.0,-0.000781,0.0,0.0
36651,-0.004883,-5.2e-05,-0.021241,0.06699,-0.0,-0.0,3.0,0.0,0.0,0.0,0.0,-3.159169,-32.805826,3.103064,1.128522,-5.877675,-0.24965,-0.002274,0.0,0.0,-0.00048,0.0,0.0
36671,-0.004881,-0.000174,-0.021119,0.067634,-0.0,-0.0,3.0,0.0,0.0,0.0,0.0,-3.144642,-32.686491,3.120381,2.282314,-6.108503,-0.320901,-0.002282,0.0,0.0,-0.000283,0.0,0.0
36691,-0.004881,-0.000173,-0.020997,0.069068,-0.0,-0.0,3.0,0.0,0.0,0.0,0.0,-3.112672,-32.562607,3.143501,3.332349,-6.347368,-0.390013,-0.002287,0.0,0.0,-0.000181,0.0,0.0
36711,-0.004758,-0.000294,-0.020875,0.069934,-0.0,-0.0,3.0,0.0,0.0,0.0,0.0,-3.066267,-32.434344,3.174464,4.282991,-6.59411,-0.457017,-0.002277,0.0,0.0,0.002216,0.0,0.0
36731,-0.004759,-0.000172,-0.020875,0.071294,-0.0,-0.0,3.0,0.0,0.0,0.0,0.0,-3.00668,-32.30215,3.214136,5.137402,-6.847638,-0.521952,-0.002239,0.0,0.0,0.00139,0.0,0.0
36751,-0.004637,-0.000171,-0.020997,0.072156,-0.0,-0.0,3.0,0.0,0.0,0.0,0.0,-2.934489,-32.166848,3.263346,5.897925,-7.106146,-0.584868,-0.002191,0.0,0.0,0.002954,0.0,0.0
36771,-0.004638,-4.9e-05,-0.021119,0.072789,-0.0,-0.0,3.0,0.0,0.0,0.0,0.0,-2.84975,-32.029744,3.323133,6.566525,-7.367384,-0.645831,-0.002141,0.0,0.0,0.001865,0.0,0.0
36791,-0.004638,-4.9e-05,-0.021241,0.07413,-0.0,-0.0,3.0,0.0,0.0,0.0,0.0,-2.752026,-31.892734,3.394833,7.145277,-7.629,-0.704928,-0.002109,0.0,0.0,0.001193,0.0,0.0
36811,-0.004638,-5e-05,-0.021363,0.07465,-0.0,-0.0,3.0,0.0,0.0,0.0,0.0,-2.640387,-31.75844,3.48012,7.636858,-7.88892,-0.762263,-0.002089,0.0,0.0,0.000763,0.0,0.0
36831,-0.00476,-5.1e-05,-0.021363,0.075591,-0.0,-0.0,3.0,0.0,0.0,0.0,0.0,-2.513487,-31.630347,3.580953,8.044988,-8.145747,-0.81796,-0.002089,0.0,0.0,-0.00182,0.0,0.0
36851,-0.00476,-5.1e-05,-0.021241,0.076497,-0.0,-0.0,3.0,0.0,0.0,0.0,0.0,-2.369775,-31.512941,3.699377,8.374751,-8.399141,-0.872155,-0.00212,0.0,0.0,-0.001164,0.0,0.0
36871,-0.00476,-5e-05,-0.021119,0.077098,-0.0,-0.0,3.0,0.0,0.0,0.0,0.0,-2.207996,-31.411766,3.837047,8.632745,-8.650126,-0.924988,-0.00214,0.0,0.0,-0.000745,0.0,0.0
36891,-0.004759,-0.000172,-0.020997,0.077843,-0.0,-0.0,3.0,0.0,0.0,0.0,0.0,-2.028066,-31.333287,3.994364,8.817858,-8.901285,-0.975985,-0.002152,0.0,0.0,-0.000476,0.0,0.0
36911,-0.004637,-0.000171,-0.020997,0.079177,-0.0,-0.0,3.0,0.0,0.0,0.0,0.0,-1.833225,-31.28424,4.169291,8.819983,-9.154359,-1.017134,-0.002147,0.0,0.0,0.002023,0.0,0.0
36931,-0.004636,-0.000293,-0.020997,0.079681,-0.0,-0.0,3.0,0.0,0.0,0.0,0.0,-1.631848,-31.270173,4.356421,8.636163,-9.407358,-1.047117,-0.002113,0.0,0.0,0.001321,0.0,0.0
36951,-0.004636,-0.000293,-0.020997,0.080415,-0.0,-0.0,3.0,0.0,0.0,0.0,0.0,-1.434729,-31.293914,4.547725,8.308562,-9.659598,-1.067654,-0.00209,0.0,0.0,0.000845,0.0,0.0
36971,-0.004636,-0.000293,-0.021119,0.080982,-0.0,-0.0,3.0,0.0,0.0,0.0,0.0,-1.252544,-31.3548,4.735033,7.881175,-9.912481,-1.08075,-0.002076,0.0,0.0,0.000541,0.0,0.0
36991,-0.004637,-0.000171,-0.021241,0.081764,-0.0,-0.0,3.0,0.0,0.0,0.0,0.0,-1.093414,-31.449134,4.912803,7.396604,-10.169142,-1.088541,-0.002067,0.0,0.0,0.000324,0.0,0.0
37011,-0.004637,-0.000171,-0.021241,0.082394,-0.0,-0.0,3.0,0.0,0.0,0.0,0.0,-0.962,-31.571546,5.07952,6.892956,-10.43381,-1.093117,-0.002061,0.0,0.0,0.000207,0.0,0.0
37031,-0.00476,-5e-05,-0.021119,0.082978,-0.0,-0.0,3.0,0.0,0.0,0.0,0.0,-0.860471,-31.716361,5.237574,6.401538,-10.710984,-1.096364,-0.002082,0.0,0.0,-0.001959,0.0,0.0
37051,-0.004638,-4.9e-05,-0.021241,0.083394,-0.0,-0.0,3.0,0.0,0.0,0.0,0.0,-0.790555,-31.878345,5.392762,5.946829,-11.004617,-1.099934,-0.002115,0.0,0.0,-0.001253,0.0,0.0
37071,-0.004638,-5e-05,-0.021363,0.083763,-0.0,-0.0,3.0,0.0,0.0,0.0,0.0,-0.756268,-32.052709,5.554799,5.548599,-11.31747,-1.105351,-0.002102,0.0,0.0,0.001045,0.0,0.0
37091,-0.004516,-4.9e-05,-0.021485,0.084422,-0.0,-0.0,3.0,0.0,0.0,0.0,0.0,-0.768316,-32.234334,5.740437,5.226677,-11.650739,-1.114287,-0.002071,0.0,0.0,0.002976,0.0,0.0
37111,-0.004272,-4.6e-05,-0.021485,0.084783,-0.0,-0.0,3.0,0.0,0.0,0.0,0.0,-0.85412,-32.415579,5.983005,5.009483,-12.004136,-1.129115,-0.001996,0.0,0.0,0.003968,0.0,0.0
37131,-0.00415,-4.4e-05,-0.021363,0.085065,-0.0,-0.0,3.0,0.0,0.0,0.0,0.0,-1.083809,-32.579653,6.358529,4.954006,-12.376709,-1.154256,-0.001894,0.0,0.0,0.006965,0.0,0.0
37151,-0.004272,-4.5e-05,-0.021241,0.085568,-0.0,-0.0,3.0,0.0,0.0,0.0,0.0,-1.596598,-32.679945,7.013015,5.187746,-12.769462,-1.19908,-0.001775,0.0,0.0,0.004454,0.0,0.0
37171,-0.004515,-0.000169,-0.020875,0.085914,-0.0,-0.0,3.0,0.0,0.0,0.0,0.0,-2.267067,-32.629966,7.829105,5.532768,-13.185836,-1.252859,-0.001747,0.0,0.0,-0.001279,0.0,0.0
37191,-0.004637,-0.00017,-0.020753,0.086216,-0.0,-0.0,3.0,0.0,0.0,0.0,0.0,-2.601403,-32.447186,8.317221,5.819255,-13.615267,-1.304707,-0.001816,0.0,0.0,-0.004972,0.0,0.0
37211,-0.004759,-0.000171,-0.020753,0.086482,-0.0,-0.0,3.0,0.0,0.0,0.0,0.0,-2.700058,-32.216977,8.583365,6.042935,-14.04195,-1.354777,-0.001925,0.0,0.0,-0.005244,0.0,0.0
37231,-0.004759,-0.000172,-0.020997,0.086623,-0.0,-0.0,3.0,0.0,0.0,0.0,0.0,-2.703089,-31.971105,8.775109,6.200524,-14.450802,-1.403284,-0.002015,0.0,0.0,-0.003353,0.0,0.0
37251,-0.00476,-5.1e-05,-0.021241,0.086753,-0.0,-0.0,3.0,0.0,0.0,0.0,0.0,-2.654675,-31.721161,8.9469,6.291262,-14.828976,-1.450507,-0.002072,0.0,0.0,-0.002166,0.0,0.0
37271,-0.004518,7.4e-05,-0.021362,0.086971,-0.0,-0.0,3.0,0.0,0.0,0.0,0.0,-2.565659,-31.475712,9.124674,6.316988,-15.167343,-1.496773,-0.002085,0.0,0.0,0.00326,0.0,0.0
37291,-0.004396,7.5e-05,-0.021485,0.087049,-0.0,-0.0,3.0,0.0,0.0,0.0,0.0,-2.433112,-31.245134,9.327782,6.282208,-15.461811,-1.542431,-0.002005,0.0,0.0,0.004129,0.0,0.0
37311,-0.004397,0.000197,-0.021606,0.087209,-0.0,-0.0,3.0,0.0,0.0,0.0,0.0,-2.246222,-31.044656,9.575567,6.19388,-15.714082,-1.587826,-0.001935,0.0,0.0,0.002619,0.0,0.0
37331,-0.004519,0.000195,-0.021606,0.087246,-0.0,-0.0,3.0,0.0,0.0,0.0,0.0,-1.993175,-30.897107,9.884957,6.060769,-15.931627,-1.633275,-0.001903,0.0,0.0,-0.000633,0.0,0.0
37351,-0.004641,0.000194,-0.021484,0.087266,-0.0,-0.0,3.0,0.0,0.0,0.0,0.0,-1.680023,-30.831711,10.253587,5.892434,-16.126918,-1.67904,-0.001938,0.0,0.0,-0.002469,0.0,0.0
37371,-0.004763,0.000193,-0.021484,0.087259,-0.0,-0.0,3.0,0.0,0.0,0.0,0.0,-1.353446,-30.870393,10.638117,5.698194,-16.316193,-1.725319,-0.001981,0.0,0.0,-0.00416,0.0,0.0
37391,-0.004885,0.000192,-0.021362,0.087201,-0.0,-0.0,3.0,0.0,0.0,0.0,0.0,-1.077133,-31.008234,10.978697,5.461539,-16.517686,-1.770585,-0.002051,0.0,0.0,-0.002661,0.0,0.0
37411,-0.004884,7e-05,-0.02124,0.087105,-0.0,-0.0,3.0,0.0,0.0,0.0,0.0,-0.8799,-31.218167,11.25352,5.071993,-16.744229,-1.806939,-0.002131,0.0,0.0,-0.003523,0.0,0.0
37431,-0.004638,-4.9e-05,-0.021119,0.086949,-0.0,-0.0,3.0,0.0,0.0,0.0,0.0,-0.757675,-31.47245,11.478807,4.602345,-17.001524,-1.838701,-0.002178,0.0,0.0,7.7e-05,0.0,0.0
37451,-0.004515,-0.000169,-0.020997,0.086832,-0.0,-0.0,3.0,0.0,0.0,0.0,0.0,-0.701494,-31.751767,11.682981,4.131428,-17.294638,-1.871002,-0.002142,0.0,0.0,0.004503,0.0,0.0
37471,-0.004515,-0.000169,-0.020997,0.086694,-0.0,-0.0,3.0,0.0,0.0,0.0,0.0,-0.716239,-32.042318,11.900918,3.714617,-17.625559,-1.907753,-0.002066,0.0,0.0,0.00288,0.0,0.0
37491,-0.004515,-0.00017,-0.021119,0.086365,-0.0,-0.0,3.0,0.0,0.0,0.0,0.0,-0.841916,-32.327967,12.193281,3.40662,-17.991732,-1.953065,-0.002016,0.0,0.0,0.001842,0.0,0.0
37511,-0.004637,-0.000171,-0.021241,0.086206,-0.0,-0.0,3.0,0.0,0.0,0.0,0.0,-1.220991,-32.568913,12.716786,3.223778,-18.38709,-2.008666,-0.001985,0.0,0.0,-0.001403,0.0,0.0
37531,-0.004638,-5e-05,-0.021363,0.085914,-0.0,-0.0,3.0,0.0,0.0,0.0,0.0,-2.084944,-32.628631,13.710922,3.023381,-18.79586,-2.065497,-0.002009,0.0,0.0,-0.000921,0.0,0.0
37551,-0.004762,7.1e-05,-0.021362,0.085582,-0.0,-0.0,3.0,0.0,0.0,0.0,0.0,-2.684812,-32.391865,14.431712,2.795292,-19.191065,-2.123126,-0.002049,0.0,0.0,-0.002678,0.0,0.0
37571,-0.004884,7e-05,-0.02124,0.085197,-0.0,-0.0,3.0,0.0,0.0,0.0,0.0,-2.847099,-32.049118,14.71606,2.533983,-19.540079,-2.181789,-0.002119,0.0,0.0,-0.003777,0.0,0.0
37591,-0.004763,0.000194,-0.02124,0.084776,-0.0,-0.0,3.0,0.0,0.0,0.0,0.0,-2.881236,-31.683031,14.887755,2.235189,-19.813952,-2.241788,-0.002184,0.0,0.0,0.000144,0.0,0.0
37611,-0.00464,7.3e-05,-0.021118,0.084322,-0.0,-0.0,3.0,0.0,0.0,0.0,0.0,-2.857946,-31.31105,15.037782,1.900449,-19.992762,-2.303443,-0.002182,0.0,0.0,0.002697,0.0,0.0
37631,-0.004638,-4.9e-05,-0.021119,0.083819,-0.0,-0.0,3.0,0.0,0.0,0.0,0.0,-2.780168,-30.943458,15.209719,1.534889,-20.068682,-2.367054,-0.002136,0.0,0.0,0.001752,0.0,0.0
37651,-0.004637,-0.000171,-0.021119,0.083451,-0.0,-0.0,3.0,0.0,0.0,0.0,0.0,-2.605664,-30.59599,15.463589,1.145888,-20.047234,-2.432857,-0.002106,0.0,0.0,0.001145,0.0,0.0
37671,-0.004636,-0.000293,-0.021119,0.082939,-0.0,-0.0,3.0,0.0,0.0,0.0,0.0,-2.187061,-30.312283,15.95449,0.742269,-19.945696,-2.501007,-0.002074,0.0,0.0,0.00051,0.0,0.0
37691,-0.004637,-0.000171,-0.021119,0.08265,-0.0,-0.0,3.0,0.0,0.0,0.0,0.0,-1.29467,-30.240249,16.915164,0.333225,-19.788726,-2.571571,-0.002066,0.0,0.0,0.000299,0.0,0.0
37711,-0.00476,-5.1e-05,-0.021241,0.081678,-0.0,-0.0,3.0,0.0,0.0,0.0,0.0,-0.676232,-30.489362,17.600574,-0.075738,-19.605398,-2.644536,-0.002073,0.0,0.0,-0.002117,0.0,0.0
37731,-0.004884,7e-05,-0.02124,0.081187,-0.0,-0.0,3.0,0.0,0.0,0.0,0.0,-0.495683,-30.842858,17.855365,-0.486928,-19.427528,-2.719864,-0.00211,0.0,0.0,-0.001373,0.0,0.0
37751,-0.004763,0.000194,-0.021118,0.08049,-0.0,-0.0,3.0,0.0,0.0,0.0,0.0,-0.447923,-31.21285,17.996889,-0.904659,-19.278495,-2.797536,-0.002144,0.0,0.0,-0.00068,0.0,0.0
37771,-0.004763,0.000194,-0.021118,0.079754,-0.0,-0.0,3.0,0.0,0.0,0.0,0.0,-0.461721,-31.583951,18.113807,-1.331223,-19.169574,-2.877564,-0.002156,0.0,0.0,-0.000454,0.0,0.0
37791,-0.00464,7.3e-05,-0.021118,0.078991,-0.0,-0.0,3.0,0.0,0.0,0.0,0.0,-0.532612,-31.949931,18.247289,-1.767568,-19.099363,-2.959984,-0.002163,0.0,0.0,0.002315,0.0,0.0
37811,-0.004637,-0.000171,-0.021119,0.078077,-0.0,-0.0,3.0,0.0,0.0,0.0,0.0,-0.702325,-32.300848,18.455655,-2.212553,-19.054253,-3.044847,-0.002124,0.0,0.0,0.001502,0.0,0.0
37831,-0.004637,-0.000171,-0.021119,0.077342,-0.0,-0.0,3.0,0.0,0.0,0.0,0.0,-1.145897,-32.600973,18.919778,-2.661473,-19.010639,-3.13219,-0.002098,0.0,0.0,0.00098,0.0,0.0
37851,-0.004637,-0.000171,-0.021119,0.076533,-0.0,-0.0,3.0,0.0,0.0,0.0,0.0,-2.29065,-32.679409,20.066444,-3.104686,-18.939407,-3.221996,-0.002081,0.0,0.0,0.000627,0.0,0.0
37871,-0.004637,-0.000171,-0.021241,0.075992,-0.0,-0.0,3.0,0.0,0.0,0.0,0.0,-2.971335,-32.390568,20.727732,-3.529775,-18.80888,-3.314155,-0.00207,0.0,0.0,0.000401,0.0,0.0
37891,-0.00476,-5.1e-05,-0.021241,0.075169,-0.0,-0.0,3.0,0.0,0.0,0.0,0.0,-3.162415,-32.023633,20.881933,-3.932859,-18.58505,-3.408455,-0.002076,0.0,0.0,-0.002079,0.0,0.0
37911,-0.004762,7.2e-05,-0.021118,0.073849,-0.0,-0.0,3.0,0.0,0.0,0.0,0.0,-3.268627,-31.650838,20.933892,-4.307457,-18.242709,-3.504601,-0.002112,0.0,0.0,-0.00133,0.0,0.0
37931,-0.00464,7.3e-05,-0.021118,0.072852,-0.0,-0.0,3.0,0.0,0.0,0.0,0.0,-3.359409,-31.282742,20.946064,-4.643392,-17.769133,-3.602195,-0.002122,0.0,0.0,0.001438,0.0,0.0
37951,-0.004762,7.2e-05,-0.021118,0.071817,-0.0,-0.0,3.0,0.0,0.0,0.0,0.0,-3.460353,-30.924764,20.927376,-4.931583,-17.165298,-3.700752,-0.00211,0.0,0.0,-0.001388,0.0,0.0
37971,-0.00476,-5e-05,-0.021119,0.070753,-0.0,-0.0,3.0,0.0,0.0,0.0,0.0,-3.599485,-30.582504,20.863009,-5.165828,-16.444884,-3.799735,-0.002134,0.0,0.0,-0.000864,0.0,0.0
37991,-0.004637,-0.000171,-0.021241,0.070149,-0.0,-0.0,3.0,0.0,0.0,0.0,0.0,-3.852382,-30.266305,20.684117,-5.343588,-15.631021,-3.898611,-0.002149,0.0,0.0,-0.000525,0.0,0.0
38011,-0.004636,-0.000293,-0.021241,0.069152,-0.0,-0.0,3.0,0.0,0.0,0.0,0.0,-4.6046,-30.020027,20.010391,-5.46669,-14.751582,-3.996899,-0.002123,0.0,0.0,0.00151,0.0,0.0
38031,-0.004636,-0.000293,-0.021241,0.068091,-0.0,-0.0,3.0,0.0,0.0,0.0,0.0,-6.233081,-30.099043,18.471657,-5.542227,-13.833549,-4.09421,-0.002097,0.0,0.0,0.000986,0.0,0.0
38051,-0.004637,-0.000171,-0.021241,0.067368,-0.0,-0.0,3.0,0.0,0.0,0.0,0.0,-6.525021,-30.374002,18.281353,-5.571325,-12.902624,-4.19026,-0.00208,0.0,0.0,0.000608,0.0,0.0
38071,-0.00476,-5e-05,-0.021119,0.066291,-0.0,-0.0,3.0,0.0,0.0,0.0,0.0,-6.650203,-30.63872,18.264968,-5.546341,-11.982338,-4.284826,-0.00207,0.0,0.0,-0.002214,0.0,0.0
38091,-0.004762,7.2e-05,-0.021118,0.064565,-0.0,-0.0,3.0,0.0,0.0,0.0,0.0,-6.751014,-30.886787,18.280674,-5.468173,-11.091069,-4.377748,-0.002108,0.0,0.0,-0.001438,0.0,0.0
38111,-0.004762,7.2e-05,-0.021118,0.063289,-0.0,-0.0,3.0,0.0,0.0,0.0,0.0,-6.847129,-31.117995,18.310077,-5.338484,-10.24263,-4.468939,-0.002133,0.0,0.0,-0.00092,0.0,0.0
38131,-0.00476,-5.1e-05,-0.021241,0.061991,-0.0,-0.0,3.0,0.0,0.0,0.0,0.0,-6.944466,-31.332909,18.348885,-5.15871,-9.447027,-4.558374,-0.002148,0.0,0.0,-0.000564,0.0,0.0
38151,-0.004759,-0.000173,-0.021241,0.060686,-0.0,-0.0,3.0,0.0,0.0,0.0,0.0,-7.04581,-31.532341,18.396507,-4.930189,-8.711433,-4.646075,-0.002158,0.0,0.0,-0.00036,0.0,0.0
38171,-0.004759,-0.000173,-0.021241,0.059804,-0.0,-0.0,3.0,0.0,0.0,0.0,0.0,-7.153252,-31.717151,18.454068,-4.654516,-8.041101,-4.732101,-0.002163,0.0,0.0,-0.000211,0.0,0.0
38191,-0.004637,-0.000171,-0.021241,0.058729,-0.0,-0.0,3.0,0.0,0.0,0.0,0.0,-7.269241,-31.888069,18.524094,-4.333968,-7.440078,-4.81654,-0.002154,0.0,0.0,0.002173,0.0,0.0
38211,-0.004638,-4.9e-05,-0.021241,0.057179,-0.0,-0.0,3.0,0.0,0.0,0.0,0.0,-7.397445,-32.045474,18.610828,-3.971868,-6.911649,-4.899496,-0.002117,0.0,0.0,0.00139,0.0,0.0
38231,-0.004638,-4.9e-05,-0.021241,0.056343,-0.0,-0.0,3.0,0.0,0.0,0.0,0.0,-7.54381,-32.189031,18.721029,-3.572873,-6.458552,-4.981088,-0.002094,0.0,0.0,0.000869,0.0,0.0
38251,-0.00464,7.3e-05,-0.02124,0.054009,-0.0,-0.0,3.0,0.0,0.0,0.0,0.0,-7.717929,-32.317091,18.865174,-3.14311,-6.082959,-5.061439,-0.002079,0.0,0.0,0.000534,0.0,0.0
38271,-0.004762,7.2e-05,-0.02124,0.053091,-0.0,-0.0,3.0,0.0,0.0,0.0,0.0,-7.934102,-32.425681,19.058402,-2.690179,-5.786324,-5.140672,-0.002095,0.0,0.0,-0.001723,0.0,0.0
38291,-0.004762,7.2e-05,-0.02124,0.051603,-0.0,-0.0,3.0,0.0,0.0,0.0,0.0,-8.208582,-32.50713,19.317694,-2.223019,-5.569127,-5.218902,-0.002124,0.0,0.0,-0.001102,0.0,0.0
38311,-0.00476,-5.1e-05,-0.021241,0.050111,-0.0,-0.0,3.0,0.0,0.0,0.0,0.0,-8.543689,-32.549737,19.645936,-1.751602,-5.43057,-5.29623,-0.002143,0.0,0.0,-0.000705,0.0,0.0
38331,-0.00476,-5.1e-05,-0.021241,0.048582,-0.0,-0.0,3.0,0.0,0.0,0.0,0.0,-8.899383,-32.542797,20.003479,-1.286461,-5.368235,-5.372745,-0.002154,0.0,0.0,-0.000431,0.0,0.0
38351,-0.004638,-4.9e-05,-0.021241,0.046752,-0.0,-0.0,3.0,0.0,0.0,0.0,0.0,-9.205875,-32.486815,20.320729,-0.838268,-5.377767,-5.448518,-0.002149,0.0,0.0,0.002033,0.0,0.0
38371,-0.004638,-4.9e-05,-0.021241,0.046752,-0.0,-0.0,3.0,0.0,0.0,0.0,0.0,-9.427956,-32.393948,20.562514,-0.417717,-5.452725,-5.523605,-0.002114,0.0,0.0,0.0013,0.0,0.0
38391,-0.004638,-4.9e-05,-0.021241,0.044648,-0.0,-0.0,3.0,0.0,0.0,0.0,0.0,-9.574961,-32.277272,20.738116,-0.035172,-5.584622,-5.598052,-0.002092,0.0,0.0,0.000831,0.0,0.0
38411,-0.004638,-4.9e-05,-0.021241,0.042245,-0.0,-0.0,3.0,0.0,0.0,0.0,0.0,-9.667925,-32.145264,20.868472,0.300016,-5.763061,-5.671904,-0.002053,0.0,0.0,1.5e-05,0.0,0.0
38431,-0.00464,7.3e-05,-0.02124,0.04109,-0.0,-0.0,3.0,0.0,0.0,0.0,0.0,-9.723622,-32.002577,20.970291,0.580079,-5.975957,-5.74521,-0.002053,0.0,0.0,-1.2e-05,0.0,0.0
38451,-0.004762,7.2e-05,-0.02124,0.039264,-0.0,-0.0,3.0,0.0,0.0,0.0,0.0,-9.753116,-31.851773,21.054746,0.799244,-6.2099,-5.818029,-0.002066,0.0,0.0,-0.002316,0.0,0.0
38471,-0.00476,-5.1e-05,-0.021241,0.037616,-0.0,-0.0,3.0,0.0,0.0,0.0,0.0,-9.763388,-31.694444,21.129299,0.954028,-6.450648,-5.890441,-0.002106,0.0,0.0,-0.001454,0.0,0.0
38491,-0.00476,-5.1e-05,-0.021241,0.036767,-0.0,-0.0,3.0,0.0,0.0,0.0,0.0,-9.758687,-31.531821,21.199333,1.043455,-6.683746,-5.962541,-0.002131,0.0,0.0,-0.00093,0.0,0.0
38511,-0.004638,-5e-05,-0.021363,0.0351,-0.0,-0.0,3.0,0.0,0.0,0.0,0.0,-9.741248,-31.365118,21.269275,1.069149,-6.895235,-6.034446,-0.002122,0.0,0.0,0.00147,0.0,0.0
38531,-0.004516,-4.8e-05,-0.021363,0.032772,-0.0,-0.0,3.0,0.0,0.0,0.0,0.0,-9.711505,-31.195756,21.343438,1.035291,-7.072396,-6.106284,-0.002097,0.0,0.0,0.003521,0.0,0.0
38551,-0.004516,-4.8e-05,-0.021363,0.032772,-0.0,-0.0,3.0,0.0,0.0,0.0,0.0,-9.667869,-31.025573,21.426861,0.948432,-7.204466,-6.178185,-0.002037,0.0,0.0,0.002252,0.0,0.0
38571,-0.004518,7.4e-05,-0.021362,0.030787,-0.0,-0.0,3.0,0.0,0.0,0.0,0.0,-9.605991,-30.857098,21.526406,0.81715,-7.28325,-6.250275,-0.001999,0.0,0.0,0.00144,0.0,0.0
38591,-0.00464,7.3e-05,-0.02124,0.028092,-0.0,-0.0,3.0,0.0,0.0,0.0,0.0,-9.517248,-30.694065,21.652501,0.651586,-7.303569,-6.32266,-0.001975,0.0,0.0,-0.00168,0.0,0.0
38611,-0.00464,7.3e-05,-0.02124,0.02683,-0.0,-0.0,3.0,0.0,0.0,0.0,0.0,-9.386131,-30.542446,21.82189,0.462883,-7.263492,-6.395421,-0.002003,0.0,0.0,-0.001074,0.0,0.0
38631,-0.00476,-5.1e-05,-0.021363,0.024738,-0.0,-0.0,3.0,0.0,0.0,0.0,0.0,-9.187491,-30.412524,22.060492,0.262583,-7.164325,-6.468606,-0.002046,0.0,0.0,-0.002727,0.0,0.0
38651,-0.00476,-5.1e-05,-0.021363,0.022968,-0.0,-0.0,3.0,0.0,0.0,0.0,0.0,-8.892878,-30.322,22.397159,0.061942,-7.010397,-6.542224,-0.002092,0.0,0.0,-0.001744,0.0,0.0
38671,-0.004638,-5e-05,-0.021363,0.021182,-0.0,-0.0,3.0,0.0,0.0,0.0,0.0,-8.514128,-30.294974,22.820225,-0.128923,-6.808687,-6.616256,-0.002122,0.0,0.0,0.001466,0.0,0.0
38691,-0.004638,-5e-05,-0.021363,0.020287,-0.0,-0.0,3.0,0.0,0.0,0.0,0.0,-8.153333,-30.343426,23.227626,-0.301751,-6.568467,-6.690652,-0.002097,0.0,0.0,0.000937,0.0,0.0
38711,-0.004518,7.4e-05,-0.021362,0.01796,-0.0,-0.0,3.0,0.0,0.0,0.0,0.0,-7.901166,-30.449702,23.528642,-0.449996,-6.300844,-6.765345,-0.002081,0.0,0.0,0.003181,0.0,0.0
38731,-0.004518,7.4e-05,-0.021362,0.01796,-0.0,-0.0,3.0,0.0,0.0,0.0,0.0,-7.751187,-30.587273,23.729708,-0.56872,-6.017947,-6.84026,-0.002027,0.0,0.0,0.002015,0.0,0.0
38751,-0.00464,7.3e-05,-0.021362,0.014752,-0.0,-0.0,3.0,0.0,0.0,0.0,0.0,-7.666904,-30.739537,23.867341,-0.654832,-5.732103,-6.915319,-0.001993,0.0,0.0,-0.001293,0.0,0.0
38771,-0.004638,-5e-05,-0.021363,0.013174,-0.0,-0.0,3.0,0.0,0.0,0.0,0.0,-7.622045,-30.898476,23.967871,-0.707135,-5.455285,-6.99045,-0.002015,0.0,0.0,-0.000827,0.0,0.0
38791,-0.004638,-5e-05,-0.021363,0.011862,-0.0,-0.0,3.0,0.0,0.0,0.0,0.0,-7.601486,-31.060361,24.04663,-0.726258,-5.198691,-7.06559,-0.002029,0.0,0.0,-0.000509,0.0,0.0
38811,-0.004638,-5e-05,-0.021363,0.009881,-0.0,-0.0,3.0,0.0,0.0,0.0,0.0,-7.596712,-31.223449,24.112654,-0.714541,-4.972352,-7.140689,-0.002037,0.0,0.0,-0.000326,0.0,0.0
38831,-0.004638,-5e-05,-0.021363,0.008047,-0.0,-0.0,3.0,0.0,0.0,0.0,0.0,-7.60297,-31.386943,24.171762,-0.675857,-4.784782,-7.215711,-0.002043,0.0,0.0,-0.000208,0.0,0.0
38851,-0.004516,-4.8e-05,-0.021363,0.006203,-0.0,-0.0,3.0,0.0,0.0,0.0,0.0,-7.61788,-31.550489,24.228269,-0.615378,-4.642645,-7.290632,-0.002033,0.0,0.0,0.002175,0.0,0.0
38871,-0.004516,-4.8e-05,-0.021363,0.004185,-0.0,-0.0,3.0,0.0,0.0,0.0,0.0,-7.640906,-31.713896,24.286035,-0.539273,-4.550475,-7.365438,-0.001996,0.0,0.0,0.001391,0.0,0.0
38891,-0.004516,-4.8e-05,-0.021363,0.003086,-0.0,-0.0,3.0,0.0,0.0,0.0,0.0,-7.673383,-31.876922,24.349332,-0.454356,-4.510438,-7.440125,-0.001973,0.0,0.0,0.00089,0.0,0.0
38911,-0.004516,-4.8e-05,-0.021363,0.000799,-0.0,-0.0,3.0,0.0,0.0,0.0,0.0,-7.719133,-32.039044,24.42393,-0.367688,-4.522178,-7.514695,-0.001957,0.0,0.0,0.000569,0.0,0.0
38931,-0.004516,-4.8e-05,-0.021363,-0.000102,-0.0,-0.0,3.0,0.0,0.0,0.0,0.0,-7.786071,-32.199063,24.518972,-0.286148,-4.582747,-7.589155,-0.001948,0.0,0.0,0.000364,0.0,0.0
38951,-0.004638,-5e-05,-0.021363,-0.003065,-0.0,-0.0,3.0,0.0,0.0,0.0,0.0,-7.889915,-32.354276,24.650849,-0.215992,-4.686651,-7.663517,-0.001966,0.0,0.0,-0.001831,0.0,0.0
38971,-0.004638,-5e-05,-0.021363,-0.003991,-0.0,-0.0,3.0,0.0,0.0,0.0,0.0,-8.062507,-32.498418,24.851634,-0.162439,-4.826039,-7.737798,-0.001997,0.0,0.0,-0.001171,0.0,0.0
38991,-0.004638,-5e-05,-0.021363,-0.005918,-0.0,-0.0,3.0,0.0,0.0,0.0,0.0,-8.365633,-32.616253,25.182976,-0.129305,-4.991044,-7.812021,-0.002029,0.0,0.0,-0.003086,0.0,0.0
39011,-0.004638,-5e-05,-0.021363,-0.007746,-0.0,-0.0,3.0,0.0,0.0,0.0,0.0,-8.864472,-32.673255,25.709667,-0.118659,-5.170282,-7.886215,-0.002047,0.0,0.0,-0.000128,0.0,0.0
39031,-0.004516,-4.8e-05,-0.021363,-0.009577,-0.0,-0.0,3.0,0.0,0.0,0.0,0.0,-9.413571,-32.628588,26.28584,-0.130014,-5.351306,-7.960412,-0.002049,0.0,0.0,-8.2e-05,0.0,0.0
39051,-0.004516,-4.8e-05,-0.021363,-0.011776,-0.0,-0.0,3.0,0.0,0.0,0.0,0.0,-9.757908,-32.500349,26.656232,-0.160675,-5.520902,-8.034646,-0.002015,0.0,0.0,0.001794,0.0,0.0
39071,-0.004516,-4.8e-05,-0.021363,-0.011776,-0.0,-0.0,3.0,0.0,0.0,0.0,0.0,-9.934301,-32.334181,26.857917,-0.207661,-5.665932,-8.108947,-0.001985,0.0,0.0,0.001147,0.0,0.0
39091,-0.004638,-5e-05,-0.021363,-0.013873,-0.0,-0.0,3.0,0.0,0.0,0.0,0.0,-10.030152,-32.151867,26.978821,-0.266528,-5.774437,-8.183342,-0.001965,0.0,0.0,-0.001847,0.0,0.0
39111,-0.004638,-5e-05,-0.021363,-0.016532,-0.0,-0.0,3.0,0.0,0.0,0.0,0.0,-10.087067,-31.961455,27.061258,-0.331009,-5.836517,-8.257849,-0.001997,0.0,0.0,-0.001182,0.0,0.0
39131,-0.00464,7.3e-05,-0.021362,-0.017782,-0.0,-0.0,3.0,0.0,0.0,0.0,0.0,-10.123002,-31.766544,27.124286,-0.393673,-5.845127,-8.332469,-0.002017,0.0,0.0,-0.000756,0.0,0.0
39151,-0.00464,7.3e-05,-0.021362,-0.019871,-0.0,-0.0,3.0,0.0,0.0,0.0,0.0,-10.145949,-31.569225,27.177662,-0.446684,-5.796709,-8.407191,-0.00203,0.0,0.0,-0.000503,0.0,0.0
39171,-0.00464,7.3e-05,-0.021362,-0.021656,-0.0,-0.0,3.0,0.0,0.0,0.0,0.0,-10.15912,-31.371007,27.227394,-0.482577,-5.691584,-8.481983,-0.002039,0.0,0.0,-0.000322,0.0,0.0
39191,-0.004518,7.4e-05,-0.021362,-0.023442,-0.0,-0.0,3.0,0.0,0.0,0.0,0.0,-10.162821,-31.173171,27.278205,-0.495002,-5.534014,-8.556805,-0.002044,0.0,0.0,-0.000206,0.0,0.0
39211,-0.004518,7.4e-05,-0.021362,-0.025226,-0.0,-0.0,3.0,0.0,0.0,0.0,0.0,-10.154852,-30.976947,27.335057,-0.479393,-5.331932,-8.631605,-0.002013,0.0,0.0,0.001714,0.0,0.0
39231,-0.004516,-4.8e-05,-0.021363,-0.026434,-0.0,-0.0,3.0,0.0,0.0,0.0,0.0,-10.129823,-30.78374,27.404778,-0.43348,-5.096351,-8.706332,-0.001984,0.0,0.0,0.001121,0.0,0.0
39251,-0.004638,-5e-05,-0.021363,-0.02733,-0.0,-0.0,3.0,0.0,0.0,0.0,0.0,-10.076783,-30.595576,27.498949,-0.357599,-4.840513,-8.780942,-0.001989,0.0,0.0,-0.001347,0.0,0.0
39271,-0.004638,-5e-05,-0.021363,-0.030007,-0.0,-0.0,3.0,0.0,0.0,0.0,0.0,-9.972792,-30.416254,27.640636,-0.25474,-4.578867,-8.855401,-0.002012,0.0,0.0,-0.000862,0.0,0.0
39291,-0.00464,7.3e-05,-0.021362,-0.031488,-0.0,-0.0,3.0,0.0,0.0,0.0,0.0,-9.76571,-30.254762,27.88176,-0.130301,-4.325969,-8.929688,-0.002027,0.0,0.0,-0.000579,0.0,0.0
39311,-0.00464,7.3e-05,-0.021362,-0.032769,-0.0,-0.0,3.0,0.0,0.0,0.0,0.0,-9.34178,-30.136091,28.335624,0.008433,-4.095398,-9.003798,-0.002036,0.0,0.0,-0.00037,0.0,0.0
39331,-0.00464,7.3e-05,-0.021362,-0.034627,-0.0,-0.0,3.0,0.0,0.0,0.0,0.0,-8.651489,-30.119218,29.051267,0.152331,-3.898792,-9.077735,-0.002043,0.0,0.0,-0.000237,0.0,0.0
39351,-0.00464,7.3e-05,-0.021362,-0.036312,-0.0,-0.0,3.0,0.0,0.0,0.0,0.0,-8.13119,-30.2291,29.592214,0.289331,-3.745377,-9.151515,-0.002047,0.0,0.0,-0.000151,0.0,0.0
39371,-0.00464,7.3e-05,-0.021362,-0.037972,-0.0,-0.0,3.0,0.0,0.0,0.0,0.0,-7.899056,-30.396467,29.841005,0.407697,-3.641558,-9.22516,-0.002049,0.0,0.0,-9.7e-05,0.0,0.0
39391,-0.004638,-5e-05,-0.021363,-0.039808,-0.0,-0.0,3.0,0.0,0.0,0.0,0.0,-7.787664,-30.581568,29.96638,0.497426,-3.589917,-9.298698,-0.002051,0.0,0.0,-3.4e-05,0.0,0.0
39411,-0.004638,-5e-05,-0.021363,-0.040862,-0.0,-0.0,3.0,0.0,0.0,0.0,0.0,-7.724812,-30.773877,30.041901,0.550242,-3.589139,-9.37216,-0.002052,0.0,0.0,-2.2e-05,0.0,0.0
39431,-0.004638,-5e-05,-0.021363,-0.042267,-0.0,-0.0,3.0,0.0,0.0,0.0,0.0,-7.685218,-30.970313,30.094426,0.56036,-3.634437,-9.445579,-0.002052,0.0,0.0,-1.4e-05,0.0,0.0
39451,-0.00464,7.3e-05,-0.021362,-0.043987,-0.0,-0.0,3.0,0.0,0.0,0.0,0.0,-7.659185,-31.169804,30.135609,0.52505,-3.718101,-9.518996,-0.002052,0.0,0.0,-9e-06,0.0,0.0
39471,-0.00464,7.3e-05,-0.021362,-0.045478,-0.0,-0.0,3.0,0.0,0.0,0.0,0.0,-7.643071,-31.371918,30.171615,0.444969,-3.830199,-9.592456,-0.002053,0.0,0.0,-2.5e-05,0.0,0.0
39491,-0.00464,7.3e-05,-0.021362,-0.047463,-0.0,-0.0,3.0,0.0,0.0,0.0,0.0,-7.636164,-31.576409,30.206566,0.324242,-3.959382,-9.666007,-0.002053,0.0,0.0,-1.6e-05,0.0,0.0
39511,-0.00464,7.3e-05,-0.021362,-0.048232,-0.0,-0.0,3.0,0.0,0.0,0.0,0.0,-7.639713,-31.783016,30.244196,0.170283,-4.09377,-9.739701,-0.002053,0.0,0.0,-1e-05,0.0,0.0
39531,-0.00464,7.3e-05,-0.021362,-0.049753,-0.0,-0.0,3.0,0.0,0.0,0.0,0.0,-7.657124,-31.9913,30.289244,-0.006636,-4.221839,-9.813584,-0.002054,0.0,0.0,-7e-06,0.0,0.0
39551,-0.004638,-5e-05,-0.021363,-0.051253,-0.0,-0.0,3.0,0.0,0.0,0.0,0.0,-7.695685,-32.200421,30.349774,-0.194047,-4.333271,-9.887691,-0.002041,0.0,0.0,-0.000255,0.0,0.0
39571,-0.004638,-5e-05,-0.021363,-0.052955,-0.0,-0.0,3.0,0.0,0.0,0.0,0.0,-7.77242,-32.408555,30.443336,-0.37816,-4.419713,-9.962041,-0.002045,0.0,0.0,-0.000163,0.0,0.0
39591,-0.004638,-5e-05,-0.021363,-0.053835,-0.0,-0.0,3.0,0.0,0.0,0.0,0.0,-7.936332,-32.610803,30.619325,-0.544882,-4.475405,-10.03663,-0.002048,0.0,0.0,-7.7e-05,0.0,0.0
39611,-0.004638,-5e-05,-0.021363,-0.055791,-0.0,-0.0,3.0,0.0,0.0,0.0,0.0,-8.38056,-32.787981,31.070982,-0.681009,-4.497677,-10.11143,-0.002049,0.0,0.0,-6.9e-05,0.0,0.0
39631,-0.004638,-5e-05,-0.021363,-0.056716,-0.0,-0.0,3.0,0.0,0.0,0.0,0.0,-9.680111,-32.831361,32.372587,-0.775704,-4.487419,-10.186393,-0.002051,0.0,0.0,-4.4e-05,0.0,0.0
39651,-0.004638,-5e-05,-0.021363,-0.057615,-0.0,-0.0,3.0,0.0,0.0,0.0,0.0,-10.308087,-32.648577,32.9967,-0.817877,-4.44863,-10.261451,-0.002051,0.0,0.0,-2.8e-05,0.0,0.0
39671,-0.00464,7.3e-05,-0.021362,-0.059482,-0.0,-0.0,3.0,0.0,0.0,0.0,0.0,-10.440174,-32.430154,33.122618,-0.805463,-4.386773,-10.336525,-0.002052,0.0,0.0,-1.8e-05,0.0,0.0
39691,-0.00464,7.3e-05,-0.021362,-0.060815,-0.0,-0.0,3.0,0.0,0.0,0.0,0.0,-10.497002,-32.207294,33.173539,-0.740918,-4.308783,-10.411542,-0.002052,0.0,0.0,-3.1e-05,0.0,0.0
39711,-0.004638,-5e-05,-0.021363,-0.062121,-0.0,-0.0,3.0,0.0,0.0,0.0,0.0,-10.529879,-31.982709,33.202306,-0.629602,-4.222248,-10.486437,-0.002053,0.0,0.0,8e-06,0.0,0.0
39731,-0.004638,-5e-05,-0.021363,-0.063403,-0.0,-0.0,3.0,0.0,0.0,0.0,0.0,-10.550743,-31.757032,33.222301,-0.480644,-4.134538,-10.561157,-0.002053,0.0,0.0,5e-06,0.0,0.0
39751,-0.004638,-5e-05,-0.021363,-0.06424,-0.0,-0.0,3.0,0.0,0.0,0.0,0.0,-10.563267,-31.530461,33.238738,-0.306327,-4.051927,-10.635671,-0.002053,0.0,0.0,3e-06,0.0,0.0
39771,-0.004638,-5e-05,-0.021363,-0.064947,-0.0,-0.0,3.0,0.0,0.0,0.0,0.0,-10.568462,-31.303054,33.254487,-0.121012,-3.978852,-10.709962,-0.002053,0.0,0.0,2e-06,0.0,0.0
39791,-0.00464,7.3e-05,-0.021362,-0.06655,-0.0,-0.0,3.0,0.0,0.0,0.0,0.0,-10.566027,-31.074831,33.271906,0.060207,-3.917445,-10.784034,-0.002053,0.0,0.0,1e-06,0.0,0.0
39811,-0.00464,7.3e-05,-0.021362,-0.068089,-0.0,-0.0,3.0,0.0,0.0,0.0,0.0,-10.554339,-30.845845,33.293968,0.222947,-3.8674,-10.857903,-0.002053,0.0,0.0,-1.9e-05,0.0,0.0
39831,-0.00464,7.3e-05,-0.021362,-0.068804,-0.0,-0.0,3.0,0.0,0.0,0.0,0.0,-10.529121,-30.616294,33.326019,0.354902,-3.8262,-10.931602,-0.002053,0.0,0.0,-1.2e-05,0.0,0.0
39851,-0.00464,7.3e-05,-0.021362,-0.070119,-0.0,-0.0,3.0,0.0,0.0,0.0,0.0,-10.478456,-30.386781,33.38091,0.447015,-3.789688,-11.005172,-0.002054,0.0,0.0,-8e-06,0.0,0.0
39871,-0.004638,-5e-05,-0.021363,-0.0712,-0.0,-0.0,3.0,0.0,0.0,0.0,0.0,-10.359376,-30.159437,33.502366,0.494342,-3.752887,-11.078662,-0.002053,0.0,0.0,1.7e-05,0.0,0.0
39891,-0.004638,-5e-05,-0.021363,-0.072242,-0.0,-0.0,3.0,0.0,0.0,0.0,0.0,-9.88037,-29.947228,33.982016,0.496893,-3.71096,-11.152124,-0.002053,0.0,0.0,1.1e-05,0.0,0.0
39911,-0.004638,-5e-05,-0.021363,-0.072756,-0.0,-0.0,3.0,0.0,0.0,0.0,0.0,-7.494324,-29.972789,36.362663,0.465687,-3.660226,-11.225606,-0.002053,0.0,0.0,7e-06,0.0,0.0
39931,-0.004638,-5e-05,-0.021363,-0.073989,-0.0,-0.0,3.0,0.0,0.0,0.0,0.0,-7.524128,-30.209215,36.323266,0.404226,-3.600981,-11.299139,-0.002053,0.0,0.0,4e-06,0.0,0.0
39951,-0.004638,-5e-05,-0.021363,-0.074695,-0.0,-0.0,3.0,0.0,0.0,0.0,0.0,-7.527785,-30.446715,36.310933,0.313456,-3.533903,-11.372758,-0.002053,0.0,0.0,3e-06,0.0,0.0
39971,-0.004638,-5e-05,-0.021363,-0.075193,-0.0,-0.0,3.0,0.0,0.0,0.0,0.0,-7.530104,-30.68518,36.300821,0.203536,-3.460765,-11.446487,-0.002053,0.0,0.0,2e-06,0.0,0.0
39991,-0.00464,7.3e-05,-0.021362,-0.076457,-0.0,-0.0,3.0,0.0,0.0,0.0,0.0,-7.532684,-30.924588,36.291156,0.085365,-3.385473,-11.520336,-0.002053,0.0,0.0,-2.6e-05,0.0,0.0
40011,-0.00464,7.2e-05,-0.021484,-0.077125,-0.0,-0.0,3.0,0.0,0.0,0.0,0.0,-7.53565,-31.164949,36.281413,-0.030531,-3.313697,-11.594305,-0.002053,0.0,0.0,-1.7e-05,0.0,0.0
40031,-0.004638,-5e-05,-0.021363,-0.078022,-0.0,-0.0,3.0,0.0,0.0,0.0,0.0,-7.538675,-31.406316,36.271274,-0.135046,-3.252201,-11.668384,-0.002053,0.0,0.0,1.7e-05,0.0,0.0
40051,-0.004638,-5e-05,-0.021363,-0.078839,-0.0,-0.0,3.0,0.0,0.0,0.0,0.0,-7.541158,-31.648777,36.260406,-0.22129,-3.207954,-11.742555,-0.002053,0.0,0.0,1.1e-05,0.0,0.0
40071,-0.004638,-5e-05,-0.021363,-0.079608,-0.0,-0.0,3.0,0.0,0.0,0.0,0.0,-7.542219,-31.89245,36.248285,-0.285088,-3.187124,-11.816798,-0.002053,0.0,0.0,7e-06,0.0,0.0
40091,-0.004638,-5e-05,-0.021363,-0.080404,-0.0,-0.0,3.0,0.0,0.0,0.0,0.0,-7.540476,-32.137474,36.233885,-0.325107,-3.194065,-11.891091,-0.002053,0.0,0.0,4e-06,0.0,0.0
40111,-0.004638,-5e-05,-0.021485,-0.080834,-0.0,-0.0,3.0,0.0,0.0,0.0,0.0,-7.533121,-32.383977,36.21468,-0.342643,-3.230452,-11.965416,-0.002053,0.0,0.0,3e-06,0.0,0.0
40131,-0.00464,7.2e-05,-0.021484,-0.08167,-0.0,-0.0,3.0,0.0,0.0,0.0,0.0,-7.5114,-32.632022,36.182092,-0.341073,-3.294671,-12.039755,-0.002053,0.0,0.0,-2.6e-05,0.0,0.0
40151,-0.00464,7.2e-05,-0.021484,-0.082232,-0.0,-0.0,3.0,0.0,0.0,0.0,0.0,-7.415246,-32.881174,36.076214,-0.325145,-3.381596,-12.114094,-0.002053,0.0,0.0,-1.7e-05,0.0,0.0
40171,-0.00464,7.2e-05,-0.021484,-0.082554,-0.0,-0.0,3.0,0.0,0.0,0.0,0.0,-8.179322,-33.057824,36.831219,-0.304738,-3.482752,-12.188422,-0.002053,0.0,0.0,-1.1e-05,0.0,0.0
40191,-0.00476,-5.1e-05,-0.021485,-0.083339,-0.0,-0.0,3.0,0.0,0.0,0.0,0.0,-7.600922,-33.300438,36.244513,-0.292935,-3.586557,-12.262744,-0.002053,0.0,0.0,-0.002563,0.0,0.0
40211,-0.00476,-5.1e-05,-0.021485,-0.083869,-0.0,-0.0,3.0,0.0,0.0,0.0,0.0,-7.589361,-33.556605,36.225741,-0.276403,-3.679179,-12.33706,-0.002097,0.0,0.0,-0.001639,0.0,0.0
40231,-0.004638,-5e-05,-0.021485,-0.084358,-0.0,-0.0,3.0,0.0,0.0,0.0,0.0,-7.586338,-33.814699,36.215083,-0.254641,-3.749143,-12.411364,-0.002101,0.0,0.0,0.001016,0.0,0.0
40251,-0.004638,-5e-05,-0.021363,-0.084806,-0.0,-0.0,3.0,0.0,0.0,0.0,0.0,-7.58609,-34.074548,36.20655,-0.226686,-3.786915,-12.485645,-0.002083,0.0,0.0,0.00065,0.0,0.0
40271,-0.004638,-5e-05,-0.021363,-0.085134,-0.0,-0.0,3.0,0.0,0.0,0.0,0.0,-7.587533,-34.335951,36.199015,-0.190991,-3.786027,-12.559894,-0.002072,0.0,0.0,0.000415,0.0,0.0
40291,-0.00464,7.3e-05,-0.021362,-0.085377,-0.0,-0.0,3.0,0.0,0.0,0.0,0.0,-7.590181,-34.598687,36.192186,-0.146032,-3.74398,-12.634099,-0.002065,0.0,0.0,0.000244,0.0,0.0
40311,-0.00464,7.3e-05,-0.021362,-0.085377,-0.0,-0.0,3.0,0.0,0.0,0.0,0.0,-7.593541,-34.862539,36.186063,-0.091018,-3.662673,-12.708247,-0.002061,0.0,0.0,0.000156,0.0,0.0
40331,-0.004762,7.1e-05,-0.021362,-0.086211,-0.0,-0.0,3.0,0.0,0.0,0.0,0.0,-7.596896,-35.127318,36.180895,-0.026557,-3.54825,-12.782329,-0.002083,0.0,0.0,-0.001965,0.0,0.0
40351,-0.004762,7.1e-05,-0.021362,-0.08637,-0.0,-0.0,3.0,0.0,0.0,0.0,0.0,-7.599033,-35.392885,36.177386,0.04488,-3.410398,-12.85634,-0.002117,0.0,0.0,-0.001256,0.0,0.0
40371,-0.004762,7.1e-05,-0.021362,-0.08659,-0.0,-0.0,3.0,0.0,0.0,0.0,0.0,-7.597225,-35.659159,36.177736,0.118812,-3.26117,-12.930279,-0.002138,0.0,0.0,-0.000804,0.0,0.0
40391,-0.004762,7.1e-05,-0.021362,-0.086862,-0.0,-0.0,3.0,0.0,0.0,0.0,0.0,-7.579914,-35.926079,36.192977,0.188992,-3.113515,-13.004152,-0.002152,0.0,0.0,-0.000514,0.0,0.0
40411,-0.004762,7.1e-05,-0.021362,-0.086948,-0.0,-0.0,3.0,0.0,0.0,0.0,0.0,-1.371523,-36.192385,42.397849,0.248223,-2.979739,-13.077972,-0.00216,0.0,0.0,-0.000331,0.0,0.0
40431,-0.004762,7.1e-05,-0.021362,-0.087085,-0.0,-0.0,3.0,0.0,0.0,0.0,0.0,-1.346717,-36.460973,42.417271,0.289178,-2.87019,-13.151753,-0.002166,0.0,0.0,-0.000212,0.0,0.0
40451,-0.004762,7.1e-05,-0.021362,-0.087185,-0.0,-0.0,3.0,0.0,0.0,0.0,0.0,-1.347514,-36.730586,42.409826,0.304445,-2.792007,-13.225515,-0.00217,0.0,0.0,-0.000136,0.0,0.0
40471,-0.004762,7.1e-05,-0.021362,-0.08725,-0.0,-0.0,3.0,0.0,0.0,0.0,0.0,-1.346965,-37.00135,42.402627,0.289314,-2.74843,-13.29928,-0.002172,0.0,0.0,-8.7e-05,0.0,0.0
40491,-0.004762,7.1e-05,-0.021362,-0.087266,-0.0,-0.0,3.0,0.0,0.0,0.0,0.0,-1.345435,-37.273411,42.395567,0.242205,-2.738848,-13.373069,-0.002173,0.0,0.0,-5.5e-05,0.0,0.0
40511,-0.004762,7.1e-05,-0.021362,-0.087251,-0.0,-0.0,3.0,0.0,0.0,0.0,0.0,-1.343337,-37.546909,42.388588,0.165263,-2.759245,-13.446906,-0.002174,0.0,0.0,-3.5e-05,0.0,0.0
40531,-0.004762,7.1e-05,-0.021362,-0.087187,-0.0,-0.0,3.0,0.0,0.0,0.0,0.0,-1.341098,-37.821965,42.381609,0.064488,-2.803057,-13.520811,-0.002175,0.0,0.0,-2.3e-05,0.0,0.0
40551,-0.004762,7.1e-05,-0.021362,-0.087102,-0.0,-0.0,3.0,0.0,0.0,0.0,0.0,-1.33906,-38.098675,42.374495,-0.050699,-2.862275,-13.594803,-0.002175,0.0,0.0,-1.4e-05,0.0,0.0
40571,-0.004762,7.1e-05,-0.021484,-0.087011,-0.0,-0.0,3.0,0.0,0.0,0.0,0.0,-1.337329,-38.3771,42.366969,-0.168424,-2.928626,-13.668895,-0.002176,0.0,0.0,-9e-06,0.0,0.0
40591,-0.00464,7.3e-05,-0.021362,-0.086824,-0.0,-0.0,3.0,0.0,0.0,0.0,0.0,-1.335414,-38.657266,42.358313,-0.27576,-2.994631,-13.743088,-0.002151,0.0,0.0,0.002058,0.0,0.0
40611,-0.00464,7.3e-05,-0.021362,-0.086618,-0.0,-0.0,3.0,0.0,0.0,0.0,0.0,-1.330648,-38.939158,42.345822,-0.360384,-3.054378,-13.817373,-0.002116,0.0,0.0,0.001316,0.0,0.0
40631,-0.00464,7.3e-05,-0.021362,-0.086374,-0.0,-0.0,3.0,0.0,0.0,0.0,0.0,-1.294099,-39.222687,42.300771,-0.412285,-3.103929,-13.891729,-0.002094,0.0,0.0,0.000842,0.0,0.0
40651,-0.00464,7.3e-05,-0.021362,-0.086237,-0.0,-0.0,3.0,0.0,0.0,0.0,0.0,-1.393851,-39.504202,42.390776,-0.425389,-3.141291,-13.966126,-0.002079,0.0,0.0,0.000538,0.0,0.0
40671,-0.00464,7.3e-05,-0.021362,-0.085857,-0.0,-0.0,3.0,0.0,0.0,0.0,0.0,-1.372532,-39.790931,42.359552,-0.398182,-3.166102,-14.040524,-0.00207,0.0,0.0,0.000344,0.0,0.0
40691,-0.00464,7.2e-05,-0.021484,-0.085857,-0.0,-0.0,3.0,0.0,0.0,0.0,0.0,-1.370943,-40.079289,42.348325,-0.333644,-3.178731,-14.114885,-0.002064,0.0,0.0,0.000223,0.0,0.0
40711,-0.00464,7.2e-05,-0.021484,-0.085124,-0.0,-0.0,3.0,0.0,0.0,0.0,0.0,-1.372096,-40.369138,42.340361,-0.239737,-3.179826,-14.189177,-0.002061,0.0,0.0,0.000143,0.0,0.0
40731,-0.00464,7.2e-05,-0.021484,-0.084872,-0.0,-0.0,3.0,0.0,0.0,0.0,0.0,-1.373651,-40.660421,42.333559,-0.127974,-3.169578,-14.263373,-0.002058,0.0,0.0,9.1e-05,0.0,0.0
40751,-0.00464,7.2e-05,-0.021484,-0.08429,-0.0,-0.0,3.0,0.0,0.0,0.0,0.0,-1.374887,-40.953093,42.32734,-0.011741,-3.147369,-14.337461,-0.002057,0.0,0.0,5.8e-05,0.0,0.0
40771,-0.004641,0.000194,-0.021484,-0.083792,-0.0,-0.0,3.0,0.0,0.0,0.0,0.0,-1.375567,-41.247106,42.321513,0.095636,-3.11184,-14.411444,-0.002069,0.0,0.0,-0.002293,0.0,0.0
40791,-0.004763,0.000193,-0.021484,-0.083257,-0.0,-0.0,3.0,0.0,0.0,0.0,0.0,-1.375626,-41.542407,42.316085,0.182755,-3.061379,-14.485336,-0.002073,0.0,0.0,-0.002174,0.0,0.0
40811,-0.004762,7.1e-05,-0.021484,-0.082977,-0.0,-0.0,3.0,0.0,0.0,0.0,0.0,-1.374881,-41.83894,42.311365,0.241627,-2.994938,-14.559162,-0.00211,0.0,0.0,-0.001385,0.0,0.0
40831,-0.004762,7.1e-05,-0.021484,-0.082298,-0.0,-0.0,3.0,0.0,0.0,0.0,0.0,-1.371868,-42.136641,42.308992,0.268522,-2.912975,-14.63295,-0.002134,0.0,0.0,-0.000886,0.0,0.0
40851,-0.004762,7.1e-05,-0.021484,-0.081756,-0.0,-0.0,3.0,0.0,0.0,0.0,0.0,-1.32515,-42.435428,42.350492,0.264088,-2.818267,-14.706733,-0.002149,0.0,0.0,-0.000594,0.0,0.0
40871,-0.004763,0.000193,-0.021484,-0.081132,-0.0,-0.0,3.0,0.0,0.0,0.0,0.0,-1.393883,-42.734661,42.277327,0.232656,-2.716323,-14.780535,-0.002159,0.0,0.0,-0.000357,0.0,0.0
40891,-0.004762,7.1e-05,-0.021484,-0.080485,-0.0,-0.0,3.0,0.0,0.0,0.0,0.0,-1.389354,-43.035628,42.277483,0.181217,-2.615245,-14.854377,-0.002165,0.0,0.0,-0.000226,0.0,0.0
40911,-0.004762,7.1e-05,-0.021484,-0.079582,-0.0,-0.0,3.0,0.0,0.0,0.0,0.0,-1.38942,-43.337695,42.273074,0.117691,-2.525022,-14.928267,-0.002169,0.0,0.0,-0.000145,0.0,0.0
40931,-0.004762,7.1e-05,-0.021484,-0.079092,-0.0,-0.0,3.0,0.0,0.0,0.0,0.0,-1.390336,-43.640918,42.267572,0.049734,-2.456107,-15.002209,-0.002172,0.0,0.0,-9.3e-05,0.0,0.0
40951,-0.004762,7.1e-05,-0.021484,-0.078299,-0.0,-0.0,3.0,0.0,0.0,0.0,0.0,-1.391189,-43.945393,42.26154,-0.016412,-2.41773,-15.076202,-0.002173,0.0,0.0,-5.9e-05,0.0,0.0
40971,-0.004762,7.1e-05,-0.021484,-0.077463,-0.0,-0.0,3.0,0.0,0.0,0.0,0.0,-1.39147,-44.25124,42.255088,-0.07651,-2.416132,-15.150241,-0.002174,0.0,0.0,-3.8e-05,0.0,0.0
40991,-0.004762,7.1e-05,-0.021484,-0.076601,-0.0,-0.0,3.0,0.0,0.0,0.0,0.0,-1.390786,-44.558589,42.248117,-0.128313,-2.453074,-15.22432,-0.002175,0.0,0.0,-2.4e-05,0.0,0.0
41011,-0.004762,7.1e-05,-0.021484,-0.076131,-0.0,-0.0,3.0,0.0,0.0,0.0,0.0,-1.388613,-44.86757,42.240176,-0.171042,-2.52497,-15.298436,-0.002175,0.0,0.0,-1.5e-05,0.0,0.0
41031,-0.004763,0.000193,-0.021484,-0.075419,-0.0,-0.0,3.0,0.0,0.0,0.0,0.0,-1.38319,-45.178291,42.229399,-0.204547,-2.622883,-15.372585,-0.002176,0.0,0.0,-1e-05,0.0,0.0
41051,-0.004763,0.000193,-0.021484,-0.073801,-0.0,-0.0,3.0,0.0,0.0,0.0,0.0,-1.355766,-45.490796,42.196841,-0.228428,-2.733475,-15.446764,-0.002176,0.0,0.0,-2.6e-05,0.0,0.0
41071,-0.004763,0.000193,-0.021484,-0.072926,-0.0,-0.0,3.0,0.0,0.0,0.0,0.0,-1.427626,-45.800148,42.262293,-0.24171,-2.840857,-15.520965,-0.002177,0.0,0.0,-1.7e-05,0.0,0.0
41091,-0.004641,0.000194,-0.021484,-0.072194,-0.0,-0.0,3.0,0.0,0.0,0.0,0.0,-1.406153,-46.116268,42.234391,-0.242274,-2.929013,-15.595181,-0.002152,0.0,0.0,0.002053,0.0,0.0
41111,-0.00464,7.2e-05,-0.021484,-0.071047,-0.0,-0.0,3.0,0.0,0.0,0.0,0.0,-1.402725,-46.434193,42.2239,-0.226394,-2.984222,-15.669398,-0.002117,0.0,0.0,0.001338,0.0,0.0
41131,-0.00464,7.2e-05,-0.021484,-0.069955,-0.0,-0.0,3.0,0.0,0.0,0.0,0.0,-1.402841,-46.753727,42.216181,-0.191381,-2.997724,-15.743597,-0.002095,0.0,0.0,0.000834,0.0,0.0
41151,-0.00464,7.2e-05,-0.021484,-0.068842,-0.0,-0.0,3.0,0.0,0.0,0.0,0.0,-1.404631,-47.074709,42.209537,-0.136289,-2.967029,-15.817759,-0.00208,0.0,0.0,0.000553,0.0,0.0
41171,-0.00464,7.2e-05,-0.021484,-0.068275,-0.0,-0.0,3.0,0.0,0.0,0.0,0.0,-1.407244,-47.396986,42.203557,-0.06311,-2.896241,-15.891865,-0.002071,0.0,0.0,0.000354,0.0,0.0
41191,-0.00464,7.2e-05,-0.021484,-0.066598,-0.0,-0.0,3.0,0.0,0.0,0.0,0.0,-1.409911,-47.72044,42.1982,0.022507,-2.795178,-15.965902,-0.002065,0.0,0.0,0.000226,0.0,0.0
41211,-0.004641,0.000195,-0.021362,-0.06542,-0.0,-0.0,3.0,0.0,0.0,0.0,0.0,-1.411662,-48.044996,42.193781,0.111327,-2.677462,-16.039868,-0.002061,0.0,0.0,0.000117,0.0,0.0
41231,-0.004641,0.000194,-0.021484,-0.064446,-0.0,-0.0,3.0,0.0,0.0,0.0,0.0,-1.410349,-48.370629,42.191925,0.191543,-2.558005,-16.113768,-0.002059,0.0,0.0,7.5e-05,0.0,0.0
41251,-0.004641,0.000195,-0.021362,-0.063744,-0.0,-0.0,3.0,0.0,0.0,0.0,0.0,-1.376169,-48.697333,42.222037,0.250635,-2.450442,-16.187619,-0.002058,0.0,0.0,4.8e-05,0.0,0.0
41271,-0.004641,0.000194,-0.021484,-0.062178,-0.0,-0.0,3.0,0.0,0.0,0.0,0.0,-1.471946,-48.956891,42.126543,0.287871,-2.365002,-16.26144,-0.002057,0.0,0.0,3.1e-05,0.0,0.0
41291,-0.00464,7.2e-05,-0.021484,-0.060865,-0.0,-0.0,3.0,0.0,0.0,0.0,0.0,-1.439877,-49.285878,42.154338,0.288574,-2.309098,-16.33525,-0.002056,0.0,0.0,4.4e-05,0.0,0.0
41311,-0.004641,0.000194,-0.021484,-0.059535,-0.0,-0.0,3.0,0.0,0.0,0.0,0.0,-1.432143,-49.61634,42.157149,0.244495,-2.283611,-16.409074,-0.002055,0.0,0.0,1e-06,0.0,0.0
41331,-0.004641,0.000194,-0.021484,-0.058173,-0.0,-0.0,3.0,0.0,0.0,0.0,0.0,-1.428229,-49.948228,42.156273,0.15993,-2.284086,-16.48294,-0.002055,0.0,0.0,0.0,0.0,0.0
41351,-0.004641,0.000194,-0.021484,-0.057317,-0.0,-0.0,3.0,0.0,0.0,0.0,0.0,-1.4262,-50.281597,42.154355,0.046755,-2.303603,-16.55687,-0.002055,0.0,0.0,0.0,0.0,0.0
41371,-0.004641,0.000194,-0.021484,-0.056417,-0.0,-0.0,3.0,0.0,0.0,0.0,0.0,-1.425902,-50.616498,42.152257,-0.077462,-2.335005,-16.63088,-0.002055,0.0,0.0,0.0,0.0,0.0
41391,-0.004641,0.000194,-0.021484,-0.054811,-0.0,-0.0,3.0,0.0,0.0,0.0,0.0,-1.427613,-50.952963,42.150612,-0.192651,-2.372713,-16.704975,-0.002055,0.0,0.0,0.0,0.0,0.0
41411,-0.004641,0.000194,-0.021484,-0.052682,-0.0,-0.0,3.0,0.0,0.0,0.0,0.0,-1.432295,-51.291009,42.150699,-0.280097,-2.413634,-16.779146,-0.002042,0.0,0.0,-0.000273,0.0,0.0
41431,-0.004641,0.000194,-0.021484,-0.051637,-0.0,-0.0,3.0,0.0,0.0,0.0,0.0,-1.446254,-51.630628,42.159216,-0.32613,-2.456942,-16.853371,-0.002047,0.0,0.0,-0.000174,0.0,0.0
41451,-0.00464,7.2e-05,-0.021484,-0.050023,-0.0,-0.0,3.0,0.0,0.0,0.0,0.0,-1.294836,-51.970175,42.00123,-0.324732,-2.502874,-16.927621,-0.00205,0.0,0.0,-8.7e-05,0.0,0.0
41471,-0.00464,7.2e-05,-0.021484,-0.048487,-0.0,-0.0,3.0,0.0,0.0,0.0,0.0,-1.410755,-52.312171,42.11271,-0.279714,-2.550925,-17.001862,-0.002051,0.0,0.0,-5.6e-05,0.0,0.0
41491,-0.00464,7.2e-05,-0.021484,-0.04695,-0.0,-0.0,3.0,0.0,0.0,0.0,0.0,-1.419379,-52.656609,42.11691,-0.20051,-2.598065,-17.076063,-0.002052,0.0,0.0,-3.6e-05,0.0,0.0
41511,-0.00464,7.2e-05,-0.021484,-0.046172,-0.0,-0.0,3.0,0.0,0.0,0.0,0.0,-1.422348,-53.002658,42.116272,-0.103015,-2.638313,-17.1502,-0.002053,0.0,0.0,-2.3e-05,0.0,0.0
41531,-0.00464,7.2e-05,-0.021484,-0.043912,-0.0,-0.0,3.0,0.0,0.0,0.0,0.0,-1.423185,-53.350275,42.114463,-0.004629,-2.662891,-17.224261,-0.002053,0.0,0.0,-1.5e-05,0.0,0.0
41551,-0.00464,7.2e-05,-0.021484,-0.043039,-0.0,-0.0,3.0,0.0,0.0,0.0,0.0,-1.422753,-53.699402,42.112505,0.079404,-2.661998,-17.298249,-0.002054,0.0,0.0,-9e-06,0.0,0.0
41571,-0.00464,7.2e-05,-0.021484,-0.040887,-0.0,-0.0,3.0,0.0,0.0,0.0,0.0,-1.421168,-54.049955,42.111225,0.138943,-2.627575,-17.372179,-0.002054,0.0,0.0,-6e-06,0.0,0.0
41591,-0.00464,7.2e-05,-0.021484,-0.039928,-0.0,-0.0,3.0,0.0,0.0,0.0,0.0,-1.417159,-54.401826,42.112471,0.170319,-2.556328,-17.446072,-0.002054,0.0,0.0,-4e-06,0.0,0.0
41611,-0.00464,7.2e-05,-0.021484,-0.037935,-0.0,-0.0,3.0,0.0,0.0,0.0,0.0,-1.401336,-54.754875,42.125863,0.175887,-2.452041,-17.519953,-0.002054,0.0,0.0,-2e-06,0.0,0.0
41631,-0.00464,7.2e-05,-0.021484,-0.036213,-0.0,-0.0,3.0,0.0,0.0,0.0,0.0,-1.683038,-55.10643,41.841027,0.162258,-2.326333,-17.593842,-0.002054,0.0,0.0,-2e-06,0.0,0.0
41651,-0.00464,7.2e-05,-0.021484,-0.034511,-0.0,-0.0,3.0,0.0,0.0,0.0,0.0,-1.465912,-55.458808,42.058232,0.137288,-2.197335,-17.667749,-0.002054,0.0,0.0,-1e-06,0.0,0.0
41671,-0.00464,7.2e-05,-0.021484,-0.033627,-0.0,-0.0,3.0,0.0,0.0,0.0,0.0,-1.456779,-55.815301,42.066071,0.106049,-2.086446,-17.74168,-0.002054,0.0,0.0,-1e-06,0.0,0.0
41691,-0.00464,7.2e-05,-0.021484,-0.0318,-0.0,-0.0,3.0,0.0,0.0,0.0,0.0,-1.454762,-56.173059,42.066216,0.070984,-2.013592,-17.815634,-0.002054,0.0,0.0,-0.0,0.0,0.0
41711,-0.00464,7.2e-05,-0.021484,-0.030804,-0.0,-0.0,3.0,0.0,0.0,0.0,0.0,-1.454014,-56.53216,42.064493,0.031565,-1.992502,-17.889611,-0.002054,0.0,0.0,-0.0,0.0,0.0
41731,-0.00464,7.2e-05,-0.021484,-0.028628,-0.0,-0.0,3.0,0.0,0.0,0.0,0.0,-1.45347,-56.892729,42.062389,-0.014304,-2.027142,-17.963613,-0.002054,0.0,0.0,-0.0,0.0,0.0
41751,-0.004638,-5e-05,-0.021485,-0.027707,-0.0,-0.0,3.0,0.0,0.0,0.0,0.0,-1.453492,-57.254894,42.060899,-0.067836,-2.110244,-18.037643,-0.002054,0.0,0.0,-0.0,0.0,0.0
41771,-0.004638,-5e-05,-0.021485,-0.024926,-0.0,-0.0,3.0,0.0,0.0,0.0,0.0,-1.456258,-57.618755,42.062085,-0.126918,-2.224523,-18.111711,-0.002054,0.0,0.0,2e-05,0.0,0.0
41791,-0.00464,7.2e-05,-0.021484,-0.023822,-0.0,-0.0,3.0,0.0,0.0,0.0,0.0,-1.476127,-57.984334,42.079827,-0.184722,-2.346396,-18.185821,-0.002053,0.0,0.0,-1.2e-05,0.0,0.0
41811,-0.004638,-5e-05,-0.021485,-0.022052,-0.0,-0.0,3.0,0.0,0.0,0.0,0.0,-1.383595,-58.348727,41.984188,-0.230441,-2.451373,-18.259974,-0.002053,0.0,0.0,1.7e-05,0.0,0.0
41831,-0.00464,7.2e-05,-0.021484,-0.020272,-0.0,-0.0,3.0,0.0,0.0,0.0,0.0,-1.424534,-58.717629,42.02205,-0.251432,-2.519418,-18.33416,-0.002053,0.0,0.0,-1.4e-05,0.0,0.0
41851,-0.00464,7.2e-05,-0.021484,-0.018461,-0.0,-0.0,3.0,0.0,0.0,0.0,0.0,-1.432219,-59.088333,42.025557,-0.235809,-2.539599,-18.408356,-0.002054,0.0,0.0,-9e-06,0.0,0.0
41871,-0.004638,-5e-05,-0.021485,-0.0163,-0.0,-0.0,3.0,0.0,0.0,0.0,0.0,-1.43666,-59.460519,42.025683,-0.178765,-2.512079,-18.482528,-0.002054,0.0,0.0,2.2e-05,0.0,0.0
41891,-0.004638,-5e-05,-0.021485,-0.01472,-0.0,-0.0,3.0,0.0,0.0,0.0,0.0,-1.439545,-59.834061,42.025383,-0.084857,-2.446845,-18.556646,-0.002053,0.0,0.0,1.4e-05,0.0,0.0
41911,-0.004638,-5e-05,-0.021485,-0.012794,-0.0,-0.0,3.0,0.0,0.0,0.0,0.0,-1.440171,-60.208874,42.026003,0.031283,-2.360025,-18.630686,-0.002053,0.0,0.0,9e-06,0.0,0.0
41931,-0.00464,7.2e-05,-0.021484,-0.011173,-0.0,-0.0,3.0,0.0,0.0,0.0,0.0,-1.436255,-60.584919,42.029747,0.147318,-2.268871,-18.704645,-0.002053,0.0,0.0,6e-06,0.0,0.0
41951,-0.00464,7.2e-05,-0.021484,-0.009866,-0.0,-0.0,3.0,0.0,0.0,0.0,0.0,-1.418124,-60.962145,42.04619,0.238267,-2.187073,-18.778534,-0.002053,0.0,0.0,-1.6e-05,0.0,0.0
41971,-0.00464,7.2e-05,-0.021484,-0.007879,-0.0,-0.0,3.0,0.0,0.0,0.0,0.0,-0.448993,-61.339335,43.011642,0.283082,-2.121908,-18.85238,-0.002053,0.0,0.0,-1e-05,0.0,0.0
41991,-0.00464,7.2e-05,-0.021484,-0.006045,-0.0,-0.0,3.0,0.0,0.0,0.0,0.0,-1.458434,-61.67488,41.993379,0.28028,-2.074556,-18.926213,-0.002054,0.0,0.0,-7e-06,0.0,0.0
42011,-0.00464,7.2e-05,-0.021484,-0.004219,-0.0,-0.0,3.0,0.0,0.0,0.0,0.0,-1.456185,-62.056189,41.989828,0.218757,-2.042614,-19.000065,-0.002054,0.0,0.0,-4e-06,0.0,0.0
42031,-0.00464,7.2e-05,-0.021484,-0.003298,-0.0,-0.0,3.0,0.0,0.0,0.0,0.0,-1.454975,-62.438897,41.985701,0.111951,-2.020441,-19.073967,-0.002054,0.0,0.0,-3e-06,0.0,0.0
42051,-0.00464,7.2e-05,-0.021484,-0.001073,-0.0,-0.0,3.0,0.0,0.0,0.0,0.0,-1.454745,-62.823026,41.981344,-0.015689,-2.004704,-19.147939,-0.002054,0.0,0.0,-2e-06,0.0,0.0
42071,-0.00464,7.2e-05,-0.021484,0.000288,-0.0,-0.0,3.0,0.0,0.0,0.0,0.0,-1.455351,-63.208595,41.976685,-0.135207,-1.997033,-19.221986,-0.002054,0.0,0.0,-1e-06,0.0,0.0
42091,-0.00464,7.2e-05,-0.021484,0.002415,-0.0,-0.0,3.0,0.0,0.0,0.0,0.0,-1.456134,-63.595633,41.971418,-0.220987,-2.003823,-19.296096,-0.002054,0.0,0.0,-1e-06,0.0,0.0
42111,-0.00464,7.2e-05,-0.021484,0.004043,-0.0,-0.0,3.0,0.0,0.0,0.0,0.0,-1.455297,-63.984179,41.964339,-0.257552,-2.033183,-19.370248,-0.002054,0.0,0.0,-0.0,0.0,0.0
42131,-0.00464,7.2e-05,-0.021484,0.00541,-0.0,-0.0,3.0,0.0,0.0,0.0,0.0,-1.436201,-64.374271,41.939472,-0.243164,-2.090106,-19.444413,-0.002054,0.0,0.0,-0.0,0.0,0.0
42151,-0.00464,7.2e-05,-0.021484,0.007433,-0.0,-0.0,3.0,0.0,0.0,0.0,0.0,-1.476879,-64.765118,41.975293,-0.189225,-2.171763,-19.518564,-0.002054,0.0,0.0,-0.0,0.0,0.0
42171,-0.00464,7.2e-05,-0.021484,0.009249,-0.0,-0.0,3.0,0.0,0.0,0.0,0.0,-1.469037,-65.158487,41.962739,-0.115041,-2.265174,-19.592679,-0.002054,0.0,0.0,-0.0,0.0,0.0
42191,-0.00464,7.2e-05,-0.021484,0.011074,-0.0,-0.0,3.0,0.0,0.0,0.0,0.0,-1.466434,-65.553542,41.955751,-0.041302,-2.348573,-19.666748,-0.002054,0.0,0.0,-0.0,0.0,0.0
42211,-0.00464,7.2e-05,-0.021484,0.013173,-0.0,-0.0,3.0,0.0,0.0,0.0,0.0,-1.465145,-65.950231,41.9496,0.016903,-2.396792,-19.740771,-0.002054,0.0,0.0,-0.0,0.0,0.0
42231,-0.00464,7.2e-05,-0.021484,0.014349,-0.0,-0.0,3.0,0.0,0.0,0.0,0.0,-1.465257,-66.348457,41.943532,0.054126,-2.389193,-19.814758,-0.002054,0.0,0.0,-0.002581,0.0,0.0
42251,-0.00464,7.2e-05,-0.021484,0.016609,-0.0,-0.0,3.0,0.0,0.0,0.0,0.0,-1.467211,-66.748083,41.937121,0.074441,-2.317515,-19.888725,-0.002063,0.0,0.0,0.000195,0.0,0.0
42271,-0.00464,7.2e-05,-0.021484,0.017592,-0.0,-0.0,3.0,0.0,0.0,0.0,0.0,-1.471898,-67.148973,41.929277,0.087314,-2.190629,-19.962682,-0.00206,0.0,0.0,0.000125,0.0,0.0
42291,-0.00464,7.2e-05,-0.021484,0.019633,-0.0,-0.0,3.0,0.0,0.0,0.0,0.0,-1.497766,-67.551023,41.901014,0.101326,-2.034011,-20.036635,-0.002058,0.0,0.0,8e-05,0.0,0.0
42311,-0.004762,7.1e-05,-0.021484,0.021385,-0.0,-0.0,3.0,0.0,0.0,0.0,0.0,-1.46055,-67.946465,41.933296,0.120131,-1.883586,-20.110582,-0.002056,0.0,0.0,5.1e-05,0.0,0.0
42331,-0.004762,7.1e-05,-0.021484,0.023452,-0.0,-0.0,3.0,0.0,0.0,0.0,0.0,-1.468625,-68.35086,41.92096,0.135091,-1.775631,-20.184524,-0.002066,0.0,0.0,-0.00233,0.0,0.0
42351,-0.00464,7.2e-05,-0.021484,0.025239,-0.0,-0.0,3.0,0.0,0.0,0.0,0.0,-1.470167,-68.756582,41.913571,0.132226,-1.735054,-20.258465,-0.002106,0.0,0.0,-0.00149,0.0,0.0
42371,-0.00476,-5.1e-05,-0.021485,0.026113,-0.0,-0.0,3.0,0.0,0.0,0.0,0.0,-1.469036,-69.163751,41.907188,0.097809,-1.767871,-20.332412,-0.002121,0.0,0.0,-0.001171,0.0,0.0
42391,-0.00476,-5.1e-05,-0.021485,0.028269,-0.0,-0.0,3.0,0.0,0.0,0.0,0.0,-1.466343,-69.572497,41.901068,0.025997,-1.859484,-20.406384,-0.00214,0.0,0.0,-0.000729,0.0,0.0
42411,-0.00476,-5.1e-05,-0.021485,0.029686,-0.0,-0.0,3.0,0.0,0.0,0.0,0.0,-1.462829,-69.982916,41.89458,-0.075318,-1.979752,-20.4804,-0.002153,0.0,0.0,-0.000466,0.0,0.0
42431,-0.00476,-5.1e-05,-0.021485,0.031851,-0.0,-0.0,3.0,0.0,0.0,0.0,0.0,-1.457141,-70.395047,41.885241,-0.18371,-2.093216,-20.55448,-0.002161,0.0,0.0,-0.000298,0.0,0.0
42451,-0.00476,-5.1e-05,-0.021485,0.031851,-0.0,-0.0,3.0,0.0,0.0,0.0,0.0,-1.655704,-70.808746,42.079067,-0.267687,-2.170823,-20.628628,-0.002166,0.0,0.0,-0.000191,0.0,0.0
42471,-0.00476,-5.1e-05,-0.021485,0.034384,-0.0,-0.0,3.0,0.0,0.0,0.0,0.0,-1.478425,-71.222228,41.893822,-0.297241,-2.198883,-20.702821,-0.002169,0.0,0.0,-0.000122,0.0,0.0
42491,-0.004762,7.1e-05,-0.021484,0.036452,-0.0,-0.0,3.0,0.0,0.0,0.0,0.0,-1.477654,-71.639128,41.885457,-0.254963,-2.181621,-20.777016,-0.002171,0.0,0.0,-7.8e-05,0.0,0.0
42511,-0.004762,7.1e-05,-0.021484,0.038132,-0.0,-0.0,3.0,0.0,0.0,0.0,0.0,-1.479624,-72.057447,41.880122,-0.144951,-2.136987,-20.851166,-0.002173,0.0,0.0,-7e-05,0.0,0.0
42531,-0.004762,7.1e-05,-0.021484,0.039776,-0.0,-0.0,3.0,0.0,0.0,0.0,0.0,-1.481223,-72.477145,41.875636,0.005847,-2.087056,-20.925233,-0.002174,0.0,0.0,-4.5e-05,0.0,0.0
42551,-0.004762,7.1e-05,-0.021484,0.040591,-0.0,-0.0,3.0,0.0,0.0,0.0,0.0,-1.481477,-72.898229,41.871457,0.155073,-2.047455,-20.999204,-0.002175,0.0,0.0,-2.9e-05,0.0,0.0
42571,-0.004762,7.1e-05,-0.021484,0.042416,-0.0,-0.0,3.0,0.0,0.0,0.0,0.0,-1.480532,-73.320726,41.867206,0.258831,-2.020623,-21.073095,-0.002175,0.0,0.0,-1.8e-05,0.0,0.0
42591,-0.004762,7.1e-05,-0.021484,0.043321,-0.0,-0.0,3.0,0.0,0.0,0.0,0.0,-1.480769,-73.744651,41.861101,0.287084,-1.996093,-21.146943,-0.002175,0.0,0.0,-1.2e-05,0.0,0.0
42611,-0.004762,7.1e-05,-0.021484,0.045338,-0.0,-0.0,3.0,0.0,0.0,0.0,0.0,-1.472937,-74.169949,41.863174,0.234614,-1.9578,-21.220794,-0.002176,0.0,0.0,-7e-06,0.0,0.0
42631,-0.004762,7.1e-05,-0.021484,0.046606,-0.0,-0.0,3.0,0.0,0.0,0.0,0.0,-1.474185,-74.596671,41.857294,0.122799,-1.8951,-21.294692,-0.002176,0.0,0.0,-5e-06,0.0,0.0
42651,-0.00476,-5.1e-05,-0.021485,0.04855,-0.0,-0.0,3.0,0.0,0.0,0.0,0.0,-1.475571,-75.024731,41.852491,-0.008617,-1.812048,-21.368662,-0.002176,0.0,0.0,-3e-06,0.0,0.0
42671,-0.00476,-5.1e-05,-0.021485,0.049494,-0.0,-0.0,3.0,0.0,0.0,0.0,0.0,-1.477666,-75.454109,41.847425,-0.116939,-1.730014,-21.4427,-0.002176,0.0,0.0,1.8e-05,0.0,0.0
42691,-0.00476,-5.1e-05,-0.021485,0.051117,-0.0,-0.0,3.0,0.0,0.0,0.0,0.0,-1.47924,-75.884839,41.841616,-0.172786,-1.681262,-21.516782,-0.002175,0.0,0.0,1.1e-05,0.0,0.0
42711,-0.00476,-5.1e-05,-0.021485,0.052592,-0.0,-0.0,3.0,0.0,0.0,0.0,0.0,-1.478125,-76.316998,41.834013,-0.170467,-1.695354,-21.590879,-0.002175,0.0,0.0,7e-06,0.0,0.0
42731,-0.004762,7.1e-05,-0.021484,0.054061,-0.0,-0.0,3.0,0.0,0.0,0.0,0.0,-1.46719,-76.750689,41.818277,-0.127968,-1.7839,-21.664969,-0.002175,0.0,0.0,-2e-05,0.0,0.0
42751,-0.004762,7.1e-05,-0.021484,0.055661,-0.0,-0.0,3.0,0.0,0.0,0.0,0.0,4.826861,-77.167983,35.524853,-0.0779,-1.930771,-21.739037,-0.002175,0.0,0.0,-1.3e-05,0.0,0.0
42771,-0.004762,7.1e-05,-0.021484,0.056708,-0.0,-0.0,3.0,0.0,0.0,0.0,0.0,4.806979,-77.605097,35.54401,-0.049506,-2.092818,-21.813086,-0.002176,0.0,0.0,-8e-06,0.0,0.0
42791,-0.004762,7.1e-05,-0.021484,0.057632,-0.0,-0.0,3.0,0.0,0.0,0.0,0.0,4.807281,-78.044011,35.542107,-0.049574,-2.214064,-21.887126,-0.002176,0.0,0.0,-5e-06,0.0,0.0
42811,-0.004884,7e-05,-0.021484,0.059538,-0.0,-0.0,3.0,0.0,0.0,0.0,0.0,4.807169,-78.484572,35.538988,-0.065779,-2.247637,-21.961173,-0.0022,0.0,0.0,-0.002068,0.0,0.0
42831,-0.004884,7e-05,-0.021484,0.060524,-0.0,-0.0,3.0,0.0,0.0,0.0,0.0,4.805462,-78.926593,35.535965,-0.070747,-2.175017,-22.035229,-0.002236,0.0,0.0,-0.001322,0.0,0.0
