time_ms,roll,pitch,yaw,roll_rate,pitch_rate,yaw_rate,reference_roll,reference_pitch,reference_yaw,reference_throttle,throttle_1,throttle_2,throttle_3,throttle_4,roll_predicted,pitch_predicted,yaw_predicted,roll_rate_predicted,pitch_rate_predicted,yaw_rate_predicted
107652,0.000858,-0.000482,-0.014406,-0.001064,0.0,-0.001064,-0.0,-0.0,-0.0,2.0,0.282024,0.348767,0.282024,0.174386,-0.0,-0.016049,-0.0,-0.0,-0.053554,-0.0
107672,0.000858,-0.000482,-0.014406,0.0,0.0,-0.001064,-0.0,-0.0,-0.0,2.0,0.282024,0.349861,0.282024,0.171067,-0.0,-0.018301,-0.0,-0.0,-0.061068,-0.0
107692,0.000858,-0.000482,-0.014406,0.0,-0.001064,-0.001064,0.001831,-0.0,-0.0,2.0,0.282024,0.349326,0.282024,0.172706,6e-06,-0.020869,-0.0,0.001128,-0.069635,0.0
107712,0.000858,-0.000482,-0.014406,0.0,0.0,0.0,0.005532,-0.0,-0.0,2.0,0.282024,0.347121,0.282024,0.179133,0.00011,-0.023796,-0.0,0.005734,-0.079405,0.0
107732,0.000858,-0.000482,-0.014406,0.0,0.0,0.0,0.007357,-0.0,-0.0,2.0,0.282024,0.347636,0.282024,0.177678,0.000408,-0.027135,-1e-06,0.01026,-0.090545,0.0
107752,0.00098,-0.000481,-0.014406,-0.001064,0.0,0.0,0.013545,-0.0,-0.0,2.0,0.282024,0.34466,0.282024,0.185761,0.000918,-0.030942,-3e-06,0.018022,-0.103248,1e-06
107772,0.000858,-0.000482,-0.014406,0.0,0.0,-0.001064,0.015577,-0.0,-0.0,2.0,0.282024,0.345021,0.282024,0.18482,0.001743,-0.035284,-8e-06,0.024659,-0.117733,3e-06
107792,0.000858,-0.000482,-0.014406,-0.001064,0.0,-0.001064,0.01918,-0.0,-0.0,2.0,0.282024,0.343819,0.282024,0.187912,0.002822,-0.040234,-1.9e-05,0.031057,-0.134249,4e-06
107812,0.000858,-0.000482,-0.014406,0.0,0.0,-0.001064,0.022773,-0.0,-0.0,2.0,0.282024,0.341469,0.282024,0.193665,0.00416,-0.045879,-3.7e-05,0.037653,-0.15308,7e-06
107832,0.000858,-0.000482,-0.014406,-0.001064,-0.001064,-0.001064,0.02473,-0.0,-0.0,2.0,0.282024,0.340703,0.282024,0.195464,0.005748,-0.052315,-6.7e-05,0.042837,-0.174552,1.1e-05
107852,0.000858,-0.000482,-0.014406,-0.001064,0.0,-0.001064,0.030176,-0.0,-0.0,2.0,0.282024,0.338841,0.282024,0.199697,0.007558,-0.059654,-0.000114,0.049915,-0.199033,1.6e-05
107872,0.000858,-0.000482,-0.014406,-0.001064,0.0,-0.001064,0.033569,-0.0,-0.0,2.0,0.282024,0.337564,0.282024,0.202494,0.009663,-0.068022,-0.000183,0.056827,-0.226945,2.2e-05
107892,0.000858,-0.000482,-0.014406,0.0,0.0,0.0,0.036909,-0.0,-0.0,2.0,0.282024,0.337412,0.282024,0.202821,0.012034,-0.077564,-0.000283,0.063003,-0.258765,3.1e-05
107912,0.000858,-0.000482,-0.014406,-0.001064,-0.001064,-0.001064,0.03943,-0.0,-0.0,2.0,0.282024,0.336423,0.282024,0.204927,0.013969,-0.085588,-0.000384,0.066966,-0.28552,3.8e-05
107932,0.000858,-0.000482,-0.014406,0.0,0.0,0.0,0.042587,-0.0,-0.0,2.0,0.282024,0.335062,0.282024,0.20775,0.017449,-0.100846,-0.000618,0.072725,-0.336387,5.4e-05
107952,0.000858,-0.000482,-0.014406,0.0,-0.001064,-0.001064,0.045866,-0.0,-0.0,2.0,0.282024,0.333704,0.282024,0.210487,0.020453,-0.114987,-0.00088,0.077445,-0.383512,6.9e-05
107972,0.000858,-0.000482,-0.014406,-0.001064,-0.001064,-0.001064,0.048991,-0.0,-0.0,2.0,0.282024,0.331198,0.282024,0.215353,0.023659,-0.131107,-0.001229,0.081935,-0.437215,8.8e-05
107992,0.000858,-0.000482,-0.014406,0.0,0.0,0.0,0.05048,-0.0,-0.0,2.0,0.282024,0.330343,0.282024,0.216959,0.027045,-0.149483,-0.001688,0.084726,-0.498401,0.000111
108012,0.000858,-0.000482,-0.014406,0.0,0.0,-0.001064,0.052539,-0.0,-0.0,2.0,0.282024,0.329393,0.282024,0.218717,0.029667,-0.164932,-0.002121,0.086333,-0.549813,0.00013
108032,0.000858,-0.000482,-0.014406,0.0,0.0,0.0,0.056943,-0.0,-0.0,2.0,0.282024,0.328641,0.282024,0.220087,0.034207,-0.194298,-0.003055,0.090326,-0.647454,0.000168
108052,0.00098,-0.000481,-0.014406,0.0,0.0,0.0,0.05968,-0.0,-0.0,2.0,0.282024,0.327348,0.282024,0.222399,0.038071,-0.221498,-0.004039,0.09365,-0.73778,0.000204
108072,0.000858,-0.000482,-0.014406,-0.001064,0.0,0.0,0.062315,-0.0,-0.0,2.0,0.282024,0.324909,0.282024,0.226625,0.041104,-0.244356,-0.00495,0.095689,-0.813593,0.000236
108092,0.000858,-0.000482,-0.014406,-0.001064,0.0,0.0,0.064182,-0.0,-0.0,2.0,0.282024,0.324878,0.282024,0.226679,0.046427,-0.287778,-0.006884,0.097307,-0.957335,0.000298
108112,0.000858,-0.000482,-0.014528,0.0,0.0,0.0,0.066335,-0.0,-0.0,2.0,0.282024,0.322584,0.282024,0.230502,0.049778,-0.317423,-0.00835,0.097729,-1.055235,0.00034
108132,0.000858,-0.000482,-0.014528,-0.001064,0.0,-0.001064,0.06871,-0.0,-0.0,2.0,0.282024,0.321128,0.282024,0.232859,0.055695,-0.373698,-0.011449,0.097575,-1.240463,0.000421
108152,0.000858,-0.000482,-0.014528,0.0,0.0,-0.001064,0.070923,-0.0,-0.0,2.0,0.282024,0.321054,0.282024,0.232977,0.060825,-0.425721,-0.01468,0.096738,-1.410885,0.000496
108172,0.00098,-0.000481,-0.014528,0.0,0.0,0.0,0.071982,-0.0,-0.0,2.0,0.282024,0.320167,0.282024,0.234386,0.066441,-0.484857,-0.018793,0.093931,-1.603511,0.000579
108192,0.00098,-0.000481,-0.014528,0.0,0.0,-0.001064,0.074476,-0.0,-0.0,2.0,0.282024,0.318897,0.282024,0.236371,0.071072,-0.534421,-0.022622,0.091444,-1.763949,0.000647
108212,0.00098,-0.000481,-0.014528,-0.001064,-0.001064,-0.001064,0.076354,-0.0,-0.0,2.0,0.282024,0.316263,0.282024,0.240374,0.080032,-0.6282,-0.030928,0.085196,-2.064638,0.00077
108232,0.00098,-0.000481,-0.014528,0.0,0.0,0.0,0.078067,-0.0,-0.0,2.0,0.282024,0.316455,0.282024,0.240086,0.086503,-0.691907,-0.037488,0.079656,-2.266502,0.000849
108252,0.00098,-0.000481,-0.014528,-0.001064,0.0,-0.001064,0.079637,-0.0,-0.0,2.0,0.282024,0.315279,0.282024,0.241831,0.097162,-0.786522,-0.048939,0.068999,-2.562256,0.000954
108272,0.00098,-0.000481,-0.014528,0.0,0.0,-0.001064,0.080748,-0.0,-0.0,2.0,0.282024,0.31424,0.282024,0.243349,0.111605,-0.893263,-0.065102,0.052849,-2.889448,0.001054
108292,0.00098,-0.000481,-0.014406,0.0,0.0,-0.001064,0.081942,-0.0,-0.0,2.0,0.282024,0.313158,0.282024,0.244906,0.133033,-1.013272,-0.089431,0.028016,-3.248198,0.001133
108312,0.00098,-0.000481,-0.014406,-0.001064,-0.001064,-0.001064,0.083158,-0.0,-0.0,2.0,0.282024,0.312054,0.282024,0.246473,0.169269,-1.147515,-0.130139,-0.0121,-3.637018,0.001161
108332,0.00098,-0.000481,-0.014406,-0.001064,0.0,-0.001064,0.084251,-0.0,-0.0,2.0,0.282024,0.310976,0.282024,0.247981,0.245279,-1.296311,-0.212919,-0.085137,-4.052157,0.00108
108352,0.00098,-0.000481,-0.014406,0.0,0.0,0.0,0.084715,-0.0,-0.0,2.0,0.282024,0.310102,0.282024,0.249187,0.499204,-1.456463,-0.477631,-0.253782,-4.48689,0.000504
108372,0.00098,-0.000481,-0.014528,0.0,0.0,0.0,0.085601,-0.0,-0.0,2.0,0.282024,0.307786,0.282024,0.252321,4.588437,-1.529236,-4.585977,-0.870423,-4.931027,-0.028313
108392,0.00098,-0.000481,-0.014528,0.0,0.0,-0.001064,0.086247,-0.0,-0.0,2.0,0.282024,0.308117,0.282024,0.251879,3.077958,-1.37078,-3.140956,-2.643656,-5.364878,-0.148101
108412,0.00098,-0.000481,-0.014528,0.0,0.0,-0.001064,0.086732,-0.0,-0.0,2.0,0.282024,0.305909,0.282024,0.254795,2.999351,-1.150424,-3.186416,-3.649359,-5.756584,-0.234608
108432,0.00098,-0.000481,-0.014528,-0.001064,0.0,0.0,0.087061,-0.0,-0.0,2.0,0.282024,0.305041,0.282024,0.255919,2.898626,-0.917014,-3.250844,-4.30731,-6.079791,-0.310102
108452,0.00098,-0.000481,-0.014528,0.0,0.0,0.0,0.087205,-0.0,-0.0,2.0,0.282024,0.305541,0.282024,0.255272,2.780789,-0.676384,-3.334545,-4.712594,-6.311936,-0.3782
108472,0.00098,-0.000481,-0.014528,0.0,0.0,-0.001064,0.08726,-0.0,-0.0,2.0,0.282024,0.304765,0.282024,0.256274,2.645654,-0.436555,-3.438676,-4.928611,-6.435895,-0.441112
108492,0.00098,-0.000481,-0.014528,0.0,0.0,-0.001064,0.087133,-0.0,-0.0,2.0,0.282024,0.304051,0.282024,0.257187,2.490097,-0.207477,-3.565952,-5.000251,-6.44307,-0.499992
108512,0.00098,-0.000481,-0.014528,0.0,0.0,0.0,0.086853,-0.0,-0.0,2.0,0.282024,0.303391,0.282024,0.258025,2.309494,-0.00068,-3.720038,-4.961419,-6.33586,-0.555169
108532,0.00098,-0.000481,-0.014528,0.0,0.0,-0.001064,0.086651,-0.0,-0.0,2.0,0.282024,0.302703,0.282024,0.258891,2.099939,0.171413,-3.903804,-4.838433,-6.127957,-0.606329
108552,0.000981,-0.000603,-0.014528,0.0,0.0,0.0,0.086188,-0.0,-0.0,2.0,0.282024,0.300779,0.282024,0.261275,1.861985,0.296992,-4.115932,-4.652137,-5.842136,-0.652759
108572,0.000981,-0.000603,-0.014528,0.0,0.0,-0.001064,0.085279,-0.0,-0.0,2.0,0.282024,0.300346,0.282024,0.261804,1.604796,0.36778,-4.346938,-4.420725,-5.506372,-0.693707
108592,0.000981,-0.000603,-0.014528,-0.001064,0.0,-0.001064,0.084422,-0.0,-0.0,2.0,0.282024,0.299901,0.282024,0.262346,1.346232,0.38259,-4.57905,-4.163152,-5.149533,-0.728786
108612,0.000981,-0.000603,-0.014528,0.0,0.0,-0.001064,0.083407,-0.0,-0.0,2.0,0.282024,0.29952,0.282024,0.262807,1.105475,0.348539,-4.79336,-3.900798,-4.797694,-0.758232
108632,0.000981,-0.000603,-0.014528,-0.001064,0.0,-0.001064,0.08257,-0.0,-0.0,2.0,0.282024,0.300422,0.282024,0.261711,0.894058,0.277846,-4.978517,-3.654356,-4.471716,-0.782769
108652,0.00098,-0.000481,-0.014528,-0.001064,0.0,-0.001064,0.081402,-0.0,-0.0,2.0,0.282024,0.300114,0.282024,0.262086,0.71385,0.182821,-5.132617,-3.438869,-4.186468,-0.803239
108672,0.00098,-0.000481,-0.014528,0.0,0.0,0.0,0.079972,-0.0,-0.0,2.0,0.282024,0.299912,0.282024,0.262332,0.560886,0.072798,-5.259372,-3.261399,-3.951409,-0.820312
108692,0.00098,-0.000481,-0.014528,0.0,0.0,0.0,0.078425,-0.0,-0.0,2.0,0.282024,0.299591,0.282024,0.26272,0.39932,-0.077202,-5.387395,-3.092503,-3.736037,-0.837469
108712,0.00098,-0.000481,-0.014528,0.0,0.0,0.0,0.077607,-0.0,-0.0,2.0,0.282024,0.299194,0.282024,0.263199,0.287426,-0.203763,-5.471135,-2.993562,-3.629364,-0.848031
108732,0.000981,-0.000603,-0.014528,0.0,0.0,-0.001064,0.076326,-0.0,-0.0,2.0,0.282024,0.299143,0.282024,0.26326,0.21085,-0.301856,-5.525306,-2.936098,-3.588111,-0.854144
108752,0.00098,-0.000481,-0.014528,-0.001064,0.0,0.0,0.073271,-0.0,-0.0,2.0,0.282024,0.299579,0.282024,0.262735,0.115811,-0.436962,-5.587767,-2.868917,-3.584538,-0.860421
108772,0.00098,-0.000481,-0.014528,0.0,0.0,0.0,0.071232,-0.0,-0.0,2.0,0.282024,0.299672,0.282024,0.262623,0.02672,-0.577632,-5.640045,-2.785608,-3.639463,-0.866433
108792,0.000858,-0.000482,-0.014528,0.0,0.0,0.0,0.069029,-0.0,-0.0,2.0,0.282024,0.299798,0.282024,0.262469,-0.058634,-0.724868,-5.682019,-2.69191,-3.75196,-0.872383
108812,0.000858,-0.000482,-0.014528,0.0,0.0,-0.001064,0.06767,-0.0,-0.0,2.0,0.282024,0.29968,0.282024,0.262612,-0.144143,-0.879784,-5.71151,-2.58814,-3.919454,-0.878331
108832,0.000858,-0.000482,-0.014528,0.0,0.0,-0.001064,0.065133,-0.0,-0.0,2.0,0.282024,0.300004,0.282024,0.262221,-0.237888,-1.043334,-5.721715,-2.468447,-4.137747,-0.884314
108852,0.000858,-0.000482,-0.014528,0.0,0.0,0.0,0.062554,-0.0,-0.0,2.0,0.282024,0.300364,0.282024,0.261782,-0.362085,-1.215747,-5.691236,-2.316022,-4.400863,-0.890325
108872,0.000858,-0.000482,-0.014528,0.0,-0.001064,-0.001064,0.059891,-0.0,-0.0,2.0,0.282024,0.300778,0.282024,0.261276,-0.61286,-1.393947,-5.523854,-2.076648,-4.701585,-0.896298
108892,0.000858,-0.000482,-0.014528,-0.001064,0.0,0.0,0.058469,-0.0,-0.0,2.0,0.282024,0.299427,0.282024,0.262919,-2.185054,-1.533952,-4.022765,-1.603569,-5.033749,-0.915812
108912,0.000858,-0.000482,-0.014528,0.0,-0.001064,-0.001064,0.056224,-0.0,-0.0,2.0,0.282024,0.299727,0.282024,0.262556,-3.343586,-1.35384,-2.905422,-0.035988,-5.415207,-1.014706
108932,0.000858,-0.000482,-0.014528,0.0,0.0,0.0,0.052202,-0.0,-0.0,2.0,0.282024,0.302022,0.282024,0.259741,-3.318222,-1.126695,-2.913438,1.127893,-5.869376,-1.099989
108952,0.000858,-0.000482,-0.014528,0.0,0.0,-0.001064,0.049204,-0.0,-0.0,2.0,0.282024,0.302644,0.282024,0.258964,-3.270307,-0.880608,-2.902248,1.872088,-6.353676,-1.167305
108972,0.000858,-0.000482,-0.01465,0.0,-0.001064,0.0,0.04613,-0.0,-0.0,2.0,0.282024,0.301997,0.282024,0.259772,-3.207003,-0.615797,-2.874667,2.327132,-6.821452,-1.223279
108992,0.000858,-0.000482,-0.01465,0.0,-0.001064,-0.001064,0.044106,-0.0,-0.0,2.0,0.282024,0.303643,0.282024,0.257706,-3.131127,-0.334956,-2.829866,2.578279,-7.229386,-1.272588
109012,0.000858,-0.000482,-0.01465,0.0,0.0,-0.001064,0.040194,-0.0,-0.0,2.0,0.282024,0.303345,0.282024,0.258084,-3.040261,-0.04335,-2.763788,2.68244,-7.542428,-1.3185
109032,0.000858,-0.000482,-0.01465,0.0,0.0,0.0,0.036832,-0.0,-0.0,2.0,0.282024,0.304199,0.282024,0.256999,-2.925396,0.250883,-2.66713,2.678479,-7.738725,-1.363127
109052,0.000858,-0.000482,-0.01465,0.0,-0.001064,-0.001064,0.03347,-0.0,-0.0,2.0,0.282024,0.30508,0.282024,0.255869,-2.766595,0.535492,-2.520436,2.590914,-7.813173,-1.407393
109072,0.000858,-0.000482,-0.014528,0.0,0.0,-0.001064,0.031766,-0.0,-0.0,2.0,0.282024,0.306701,0.282024,0.253758,-2.523384,0.790024,-2.283893,2.426534,-7.777223,-1.450645
109092,0.000858,-0.000482,-0.014528,0.0,0.0,-0.001064,0.028661,-0.0,-0.0,2.0,0.282024,0.307525,0.282024,0.252668,-2.127421,0.975064,-1.889169,2.163844,-7.653904,-1.489861
109112,0.000858,-0.000482,-0.014528,0.0,0.0,-0.001064,0.023988,-0.0,-0.0,2.0,0.282024,0.308922,0.282024,0.250796,-1.568471,1.023626,-1.323758,1.753859,-7.468953,-1.519685
109132,0.000857,-0.00036,-0.014528,0.0,0.0,-0.001064,0.020431,-0.0,-0.0,2.0,0.282024,0.309962,0.282024,0.249379,-1.084371,0.906378,-0.820224,1.210016,-7.246209,-1.538668
109152,0.000857,-0.00036,-0.014528,0.0,0.0,0.0,0.01684,-0.0,-0.0,2.0,0.282024,0.309763,0.282024,0.249652,-0.820136,0.694498,-0.518783,0.672416,-7.015232,-1.554571
109172,0.000857,-0.00036,-0.014528,-0.001064,0.0,-0.001064,0.014081,-0.0,-0.0,2.0,0.282024,0.311856,0.282024,0.246752,-0.696538,0.451522,-0.33834,0.243113,-6.811951,-1.574223
109192,0.000857,-0.00036,-0.014528,0.0,0.0,-0.001064,0.009568,-0.0,-0.0,2.0,0.282024,0.313294,0.282024,0.244711,-0.646614,0.200966,-0.210758,-0.063603,-6.668216,-1.599529
109212,0.000857,-0.00036,-0.014528,0.0,-0.001064,-0.001064,0.005913,-0.0,-0.0,2.0,0.282024,0.31447,0.282024,0.243015,-0.640838,-0.050306,-0.10257,-0.267229,-6.605958,-1.630344
109232,0.000857,-0.00036,-0.014528,0.0,0.0,0.0,0.00408,-0.0,-0.0,2.0,0.282024,0.315051,0.282024,0.242166,-0.669381,-0.300687,0.00626,-0.389693,-6.63683,-1.666278
109252,0.000857,-0.00036,-0.014528,0.0,0.0,-0.001064,0.000327,-0.0,-0.0,2.0,0.282024,0.315049,0.282024,0.242169,-0.735898,-0.549331,0.135013,-0.446549,-6.763428,-1.707207
109272,0.000857,-0.00036,-0.014528,0.0,0.0,0.0,-0.001988,-0.0,-0.0,2.0,0.282024,0.317082,0.282024,0.239145,-0.862083,-0.792546,0.314435,-0.440076,-6.980449,-1.753745
109292,0.000857,-0.00036,-0.014528,0.0,0.0,0.0,-0.0071,-0.0,-0.0,2.0,0.282024,0.318821,0.282024,0.236488,-1.10941,-1.016192,0.612102,-0.350503,-7.276499,-1.80793
109312,0.000857,-0.00036,-0.014528,-0.001064,0.0,-0.001064,-0.010763,-0.0,-0.0,2.0,0.282024,0.320108,0.282024,0.234479,-1.620935,-1.17129,1.1766,-0.11125,-7.63771,-1.875097
109332,0.000735,-0.000361,-0.014528,0.0,0.0,-0.001064,-0.014393,-0.0,-0.0,2.0,0.282024,0.320147,0.282024,0.234417,-2.373897,-1.140486,1.993659,0.395199,-8.056163,-1.964727
109352,0.000735,-0.000361,-0.014528,0.0,0.0,-0.001064,-0.017057,-0.0,-0.0,2.0,0.282024,0.32237,0.282024,0.230852,-2.800185,-0.909235,2.508211,1.077905,-8.527357,-2.073338
109372,0.000735,-0.000361,-0.014528,0.0,0.0,0.0,-0.021452,-0.0,-0.0,2.0,0.282024,0.32275,0.282024,0.23023,-2.932832,-0.597497,2.76485,1.64836,-9.01891,-2.183866
109392,0.000735,-0.000361,-0.014528,0.0,0.0,-0.001064,-0.023702,-0.0,-0.0,2.0,0.282024,0.32487,0.282024,0.226692,-2.942983,-0.254467,2.945216,2.004021,-9.472104,-2.290313
109412,0.000735,-0.000361,-0.014528,-0.001064,-0.001064,-0.001064,-0.027213,-0.0,-0.0,2.0,0.282024,0.326208,0.282024,0.224397,-2.880665,0.10105,3.121054,2.152589,-9.83029,-2.393263
109432,0.000735,-0.000361,-0.014528,0.0,0.0,-0.001064,-0.03067,-0.0,-0.0,2.0,0.282024,0.326359,0.282024,0.224133,-2.742007,0.45013,3.340713,2.124371,-10.057725,-2.494211
109452,0.000735,-0.000361,-0.014528,0.0,0.0,0.0,-0.034746,-0.0,-0.0,2.0,0.282024,0.327926,0.282024,0.221372,-2.476019,0.759323,3.674694,1.93891,-10.147401,-2.593189
109472,0.000735,-0.000361,-0.014528,0.0,0.0,0.0,-0.03647,-0.0,-0.0,2.0,0.282024,0.329938,0.282024,0.217712,-1.981745,0.953994,4.23468,1.577499,-10.115699,-2.686832
109492,0.000736,-0.000483,-0.014528,0.0,0.0,0.0,-0.040171,-0.0,-0.0,2.0,0.282024,0.331408,0.282024,0.214954,-1.342779,0.914081,4.947186,0.993594,-9.986082,-2.769164
109512,0.000736,-0.000483,-0.014528,0.0,0.0,-0.001064,-0.043422,-0.0,-0.0,2.0,0.282024,0.332756,0.282024,0.212356,-0.95614,0.659181,5.427839,0.294441,-9.786921,-2.844342
109532,0.000736,-0.000483,-0.014528,0.0,0.0,-0.001064,-0.046742,-0.0,-0.0,2.0,0.282024,0.334144,0.282024,0.209609,-0.81385,0.325933,5.69744,-0.313524,-9.569746,-2.924694
109552,0.000736,-0.000483,-0.014528,0.0,0.0,0.0,-0.049582,-0.0,-0.0,2.0,0.282024,0.334249,0.282024,0.209399,-0.79515,-0.023669,5.892209,-0.759164,-9.391694,-3.015289
109572,0.000736,-0.000483,-0.014528,0.0,0.0,0.0,-0.052607,-0.0,-0.0,2.0,0.282024,0.336728,0.282024,0.204281,-0.86011,-0.36929,6.083129,-1.048805,-9.290552,-3.116667
109592,0.000736,-0.000483,-0.014528,-0.001064,-0.001064,0.0,-0.055494,-0.0,-0.0,2.0,0.282024,0.33803,0.282024,0.201482,-1.023836,-0.696196,6.330821,-1.194344,-9.279109,-3.229045
109612,0.000736,-0.000483,-0.014528,-0.001064,-0.001064,0.0,-0.056887,-0.0,-0.0,2.0,0.282024,0.337753,0.282024,0.202085,-1.37239,-0.971176,6.743307,-1.176597,-9.351337,-3.354627
109632,0.000736,-0.000483,-0.014528,-0.001064,0.0,-0.001064,-0.058919,-0.0,-0.0,2.0,0.282024,0.338819,0.282024,0.199746,-2.05599,-1.093654,7.484905,-0.911854,-9.497867,-3.500211
109652,0.000736,-0.000483,-0.014528,0.0,0.0,-0.001064,-0.0631,-0.0,-0.0,2.0,0.282024,0.340554,0.282024,0.195809,-2.737915,-0.931404,8.233255,-0.481432,-9.719086,-3.662529
109672,0.000736,-0.000483,-0.014528,0.0,-0.001064,0.0,-0.065588,-0.0,-0.0,2.0,0.282024,0.342912,0.282024,0.190178,-3.024127,-0.594892,8.60279,-0.186435,-9.956838,-3.822947
109692,0.000736,-0.000483,-0.014528,0.0,0.0,-0.001064,-0.06796,-0.0,-0.0,2.0,0.282024,0.344124,0.282024,0.187138,-3.120516,-0.206217,8.809384,-0.029605,-10.121436,-3.981981
109712,0.000736,-0.000483,-0.014528,0.0,0.0,-0.001064,-0.069622,-0.0,-0.0,2.0,0.282024,0.344027,0.282024,0.187385,-3.130209,0.197535,8.977215,0.002842,-10.143685,-4.140376
109732,0.000736,-0.000483,-0.014528,0.0,0.0,0.0,-0.071712,-0.0,-0.0,2.0,0.282024,0.346282,0.282024,0.18145,-3.063623,0.596364,9.17027,-0.061505,-9.988594,-4.29881
109752,0.000736,-0.000483,-0.014528,0.0,0.0,0.0,-0.073813,-0.0,-0.0,2.0,0.282024,0.347443,0.282024,0.178225,-2.853143,0.962841,9.484517,-0.185772,-9.661625,-4.457763
109772,0.000736,-0.000483,-0.014528,-0.001064,0.0,0.0,-0.075712,-0.0,-0.0,2.0,0.282024,0.348555,0.282024,0.175014,-2.226947,1.216464,10.202427,-0.328641,-9.203132,-4.617442
109792,0.000736,-0.000483,-0.014528,-0.001064,0.0,0.0,-0.076615,-0.0,-0.0,2.0,0.282024,0.348291,0.282024,0.175787,-1.217412,1.128244,11.29394,-0.466978,-8.673919,-4.776939
109812,0.000736,-0.000483,-0.014528,0.0,0.0,0.0,-0.07787,-0.0,-0.0,2.0,0.282024,0.349229,0.282024,0.173002,-0.899506,0.796404,11.690651,-0.770465,-8.123248,-4.923306
109832,0.000736,-0.000483,-0.014528,-0.001064,-0.001064,-0.001064,-0.080258,-0.0,-0.0,2.0,0.282024,0.351587,0.282024,0.165519,-0.842469,0.440148,11.837369,-1.019834,-7.576358,-5.069291
109852,0.000736,-0.000483,-0.014528,0.0,0.0,0.0,-0.081631,-0.0,-0.0,2.0,0.282024,0.352574,0.282024,0.162148,-0.857572,0.090608,11.92712,-1.131642,-7.09557,-5.219882
109872,0.000736,-0.000483,-0.01465,0.0,0.0,0.0,-0.082862,-0.0,-0.0,2.0,0.282024,0.353525,0.282024,0.158736,-0.905966,-0.249737,12.005079,-1.122026,-6.734577,-5.37446
109892,0.000736,-0.000483,-0.01465,-0.001064,0.0,0.0,-0.083678,-0.0,-0.0,2.0,0.282024,0.354362,0.282024,0.155588,-0.983332,-0.582619,12.095838,-1.023016,-6.523861,-5.532025
109912,0.000736,-0.000483,-0.01465,0.0,0.0,-0.001064,-0.084696,-0.0,-0.0,2.0,0.282024,0.355261,0.282024,0.15203,-1.115273,-0.908336,12.237798,-0.859573,-6.47128,-5.692519
109932,0.000736,-0.000483,-0.01465,0.0,0.0,0.0,-0.085516,-0.0,-0.0,2.0,0.282024,0.356107,0.282024,0.15,-1.427616,-1.215054,12.562237,-0.690349,-6.563284,-5.853896
109952,0.000736,-0.000483,-0.01465,0.0,0.0,0.0,-0.08617,-0.0,-0.0,2.0,0.282024,0.356908,0.282024,0.15,-2.631913,-1.393657,13.778547,-0.557689,-6.754896,-6.014724
109972,0.000736,-0.000483,-0.01465,0.0,0.0,-0.001064,-0.086445,-0.0,-0.0,2.0,0.282024,0.357603,0.282024,0.15,-3.643697,-1.126486,14.794043,-0.462606,-6.986419,-6.175158
109992,0.000736,-0.000483,-0.01465,0.0,0.0,-0.001064,-0.086986,-0.0,-0.0,2.0,0.282024,0.358374,0.282024,0.15,-3.762832,-0.754831,14.913152,-0.418162,-7.183179,-6.335336
110012,0.000858,-0.000482,-0.01465,0.0,0.0,-0.001064,-0.087121,-0.0,-0.0,2.0,0.282024,0.359031,0.282024,0.15,-3.8037,-0.370256,14.954253,-0.425805,-7.269082,-6.495456
110032,0.000858,-0.000482,-0.01465,0.0,0.0,0.0,-0.087258,-0.0,-0.0,2.0,0.282024,0.359722,0.282024,0.15,-3.827035,0.020018,14.979825,-0.460811,-7.186572,-6.655669
110052,0.000858,-0.000482,-0.01465,0.0,0.0,-0.001064,-0.087232,-0.0,-0.0,2.0,0.282024,0.360333,0.282024,0.15,-3.841404,0.41006,15.006189,-0.488245,-6.913024,-6.815989
110072,0.000858,-0.000482,-0.01465,-0.001064,0.0,0.0,-0.087162,-0.0,-0.0,2.0,0.282024,0.359886,0.282024,0.15,-3.837583,0.794024,15.049276,-0.473497,-6.468795,-6.97627
110092,0.000858,-0.000482,-0.01465,-0.001064,0.0,0.0,-0.086641,-0.0,-0.0,2.0,0.282024,0.361398,0.282024,0.15,-3.766199,1.16572,15.15831,-0.392702,-5.913578,-7.13627
110112,0.000736,-0.000483,-0.01465,-0.001064,0.0,0.0,-0.086116,-0.0,-0.0,2.0,0.282024,0.360819,0.282024,0.15,-3.12697,1.501732,15.828489,-0.237953,-5.332495,-7.295759
110132,0.000736,-0.000483,-0.01465,0.0,0.0,-0.001064,-0.085796,-0.0,-0.0,2.0,0.282024,0.362341,0.282024,0.15,-0.942866,1.607332,18.026589,-0.942757,-4.768341,-7.388722
110152,0.000736,-0.000483,-0.01465,-0.001064,0.0,-0.001064,-0.085052,-0.0,-0.0,2.0,0.282024,0.361696,0.282024,0.15,-1.089733,1.262657,17.909283,-0.332225,-3.988524,-7.548981
110172,0.000736,-0.000483,-0.01465,0.0,-0.001064,-0.001064,-0.084463,-0.0,-0.0,2.0,0.282024,0.362127,0.282024,0.15,-1.101548,0.922609,17.899574,0.320044,-3.546242,-7.70753
110192,0.000736,-0.000483,-0.01465,0.0,0.0,0.0,-0.082831,-0.0,-0.0,2.0,0.282024,0.363295,0.282024,0.15,-1.095952,0.582287,17.877014,0.869443,-3.494048,-7.864768
110212,0.000858,-0.000482,-0.01465,0.0,0.0,0.0,-0.081609,-0.0,-0.0,2.0,0.282024,0.363565,0.282024,0.15,-1.06564,0.235029,17.853826,1.186657,-3.804713,-8.020976
110232,0.000858,-0.000482,-0.01465,0.0,0.0,0.0,-0.080935,-0.0,-0.0,2.0,0.282024,0.362915,0.282024,0.15,-1.019361,-0.125006,17.831343,1.189384,-4.377673,-8.17646
110252,0.000736,-0.000483,-0.01465,0.0,0.0,-0.001064,-0.079128,-0.0,-0.0,2.0,0.282024,0.362941,0.282024,0.15,-0.969683,-0.502328,17.808457,0.864452,-5.059722,-8.331839
110272,0.000858,-0.000482,-0.01465,0.0,0.0,0.0,-0.077981,-0.0,-0.0,2.0,0.282024,0.364238,0.282024,0.15,-0.926508,-0.898792,17.780912,0.275993,-5.675839,-8.488141
110292,0.000858,-0.000482,-0.01465,-0.001064,0.0,-0.001064,-0.076283,-0.0,-0.0,2.0,0.282024,0.364307,0.282024,0.15,-0.878827,-1.312239,17.72717,-0.442225,-6.065172,-8.646464
110312,0.000858,-0.000482,-0.01465,0.0,0.0,0.0,-0.074418,-0.0,-0.0,2.0,0.282024,0.364318,0.282024,0.15,-1.39453,-1.71928,18.2139,-1.115541,-6.118339,-8.807345
110332,0.000858,-0.000482,-0.01465,-0.001064,0.0,-0.001064,-0.072436,-0.0,-0.0,2.0,0.282024,0.364284,0.282024,0.15,-1.050459,-2.136851,17.809333,-1.552642,-5.812236,-8.970308
110352,0.000858,-0.000482,-0.01465,0.0,0.0,0.0,-0.071085,-0.0,-0.0,2.0,0.282024,0.364412,0.282024,0.15,-1.090596,-2.561678,17.777487,-1.617072,-5.22742,-9.133959
110372,0.000858,-0.000482,-0.01465,0.0,0.0,-0.001064,-0.06863,-0.0,-0.0,2.0,0.282024,0.364222,0.282024,0.15,-1.144314,-2.979522,17.761063,-1.268039,-4.530607,-9.296745
110392,0.000858,-0.000482,-0.01465,-0.001064,0.0,-0.001064,-0.066254,-0.0,-0.0,2.0,0.282024,0.364038,0.282024,0.15,-1.185375,-3.391226,17.75261,-0.59405,-3.924824,-9.457717
110412,0.000858,-0.000482,-0.01465,-0.001064,-0.001064,-0.001064,-0.063805,-0.0,-0.0,2.0,0.282024,0.363816,0.282024,0.15,-1.196512,-3.800714,17.753329,0.208,-3.575704,-9.616728
110432,0.000858,-0.000482,-0.01465,0.0,0.0,-0.001064,-0.062543,-0.0,-0.0,2.0,0.282024,0.36391,0.282024,0.15,-1.161727,-4.212621,17.773749,0.89258,-3.549326,-9.774067
110452,0.000858,-0.000482,-0.01465,0.0,0.0,-0.001064,-0.060551,-0.0,-0.0,2.0,0.282024,0.36379,0.282024,0.15,-0.968993,-4.629523,17.930536,1.247871,-3.788058,-9.930154
110472,0.000858,-0.000482,-0.01465,0.0,0.0,0.0,-0.056268,-0.0,-0.0,2.0,0.282024,0.363014,0.282024,0.15,-0.501498,-4.787357,18.355899,1.213703,-4.136119,-10.085596
110492,0.00098,-0.000481,-0.01465,0.0,0.0,0.0,-0.053385,-0.0,-0.0,2.0,0.282024,0.362599,0.282024,0.15,-1.18114,-5.199961,17.633062,0.85149,-4.411191,-10.241177
110512,0.00098,-0.000481,-0.01465,0.0,0.0,-0.001064,-0.050426,-0.0,-0.0,2.0,0.282024,0.361138,0.282024,0.15,-1.152221,-5.648795,17.637184,0.222095,-4.467521,-10.397879
110532,0.00098,-0.000481,-0.01465,0.0,0.0,0.0,-0.048202,-0.0,-0.0,2.0,0.282024,0.361908,0.282024,0.15,-1.157731,-6.102602,17.627179,-0.435573,-4.247826,-10.556301
110552,0.00098,-0.000481,-0.01465,-0.001064,0.0,0.0,-0.044747,-0.0,-0.0,2.0,0.282024,0.361275,0.282024,0.15,-1.182765,-6.557526,17.610591,-0.884317,-3.823272,-10.71615
110572,0.00098,-0.000481,-0.01465,0.0,0.0,0.0,-0.04154,-0.0,-0.0,2.0,0.282024,0.359642,0.282024,0.15,-1.209153,-7.012031,17.584469,-0.977202,-3.368973,-10.876528
110592,0.00098,-0.000481,-0.01465,-0.001064,0.0,0.0,-0.038261,-0.0,-0.0,2.0,0.282024,0.360054,0.282024,0.15,-1.201498,-7.467193,17.529631,-0.715696,-3.093184,-11.036598
110612,0.00098,-0.000481,-0.01465,0.0,0.0,-0.001064,-0.034921,-0.0,-0.0,2.0,0.282024,0.35938,0.282024,0.15,-0.335921,-7.920758,16.635916,-0.251756,-3.141641,-11.195937
110632,0.000858,-0.000482,-0.01465,-0.001064,0.0,0.0,-0.031624,-0.0,-0.0,2.0,0.282024,0.358658,0.282024,0.15,-1.312889,-8.326469,17.606801,0.155612,-3.514315,-11.354442
110652,0.000858,-0.000482,-0.01465,0.0,0.0,-0.001064,-0.029891,-0.0,-0.0,2.0,0.282024,0.358392,0.282024,0.15,-1.27593,-8.806152,17.572992,0.334909,-4.042022,-11.512245
110672,0.000858,-0.000482,-0.01465,0.0,0.0,0.0,-0.02605,-0.0,-0.0,2.0,0.282024,0.356453,0.282024,0.15,-1.253043,-9.298308,17.548385,0.22034,-4.45628,-11.669814
110692,0.000858,-0.000482,-0.014772,-0.001064,0.0,0.0,-0.022538,-0.0,-0.0,2.0,0.282024,0.355631,0.282024,0.150502,-1.249984,-9.800439,17.52477,-0.088357,-4.511927,-11.827862
110712,0.000858,-0.000482,-0.014772,0.0,0.0,-0.001064,-0.018308,-0.0,-0.0,2.0,0.282024,0.354575,0.282024,0.154765,-1.271045,-10.307052,17.500697,-0.373002,-4.120862,-11.986736
110732,0.000858,-0.000482,-0.014772,-0.001064,0.0,-0.001064,-0.015036,-0.0,-0.0,2.0,0.282024,0.35483,0.282024,0.153762,-1.311596,-10.813078,17.473333,-0.422057,-3.418356,-12.146023
110752,0.000858,-0.000482,-0.01465,-0.001064,-0.001064,-0.001064,-0.011369,-0.0,-0.0,2.0,0.282024,0.352808,0.282024,0.161322,-1.329263,-11.317067,17.468991,-0.163471,-2.710769,-12.305016
110772,0.000857,-0.00036,-0.01465,0.0,0.0,-0.001064,-0.007685,-0.0,-0.0,2.0,0.282024,0.352895,0.282024,0.161016,-1.355068,-11.821745,17.43973,0.275632,-2.323637,-12.463374
110792,0.000857,-0.00036,-0.01465,0.0,0.0,0.0,-0.005854,-0.0,-0.0,2.0,0.282024,0.352422,0.282024,0.162677,-1.348561,-12.330927,17.419859,0.625556,-2.4274,-12.621136
110812,0.000857,-0.00036,-0.01465,0.0,-0.001064,-0.001064,-0.003319,-0.0,-0.0,2.0,0.282024,0.351728,0.282024,0.165045,-1.322967,-12.848458,17.404615,0.629564,-2.936471,-12.778471
110832,0.000857,-0.00036,-0.01465,0.0,-0.001064,0.0,0.002297,-0.0,-0.0,2.0,0.282024,0.350108,0.282024,0.170297,-1.298873,-13.377366,17.39527,0.212484,-3.545749,-12.935888
110852,0.000979,-0.000359,-0.01465,0.0,0.0,-0.001064,0.005993,-0.0,-0.0,2.0,0.282024,0.349006,0.282024,0.173673,-1.306589,-13.917926,17.402304,-0.440648,-3.896732,-13.094303
110872,0.000979,-0.000359,-0.014772,-0.001064,0.0,0.0,0.009685,-0.0,-0.0,2.0,0.282024,0.347909,0.282024,0.176893,-1.24136,-14.463044,17.313213,-0.961888,-3.788354,-13.254161
110892,0.000979,-0.000359,-0.014772,0.0,0.0,-0.001064,0.012377,-0.0,-0.0,2.0,0.282024,0.347044,0.282024,0.179349,-1.31689,-15.014774,17.351379,-1.009297,-3.307634,-13.41469
110912,0.000979,-0.000359,-0.014772,0.0,0.0,0.0,0.015424,-0.0,-0.0,2.0,0.282024,0.346049,0.282024,0.182083,-1.354647,-15.567842,17.358908,-0.496682,-2.787859,-13.574605
110932,0.000979,-0.000359,-0.014772,0.0,0.0,-0.001064,0.019065,-0.0,-0.0,2.0,0.282024,0.34485,0.282024,0.185267,-1.361839,-16.123561,17.368272,0.303592,-2.585896,-13.733275
110952,0.000979,-0.000359,-0.014772,-0.001064,-0.001064,0.0,0.022629,-0.0,-0.0,2.0,0.282024,0.34364,0.282024,0.188363,-1.326299,-16.685056,17.389412,0.903911,-2.818253,-13.890738
110972,0.000979,-0.000359,-0.014772,0.0,-0.001064,-0.001064,0.024399,-0.0,-0.0,2.0,0.282024,0.341826,0.282024,0.192815,-1.13452,-17.254011,17.549496,0.91618,-3.254707,-14.047394
110992,0.000979,-0.000359,-0.014772,0.0,0.0,0.0,0.027679,-0.0,-0.0,2.0,0.282024,0.341771,0.282024,0.192946,-1.327021,-17.705348,17.317318,0.377261,-3.476919,-14.204268
111012,0.000857,-0.00036,-0.014772,0.0,0.0,0.0,0.032219,-0.0,-0.0,2.0,0.282024,0.340147,0.282024,0.196749,-1.330309,-18.292008,17.307985,-0.363023,-3.210942,-14.362414
111032,0.000979,-0.000359,-0.014772,0.0,0.0,0.0,0.035635,-0.0,-0.0,2.0,0.282024,0.338897,0.282024,0.199572,-1.358104,-18.880903,17.290863,-0.785271,-2.553119,-14.521733
111052,0.000857,-0.00036,-0.014772,-0.001064,0.0,-0.001064,0.038951,-0.0,-0.0,2.0,0.282024,0.337572,0.282024,0.202477,-1.380869,-19.470832,17.262578,-0.591245,-1.964212,-14.681112
111072,0.000857,-0.00036,-0.014772,0.0,0.0,-0.001064,0.041133,-0.0,-0.0,2.0,0.282024,0.335458,0.282024,0.206935,-1.346316,-20.064008,17.198445,0.034147,-1.947801,-14.839874
111092,0.000857,-0.00036,-0.014772,0.0,0.0,0.0,0.045191,-0.0,-0.0,2.0,0.282024,0.335029,0.282024,0.207816,-1.80371,-20.622954,17.665209,0.533806,-2.624095,-14.997878
111112,0.000858,-0.000482,-0.014772,0.0,0.0,-0.001064,0.048354,-0.0,-0.0,2.0,0.282024,0.333695,0.282024,0.210507,-1.400586,-21.222636,17.268117,0.423566,-3.542789,-15.155266
111132,0.000858,-0.000482,-0.014772,0.0,0.0,0.0,0.05136,-0.0,-0.0,2.0,0.282024,0.332378,0.282024,0.213091,-1.37032,-21.848589,17.225788,-0.226893,-3.961514,-15.313173
111152,0.000858,-0.000482,-0.014772,0.0,-0.001064,0.0,0.052827,-0.0,-0.0,2.0,0.282024,0.331519,0.282024,0.214743,-1.392428,-22.481667,17.194044,-0.824297,-3.450367,-15.472601
111172,0.000858,-0.000482,-0.014772,0.0,0.0,-0.001064,0.05468,-0.0,-0.0,2.0,0.282024,0.330522,0.282024,0.216625,-1.445914,-23.114544,17.164625,-0.721452,-2.322223,-15.632476
111192,0.000858,-0.000482,-0.014772,0.0,0.0,0.0,0.058603,-0.0,-0.0,2.0,0.282024,0.328844,0.282024,0.219718,-1.302434,-23.746919,17.324176,0.150013,-1.462487,-15.791355
111212,0.000858,-0.000482,-0.014772,0.0,0.0,-0.001064,0.061286,-0.0,-0.0,2.0,0.282024,0.327523,0.282024,0.222088,-1.455134,-24.380893,17.144486,1.093468,-1.600101,-15.949248
111232,0.000858,-0.000482,-0.014772,0.0,0.0,-0.001064,0.063844,-0.0,-0.0,2.0,0.282024,0.325019,0.282024,0.226439,-1.410854,-25.02596,17.136557,1.179956,-2.614552,-16.106191
111252,0.000858,-0.000482,-0.014772,0.0,0.0,-0.001064,0.065424,-0.0,-0.0,2.0,0.282024,0.325196,0.282024,0.226138,-1.377977,-25.68378,17.142614,0.141463,-3.551454,-16.26305
111272,0.000858,-0.000482,-0.014772,0.0,0.0,-0.001064,0.067924,-0.0,-0.0,2.0,0.282024,0.32386,0.282024,0.228393,-1.420058,-26.352135,17.177079,-1.22204,-3.457786,-16.422241
111292,0.000858,-0.000482,-0.014772,0.0,0.0,0.0,0.070185,-0.0,-0.0,2.0,0.282024,0.321361,0.282024,0.232486,-2.027891,-26.830019,17.716065,-1.648415,-2.345335,-16.583264
111312,0.000858,-0.000482,-0.014772,0.0,-0.001064,0.0,0.072303,-0.0,-0.0,2.0,0.282024,0.321311,0.282024,0.232566,-1.462748,-27.468966,17.097317,-0.642532,-1.314623,-16.743189
111332,0.000858,-0.000482,-0.014772,0.0,-0.001064,0.0,0.074748,-0.0,-0.0,2.0,0.282024,0.319914,0.282024,0.234785,-1.473274,-28.142854,17.115102,1.026804,-1.540769,-16.901534
111352,0.000858,-0.000482,-0.014772,0.0,0.0,0.0,0.076557,-0.0,-0.0,2.0,0.282024,0.318701,0.282024,0.236674,-1.418031,-28.826281,17.112473,1.705149,-2.998973,-17.058128
111372,0.000858,-0.000482,-0.014772,-0.001064,0.0,0.0,0.07762,-0.0,-0.0,2.0,0.282024,0.317718,0.282024,0.238181,-1.391458,-29.525197,17.074146,0.574069,-4.198462,-17.213597
111392,0.000858,-0.000482,-0.014772,0.0,0.0,-0.001064,0.079222,-0.0,-0.0,2.0,0.282024,0.315294,0.282024,0.241808,-1.152684,-30.175815,17.303116,-1.278325,-3.59836,-17.372275
111412,0.000858,-0.000482,-0.014772,0.0,0.0,0.0,0.0807,-0.0,-0.0,2.0,0.282024,0.315385,0.282024,0.241675,-1.399192,-30.876015,17.097453,-1.779032,-1.440421,-17.53328
111432,0.000858,-0.000482,-0.014772,0.0,-0.001064,-0.001064,0.081511,-0.0,-0.0,2.0,0.282024,0.313181,0.282024,0.244873,-1.470603,-31.577336,17.025642,-0.148744,0.121487,-17.692285
111452,0.000858,-0.000482,-0.014772,0.0,0.0,0.0,0.083354,-0.0,-0.0,2.0,0.282024,0.313169,0.282024,0.24489,-1.404136,-32.28308,16.936631,1.954975,-0.858316,-17.850553
111472,0.000979,-0.000359,-0.014772,0.0,-0.001064,-0.001064,0.083883,-0.0,-0.0,2.0,0.282024,0.312247,0.282024,0.2462,-0.960402,-32.995486,16.558242,1.926171,-3.712861,-18.006436
111492,0.000979,-0.000359,-0.014772,-0.001064,0.0,-0.001064,0.084828,-0.0,-0.0,2.0,0.282024,0.311256,0.282024,0.24759,-7.564176,-33.495401,23.179615,-0.777784,-5.345911,-18.162192
111512,0.00098,-0.000481,-0.014772,-0.001064,0.0,-0.001064,0.085779,-0.0,-0.0,2.0,0.282024,0.31021,0.282024,0.249039,-7.643003,-34.250596,23.185121,-3.24624,-3.487129,-18.325806
111532,0.000858,-0.000482,-0.014772,-0.001064,0.0,-0.001064,0.08631,-0.0,-0.0,2.0,0.282024,0.30801,0.282024,0.252022,-7.767355,-34.991063,23.220822,-2.111758,0.156748,-18.488145
111552,0.000858,-0.000482,-0.014772,0.0,0.0,0.0,0.086784,-0.0,-0.0,2.0,0.282024,0.308352,0.282024,0.251563,-7.692354,-35.727141,23.364365,2.045551,1.181353,-18.646454
111572,0.000858,-0.000482,-0.014772,0.0,0.0,-0.001064,0.087094,-0.0,-0.0,2.0,0.282024,0.307499,0.282024,0.252703,-5.025488,-36.05932,25.9148,4.470562,-2.26562,-18.804703
111592,0.00098,-0.000481,-0.014772,0.0,0.0,0.0,0.087191,-0.0,-0.0,2.0,0.282024,0.306715,0.282024,0.253739,-4.336274,-35.352819,26.427614,1.582757,-6.37451,-18.954532
111612,0.00098,-0.000481,-0.014772,0.0,0.0,-0.001064,0.087266,-0.0,-0.0,2.0,0.282024,0.305979,0.282024,0.254703,-4.379701,-34.549039,26.386823,-4.006016,-5.480051,-19.115061
111632,0.00098,-0.000481,-0.014772,0.0,-0.001064,-0.001064,0.087149,-0.0,-0.0,2.0,0.282024,0.305265,0.282024,0.25563,-4.55138,-33.770726,26.30809,-5.184887,0.466951,-19.283001
111652,0.000858,-0.000482,-0.014772,0.0,0.0,0.0,0.086881,-0.0,-0.0,2.0,0.282024,0.304561,0.282024,0.256536,-4.013223,-33.033118,25.582058,0.729067,4.194208,-19.437734
111672,0.00098,-0.000481,-0.014772,0.0,0.0,-0.001064,0.086455,-0.0,-0.0,2.0,0.282024,0.303998,0.282024,0.257255,14.121845,-32.664236,7.560973,5.405649,-0.440546,-19.601197
111692,0.00098,-0.000481,-0.014772,0.0,0.0,-0.001064,0.086045,-0.0,-0.0,2.0,0.282024,0.30339,0.282024,0.258026,14.325312,-31.868907,7.48129,-0.991896,-5.091191,-19.75539
111712,0.00098,-0.000481,-0.014772,-0.001064,-0.001064,0.0,0.085388,-0.0,-0.0,2.0,0.282024,0.301548,0.282024,0.260328,14.175968,-31.059728,7.445764,-7.628483,-0.200321,-19.917898
111732,0.00098,-0.000481,-0.014772,0.0,0.0,0.0,0.084537,-0.0,-0.0,2.0,0.282024,0.30243,0.282024,0.259233,13.985769,-30.248631,7.575585,-3.733918,8.974242,-20.017788
111752,0.00098,-0.000481,-0.014772,0.0,-0.001064,-0.001064,0.083552,-0.0,-0.0,2.0,0.282024,0.302041,0.282024,0.259717,1.051792,-29.467163,-5.346644,7.968471,9.25193,-20.175606
111772,0.00098,-0.000481,-0.014772,0.0,0.0,-0.001064,0.083003,-0.0,-0.0,2.0,0.282024,0.301504,0.282024,0.260383,1.627785,-28.627752,-5.207052,13.399393,-5.382312,-20.287597
111792,0.00098,-0.000481,-0.014772,0.0,0.0,0.0,0.081843,-0.0,-0.0,2.0,0.282024,0.301191,0.282024,0.260769,1.975135,-27.723365,-4.980537,-1.849264,-16.500542,-20.270271
111812,0.00098,-0.000481,-0.014772,0.0,0.0,0.0,0.080026,-0.0,-0.0,2.0,0.282024,0.301126,0.282024,0.260849,0.93637,-26.806499,-4.160149,-16.652029,-6.035856,-20.493165
111832,0.00098,-0.000481,-0.014772,-0.001064,-0.001064,-0.001064,0.078482,-0.0,-0.0,2.0,0.282024,0.300978,0.282024,0.26103,4.220252,-27.206363,-8.071464,-8.9254,14.120776,-20.637519
111852,0.00098,-0.000481,-0.014772,0.0,-0.001064,-0.001064,0.076807,-0.0,-0.0,2.0,0.282024,0.299555,0.282024,0.262764,4.155642,-28.261603,-7.974812,15.306263,13.565393,-20.777059
111872,0.00098,-0.000481,-0.014772,0.0,0.0,-0.001064,0.075469,-0.0,-0.0,2.0,0.282024,0.300698,0.282024,0.261374,4.85915,-29.152081,-8.057844,17.304124,-11.014738,-20.947554
111892,0.00098,-0.000481,-0.014772,-0.001064,0.0,-0.001064,0.073539,-0.0,-0.0,2.0,0.282024,0.299394,0.282024,0.262959,65.0967,-29.89919,51.769578,-9.267959,-21.645681,-20.987256
111912,0.00098,-0.000481,-0.014772,0.0,0.0,0.0,0.071412,-0.0,-0.0,2.0,0.282024,0.299516,0.282024,0.262812,64.432413,-28.923377,51.881664,-28.579109,4.170844,-21.284205
111932,0.00098,-0.000481,-0.014772,0.0,0.0,-0.001064,0.069231,-0.0,-0.0,2.0,0.282024,0.301013,0.282024,0.260988,63.442454,-27.797552,51.622691,-3.922014,34.864398,-21.235098
111952,0.00098,-0.000481,-0.014772,0.0,0.0,0.0,0.0681,-0.0,-0.0,2.0,0.282024,0.300812,0.282024,0.261234,63.16477,-26.254039,52.384882,36.21223,17.438554,-21.618836
111972,0.00098,-0.000481,-0.014772,0.0,-0.001064,-0.001064,0.065406,-0.0,-0.0,2.0,0.282024,0.301188,0.282024,0.260773,65.214438,-25.308227,51.656695,24.799784,-34.489917,-21.733248
111992,0.00098,-0.000481,-0.014772,-0.001064,0.0,-0.001064,0.062904,-0.0,-0.0,2.0,0.282024,0.301517,0.282024,0.260367,65.393516,-23.41135,51.64059,-36.70628,-37.813178,-21.867402
112012,0.00098,-0.000481,-0.014772,0.0,0.0,0.0,0.060276,-0.0,-0.0,2.0,0.282024,0.300583,0.282024,0.261514,63.551305,-22.157964,51.774469,-52.308913,32.785459,-22.372415
112032,0.00098,-0.000481,-0.014772,-0.001064,0.0,0.0,0.057485,-0.0,-0.0,2.0,0.282024,0.302392,0.282024,0.25928,59.068363,-20.286528,55.429033,26.725987,70.890125,-21.814779
112052,0.000858,-0.000482,-0.014772,-0.001064,0.0,0.0,0.055787,-0.0,-0.0,2.0,0.282024,0.301173,0.282024,0.26079,55.28105,-21.741599,61.619646,85.036793,-10.237037,-23.384009
112072,0.00098,-0.000481,-0.014772,-0.001064,-0.001064,-0.001064,0.052696,-0.0,-0.0,2.0,0.282024,0.303124,0.282024,0.258362,59.650301,-23.176139,64.02361,-4.457698,-101.24342,-21.943796
112092,0.00098,-0.000481,-0.014772,-0.001064,0.0,-0.001064,0.049642,-0.0,-0.0,2.0,0.282024,0.30376,0.282024,0.257557,41.704979,-20.594098,79.405985,-122.404172,-20.526421,-24.596989
112112,0.00098,-0.000481,-0.014772,0.0,-0.001064,0.0,0.046572,-0.0,-0.0,2.0,0.282024,0.303069,0.282024,0.258432,40.219276,-22.083674,75.914477,-31.055025,147.925244,-22.008222
112132,0.00098,-0.000481,-0.014772,0.0,0.0,0.0,0.042669,-0.0,-0.0,2.0,0.282024,0.304105,0.282024,0.257119,34.594513,-22.155891,67.056947,165.627002,80.362965,-25.932821
112152,0.00098,-0.000481,-0.014772,0.0,-0.001064,0.0,0.0397,-0.0,-0.0,2.0,0.282024,0.306101,0.282024,0.254543,66.621794,-23.566826,92.138489,76.961486,-217.749804,-22.99617
112172,0.00098,-0.000481,-0.014772,0.0,0.0,0.0,0.036365,-0.0,-0.0,2.0,0.282024,0.306941,0.282024,0.253441,367.275412,-19.503037,397.579631,-242.540817,-151.783543,-29.306556
112192,0.00098,-0.000481,-0.014894,0.0,0.0,0.0,0.034673,-0.0,-0.0,2.0,0.282024,0.305931,0.282024,0.254766,355.754137,-16.363877,397.782822,-70.083901,420.249671,-20.318763
112212,0.00098,-0.000481,-0.014894,0.0,0.0,0.0,0.031284,-0.0,-0.0,2.0,0.282024,0.308127,0.282024,0.251865,314.439149,-25.067794,343.407851,483.766539,212.968952,-48.533556
112232,0.00098,-0.000481,-0.014894,0.0,0.0,0.0,0.028741,-0.0,-0.0,2.0,0.282024,0.308756,0.282024,0.25102,319.837894,-6.675631,335.668298,-144.856329,-1140.077397,-29.919007
112252,0.00098,-0.000481,-0.014894,0.0,0.0,-0.001064,0.024752,-0.0,-0.0,2.0,0.282024,0.309907,0.282024,0.249454,326.43947,-26.742621,431.851275,13040.033047,15681.551205,1186.697241
112272,0.00098,-0.000481,-0.014894,0.0,0.0,-0.001064,0.021149,-0.0,-0.0,2.0,0.282024,0.310954,0.282024,0.248012,-241190850988.74414,203215815718.23636,30206028361.79037,7.398507378623722e+23,8.040981338057884e+23,6.711358474308613e+22
112292,0.00098,-0.000481,-0.014894,0.0,0.0,-0.001064,0.017563,-0.0,-0.0,2.0,0.282024,0.311981,0.282024,0.246576,,,,,,
112312,0.00098,-0.000481,-0.014894,0.0,0.0,0.0,0.013083,-0.0,-0.0,2.0,0.282024,0.312125,0.282024,0.246373,,,,,,
112332,0.00098,-0.000481,-0.014894,-0.001064,-0.001064,-0.001064,0.01055,-0.0,-0.0,2.0,0.282024,0.314157,0.282024,0.243469,,,,,,
112352,0.00098,-0.000481,-0.014894,0.0,-0.001064,-0.001064,0.006609,-0.0,-0.0,2.0,0.282024,0.315426,0.282024,0.241615,,,,,,
112372,0.00098,-0.000481,-0.014894,0.0,0.0,-0.001064,0.002875,-0.0,-0.0,2.0,0.282024,0.31665,0.282024,0.239794,,,,,,
112392,0.000981,-0.000603,-0.014894,0.0,0.0,0.0,-0.000818,-0.0,-0.0,2.0,0.282024,0.317886,0.282024,0.237925,,,,,,
112412,0.000981,-0.000603,-0.014894,-0.001064,0.0,-0.001064,-0.003449,-0.0,-0.0,2.0,0.282024,0.318788,0.282024,0.23654,,,,,,
112432,0.000981,-0.000603,-0.014894,0.0,0.0,-0.001064,-0.006428,-0.0,-0.0,2.0,0.282024,0.319825,0.282024,0.234925,,,,,,
112452,0.000981,-0.000603,-0.014894,0.0,0.0,-0.001064,-0.01012,-0.0,-0.0,2.0,0.282024,0.321119,0.282024,0.232874,,,,,,
112472,0.000981,-0.000603,-0.014894,0.0,0.0,-0.001064,-0.013801,-0.0,-0.0,2.0,0.282024,0.322432,0.282024,0.23075,,,,,,
112492,0.000981,-0.000603,-0.014772,-0.001064,0.0,-0.001064,-0.015614,-0.0,-0.0,2.0,0.282024,0.323152,0.282024,0.229569,,,,,,
112512,0.000981,-0.000603,-0.014894,0.0,0.0,0.0,-0.020889,-0.0,-0.0,2.0,0.282024,0.325022,0.282024,0.226435,,,,,,
112532,0.000981,-0.000603,-0.014894,0.0,0.0,-0.001064,-0.024655,-0.0,-0.0,2.0,0.282024,0.326428,0.282024,0.224015,,,,,,
112552,0.000981,-0.000603,-0.014894,0.0,-0.001064,-0.001064,-0.028154,-0.0,-0.0,2.0,0.282024,0.327769,0.282024,0.221652,,,,,,
112572,0.000981,-0.000603,-0.014894,-0.001064,0.0,0.0,-0.031622,-0.0,-0.0,2.0,0.282024,0.32912,0.282024,0.219215,,,,,,
112592,0.000981,-0.000603,-0.014894,0.0,0.0,-0.001064,-0.033485,-0.0,-0.0,2.0,0.282024,0.329977,0.282024,0.21764,,,,,,
112612,0.00098,-0.000481,-0.014772,0.0,-0.001064,-0.001064,-0.037773,-0.0,-0.0,2.0,0.282024,0.330451,0.282024,0.216759,,,,,,
112632,0.00098,-0.000481,-0.014772,0.0,0.0,-0.001064,-0.041078,-0.0,-0.0,2.0,0.282024,0.332973,0.282024,0.211932,,,,,,
112652,0.000858,-0.000482,-0.014772,0.0,0.0,-0.001064,-0.042696,-0.0,-0.0,2.0,0.282024,0.333774,0.282024,0.210348,,,,,,
112672,0.000858,-0.000482,-0.014772,0.0,0.0,-0.001064,-0.045859,-0.0,-0.0,2.0,0.282024,0.335109,0.282024,0.207654,,,,,,
112692,0.000858,-0.000482,-0.014772,0.0,-0.001064,0.0,-0.049551,-0.0,-0.0,2.0,0.282024,0.33548,0.282024,0.206891,,,,,,
112712,0.000858,-0.000482,-0.014772,0.0,0.0,-0.001064,-0.052807,-0.0,-0.0,2.0,0.282024,0.338026,0.282024,0.201492,,,,,,
112732,0.000858,-0.000482,-0.014772,0.0,0.0,-0.001064,-0.054272,-0.0,-0.0,2.0,0.282024,0.338889,0.282024,0.19959,,,,,,
112752,0.000858,-0.000482,-0.014772,-0.001064,0.0,-0.001064,-0.057095,-0.0,-0.0,2.0,0.282024,0.340217,0.282024,0.196588,,,,,,
112772,0.00098,-0.000481,-0.014772,0.0,0.0,0.0,-0.060275,-0.0,-0.0,2.0,0.282024,0.341632,0.282024,0.193279,,,,,,
112792,0.00098,-0.000481,-0.014772,0.0,0.0,0.0,-0.063215,-0.0,-0.0,2.0,0.282024,0.34299,0.282024,0.189985,,,,,,
112812,0.00098,-0.000481,-0.014772,0.0,0.0,0.0,-0.064498,-0.0,-0.0,2.0,0.282024,0.342746,0.282024,0.190585,,,,,,
112832,0.00098,-0.000481,-0.014894,0.0,0.0,0.0,-0.066944,-0.0,-0.0,2.0,0.282024,0.345088,0.282024,0.184644,,,,,,
112852,0.00098,-0.000481,-0.014894,0.0,-0.001064,0.0,-0.069243,-0.0,-0.0,2.0,0.282024,0.346284,0.282024,0.181445,,,,,,
112872,0.00098,-0.000481,-0.014894,0.0,0.0,0.0,-0.071756,-0.0,-0.0,2.0,0.282024,0.347556,0.282024,0.177904,,,,,,
112892,0.00098,-0.000481,-0.014894,0.0,0.0,-0.001064,-0.073368,-0.0,-0.0,2.0,0.282024,0.348572,0.282024,0.174964,,,,,,
112912,0.00098,-0.000481,-0.014894,0.0,0.0,-0.001064,-0.075301,-0.0,-0.0,2.0,0.282024,0.34969,0.282024,0.171594,,,,,,
112932,0.00098,-0.000481,-0.014894,0.0,0.0,0.0,-0.077077,-0.0,-0.0,2.0,0.282024,0.349688,0.282024,0.171601,,,,,,
112952,0.00098,-0.000481,-0.014894,0.0,0.0,-0.001064,-0.078067,-0.0,-0.0,2.0,0.282024,0.35163,0.282024,0.165374,,,,,,
112972,0.00098,-0.000481,-0.014894,0.0,-0.001064,0.0,-0.080385,-0.0,-0.0,2.0,0.282024,0.351807,0.282024,0.164779,,,,,,
112992,0.00098,-0.000481,-0.014894,0.0,0.0,-0.001064,-0.081068,-0.0,-0.0,2.0,0.282024,0.352596,0.282024,0.16207,,,,,,
113012,0.00098,-0.000481,-0.014894,0.0,0.0,0.0,-0.082362,-0.0,-0.0,2.0,0.282024,0.353566,0.282024,0.158587,,,,,,
113032,0.00098,-0.000481,-0.014894,0.0,-0.001064,0.0,-0.083506,-0.0,-0.0,2.0,0.282024,0.355563,0.282024,0.150787,,,,,,
113052,0.00098,-0.000481,-0.014894,0.0,0.0,0.0,-0.084716,-0.0,-0.0,2.0,0.282024,0.356515,0.282024,0.15,,,,,,
113072,0.00098,-0.000481,-0.014894,0.0,-0.001064,0.0,-0.085194,-0.0,-0.0,2.0,0.282024,0.357262,0.282024,0.15,,,,,,
113092,0.00098,-0.000481,-0.014894,-0.001064,0.0,0.0,-0.085929,-0.0,-0.0,2.0,0.282024,0.358083,0.282024,0.15,,,,,,
113112,0.00098,-0.000481,-0.014894,-0.001064,-0.001064,-0.001064,-0.086493,-0.0,-0.0,2.0,0.282024,0.357807,0.282024,0.15,,,,,,
113132,0.000858,-0.000482,-0.014894,0.0,0.0,-0.001064,-0.086932,-0.0,-0.0,2.0,0.282024,0.358517,0.282024,0.15,,,,,,
113152,0.000858,-0.000482,-0.014894,0.0,0.0,0.0,-0.087177,-0.0,-0.0,2.0,0.282024,0.360286,0.282024,0.15,,,,,,
113172,0.000858,-0.000482,-0.014894,0.0,-0.001064,-0.001064,-0.087251,-0.0,-0.0,2.0,0.282024,0.360889,0.282024,0.15,,,,,,
113192,0.000858,-0.000482,-0.014894,0.0,0.0,0.0,-0.087243,-0.0,-0.0,2.0,0.282024,0.361503,0.282024,0.15,,,,,,
113212,0.000858,-0.000482,-0.014894,0.0,0.0,-0.001064,-0.087078,-0.0,-0.0,2.0,0.282024,0.36207,0.282024,0.15,,,,,,
113232,0.000858,-0.000482,-0.014894,0.0,0.0,-0.001064,-0.086729,-0.0,-0.0,2.0,0.282024,0.362583,0.282024,0.15,,,,,,
113252,0.000858,-0.000482,-0.014894,0.0,0.0,0.0,-0.086206,-0.0,-0.0,2.0,0.282024,0.362007,0.282024,0.15,,,,,,
113272,0.000858,-0.000482,-0.014894,0.0,0.0,-0.001064,-0.085557,-0.0,-0.0,2.0,0.282024,0.362429,0.282024,0.15,,,,,,
113292,0.000858,-0.000482,-0.014894,-0.001064,0.0,-0.001064,-0.085179,-0.0,-0.0,2.0,0.282024,0.363955,0.282024,0.15,,,,,,
113312,0.000858,-0.000482,-0.014894,0.0,-0.001064,0.0,-0.084075,-0.0,-0.0,2.0,0.282024,0.364239,0.282024,0.15,,,,,,
113332,0.000858,-0.000482,-0.014894,0.0,0.0,-0.001064,-0.083359,-0.0,-0.0,2.0,0.282024,0.364624,0.282024,0.15,,,,,,
113352,0.000858,-0.000482,-0.014894,0.0,0.0,0.0,-0.082048,-0.0,-0.0,2.0,0.282024,0.363807,0.282024,0.15,,,,,,
113372,0.000859,-0.000604,-0.014894,-0.001064,0.0,-0.001064,-0.080679,-0.0,-0.0,2.0,0.282024,0.365023,0.282024,0.15,,,,,,
113392,0.000859,-0.000604,-0.014894,-0.001064,0.0,0.0,-0.079133,-0.0,-0.0,2.0,0.282024,0.365151,0.282024,0.15,,,,,,
113412,0.000859,-0.000604,-0.014894,0.0,-0.001064,-0.001064,-0.078273,-0.0,-0.0,2.0,0.282024,0.36546,0.282024,0.15,,,,,,
113432,0.000859,-0.000604,-0.014894,0.0,0.0,0.0,-0.075904,-0.0,-0.0,2.0,0.282024,0.36534,0.282024,0.15,,,,,,
113452,0.000859,-0.000604,-0.014894,0.0,0.0,-0.001064,-0.074024,-0.0,-0.0,2.0,0.282024,0.365341,0.282024,0.15,,,,,,
113472,0.000859,-0.000604,-0.014894,0.0,-0.001064,0.0,-0.073042,-0.0,-0.0,2.0,0.282024,0.365581,0.282024,0.15,,,,,,
113492,0.000859,-0.000604,-0.014894,-0.001064,0.0,0.0,-0.070897,-0.0,-0.0,2.0,0.282024,0.364462,0.282024,0.15,,,,,,
113512,0.000737,-0.000605,-0.014894,0.0,0.0,-0.001064,-0.067824,-0.0,-0.0,2.0,0.282024,0.364092,0.282024,0.15,,,,,,
113532,0.000736,-0.000483,-0.014894,-0.001064,0.0,0.0,-0.06665,-0.0,-0.0,2.0,0.282024,0.365229,0.282024,0.15,,,,,,
113552,0.000736,-0.000483,-0.014894,0.0,0.0,-0.001064,-0.064222,-0.0,-0.0,2.0,0.282024,0.365012,0.282024,0.15,,,,,,
113572,0.000736,-0.000483,-0.014894,0.0,0.0,-0.001064,-0.061682,-0.0,-0.0,2.0,0.282024,0.364746,0.282024,0.15,,,,,,
113592,0.000736,-0.000483,-0.014894,0.0,-0.001064,0.0,-0.060356,-0.0,-0.0,2.0,0.282024,0.364804,0.282024,0.15,,,,,,
113612,0.000737,-0.000605,-0.014894,0.0,0.0,-0.001064,-0.056663,-0.0,-0.0,2.0,0.282024,0.364187,0.282024,0.15,,,,,,
113632,0.000737,-0.000605,-0.014894,0.0,0.0,0.0,-0.05384,-0.0,-0.0,2.0,0.282024,0.362756,0.282024,0.15,,,,,,
113652,0.000736,-0.000483,-0.014894,-0.001064,-0.001064,-0.001064,-0.050902,-0.0,-0.0,2.0,0.282024,0.362303,0.282024,0.15,,,,,,
113672,0.000736,-0.000483,-0.014894,0.0,0.0,-0.001064,-0.047475,-0.0,-0.0,2.0,0.282024,0.362726,0.282024,0.15,,,,,,
113692,0.000736,-0.000483,-0.014894,-0.001064,-0.001064,-0.001064,-0.044886,-0.0,-0.0,2.0,0.282024,0.362328,0.282024,0.15,,,,,,
113712,0.000736,-0.000483,-0.014894,0.0,-0.001064,0.0,-0.041567,-0.0,-0.0,2.0,0.282024,0.361704,0.282024,0.15,,,,,,
113732,0.000736,-0.000483,-0.014894,0.0,0.0,-0.001064,-0.03826,-0.0,-0.0,2.0,0.282024,0.361058,0.282024,0.15,,,,,,
113752,0.000736,-0.000483,-0.014894,-0.001064,0.0,0.0,-0.034855,-0.0,-0.0,2.0,0.282024,0.36036,0.282024,0.15,,,,,,
113772,0.000736,-0.000483,-0.014894,0.0,-0.001064,0.0,-0.03282,-0.0,-0.0,2.0,0.282024,0.360028,0.282024,0.15,,,,,,
113792,0.000736,-0.000483,-0.014894,0.0,0.0,0.0,-0.029773,-0.0,-0.0,2.0,0.282024,0.359392,0.282024,0.15,,,,,,
113812,0.000736,-0.000483,-0.014894,-0.001064,0.0,-0.001064,-0.026229,-0.0,-0.0,2.0,0.282024,0.35859,0.282024,0.15,,,,,,
113832,0.000736,-0.000483,-0.014894,-0.001064,0.0,-0.001064,-0.022692,-0.0,-0.0,2.0,0.282024,0.357762,0.282024,0.15,,,,,,
113852,0.000737,-0.000605,-0.014894,0.0,0.0,-0.001064,-0.019119,-0.0,-0.0,2.0,0.282024,0.356897,0.282024,0.15,,,,,,
113872,0.000737,-0.000605,-0.014894,0.0,0.0,0.0,-0.017227,-0.0,-0.0,2.0,0.282024,0.356491,0.282024,0.15,,,,,,
113892,0.000737,-0.000605,-0.014894,0.0,-0.001064,-0.001064,-0.012073,-0.0,-0.0,2.0,0.282024,0.355122,0.282024,0.152593,,,,,,
113912,0.000737,-0.000605,-0.014894,0.0,0.0,0.0,-0.008414,-0.0,-0.0,2.0,0.282024,0.354147,0.282024,0.156414,,,,,,
113932,0.000737,-0.000605,-0.014894,0.0,0.0,-0.001064,-0.004745,-0.0,-0.0,2.0,0.282024,0.352064,0.282024,0.163907,,,,,,
113952,0.000737,-0.000605,-0.014894,0.0,0.0,-0.001064,-0.002906,-0.0,-0.0,2.0,0.282024,0.351562,0.282024,0.165602,,,,,,
113972,0.000737,-0.000605,-0.014894,-0.001064,0.0,-0.001064,0.001753,-0.0,-0.0,2.0,0.282024,0.35021,0.282024,0.169975,,,,,,
113992,0.000737,-0.000605,-0.014894,0.0,0.0,0.0,0.005486,-0.0,-0.0,2.0,0.282024,0.349094,0.282024,0.173408,,,,,,
114012,0.000737,-0.000605,-0.014894,0.0,0.0,0.0,0.009162,-0.0,-0.0,2.0,0.282024,0.349053,0.282024,0.17353,,,,,,
114032,0.000737,-0.000605,-0.014894,-0.001064,0.0,-0.001064,0.012806,-0.0,-0.0,2.0,0.282024,0.347904,0.282024,0.176909,,,,,,
114052,0.000737,-0.000605,-0.014894,0.0,0.0,-0.001064,0.014672,-0.0,-0.0,2.0,0.282024,0.347256,0.282024,0.178753,,,,,,
114072,0.000737,-0.000605,-0.014772,-0.001064,0.0,-0.001064,0.019762,-0.0,-0.0,2.0,0.282024,0.345622,0.282024,0.183229,,,,,,
114092,0.000737,-0.000605,-0.014894,0.0,-0.001064,0.0,0.021799,-0.0,-0.0,2.0,0.282024,0.343757,0.282024,0.188069,,,,,,
114112,0.000737,-0.000605,-0.014894,-0.001064,0.0,0.0,0.02536,-0.0,-0.0,2.0,0.282024,0.342518,0.282024,0.191143,,,,,,
114132,0.000736,-0.000483,-0.014894,0.0,-0.001064,0.0,0.028874,-0.0,-0.0,2.0,0.282024,0.341257,0.282024,0.194167,,,,,,
114152,0.000736,-0.000483,-0.014894,0.0,0.0,0.0,0.031254,-0.0,-0.0,2.0,0.282024,0.341437,0.282024,0.193742,,,,,,
114172,0.000614,-0.000484,-0.014894,-0.001064,0.0,-0.001064,0.03486,-0.0,-0.0,2.0,0.282024,0.338968,0.282024,0.199414,,,,,,
114192,0.000615,-0.000606,-0.014894,0.0,0.0,0.0,0.038155,-0.0,-0.0,2.0,0.282024,0.338783,0.282024,0.199827,,,,,,
114212,0.000614,-0.000484,-0.014894,-0.001064,-0.001064,-0.001064,0.041435,-0.0,-0.0,2.0,0.282024,0.33748,0.282024,0.202675,,,,,,
114232,0.000614,-0.000484,-0.014894,0.0,-0.001064,0.0,0.044847,-0.0,-0.0,2.0,0.282024,0.336102,0.282024,0.2056,,,,,,
114252,0.000614,-0.000484,-0.014894,0.0,0.0,-0.001064,0.047883,-0.0,-0.0,2.0,0.282024,0.333654,0.282024,0.210588,,,,,,
114272,0.000614,-0.000484,-0.014894,0.0,0.0,0.0,0.051258,-0.0,-0.0,2.0,0.282024,0.333376,0.282024,0.211139,,,,,,
114292,0.000614,-0.000484,-0.014894,0.0,0.0,0.0,0.052757,-0.0,-0.0,2.0,0.282024,0.332506,0.282024,0.212843,,,,,,
114312,0.000614,-0.000484,-0.014894,0.0,0.0,-0.001064,0.055618,-0.0,-0.0,2.0,0.282024,0.331186,0.282024,0.215374,,,,,,
114332,0.000614,-0.000484,-0.014894,0.0,0.0,-0.001064,0.059042,-0.0,-0.0,2.0,0.282024,0.32966,0.282024,0.218225,,,,,,
114352,0.000614,-0.000484,-0.014894,0.0,0.0,-0.001064,0.062064,-0.0,-0.0,2.0,0.282024,0.328227,0.282024,0.220833,,,,,,
114372,0.000614,-0.000484,-0.014894,0.0,0.0,0.0,0.063353,-0.0,-0.0,2.0,0.282024,0.32732,0.282024,0.222448,,,,,,
114392,0.000614,-0.000484,-0.014894,0.0,0.0,-0.001064,0.065821,-0.0,-0.0,2.0,0.282024,0.326016,0.282024,0.224729,,,,,,
114412,0.000614,-0.000484,-0.014894,0.0,0.0,0.0,0.068174,-0.0,-0.0,2.0,0.282024,0.324722,0.282024,0.226943,,,,,,
114432,0.000736,-0.000483,-0.014894,0.0,0.0,-0.001064,0.069412,-0.0,-0.0,2.0,0.282024,0.32377,0.282024,0.228543,,,,,,
114452,0.000735,-0.000361,-0.014894,-0.001064,-0.001064,-0.001064,0.072472,-0.0,-0.0,2.0,0.282024,0.322241,0.282024,0.231063,,,,,,
114472,0.000735,-0.000361,-0.014894,0.0,0.0,0.0,0.07449,-0.0,-0.0,2.0,0.282024,0.320984,0.282024,0.233089,,,,,,
114492,0.000735,-0.000361,-0.014894,0.0,-0.001064,-0.001064,0.076333,-0.0,-0.0,2.0,0.282024,0.319765,0.282024,0.235018,,,,,,
114512,0.000613,-0.000362,-0.014894,-0.001064,0.0,0.0,0.0781,-0.0,-0.0,2.0,0.282024,0.31851,0.282024,0.236969,,,,,,
114532,0.000613,-0.000362,-0.014894,-0.001064,0.0,-0.001064,0.079447,-0.0,-0.0,2.0,0.282024,0.317413,0.282024,0.238645,,,,,,
114552,0.000613,-0.000362,-0.014894,-0.001064,0.0,0.0,0.080903,-0.0,-0.0,2.0,0.282024,0.316264,0.282024,0.240373,,,,,,
114572,0.000613,-0.000362,-0.014894,0.0,0.0,-0.001064,0.082211,-0.0,-0.0,2.0,0.282024,0.315146,0.282024,0.242027,,,,,,
114592,0.000735,-0.000361,-0.014894,0.0,0.0,-0.001064,0.082806,-0.0,-0.0,2.0,0.282024,0.314298,0.282024,0.243265,,,,,,
114612,0.000735,-0.000361,-0.014894,-0.001064,0.0,0.0,0.08393,-0.0,-0.0,2.0,0.282024,0.313219,0.282024,0.244819,,,,,,
114632,0.000735,-0.000361,-0.014894,-0.001064,0.0,-0.001064,0.084789,-0.0,-0.0,2.0,0.282024,0.312217,0.282024,0.246242,,,,,,
114652,0.000735,-0.000361,-0.014894,0.0,0.0,-0.001064,0.08562,-0.0,-0.0,2.0,0.282024,0.309939,0.282024,0.249411,,,,,,
114672,0.000735,-0.000361,-0.014894,0.0,0.0,0.0,0.086255,-0.0,-0.0,2.0,0.282024,0.310267,0.282024,0.24896,,,,,,
114692,0.000613,-0.000362,-0.014894,-0.001064,0.0,-0.001064,0.086735,-0.0,-0.0,2.0,0.282024,0.309365,0.282024,0.250194,,,,,,
114712,0.000735,-0.000361,-0.014894,0.0,-0.001064,-0.001064,0.086964,-0.0,-0.0,2.0,0.282024,0.308543,0.282024,0.251306,,,,,,
114732,0.000735,-0.000361,-0.014894,0.0,0.0,0.0,0.087224,-0.0,-0.0,2.0,0.282024,0.307705,0.282024,0.252429,,,,,,
114752,0.000735,-0.000361,-0.014894,0.0,0.0,-0.001064,0.08726,-0.0,-0.0,2.0,0.282024,0.306941,0.282024,0.253442,,,,,,
114772,0.000735,-0.000361,-0.014894,0.0,-0.001064,-0.001064,0.087133,-0.0,-0.0,2.0,0.282024,0.304928,0.282024,0.256065,,,,,,
114792,0.000735,-0.000361,-0.014894,0.0,0.0,-0.001064,0.087005,-0.0,-0.0,2.0,0.282024,0.305522,0.282024,0.255297,,,,,,
114812,0.000735,-0.000361,-0.014894,0.0,0.0,-0.001064,0.086773,-0.0,-0.0,2.0,0.282024,0.304849,0.282024,0.256167,,,,,,
114832,0.000735,-0.000361,-0.014894,0.0,-0.001064,-0.001064,0.086088,-0.0,-0.0,2.0,0.282024,0.304337,0.282024,0.256822,,,,,,
114852,0.000735,-0.000361,-0.014894,0.0,0.0,-0.001064,0.085403,-0.0,-0.0,2.0,0.282024,0.303831,0.282024,0.257467,,,,,,
114872,0.000735,-0.000361,-0.014894,-0.001064,0.0,-0.001064,0.084573,-0.0,-0.0,2.0,0.282024,0.30206,0.282024,0.259693,,,,,,
114892,0.000735,-0.000361,-0.014894,0.0,-0.001064,-0.001064,0.083997,-0.0,-0.0,2.0,0.282024,0.302848,0.282024,0.258709,,,,,,
114912,0.000735,-0.000361,-0.014894,0.0,0.0,-0.001064,0.082408,-0.0,-0.0,2.0,0.282024,0.301358,0.282024,0.260564,,,,,,
114932,0.000735,-0.000361,-0.014894,-0.001064,0.0,0.0,0.081514,-0.0,-0.0,2.0,0.282024,0.302282,0.282024,0.259417,,,,,,
114952,0.000857,-0.00036,-0.014894,-0.001064,0.0,0.0,0.080118,-0.0,-0.0,2.0,0.282024,0.302113,0.282024,0.259627,,,,,,
114972,0.000735,-0.000361,-0.014894,-0.001064,0.0,0.0,0.078592,-0.0,-0.0,2.0,0.282024,0.300586,0.282024,0.261511,,,,,,
114992,0.000735,-0.000361,-0.014894,-0.001064,-0.001064,-0.001064,0.077687,-0.0,-0.0,2.0,0.282024,0.301552,0.282024,0.260324,,,,,,
115012,0.000735,-0.000361,-0.014894,0.0,0.0,-0.001064,0.075455,-0.0,-0.0,2.0,0.282024,0.301677,0.282024,0.260169,,,,,,
115032,0.000735,-0.000361,-0.014894,0.0,-0.001064,-0.001064,0.07355,-0.0,-0.0,2.0,0.282024,0.300371,0.282024,0.261774,,,,,,
115052,0.000735,-0.000361,-0.014894,0.0,0.0,-0.001064,0.071504,-0.0,-0.0,2.0,0.282024,0.300466,0.282024,0.261658,,,,,,
115072,0.000735,-0.000361,-0.014894,0.0,-0.001064,0.0,0.070432,-0.0,-0.0,2.0,0.282024,0.300222,0.282024,0.261955,,,,,,
115092,0.000735,-0.000361,-0.014894,0.0,0.0,-0.001064,0.067598,-0.0,-0.0,2.0,0.282024,0.301963,0.282024,0.259814,,,,,,
115112,0.000735,-0.000361,-0.014894,0.0,0.0,0.0,0.064733,-0.0,-0.0,2.0,0.282024,0.302407,0.282024,0.259261,,,,,,
115132,0.000735,-0.000361,-0.014894,0.0,0.0,-0.001064,0.062228,-0.0,-0.0,2.0,0.282024,0.302745,0.282024,0.258838,,,,,,
115152,0.000735,-0.000361,-0.014894,0.0,0.0,0.0,0.060935,-0.0,-0.0,2.0,0.282024,0.302667,0.282024,0.258936,,,,,,
115172,0.000735,-0.000361,-0.014894,0.0,-0.001064,0.0,0.057913,-0.0,-0.0,2.0,0.282024,0.303224,0.282024,0.258235,,,,,,
115192,0.000735,-0.000361,-0.014894,0.0,0.0,-0.001064,0.055061,-0.0,-0.0,2.0,0.282024,0.302427,0.282024,0.259236,,,,,,
115212,0.000735,-0.000361,-0.014894,0.0,0.0,-0.001064,0.052089,-0.0,-0.0,2.0,0.282024,0.304335,0.282024,0.256825,,,,,,
115232,0.000735,-0.000361,-0.014894,0.0,-0.001064,0.0,0.049097,-0.0,-0.0,2.0,0.282024,0.304956,0.282024,0.256029,,,,,,
115252,0.000735,-0.000361,-0.014894,0.0,0.0,-0.001064,0.047562,-0.0,-0.0,2.0,0.282024,0.30508,0.282024,0.255869,,,,,,
115272,0.000735,-0.000361,-0.014894,0.0,0.0,0.0,0.043305,-0.0,-0.0,2.0,0.282024,0.306188,0.282024,0.25443,,,,,,
115292,0.000735,-0.000361,-0.014894,0.0,0.0,-0.001064,0.039881,-0.0,-0.0,2.0,0.282024,0.305734,0.282024,0.255022,,,,,,
115312,0.000735,-0.000361,-0.014894,0.0,-0.001064,-0.001064,0.038197,-0.0,-0.0,2.0,0.282024,0.305991,0.282024,0.254687,,,,,,
115332,0.000735,-0.000361,-0.014894,0.0,0.0,0.0,0.03487,-0.0,-0.0,2.0,0.282024,0.30814,0.282024,0.251847,,,,,,
115352,0.000735,-0.000361,-0.014894,-0.001064,0.0,0.0,0.03057,-0.0,-0.0,2.0,0.282024,0.309358,0.282024,0.250205,,,,,,
115372,0.000736,-0.000483,-0.014894,-0.001064,0.0,-0.001064,0.028602,-0.0,-0.0,2.0,0.282024,0.309791,0.282024,0.249614,,,,,,
115392,0.000736,-0.000483,-0.014894,-0.001064,0.0,0.0,0.02484,-0.0,-0.0,2.0,0.282024,0.310866,0.282024,0.248133,,,,,,
115412,0.000736,-0.000483,-0.014894,-0.001064,0.0,0.0,0.021306,-0.0,-0.0,2.0,0.282024,0.310617,0.282024,0.248478,,,,,,
115432,0.000736,-0.000483,-0.014894,0.0,0.0,-0.001064,0.017717,-0.0,-0.0,2.0,0.282024,0.312956,0.282024,0.245195,,,,,,
115452,0.000736,-0.000483,-0.014894,0.0,0.0,0.0,0.015224,-0.0,-0.0,2.0,0.282024,0.31241,0.282024,0.245971,,,,,,
115472,0.000736,-0.000483,-0.014894,0.0,0.0,0.0,0.01098,-0.0,-0.0,2.0,0.282024,0.315005,0.282024,0.242233,,,,,,
115492,0.000736,-0.000483,-0.014894,0.0,0.0,0.0,0.007013,-0.0,-0.0,2.0,0.282024,0.316272,0.282024,0.24036,,,,,,
115512,0.000736,-0.000483,-0.014894,0.0,0.0,-0.001064,0.00333,-0.0,-0.0,2.0,0.282024,0.316229,0.282024,0.240424,,,,,,
115532,0.000736,-0.000483,-0.014894,0.0,0.0,-0.001064,-0.000429,-0.0,-0.0,2.0,0.282024,0.318717,0.282024,0.23665,,,,,,
115552,0.000736,-0.000483,-0.014894,-0.001064,-0.001064,0.0,-0.003867,-0.0,-0.0,2.0,0.282024,0.319881,0.282024,0.234836,,,,,,
115572,0.000614,-0.000484,-0.014894,-0.001064,0.0,-0.001064,-0.00568,-0.0,-0.0,2.0,0.282024,0.31926,0.282024,0.235807,,,,,,
115592,0.000614,-0.000484,-0.014894,0.0,0.0,0.0,-0.009544,-0.0,-0.0,2.0,0.282024,0.321823,0.282024,0.23174,,,,,,
115612,0.000614,-0.000484,-0.014894,0.0,0.0,-0.001064,-0.013169,-0.0,-0.0,2.0,0.282024,0.323107,0.282024,0.229643,,,,,,
115632,0.000614,-0.000484,-0.014894,0.0,0.0,0.0,-0.017645,-0.0,-0.0,2.0,0.282024,0.324692,0.282024,0.226994,,,,,,
115652,0.000614,-0.000484,-0.014894,0.0,0.0,-0.001064,-0.019637,-0.0,-0.0,2.0,0.282024,0.324292,0.282024,0.227668,,,,,,
115672,0.000614,-0.000484,-0.014894,0.0,0.0,0.0,-0.023553,-0.0,-0.0,2.0,0.282024,0.326931,0.282024,0.223135,,,,,,
