time_ms,roll,pitch,yaw,roll_rate,pitch_rate,yaw_rate,reference_roll,reference_pitch,reference_yaw,reference_throttle,throttle_1,throttle_2,throttle_3,throttle_4,roll_predicted,pitch_predicted,yaw_predicted,roll_rate_predicted,pitch_rate_predicted,yaw_rate_predicted
86023,0.001094,-0.000266,0.039315,0.0,0.0,0.0,0.0,-0.0,-0.0,2.0,0.282024,0.270713,0.282024,0.292717,,,,,,
86043,0.001216,-0.000268,0.039437,0.0,-0.001064,-1e-06,0.0,-0.0,-0.0,2.0,0.282024,0.270721,0.282024,0.29271,,,,,,
86063,0.00134,-0.000149,0.039559,0.0,-0.001063,-0.001066,0.000466,-0.0,-0.0,2.0,0.282024,0.270583,0.282024,0.292834,,,,,,
86083,0.001467,9.3e-05,0.039559,-0.0,-0.001063,-0.001066,0.001389,-0.0,-0.0,2.0,0.282024,0.270302,0.282024,0.293084,,,,,,
86103,0.001592,0.000213,0.039559,-0.001064,0.0,0.0,0.002403,-0.0,-0.0,2.0,0.282024,0.269928,0.282024,0.293416,,,,,,
86123,0.001589,9.1e-05,0.039681,-0.001064,-0.001064,-2e-06,0.002403,-0.0,-0.0,2.0,0.282024,0.267913,0.282024,0.295186,,,,,,
86143,0.001343,-2.7e-05,0.039803,-0.001064,1e-06,-0.001064,0.004149,-0.0,-0.0,2.0,0.282024,0.267108,0.282024,0.295884,,,,,,
86163,0.001096,-0.000144,0.039803,-0.001064,1e-06,-0.001064,0.004598,-0.0,-0.0,2.0,0.282024,0.266843,0.282024,0.296112,,,,,,
86183,0.001094,-0.000266,0.039803,-0.001064,0.0,0.0,0.005817,-0.0,-0.0,2.0,0.282024,0.268218,0.282024,0.29492,,,,,,
86203,0.001094,-0.000266,0.039803,0.0,-0.001064,-1e-06,0.006475,-0.0,-0.0,2.0,0.282024,0.267907,0.282024,0.295191,,,,,,
86223,0.001096,-0.000144,0.039925,0.0,-0.001063,-0.001065,0.007453,-0.0,-0.0,2.0,0.282024,0.267454,0.282024,0.295584,,,,,,
86243,0.001465,-2.9e-05,0.039803,0.0,2e-06,-0.001064,0.00837,-0.0,-0.0,2.0,0.282024,0.267177,0.282024,0.295823,,,,,,
86263,0.001709,-3.4e-05,0.039803,-0.001064,0.0,0.0,0.009286,-0.0,-0.0,2.0,0.282024,0.266846,0.282024,0.296109,,,,,,
86283,0.001711,8.8e-05,0.039925,-0.0,-0.001064,-2e-06,0.010358,-0.0,-0.0,2.0,0.282024,0.26434,0.282024,0.298241,,,,,,
86303,0.001465,-2.9e-05,0.039925,-0.001064,-0.001063,-0.001066,0.010358,-0.0,-0.0,2.0,0.282024,0.26423,0.282024,0.298333,,,,,,
86323,0.00134,-0.000149,0.039803,-0.001064,1e-06,-0.001064,0.012096,-0.0,-0.0,2.0,0.282024,0.263359,0.282024,0.299061,,,,,,
86343,0.001338,-0.000271,0.039803,-0.001064,0.0,0.0,0.012832,-0.0,-0.0,2.0,0.282024,0.262912,0.282024,0.299432,,,,,,
86363,0.001335,-0.000393,0.039925,0.0,-0.001063,-0.001066,0.013345,-0.0,-0.0,2.0,0.282024,0.262558,0.282024,0.299725,,,,,,
86383,0.001338,-0.000271,0.040047,0.0,-0.001063,-0.001066,0.014378,-0.0,-0.0,2.0,0.282024,0.264098,0.282024,0.298444,,,,,,
86403,0.001706,-0.000156,0.039803,0.0,-0.001064,-2e-06,0.015348,-0.0,-0.0,2.0,0.282024,0.263696,0.282024,0.29878,,,,,,
86423,0.001831,-3.7e-05,0.039925,-0.001064,0.0,0.0,0.0163,-0.0,-0.0,2.0,0.282024,0.263297,0.282024,0.299112,,,,,,
86443,0.001955,8.3e-05,0.040047,-0.0,-0.001064,-2e-06,0.017223,-0.0,-0.0,2.0,0.282024,0.262799,0.282024,0.299526,,,,,,
86463,0.001833,8.5e-05,0.040047,-0.0,2e-06,-0.001064,0.017674,-0.0,-0.0,2.0,0.282024,0.260514,0.282024,0.301397,,,,,,
86483,0.001709,-3.4e-05,0.040047,-0.001064,2e-06,-0.001064,0.018794,-0.0,-0.0,2.0,0.282024,0.259855,0.282024,0.30193,,,,,,
86503,0.001706,-0.000156,0.040047,-0.001064,0.0,0.0,0.019444,-0.0,-0.0,2.0,0.282024,0.259396,0.282024,0.302299,,,,,,
86523,0.001582,-0.000276,0.040291,0.0,-0.001064,-2e-06,0.020684,-0.0,-0.0,2.0,0.282024,0.258666,0.282024,0.302882,,,,,,
86543,0.001584,-0.000154,0.040413,0.0,-0.001063,-0.001066,0.021192,-0.0,-0.0,2.0,0.282024,0.26032,0.282024,0.301555,,,,,,
86563,0.001831,-3.7e-05,0.040291,0.0,-0.001062,-0.001066,0.021747,-0.0,-0.0,2.0,0.282024,0.260103,0.282024,0.30173,,,,,,
86583,0.002199,7.8e-05,0.040291,0.0,0.0,0.0,0.02276,-0.0,-0.0,2.0,0.282024,0.25963,0.282024,0.302111,,,,,,
86603,0.002324,0.000197,0.040534,-0.0,-0.001064,-2e-06,0.023795,-0.0,-0.0,2.0,0.282024,0.259084,0.282024,0.302549,,,,,,
86623,0.00257,0.000314,0.040656,0.001064,-0.001061,-0.001067,0.024847,-0.0,-0.0,2.0,0.282024,0.258575,0.282024,0.302954,,,,,,
86643,0.002812,0.000187,0.040656,-0.0,-0.001061,-0.001067,0.025731,-0.0,-0.0,2.0,0.282024,0.258246,0.282024,0.303216,,,,,,
86663,0.003303,0.000299,0.040778,0.0,0.0,0.0,0.026172,-0.0,-0.0,2.0,0.282024,0.260126,0.282024,0.301712,,,,,,
86683,0.003791,0.000289,0.0409,0.001064,0.001064,4e-06,0.027152,-0.0,-0.0,2.0,0.282024,0.259646,0.282024,0.302098,,,,,,
86703,0.004282,0.0004,0.041143,0.001064,-0.00106,-0.001069,0.027894,-0.0,-0.0,2.0,0.282024,0.257297,0.282024,0.303965,,,,,,
86723,0.004892,0.000388,0.041143,0.001064,-0.002123,-0.001075,0.028924,-0.0,-0.0,2.0,0.282024,0.256946,0.282024,0.304241,,,,,,
86743,0.005502,0.000375,0.041265,0.001064,-0.001064,-6e-06,0.029464,-0.0,-0.0,2.0,0.282024,0.259004,0.282024,0.302612,,,,,,
86763,0.006484,0.000598,0.041385,0.001064,0.0,0.0,0.030485,-0.0,-0.0,2.0,0.282024,0.260773,0.282024,0.301188,,,,,,
86783,0.007346,0.000946,0.041627,0.001063,8e-06,-0.001064,0.031077,-0.0,-0.0,2.0,0.282024,0.260676,0.282024,0.301267,,,,,,
86803,0.008203,0.00105,0.041748,0.003192,9e-06,-0.001064,0.032079,-0.0,-0.0,2.0,0.282024,0.260506,0.282024,0.301404,,,,,,
86823,0.009426,0.001146,0.041746,0.003191,-0.001054,-0.001074,0.032958,-0.0,-0.0,2.0,0.282024,0.258433,0.282024,0.303067,,,,,,
86843,0.010771,0.00124,0.041866,0.002128,-0.001064,-1.1e-05,0.033817,-0.0,-0.0,2.0,0.282024,0.26055,0.282024,0.301368,,,,,,
86863,0.01224,0.001452,0.042107,0.002128,0.0,0.0,0.03472,-0.0,-0.0,2.0,0.282024,0.262629,0.282024,0.299667,,,,,,
86883,0.013958,0.001781,0.042231,0.003191,1.5e-05,-0.001064,0.035211,-0.0,-0.0,2.0,0.282024,0.262962,0.282024,0.299391,,,,,,
86903,0.015788,0.001742,0.042228,0.004255,-0.001047,-0.001081,0.036107,-0.0,-0.0,2.0,0.282024,0.263282,0.282024,0.299125,,,,,,
86923,0.017741,0.0017,0.042347,0.004257,-0.001064,-1.9e-05,0.0366,-0.0,-0.0,2.0,0.282024,0.263727,0.282024,0.298754,,,,,,
86943,0.019941,0.001773,0.042585,0.004257,-0.001064,-2.1e-05,0.037441,-0.0,-0.0,2.0,0.282024,0.266187,0.282024,0.296675,,,,,,
86963,0.022265,0.001966,0.0427,0.004255,-0.00104,-0.001088,0.038554,-0.0,-0.0,2.0,0.282024,0.268506,0.282024,0.294669,,,,,,
86983,0.024712,0.002157,0.042821,0.005319,2.6e-05,-0.001064,0.039057,-0.0,-0.0,2.0,0.282024,0.269167,0.282024,0.294089,,,,,,
87003,0.027153,0.002103,0.042937,0.005319,-0.001035,-0.001093,0.039901,-0.0,-0.0,2.0,0.282024,0.267839,0.282024,0.29525,,,,,,
87023,0.029716,0.002046,0.043053,0.004255,-0.001032,-0.001095,0.040715,-0.0,-0.0,2.0,0.282024,0.270498,0.282024,0.29291,,,,,,
87043,0.03253,0.002227,0.043171,0.005321,0.0,0.0,0.041272,-0.0,-0.0,2.0,0.282024,0.273186,0.282024,0.290481,,,,,,
87063,0.035095,0.002292,0.043283,0.006383,-0.001026,-0.001101,0.041954,-0.0,-0.0,2.0,0.282024,0.272039,0.282024,0.291525,,,,,,
87083,0.037782,0.002353,0.043395,0.005319,-0.001023,-0.001104,0.043002,-0.0,-0.0,2.0,0.282024,0.272624,0.282024,0.290994,,,,,,
87103,0.040472,0.002417,0.043391,0.004254,4.3e-05,-0.001063,0.043578,-0.0,-0.0,2.0,0.282024,0.273505,0.282024,0.290188,,,,,,
87123,0.043159,0.002477,0.043501,0.004257,0.0,0.0,0.044609,-0.0,-0.0,2.0,0.282024,0.274112,0.282024,0.289629,,,,,,
87143,0.045608,0.002665,0.043617,0.004254,-0.001015,-0.001112,0.045545,-0.0,-0.0,2.0,0.282024,0.274766,0.282024,0.289023,,,,,,
87163,0.048051,0.002731,0.043726,0.005318,-0.001012,-0.001114,0.045955,-0.0,-0.0,2.0,0.282024,0.273696,0.282024,0.290013,,,,,,
87183,0.050377,0.002921,0.043841,0.004254,-0.001009,-0.001116,0.046748,-0.0,-0.0,2.0,0.282024,0.274388,0.282024,0.289374,,,,,,
87203,0.052701,0.003114,0.043824,0.004257,-0.001063,-5.6e-05,0.047522,-0.0,-0.0,2.0,0.282024,0.274985,0.282024,0.288819,,,,,,
87223,0.054784,0.003306,0.04406,0.004253,-0.001004,-0.001121,0.048039,-0.0,-0.0,2.0,0.282024,0.275701,0.282024,0.28815,,,,,,
87243,0.056741,0.003503,0.044166,0.004253,-0.001002,-0.001123,0.048671,-0.0,-0.0,2.0,0.282024,0.276234,0.282024,0.287648,,,,,,
87263,0.058583,0.003828,0.044154,0.003188,-0.001,-0.001125,0.049374,-0.0,-0.0,2.0,0.282024,0.274951,0.282024,0.288851,,,,,,
87283,0.060418,0.004031,0.044137,0.003192,-0.001062,-6.4e-05,0.050452,-0.0,-0.0,2.0,0.282024,0.275257,0.282024,0.288565,,,,,,
87303,0.062012,0.004354,0.044361,0.003192,-0.001062,-6.6e-05,0.050993,-0.0,-0.0,2.0,0.282024,0.275741,0.282024,0.288112,,,,,,
87323,0.063488,0.004684,0.044471,0.003187,-0.000995,-0.00113,0.05191,-0.0,-0.0,2.0,0.282024,0.274197,0.282024,0.289551,,,,,,
87343,0.065079,0.004892,0.044454,0.002123,-0.000993,-0.001131,0.052658,-0.0,-0.0,2.0,0.282024,0.276499,0.282024,0.287398,,,,,,
87363,0.066674,0.005096,0.044566,0.003192,-0.001062,-7.1e-05,0.053388,-0.0,-0.0,2.0,0.282024,0.276862,0.282024,0.287054,,,,,,
87383,0.068022,0.005302,0.044793,0.003192,-0.001062,-7.2e-05,0.053922,-0.0,-0.0,2.0,0.282024,0.275426,0.282024,0.288407,,,,,,
87403,0.069498,0.00563,0.044901,0.002116,-0.000914,-0.002197,0.054774,-0.0,-0.0,2.0,0.282024,0.277658,0.282024,0.286295,,,,,,
87423,0.070965,0.005719,0.044887,0.003186,-0.000986,-0.001137,0.05542,-0.0,-0.0,2.0,0.282024,0.276202,0.282024,0.287679,,,,,,
87443,0.072316,0.005928,0.044999,0.003186,-0.000985,-0.001138,0.055942,-0.0,-0.0,2.0,0.282024,0.276665,0.282024,0.287241,,,,,,
87463,0.073905,0.006005,0.045227,0.002122,-0.000983,-0.00114,0.056382,-0.0,-0.0,2.0,0.282024,0.279043,0.282024,0.284961,,,,,,
87483,0.075372,0.006088,0.045334,0.002122,-0.000981,-0.001141,0.057213,-0.0,-0.0,2.0,0.282024,0.279398,0.282024,0.284616,,,,,,
87503,0.076721,0.00618,0.045328,0.002122,8.2e-05,-0.001061,0.057903,-0.0,-0.0,2.0,0.282024,0.27792,0.282024,0.286045,,,,,,
87523,0.078065,0.006266,0.045435,0.002128,-0.001061,-8.3e-05,0.058588,-0.0,-0.0,2.0,0.282024,0.278332,0.282024,0.285648,,,,,,
87543,0.079537,0.006344,0.045671,0.002122,8.5e-05,-0.001061,0.059283,-0.0,-0.0,2.0,0.282024,0.278709,0.282024,0.285284,,,,,,
87563,0.080878,0.006308,0.045782,0.002122,8.6e-05,-0.001061,0.059791,-0.0,-0.0,2.0,0.282024,0.279171,0.282024,0.284836,,,,,,
87583,0.082103,0.00628,0.045781,0.002121,-0.000973,-0.001148,0.059791,-0.0,-0.0,2.0,0.282024,0.279774,0.282024,0.284249,,,,,,
87603,0.0832,0.006249,0.045894,0.002122,8.8e-05,-0.001061,0.061102,-0.0,-0.0,2.0,0.282024,0.279865,0.282024,0.28416,,,,,,
87623,0.084428,0.006338,0.046009,0.002128,0.0,0.0,0.061568,-0.0,-0.0,2.0,0.282024,0.280246,0.282024,0.283786,,,,,,
87643,0.085404,0.00631,0.046123,0.002122,9.1e-05,-0.00106,0.0624,-0.0,-0.0,2.0,0.282024,0.280487,0.282024,0.28355,,,,,,
87663,0.086376,0.006165,0.046121,0.001057,-0.000968,-0.001152,0.063094,-0.0,-0.0,2.0,0.282024,0.278895,0.282024,0.285104,,,,,,
87683,0.087232,0.006023,0.046127,0.001058,9.3e-05,-0.00106,0.063726,-0.0,-0.0,2.0,0.282024,0.27911,0.282024,0.284895,,,,,,
87703,0.088083,0.005876,0.046248,0.001064,0.0,0.0,0.064042,-0.0,-0.0,2.0,0.282024,0.279462,0.282024,0.284554,,,,,,
87723,0.088812,0.005736,0.046247,0.001064,-0.00106,-9.4e-05,0.064687,-0.0,-0.0,2.0,0.282024,0.279637,0.282024,0.284382,,,,,,
87743,0.089419,0.0056,0.046248,0.001058,9.5e-05,-0.00106,0.065407,-0.0,-0.0,2.0,0.282024,0.279793,0.282024,0.28423,,,,,,
87763,0.090031,0.005464,0.046257,0.001058,9.6e-05,-0.00106,0.065853,-0.0,-0.0,2.0,0.282024,0.279999,0.282024,0.284028,,,,,,
87783,0.090641,0.005444,0.046374,0.001064,0.0,0.0,0.066531,-0.0,-0.0,2.0,0.282024,0.280103,0.282024,0.283927,,,,,,
87803,0.091245,0.005186,0.04638,0.001059,9.7e-05,-0.00106,0.067055,-0.0,-0.0,2.0,0.282024,0.280278,0.282024,0.283755,,,,,,
87823,0.091732,0.005169,0.046498,-5e-06,9.7e-05,-0.00106,0.067444,-0.0,-0.0,2.0,0.282024,0.280468,0.282024,0.283568,,,,,,
87843,0.092217,0.005035,0.0465,0.001064,0.0,0.0,0.068186,-0.0,-0.0,2.0,0.282024,0.278649,0.282024,0.285342,,,,,,
87863,0.092705,0.00478,0.046516,0.0,0.0,0.0,0.068765,-0.0,-0.0,2.0,0.282024,0.278755,0.282024,0.28524,,,,,,
87883,0.093068,0.004644,0.04664,-5e-06,9.9e-05,-0.00106,0.069373,-0.0,-0.0,2.0,0.282024,0.280655,0.282024,0.283384,,,,,,
87903,0.093555,0.004638,0.046515,0.001064,0.0,0.0,0.069788,-0.0,-0.0,2.0,0.282024,0.278974,0.282024,0.285027,,,,,,
87923,0.093916,0.00438,0.046645,-5e-06,-0.00096,-0.001159,0.070359,-0.0,-0.0,2.0,0.282024,0.280916,0.282024,0.283126,,,,,,
87943,0.0944,0.004246,0.046647,0.00106,0.0001,-0.001059,0.070868,-0.0,-0.0,2.0,0.282024,0.280956,0.282024,0.283086,,,,,,
87963,0.094885,0.004113,0.046649,0.001064,0.0,0.0,0.071262,-0.0,-0.0,2.0,0.282024,0.279327,0.282024,0.284685,,,,,,
87983,0.095251,0.00386,0.046666,-4e-06,0.000101,-0.001059,0.071936,-0.0,-0.0,2.0,0.282024,0.281234,0.282024,0.282812,,,,,,
88003,0.095855,0.003602,0.046674,0.00106,0.000102,-0.001059,0.072278,-0.0,-0.0,2.0,0.282024,0.281385,0.282024,0.282662,,,,,,
88023,0.096339,0.003469,0.046676,0.001061,0.000102,-0.001059,0.072851,-0.0,-0.0,2.0,0.282024,0.279688,0.282024,0.284333,,,,,,
88043,0.096821,0.003219,0.046562,0.0,0.0,0.0,0.073369,-0.0,-0.0,2.0,0.282024,0.281657,0.282024,0.282391,,,,,,
88063,0.097425,0.002961,0.04657,0.001064,0.0,0.0,0.073619,-0.0,-0.0,2.0,0.282024,0.28188,0.282024,0.282168,,,,,,
88083,0.097791,0.002709,0.046587,0.001061,0.000104,-0.001059,0.073958,-0.0,-0.0,2.0,0.282024,0.282083,0.282024,0.281965,,,,,,
88103,0.098395,0.002457,0.046473,0.001064,0.0,0.0,0.074454,-0.0,-0.0,2.0,0.282024,0.282264,0.282024,0.281784,,,,,,
88123,0.099121,0.002202,0.046358,0.001064,0.0,0.0,0.075075,-0.0,-0.0,2.0,0.282024,0.282391,0.282024,0.281656,,,,,,
88143,0.099724,0.00195,0.046245,0.001062,0.000106,-0.001059,0.075424,-0.0,-0.0,2.0,0.282024,0.282635,0.282024,0.281412,,,,,,
88163,0.100456,0.001701,0.046017,0.001064,0.0,0.0,0.076012,-0.0,-0.0,2.0,0.282024,0.282828,0.282024,0.281217,,,,,,
88183,0.101176,0.001203,0.045915,0.001064,0.0,0.0,0.076312,-0.0,-0.0,2.0,0.282024,0.283135,0.282024,0.280907,,,,,,
88203,0.10178,0.000951,0.045802,0.001064,0.001059,0.000108,0.076753,-0.0,-0.0,2.0,0.282024,0.283391,0.282024,0.280648,,,,,,
88223,0.102625,0.000578,0.045571,0.001064,0.0,0.0,0.077197,-0.0,-0.0,2.0,0.282024,0.283644,0.282024,0.28039,,,,,,
88243,0.103349,-3.6e-05,0.045363,0.001064,0.0,0.0,0.077634,-0.0,-0.0,2.0,0.282024,0.283904,0.282024,0.280126,,,,,,
88263,0.104072,-0.000405,0.045134,0.001064,0.001058,0.000111,0.077899,-0.0,-0.0,2.0,0.282024,0.284231,0.282024,0.279792,,,,,,
88283,0.104674,-0.000772,0.044907,0.001064,0.0,0.0,0.078446,-0.0,-0.0,2.0,0.282024,0.284449,0.282024,0.279569,,,,,,
88303,0.105153,-0.001136,0.04468,0.0,0.0,0.0,0.078664,-0.0,-0.0,2.0,0.282024,0.284748,0.282024,0.279262,,,,,,
88323,0.105633,-0.001493,0.044331,0.001064,0.0,0.0,0.079222,-0.0,-0.0,2.0,0.282024,0.284824,0.282024,0.279184,,,,,,
88343,0.106003,-0.001604,0.043978,0.0,0.0,0.0,0.079483,-0.0,-0.0,2.0,0.282024,0.283208,0.282024,0.280833,,,,,,
88363,0.106367,-0.001714,0.043618,0.0,-0.001058,-0.000113,0.079924,-0.0,-0.0,2.0,0.282024,0.28333,0.282024,0.280709,,,,,,
88383,0.106612,-0.0017,0.043251,-2e-06,-0.001171,0.000945,0.080291,-0.0,-0.0,2.0,0.282024,0.283438,0.282024,0.2806,,,,,,
88403,0.106737,-0.001561,0.042879,0.0,0.0,0.0,0.080664,-0.0,-0.0,2.0,0.282024,0.283542,0.282024,0.280495,,,,,,
88423,0.106859,-0.001544,0.042513,0.0,0.0,0.0,0.080839,-0.0,-0.0,2.0,0.282024,0.283673,0.282024,0.280362,,,,,,
88443,0.106979,-0.001649,0.042153,0.0,0.0,0.0,0.081054,-0.0,-0.0,2.0,0.282024,0.283787,0.282024,0.280245,,,,,,
88463,0.107099,-0.001754,0.041794,0.0,0.0,0.0,0.081335,-0.0,-0.0,2.0,0.282024,0.282009,0.282024,0.282039,,,,,,
88483,0.107098,-0.001856,0.041435,-0.001064,0.0,0.0,0.081887,-0.0,-0.0,2.0,0.282024,0.283806,0.282024,0.280226,,,,,,
88503,0.107092,-0.001836,0.041062,-0.001064,-0.001058,-0.000114,0.082099,-0.0,-0.0,2.0,0.282024,0.28387,0.282024,0.280161,,,,,,
88523,0.107214,-0.001819,0.040697,0.0,0.0,0.0,0.082475,-0.0,-0.0,2.0,0.282024,0.283866,0.282024,0.280165,,,,,,
88543,0.107218,-0.001678,0.040325,0.0,-0.001058,-0.000114,0.082778,-0.0,-0.0,2.0,0.282024,0.28394,0.282024,0.28009,,,,,,
88563,0.107343,-0.001532,0.03983,0.0,-0.001058,-0.000114,0.083068,-0.0,-0.0,2.0,0.282024,0.284017,0.282024,0.280011,,,,,,
88583,0.107465,-0.001522,0.039586,0.0,0.0,0.0,0.08321,-0.0,-0.0,2.0,0.282024,0.2841,0.282024,0.279926,,,,,,
88603,0.107588,-0.001498,0.039099,-2e-06,-0.000114,0.001058,0.083492,-0.0,-0.0,2.0,0.282024,0.284228,0.282024,0.279795,,,,,,
88623,0.107706,-0.001724,0.038746,-0.001064,0.0,0.0,0.083688,-0.0,-0.0,2.0,0.282024,0.284338,0.282024,0.279682,,,,,,
88643,0.107702,-0.001942,0.038272,0.0,0.0,0.0,0.083995,-0.0,-0.0,2.0,0.282024,0.284352,0.282024,0.279668,,,,,,
88663,0.107703,-0.001922,0.037907,0.0,0.0,0.0,0.084179,-0.0,-0.0,2.0,0.282024,0.282609,0.282024,0.281438,,,,,,
88683,0.107704,-0.001896,0.037419,-0.001064,-0.001058,-0.000114,0.084469,-0.0,-0.0,2.0,0.282024,0.282629,0.282024,0.281417,,,,,,
88703,0.107707,-0.001747,0.036926,-0.001066,-0.001172,0.000944,0.084469,-0.0,-0.0,2.0,0.282024,0.282721,0.282024,0.281324,,,,,,
88723,0.107586,-0.001726,0.036561,-0.001064,0.0,0.0,0.084895,-0.0,-0.0,2.0,0.282024,0.28269,0.282024,0.281356,,,,,,
88743,0.107467,-0.001575,0.036067,-0.001066,-0.001172,0.000944,0.08503,-0.0,-0.0,2.0,0.282024,0.282721,0.282024,0.281325,,,,,,
88763,0.107466,-0.001671,0.035587,-0.001066,-0.000114,0.001058,0.085236,-0.0,-0.0,2.0,0.282024,0.282773,0.282024,0.281273,,,,,,
88783,0.10734,-0.001886,0.035113,0.0,0.0,0.0,0.085428,-0.0,-0.0,2.0,0.282024,0.282824,0.282024,0.281221,,,,,,
88803,0.107463,-0.001856,0.034503,-2e-06,-0.000114,0.001058,0.085618,-0.0,-0.0,2.0,0.282024,0.28469,0.282024,0.279321,,,,,,
88823,0.107584,-0.001953,0.034022,-2e-06,-0.001172,0.000944,0.085754,-0.0,-0.0,2.0,0.282024,0.28476,0.282024,0.27925,,,,,,
88843,0.107577,-0.002042,0.033414,-0.001066,-0.000114,0.001058,0.085913,-0.0,-0.0,2.0,0.282024,0.284824,0.282024,0.279184,,,,,,
88863,0.107578,-0.002009,0.032805,-0.001066,-0.001172,0.000944,0.086125,-0.0,-0.0,2.0,0.282024,0.283104,0.282024,0.280938,,,,,,
88883,0.107581,-0.001861,0.032311,-0.001066,-0.001172,0.000944,0.086225,-0.0,-0.0,2.0,0.282024,0.283191,0.282024,0.280851,,,,,,
88903,0.107462,-0.001705,0.031695,-0.001066,-0.000114,0.001058,0.08637,-0.0,-0.0,2.0,0.282024,0.283216,0.282024,0.280825,,,,,,
88923,0.107461,-0.0018,0.031215,0.0,0.0,0.0,0.086498,-0.0,-0.0,2.0,0.282024,0.283285,0.282024,0.280755,,,,,,
88943,0.10746,-0.001896,0.030734,-2e-06,-0.000114,0.001058,0.086615,-0.0,-0.0,2.0,0.282024,0.283364,0.282024,0.280675,,,,,,
88963,0.107458,-0.001998,0.030375,0.0,0.0,0.0,0.086671,-0.0,-0.0,2.0,0.282024,0.285268,0.282024,0.278725,,,,,,
88983,0.107701,-0.002098,0.029893,0.0,0.0,0.0,0.086795,-0.0,-0.0,2.0,0.282024,0.285383,0.282024,0.278606,,,,,,
89003,0.107822,-0.002202,0.029534,0.0,-0.001058,-0.000115,0.086795,-0.0,-0.0,2.0,0.282024,0.285602,0.282024,0.27838,,,,,,
89023,0.107945,-0.002184,0.029168,0.0,0.0,0.0,0.086968,-0.0,-0.0,2.0,0.282024,0.285656,0.282024,0.278324,,,,,,
89043,0.107947,-0.002042,0.028796,0.0,0.0,0.0,0.087009,-0.0,-0.0,2.0,0.282024,0.284009,0.282024,0.280019,,,,,,
89063,0.108069,-0.002031,0.028552,-0.001064,-0.001058,-0.000115,0.087092,-0.0,-0.0,2.0,0.282024,0.285945,0.282024,0.278024,,,,,,
89083,0.108068,-0.002139,0.028315,-0.001064,0.0,0.0,0.087145,-0.0,-0.0,2.0,0.282024,0.284199,0.282024,0.279825,,,,,,
89103,0.107945,-0.002246,0.028078,-0.001064,0.0,0.0,0.087189,-0.0,-0.0,2.0,0.282024,0.286148,0.282024,0.277812,,,,,,
89123,0.108066,-0.002357,0.027841,0.0,-0.001058,-0.000115,0.087224,-0.0,-0.0,2.0,0.282024,0.284457,0.282024,0.279561,,,,,,
89143,0.108064,-0.002472,0.027726,0.0,0.0,0.0,0.087239,-0.0,-0.0,2.0,0.282024,0.284576,0.282024,0.279438,,,,,,
89163,0.108064,-0.002465,0.027604,3e-06,0.000115,-0.001058,0.087239,-0.0,-0.0,2.0,0.282024,0.286487,0.282024,0.277457,,,,,,
89183,0.108188,-0.002339,0.027475,0.0,-0.001058,-0.000115,0.087265,-0.0,-0.0,2.0,0.282024,0.284852,0.282024,0.279155,,,,,,
89203,0.108188,-0.002339,0.027475,-0.001064,-0.001058,-0.000115,0.087263,-0.0,-0.0,2.0,0.282024,0.286769,0.282024,0.277162,,,,,,
89223,0.10819,-0.002217,0.027469,2e-06,0.000115,-0.001058,0.087256,-0.0,-0.0,2.0,0.282024,0.286889,0.282024,0.277036,,,,,,
89243,0.10819,-0.00221,0.027347,-0.001064,-0.001058,-0.000115,0.087235,-0.0,-0.0,2.0,0.282024,0.285232,0.282024,0.278763,,,,,,
89263,0.108065,-0.002459,0.027482,-0.001061,-0.000943,-0.001173,0.087206,-0.0,-0.0,2.0,0.282024,0.285364,0.282024,0.278627,,,,,,
89283,0.108065,-0.002459,0.027482,3e-06,0.000115,-0.001058,0.087166,-0.0,-0.0,2.0,0.282024,0.285452,0.282024,0.278535,,,,,,
89303,0.108064,-0.002465,0.027604,3e-06,0.000115,-0.001058,0.087143,-0.0,-0.0,2.0,0.282024,0.285578,0.282024,0.278405,,,,,,
89323,0.108062,-0.002594,0.027732,-0.001064,-0.001058,-0.000115,0.087109,-0.0,-0.0,2.0,0.282024,0.287547,0.282024,0.276341,,,,,,
89343,0.108062,-0.002594,0.027732,-0.001061,0.000115,-0.001058,0.08705,-0.0,-0.0,2.0,0.282024,0.287644,0.282024,0.276239,,,,,,
89363,0.108184,-0.002602,0.027854,3e-06,-0.000943,-0.001173,0.086987,-0.0,-0.0,2.0,0.282024,0.286002,0.282024,0.277964,,,,,,
89383,0.108184,-0.002602,0.027854,-0.001061,-0.000943,-0.001173,0.086869,-0.0,-0.0,2.0,0.282024,0.288001,0.282024,0.27586,,,,,,
89403,0.108185,-0.002487,0.027969,-0.001062,0.000115,-0.001058,0.086805,-0.0,-0.0,2.0,0.282024,0.288101,0.282024,0.275753,,,,,,
89423,0.108063,-0.002492,0.028091,-0.001062,0.000115,-0.001058,0.086701,-0.0,-0.0,2.0,0.282024,0.286485,0.282024,0.277459,,,,,,
89443,0.107939,-0.002618,0.02822,-0.001061,-0.000943,-0.001173,0.086591,-0.0,-0.0,2.0,0.282024,0.286649,0.282024,0.277287,,,,,,
89463,0.107938,-0.00274,0.028227,-0.001061,0.000115,-0.001058,0.086465,-0.0,-0.0,2.0,0.282024,0.286727,0.282024,0.277205,,,,,,
89483,0.107816,-0.002745,0.028349,-0.001061,0.000115,-0.001058,0.086331,-0.0,-0.0,2.0,0.282024,0.286902,0.282024,0.277021,,,,,,
89503,0.107817,-0.00263,0.028464,-0.001061,-0.000944,-0.001173,0.086196,-0.0,-0.0,2.0,0.282024,0.28885,0.282024,0.274952,,,,,,
89523,0.107817,-0.002637,0.028586,-0.001061,0.000115,-0.001058,0.08606,-0.0,-0.0,2.0,0.282024,0.288979,0.282024,0.274813,,,,,,
89543,0.107695,-0.002635,0.028586,3e-06,0.000114,-0.001058,0.085937,-0.0,-0.0,2.0,0.282024,0.287374,0.282024,0.276524,,,,,,
89563,0.107694,-0.002648,0.02883,-0.001064,-0.001058,-0.000114,0.085724,-0.0,-0.0,2.0,0.282024,0.287585,0.282024,0.276301,,,,,,
89583,0.107694,-0.002654,0.028952,3e-06,0.000114,-0.001058,0.085633,-0.0,-0.0,2.0,0.282024,0.287741,0.282024,0.276135,,,,,,
89603,0.10757,-0.002775,0.028959,0.0,0.0,0.0,0.085431,-0.0,-0.0,2.0,0.282024,0.287903,0.282024,0.275964,,,,,,
89623,0.107692,-0.002783,0.02908,-0.001061,-0.000944,-0.001172,0.085239,-0.0,-0.0,2.0,0.282024,0.289912,0.282024,0.273805,,,,,,
89643,0.10769,-0.002911,0.029208,-0.001061,0.000114,-0.001058,0.085037,-0.0,-0.0,2.0,0.282024,0.290071,0.282024,0.273633,,,,,,
89663,0.10757,-0.002794,0.029324,3e-06,0.000114,-0.001058,0.084916,-0.0,-0.0,2.0,0.282024,0.288479,0.282024,0.275349,,,,,,
89683,0.107568,-0.002923,0.029452,-0.001064,-0.001058,-0.000114,0.084633,-0.0,-0.0,2.0,0.282024,0.288722,0.282024,0.27509,,,,,,
89703,0.107445,-0.002934,0.029696,-0.001061,0.000114,-0.001058,0.084481,-0.0,-0.0,2.0,0.282024,0.290621,0.282024,0.273033,,,,,,
89723,0.107323,-0.002939,0.029819,-0.001061,-0.000944,-0.001172,0.084166,-0.0,-0.0,2.0,0.282024,0.289068,0.282024,0.274718,,,,,,
89743,0.107323,-0.002945,0.02994,-0.001061,-0.000944,-0.001172,0.083992,-0.0,-0.0,2.0,0.282024,0.289265,0.282024,0.274505,,,,,,
89763,0.107199,-0.003072,0.030069,-0.001061,0.000114,-0.001058,0.083677,-0.0,-0.0,2.0,0.282024,0.289467,0.282024,0.274287,,,,,,
89783,0.1072,-0.002957,0.030184,3e-06,-0.000944,-0.001172,0.083539,-0.0,-0.0,2.0,0.282024,0.289612,0.282024,0.274131,,,,,,
89803,0.107076,-0.003083,0.030313,-0.001061,-0.000944,-0.001172,0.083268,-0.0,-0.0,2.0,0.282024,0.291642,0.282024,0.27191,,,,,,
89823,0.107198,-0.003085,0.030313,3e-06,0.000114,-0.001058,0.082922,-0.0,-0.0,2.0,0.282024,0.291907,0.282024,0.271616,,,,,,
89843,0.107318,-0.003215,0.030441,0.0,-0.001058,-0.000114,0.082701,-0.0,-0.0,2.0,0.282024,0.290428,0.282024,0.273243,,,,,,
89863,0.107318,-0.003222,0.030563,-0.00106,-0.000944,-0.001172,0.0825,-0.0,-0.0,2.0,0.282024,0.290688,0.282024,0.272959,,,,,,
89883,0.107441,-0.003108,0.030678,-0.001061,0.000114,-0.001058,0.082293,-0.0,-0.0,2.0,0.282024,0.292643,0.282024,0.270797,,,,,,
89903,0.107443,-0.002986,0.030671,0.0,-0.001058,-0.000114,0.081826,-0.0,-0.0,2.0,0.282024,0.291227,0.282024,0.272368,,,,,,
89923,0.107197,-0.003111,0.0308,-0.001061,0.000114,-0.001058,0.081826,-0.0,-0.0,2.0,0.282024,0.291325,0.282024,0.27226,,,,,,
89943,0.107321,-0.002991,0.030793,-0.001061,0.000114,-0.001058,0.081405,-0.0,-0.0,2.0,0.282024,0.291582,0.282024,0.271976,,,,,,
89963,0.107199,-0.002996,0.030915,-0.001061,0.000114,-0.001058,0.080882,-0.0,-0.0,2.0,0.282024,0.291924,0.282024,0.271597,,,,,,
89983,0.107077,-0.002994,0.030916,-0.001064,0.0,0.0,0.080532,-0.0,-0.0,2.0,0.282024,0.292157,0.282024,0.271338,,,,,,
90003,0.106955,-0.002999,0.031038,-0.001061,0.000114,-0.001058,0.080164,-0.0,-0.0,2.0,0.282024,0.292399,0.282024,0.271069,,,,,,
90023,0.106954,-0.003005,0.03116,-0.001061,-0.000945,-0.001172,0.079764,-0.0,-0.0,2.0,0.282024,0.292699,0.282024,0.270734,,,,,,
90043,0.106954,-0.003005,0.03116,3e-06,0.000114,-0.001058,0.079468,-0.0,-0.0,2.0,0.282024,0.294685,0.282024,0.268488,,,,,,
90063,0.106956,-0.002883,0.031153,0.0,-0.001058,-0.000114,0.079093,-0.0,-0.0,2.0,0.282024,0.293257,0.282024,0.270108,,,,,,
90083,0.107078,-0.002892,0.031275,3e-06,-0.000944,-0.001172,0.078823,-0.0,-0.0,2.0,0.282024,0.295276,0.282024,0.267809,,,,,,
90103,0.107199,-0.0029,0.031396,3e-06,0.000114,-0.001058,0.078316,-0.0,-0.0,2.0,0.282024,0.295665,0.282024,0.267361,,,,,,
90123,0.107199,-0.0029,0.031396,-0.001061,0.000114,-0.001058,0.078055,-0.0,-0.0,2.0,0.282024,0.294203,0.282024,0.269037,,,,,,
90143,0.107199,-0.0029,0.031396,-0.001064,0.0,0.0,0.077586,-0.0,-0.0,2.0,0.282024,0.294499,0.282024,0.2687,,,,,,
90163,0.107077,-0.002905,0.031518,-0.001064,0.0,0.0,0.077143,-0.0,-0.0,2.0,0.282024,0.294782,0.282024,0.268377,,,,,,
90183,0.10671,-0.003021,0.031526,-0.001061,-0.000945,-0.001172,0.076924,-0.0,-0.0,2.0,0.282024,0.294978,0.282024,0.268151,,,,,,
90203,0.10671,-0.003014,0.031404,-0.001061,0.000113,-0.001058,0.0766,-0.0,-0.0,2.0,0.282024,0.296922,0.282024,0.265897,,,,,,
90223,0.10671,-0.003014,0.031404,0.0,0.0,0.0,0.076128,-0.0,-0.0,2.0,0.282024,0.29552,0.282024,0.267528,,,,,,
90243,0.106588,-0.003013,0.031404,-0.001064,0.0,0.0,0.075374,-0.0,-0.0,2.0,0.282024,0.295967,0.282024,0.267011,,,,,,
90263,0.106712,-0.002886,0.031276,-0.001061,-0.000945,-0.001172,0.075085,-0.0,-0.0,2.0,0.282024,0.297937,0.282024,0.264701,,,,,,
90283,0.106712,-0.00288,0.031154,0.0,0.0,0.0,0.074504,-0.0,-0.0,2.0,0.282024,0.296628,0.282024,0.266241,,,,,,
90303,0.106589,-0.002993,0.031039,-0.001064,0.0,0.0,0.074207,-0.0,-0.0,2.0,0.282024,0.296913,0.282024,0.265908,,,,,,
90323,0.106589,-0.002993,0.031039,-0.001064,0.0,0.0,0.073702,-0.0,-0.0,2.0,0.282024,0.298926,0.282024,0.263522,,,,,,
90343,0.106465,-0.003107,0.030924,-0.001061,-0.000945,-0.001171,0.073209,-0.0,-0.0,2.0,0.282024,0.297592,0.282024,0.265109,,,,,,
90363,0.106344,-0.003092,0.03068,-0.001064,0.0,0.0,0.0728,-0.0,-0.0,2.0,0.282024,0.297878,0.282024,0.26477,,,,,,
90383,0.106346,-0.002963,0.030552,-0.001064,0.0,0.0,0.072398,-0.0,-0.0,2.0,0.282024,0.298209,0.282024,0.264378,,,,,,
90403,0.106223,-0.003077,0.030437,-0.001064,-0.001058,-0.000113,0.071733,-0.0,-0.0,2.0,0.282024,0.298598,0.282024,0.263914,,,,,,
90423,0.106097,-0.002946,0.030304,-0.001061,0.000113,-0.001058,0.071362,-0.0,-0.0,2.0,0.282024,0.298869,0.282024,0.263589,,,,,,
90443,0.106097,-0.002933,0.03006,-0.001064,0.0,0.0,0.070649,-0.0,-0.0,2.0,0.282024,0.299317,0.282024,0.263051,,,,,,
90463,0.105852,-0.003045,0.029945,-0.001064,0.0,0.0,0.070281,-0.0,-0.0,2.0,0.282024,0.299598,0.282024,0.262712,,,,,,
90483,0.105608,-0.003035,0.029824,-0.001064,0.0,0.0,0.069713,-0.0,-0.0,2.0,0.282024,0.299871,0.282024,0.262382,,,,,,
90503,0.105365,-0.003025,0.029703,-0.001064,-0.001058,-0.000112,0.069157,-0.0,-0.0,2.0,0.282024,0.300217,0.282024,0.261961,,,,,,
90523,0.105,-0.003007,0.02946,-0.001061,-0.000947,-0.00117,0.068593,-0.0,-0.0,2.0,0.282024,0.300529,0.282024,0.261581,,,,,,
90543,0.104635,-0.002989,0.029217,-0.001064,0.0,0.0,0.068142,-0.0,-0.0,2.0,0.282024,0.29904,0.282024,0.263384,,,,,,
90563,0.104141,-0.002975,0.029091,-0.002128,0.0,0.0,0.067816,-0.0,-0.0,2.0,0.282024,0.29923,0.282024,0.263156,,,,,,
90583,0.103775,-0.002964,0.02897,-0.002128,-0.001058,-0.00011,0.067099,-0.0,-0.0,2.0,0.282024,0.301175,0.282024,0.260789,,,,,,
90603,0.103167,-0.002942,0.028728,-0.002125,-0.000949,-0.001168,0.066318,-0.0,-0.0,2.0,0.282024,0.299767,0.282024,0.262507,,,,,,
90623,0.102435,-0.002926,0.028607,-0.002128,0.0,0.0,0.065906,-0.0,-0.0,2.0,0.282024,0.299896,0.282024,0.262352,,,,,,
90643,0.10182,-0.002911,0.028482,-0.002128,0.0,0.0,0.065127,-0.0,-0.0,2.0,0.282024,0.300161,0.282024,0.262029,,,,,,
90663,0.10121,-0.002902,0.028483,-0.002128,0.0,0.0,0.064819,-0.0,-0.0,2.0,0.282024,0.300206,0.282024,0.261975,,,,,,
90683,0.100357,-0.002884,0.028363,-0.002125,0.000107,-0.001059,0.064181,-0.0,-0.0,2.0,0.282024,0.300322,0.282024,0.261834,,,,,,
90703,0.099376,-0.002858,0.028116,-0.002128,-0.001059,-0.000106,0.063865,-0.0,-0.0,2.0,0.282024,0.29869,0.282024,0.263803,,,,,,
90723,0.098401,-0.002844,0.028118,-0.003193,0.0,0.0,0.062872,-0.0,-0.0,2.0,0.282024,0.300566,0.282024,0.261536,,,,,,
90743,0.097426,-0.002825,0.027998,-0.003193,0.0,0.0,0.062872,-0.0,-0.0,2.0,0.282024,0.298647,0.282024,0.263855,,,,,,
90763,0.096201,-0.002808,0.027995,-0.003189,-0.000957,-0.001162,0.061581,-0.0,-0.0,2.0,0.282024,0.29895,0.282024,0.263492,,,,,,
90783,0.095104,-0.002792,0.027997,-0.00319,0.000101,-0.001059,0.061191,-0.0,-0.0,2.0,0.282024,0.298835,0.282024,0.26363,,,,,,
90803,0.093877,-0.002891,0.027879,-0.003193,0.0,0.0,0.06034,-0.0,-0.0,2.0,0.282024,0.298886,0.282024,0.26357,,,,,,
90823,0.092656,-0.002997,0.027886,-0.003192,-0.00106,-9.8e-05,0.059938,-0.0,-0.0,2.0,0.282024,0.298822,0.282024,0.263646,,,,,,
90843,0.091553,-0.002976,0.027761,-0.003192,-0.00106,-9.7e-05,0.059252,-0.0,-0.0,2.0,0.282024,0.298801,0.282024,0.26367,,,,,,
90863,0.090336,-0.002837,0.027758,-0.003192,-0.00106,-9.6e-05,0.058558,-0.0,-0.0,2.0,0.282024,0.298793,0.282024,0.26368,,,,,,
90883,0.088865,-0.002938,0.027761,-0.003189,-0.000966,-0.001154,0.058086,-0.0,-0.0,2.0,0.282024,0.298646,0.282024,0.263857,,,,,,
90903,0.087648,-0.0028,0.027757,-0.003192,-0.00106,-9.3e-05,0.058086,-0.0,-0.0,2.0,0.282024,0.298327,0.282024,0.264237,,,,,,
90923,0.086179,-0.002779,0.027755,-0.004257,0.0,0.0,0.056574,-0.0,-0.0,2.0,0.282024,0.298556,0.282024,0.263964,,,,,,
90943,0.084592,-0.002885,0.027884,-0.004254,9e-05,-0.00106,0.056024,-0.0,-0.0,2.0,0.282024,0.29665,0.282024,0.266216,,,,,,
90963,0.083123,-0.002864,0.027881,-0.004254,8.8e-05,-0.001061,0.055066,-0.0,-0.0,2.0,0.282024,0.296578,0.282024,0.2663,,,,,,
90983,0.081534,-0.003086,0.027893,-0.004254,8.7e-05,-0.001061,0.054543,-0.0,-0.0,2.0,0.282024,0.296384,0.282024,0.266526,,,,,,
91003,0.079822,-0.003067,0.028012,-0.004257,-0.001061,-8.5e-05,0.054074,-0.0,-0.0,2.0,0.282024,0.296082,0.282024,0.266878,,,,,,
91023,0.078236,-0.00305,0.028136,-0.004253,-0.000978,-0.001144,0.053229,-0.0,-0.0,2.0,0.282024,0.295955,0.282024,0.267025,,,,,,
91043,0.076525,-0.002904,0.028129,-0.004254,8.1e-05,-0.001061,0.052462,-0.0,-0.0,2.0,0.282024,0.295794,0.282024,0.267212,,,,,,
91063,0.074817,-0.002885,0.028253,-0.004254,-0.000982,-0.001141,0.05172,-0.0,-0.0,2.0,0.282024,0.295573,0.282024,0.267467,,,,,,
91083,0.073103,-0.002987,0.028376,-0.004254,7.8e-05,-0.001061,0.051313,-0.0,-0.0,2.0,0.282024,0.295217,0.282024,0.267877,,,,,,
91103,0.071395,-0.002967,0.0285,-0.004254,7.6e-05,-0.001062,0.050584,-0.0,-0.0,2.0,0.282024,0.294983,0.282024,0.268146,,,,,,
91123,0.069683,-0.002947,0.028618,-0.004257,0.0,0.0,0.04947,-0.0,-0.0,2.0,0.282024,0.294837,0.282024,0.268314,,,,,,
91143,0.067851,-0.003047,0.028746,-0.004254,7.2e-05,-0.001062,0.048918,-0.0,-0.0,2.0,0.282024,0.294523,0.282024,0.268672,,,,,,
91163,0.066137,-0.003145,0.028746,-0.004253,-0.000992,-0.001132,0.048441,-0.0,-0.0,2.0,0.282024,0.294167,0.282024,0.269078,,,,,,
91183,0.064307,-0.003123,0.02887,-0.004254,6.8e-05,-0.001062,0.047536,-0.0,-0.0,2.0,0.282024,0.293886,0.282024,0.269397,,,,,,
91203,0.062351,-0.003098,0.028988,-0.004257,0.0,0.0,0.046628,-0.0,-0.0,2.0,0.282024,0.293639,0.282024,0.269677,,,,,,
91223,0.060521,-0.003072,0.028989,-0.005318,-0.000998,-0.001127,0.045826,-0.0,-0.0,2.0,0.282024,0.293347,0.282024,0.270006,,,,,,
91243,0.058565,-0.003047,0.029107,-0.004253,-0.001,-0.001125,0.045435,-0.0,-0.0,2.0,0.282024,0.292843,0.282024,0.270573,,,,,,
91263,0.056613,-0.003019,0.029108,-0.004254,6e-05,-0.001063,0.044296,-0.0,-0.0,2.0,0.282024,0.290924,0.282024,0.272701,,,,,,
91283,0.054901,-0.002994,0.029104,-0.005321,-0.001063,-5.8e-05,0.043725,-0.0,-0.0,2.0,0.282024,0.292224,0.282024,0.271264,,,,,,
91303,0.052947,-0.003091,0.02923,-0.004254,5.6e-05,-0.001063,0.043184,-0.0,-0.0,2.0,0.282024,0.291759,0.282024,0.27178,,,,,,
91323,0.050994,-0.003063,0.02923,-0.004253,-0.001009,-0.001117,0.042153,-0.0,-0.0,2.0,0.282024,0.289763,0.282024,0.273967,,,,,,
91343,0.049163,-0.002914,0.029223,-0.004254,-0.001011,-0.001115,0.04159,-0.0,-0.0,2.0,0.282024,0.291087,0.282024,0.272522,,,,,,
91363,0.047454,-0.002892,0.029345,-0.004257,0.0,0.0,0.040725,-0.0,-0.0,2.0,0.282024,0.290776,0.282024,0.272863,,,,,,
91383,0.045503,-0.002744,0.029465,-0.004254,-0.001015,-0.001112,0.039901,-0.0,-0.0,2.0,0.282024,0.290437,0.282024,0.273233,,,,,,
91403,0.04367,-0.00272,0.029582,-0.004254,-0.001017,-0.00111,0.039083,-0.0,-0.0,2.0,0.282024,0.290085,0.282024,0.273618,,,,,,
91423,0.04196,-0.002814,0.029463,-0.004254,4.5e-05,-0.001063,0.038221,-0.0,-0.0,2.0,0.282024,0.289794,0.282024,0.273934,,,,,,
91443,0.040373,-0.002794,0.029585,-0.004257,0.0,0.0,0.037664,-0.0,-0.0,2.0,0.282024,0.289386,0.282024,0.274374,,,,,,
91463,0.038662,-0.002771,0.029702,-0.004254,4.1e-05,-0.001063,0.036679,-0.0,-0.0,2.0,0.282024,0.289176,0.282024,0.274601,,,,,,
91483,0.037198,-0.002749,0.029702,-0.004254,-0.001024,-0.001103,0.036243,-0.0,-0.0,2.0,0.282024,0.29046,0.282024,0.273209,,,,,,
91503,0.035611,-0.002725,0.029702,-0.00319,-0.001026,-0.001101,0.03543,-0.0,-0.0,2.0,0.282024,0.288461,0.282024,0.275369,,,,,,
91523,0.034148,-0.002582,0.0297,-0.004257,-0.001064,-3.6e-05,0.034312,-0.0,-0.0,2.0,0.282024,0.288387,0.282024,0.275448,,,,,,
91543,0.032808,-0.002442,0.02982,-0.00319,-0.001029,-0.001099,0.033397,-0.0,-0.0,2.0,0.282024,0.289896,0.282024,0.273822,,,,,,
91563,0.031465,-0.0023,0.029812,-0.00319,-0.00103,-0.001097,0.032912,-0.0,-0.0,2.0,0.282024,0.289571,0.282024,0.274175,,,,,,
91583,0.030122,-0.00228,0.029812,-0.00319,3.2e-05,-0.001064,0.031934,-0.0,-0.0,2.0,0.282024,0.28947,0.282024,0.274285,,,,,,
91603,0.0289,-0.002384,0.029814,-0.003193,-0.001064,-3.1e-05,0.031486,-0.0,-0.0,2.0,0.282024,0.289168,0.282024,0.27461,,,,,,
91623,0.027678,-0.002489,0.029937,-0.003193,0.0,0.0,0.03047,-0.0,-0.0,2.0,0.282024,0.289037,0.282024,0.274751,,,,,,
91643,0.026455,-0.002595,0.030061,-0.00319,2.8e-05,-0.001064,0.029742,-0.0,-0.0,2.0,0.282024,0.288831,0.282024,0.274972,,,,,,
91663,0.025355,-0.0027,0.030062,-0.00319,2.7e-05,-0.001064,0.028477,-0.0,-0.0,2.0,0.282024,0.288879,0.282024,0.274921,,,,,,
91683,0.024376,-0.002809,0.030185,-0.002128,0.0,0.0,0.027767,-0.0,-0.0,2.0,0.282024,0.288766,0.282024,0.275042,,,,,,
91703,0.023278,-0.002794,0.030307,-0.002125,2.5e-05,-0.001064,0.027234,-0.0,-0.0,2.0,0.282024,0.290294,0.282024,0.273389,,,,,,
91723,0.022546,-0.002661,0.030299,-0.002126,-0.00104,-0.001088,0.026268,-0.0,-0.0,2.0,0.282024,0.290313,0.282024,0.273369,,,,,,
91743,0.021815,-0.002529,0.03042,-0.002126,-0.001041,-0.001087,0.025384,-0.0,-0.0,2.0,0.282024,0.290402,0.282024,0.273272,,,,,,
91763,0.021085,-0.002396,0.030418,-0.002126,2.2e-05,-0.001064,0.024944,-0.0,-0.0,2.0,0.282024,0.290228,0.282024,0.273461,,,,,,
91783,0.020474,-0.002388,0.03054,-0.002128,-0.001064,-2.2e-05,0.023587,-0.0,-0.0,2.0,0.282024,0.290493,0.282024,0.273172,,,,,,
91803,0.019986,-0.002382,0.030662,-0.002126,2.1e-05,-0.001064,0.023587,-0.0,-0.0,2.0,0.282024,0.290292,0.282024,0.273392,,,,,,
91823,0.019254,-0.002372,0.030783,-0.002126,2e-05,-0.001064,0.021905,-0.0,-0.0,2.0,0.282024,0.290631,0.282024,0.273022,,,,,,
91843,0.018641,-0.002485,0.030906,-0.002126,2e-05,-0.001064,0.021191,-0.0,-0.0,2.0,0.282024,0.290661,0.282024,0.272989,,,,,,
91863,0.018031,-0.002477,0.031028,-0.002126,1.9e-05,-0.001064,0.020478,-0.0,-0.0,2.0,0.282024,0.290733,0.282024,0.27291,,,,,,
91883,0.017421,-0.002468,0.031027,-0.002126,1.9e-05,-0.001064,0.019387,-0.0,-0.0,2.0,0.282024,0.290854,0.282024,0.272777,,,,,,
91903,0.016686,-0.002579,0.03115,-0.002128,-0.001064,-1.8e-05,0.018466,-0.0,-0.0,2.0,0.282024,0.290967,0.282024,0.272654,,,,,,
91923,0.015956,-0.002447,0.031271,-0.002126,-0.001047,-0.001081,0.01755,-0.0,-0.0,2.0,0.282024,0.29103,0.282024,0.272584,,,,,,
91943,0.015223,-0.002435,0.03127,-0.002126,-0.001048,-0.00108,0.016863,-0.0,-0.0,2.0,0.282024,0.290961,0.282024,0.27266,,,,,,
91963,0.014369,-0.002422,0.03127,-0.002126,-0.001049,-0.001079,0.016356,-0.0,-0.0,2.0,0.282024,0.290868,0.282024,0.272762,,,,,,
91983,0.013516,-0.002288,0.03139,-0.00319,-0.00105,-0.001079,0.014969,-0.0,-0.0,2.0,0.282024,0.291057,0.282024,0.272555,,,,,,
92003,0.01242,-0.002148,0.031389,-0.00319,-0.001051,-0.001077,0.014492,-0.0,-0.0,2.0,0.282024,0.289065,0.282024,0.27472,,,,,,
92023,0.011319,-0.002254,0.031511,-0.00319,1.2e-05,-0.001064,0.013607,-0.0,-0.0,2.0,0.282024,0.288972,0.282024,0.274821,,,,,,
92043,0.010098,-0.002235,0.03151,-0.00319,1.1e-05,-0.001064,0.012921,-0.0,-0.0,2.0,0.282024,0.288808,0.282024,0.274997,,,,,,
92063,0.008756,-0.002213,0.031509,-0.004257,-0.001064,-9e-06,0.011861,-0.0,-0.0,2.0,0.282024,0.288688,0.282024,0.275126,,,,,,
92083,0.007169,-0.002189,0.03163,-0.004255,-0.001057,-0.001072,0.010953,-0.0,-0.0,2.0,0.282024,0.286639,0.282024,0.277298,,,,,,
92103,0.005582,-0.002164,0.03175,-0.004255,-0.001058,-0.00107,0.010041,-0.0,-0.0,2.0,0.282024,0.286404,0.282024,0.277544,,,,,,
92123,0.003873,-0.002137,0.031749,-0.005319,-0.00106,-0.001068,0.009031,-0.0,-0.0,2.0,0.282024,0.286117,0.282024,0.277844,,,,,,
92143,0.0018,-0.001982,0.031991,-0.004257,-0.001064,-2e-06,0.009031,-0.0,-0.0,2.0,0.282024,0.285287,0.282024,0.278706,,,,,,
92163,-0.000154,-0.001951,0.032233,-0.005319,-0.001064,-0.001064,0.007404,-0.0,-0.0,2.0,0.282024,0.28332,0.282024,0.280719,,,,,,
92183,-0.002349,-0.001793,0.032353,-0.005319,-0.001067,-0.001062,0.006646,-0.0,-0.0,2.0,0.282024,0.28276,0.282024,0.281286,,,,,,
92203,-0.004546,-0.001758,0.032473,-0.005319,-0.001069,-0.001059,0.00609,-0.0,-0.0,2.0,0.282024,0.28202,0.282024,0.282028,,,,,,
92223,-0.006867,-0.001841,0.032836,-0.005319,-7e-06,-0.001064,0.00484,-0.0,-0.0,2.0,0.282024,0.28159,0.282024,0.282457,,,,,,
92243,-0.009065,-0.001803,0.033077,-0.006383,-0.001074,-0.001055,0.00381,-0.0,-0.0,2.0,0.282024,0.281016,0.282024,0.283027,,,,,,
92263,-0.011628,-0.00176,0.033318,-0.006384,-0.001077,-0.001052,0.002861,-0.0,-0.0,2.0,0.282024,0.280351,0.282024,0.283683,,,,,,
92283,-0.014069,-0.001717,0.033558,-0.005319,-1.5e-05,-0.001064,0.002403,-0.0,-0.0,2.0,0.282024,0.27762,0.282024,0.286331,,,,,,
92303,-0.01663,-0.00155,0.033799,-0.006384,-0.001082,-0.001046,0.00168,-0.0,-0.0,2.0,0.282024,0.276832,0.282024,0.287082,,,,,,
92323,-0.019073,-0.001505,0.034168,-0.006384,-0.001084,-0.001044,0.000849,-0.0,-0.0,2.0,0.282024,0.276023,0.282024,0.287847,,,,,,
92343,-0.021758,-0.001457,0.034407,-0.006384,-2.3e-05,-0.001064,-0.000258,-0.0,-0.0,2.0,0.282024,0.275265,0.282024,0.288558,,,,,,
92363,-0.024441,-0.001285,0.034648,-0.006384,-0.00109,-0.001038,-0.001505,-0.0,-0.0,2.0,0.282024,0.274602,0.282024,0.289175,,,,,,
92383,-0.027126,-0.001236,0.034888,-0.006384,-0.001093,-0.001035,-0.00212,-0.0,-0.0,2.0,0.282024,0.273617,0.282024,0.290086,,,,,,
92403,-0.029691,-0.001187,0.035133,-0.006384,-3.2e-05,-0.001064,-0.003102,-0.0,-0.0,2.0,0.282024,0.272765,0.282024,0.290865,,,,,,
92423,-0.032254,-0.001138,0.035372,-0.006383,-6.9e-05,-0.002127,-0.004018,-0.0,-0.0,2.0,0.282024,0.273838,0.282024,0.289882,,,,,,
92443,-0.034699,-0.001213,0.035615,-0.00532,-3.7e-05,-0.001064,-0.004958,-0.0,-0.0,2.0,0.282024,0.27305,0.282024,0.290605,,,,,,
92463,-0.037137,-0.001043,0.035856,-0.00532,-0.001103,-0.001024,-0.005416,-0.0,-0.0,2.0,0.282024,0.272051,0.282024,0.291514,,,,,,
92483,-0.039334,-0.000996,0.036217,-0.00532,-0.001105,-0.001022,-0.006035,-0.0,-0.0,2.0,0.282024,0.271201,0.282024,0.29228,,,,,,
92503,-0.041531,-0.000831,0.036343,-0.00532,-0.001107,-0.001019,-0.007351,-0.0,-0.0,2.0,0.282024,0.27063,0.282024,0.292791,,,,,,
92523,-0.043725,-0.000664,0.036585,-0.00532,-0.00111,-0.001017,-0.007853,-0.0,-0.0,2.0,0.282024,0.269659,0.282024,0.293654,,,,,,
92543,-0.04568,-0.000623,0.036831,-0.004256,-0.001112,-0.001015,-0.009063,-0.0,-0.0,2.0,0.282024,0.269127,0.282024,0.294124,,,,,,
92563,-0.047632,-0.000581,0.03707,-0.004256,-5.1e-05,-0.001063,-0.009728,-0.0,-0.0,2.0,0.282024,0.270306,0.282024,0.293081,,,,,,
92583,-0.049219,-0.000548,0.037188,-0.004257,0.0,0.0,-0.010811,-0.0,-0.0,2.0,0.282024,0.269761,0.282024,0.293564,,,,,,
92603,-0.050442,-0.000519,0.037435,-0.003192,-0.001117,-0.001009,-0.011721,-0.0,-0.0,2.0,0.282024,0.269287,0.282024,0.293983,,,,,,
92623,-0.052274,-0.000601,0.037671,-0.003192,-0.001118,-0.001007,-0.012632,-0.0,-0.0,2.0,0.282024,0.270759,0.282024,0.292677,,,,,,
92643,-0.05337,-0.000455,0.037793,-0.003192,-0.001119,-0.001006,-0.013678,-0.0,-0.0,2.0,0.282024,0.270443,0.282024,0.292959,,,,,,
92663,-0.054591,-0.000306,0.037922,-0.002128,-0.001121,-0.001005,-0.014422,-0.0,-0.0,2.0,0.282024,0.27005,0.282024,0.293308,,,,,,
92683,-0.055321,-0.000167,0.038045,-0.002128,-0.001121,-0.001004,-0.015312,-0.0,-0.0,2.0,0.282024,0.271702,0.282024,0.291829,,,,,,
92703,-0.056053,-0.000146,0.038287,-0.001064,-6e-05,-0.001063,-0.015933,-0.0,-0.0,2.0,0.282024,0.271409,0.282024,0.292093,,,,,,
92723,-0.056663,-0.000134,0.038285,-0.002128,-6e-05,-0.001063,-0.017141,-0.0,-0.0,2.0,0.282024,0.271463,0.282024,0.292044,,,,,,
92743,-0.056785,-0.000129,0.038407,-0.001064,-0.001123,-0.001002,-0.017741,-0.0,-0.0,2.0,0.282024,0.273239,0.282024,0.290432,,,,,,
92763,-0.057153,-0.00024,0.038524,-0.001064,-0.001062,6.1e-05,-0.018655,-0.0,-0.0,2.0,0.282024,0.273227,0.282024,0.290443,,,,,,
92783,-0.057272,-0.000112,0.038649,-0.001064,-6.1e-05,-0.001062,-0.019559,-0.0,-0.0,2.0,0.282024,0.273315,0.282024,0.290363,,,,,,
92803,-0.05727,1e-05,0.038653,-0.001064,-6.1e-05,-0.001062,-0.020473,-0.0,-0.0,2.0,0.282024,0.273462,0.282024,0.290228,,,,,,
92823,-0.057268,0.000132,0.038656,0.0,-0.001062,6.1e-05,-0.020473,-0.0,-0.0,2.0,0.282024,0.27514,0.282024,0.288675,,,,,,
92843,-0.057268,0.000135,0.038778,-0.0,-6.1e-05,-0.001062,-0.022015,-0.0,-0.0,2.0,0.282024,0.275549,0.282024,0.288293,,,,,,
92863,-0.057146,0.000129,0.038657,0.0,0.0,0.0,-0.022539,-0.0,-0.0,2.0,0.282024,0.273702,0.282024,0.290008,,,,,,
92883,-0.057024,0.00013,0.038779,-0.001064,0.0,0.0,-0.023793,-0.0,-0.0,2.0,0.282024,0.274056,0.282024,0.289681,,,,,,
92903,-0.057146,0.000136,0.038901,-0.001064,0.0,0.0,-0.024394,-0.0,-0.0,2.0,0.282024,0.27405,0.282024,0.289687,,,,,,
92923,-0.057268,0.000139,0.0389,-0.001064,-6.1e-05,-0.001062,-0.025525,-0.0,-0.0,2.0,0.282024,0.274266,0.282024,0.289487,,,,,,
92943,-0.057265,0.000261,0.038904,-0.001065,-6.1e-05,-0.001062,-0.026422,-0.0,-0.0,2.0,0.282024,0.274492,0.282024,0.289278,,,,,,
92963,-0.057263,0.000379,0.038785,-0.001064,-0.001062,6.1e-05,-0.02688,-0.0,-0.0,2.0,0.282024,0.274444,0.282024,0.289322,,,,,,
92983,-0.057263,0.000383,0.038907,0.0,-0.001062,6.1e-05,-0.02803,-0.0,-0.0,2.0,0.282024,0.274731,0.282024,0.289056,,,,,,
93003,-0.057263,0.000386,0.039029,-0.0,-6.1e-05,-0.001062,-0.028871,-0.0,-0.0,2.0,0.282024,0.2749,0.282024,0.288899,,,,,,
93023,-0.05726,0.000505,0.038911,0.0,0.0,0.0,-0.029696,-0.0,-0.0,2.0,0.282024,0.275067,0.282024,0.288743,,,,,,
93043,-0.05726,0.000508,0.039033,0.0,-0.001062,6.1e-05,-0.03031,-0.0,-0.0,2.0,0.282024,0.275151,0.282024,0.288664,,,,,,
93063,-0.057141,0.000384,0.039029,0.0,-0.001062,6.1e-05,-0.030859,-0.0,-0.0,2.0,0.282024,0.275211,0.282024,0.288609,,,,,,
93083,-0.05726,0.000508,0.039033,-0.001064,0.0,0.0,-0.032052,-0.0,-0.0,2.0,0.282024,0.275541,0.282024,0.288299,,,,,,
93103,-0.057382,0.000514,0.039154,-0.001064,-0.001062,6.1e-05,-0.032914,-0.0,-0.0,2.0,0.282024,0.275692,0.282024,0.288158,,,,,,
93123,-0.057504,0.00052,0.039276,-0.001065,-0.001124,-0.001001,-0.033765,-0.0,-0.0,2.0,0.282024,0.275842,0.282024,0.288018,,,,,,
93143,-0.057502,0.000642,0.039279,-0.001065,-6.1e-05,-0.001062,-0.034186,-0.0,-0.0,2.0,0.282024,0.27587,0.282024,0.287991,,,,,,
93163,-0.057624,0.000648,0.039401,-0.001064,0.0,0.0,-0.035125,-0.0,-0.0,2.0,0.282024,0.277938,0.282024,0.286027,,,,,,
93183,-0.057626,0.000529,0.039519,-0.001065,-0.001124,-0.001001,-0.035873,-0.0,-0.0,2.0,0.282024,0.276233,0.282024,0.28765,,,,,,
93203,-0.057629,0.000533,0.039648,-0.001065,-6.1e-05,-0.001062,-0.03671,-0.0,-0.0,2.0,0.282024,0.276441,0.282024,0.287452,,,,,,
93223,-0.057751,0.000535,0.039648,-0.001064,0.0,0.0,-0.037364,-0.0,-0.0,2.0,0.282024,0.276533,0.282024,0.287365,,,,,,
93243,-0.057749,0.000661,0.039774,-0.001065,-0.001124,-0.001001,-0.038363,-0.0,-0.0,2.0,0.282024,0.276816,0.282024,0.287098,,,,,,
93263,-0.057751,0.000543,0.039892,-0.001065,-0.001124,-0.001001,-0.03934,-0.0,-0.0,2.0,0.282024,0.277095,0.282024,0.286832,,,,,,
93283,-0.057995,0.000551,0.040013,-0.001065,-6.2e-05,-0.001062,-0.039769,-0.0,-0.0,2.0,0.282024,0.27706,0.282024,0.286866,,,,,,
93303,-0.057995,0.000551,0.040013,-0.001065,-6.2e-05,-0.001062,-0.040622,-0.0,-0.0,2.0,0.282024,0.277297,0.282024,0.28664,,,,,,
93323,-0.058239,0.000559,0.040135,-0.001065,-0.001124,-0.001,-0.041452,-0.0,-0.0,2.0,0.282024,0.27743,0.282024,0.286514,,,,,,
93343,-0.058363,0.000443,0.040253,-0.001065,-6.2e-05,-0.001062,-0.04189,-0.0,-0.0,2.0,0.282024,0.277456,0.282024,0.286488,,,,,,
93363,-0.058607,0.000448,0.040252,-0.001065,-6.2e-05,-0.001062,-0.042519,-0.0,-0.0,2.0,0.282024,0.277513,0.282024,0.286433,,,,,,
93383,-0.058971,0.000581,0.040376,-0.001065,-0.001125,-0.001,-0.043873,-0.0,-0.0,2.0,0.282024,0.277816,0.282024,0.286143,,,,,,
93403,-0.059215,0.00059,0.040498,-0.001064,-0.001062,6.3e-05,-0.044345,-0.0,-0.0,2.0,0.282024,0.277818,0.282024,0.286142,,,,,,
93423,-0.059702,0.000603,0.040618,-0.001065,-6.3e-05,-0.001062,-0.045344,-0.0,-0.0,2.0,0.282024,0.277937,0.282024,0.286028,,,,,,
93443,-0.060068,0.000611,0.040617,-0.002129,-6.4e-05,-0.001062,-0.045785,-0.0,-0.0,2.0,0.282024,0.276008,0.282024,0.287861,,,,,,
93463,-0.060556,0.000624,0.040738,-0.001064,-0.001062,6.4e-05,-0.046589,-0.0,-0.0,2.0,0.282024,0.276052,0.282024,0.287819,,,,,,
93483,-0.061172,0.000519,0.040862,-0.002129,-6.5e-05,-0.001062,-0.04737,-0.0,-0.0,2.0,0.282024,0.276035,0.282024,0.287836,,,,,,
93503,-0.06178,0.000657,0.040986,-0.002129,-6.6e-05,-0.001062,-0.048359,-0.0,-0.0,2.0,0.282024,0.276109,0.282024,0.287766,,,,,,
93523,-0.06239,0.000669,0.040984,-0.002129,-0.001129,-0.000996,-0.049028,-0.0,-0.0,2.0,0.282024,0.276054,0.282024,0.287818,,,,,,
93543,-0.063243,0.000695,0.041225,-0.002129,-6.7e-05,-0.001062,-0.049519,-0.0,-0.0,2.0,0.282024,0.275825,0.282024,0.288033,,,,,,
93563,-0.064097,0.000716,0.041345,-0.002129,-6.8e-05,-0.001062,-0.050125,-0.0,-0.0,2.0,0.282024,0.275742,0.282024,0.288111,,,,,,
93583,-0.064711,0.000733,0.041472,-0.002129,-0.001131,-0.000993,-0.051123,-0.0,-0.0,2.0,0.282024,0.275719,0.282024,0.288133,,,,,,
93603,-0.065687,0.000757,0.041591,-0.002129,-0.001132,-0.000992,-0.051636,-0.0,-0.0,2.0,0.282024,0.275447,0.282024,0.288387,,,,,,
93623,-0.066538,0.000905,0.041836,-0.003194,-7.1e-05,-0.001062,-0.052372,-0.0,-0.0,2.0,0.282024,0.273416,0.282024,0.29027,,,,,,
93643,-0.067516,0.000803,0.041829,-0.003194,-7.2e-05,-0.001062,-0.053103,-0.0,-0.0,2.0,0.282024,0.275131,0.282024,0.288683,,,,,,
93663,-0.068737,0.000959,0.042081,-0.003194,-0.001135,-0.000989,-0.053863,-0.0,-0.0,2.0,0.282024,0.272951,0.282024,0.290696,,,,,,
93683,-0.069834,0.000991,0.042321,-0.003194,-0.001136,-0.000987,-0.054347,-0.0,-0.0,2.0,0.282024,0.272606,0.282024,0.29101,,,,,,
93703,-0.071058,0.001026,0.042569,-0.003194,-7.6e-05,-0.001062,-0.055162,-0.0,-0.0,2.0,0.282024,0.272342,0.282024,0.29125,,,,,,
93723,-0.072278,0.001056,0.042687,-0.003193,0.0,0.0,-0.055989,-0.0,-0.0,2.0,0.282024,0.272083,0.282024,0.291485,,,,,,
93743,-0.073741,0.001101,0.043047,-0.003194,-0.00114,-0.000983,-0.056543,-0.0,-0.0,2.0,0.282024,0.271605,0.282024,0.291917,,,,,,
93763,-0.075211,0.00102,0.043289,-0.004258,-0.001141,-0.000981,-0.057026,-0.0,-0.0,2.0,0.282024,0.269142,0.282024,0.29411,,,,,,
93783,-0.076672,0.001178,0.043411,-0.003194,-8.2e-05,-0.001061,-0.057841,-0.0,-0.0,2.0,0.282024,0.268757,0.282024,0.294449,,,,,,
93803,-0.078264,0.001105,0.043774,-0.004258,-8.3e-05,-0.001061,-0.058559,-0.0,-0.0,2.0,0.282024,0.268269,0.282024,0.294876,,,,,,
93823,-0.079727,0.001151,0.044133,-0.004258,-0.001146,-0.000976,-0.059253,-0.0,-0.0,2.0,0.282024,0.267817,0.282024,0.295269,,,,,,
93843,-0.081317,0.001197,0.044379,-0.003195,-0.000173,-0.002121,-0.05978,-0.0,-0.0,2.0,0.282024,0.267237,0.282024,0.295772,,,,,,
93863,-0.082785,0.001239,0.044625,-0.003194,-8.8e-05,-0.001061,-0.060243,-0.0,-0.0,2.0,0.282024,0.266672,0.282024,0.296259,,,,,,
93883,-0.084247,0.001287,0.044985,-0.003194,-0.00115,-0.000971,-0.061196,-0.0,-0.0,2.0,0.282024,0.268286,0.282024,0.294861,,,,,,
93903,-0.085591,0.00145,0.045236,-0.003194,-0.001151,-0.000969,-0.061621,-0.0,-0.0,2.0,0.282024,0.267748,0.282024,0.29533,,,,,,
93923,-0.087053,0.001499,0.045596,-0.003196,-0.000185,-0.00212,-0.062445,-0.0,-0.0,2.0,0.282024,0.267328,0.282024,0.295693,,,,,,
93943,-0.088155,0.001535,0.045843,-0.003193,0.0,0.0,-0.06285,-0.0,-0.0,2.0,0.282024,0.266876,0.282024,0.296084,,,,,,
93963,-0.089374,0.001579,0.046203,-0.003194,-0.001155,-0.000965,-0.063494,-0.0,-0.0,2.0,0.282024,0.266469,0.282024,0.296433,,,,,,
93983,-0.09072,0.001622,0.046449,-0.003194,-9.6e-05,-0.00106,-0.064125,-0.0,-0.0,2.0,0.282024,0.265995,0.282024,0.296839,,,,,,
94003,-0.091942,0.001539,0.046682,-0.003194,-9.8e-05,-0.00106,-0.064744,-0.0,-0.0,2.0,0.282024,0.26557,0.282024,0.297201,,,,,,
94023,-0.093044,0.001576,0.046929,-0.003194,-9.9e-05,-0.00106,-0.065159,-0.0,-0.0,2.0,0.282024,0.2651,0.282024,0.2976,,,,,,
94043,-0.094137,0.001741,0.047294,-0.003194,-0.00116,-0.000959,-0.065504,-0.0,-0.0,2.0,0.282024,0.26659,0.282024,0.296329,,,,,,
94063,-0.095118,0.001776,0.047542,-0.00213,-0.00116,-0.000958,-0.066163,-0.0,-0.0,2.0,0.282024,0.266267,0.282024,0.296606,,,,,,
94083,-0.09609,0.001933,0.047787,-0.002133,-0.000204,-0.002119,-0.067034,-0.0,-0.0,2.0,0.282024,0.264044,0.282024,0.298489,,,,,,
94103,-0.096943,0.001959,0.047904,-0.003193,0.0,0.0,-0.067492,-0.0,-0.0,2.0,0.282024,0.265688,0.282024,0.2971,,,,,,
94123,-0.097923,0.002001,0.048274,-0.00213,-0.001163,-0.000955,-0.068127,-0.0,-0.0,2.0,0.282024,0.265352,0.282024,0.297386,,,,,,
94143,-0.098772,0.002161,0.048641,-0.002133,-0.001269,-0.002013,-0.068711,-0.0,-0.0,2.0,0.282024,0.265043,0.282024,0.297648,,,,,,
94163,-0.09951,0.002185,0.048768,-0.002131,-0.000106,-0.001059,-0.069277,-0.0,-0.0,2.0,0.282024,0.262771,0.282024,0.299549,,,,,,
94183,-0.100365,0.002096,0.049001,-0.002128,0.0,0.0,-0.069555,-0.0,-0.0,2.0,0.282024,0.264336,0.282024,0.298244,,,,,,
94203,-0.101093,0.002255,0.049369,-0.002131,-0.001166,-0.000951,-0.070313,-0.0,-0.0,2.0,0.282024,0.264151,0.282024,0.298399,,,,,,
94223,-0.101829,0.002285,0.049617,-0.002131,-0.001167,-0.000951,-0.070814,-0.0,-0.0,2.0,0.282024,0.263845,0.282024,0.298656,,,,,,
94243,-0.102804,0.002316,0.049734,-0.002133,-0.000218,-0.002117,-0.071237,-0.0,-0.0,2.0,0.282024,0.263414,0.282024,0.299015,,,,,,
94263,-0.103413,0.002344,0.049974,-0.002128,0.0,0.0,-0.071593,-0.0,-0.0,2.0,0.282024,0.263095,0.282024,0.299281,,,,,,
94283,-0.104025,0.002494,0.05023,-0.002131,-0.000111,-0.001058,-0.072293,-0.0,-0.0,2.0,0.282024,0.26494,0.282024,0.297735,,,,,,
94303,-0.104755,0.002525,0.050469,-0.001067,-0.00117,-0.000947,-0.072848,-0.0,-0.0,2.0,0.282024,0.26264,0.282024,0.299657,,,,,,
94323,-0.105361,0.002668,0.050594,-0.00107,-0.001282,-0.002005,-0.073101,-0.0,-0.0,2.0,0.282024,0.262283,0.282024,0.299952,,,,,,
94343,-0.105736,0.002556,0.050595,-0.002128,0.0,0.0,-0.07361,-0.0,-0.0,2.0,0.282024,0.262137,0.282024,0.300072,,,,,,
94363,-0.10622,0.002703,0.050842,-0.001064,0.0,0.0,-0.073942,-0.0,-0.0,2.0,0.282024,0.263879,0.282024,0.298627,,,,,,
94383,-0.106707,0.002722,0.050961,-0.001067,-0.001172,-0.000945,-0.074403,-0.0,-0.0,2.0,0.282024,0.263654,0.282024,0.298815,,,,,,
94403,-0.107073,0.002731,0.050959,-0.001067,-0.001172,-0.000944,-0.075022,-0.0,-0.0,2.0,0.282024,0.261534,0.282024,0.300567,,,,,,
94423,-0.10732,0.002616,0.050952,-0.001064,0.0,0.0,-0.075397,-0.0,-0.0,2.0,0.282024,0.263416,0.282024,0.299014,,,,,,
94443,-0.107566,0.002751,0.051088,-0.001064,0.0,0.0,-0.07594,-0.0,-0.0,2.0,0.282024,0.263334,0.282024,0.299082,,,,,,
94463,-0.107688,0.00276,0.051209,-0.001067,-0.001172,-0.000944,-0.076254,-0.0,-0.0,2.0,0.282024,0.263212,0.282024,0.299183,,,,,,
94483,-0.107813,0.002635,0.05108,-2e-06,-0.001173,-0.000944,-0.076704,-0.0,-0.0,2.0,0.282024,0.26315,0.282024,0.299235,,,,,,
94503,-0.107939,0.00251,0.050951,-0.001064,0.0,0.0,-0.077168,-0.0,-0.0,2.0,0.282024,0.263106,0.282024,0.299271,,,,,,
94523,-0.107939,0.00251,0.050951,-0.001062,0.000115,0.001058,-0.077384,-0.0,-0.0,2.0,0.282024,0.262991,0.282024,0.299367,,,,,,
94543,-0.107935,0.002638,0.051079,-2e-06,-0.001173,-0.000943,-0.077993,-0.0,-0.0,2.0,0.282024,0.265071,0.282024,0.297624,,,,,,
94563,-0.107936,0.002631,0.050957,-2e-06,-0.001173,-0.000943,-0.078351,-0.0,-0.0,2.0,0.282024,0.265033,0.282024,0.297656,,,,,,
94583,-0.107936,0.002618,0.050714,-0.001064,-0.001058,0.000115,-0.078609,-0.0,-0.0,2.0,0.282024,0.262954,0.282024,0.299398,,,,,,
94603,-0.107937,0.002612,0.050592,-0.001061,0.000115,0.001058,-0.079181,-0.0,-0.0,2.0,0.282024,0.263008,0.282024,0.299352,,,,,,
94623,-0.108058,0.002615,0.050592,-0.001064,0.0,0.0,-0.079483,-0.0,-0.0,2.0,0.282024,0.264908,0.282024,0.297762,,,,,,
94643,-0.108059,0.002608,0.05047,-2e-06,-0.001173,-0.000943,-0.079906,-0.0,-0.0,2.0,0.282024,0.264908,0.282024,0.297762,,,,,,
94663,-0.108063,0.002467,0.050098,-2e-06,-0.001173,-0.000943,-0.080271,-0.0,-0.0,2.0,0.282024,0.262881,0.282024,0.299458,,,,,,
94683,-0.107932,0.002579,0.049975,-0.001061,0.000115,0.001058,-0.080451,-0.0,-0.0,2.0,0.282024,0.262831,0.282024,0.2995,,,,,,
94703,-0.107929,0.002694,0.049859,-0.001064,0.0,0.0,-0.080802,-0.0,-0.0,2.0,0.282024,0.264815,0.282024,0.29784,,,,,,
94723,-0.108048,0.002812,0.049744,-3e-06,-0.001173,-0.000943,-0.080977,-0.0,-0.0,2.0,0.282024,0.264665,0.282024,0.297967,,,,,,
94743,-0.108049,0.002799,0.0495,0.0,0.0,0.0,-0.08132,-0.0,-0.0,2.0,0.282024,0.262629,0.282024,0.299667,,,,,,
94763,-0.108053,0.002657,0.049129,-0.001061,0.000115,0.001058,-0.081786,-0.0,-0.0,2.0,0.282024,0.262663,0.282024,0.299638,,,,,,
94783,-0.10805,0.002779,0.049135,-0.001064,-0.001058,0.000115,-0.082057,-0.0,-0.0,2.0,0.282024,0.264617,0.282024,0.298007,,,,,,
94803,-0.108047,0.002894,0.04902,-3e-06,-0.001173,-0.000943,-0.082288,-0.0,-0.0,2.0,0.282024,0.26455,0.282024,0.298064,,,,,,
94823,-0.10817,0.002878,0.048654,-3e-06,-0.001173,-0.000943,-0.08265,-0.0,-0.0,2.0,0.282024,0.262477,0.282024,0.299792,,,,,,
94843,-0.108052,0.00274,0.048405,-0.001064,0.0,0.0,-0.082939,-0.0,-0.0,2.0,0.282024,0.262495,0.282024,0.299777,,,,,,
94863,-0.107927,0.002852,0.04829,-0.001061,0.000115,0.001058,-0.083223,-0.0,-0.0,2.0,0.282024,0.262505,0.282024,0.299769,,,,,,
94883,-0.108046,0.002977,0.048296,-3e-06,-0.001173,-0.000943,-0.083367,-0.0,-0.0,2.0,0.282024,0.264367,0.282024,0.298218,,,,,,
94903,-0.108047,0.002964,0.048053,-3e-06,-0.001173,-0.000943,-0.083629,-0.0,-0.0,2.0,0.282024,0.264328,0.282024,0.298251,,,,,,
94923,-0.108051,0.002822,0.047681,-0.001064,0.0,0.0,-0.083975,-0.0,-0.0,2.0,0.282024,0.262305,0.282024,0.299934,,,,,,
94943,-0.108176,0.002696,0.047552,-0.001061,0.000115,0.001058,-0.084174,-0.0,-0.0,2.0,0.282024,0.262175,0.282024,0.300041,,,,,,
94963,-0.108173,0.002818,0.047559,-0.001064,-0.001058,0.000115,-0.084474,-0.0,-0.0,2.0,0.282024,0.264167,0.282024,0.298386,,,,,,
94983,-0.108295,0.002808,0.047315,-3e-06,-0.001173,-0.000943,-0.084623,-0.0,-0.0,2.0,0.282024,0.264031,0.282024,0.2985,,,,,,
95003,-0.108421,0.002676,0.047064,-0.001064,0.0,0.0,-0.084849,-0.0,-0.0,2.0,0.282024,0.261903,0.282024,0.300265,,,,,,
95023,-0.108299,0.002666,0.046943,-0.001061,0.000115,0.001058,-0.085068,-0.0,-0.0,2.0,0.282024,0.261894,0.282024,0.300273,,,,,,
95043,-0.108056,0.002661,0.046944,-0.001064,0.0,0.0,-0.085278,-0.0,-0.0,2.0,0.282024,0.263959,0.282024,0.298561,,,,,,
95063,-0.108175,0.002772,0.046707,-3e-06,-0.001173,-0.000943,-0.085278,-0.0,-0.0,2.0,0.282024,0.263759,0.282024,0.298728,,,,,,
95083,-0.108178,0.002644,0.046578,-2e-06,-0.001173,-0.000943,-0.085594,-0.0,-0.0,2.0,0.282024,0.261728,0.282024,0.300409,,,,,,
95103,-0.108179,0.002631,0.046335,-0.001064,0.0,0.0,-0.085794,-0.0,-0.0,2.0,0.282024,0.261667,0.282024,0.300458,,,,,,
95123,-0.108179,0.002631,0.046335,-0.001064,0.0,0.0,-0.085938,-0.0,-0.0,2.0,0.282024,0.261578,0.282024,0.300531,,,,,,
95143,-0.108301,0.002633,0.046334,-2e-06,-0.001173,-0.000943,-0.086051,-0.0,-0.0,2.0,0.282024,0.263458,0.282024,0.298979,,,,,,
95163,-0.108304,0.002505,0.046206,-2e-06,-0.001173,-0.000943,-0.086226,-0.0,-0.0,2.0,0.282024,0.261364,0.282024,0.300706,,,,,,
95183,-0.108307,0.002376,0.046078,-0.001064,0.0,0.0,-0.086365,-0.0,-0.0,2.0,0.282024,0.261285,0.282024,0.300771,,,,,,
95203,-0.108185,0.002374,0.046078,-0.001064,0.0,0.0,-0.086493,-0.0,-0.0,2.0,0.282024,0.261241,0.282024,0.300807,,,,,,
95223,-0.108182,0.002502,0.046206,-2e-06,-0.001173,-0.000943,-0.086553,-0.0,-0.0,2.0,0.282024,0.263159,0.282024,0.299228,,,,,,
95243,-0.108185,0.002374,0.046078,-2e-06,-0.001173,-0.000943,-0.086619,-0.0,-0.0,2.0,0.282024,0.26305,0.282024,0.299318,,,,,,
95263,-0.108188,0.002245,0.04595,-0.001064,0.0,0.0,-0.08674,-0.0,-0.0,2.0,0.282024,0.260927,0.282024,0.301062,,,,,,
95283,-0.108188,0.002252,0.046072,-0.001064,0.0,0.0,-0.086872,-0.0,-0.0,2.0,0.282024,0.26084,0.282024,0.301133,,,,,,
95303,-0.108188,0.002258,0.046193,-0.001067,-0.000115,-0.001058,-0.086926,-0.0,-0.0,2.0,0.282024,0.26276,0.282024,0.299558,,,,,,
95323,-0.10831,0.002261,0.046193,-2e-06,-0.001173,-0.000943,-0.087019,-0.0,-0.0,2.0,0.282024,0.26261,0.282024,0.299682,,,,,,
95343,-0.108432,0.002257,0.04607,-2e-06,-0.001173,-0.000943,-0.087061,-0.0,-0.0,2.0,0.282024,0.260399,0.282024,0.301491,,,,,,
95363,-0.10831,0.002255,0.046071,-0.001064,-0.001058,0.000115,-0.087128,-0.0,-0.0,2.0,0.282024,0.260342,0.282024,0.301537,,,,,,
95383,-0.10831,0.002261,0.046193,-0.001064,0.0,0.0,-0.087178,-0.0,-0.0,2.0,0.282024,0.262262,0.282024,0.29997,,,,,,
95403,-0.108307,0.00239,0.046321,-2e-06,-0.001173,-0.000943,-0.087204,-0.0,-0.0,2.0,0.282024,0.262136,0.282024,0.300073,,,,,,
95423,-0.108307,0.002383,0.046199,-2e-06,-0.001173,-0.000943,-0.087204,-0.0,-0.0,2.0,0.282024,0.262002,0.282024,0.300183,,,,,,
95443,-0.108188,0.002265,0.046315,-0.001064,0.0,0.0,-0.087257,-0.0,-0.0,2.0,0.282024,0.259893,0.282024,0.301899,,,,,,
95463,-0.108065,0.002269,0.046437,-0.001064,0.0,0.0,-0.087264,-0.0,-0.0,2.0,0.282024,0.259807,0.282024,0.301969,,,,,,
95483,-0.108306,0.002403,0.046565,-0.001066,-0.001173,-0.000943,-0.087266,-0.0,-0.0,2.0,0.282024,0.261614,0.282024,0.300502,,,,,,
95503,-0.108306,0.002403,0.046565,-2e-06,-0.001173,-0.000943,-0.087259,-0.0,-0.0,2.0,0.282024,0.261472,0.282024,0.300618,,,,,,
95523,-0.108308,0.002288,0.04668,-2e-06,-0.000115,-0.001058,-0.087243,-0.0,-0.0,2.0,0.282024,0.259276,0.282024,0.302395,,,,,,
95543,-0.108189,0.002169,0.046795,-0.001064,0.0,0.0,-0.087216,-0.0,-0.0,2.0,0.282024,0.259172,0.282024,0.302478,,,,,,
95563,-0.108067,0.002173,0.046918,0.0,-0.001058,0.000115,-0.08718,-0.0,-0.0,2.0,0.282024,0.261126,0.282024,0.3009,,,,,,
95583,-0.108185,0.002311,0.047167,-5e-06,-0.001288,-0.002001,-0.087154,-0.0,-0.0,2.0,0.282024,0.260926,0.282024,0.301064,,,,,,
95603,-0.108064,0.002308,0.047168,-2e-06,-0.001173,-0.000943,-0.08712,-0.0,-0.0,2.0,0.282024,0.258766,0.282024,0.302802,,,,,,
95623,-0.108063,0.002315,0.04729,-0.001067,-0.000115,-0.001058,-0.087047,-0.0,-0.0,2.0,0.282024,0.258598,0.282024,0.302936,,,,,,
95643,-0.107944,0.002203,0.047527,-0.001067,-0.000115,-0.001058,-0.086947,-0.0,-0.0,2.0,0.282024,0.258461,0.282024,0.303045,,,,,,
95663,-0.108062,0.002335,0.047655,-2e-06,-0.000115,-0.001058,-0.0869,-0.0,-0.0,2.0,0.282024,0.260312,0.282024,0.301562,,,,,,
