time_ms,roll,pitch,yaw,reference_roll,reference_pitch,reference_yaw,reference_throttle,throttle_1,throttle_2,throttle_3,throttle_4,roll_predicted,pitch_predicted,yaw_predicted,roll_rate_predicted,pitch_rate_predicted,yaw_rate_predicted,value1,value2,value3,value4,value5,value6
354880,0.003663,-0.016358,-9.2e-05,0.0,-0.0,-0.0,3.0,0.3261,0.324417,0.3261,0.327772,,,,,,,0.00367,-0.017618,0.006466,-0.010719,-2.6e-05,7.1e-05
354900,0.003907,-0.016358,-9e-05,0.0,-0.0,-0.0,3.0,0.3261,0.324631,0.3261,0.327561,,,,,,,0.00367,-0.017619,0.006467,-0.003625,-2.6e-05,7.1e-05
354920,0.00403,-0.016357,-0.000211,0.0,-0.0,-0.0,3.0,0.3261,0.324763,0.3261,0.32743,,,,,,,0.003669,-0.01762,0.006469,8e-06,-2.6e-05,5.8e-05
354940,0.00403,-0.01648,-0.000211,0.0,-0.0,-0.0,3.0,0.3261,0.324642,0.3261,0.32755,,,,,,,0.003649,-0.017621,0.00647,0.000589,-3.8e-05,5.8e-05
354960,0.004274,-0.016602,-0.000209,0.0,-0.0,-0.0,3.0,0.3261,0.324235,0.3261,0.327951,,,,,,,0.00357,-0.017621,0.006471,0.009885,-5e-05,5.8e-05
354980,0.004274,-0.016846,-0.000208,0.0,-0.0,-0.0,3.0,0.3261,0.324073,0.3261,0.32811,,,,,,,0.003557,-0.017622,0.006472,0.010219,-7.4e-05,5.8e-05
355000,0.00403,-0.016724,-0.00021,0.0,-0.0,-0.0,3.0,0.3261,0.323902,0.3261,0.328279,,,,,,,0.003547,-0.017623,0.006474,0.003413,-6.2e-05,5.8e-05
355020,0.003664,-0.01648,-0.000214,0.0,-0.0,-0.0,3.0,0.3261,0.323977,0.3261,0.328205,,,,,,,0.003576,-0.017624,0.006475,-0.008031,-3.7e-05,5.8e-05
355040,0.00342,-0.016236,-0.000216,0.0,-0.0,-0.0,3.0,0.3261,0.323827,0.3261,0.328352,,,,,,,0.003529,-0.017624,0.006476,-0.013745,-1.3e-05,5.7e-05
355060,0.003541,-0.016236,-9.3e-05,0.0,-0.0,-0.0,3.0,0.3261,0.324225,0.3261,0.327961,,,,,,,0.00349,-0.017625,0.006477,-0.009042,-1.3e-05,6.9e-05
355080,0.003419,-0.016114,-9.5e-05,0.0,-0.0,-0.0,3.0,0.3261,0.323998,0.3261,0.328185,,,,,,,0.003394,-0.017626,0.006478,-0.009832,-1e-06,6.9e-05
355100,0.003541,-0.016236,-9.3e-05,0.0,-0.0,-0.0,3.0,0.3261,0.324218,0.3261,0.327968,,,,,,,0.003292,-0.017626,0.00648,-0.003258,-1.3e-05,6.9e-05
355120,0.003297,-0.016114,-9.6e-05,0.0,-0.0,-0.0,3.0,0.3261,0.323533,0.3261,0.32864,,,,,,,0.003121,-0.017626,0.006481,-0.005438,-1e-06,6.9e-05
355140,0.003297,-0.016236,-9.5e-05,0.0,-0.0,-0.0,3.0,0.3261,0.323438,0.3261,0.328733,,,,,,,0.002944,-0.017626,0.006482,-0.000333,-1.3e-05,6.9e-05
355160,0.003053,-0.016358,-9.7e-05,0.0,-0.0,-0.0,3.0,0.3261,0.322921,0.3261,0.329238,,,,,,,0.002763,-0.017626,0.006484,-0.002265,-2.5e-05,6.8e-05
355180,0.002686,-0.016358,2.2e-05,0.0,-0.0,-0.0,3.0,0.3261,0.32272,0.3261,0.329433,,,,,,,0.002581,-0.017627,0.006485,-0.007634,-2.5e-05,8e-05
355200,0.002441,-0.01648,2e-05,0.0,-0.0,-0.0,3.0,0.3261,0.323027,0.3261,0.329134,,,,,,,0.002437,-0.017627,0.006487,-0.010498,-3.7e-05,8e-05
355220,0.00232,-0.016358,-0.000103,0.0,-0.0,-0.0,3.0,0.3261,0.323253,0.3261,0.328914,,,,,,,0.00231,-0.017627,0.006488,-0.010291,-2.5e-05,6.7e-05
355240,0.002197,-0.016236,1.8e-05,0.0,-0.0,-0.0,3.0,0.3261,0.323486,0.3261,0.328686,,,,,,,0.002219,-0.017628,0.00649,-0.011173,-1.3e-05,7.9e-05
355260,0.002319,-0.016236,1.9e-05,0.0,-0.0,-0.0,3.0,0.3261,0.323731,0.3261,0.328446,,,,,,,0.002133,-0.017628,0.006492,-0.005127,-1.3e-05,7.9e-05
355280,0.00244,-0.016236,0.000142,0.0,-0.0,-0.0,3.0,0.3261,0.323952,0.3261,0.328229,,,,,,,0.002098,-0.017629,0.006493,-0.000619,-1.3e-05,9.1e-05
355300,0.002563,-0.016114,2.1e-05,0.0,-0.0,-0.0,3.0,0.3261,0.324429,0.3261,0.32776,,,,,,,0.002127,-0.017629,0.006495,0.002183,-0.0,7.9e-05
355320,0.002563,-0.016236,2.1e-05,0.0,-0.0,-0.0,3.0,0.3261,0.324584,0.3261,0.327607,,,,,,,0.002184,-0.017629,0.006496,0.000549,-1.3e-05,7.9e-05
355340,0.002687,-0.016236,-0.0001,0.0,-0.0,-0.0,3.0,0.3261,0.324303,0.3261,0.327884,,,,,,,0.002194,-0.017629,0.006498,0.003766,-1.2e-05,6.7e-05
355360,0.002687,-0.016358,-0.0001,0.0,-0.0,-0.0,3.0,0.3261,0.32389,0.3261,0.32829,,,,,,,0.002163,-0.01763,0.006499,0.004625,-2.5e-05,6.7e-05
355380,0.002442,-0.016358,-0.000102,0.0,-0.0,-0.0,3.0,0.3261,0.323415,0.3261,0.328756,,,,,,,0.002082,-0.01763,0.0065,-0.000151,-2.5e-05,6.6e-05
355400,0.002198,-0.016358,-0.000104,0.0,-0.0,-0.0,3.0,0.3261,0.323441,0.3261,0.32873,,,,,,,0.002014,-0.01763,0.006502,-0.00524,-2.5e-05,6.6e-05
355420,0.002075,-0.016236,1.7e-05,0.0,-0.0,-0.0,3.0,0.3261,0.323582,0.3261,0.328592,,,,,,,0.001969,-0.017631,0.006503,-0.007478,-1.2e-05,7.8e-05
355440,0.001953,-0.016236,1.6e-05,0.0,-0.0,-0.0,3.0,0.3261,0.323293,0.3261,0.328875,,,,,,,0.001885,-0.017631,0.006505,-0.008631,-1.2e-05,7.8e-05
355460,0.002074,-0.016114,0.000139,0.0,-0.0,-0.0,3.0,0.3261,0.323787,0.3261,0.328391,,,,,,,0.001838,-0.017631,0.006507,-0.003725,-0.0,9e-05
355480,0.00183,-0.016114,0.000137,0.0,-0.0,-0.0,3.0,0.3261,0.323739,0.3261,0.328439,,,,,,,0.001797,-0.017632,0.006508,-0.009566,-0.0,8.9e-05
355500,0.001952,-0.016114,0.000138,0.0,-0.0,-0.0,3.0,0.3261,0.32412,0.3261,0.328064,,,,,,,0.001744,-0.017632,0.00651,-0.004422,-0.0,8.9e-05
355520,0.002075,-0.016358,1.7e-05,0.0,-0.0,-0.0,3.0,0.3261,0.324228,0.3261,0.327958,,,,,,,0.001725,-0.017632,0.006512,-0.000307,-2.4e-05,7.7e-05
355540,0.002319,-0.01648,1.9e-05,0.0,-0.0,-0.0,3.0,0.3261,0.323919,0.3261,0.328262,,,,,,,0.001662,-0.017633,0.006513,0.008514,-3.7e-05,7.7e-05
355560,0.00232,-0.01648,-0.000103,0.0,-0.0,-0.0,3.0,0.3261,0.323639,0.3261,0.328536,,,,,,,0.001616,-0.017633,0.006515,0.00983,-3.7e-05,6.5e-05
355580,0.001954,-0.01648,-0.000106,0.0,-0.0,-0.0,3.0,0.3261,0.323353,0.3261,0.328816,,,,,,,0.001571,-0.017634,0.006516,0.000504,-3.6e-05,6.4e-05
355600,0.001831,-0.016236,1.5e-05,0.0,-0.0,-0.0,3.0,0.3261,0.323521,0.3261,0.328652,,,,,,,0.001555,-0.017634,0.006518,-0.002595,-1.2e-05,7.6e-05
355620,0.001587,-0.016236,1.3e-05,0.0,-0.0,-0.0,3.0,0.3261,0.323574,0.3261,0.3286,,,,,,,0.001564,-0.017635,0.006519,-0.009913,-1.2e-05,7.6e-05
355640,0.001709,-0.016114,1.4e-05,0.0,-0.0,-0.0,3.0,0.3261,0.323756,0.3261,0.328422,,,,,,,0.001551,-0.017635,0.006521,-0.005991,0.0,7.6e-05
355660,0.001709,-0.016236,1.4e-05,0.0,-0.0,-0.0,3.0,0.3261,0.323932,0.3261,0.32825,,,,,,,0.001533,-0.017635,0.006522,-0.005449,-1.2e-05,7.6e-05
355680,0.001831,-0.016358,1.5e-05,0.0,-0.0,-0.0,3.0,0.3261,0.324234,0.3261,0.327952,,,,,,,0.001503,-0.017636,0.006524,-0.000961,-2.4e-05,7.6e-05
355700,0.001953,-0.016358,1.6e-05,0.0,-0.0,-0.0,3.0,0.3261,0.324405,0.3261,0.327783,,,,,,,0.001498,-0.017636,0.006525,0.002741,-2.4e-05,7.6e-05
355720,0.002196,-0.016358,0.00014,0.0,-0.0,-0.0,3.0,0.3261,0.324268,0.3261,0.327918,,,,,,,0.001487,-0.017636,0.006527,0.010073,-2.4e-05,8.8e-05
355740,0.002196,-0.016358,0.00014,0.0,-0.0,-0.0,3.0,0.3261,0.32374,0.3261,0.328438,,,,,,,0.001476,-0.017636,0.006528,0.010292,-2.4e-05,8.8e-05
355760,0.002074,-0.016114,0.000139,0.0,-0.0,-0.0,3.0,0.3261,0.323644,0.3261,0.328531,,,,,,,0.001483,-0.017637,0.00653,0.006529,0.0,8.7e-05
355780,0.001709,-0.015992,1.4e-05,0.0,-0.0,-0.0,3.0,0.3261,0.323602,0.3261,0.328573,,,,,,,0.001516,-0.017637,0.006532,-0.005025,1.3e-05,7.5e-05
355800,0.001465,-0.015992,1.2e-05,0.0,-0.0,-0.0,3.0,0.3261,0.323681,0.3261,0.328496,,,,,,,0.001519,-0.017637,0.006533,-0.012122,1.3e-05,7.4e-05
355820,0.001465,-0.016236,1.2e-05,0.0,-0.0,-0.0,3.0,0.3261,0.323767,0.3261,0.328411,,,,,,,0.001487,-0.017637,0.006535,-0.011195,-1.2e-05,7.4e-05
355840,0.001465,-0.016236,1.2e-05,0.0,-0.0,-0.0,3.0,0.3261,0.323558,0.3261,0.328616,,,,,,,0.001385,-0.017638,0.006537,-0.008259,-1.2e-05,7.4e-05
355860,0.001465,-0.016358,1.2e-05,0.0,-0.0,-0.0,3.0,0.3261,0.323892,0.3261,0.328288,,,,,,,0.001295,-0.017638,0.006538,-0.005541,-2.4e-05,7.4e-05
355880,0.001465,-0.016358,1.2e-05,0.0,-0.0,-0.0,3.0,0.3261,0.323732,0.3261,0.328445,,,,,,,0.001196,-0.017638,0.00654,-0.002702,-2.4e-05,7.4e-05
355900,0.001464,-0.01648,0.000134,0.0,-0.0,-0.0,3.0,0.3261,0.323319,0.3261,0.32885,,,,,,,0.001076,-0.017638,0.006541,0.00069,-3.6e-05,8.6e-05
355920,0.001464,-0.016236,0.000134,0.0,-0.0,-0.0,3.0,0.3261,0.323167,0.3261,0.328998,,,,,,,0.000963,-0.017639,0.006543,0.003921,-1.2e-05,8.6e-05
355940,0.001221,-0.016358,1e-05,0.0,-0.0,-0.0,3.0,0.3261,0.323116,0.3261,0.329048,,,,,,,0.000885,-0.017639,0.006544,-0.00087,-2.4e-05,7.3e-05
355960,0.001099,-0.016114,9e-06,0.0,-0.0,-0.0,3.0,0.3261,0.323514,0.3261,0.328659,,,,,,,0.000867,-0.01764,0.006546,-0.003844,1e-06,7.3e-05
355980,0.001221,-0.016358,1e-05,0.0,-0.0,-0.0,3.0,0.3261,0.323893,0.3261,0.328287,,,,,,,0.000892,-0.01764,0.006547,-0.001019,-2.4e-05,7.3e-05
356000,0.001221,-0.016358,1e-05,0.0,-0.0,-0.0,3.0,0.3261,0.323835,0.3261,0.328344,,,,,,,0.000891,-0.017641,0.006549,-0.000984,-2.4e-05,7.3e-05
356020,0.001343,-0.016602,1.1e-05,0.0,-0.0,-0.0,3.0,0.3261,0.324315,0.3261,0.327872,,,,,,,0.000954,-0.017641,0.00655,0.000775,-4.8e-05,7.3e-05
356040,0.001343,-0.016602,1.1e-05,0.0,-0.0,-0.0,3.0,0.3261,0.32421,0.3261,0.327976,,,,,,,0.000999,-0.017642,0.006552,-0.00054,-4.8e-05,7.2e-05
356060,0.001465,-0.01648,1.2e-05,0.0,-0.0,-0.0,3.0,0.3261,0.324344,0.3261,0.327844,,,,,,,0.001041,-0.017642,0.006553,0.001808,-3.6e-05,7.2e-05
356080,0.001465,-0.016602,1.2e-05,0.0,-0.0,-0.0,3.0,0.3261,0.324271,0.3261,0.327916,,,,,,,0.001087,-0.017643,0.006554,0.000447,-4.8e-05,7.2e-05
356100,0.001709,-0.016358,1.4e-05,0.0,-0.0,-0.0,3.0,0.3261,0.324269,0.3261,0.327917,,,,,,,0.001112,-0.017644,0.006556,0.006792,-2.3e-05,7.2e-05
356120,0.001832,-0.016358,-0.000107,0.0,-0.0,-0.0,3.0,0.3261,0.324556,0.3261,0.327635,,,,,,,0.001209,-0.017644,0.006557,0.007567,-2.3e-05,6e-05
356140,0.001832,-0.016114,-0.000107,0.0,-0.0,-0.0,3.0,0.3261,0.324374,0.3261,0.327815,,,,,,,0.001271,-0.017645,0.006558,0.005739,1e-06,6e-05
356160,0.001709,-0.016236,1.4e-05,0.0,-0.0,-0.0,3.0,0.3261,0.324156,0.3261,0.328029,,,,,,,0.001315,-0.017645,0.00656,0.000895,-1.1e-05,7.2e-05
356180,0.001709,-0.016236,1.4e-05,0.0,-0.0,-0.0,3.0,0.3261,0.324089,0.3261,0.328094,,,,,,,0.00134,-0.017646,0.006561,0.000164,-1.1e-05,7.2e-05
356200,0.001709,-0.016358,1.4e-05,0.0,-0.0,-0.0,3.0,0.3261,0.323741,0.3261,0.328437,,,,,,,0.00132,-0.017646,0.006563,0.000673,-2.3e-05,7.2e-05
356220,0.001587,-0.016358,1.3e-05,0.0,-0.0,-0.0,3.0,0.3261,0.324019,0.3261,0.328164,,,,,,,0.001345,-0.017646,0.006564,-0.003541,-2.3e-05,7.1e-05
356240,0.001343,-0.01648,1.1e-05,0.0,-0.0,-0.0,3.0,0.3261,0.323961,0.3261,0.32822,,,,,,,0.001321,-0.017647,0.006565,-0.009875,-3.5e-05,7.1e-05
356260,0.001465,-0.016358,1.2e-05,0.0,-0.0,-0.0,3.0,0.3261,0.324267,0.3261,0.32792,,,,,,,0.001304,-0.017647,0.006567,-0.005806,-2.3e-05,7.1e-05
356280,0.001587,-0.01648,1.3e-05,0.0,-0.0,-0.0,3.0,0.3261,0.323921,0.3261,0.32826,,,,,,,0.001242,-0.017647,0.006568,-0.000546,-3.5e-05,7.1e-05
356300,0.001831,-0.016358,1.5e-05,0.0,-0.0,-0.0,3.0,0.3261,0.324203,0.3261,0.327983,,,,,,,0.00121,-0.017648,0.00657,0.007496,-2.3e-05,7.1e-05
356320,0.001709,-0.016236,1.4e-05,0.0,-0.0,-0.0,3.0,0.3261,0.324051,0.3261,0.328132,,,,,,,0.001223,-0.017648,0.006571,0.003535,-1.1e-05,7.1e-05
356340,0.001709,-0.015992,1.4e-05,0.0,-0.0,-0.0,3.0,0.3261,0.323984,0.3261,0.328198,,,,,,,0.001217,-0.017649,0.006572,0.003719,1.4e-05,7.1e-05
356360,0.001709,-0.016236,1.4e-05,0.0,-0.0,-0.0,3.0,0.3261,0.324148,0.3261,0.328037,,,,,,,0.00127,-0.017649,0.006574,0.002165,-1.1e-05,7e-05
356380,0.001586,-0.016114,0.000135,0.0,-0.0,-0.0,3.0,0.3261,0.323957,0.3261,0.328225,,,,,,,0.001298,-0.017649,0.006575,-0.002248,2e-06,8.2e-05
356400,0.001708,-0.016358,0.000136,0.0,-0.0,-0.0,3.0,0.3261,0.324443,0.3261,0.327746,,,,,,,0.001368,-0.017649,0.006577,-0.000667,-2.3e-05,8.2e-05
356420,0.001586,-0.016358,0.000135,0.0,-0.0,-0.0,3.0,0.3261,0.324575,0.3261,0.327616,,,,,,,0.001436,-0.01765,0.006579,-0.006122,-2.3e-05,8.2e-05
356440,0.00183,-0.01648,0.000137,0.0,-0.0,-0.0,3.0,0.3261,0.324666,0.3261,0.327526,,,,,,,0.00145,-0.01765,0.00658,0.000547,-3.5e-05,8.2e-05
356460,0.001952,-0.01648,0.000138,0.0,-0.0,-0.0,3.0,0.3261,0.32466,0.3261,0.327532,,,,,,,0.001481,-0.01765,0.006582,0.003197,-3.5e-05,8.2e-05
356480,0.001952,-0.016358,0.000138,0.0,-0.0,-0.0,3.0,0.3261,0.323916,0.3261,0.328265,,,,,,,0.001411,-0.01765,0.006583,0.005117,-2.3e-05,8.2e-05
356500,0.00183,-0.016236,0.000137,0.0,-0.0,-0.0,3.0,0.3261,0.3238,0.3261,0.328379,,,,,,,0.00137,-0.01765,0.006585,0.002767,-1e-05,8.2e-05
356520,0.001586,-0.015992,0.000135,0.0,-0.0,-0.0,3.0,0.3261,0.32364,0.3261,0.328536,,,,,,,0.001332,-0.017651,0.006587,-0.003218,1.4e-05,8.1e-05
356540,0.001586,-0.016114,0.000135,0.0,-0.0,-0.0,3.0,0.3261,0.32399,0.3261,0.328192,,,,,,,0.001322,-0.017651,0.006588,-0.002903,2e-06,8.1e-05
356560,0.001464,-0.016114,0.000134,0.0,-0.0,-0.0,3.0,0.3261,0.324067,0.3261,0.328117,,,,,,,0.001345,-0.017652,0.00659,-0.007113,2e-06,8.1e-05
356580,0.001586,-0.016236,0.000135,0.0,-0.0,-0.0,3.0,0.3261,0.324062,0.3261,0.328121,,,,,,,0.001307,-0.017652,0.006591,-0.00247,-1e-05,8.1e-05
356600,0.001586,-0.01648,0.000135,0.0,-0.0,-0.0,3.0,0.3261,0.324472,0.3261,0.327718,,,,,,,0.00132,-0.017652,0.006593,-0.002783,-3.5e-05,8.1e-05
356620,0.001586,-0.016724,0.000135,0.0,-0.0,-0.0,3.0,0.3261,0.324346,0.3261,0.327841,,,,,,,0.001297,-0.017653,0.006595,-0.002099,-5.9e-05,8e-05
356640,0.001708,-0.016602,0.000136,0.0,-0.0,-0.0,3.0,0.3261,0.324202,0.3261,0.327983,,,,,,,0.001264,-0.017653,0.006596,0.002341,-4.7e-05,8e-05
356660,0.001829,-0.016602,0.000259,0.0,-0.0,-0.0,3.0,0.3261,0.323934,0.3261,0.328247,,,,,,,0.001223,-0.017654,0.006598,0.006983,-4.7e-05,9.3e-05
356680,0.001707,-0.016236,0.000258,0.0,-0.0,-0.0,3.0,0.3261,0.324009,0.3261,0.328173,,,,,,,0.001227,-0.017654,0.0066,0.003329,-1e-05,9.2e-05
356700,0.001586,-0.016114,0.000135,0.0,-0.0,-0.0,3.0,0.3261,0.324427,0.3261,0.327762,,,,,,,0.001295,-0.017655,0.006601,-0.00209,2e-06,8e-05
356720,0.001465,-0.015992,1.2e-05,0.0,-0.0,-0.0,3.0,0.3261,0.324235,0.3261,0.327951,,,,,,,0.001305,-0.017655,0.006603,-0.005887,1.4e-05,6.7e-05
356740,0.001709,-0.016114,1.4e-05,0.0,-0.0,-0.0,3.0,0.3261,0.324613,0.3261,0.327578,,,,,,,0.001335,-0.017656,0.006604,0.000353,2e-06,6.7e-05
356760,0.001953,-0.016358,1.6e-05,0.0,-0.0,-0.0,3.0,0.3261,0.324694,0.3261,0.327498,,,,,,,0.001375,-0.017656,0.006605,0.006246,-2.2e-05,6.7e-05
356780,0.001953,-0.016724,1.6e-05,0.0,-0.0,-0.0,3.0,0.3261,0.324718,0.3261,0.327475,,,,,,,0.001434,-0.017657,0.006607,0.004552,-5.9e-05,6.7e-05
356800,0.001831,-0.016846,1.5e-05,0.0,-0.0,-0.0,3.0,0.3261,0.32452,0.3261,0.32767,,,,,,,0.001476,-0.017657,0.006608,-0.000214,-7.1e-05,6.7e-05
356820,0.001953,-0.01709,1.7e-05,0.0,-0.0,-0.0,3.0,0.3261,0.324316,0.3261,0.327871,,,,,,,0.00147,-0.017658,0.00661,0.003466,-9.5e-05,6.7e-05
356840,0.001953,-0.016724,1.6e-05,0.0,-0.0,-0.0,3.0,0.3261,0.324438,0.3261,0.327751,,,,,,,0.001509,-0.017659,0.006611,0.00234,-5.8e-05,6.7e-05
356860,0.001831,-0.016602,1.5e-05,0.0,-0.0,-0.0,3.0,0.3261,0.324399,0.3261,0.327789,,,,,,,0.001544,-0.01766,0.006612,-0.002239,-4.6e-05,6.7e-05
356880,0.001953,-0.016358,1.6e-05,0.0,-0.0,-0.0,3.0,0.3261,0.324509,0.3261,0.327681,,,,,,,0.001555,-0.017661,0.006613,0.001027,-2.2e-05,6.7e-05
356900,0.001832,-0.016358,-0.000107,0.0,-0.0,-0.0,3.0,0.3261,0.32462,0.3261,0.327572,,,,,,,0.001589,-0.017662,0.006615,-0.003447,-2.1e-05,5.4e-05
356920,0.001954,-0.01648,-0.000106,0.0,-0.0,-0.0,3.0,0.3261,0.324628,0.3261,0.327564,,,,,,,0.001596,-0.017663,0.006616,-0.00013,-3.4e-05,5.4e-05
356940,0.002198,-0.01648,-0.000104,0.0,-0.0,-0.0,3.0,0.3261,0.324515,0.3261,0.327676,,,,,,,0.001594,-0.017664,0.006617,0.006981,-3.3e-05,5.4e-05
356960,0.002076,-0.016602,-0.000105,0.0,-0.0,-0.0,3.0,0.3261,0.324507,0.3261,0.327683,,,,,,,0.00163,-0.017665,0.006618,0.002396,-4.6e-05,5.4e-05
356980,0.002076,-0.016724,-0.000105,0.0,-0.0,-0.0,3.0,0.3261,0.324649,0.3261,0.327543,,,,,,,0.001668,-0.017666,0.006619,0.001299,-5.8e-05,5.4e-05
357000,0.002197,-0.016724,1.8e-05,0.0,-0.0,-0.0,3.0,0.3261,0.325073,0.3261,0.327123,,,,,,,0.001766,-0.017666,0.00662,0.002031,-5.8e-05,6.6e-05
357020,0.002441,-0.016602,2e-05,0.0,-0.0,-0.0,3.0,0.3261,0.325232,0.3261,0.326965,,,,,,,0.001861,-0.017667,0.006622,0.006334,-4.5e-05,6.6e-05
357040,0.002563,-0.016358,2.1e-05,0.0,-0.0,-0.0,3.0,0.3261,0.325204,0.3261,0.326993,,,,,,,0.001965,-0.017667,0.006623,0.006835,-2.1e-05,6.6e-05
357060,0.002686,-0.016358,2.2e-05,0.0,-0.0,-0.0,3.0,0.3261,0.325225,0.3261,0.326972,,,,,,,0.002062,-0.017668,0.006624,0.007568,-2.1e-05,6.6e-05
357080,0.002807,-0.016114,0.000145,0.0,-0.0,-0.0,3.0,0.3261,0.325449,0.3261,0.32675,,,,,,,0.002186,-0.017668,0.006626,0.007513,4e-06,7.8e-05
357100,0.002929,-0.016114,0.000146,0.0,-0.0,-0.0,3.0,0.3261,0.325418,0.3261,0.326781,,,,,,,0.002333,-0.017669,0.006627,0.006755,4e-06,7.8e-05
357120,0.003052,-0.016114,2.5e-05,0.0,-0.0,-0.0,3.0,0.3261,0.325298,0.3261,0.3269,,,,,,,0.002453,-0.017669,0.006629,0.006821,4e-06,6.6e-05
357140,0.00293,-0.016236,2.4e-05,0.0,-0.0,-0.0,3.0,0.3261,0.32525,0.3261,0.326947,,,,,,,0.00256,-0.01767,0.00663,0.000176,-8e-06,6.6e-05
357160,0.002808,-0.016236,2.3e-05,0.0,-0.0,-0.0,3.0,0.3261,0.325124,0.3261,0.327073,,,,,,,0.002596,-0.01767,0.006631,-0.00436,-8e-06,6.6e-05
357180,0.002808,-0.01648,2.3e-05,0.0,-0.0,-0.0,3.0,0.3261,0.325075,0.3261,0.327121,,,,,,,0.002604,-0.01767,0.006633,-0.004593,-3.3e-05,6.5e-05
357200,0.00293,-0.016602,2.4e-05,0.0,-0.0,-0.0,3.0,0.3261,0.324793,0.3261,0.3274,,,,,,,0.002547,-0.01767,0.006634,0.000573,-4.5e-05,6.5e-05
357220,0.002929,-0.01648,0.000146,0.0,-0.0,-0.0,3.0,0.3261,0.324618,0.3261,0.327574,,,,,,,0.002468,-0.01767,0.006636,0.002798,-3.3e-05,7.7e-05
357240,0.002929,-0.016358,0.000146,0.0,-0.0,-0.0,3.0,0.3261,0.32478,0.3261,0.327413,,,,,,,0.00244,-0.01767,0.006637,0.00364,-2.1e-05,7.7e-05
357260,0.002928,-0.016236,0.000268,0.0,-0.0,-0.0,3.0,0.3261,0.324876,0.3261,0.327318,,,,,,,0.00245,-0.017671,0.006639,0.003301,-8e-06,8.9e-05
357280,0.002928,-0.015992,0.000268,0.0,-0.0,-0.0,3.0,0.3261,0.325013,0.3261,0.327183,,,,,,,0.002499,-0.017671,0.00664,0.001864,1.6e-05,8.9e-05
357300,0.002807,-0.015992,0.000145,0.0,-0.0,-0.0,3.0,0.3261,0.325136,0.3261,0.327061,,,,,,,0.002558,-0.017672,0.006642,-0.003329,1.6e-05,7.7e-05
357320,0.003051,-0.015992,0.000146,0.0,-0.0,-0.0,3.0,0.3261,0.325385,0.3261,0.326813,,,,,,,0.002612,-0.017672,0.006643,0.002216,1.6e-05,7.7e-05
357340,0.003051,-0.016358,0.000147,0.0,-0.0,-0.0,3.0,0.3261,0.325516,0.3261,0.326683,,,,,,,0.002695,-0.017672,0.006645,-0.000189,-2e-05,7.7e-05
357360,0.002929,-0.016602,0.000146,0.0,-0.0,-0.0,3.0,0.3261,0.325189,0.3261,0.327008,,,,,,,0.002696,-0.017672,0.006647,-0.003746,-4.5e-05,7.6e-05
357380,0.003051,-0.016846,0.000148,0.0,-0.0,-0.0,3.0,0.3261,0.324933,0.3261,0.327262,,,,,,,0.002637,-0.017672,0.006648,0.001469,-6.9e-05,7.6e-05
357400,0.00305,-0.016725,0.00027,0.0,-0.0,-0.0,3.0,0.3261,0.324603,0.3261,0.327588,,,,,,,0.002566,-0.017673,0.00665,0.003443,-5.7e-05,8.8e-05
357420,0.002928,-0.01648,0.000268,0.0,-0.0,-0.0,3.0,0.3261,0.324567,0.3261,0.327624,,,,,,,0.002513,-0.017674,0.006652,0.001432,-3.3e-05,8.8e-05
357440,0.002684,-0.016358,0.000266,0.0,-0.0,-0.0,3.0,0.3261,0.324619,0.3261,0.327572,,,,,,,0.002487,-0.017674,0.006653,-0.004862,-2e-05,8.8e-05
357460,0.002439,-0.016114,0.000264,0.0,-0.0,-0.0,3.0,0.3261,0.324565,0.3261,0.327626,,,,,,,0.002435,-0.017675,0.006655,-0.010418,4e-06,8.7e-05
357480,0.002562,-0.016114,0.000143,0.0,-0.0,-0.0,3.0,0.3261,0.324985,0.3261,0.327211,,,,,,,0.002405,-0.017676,0.006656,-0.005955,4e-06,7.5e-05
357500,0.002685,-0.016236,0.000144,0.0,-0.0,-0.0,3.0,0.3261,0.324973,0.3261,0.327222,,,,,,,0.002372,-0.017676,0.006658,-0.001496,-8e-06,7.5e-05
357520,0.002808,-0.01648,2.3e-05,0.0,-0.0,-0.0,3.0,0.3261,0.325111,0.3261,0.327086,,,,,,,0.00234,-0.017676,0.00666,0.003049,-3.2e-05,6.3e-05
357540,0.002685,-0.016602,0.000144,0.0,-0.0,-0.0,3.0,0.3261,0.325086,0.3261,0.32711,,,,,,,0.002345,-0.017677,0.006661,-0.000655,-4.4e-05,7.5e-05
357560,0.002807,-0.016846,0.000146,0.0,-0.0,-0.0,3.0,0.3261,0.324913,0.3261,0.327282,,,,,,,0.002316,-0.017677,0.006663,0.00368,-6.9e-05,7.5e-05
357580,0.002806,-0.016725,0.000268,0.0,-0.0,-0.0,3.0,0.3261,0.324903,0.3261,0.327291,,,,,,,0.002325,-0.017678,0.006664,0.003361,-5.6e-05,8.7e-05
357600,0.002439,-0.01648,0.000264,0.0,-0.0,-0.0,3.0,0.3261,0.324575,0.3261,0.327615,,,,,,,0.002299,-0.017678,0.006666,-0.006503,-3.2e-05,8.6e-05
357620,0.002439,-0.016236,0.000264,0.0,-0.0,-0.0,3.0,0.3261,0.324846,0.3261,0.327348,,,,,,,0.002269,-0.017679,0.006667,-0.005601,-8e-06,8.6e-05
357640,0.00244,-0.016114,0.000142,0.0,-0.0,-0.0,3.0,0.3261,0.325044,0.3261,0.327152,,,,,,,0.002256,-0.017679,0.006669,-0.005151,5e-06,7.4e-05
357660,0.002685,-0.015992,0.000144,0.0,-0.0,-0.0,3.0,0.3261,0.32516,0.3261,0.327037,,,,,,,0.002223,-0.01768,0.00667,0.002875,1.7e-05,7.4e-05
357680,0.002685,-0.016236,0.000144,0.0,-0.0,-0.0,3.0,0.3261,0.325094,0.3261,0.327102,,,,,,,0.002225,-0.01768,0.006672,0.002771,-7e-06,7.4e-05
357700,0.002807,-0.016358,0.000145,0.0,-0.0,-0.0,3.0,0.3261,0.32502,0.3261,0.327176,,,,,,,0.002209,-0.01768,0.006673,0.00678,-2e-05,7.4e-05
357720,0.002685,-0.016602,0.000144,0.0,-0.0,-0.0,3.0,0.3261,0.325247,0.3261,0.32695,,,,,,,0.002257,-0.017681,0.006675,0.001872,-4.4e-05,7.3e-05
357740,0.002562,-0.016602,0.000143,0.0,-0.0,-0.0,3.0,0.3261,0.324983,0.3261,0.327213,,,,,,,0.002267,-0.017681,0.006676,-0.001987,-4.4e-05,7.3e-05
357760,0.002685,-0.016602,0.000144,0.0,-0.0,-0.0,3.0,0.3261,0.325261,0.3261,0.326937,,,,,,,0.002294,-0.017682,0.006678,0.000787,-4.4e-05,7.3e-05
357780,0.002685,-0.01648,0.000144,0.0,-0.0,-0.0,3.0,0.3261,0.325031,0.3261,0.327165,,,,,,,0.002289,-0.017682,0.006679,0.0009,-3.2e-05,7.3e-05
357800,0.002685,-0.016236,0.000144,0.0,-0.0,-0.0,3.0,0.3261,0.325259,0.3261,0.326939,,,,,,,0.002293,-0.017682,0.006681,0.000816,-7e-06,7.3e-05
357820,0.002561,-0.016236,0.000265,0.0,-0.0,-0.0,3.0,0.3261,0.32511,0.3261,0.327087,,,,,,,0.002278,-0.017683,0.006682,-0.002297,-7e-06,8.5e-05
357840,0.002684,-0.016114,0.000266,0.0,-0.0,-0.0,3.0,0.3261,0.325324,0.3261,0.326874,,,,,,,0.002274,-0.017683,0.006684,0.001385,5e-06,8.5e-05
357860,0.002684,-0.016114,0.000266,0.0,-0.0,-0.0,3.0,0.3261,0.325047,0.3261,0.327148,,,,,,,0.002263,-0.017683,0.006685,0.001639,5e-06,8.4e-05
357880,0.002806,-0.016236,0.000267,0.0,-0.0,-0.0,3.0,0.3261,0.325049,0.3261,0.327147,,,,,,,0.002257,-0.017684,0.006687,0.00532,-7e-06,8.4e-05
357900,0.002561,-0.016236,0.000265,0.0,-0.0,-0.0,3.0,0.3261,0.325079,0.3261,0.327118,,,,,,,0.002267,-0.017684,0.006689,-0.002006,-7e-06,8.4e-05
357920,0.00244,-0.016358,0.000142,0.0,-0.0,-0.0,3.0,0.3261,0.325182,0.3261,0.327015,,,,,,,0.002265,-0.017684,0.00669,-0.005433,-1.9e-05,7.2e-05
357940,0.002561,-0.016602,0.000265,0.0,-0.0,-0.0,3.0,0.3261,0.325261,0.3261,0.326937,,,,,,,0.002254,-0.017684,0.006692,-0.001585,-4.4e-05,8.4e-05
357960,0.002806,-0.016603,0.000267,0.0,-0.0,-0.0,3.0,0.3261,0.325181,0.3261,0.327016,,,,,,,0.002227,-0.017684,0.006694,0.006208,-4.4e-05,8.4e-05
357980,0.002806,-0.016603,0.000267,0.0,-0.0,-0.0,3.0,0.3261,0.325436,0.3261,0.326763,,,,,,,0.002256,-0.017685,0.006696,0.005416,-4.4e-05,8.4e-05
358000,0.002683,-0.016359,0.000388,0.0,-0.0,-0.0,3.0,0.3261,0.325318,0.3261,0.32688,,,,,,,0.002282,-0.017685,0.006697,0.001098,-1.9e-05,9.6e-05
358020,0.002683,-0.016236,0.000388,0.0,-0.0,-0.0,3.0,0.3261,0.325308,0.3261,0.32689,,,,,,,0.00231,-0.017686,0.006699,0.000258,-7e-06,9.5e-05
358040,0.002683,-0.016114,0.000388,0.0,-0.0,-0.0,3.0,0.3261,0.325568,0.3261,0.326631,,,,,,,0.002374,-0.017687,0.006701,-0.001557,5e-06,9.5e-05
358060,0.002683,-0.016236,0.000388,0.0,-0.0,-0.0,3.0,0.3261,0.325339,0.3261,0.326859,,,,,,,0.002379,-0.017687,0.006703,-0.001748,-7e-06,9.5e-05
358080,0.002684,-0.016358,0.000266,0.0,-0.0,-0.0,3.0,0.3261,0.325437,0.3261,0.326761,,,,,,,0.002384,-0.017688,0.006704,-0.001832,-1.9e-05,8.3e-05
358100,0.002561,-0.016725,0.000266,0.0,-0.0,-0.0,3.0,0.3261,0.325261,0.3261,0.326937,,,,,,,0.002343,-0.017688,0.006706,-0.004178,-5.5e-05,8.2e-05
358120,0.002806,-0.016969,0.000268,0.0,-0.0,-0.0,3.0,0.3261,0.325442,0.3261,0.326756,,,,,,,0.002311,-0.017689,0.006708,0.003844,-8e-05,8.2e-05
358140,0.002806,-0.016969,0.000268,0.0,-0.0,-0.0,3.0,0.3261,0.325336,0.3261,0.326862,,,,,,,0.002324,-0.01769,0.00671,0.003423,-8e-05,8.2e-05
358160,0.002927,-0.016725,0.000391,0.0,-0.0,-0.0,3.0,0.3261,0.325171,0.3261,0.327026,,,,,,,0.0023,-0.017691,0.006711,0.007584,-5.5e-05,9.4e-05
358180,0.002682,-0.016481,0.000511,0.0,-0.0,-0.0,3.0,0.3261,0.325251,0.3261,0.326946,,,,,,,0.002342,-0.017692,0.006713,-0.000732,-3.1e-05,0.000106
358200,0.002559,-0.016237,0.000509,0.0,-0.0,-0.0,3.0,0.3261,0.325175,0.3261,0.327022,,,,,,,0.002342,-0.017692,0.006715,-0.004258,-6e-06,0.000106
358220,0.002561,-0.015992,0.000387,0.0,-0.0,-0.0,3.0,0.3261,0.325731,0.3261,0.326469,,,,,,,0.002384,-0.017693,0.006717,-0.005348,1.8e-05,9.3e-05
358240,0.002683,-0.016236,0.000388,0.0,-0.0,-0.0,3.0,0.3261,0.325613,0.3261,0.326586,,,,,,,0.002391,-0.017693,0.006719,-0.002053,-6e-06,9.3e-05
358260,0.002805,-0.016481,0.000389,0.0,-0.0,-0.0,3.0,0.3261,0.325545,0.3261,0.326654,,,,,,,0.002364,-0.017694,0.006721,0.00226,-3e-05,9.3e-05
358280,0.002805,-0.016603,0.00039,0.0,-0.0,-0.0,3.0,0.3261,0.325467,0.3261,0.326732,,,,,,,0.002343,-0.017695,0.006723,0.002856,-4.3e-05,9.3e-05
358300,0.002805,-0.016725,0.00039,0.0,-0.0,-0.0,3.0,0.3261,0.325456,0.3261,0.326742,,,,,,,0.00233,-0.017695,0.006725,0.003242,-5.5e-05,9.3e-05
358320,0.002805,-0.016603,0.00039,0.0,-0.0,-0.0,3.0,0.3261,0.325221,0.3261,0.326976,,,,,,,0.002329,-0.017695,0.006727,0.003205,-4.3e-05,9.3e-05
358340,0.002805,-0.016359,0.000389,0.0,-0.0,-0.0,3.0,0.3261,0.325339,0.3261,0.326859,,,,,,,0.002346,-0.017696,0.006729,0.002715,-1.8e-05,9.2e-05
358360,0.002682,-0.015992,0.00051,0.0,-0.0,-0.0,3.0,0.3261,0.325533,0.3261,0.326666,,,,,,,0.002401,-0.017696,0.00673,-0.002417,1.8e-05,0.000104
358380,0.00256,-0.01587,0.000509,0.0,-0.0,-0.0,3.0,0.3261,0.325599,0.3261,0.326601,,,,,,,0.002437,-0.017696,0.006732,-0.006961,3.1e-05,0.000104
358400,0.002682,-0.015992,0.00051,0.0,-0.0,-0.0,3.0,0.3261,0.325697,0.3261,0.326503,,,,,,,0.002421,-0.017696,0.006734,-0.002932,1.8e-05,0.000104
358420,0.002804,-0.015992,0.000511,0.0,-0.0,-0.0,3.0,0.3261,0.325584,0.3261,0.326616,,,,,,,0.002393,-0.017696,0.006736,0.001381,1.9e-05,0.000104
358440,0.002804,-0.016115,0.000511,0.0,-0.0,-0.0,3.0,0.3261,0.325494,0.3261,0.326705,,,,,,,0.002359,-0.017696,0.006738,0.002387,6e-06,0.000104
358460,0.002926,-0.016359,0.000512,0.0,-0.0,-0.0,3.0,0.3261,0.325694,0.3261,0.326506,,,,,,,0.002382,-0.017696,0.006741,0.005245,-1.8e-05,0.000104
358480,0.002682,-0.016481,0.000511,0.0,-0.0,-0.0,3.0,0.3261,0.325148,0.3261,0.327049,,,,,,,0.002354,-0.017696,0.006743,-0.001094,-3e-05,0.000103
358500,0.002682,-0.016359,0.00051,0.0,-0.0,-0.0,3.0,0.3261,0.325276,0.3261,0.326922,,,,,,,0.002333,-0.017696,0.006745,-0.00046,-1.8e-05,0.000103
358520,0.002437,-0.016237,0.000508,0.0,-0.0,-0.0,3.0,0.3261,0.325238,0.3261,0.32696,,,,,,,0.002308,-0.017696,0.006747,-0.006806,-6e-06,0.000103
358540,0.00256,-0.016115,0.000509,0.0,-0.0,-0.0,3.0,0.3261,0.325538,0.3261,0.326661,,,,,,,0.002278,-0.017696,0.006749,-0.002342,6e-06,0.000102
358560,0.002436,-0.016115,0.00063,0.0,-0.0,-0.0,3.0,0.3261,0.325573,0.3261,0.326626,,,,,,,0.002285,-0.017696,0.006751,-0.006131,6e-06,0.000114
358580,0.002559,-0.015993,0.000631,0.0,-0.0,-0.0,3.0,0.3261,0.325557,0.3261,0.326642,,,,,,,0.00225,-0.017696,0.006753,-0.001564,1.9e-05,0.000114
358600,0.002681,-0.015993,0.000632,0.0,-0.0,-0.0,3.0,0.3261,0.325549,0.3261,0.326651,,,,,,,0.00224,-0.017696,0.006755,0.002228,1.9e-05,0.000114
358620,0.002681,-0.016115,0.000632,0.0,-0.0,-0.0,3.0,0.3261,0.325561,0.3261,0.326639,,,,,,,0.002245,-0.017696,0.006757,0.002065,6e-06,0.000114
358640,0.002559,-0.016237,0.000631,0.0,-0.0,-0.0,3.0,0.3261,0.325703,0.3261,0.326497,,,,,,,0.002279,-0.017696,0.00676,-0.002414,-6e-06,0.000114
358660,0.002314,-0.016237,0.000629,0.0,-0.0,-0.0,3.0,0.3261,0.325278,0.3261,0.326919,,,,,,,0.002237,-0.017696,0.006762,-0.008299,-6e-06,0.000113
358680,0.002558,-0.016481,0.000632,0.0,-0.0,-0.0,3.0,0.3261,0.325453,0.3261,0.326746,,,,,,,0.00218,-0.017696,0.006765,0.000448,-3e-05,0.000113
358700,0.002679,-0.016481,0.000755,0.0,-0.0,-0.0,3.0,0.3261,0.325649,0.3261,0.32655,,,,,,,0.002173,-0.017696,0.006767,0.004135,-3e-05,0.000125
358720,0.00268,-0.016359,0.000755,0.0,-0.0,-0.0,3.0,0.3261,0.325488,0.3261,0.32671,,,,,,,0.002163,-0.017696,0.00677,0.004394,-1.8e-05,0.000125
358740,0.002557,-0.015993,0.000875,0.0,-0.0,-0.0,3.0,0.3261,0.32565,0.3261,0.326549,,,,,,,0.002189,-0.017697,0.006772,0.000133,1.9e-05,0.000137
358760,0.002557,-0.015993,0.000875,0.0,-0.0,-0.0,3.0,0.3261,0.325836,0.3261,0.326364,,,,,,,0.002235,-0.017697,0.006775,-0.001182,1.9e-05,0.000136
358780,0.002679,-0.015871,0.000876,0.0,-0.0,-0.0,3.0,0.3261,0.325941,0.3261,0.326259,,,,,,,0.00229,-0.017697,0.006777,0.000741,3.1e-05,0.000136
358800,0.002802,-0.015993,0.000755,0.0,-0.0,-0.0,3.0,0.3261,0.326174,0.3261,0.326026,,,,,,,0.002366,-0.017697,0.00678,0.002129,1.9e-05,0.000124
358820,0.002802,-0.016237,0.000755,0.0,-0.0,-0.0,3.0,0.3261,0.326138,0.3261,0.326063,,,,,,,0.002406,-0.017697,0.006782,0.000968,-6e-06,0.000124
358840,0.002802,-0.016359,0.000756,0.0,-0.0,-0.0,3.0,0.3261,0.326189,0.3261,0.326012,,,,,,,0.002444,-0.017697,0.006785,-8.4e-05,-1.8e-05,0.000123
358860,0.002924,-0.016481,0.000757,0.0,-0.0,-0.0,3.0,0.3261,0.325878,0.3261,0.326323,,,,,,,0.002428,-0.017697,0.006788,0.003859,-3e-05,0.000123
358880,0.002924,-0.016481,0.000757,0.0,-0.0,-0.0,3.0,0.3261,0.325705,0.3261,0.326495,,,,,,,0.002413,-0.017697,0.00679,0.004256,-3e-05,0.000123
358900,0.002923,-0.016359,0.000879,0.0,-0.0,-0.0,3.0,0.3261,0.325444,0.3261,0.326755,,,,,,,0.002386,-0.017697,0.006793,0.004975,-1.8e-05,0.000135
358920,0.002679,-0.015993,0.000876,0.0,-0.0,-0.0,3.0,0.3261,0.325545,0.3261,0.326655,,,,,,,0.002414,-0.017696,0.006795,-0.002918,1.9e-05,0.000134
358940,0.002557,-0.015871,0.000875,0.0,-0.0,-0.0,3.0,0.3261,0.325608,0.3261,0.326591,,,,,,,0.002409,-0.017696,0.006798,-0.006278,3.1e-05,0.000134
358960,0.002558,-0.015627,0.000753,0.0,-0.0,-0.0,3.0,0.3261,0.326067,0.3261,0.326133,,,,,,,0.002446,-0.017696,0.0068,-0.007261,5.5e-05,0.000122
358980,0.002558,-0.015871,0.000753,0.0,-0.0,-0.0,3.0,0.3261,0.325837,0.3261,0.326363,,,,,,,0.002423,-0.017696,0.006803,-0.006602,3.1e-05,0.000121
359000,0.002924,-0.015993,0.000756,0.0,-0.0,-0.0,3.0,0.3261,0.325926,0.3261,0.326274,,,,,,,0.002368,-0.017696,0.006805,0.005577,1.8e-05,0.000121
359020,0.002802,-0.016237,0.000755,0.0,-0.0,-0.0,3.0,0.3261,0.326075,0.3261,0.326125,,,,,,,0.002388,-0.017696,0.006808,0.001491,-6e-06,0.000121
359040,0.002802,-0.016359,0.000756,0.0,-0.0,-0.0,3.0,0.3261,0.325776,0.3261,0.326424,,,,,,,0.002353,-0.017695,0.00681,0.002493,-1.8e-05,0.000121
359060,0.002802,-0.016359,0.000756,0.0,-0.0,-0.0,3.0,0.3261,0.325744,0.3261,0.326456,,,,,,,0.002358,-0.017695,0.006813,0.002323,-1.8e-05,0.000121
359080,0.002679,-0.016237,0.000876,0.0,-0.0,-0.0,3.0,0.3261,0.325399,0.3261,0.326799,,,,,,,0.002327,-0.017695,0.006815,-0.000411,-6e-06,0.000133
359100,0.002557,-0.015871,0.000875,0.0,-0.0,-0.0,3.0,0.3261,0.325662,0.3261,0.326537,,,,,,,0.002332,-0.017694,0.006818,-0.004055,3.1e-05,0.000132
359120,0.002435,-0.015871,0.000874,0.0,-0.0,-0.0,3.0,0.3261,0.32583,0.3261,0.32637,,,,,,,0.002342,-0.017694,0.00682,-0.007832,3e-05,0.000132
359140,0.002557,-0.015871,0.000875,0.0,-0.0,-0.0,3.0,0.3261,0.325995,0.3261,0.326206,,,,,,,0.002325,-0.017694,0.006823,-0.003778,3e-05,0.000132
359160,0.00268,-0.015993,0.000754,0.0,-0.0,-0.0,3.0,0.3261,0.326129,0.3261,0.326071,,,,,,,0.00233,-0.017694,0.006825,-0.000352,1.8e-05,0.000119
359180,0.002802,-0.016115,0.000755,0.0,-0.0,-0.0,3.0,0.3261,0.326037,0.3261,0.326164,,,,,,,0.002313,-0.017694,0.006828,0.003671,6e-06,0.000119
359200,0.002924,-0.016359,0.000757,0.0,-0.0,-0.0,3.0,0.3261,0.326176,0.3261,0.326025,,,,,,,0.002343,-0.017694,0.00683,0.006308,-1.8e-05,0.000119
359220,0.002802,-0.016359,0.000756,0.0,-0.0,-0.0,3.0,0.3261,0.325668,0.3261,0.326532,,,,,,,0.002333,-0.017694,0.006832,0.002997,-1.8e-05,0.000119
359240,0.002681,-0.016359,0.000632,0.0,-0.0,-0.0,3.0,0.3261,0.325702,0.3261,0.326498,,,,,,,0.002332,-0.017694,0.006835,-0.000463,-1.8e-05,0.000106
359260,0.002681,-0.016359,0.000632,0.0,-0.0,-0.0,3.0,0.3261,0.325734,0.3261,0.326466,,,,,,,0.00232,-0.017694,0.006837,-0.000121,-1.8e-05,0.000106
359280,0.002803,-0.016359,0.000633,0.0,-0.0,-0.0,3.0,0.3261,0.326221,0.3261,0.325979,,,,,,,0.002351,-0.017694,0.006839,0.002569,-1.8e-05,0.000106
359300,0.002803,-0.016237,0.000633,0.0,-0.0,-0.0,3.0,0.3261,0.326447,0.3261,0.325753,,,,,,,0.002438,-0.017694,0.006841,6e-05,-6e-06,0.000106
359320,0.003047,-0.016237,0.000635,0.0,-0.0,-0.0,3.0,0.3261,0.326567,0.3261,0.325632,,,,,,,0.002503,-0.017695,0.006843,0.005287,-6e-06,0.000106
359340,0.003047,-0.016115,0.000635,0.0,-0.0,-0.0,3.0,0.3261,0.326505,0.3261,0.325695,,,,,,,0.002588,-0.017695,0.006845,0.002805,6e-06,0.000105
359360,0.003048,-0.016237,0.000513,0.0,-0.0,-0.0,3.0,0.3261,0.326348,0.3261,0.325852,,,,,,,0.002633,-0.017696,0.006847,0.001512,-6e-06,9.3e-05
359380,0.002926,-0.016359,0.000512,0.0,-0.0,-0.0,3.0,0.3261,0.326459,0.3261,0.325741,,,,,,,0.00269,-0.017696,0.006849,-0.003653,-1.8e-05,9.3e-05
359400,0.002926,-0.016481,0.000513,0.0,-0.0,-0.0,3.0,0.3261,0.326078,0.3261,0.326123,,,,,,,0.002661,-0.017696,0.006851,-0.002842,-3e-05,9.3e-05
359420,0.00317,-0.016603,0.000515,0.0,-0.0,-0.0,3.0,0.3261,0.326449,0.3261,0.325751,,,,,,,0.002678,-0.017697,0.006853,0.003752,-4.2e-05,9.3e-05
359440,0.003169,-0.016603,0.000637,0.0,-0.0,-0.0,3.0,0.3261,0.326304,0.3261,0.325896,,,,,,,0.002707,-0.017697,0.006855,0.002838,-4.2e-05,0.000105
359460,0.003169,-0.016481,0.000637,0.0,-0.0,-0.0,3.0,0.3261,0.326239,0.3261,0.325961,,,,,,,0.002709,-0.017697,0.006858,0.002777,-3e-05,0.000104
359480,0.003046,-0.016237,0.000757,0.0,-0.0,-0.0,3.0,0.3261,0.326154,0.3261,0.326047,,,,,,,0.002721,-0.017698,0.00686,-0.00113,-6e-06,0.000116
359500,0.003046,-0.016237,0.000757,0.0,-0.0,-0.0,3.0,0.3261,0.326278,0.3261,0.325923,,,,,,,0.002732,-0.017698,0.006862,-0.001409,-6e-06,0.000116
359520,0.003046,-0.015993,0.000757,0.0,-0.0,-0.0,3.0,0.3261,0.326228,0.3261,0.325972,,,,,,,0.00275,-0.017699,0.006864,-0.001984,1.9e-05,0.000116
359540,0.003169,-0.015993,0.000636,0.0,-0.0,-0.0,3.0,0.3261,0.326354,0.3261,0.325846,,,,,,,0.002765,-0.017699,0.006866,0.001163,1.9e-05,0.000103
359560,0.003047,-0.016237,0.000635,0.0,-0.0,-0.0,3.0,0.3261,0.326397,0.3261,0.325803,,,,,,,0.002786,-0.017699,0.006868,-0.002952,-6e-06,0.000103
359580,0.003047,-0.016481,0.000636,0.0,-0.0,-0.0,3.0,0.3261,0.326435,0.3261,0.325765,,,,,,,0.002773,-0.0177,0.006871,-0.00255,-3e-05,0.000103
359600,0.003047,-0.016603,0.000636,0.0,-0.0,-0.0,3.0,0.3261,0.326408,0.3261,0.325792,,,,,,,0.002751,-0.0177,0.006873,-0.001908,-4.2e-05,0.000103
359620,0.003169,-0.016725,0.000637,0.0,-0.0,-0.0,3.0,0.3261,0.326151,0.3261,0.326049,,,,,,,0.002704,-0.0177,0.006875,0.002926,-5.4e-05,0.000103
359640,0.00329,-0.016481,0.00076,0.0,-0.0,-0.0,3.0,0.3261,0.326153,0.3261,0.326048,,,,,,,0.002688,-0.0177,0.006877,0.006875,-3e-05,0.000115
359660,0.003046,-0.016359,0.000758,0.0,-0.0,-0.0,3.0,0.3261,0.326166,0.3261,0.326035,,,,,,,0.002718,-0.017701,0.006879,-0.00108,-1.8e-05,0.000114
359680,0.003046,-0.015993,0.000757,0.0,-0.0,-0.0,3.0,0.3261,0.326267,0.3261,0.325934,,,,,,,0.002715,-0.017701,0.006881,-0.00094,1.9e-05,0.000114
359700,0.003046,-0.015993,0.000757,0.0,-0.0,-0.0,3.0,0.3261,0.326792,0.3261,0.325406,,,,,,,0.002805,-0.017701,0.006883,-0.003502,1.9e-05,0.000114
359720,0.003169,-0.015993,0.000636,0.0,-0.0,-0.0,3.0,0.3261,0.326697,0.3261,0.325502,,,,,,,0.00284,-0.017702,0.006886,-0.000966,1.9e-05,0.000101
359740,0.003413,-0.016237,0.000638,0.0,-0.0,-0.0,3.0,0.3261,0.326927,0.3261,0.325271,,,,,,,0.002876,-0.017702,0.006888,0.005062,-5e-06,0.000101
359760,0.003413,-0.016481,0.000639,0.0,-0.0,-0.0,3.0,0.3261,0.326785,0.3261,0.325414,,,,,,,0.002903,-0.017702,0.00689,0.004283,-3e-05,0.000101
359780,0.003413,-0.016603,0.000639,0.0,-0.0,-0.0,3.0,0.3261,0.32644,0.3261,0.32576,,,,,,,0.002882,-0.017702,0.006892,0.004862,-4.2e-05,0.000101
359800,0.003413,-0.016603,0.000639,0.0,-0.0,-0.0,3.0,0.3261,0.32638,0.3261,0.32582,,,,,,,0.002894,-0.017702,0.006894,0.004463,-4.2e-05,0.000101
359820,0.003169,-0.016359,0.000636,0.0,-0.0,-0.0,3.0,0.3261,0.326092,0.3261,0.326109,,,,,,,0.00287,-0.017702,0.006896,-0.001932,-1.8e-05,0.0001
359840,0.003169,-0.016237,0.000636,0.0,-0.0,-0.0,3.0,0.3261,0.326407,0.3261,0.325793,,,,,,,0.002868,-0.017703,0.006898,-0.001834,-5e-06,0.0001
359860,0.003169,-0.015993,0.000636,0.0,-0.0,-0.0,3.0,0.3261,0.326872,0.3261,0.325326,,,,,,,0.002931,-0.017703,0.0069,-0.003595,1.9e-05,0.0001
359880,0.003291,-0.016115,0.000637,0.0,-0.0,-0.0,3.0,0.3261,0.326825,0.3261,0.325373,,,,,,,0.002951,-0.017704,0.006902,-0.00066,7e-06,0.0001
359900,0.003536,-0.016115,0.000517,0.0,-0.0,-0.0,3.0,0.3261,0.326856,0.3261,0.325342,,,,,,,0.00296,-0.017704,0.006904,0.006171,7e-06,8.8e-05
359920,0.003414,-0.016481,0.000517,0.087266,-0.0,-0.0,3.0,0.3261,0.292902,0.3261,0.355237,,,,,,,0.003003,-0.017704,0.006906,0.001427,-2.9e-05,8.8e-05
359940,0.003414,-0.016481,0.000517,0.087266,-0.0,-0.0,3.0,0.3261,0.292169,0.3261,0.355798,,,,,,,0.002995,-0.017705,0.006907,0.001628,-2.9e-05,8.7e-05
359960,0.003658,-0.016725,0.000519,0.087266,-0.0,-0.0,3.0,0.3261,0.291952,0.3261,0.355964,,,,,,,0.003006,-0.017705,0.006909,0.008374,-5.4e-05,8.7e-05
359980,0.00439,-0.016725,0.000525,0.087266,-0.0,-0.0,3.0,0.3261,0.29306,0.3261,0.355116,,,,,,,0.003233,-0.017705,0.006911,0.023073,-5.4e-05,8.8e-05
360000,0.005734,-0.016603,0.000414,0.087266,-0.0,-0.0,3.0,0.3261,0.295694,0.3261,0.353068,,,,,,,0.003844,-0.017706,0.006913,0.044492,-4.2e-05,7.7e-05
360020,0.008054,-0.016725,0.000312,0.087266,-0.0,-0.0,3.0,0.3261,0.299816,0.3261,0.349779,,,,,,,0.005011,-0.017707,0.006914,0.078157,-5.4e-05,6.6e-05
360040,0.01123,-0.016602,9.3e-05,0.087266,-0.0,-0.0,3.0,0.3261,0.30485,0.3261,0.345617,,,,,,,0.006896,-0.017708,0.006915,0.115843,-4.1e-05,4.4e-05
360060,0.015504,-0.016601,7e-06,0.087266,-0.0,-0.0,3.0,0.3261,0.31079,0.3261,0.340492,,,,,,,0.009596,-0.017709,0.006916,0.161782,-4.1e-05,3.5e-05
360080,0.020877,-0.016598,-0.000193,0.087266,-0.0,-0.0,3.0,0.3261,0.317318,0.3261,0.334572,,,,,,,0.013224,-0.01771,0.006917,0.212636,-4.1e-05,1.5e-05
360100,0.027228,-0.016715,-0.000383,0.087266,-0.0,-0.0,3.0,0.3261,0.324499,0.3261,0.327691,,,,,,,0.017849,-0.017711,0.006917,0.263006,-5.2e-05,-4e-06
360120,0.034312,-0.01683,-0.000566,0.087266,-0.0,-0.0,3.0,0.3261,0.331684,0.3261,0.320383,,,,,,,0.023446,-0.017713,0.006917,0.306416,-6.4e-05,-2.2e-05
360140,0.042128,-0.016939,-0.000863,0.087266,-0.0,-0.0,3.0,0.3261,0.338445,0.3261,0.313085,,,,,,,0.029903,-0.017714,0.006916,0.346166,-7.4e-05,-5.1e-05
360160,0.050677,-0.017045,-0.001154,0.087266,-0.0,-0.0,3.0,0.3261,0.344499,0.3261,0.30617,,,,,,,0.037091,-0.017716,0.006915,0.385817,-8.5e-05,-8e-05
360180,0.059595,-0.016899,-0.001569,0.087266,-0.0,-0.0,3.0,0.3261,0.34963,0.3261,0.3,,,,,,,0.044869,-0.017717,0.006913,0.418977,-7e-05,-0.000122
360200,0.068272,-0.016876,-0.001862,0.087266,-0.0,-0.0,3.0,0.3261,0.353957,0.3261,0.294557,,,,,,,0.053099,-0.017719,0.00691,0.432014,-6.7e-05,-0.000151
360220,0.076579,-0.016975,-0.00203,0.087266,-0.0,-0.0,3.0,0.3261,0.357511,0.3261,0.289908,,,,,,,0.061591,-0.017721,0.006907,0.426675,-7.7e-05,-0.000167
360240,0.084769,-0.017068,-0.00232,0.087266,-0.0,-0.0,3.0,0.3261,0.360289,0.3261,0.286157,,,,,,,0.070117,-0.017723,0.006904,0.416975,-8.6e-05,-0.000196
360260,0.092592,-0.017042,-0.002497,0.087266,-0.0,-0.0,3.0,0.3261,0.362304,0.3261,0.283367,,,,,,,0.078515,-0.017725,0.0069,0.400272,-8.4e-05,-0.000213
360280,0.099927,-0.017143,-0.002549,0.087266,-0.0,-0.0,3.0,0.3261,0.363146,0.3261,0.282183,,,,,,,0.086553,-0.017726,0.006895,0.37977,-9.3e-05,-0.000218
360300,0.106524,-0.017237,-0.002728,0.087266,-0.0,-0.0,3.0,0.3261,0.363206,0.3261,0.282098,,,,,,,0.094066,-0.017728,0.006891,0.353115,-0.000103,-0.000235
360320,0.112152,-0.017096,-0.002808,0.087266,-0.0,-0.0,3.0,0.3261,0.362142,0.3261,0.283593,,,,,,,0.100904,-0.01773,0.006886,0.317855,-8.8e-05,-0.000243
360340,0.11692,-0.017199,-0.00288,0.087266,-0.0,-0.0,3.0,0.3261,0.359752,0.3261,0.286891,,,,,,,0.106897,-0.017732,0.006881,0.281995,-9.9e-05,-0.00025
360360,0.120713,-0.017182,-0.002969,0.087266,-0.0,-0.0,3.0,0.3261,0.357012,0.3261,0.290571,,,,,,,0.112054,-0.017733,0.006876,0.242097,-9.7e-05,-0.000258
360380,0.123158,-0.017168,-0.003069,0.087266,-0.0,-0.0,3.0,0.3261,0.353415,0.3261,0.295251,,,,,,,0.116279,-0.017735,0.006871,0.190109,-9.5e-05,-0.000267
360400,0.124385,-0.017036,-0.003188,0.087266,-0.0,-0.0,3.0,0.3261,0.349639,0.3261,0.299989,,,,,,,0.119566,-0.017737,0.006865,0.130072,-8.2e-05,-0.000279
360420,0.124873,-0.016905,-0.003313,0.087266,-0.0,-0.0,3.0,0.3261,0.345902,0.3261,0.304512,,,,,,,0.121911,-0.017739,0.00686,0.076002,-6.8e-05,-0.000291
360440,0.124995,-0.017026,-0.003304,0.087266,-0.0,-0.0,3.0,0.3261,0.342539,0.3261,0.30845,,,,,,,0.123389,-0.017741,0.006854,0.036456,-8e-05,-0.000289
360460,0.124753,-0.017141,-0.003421,0.087266,-0.0,-0.0,3.0,0.3261,0.338948,0.3261,0.312526,,,,,,,0.124049,-0.017742,0.006848,0.01007,-9.2e-05,-0.0003
360480,0.124144,-0.017265,-0.003419,0.087266,-0.0,-0.0,3.0,0.3261,0.336182,0.3261,0.315576,,,,,,,0.124106,-0.017745,0.006842,-0.009413,-0.000104,-0.0003
360500,0.123405,-0.017388,-0.003417,0.087266,-0.0,-0.0,3.0,0.3261,0.33422,0.3261,0.317697,,,,,,,0.123758,-0.017746,0.006836,-0.020821,-0.000116,-0.000299
360520,0.122918,-0.017512,-0.003414,0.087266,-0.0,-0.0,3.0,0.3261,0.332893,0.3261,0.31911,,,,,,,0.123189,-0.017748,0.00683,-0.018571,-0.000128,-0.000298
360540,0.122186,-0.017522,-0.003299,0.087266,-0.0,-0.0,3.0,0.3261,0.332085,0.3261,0.319962,,,,,,,0.122559,-0.017751,0.006824,-0.021617,-0.000129,-0.000286
360560,0.121569,-0.017157,-0.003327,0.087266,-0.0,-0.0,3.0,0.3261,0.332134,0.3261,0.319911,,,,,,,0.121969,-0.017753,0.006818,-0.022395,-9.2e-05,-0.000288
360580,0.121324,-0.017044,-0.003214,0.087266,-0.0,-0.0,3.0,0.3261,0.333172,0.3261,0.318814,,,,,,,0.12154,-0.017755,0.006813,-0.016998,-8.1e-05,-0.000276
360600,0.121568,-0.016921,-0.00322,0.087266,-0.0,-0.0,3.0,0.3261,0.335293,0.3261,0.316542,,,,,,,0.121437,-0.017757,0.006807,-0.006768,-6.8e-05,-0.000276
360620,0.122551,-0.017155,-0.003318,0.087266,-0.0,-0.0,3.0,0.3261,0.337621,0.3261,0.313998,,,,,,,0.121646,-0.017759,0.006802,0.015828,-9.1e-05,-0.000285
360640,0.124022,-0.017144,-0.003427,0.087266,-0.0,-0.0,3.0,0.3261,0.339934,0.3261,0.311419,,,,,,,0.122207,-0.017761,0.006796,0.04233,-9e-05,-0.000296
360660,0.125484,-0.017261,-0.003406,0.087266,-0.0,-0.0,3.0,0.3261,0.342136,0.3261,0.308914,,,,,,,0.123121,-0.017762,0.00679,0.058333,-0.000102,-0.000293
360680,0.12732,-0.017126,-0.00352,0.087266,-0.0,-0.0,3.0,0.3261,0.344281,0.3261,0.306426,,,,,,,0.124328,-0.017764,0.006784,0.076693,-8.8e-05,-0.000304
360700,0.129278,-0.017234,-0.003616,0.087266,-0.0,-0.0,3.0,0.3261,0.346319,0.3261,0.304015,,,,,,,0.125856,-0.017766,0.006778,0.089226,-9.9e-05,-0.000313
360720,0.131367,-0.017091,-0.00385,0.087266,-0.0,-0.0,3.0,0.3261,0.347977,0.3261,0.30202,,,,,,,0.127611,-0.017767,0.006771,0.098896,-8.4e-05,-0.000336
360740,0.133446,-0.017077,-0.003953,0.087266,-0.0,-0.0,3.0,0.3261,0.349805,0.3261,0.299784,,,,,,,0.129608,-0.017769,0.006765,0.101343,-8.3e-05,-0.000345
360760,0.135526,-0.017062,-0.004056,0.087266,-0.0,-0.0,3.0,0.3261,0.351079,0.3261,0.298202,,,,,,,0.131677,-0.017771,0.006758,0.101699,-8.1e-05,-0.000355
360780,0.137484,-0.017047,-0.004161,0.087266,-0.0,-0.0,3.0,0.3261,0.352282,0.3261,0.296691,,,,,,,0.133801,-0.017773,0.006751,0.096939,-7.9e-05,-0.000365
360800,0.139441,-0.01704,-0.004143,0.087266,-0.0,-0.0,3.0,0.3261,0.352983,0.3261,0.295802,,,,,,,0.135853,-0.017774,0.006744,0.094218,-7.8e-05,-0.000362
360820,0.141276,-0.017034,-0.004127,0.087266,-0.0,-0.0,3.0,0.3261,0.353114,0.3261,0.295635,,,,,,,0.137794,-0.017776,0.006736,0.091038,-7.8e-05,-0.00036
360840,0.142624,-0.017152,-0.004106,0.087266,-0.0,-0.0,3.0,0.3261,0.353063,0.3261,0.295701,,,,,,,0.139581,-0.017778,0.006729,0.078285,-8.9e-05,-0.000357
360860,0.14372,-0.017147,-0.004096,0.087266,-0.0,-0.0,3.0,0.3261,0.352522,0.3261,0.296387,,,,,,,0.141113,-0.017779,0.006722,0.065591,-8.9e-05,-0.000355
360880,0.144339,-0.017259,-0.004204,0.087266,-0.0,-0.0,3.0,0.3261,0.351454,0.3261,0.297734,,,,,,,0.142332,-0.017781,0.006714,0.048079,-0.0001,-0.000365
360900,0.144948,-0.017257,-0.004198,0.087266,-0.0,-0.0,3.0,0.3261,0.350427,0.3261,0.299015,,,,,,,0.143231,-0.017783,0.006707,0.039557,-9.9e-05,-0.000364
360920,0.145069,-0.017256,-0.004197,0.087266,-0.0,-0.0,3.0,0.3261,0.348966,0.3261,0.300815,,,,,,,0.143819,-0.017785,0.0067,0.025869,-9.9e-05,-0.000363
360940,0.144703,-0.017145,-0.004088,0.087266,-0.0,-0.0,3.0,0.3261,0.34757,0.3261,0.302513,,,,,,,0.144107,-0.017787,0.006693,0.006773,-8.8e-05,-0.000352
360960,0.144094,-0.016903,-0.004111,0.087266,-0.0,-0.0,3.0,0.3261,0.346278,0.3261,0.304064,,,,,,,0.1441,-0.017788,0.006686,-0.010751,-6.3e-05,-0.000353
360980,0.143476,-0.016783,-0.004125,0.087266,-0.0,-0.0,3.0,0.3261,0.345127,0.3261,0.305431,,,,,,,0.143835,-0.01779,0.006679,-0.021081,-5.1e-05,-0.000354
361000,0.142623,-0.016795,-0.004011,0.087266,-0.0,-0.0,3.0,0.3261,0.3443,0.3261,0.306403,,,,,,,0.143407,-0.017791,0.006672,-0.033455,-5.2e-05,-0.000342
361020,0.141884,-0.016797,-0.004017,0.087266,-0.0,-0.0,3.0,0.3261,0.343885,0.3261,0.306889,,,,,,,0.142832,-0.017792,0.006665,-0.038233,-5.2e-05,-0.000342
361040,0.141275,-0.016921,-0.004014,0.087266,-0.0,-0.0,3.0,0.3261,0.343813,0.3261,0.306972,,,,,,,0.142175,-0.017794,0.006658,-0.036768,-6.5e-05,-0.000341
361060,0.140788,-0.016923,-0.004018,0.087266,-0.0,-0.0,3.0,0.3261,0.343978,0.3261,0.30678,,,,,,,0.141527,-0.017795,0.006652,-0.032075,-6.5e-05,-0.00034
361080,0.1403,-0.017055,-0.003892,0.087266,-0.0,-0.0,3.0,0.3261,0.343684,0.3261,0.307123,,,,,,,0.140857,-0.017796,0.006645,-0.026857,-7.8e-05,-0.000327
361100,0.139804,-0.017056,-0.003896,0.087266,-0.0,-0.0,3.0,0.3261,0.343729,0.3261,0.307071,,,,,,,0.140222,-0.017798,0.006638,-0.022821,-7.8e-05,-0.000327
361120,0.139439,-0.017057,-0.0039,0.087266,-0.0,-0.0,3.0,0.3261,0.344043,0.3261,0.306704,,,,,,,0.139694,-0.017799,0.006632,-0.018142,-7.8e-05,-0.000327
361140,0.138952,-0.016816,-0.003921,0.087266,-0.0,-0.0,3.0,0.3261,0.344519,0.3261,0.306147,,,,,,,0.139299,-0.017801,0.006625,-0.020794,-5.3e-05,-0.000328
361160,0.138586,-0.016695,-0.003933,0.087266,-0.0,-0.0,3.0,0.3261,0.345311,0.3261,0.305212,,,,,,,0.139015,-0.017802,0.006619,-0.023095,-4.1e-05,-0.000329
361180,0.138578,-0.016694,-0.003932,0.087266,-0.0,-0.0,3.0,0.3261,0.346296,0.3261,0.304043,,,,,,,0.138838,-0.017803,0.006612,-0.018133,-4.1e-05,-0.000328
361200,0.138586,-0.016695,-0.003933,0.087266,-0.0,-0.0,3.0,0.3261,0.346923,0.3261,0.303292,,,,,,,0.138694,-0.017804,0.006606,-0.013636,-4.1e-05,-0.000327
361220,0.138708,-0.01706,-0.003906,0.087266,-0.0,-0.0,3.0,0.3261,0.3473,0.3261,0.302839,,,,,,,0.138561,-0.017806,0.006599,-0.006206,-7.7e-05,-0.000324
361240,0.13883,-0.017181,-0.003897,0.087266,-0.0,-0.0,3.0,0.3261,0.347644,0.3261,0.302423,,,,,,,0.138471,-0.017807,0.006593,-4.2e-05,-8.9e-05,-0.000322
361260,0.13883,-0.017303,-0.003888,0.087266,-0.0,-0.0,3.0,0.3261,0.347559,0.3261,0.302526,,,,,,,0.138394,-0.017809,0.006586,0.002139,-0.000101,-0.000321
361280,0.138577,-0.01719,-0.003777,0.087266,-0.0,-0.0,3.0,0.3261,0.346903,0.3261,0.303316,,,,,,,0.138248,-0.01781,0.00658,-0.001108,-9e-05,-0.000309
361300,0.137968,-0.01707,-0.003791,0.087266,-0.0,-0.0,3.0,0.3261,0.346401,0.3261,0.303917,,,,,,,0.138035,-0.017812,0.006574,-0.012626,-7.8e-05,-0.00031
361320,0.137237,-0.016951,-0.003806,0.087266,-0.0,-0.0,3.0,0.3261,0.346138,0.3261,0.304231,,,,,,,0.137756,-0.017814,0.006568,-0.025729,-6.6e-05,-0.000311
361340,0.136619,-0.016839,-0.003697,0.087266,-0.0,-0.0,3.0,0.3261,0.346072,0.3261,0.30431,,,,,,,0.137379,-0.017815,0.006562,-0.032691,-5.4e-05,-0.000299
361360,0.136131,-0.016971,-0.003572,0.087266,-0.0,-0.0,3.0,0.3261,0.345866,0.3261,0.304555,,,,,,,0.136899,-0.017817,0.006556,-0.032912,-6.7e-05,-0.000286
361380,0.135765,-0.017102,-0.003445,0.087266,-0.0,-0.0,3.0,0.3261,0.345815,0.3261,0.304615,,,,,,,0.136371,-0.017819,0.00655,-0.028246,-8e-05,-0.000273
361400,0.1354,-0.017347,-0.003432,0.087266,-0.0,-0.0,3.0,0.3261,0.34596,0.3261,0.304444,,,,,,,0.135848,-0.01782,0.006545,-0.023621,-0.000104,-0.000271
361420,0.134913,-0.01747,-0.003428,0.087266,-0.0,-0.0,3.0,0.3261,0.34565,0.3261,0.304812,,,,,,,0.135314,-0.017822,0.00654,-0.022322,-0.000117,-0.00027
361440,0.134416,-0.017601,-0.003302,0.087266,-0.0,-0.0,3.0,0.3261,0.345557,0.3261,0.304921,,,,,,,0.134795,-0.017825,0.006534,-0.021696,-0.000129,-0.000257
361460,0.133929,-0.017359,-0.003323,0.087266,-0.0,-0.0,3.0,0.3261,0.345638,0.3261,0.304826,,,,,,,0.134316,-0.017827,0.006529,-0.021936,-0.000105,-0.000259
361480,0.133563,-0.017239,-0.003335,0.087266,-0.0,-0.0,3.0,0.3261,0.346019,0.3261,0.304373,,,,,,,0.133896,-0.017829,0.006524,-0.020353,-9.3e-05,-0.000259
361500,0.13332,-0.017239,-0.003337,0.087266,-0.0,-0.0,3.0,0.3261,0.346458,0.3261,0.303849,,,,,,,0.133548,-0.017831,0.006519,-0.017289,-9.3e-05,-0.000259
361520,0.133068,-0.017239,-0.003339,0.087266,-0.0,-0.0,3.0,0.3261,0.346897,0.3261,0.303323,,,,,,,0.13324,-0.017833,0.006514,-0.015616,-9.2e-05,-0.000259
361540,0.132824,-0.017362,-0.003333,0.087266,-0.0,-0.0,3.0,0.3261,0.347219,0.3261,0.302936,,,,,,,0.132974,-0.017835,0.006508,-0.014928,-0.000105,-0.000258
361560,0.132703,-0.017362,-0.003334,0.087266,-0.0,-0.0,3.0,0.3261,0.347355,0.3261,0.302772,,,,,,,0.132732,-0.017837,0.006503,-0.011464,-0.000104,-0.000257
361580,0.13258,-0.017371,-0.003213,0.087266,-0.0,-0.0,3.0,0.3261,0.347689,0.3261,0.302369,,,,,,,0.132532,-0.017839,0.006498,-0.009231,-0.000105,-0.000245
361600,0.132336,-0.017493,-0.003207,0.087266,-0.0,-0.0,3.0,0.3261,0.348028,0.3261,0.301958,,,,,,,0.132372,-0.017842,0.006493,-0.011579,-0.000117,-0.000244
361620,0.132093,-0.017494,-0.00321,0.087266,-0.0,-0.0,3.0,0.3261,0.347921,0.3261,0.302088,,,,,,,0.132157,-0.017844,0.006488,-0.012422,-0.000117,-0.000243
361640,0.131971,-0.017373,-0.003219,0.087266,-0.0,-0.0,3.0,0.3261,0.347761,0.3261,0.302281,,,,,,,0.131896,-0.017846,0.006484,-0.008425,-0.000104,-0.000244
361660,0.131727,-0.017374,-0.003221,0.087266,-0.0,-0.0,3.0,0.3261,0.347443,0.3261,0.302666,,,,,,,0.131577,-0.017848,0.006479,-0.006301,-0.000104,-0.000243
361680,0.13111,-0.017375,-0.003226,0.087266,-0.0,-0.0,3.0,0.3261,0.347272,0.3261,0.302872,,,,,,,0.131257,-0.01785,0.006474,-0.01492,-0.000104,-0.000244
361700,0.1305,-0.017506,-0.003102,0.087266,-0.0,-0.0,3.0,0.3261,0.346725,0.3261,0.30353,,,,,,,0.130828,-0.017852,0.006469,-0.020187,-0.000117,-0.000231
361720,0.130014,-0.017378,-0.003237,0.087266,-0.0,-0.0,3.0,0.3261,0.346891,0.3261,0.303331,,,,,,,0.130421,-0.017855,0.006465,-0.022472,-0.000104,-0.000244
361740,0.129396,-0.017265,-0.003128,0.087266,-0.0,-0.0,3.0,0.3261,0.346675,0.3261,0.303589,,,,,,,0.130002,-0.017857,0.00646,-0.028311,-9.3e-05,-0.000232
361760,0.128908,-0.017267,-0.003132,0.087266,-0.0,-0.0,3.0,0.3261,0.346741,0.3261,0.30351,,,,,,,0.129545,-0.017859,0.006455,-0.02914,-9.3e-05,-0.000232
361780,0.128421,-0.017269,-0.003137,0.087266,-0.0,-0.0,3.0,0.3261,0.346777,0.3261,0.303467,,,,,,,0.129062,-0.017861,0.00645,-0.029229,-9.3e-05,-0.000232
361800,0.128056,-0.017392,-0.003132,0.087266,-0.0,-0.0,3.0,0.3261,0.346604,0.3261,0.303674,,,,,,,0.128505,-0.017863,0.006446,-0.023666,-0.000105,-0.000231
361820,0.127569,-0.017393,-0.003137,0.087266,-0.0,-0.0,3.0,0.3261,0.346405,0.3261,0.303912,,,,,,,0.127942,-0.017865,0.006441,-0.021488,-0.000105,-0.000231
361840,0.126951,-0.017402,-0.00302,0.087266,-0.0,-0.0,3.0,0.3261,0.345842,0.3261,0.304583,,,,,,,0.127316,-0.017867,0.006437,-0.021338,-0.000105,-0.000219
361860,0.126219,-0.017412,-0.002905,0.087266,-0.0,-0.0,3.0,0.3261,0.34526,0.3261,0.305274,,,,,,,0.126657,-0.017869,0.006432,-0.023543,-0.000106,-0.000207
361880,0.125236,-0.017414,-0.002913,0.087266,-0.0,-0.0,3.0,0.3261,0.345028,0.3261,0.305547,,,,,,,0.126005,-0.017871,0.006428,-0.03313,-0.000106,-0.000208
361900,0.12426,-0.017181,-0.002816,0.087266,-0.0,-0.0,3.0,0.3261,0.345188,0.3261,0.305358,,,,,,,0.125385,-0.017873,0.006424,-0.043364,-8.3e-05,-0.000197
361920,0.123522,-0.01706,-0.00283,0.087266,-0.0,-0.0,3.0,0.3261,0.345141,0.3261,0.305414,,,,,,,0.12471,-0.017875,0.00642,-0.045187,-7e-05,-0.000198
361940,0.123156,-0.016939,-0.00284,0.087266,-0.0,-0.0,3.0,0.3261,0.345311,0.3261,0.305213,,,,,,,0.124028,-0.017877,0.006416,-0.036018,-5.8e-05,-0.000199
361960,0.122913,-0.017062,-0.002835,0.087266,-0.0,-0.0,3.0,0.3261,0.346057,0.3261,0.304328,,,,,,,0.123443,-0.017878,0.006412,-0.026027,-7e-05,-0.000198
361980,0.12267,-0.017177,-0.002952,0.087266,-0.0,-0.0,3.0,0.3261,0.346128,0.3261,0.304243,,,,,,,0.122894,-0.017879,0.006408,-0.017139,-8.2e-05,-0.000209
362000,0.122182,-0.017186,-0.002834,0.087266,-0.0,-0.0,3.0,0.3261,0.345965,0.3261,0.304437,,,,,,,0.122376,-0.017881,0.006404,-0.016294,-8.2e-05,-0.000197
362020,0.121938,-0.017187,-0.002836,0.087266,-0.0,-0.0,3.0,0.3261,0.345808,0.3261,0.304623,,,,,,,0.121889,-0.017882,0.0064,-0.009345,-8.2e-05,-0.000197
362040,0.121321,-0.017066,-0.002849,0.087266,-0.0,-0.0,3.0,0.3261,0.345868,0.3261,0.304552,,,,,,,0.12147,-0.017883,0.006396,-0.015068,-7e-05,-0.000198
362060,0.12059,-0.017068,-0.002855,0.087266,-0.0,-0.0,3.0,0.3261,0.346355,0.3261,0.303972,,,,,,,0.121157,-0.017884,0.006392,-0.027126,-7e-05,-0.000198
362080,0.120346,-0.017069,-0.002858,0.087266,-0.0,-0.0,3.0,0.3261,0.346754,0.3261,0.303494,,,,,,,0.120824,-0.017886,0.006388,-0.024478,-7e-05,-0.000198
362100,0.120103,-0.017191,-0.002853,0.087266,-0.0,-0.0,3.0,0.3261,0.34713,0.3261,0.303043,,,,,,,0.120538,-0.017888,0.006384,-0.023185,-8.2e-05,-0.000197
362120,0.119981,-0.01707,-0.002861,0.087266,-0.0,-0.0,3.0,0.3261,0.347067,0.3261,0.303119,,,,,,,0.120212,-0.01789,0.00638,-0.01731,-7e-05,-0.000198
362140,0.119736,-0.017321,-0.002727,0.087266,-0.0,-0.0,3.0,0.3261,0.346871,0.3261,0.303354,,,,,,,0.119846,-0.017892,0.006376,-0.013783,-9.5e-05,-0.000184
362160,0.119485,-0.017443,-0.002721,0.087266,-0.0,-0.0,3.0,0.3261,0.346817,0.3261,0.303419,,,,,,,0.119487,-0.017894,0.006372,-0.010654,-0.000107,-0.000183
362180,0.118998,-0.017444,-0.002726,0.087266,-0.0,-0.0,3.0,0.3261,0.346531,0.3261,0.303762,,,,,,,0.119115,-0.017895,0.006369,-0.014033,-0.000107,-0.000183
362200,0.118389,-0.017324,-0.002739,0.087266,-0.0,-0.0,3.0,0.3261,0.346128,0.3261,0.304244,,,,,,,0.1187,-0.017897,0.006365,-0.019704,-9.5e-05,-0.000184
362220,0.117657,-0.017327,-0.002745,0.087266,-0.0,-0.0,3.0,0.3261,0.345759,0.3261,0.304682,,,,,,,0.118237,-0.017899,0.006361,-0.027515,-9.5e-05,-0.000184
362240,0.116919,-0.017328,-0.002751,0.087266,-0.0,-0.0,3.0,0.3261,0.345243,0.3261,0.305293,,,,,,,0.11769,-0.017901,0.006358,-0.033113,-9.5e-05,-0.000184
362260,0.116188,-0.01733,-0.002758,0.087266,-0.0,-0.0,3.0,0.3261,0.344915,0.3261,0.30568,,,,,,,0.117073,-0.017903,0.006354,-0.036409,-9.5e-05,-0.000185
362280,0.115449,-0.01746,-0.002635,0.087266,-0.0,-0.0,3.0,0.3261,0.344885,0.3261,0.305716,,,,,,,0.116438,-0.017905,0.006351,-0.039377,-0.000107,-0.000172
362300,0.115205,-0.017339,-0.002645,0.087266,-0.0,-0.0,3.0,0.3261,0.344961,0.3261,0.305626,,,,,,,0.115801,-0.017907,0.006347,-0.027994,-9.5e-05,-0.000173
362320,0.114595,-0.017469,-0.002521,0.087266,-0.0,-0.0,3.0,0.3261,0.34476,0.3261,0.305863,,,,,,,0.115194,-0.017909,0.006344,-0.028128,-0.000108,-0.00016
362340,0.113863,-0.017471,-0.002528,0.087266,-0.0,-0.0,3.0,0.3261,0.344711,0.3261,0.305921,,,,,,,0.114588,-0.017911,0.00634,-0.031728,-0.000108,-0.00016
362360,0.113248,-0.017709,-0.002641,0.087266,-0.0,-0.0,3.0,0.3261,0.34466,0.3261,0.305981,,,,,,,0.113957,-0.017913,0.006337,-0.031215,-0.000131,-0.000171
362380,0.112883,-0.017588,-0.002652,0.087266,-0.0,-0.0,3.0,0.3261,0.344897,0.3261,0.305702,,,,,,,0.113379,-0.017915,0.006334,-0.025042,-0.000119,-0.000172
362400,0.112517,-0.017711,-0.002648,0.087266,-0.0,-0.0,3.0,0.3261,0.344767,0.3261,0.305855,,,,,,,0.112834,-0.017918,0.00633,-0.019914,-0.000131,-0.000171
362420,0.111908,-0.017712,-0.002654,0.087266,-0.0,-0.0,3.0,0.3261,0.344576,0.3261,0.30608,,,,,,,0.11231,-0.01792,0.006327,-0.022394,-0.000131,-0.000172
362440,0.111176,-0.017593,-0.002667,0.087266,-0.0,-0.0,3.0,0.3261,0.344386,0.3261,0.306302,,,,,,,0.111774,-0.017923,0.006323,-0.028041,-0.000119,-0.000173
362460,0.110682,-0.017593,-0.002671,0.087266,-0.0,-0.0,3.0,0.3261,0.344312,0.3261,0.306389,,,,,,,0.111247,-0.017925,0.00632,-0.027128,-0.000119,-0.000173
362480,0.109829,-0.017473,-0.002686,0.087266,-0.0,-0.0,3.0,0.3261,0.344001,0.3261,0.306753,,,,,,,0.110694,-0.017927,0.006316,-0.03582,-0.000106,-0.000174
362500,0.109341,-0.017353,-0.002697,0.087266,-0.0,-0.0,3.0,0.3261,0.343881,0.3261,0.306893,,,,,,,0.110081,-0.01793,0.006313,-0.0322,-9.4e-05,-0.000175
362520,0.108602,-0.017482,-0.002575,0.087266,-0.0,-0.0,3.0,0.3261,0.344025,0.3261,0.306725,,,,,,,0.109503,-0.017932,0.006309,-0.036803,-0.000107,-0.000162
362540,0.107993,-0.017484,-0.00258,0.087266,-0.0,-0.0,3.0,0.3261,0.343907,0.3261,0.306863,,,,,,,0.108883,-0.017934,0.006306,-0.036469,-0.000107,-0.000162
362560,0.107627,-0.017851,-0.002564,0.087266,-0.0,-0.0,3.0,0.3261,0.343352,0.3261,0.30751,,,,,,,0.108161,-0.017936,0.006303,-0.026188,-0.000143,-0.00016
362580,0.106896,-0.017853,-0.002571,0.087266,-0.0,-0.0,3.0,0.3261,0.342711,0.3261,0.308252,,,,,,,0.107431,-0.017939,0.0063,-0.026279,-0.000143,-0.000161
362600,0.106158,-0.017732,-0.002584,0.087266,-0.0,-0.0,3.0,0.3261,0.342403,0.3261,0.308607,,,,,,,0.106721,-0.017941,0.006296,-0.02713,-0.000131,-0.000162
362620,0.105426,-0.01749,-0.002603,0.087266,-0.0,-0.0,3.0,0.3261,0.34231,0.3261,0.308715,,,,,,,0.106044,-0.017943,0.006293,-0.028724,-0.000106,-0.000163
362640,0.104574,-0.017364,-0.002739,0.087266,-0.0,-0.0,3.0,0.3261,0.342476,0.3261,0.308523,,,,,,,0.105446,-0.017946,0.00629,-0.036065,-9.4e-05,-0.000176
362660,0.103958,-0.017365,-0.002745,0.087266,-0.0,-0.0,3.0,0.3261,0.342743,0.3261,0.308214,,,,,,,0.10487,-0.017948,0.006286,-0.037173,-9.3e-05,-0.000177
362680,0.103471,-0.017366,-0.002749,0.087266,-0.0,-0.0,3.0,0.3261,0.34286,0.3261,0.308079,,,,,,,0.104286,-0.01795,0.006283,-0.034348,-9.3e-05,-0.000177
362700,0.103349,-0.017488,-0.002744,0.087266,-0.0,-0.0,3.0,0.3261,0.34339,0.3261,0.307466,,,,,,,0.103769,-0.017952,0.006279,-0.022842,-0.000105,-0.000176
362720,0.103104,-0.017617,-0.002618,0.087266,-0.0,-0.0,3.0,0.3261,0.343903,0.3261,0.306868,,,,,,,0.103352,-0.017954,0.006276,-0.017774,-0.000118,-0.000163
362740,0.102982,-0.017739,-0.002613,0.087266,-0.0,-0.0,3.0,0.3261,0.343881,0.3261,0.306893,,,,,,,0.102964,-0.017957,0.006273,-0.010053,-0.00013,-0.000162
362760,0.103103,-0.017745,-0.00249,0.087266,-0.0,-0.0,3.0,0.3261,0.344041,0.3261,0.306707,,,,,,,0.102688,-0.017959,0.006269,0.001369,-0.00013,-0.000149
362780,0.10298,-0.017386,-0.002388,0.087266,-0.0,-0.0,3.0,0.3261,0.344328,0.3261,0.306371,,,,,,,0.102534,-0.017961,0.006266,0.002232,-9.4e-05,-0.000139
362800,0.102736,-0.017265,-0.002396,0.087266,-0.0,-0.0,3.0,0.3261,0.345307,0.3261,0.305217,,,,,,,0.102578,-0.017963,0.006264,-0.006007,-8.2e-05,-0.000139
362820,0.102736,-0.017021,-0.002409,0.087266,-0.0,-0.0,3.0,0.3261,0.345693,0.3261,0.304761,,,,,,,0.102602,-0.017965,0.006261,-0.006638,-5.7e-05,-0.00014
362840,0.102858,-0.017265,-0.002395,0.087266,-0.0,-0.0,3.0,0.3261,0.345992,0.3261,0.304405,,,,,,,0.102648,-0.017966,0.006258,-0.004406,-8.2e-05,-0.000139
362860,0.103102,-0.017386,-0.002386,0.087266,-0.0,-0.0,3.0,0.3261,0.34609,0.3261,0.304289,,,,,,,0.102672,-0.017968,0.006255,0.001929,-9.4e-05,-0.000138
362880,0.103102,-0.01763,-0.002374,0.087266,-0.0,-0.0,3.0,0.3261,0.346179,0.3261,0.304182,,,,,,,0.10271,-0.01797,0.006253,0.000864,-0.000118,-0.000136
362900,0.103102,-0.01763,-0.002374,0.087266,-0.0,-0.0,3.0,0.3261,0.346002,0.3261,0.304394,,,,,,,0.102698,-0.017973,0.00625,0.001232,-0.000118,-0.000136
362920,0.103101,-0.017758,-0.002246,0.087266,-0.0,-0.0,3.0,0.3261,0.345681,0.3261,0.304774,,,,,,,0.10264,-0.017975,0.006247,0.002807,-0.00013,-0.000123
362940,0.102735,-0.017515,-0.002262,0.087266,-0.0,-0.0,3.0,0.3261,0.344923,0.3261,0.305672,,,,,,,0.102508,-0.017977,0.006245,-0.004062,-0.000106,-0.000124
362960,0.102368,-0.017522,-0.002143,0.087266,-0.0,-0.0,3.0,0.3261,0.344745,0.3261,0.305881,,,,,,,0.102343,-0.017979,0.006242,-0.009912,-0.000106,-0.000112
362980,0.101874,-0.0174,-0.002153,0.087266,-0.0,-0.0,3.0,0.3261,0.34454,0.3261,0.306121,,,,,,,0.102131,-0.017981,0.00624,-0.018074,-9.4e-05,-0.000113
