time_ms,roll,pitch,yaw,reference_roll,reference_pitch,reference_yaw,reference_throttle,throttle_1,throttle_2,throttle_3,throttle_4,roll_predicted,pitch_predicted,yaw_predicted,roll_rate_predicted,pitch_rate_predicted,yaw_rate_predicted,value1,value2,value3,value4,value5,value6
201617,0.002525,-0.01863,-0.269447,0.0,-0.0,-0.0,2.0,0.282024,0.27715,0.282024,0.28678,,,,,,,0.003255,-0.013047,-0.171676,-0.0001,-3.5e-05,3.6e-05
201637,0.002387,-0.018525,-0.269448,0.087266,-0.0,-0.0,2.0,0.282024,0.204767,0.282024,0.336499,,,,,,,0.003118,-0.013048,-0.171676,-1.3e-05,-2.5e-05,3.6e-05
201657,0.00204,-0.018696,-0.269335,0.087266,-0.0,-0.0,2.0,0.282024,0.198065,0.282024,0.339569,,,,,,,0.002772,-0.013049,-0.171675,-0.000407,-4.2e-05,4.7e-05
201677,0.002176,-0.018799,-0.269169,0.087266,-0.0,-0.0,2.0,0.282024,0.202692,0.282024,0.337472,,,,,,,0.002769,-0.013049,-0.171674,0.027354,-5.2e-05,6.4e-05
201697,0.003263,-0.018652,-0.269042,0.087266,-0.0,-0.0,2.0,0.282024,0.214684,0.282024,0.331549,,,,,,,0.003614,-0.01305,-0.171673,0.075607,-3.7e-05,7.6e-05
201717,0.005627,-0.018825,-0.269019,0.087266,-0.0,-0.0,2.0,0.282024,0.227112,0.282024,0.324622,,,,,,,0.005596,-0.013051,-0.171671,0.151578,-5.5e-05,7.8e-05
201737,0.009444,-0.018802,-0.269142,0.087266,-0.0,-0.0,2.0,0.282024,0.242696,0.282024,0.314688,,,,,,,0.009065,-0.013052,-0.17167,0.22092,-5.2e-05,6.6e-05
201757,0.01473,-0.018698,-0.269425,0.087266,-0.0,-0.0,2.0,0.282024,0.25809,0.282024,0.303339,,,,,,,0.013987,-0.013053,-0.171669,0.293602,-4.2e-05,3.7e-05
201777,0.021382,-0.018654,-0.26984,0.087266,-0.0,-0.0,2.0,0.282024,0.274682,0.282024,0.289101,,,,,,,0.020378,-0.013054,-0.171668,0.34544,-3.7e-05,-4e-06
201797,0.029416,-0.018785,-0.270375,0.087266,-0.0,-0.0,2.0,0.282024,0.288938,0.282024,0.274857,,,,,,,0.028151,-0.013054,-0.171669,0.397434,-5e-05,-5.8e-05
201817,0.03866,-0.018743,-0.270975,0.087266,-0.0,-0.0,2.0,0.282024,0.303694,0.282024,0.257642,,,,,,,0.037135,-0.013055,-0.17167,0.449341,-4.6e-05,-0.000117
201837,0.048666,-0.018837,-0.271568,0.087266,-0.0,-0.0,2.0,0.282024,0.312724,0.282024,0.245525,,,,,,,0.046776,-0.013056,-0.171673,0.521924,-5.5e-05,-0.000176
201857,0.058809,-0.019025,-0.272113,0.087266,-0.0,-0.0,2.0,0.282024,0.319193,0.282024,0.235913,,,,,,,0.05692,-0.013058,-0.171677,0.521819,-7.4e-05,-0.000231
201877,0.068865,-0.019463,-0.272612,0.087266,-0.0,-0.0,2.0,0.282024,0.325237,0.282024,0.226068,,,,,,,0.067217,-0.01306,-0.171682,0.473691,-0.000117,-0.00028
201897,0.078786,-0.019799,-0.272892,0.087266,-0.0,-0.0,2.0,0.282024,0.328397,0.282024,0.220526,,,,,,,0.077155,-0.013062,-0.171688,0.470356,-0.000151,-0.000307
201917,0.087719,-0.020141,-0.273123,0.087266,-0.0,-0.0,2.0,0.282024,0.327641,0.282024,0.22188,,,,,,,0.086336,-0.013065,-0.171694,0.420943,-0.000185,-0.00033
201937,0.095569,-0.020642,-0.273181,0.087266,-0.0,-0.0,2.0,0.282024,0.326695,0.282024,0.223548,,,,,,,0.094544,-0.01307,-0.171701,0.349669,-0.000234,-0.000335
201957,0.10214,-0.020824,-0.273238,0.087266,-0.0,-0.0,2.0,0.282024,0.32,0.282024,0.234649,,,,,,,0.10127,-0.013074,-0.171708,0.318611,-0.000252,-0.00034
201977,0.107341,-0.020955,-0.273185,0.087266,-0.0,-0.0,2.0,0.282024,0.316425,0.282024,0.240132,,,,,,,0.106963,-0.01308,-0.171714,0.220891,-0.000265,-0.000334
201997,0.111165,-0.020908,-0.273202,0.087266,-0.0,-0.0,2.0,0.282024,0.310041,0.282024,0.249271,,,,,,,0.11115,-0.013085,-0.171721,0.148489,-0.000259,-0.000335
202017,0.113724,-0.020674,-0.273125,0.087266,-0.0,-0.0,2.0,0.282024,0.301264,0.282024,0.260678,,,,,,,0.113848,-0.01309,-0.171727,0.120713,-0.000236,-0.000327
202037,0.114818,-0.020523,-0.273122,0.087266,-0.0,-0.0,2.0,0.282024,0.29364,0.282024,0.269676,,,,,,,0.115305,-0.013095,-0.171734,0.048299,-0.00022,-0.000326
202057,0.114818,-0.020523,-0.273122,0.087266,-0.0,-0.0,2.0,0.282024,0.286314,0.282024,0.277639,,,,,,,0.115669,-0.013099,-0.17174,-0.02405,-0.000219,-0.000325
202077,0.114207,-0.020607,-0.273102,0.087266,-0.0,-0.0,2.0,0.282024,0.281451,0.282024,0.282596,,,,,,,0.11517,-0.013103,-0.171747,-0.046296,-0.000227,-0.000322
202097,0.11312,-0.020759,-0.273153,0.087266,-0.0,-0.0,2.0,0.282024,0.275834,0.282024,0.288025,,,,,,,0.114093,-0.013108,-0.171753,-0.04838,-0.000242,-0.000327
202117,0.11201,-0.02079,-0.273162,0.087266,-0.0,-0.0,2.0,0.282024,0.275714,0.282024,0.288137,,,,,,,0.11299,-0.013113,-0.17176,-0.049679,-0.000245,-0.000327
202137,0.111148,-0.020787,-0.273208,0.087266,-0.0,-0.0,2.0,0.282024,0.277349,0.282024,0.28659,,,,,,,0.112121,-0.013118,-0.171767,-0.048297,-0.000244,-0.000331
202157,0.11089,-0.020701,-0.273226,0.087266,-0.0,-0.0,2.0,0.282024,0.280239,0.282024,0.283793,,,,,,,0.111621,-0.013122,-0.171773,-9.9e-05,-0.000235,-0.000332
202177,0.111011,-0.020691,-0.273104,0.087266,-0.0,-0.0,2.0,0.282024,0.284874,0.282024,0.279132,,,,,,,0.111741,-0.013127,-0.17178,-6.4e-05,-0.000233,-0.000319
202197,0.111735,-0.020589,-0.27307,0.087266,-0.0,-0.0,2.0,0.282024,0.288462,0.282024,0.275367,,,,,,,0.112223,-0.013132,-0.171786,0.048196,-0.000223,-0.000315
202217,0.112717,-0.020582,-0.272901,0.087266,-0.0,-0.0,2.0,0.282024,0.293555,0.282024,0.269772,,,,,,,0.113205,-0.013136,-0.171792,0.04841,-0.000222,-0.000298
202237,0.113964,-0.020662,-0.272764,0.087266,-0.0,-0.0,2.0,0.282024,0.295956,0.282024,0.267024,,,,,,,0.114435,-0.01314,-0.171798,0.051699,-0.000229,-0.000283
202257,0.115437,-0.020588,-0.272621,0.087266,-0.0,-0.0,2.0,0.282024,0.297293,0.282024,0.265462,,,,,,,0.115797,-0.013145,-0.171804,0.073703,-0.000221,-0.000269
202277,0.117039,-0.02061,-0.272532,0.087266,-0.0,-0.0,2.0,0.282024,0.299717,0.282024,0.262568,,,,,,,0.117285,-0.01315,-0.171809,0.096554,-0.000223,-0.000259
202297,0.118512,-0.020536,-0.272387,0.087266,-0.0,-0.0,2.0,0.282024,0.302706,0.282024,0.258887,,,,,,,0.118999,-0.013154,-0.171814,0.048495,-0.000215,-0.000244
202317,0.120122,-0.020558,-0.272345,0.087266,-0.0,-0.0,2.0,0.282024,0.303143,0.282024,0.258338,,,,,,,0.120585,-0.013158,-0.171819,0.053159,-0.000217,-0.00024
202337,0.121587,-0.020469,-0.272382,0.087266,-0.0,-0.0,2.0,0.282024,0.303179,0.282024,0.258292,,,,,,,0.121954,-0.013163,-0.171824,0.072426,-0.000208,-0.000243
202357,0.122593,-0.020575,-0.272368,0.087266,-0.0,-0.0,2.0,0.282024,0.302182,0.282024,0.259541,,,,,,,0.123185,-0.013167,-0.171829,0.02754,-0.000218,-0.000241
202377,0.123455,-0.02057,-0.272435,0.087266,-0.0,-0.0,2.0,0.282024,0.300688,0.282024,0.261386,,,,,,,0.124064,-0.013171,-0.171833,0.024199,-0.000217,-0.000247
202397,0.123962,-0.020624,-0.272452,0.087266,-0.0,-0.0,2.0,0.282024,0.299016,0.282024,0.263413,,,,,,,0.124571,-0.013176,-0.171838,0.02414,-0.000222,-0.000248
202417,0.123962,-0.020608,-0.272685,0.087266,-0.0,-0.0,2.0,0.282024,0.296558,0.282024,0.266323,,,,,,,0.124693,-0.01318,-0.171843,-1.3e-05,-0.00022,-0.000271
202437,0.123721,-0.020642,-0.272697,0.087266,-0.0,-0.0,2.0,0.282024,0.295001,0.282024,0.268125,,,,,,,0.124589,-0.013185,-0.171849,-0.027445,-0.000223,-0.000272
202457,0.123238,-0.02071,-0.272722,0.087266,-0.0,-0.0,2.0,0.282024,0.29499,0.282024,0.268138,,,,,,,0.124193,-0.013189,-0.171854,-0.044778,-0.000229,-0.000274
202477,0.122715,-0.020536,-0.272711,0.087266,-0.0,-0.0,2.0,0.282024,0.292971,0.282024,0.270429,,,,,,,0.123566,-0.013193,-0.17186,-0.024161,-0.000211,-0.000272
202497,0.122078,-0.020386,-0.272639,0.087266,-0.0,-0.0,2.0,0.282024,0.29157,0.282024,0.271989,,,,,,,0.122947,-0.013198,-0.171865,-0.027604,-0.000196,-0.000264
202517,0.121732,-0.020558,-0.272651,0.087266,-0.0,-0.0,2.0,0.282024,0.295144,0.282024,0.267961,,,,,,,0.122567,-0.013202,-0.17187,-0.02074,-0.000213,-0.000265
202537,0.121466,-0.020478,-0.272504,0.087266,-0.0,-0.0,2.0,0.282024,0.295472,0.282024,0.267583,,,,,,,0.122197,-0.013206,-0.171876,-6e-06,-0.000204,-0.00025
202557,0.121362,-0.020631,-0.272271,0.087266,-0.0,-0.0,2.0,0.282024,0.296771,0.282024,0.266075,,,,,,,0.122092,-0.01321,-0.171881,-3.5e-05,-0.000219,-0.000226
202577,0.121362,-0.020631,-0.272271,0.087266,-0.0,-0.0,2.0,0.282024,0.29781,0.282024,0.26485,,,,,,,0.122092,-0.013214,-0.171885,-4.9e-05,-0.000219,-0.000226
202597,0.121483,-0.020614,-0.272265,0.087266,-0.0,-0.0,2.0,0.282024,0.299919,0.282024,0.262323,,,,,,,0.122212,-0.013219,-0.17189,9.9e-05,-0.000217,-0.000224
202617,0.121483,-0.020614,-0.272265,0.087266,-0.0,-0.0,2.0,0.282024,0.300393,0.282024,0.261747,,,,,,,0.122333,-0.013223,-0.171894,-0.023946,-0.000216,-0.000224
202637,0.121603,-0.020597,-0.272259,0.087266,-0.0,-0.0,2.0,0.282024,0.299424,0.282024,0.262922,,,,,,,0.122334,-0.013227,-0.171899,-0.0,-0.000214,-0.000223
202657,0.121466,-0.020486,-0.272388,0.087266,-0.0,-0.0,2.0,0.282024,0.297847,0.282024,0.264807,,,,,,,0.122214,-0.013231,-0.171903,-0.0034,-0.000203,-0.000235
202677,0.121362,-0.020616,-0.272504,0.087266,-0.0,-0.0,2.0,0.282024,0.298014,0.282024,0.264609,,,,,,,0.122093,-0.013236,-0.171908,-9.9e-05,-0.000215,-0.000247
202697,0.121258,-0.020753,-0.272503,0.087266,-0.0,-0.0,2.0,0.282024,0.299206,0.282024,0.263185,,,,,,,0.121989,-0.01324,-0.171913,1e-06,-0.000228,-0.000246
202717,0.121137,-0.02077,-0.272509,0.087266,-0.0,-0.0,2.0,0.282024,0.299329,0.282024,0.263037,,,,,,,0.121851,-0.013245,-0.171918,0.003352,-0.00023,-0.000246
202737,0.121,-0.020674,-0.272405,0.087266,-0.0,-0.0,2.0,0.282024,0.29929,0.282024,0.263084,,,,,,,0.121731,-0.013249,-0.171922,-0.0001,-0.00022,-0.000235
202757,0.120863,-0.020563,-0.272535,0.087266,-0.0,-0.0,2.0,0.282024,0.299175,0.282024,0.263222,,,,,,,0.12161,-0.013253,-0.171927,-0.0034,-0.000208,-0.000248
202777,0.120863,-0.020563,-0.272535,0.087266,-0.0,-0.0,2.0,0.282024,0.300773,0.282024,0.261282,,,,,,,0.121577,-0.013258,-0.171932,0.003276,-0.000208,-0.000247
202797,0.120742,-0.020587,-0.272424,0.087266,-0.0,-0.0,2.0,0.282024,0.302037,0.282024,0.259722,,,,,,,0.121593,-0.013262,-0.171937,-0.024033,-0.00021,-0.000236
202817,0.120759,-0.020708,-0.272417,0.087266,-0.0,-0.0,2.0,0.282024,0.300107,0.282024,0.262094,,,,,,,0.121352,-0.013266,-0.171942,0.027245,-0.000221,-0.000234
202837,0.120501,-0.020621,-0.272436,0.087266,-0.0,-0.0,2.0,0.282024,0.301871,0.282024,0.259928,,,,,,,0.121368,-0.01327,-0.171947,-0.027397,-0.000212,-0.000236
202857,0.120397,-0.020751,-0.272552,0.087266,-0.0,-0.0,2.0,0.282024,0.302206,0.282024,0.259512,,,,,,,0.121247,-0.013275,-0.171951,-0.023992,-0.000225,-0.000247
202877,0.120276,-0.020768,-0.272558,0.087266,-0.0,-0.0,2.0,0.282024,0.301434,0.282024,0.260469,,,,,,,0.12099,-0.013279,-0.171956,0.003338,-0.000226,-0.000247
202897,0.120034,-0.020809,-0.272453,0.087266,-0.0,-0.0,2.0,0.282024,0.302543,0.282024,0.259091,,,,,,,0.120885,-0.013284,-0.171961,-0.024032,-0.00023,-0.000236
202917,0.119776,-0.020722,-0.272472,0.087266,-0.0,-0.0,2.0,0.282024,0.300392,0.282024,0.261748,,,,,,,0.120507,-0.013288,-0.171966,-0.000149,-0.00022,-0.000238
202937,0.119511,-0.020635,-0.272442,0.087266,-0.0,-0.0,2.0,0.282024,0.301159,0.282024,0.260808,,,,,,,0.120266,-0.013292,-0.171971,-0.004925,-0.000211,-0.000234
202957,0.11927,-0.020661,-0.27257,0.087266,-0.0,-0.0,2.0,0.282024,0.301357,0.282024,0.260564,,,,,,,0.120017,-0.013297,-0.171975,-0.003349,-0.000214,-0.000246
202977,0.118907,-0.020719,-0.272472,0.087266,-0.0,-0.0,2.0,0.282024,0.300632,0.282024,0.261455,,,,,,,0.119638,-0.013301,-0.17198,-9.9e-05,-0.000219,-0.000236
202997,0.118528,-0.020656,-0.27238,0.087266,-0.0,-0.0,2.0,0.282024,0.301425,0.282024,0.26048,,,,,,,0.11938,-0.013305,-0.171985,-0.0242,-0.000212,-0.000226
203017,0.118046,-0.020716,-0.27252,0.087266,-0.0,-0.0,2.0,0.282024,0.300209,0.282024,0.261971,,,,,,,0.118897,-0.01331,-0.17199,-0.024145,-0.000218,-0.00024
203037,0.117667,-0.020646,-0.272544,0.087266,-0.0,-0.0,2.0,0.282024,0.301109,0.282024,0.260869,,,,,,,0.118535,-0.013314,-0.171994,-0.027448,-0.00021,-0.000242
203057,0.117039,-0.02061,-0.272532,0.087266,-0.0,-0.0,2.0,0.282024,0.300601,0.282024,0.261493,,,,,,,0.118028,-0.013318,-0.171999,-0.051436,-0.000206,-0.00024
203077,0.116556,-0.020677,-0.272555,0.087266,-0.0,-0.0,2.0,0.282024,0.299858,0.282024,0.262398,,,,,,,0.117408,-0.013323,-0.172004,-0.024159,-0.000213,-0.000242
203097,0.115832,-0.020786,-0.272474,0.087266,-0.0,-0.0,2.0,0.282024,0.300096,0.282024,0.262108,,,,,,,0.116804,-0.013327,-0.172009,-0.048255,-0.000223,-0.000233
203117,0.115205,-0.020742,-0.272577,0.087266,-0.0,-0.0,2.0,0.282024,0.300102,0.282024,0.262101,,,,,,,0.116177,-0.013331,-0.172014,-0.048193,-0.000218,-0.000243
203137,0.114584,-0.020705,-0.272612,0.087266,-0.0,-0.0,2.0,0.282024,0.298578,0.282024,0.263937,,,,,,,0.115453,-0.013336,-0.172018,-0.027547,-0.000214,-0.000246
203157,0.113843,-0.020686,-0.272653,0.087266,-0.0,-0.0,2.0,0.282024,0.299794,0.282024,0.262475,,,,,,,0.114832,-0.01334,-0.172023,-0.051498,-0.000212,-0.00025
203177,0.113353,-0.020753,-0.272627,0.087266,-0.0,-0.0,2.0,0.282024,0.299243,0.282024,0.26314,,,,,,,0.114189,-0.013344,-0.172028,-0.020864,-0.000218,-0.000247
203197,0.112733,-0.020717,-0.272662,0.087266,-0.0,-0.0,2.0,0.282024,0.299127,0.282024,0.26328,,,,,,,0.113585,-0.013349,-0.172033,-0.02416,-0.000214,-0.00025
203217,0.111992,-0.020697,-0.272703,0.087266,-0.0,-0.0,2.0,0.282024,0.299679,0.282024,0.262614,,,,,,,0.112981,-0.013353,-0.172038,-0.051487,-0.000212,-0.000253
203237,0.111509,-0.020764,-0.272725,0.087266,-0.0,-0.0,2.0,0.282024,0.299772,0.282024,0.262502,,,,,,,0.112361,-0.013357,-0.172043,-0.02415,-0.000218,-0.000255
203257,0.111003,-0.020711,-0.272705,0.087266,-0.0,-0.0,2.0,0.282024,0.299761,0.282024,0.262515,,,,,,,0.111854,-0.013361,-0.172049,-0.024161,-0.000212,-0.000253
203277,0.11052,-0.020778,-0.272728,0.087266,-0.0,-0.0,2.0,0.282024,0.299725,0.282024,0.262558,,,,,,,0.111355,-0.013366,-0.172054,-0.02086,-0.000218,-0.000254
203297,0.110262,-0.020691,-0.272745,0.087266,-0.0,-0.0,2.0,0.282024,0.302037,0.282024,0.259722,,,,,,,0.111113,-0.01337,-0.172059,-0.024051,-0.000209,-0.000256
203317,0.109899,-0.020742,-0.272762,0.087266,-0.0,-0.0,2.0,0.282024,0.301943,0.282024,0.259839,,,,,,,0.11075,-0.013374,-0.172064,-0.024039,-0.000214,-0.000257
203337,0.109641,-0.020655,-0.272779,0.087266,-0.0,-0.0,2.0,0.282024,0.301465,0.282024,0.260431,,,,,,,0.110493,-0.013378,-0.172069,-0.024083,-0.000205,-0.000258
203357,0.109504,-0.020558,-0.272675,0.087266,-0.0,-0.0,2.0,0.282024,0.302495,0.282024,0.259151,,,,,,,0.110251,-0.013382,-0.172074,-0.003305,-0.000195,-0.000247
203377,0.109255,-0.020591,-0.272637,0.087266,-0.0,-0.0,2.0,0.282024,0.303005,0.282024,0.258511,,,,,,,0.110114,-0.013386,-0.172079,-0.025484,-0.000198,-0.000243
203397,0.109135,-0.020608,-0.272642,0.087266,-0.0,-0.0,2.0,0.282024,0.301866,0.282024,0.259935,,,,,,,0.109865,-0.01339,-0.172084,-0.000113,-0.000199,-0.000243
203417,0.108893,-0.020642,-0.272653,0.087266,-0.0,-0.0,2.0,0.282024,0.303285,0.282024,0.258158,,,,,,,0.109728,-0.013394,-0.172089,-0.020751,-0.000202,-0.000243
203437,0.108652,-0.020675,-0.272665,0.087266,-0.0,-0.0,2.0,0.282024,0.302878,0.282024,0.258671,,,,,,,0.109486,-0.013398,-0.172094,-0.020686,-0.000205,-0.000244
203457,0.108393,-0.020595,-0.272565,0.087266,-0.0,-0.0,2.0,0.282024,0.303096,0.282024,0.258397,,,,,,,0.109261,-0.013402,-0.172099,-0.027421,-0.000196,-0.000234
203477,0.108273,-0.020605,-0.272687,0.087266,-0.0,-0.0,2.0,0.282024,0.30315,0.282024,0.258329,,,,,,,0.109003,-0.013406,-0.172103,1e-06,-0.000197,-0.000245
203497,0.10791,-0.020656,-0.272704,0.087266,-0.0,-0.0,2.0,0.282024,0.302761,0.282024,0.258818,,,,,,,0.108745,-0.01341,-0.172108,-0.020697,-0.000202,-0.000247
203517,0.107548,-0.020713,-0.272604,0.087266,-0.0,-0.0,2.0,0.282024,0.30194,0.282024,0.259842,,,,,,,0.108383,-0.013414,-0.172113,-0.020852,-0.000207,-0.000236
203537,0.107283,-0.020626,-0.272572,0.087266,-0.0,-0.0,2.0,0.282024,0.303104,0.282024,0.258386,,,,,,,0.108134,-0.013418,-0.172118,-0.024053,-0.000198,-0.000232
203557,0.106904,-0.020555,-0.272594,0.087266,-0.0,-0.0,2.0,0.282024,0.302892,0.282024,0.258654,,,,,,,0.107772,-0.013422,-0.172122,-0.027353,-0.00019,-0.000234
203577,0.106421,-0.020623,-0.272616,0.087266,-0.0,-0.0,2.0,0.282024,0.301008,0.282024,0.260993,,,,,,,0.107273,-0.013426,-0.172127,-0.024166,-0.000197,-0.000236
203597,0.106059,-0.020673,-0.272632,0.087266,-0.0,-0.0,2.0,0.282024,0.301435,0.282024,0.260468,,,,,,,0.10691,-0.01343,-0.172132,-0.024152,-0.000201,-0.000237
203617,0.105559,-0.02062,-0.27266,0.087266,-0.0,-0.0,2.0,0.282024,0.300738,0.282024,0.261325,,,,,,,0.106411,-0.013434,-0.172136,-0.024094,-0.000196,-0.000239
203637,0.105069,-0.020693,-0.272516,0.087266,-0.0,-0.0,2.0,0.282024,0.300729,0.282024,0.261336,,,,,,,0.105921,-0.013438,-0.172141,-0.024153,-0.000203,-0.000224
203657,0.10457,-0.02064,-0.272544,0.087266,-0.0,-0.0,2.0,0.282024,0.300848,0.282024,0.26119,,,,,,,0.105438,-0.013442,-0.172146,-0.027516,-0.000197,-0.000227
203677,0.10407,-0.02058,-0.272687,0.087266,-0.0,-0.0,2.0,0.282024,0.300621,0.282024,0.261469,,,,,,,0.104939,-0.013446,-0.17215,-0.027455,-0.000191,-0.000241
203697,0.103466,-0.020671,-0.272598,0.087266,-0.0,-0.0,2.0,0.282024,0.300024,0.282024,0.262196,,,,,,,0.104318,-0.01345,-0.172155,-0.024156,-0.000199,-0.000231
203717,0.102856,-0.020754,-0.272575,0.087266,-0.0,-0.0,2.0,0.282024,0.299344,0.282024,0.263019,,,,,,,0.103707,-0.013454,-0.17216,-0.024158,-0.000207,-0.000229
203737,0.102235,-0.020718,-0.272607,0.087266,-0.0,-0.0,2.0,0.282024,0.299093,0.282024,0.26332,,,,,,,0.103087,-0.013458,-0.172164,-0.024153,-0.000203,-0.000231
203757,0.101631,-0.020802,-0.272634,0.087266,-0.0,-0.0,2.0,0.282024,0.299828,0.282024,0.262434,,,,,,,0.102604,-0.013462,-0.172169,-0.048215,-0.000211,-0.000233
203777,0.101115,-0.020628,-0.272666,0.087266,-0.0,-0.0,2.0,0.282024,0.299066,0.282024,0.263353,,,,,,,0.101983,-0.013466,-0.172173,-0.027456,-0.000193,-0.000236
203797,0.100625,-0.020701,-0.272522,0.087266,-0.0,-0.0,2.0,0.282024,0.299398,0.282024,0.262953,,,,,,,0.101477,-0.01347,-0.172178,-0.024168,-0.0002,-0.000221
203817,0.100246,-0.020631,-0.272543,0.087266,-0.0,-0.0,2.0,0.282024,0.299287,0.282024,0.263088,,,,,,,0.100977,-0.013474,-0.172182,-0.000112,-0.000193,-0.000223
203837,0.099763,-0.020698,-0.272564,0.087266,-0.0,-0.0,2.0,0.282024,0.299512,0.282024,0.262816,,,,,,,0.100615,-0.013478,-0.172187,-0.024158,-0.000199,-0.000225
203857,0.099264,-0.020644,-0.27259,0.087266,-0.0,-0.0,2.0,0.282024,0.300792,0.282024,0.261259,,,,,,,0.100236,-0.013482,-0.172191,-0.048118,-0.000193,-0.000227
203877,0.098885,-0.020574,-0.272611,0.087266,-0.0,-0.0,2.0,0.282024,0.300005,0.282024,0.262219,,,,,,,0.099753,-0.013485,-0.172196,-0.027445,-0.000186,-0.000228
203897,0.098516,-0.020624,-0.272577,0.087266,-0.0,-0.0,2.0,0.282024,0.299018,0.282024,0.263411,,,,,,,0.099247,-0.013489,-0.1722,-9.9e-05,-0.000191,-0.000225
203917,0.098016,-0.020571,-0.272603,0.087266,-0.0,-0.0,2.0,0.282024,0.29884,0.282024,0.263624,,,,,,,0.098868,-0.013493,-0.172205,-0.024173,-0.000185,-0.000227
203937,0.097654,-0.020621,-0.272618,0.087266,-0.0,-0.0,2.0,0.282024,0.299524,0.282024,0.262801,,,,,,,0.098506,-0.013497,-0.17221,-0.024158,-0.00019,-0.000228
203957,0.097292,-0.020672,-0.272634,0.087266,-0.0,-0.0,2.0,0.282024,0.299528,0.282024,0.262796,,,,,,,0.098143,-0.013501,-0.172214,-0.024158,-0.000194,-0.000229
203977,0.096913,-0.020601,-0.272654,0.087266,-0.0,-0.0,2.0,0.282024,0.299418,0.282024,0.262929,,,,,,,0.09778,-0.013505,-0.172218,-0.02737,-0.000187,-0.000231
203997,0.096671,-0.020641,-0.272548,0.087266,-0.0,-0.0,2.0,0.282024,0.299351,0.282024,0.26301,,,,,,,0.097402,-0.013508,-0.172223,-9.9e-05,-0.00019,-0.000219
204017,0.096286,-0.02057,-0.272519,0.087266,-0.0,-0.0,2.0,0.282024,0.298394,0.282024,0.264157,,,,,,,0.097017,-0.013512,-0.172227,-0.000112,-0.000183,-0.000216
204037,0.096044,-0.020604,-0.272529,0.087266,-0.0,-0.0,2.0,0.282024,0.299195,0.282024,0.263198,,,,,,,0.096775,-0.013516,-0.172232,-0.000113,-0.000186,-0.000217
204057,0.095682,-0.020654,-0.272544,0.087266,-0.0,-0.0,2.0,0.282024,0.300102,0.282024,0.262101,,,,,,,0.096533,-0.01352,-0.172236,-0.024058,-0.000191,-0.000218
204077,0.095424,-0.020567,-0.27256,0.087266,-0.0,-0.0,2.0,0.282024,0.300475,0.282024,0.261647,,,,,,,0.096291,-0.013523,-0.17224,-0.027347,-0.000181,-0.000219
204097,0.095182,-0.020601,-0.27257,0.087266,-0.0,-0.0,2.0,0.282024,0.298629,0.282024,0.263877,,,,,,,0.095913,-0.013527,-0.172245,-9.9e-05,-0.000184,-0.000219
204117,0.094924,-0.020513,-0.272585,0.087266,-0.0,-0.0,2.0,0.282024,0.300307,0.282024,0.261851,,,,,,,0.095792,-0.013531,-0.172249,-0.02736,-0.000175,-0.000221
204137,0.094682,-0.020547,-0.272595,0.087266,-0.0,-0.0,2.0,0.282024,0.298854,0.282024,0.263608,,,,,,,0.095413,-0.013534,-0.172253,-9.9e-05,-0.000178,-0.000221
204157,0.094441,-0.020581,-0.272605,0.087266,-0.0,-0.0,2.0,0.282024,0.299798,0.282024,0.26247,,,,,,,0.095171,-0.013538,-0.172258,1e-06,-0.000181,-0.000222
204177,0.094072,-0.020636,-0.272454,0.087266,-0.0,-0.0,2.0,0.282024,0.298984,0.282024,0.263452,,,,,,,0.094923,-0.013542,-0.172262,-0.024146,-0.000187,-0.000206
204197,0.093951,-0.020653,-0.272459,0.087266,-0.0,-0.0,2.0,0.282024,0.298909,0.282024,0.263541,,,,,,,0.094665,-0.013545,-0.172266,0.003184,-0.000188,-0.000206
204217,0.093676,-0.020445,-0.27248,0.087266,-0.0,-0.0,2.0,0.282024,0.298758,0.282024,0.263722,,,,,,,0.094424,-0.013549,-0.172271,-0.00349,-0.000167,-0.000208
204237,0.093468,-0.02072,-0.272479,0.087266,-0.0,-0.0,2.0,0.282024,0.300374,0.282024,0.26177,,,,,,,0.094302,-0.013552,-0.172275,-0.020765,-0.000194,-0.000207
204257,0.09333,-0.020616,-0.272489,0.087266,-0.0,-0.0,2.0,0.282024,0.298991,0.282024,0.263443,,,,,,,0.094061,-0.013556,-0.172279,-9.9e-05,-0.000183,-0.000208
204277,0.09321,-0.020633,-0.272494,0.087266,-0.0,-0.0,2.0,0.282024,0.299938,0.282024,0.2623,,,,,,,0.09394,-0.01356,-0.172283,1e-06,-0.000184,-0.000208
204297,0.092968,-0.020667,-0.272504,0.087266,-0.0,-0.0,2.0,0.282024,0.300384,0.282024,0.261757,,,,,,,0.093819,-0.013563,-0.172287,-0.024062,-0.000187,-0.000209
204317,0.092952,-0.020546,-0.272509,0.087266,-0.0,-0.0,2.0,0.282024,0.300097,0.282024,0.262107,,,,,,,0.093682,-0.013567,-0.172291,1e-06,-0.000175,-0.000209
204337,0.092831,-0.020563,-0.272514,0.087266,-0.0,-0.0,2.0,0.282024,0.300326,0.282024,0.261829,,,,,,,0.093561,-0.013571,-0.172296,0.0,-0.000176,-0.000209
204357,0.092589,-0.020596,-0.272524,0.087266,-0.0,-0.0,2.0,0.282024,0.300371,0.282024,0.261774,,,,,,,0.09344,-0.013574,-0.1723,-0.024064,-0.000179,-0.000209
204377,0.092589,-0.020596,-0.272524,0.087266,-0.0,-0.0,2.0,0.282024,0.300584,0.282024,0.261514,,,,,,,0.093319,-0.013578,-0.172304,0.0,-0.000179,-0.000209
204397,0.092468,-0.020613,-0.272528,0.087266,-0.0,-0.0,2.0,0.282024,0.299857,0.282024,0.262398,,,,,,,0.093199,-0.013581,-0.172308,-1.3e-05,-0.00018,-0.000209
204417,0.092227,-0.020647,-0.272538,0.087266,-0.0,-0.0,2.0,0.282024,0.300061,0.282024,0.262151,,,,,,,0.093094,-0.013585,-0.172312,-0.027348,-0.000183,-0.00021
204437,0.092243,-0.020767,-0.272533,0.087266,-0.0,-0.0,2.0,0.282024,0.299682,0.282024,0.26261,,,,,,,0.092836,-0.013589,-0.172316,0.027461,-0.000195,-0.000209
204457,0.091979,-0.020686,-0.272382,0.087266,-0.0,-0.0,2.0,0.282024,0.300311,0.282024,0.261846,,,,,,,0.092836,-0.013592,-0.17232,-0.025205,-0.000186,-0.000193
204477,0.091979,-0.02068,-0.272499,0.087266,-0.0,-0.0,2.0,0.282024,0.300101,0.282024,0.262102,,,,,,,0.092715,-0.013596,-0.172325,-0.001142,-0.000185,-0.000204
204497,0.091858,-0.020697,-0.272504,0.087266,-0.0,-0.0,2.0,0.282024,0.300342,0.282024,0.261809,,,,,,,0.092595,-0.0136,-0.172329,-0.00114,-0.000187,-0.000204
204517,0.0916,-0.020609,-0.272519,0.087266,-0.0,-0.0,2.0,0.282024,0.300162,0.282024,0.262029,,,,,,,0.092468,-0.013604,-0.172333,-0.027362,-0.000178,-0.000206
204537,0.09148,-0.020626,-0.272523,0.087266,-0.0,-0.0,2.0,0.282024,0.298526,0.282024,0.263999,,,,,,,0.09221,-0.013607,-0.172337,-0.000113,-0.000179,-0.000206
204557,0.091359,-0.020643,-0.272528,0.087266,-0.0,-0.0,2.0,0.282024,0.2988,0.282024,0.263673,,,,,,,0.09209,-0.013611,-0.172341,-9.9e-05,-0.00018,-0.000206
204577,0.091117,-0.020677,-0.272538,0.087266,-0.0,-0.0,2.0,0.282024,0.299471,0.282024,0.262865,,,,,,,0.091968,-0.013615,-0.172345,-0.024061,-0.000183,-0.000206
204597,0.09098,-0.020573,-0.272548,0.087266,-0.0,-0.0,2.0,0.282024,0.298581,0.282024,0.263934,,,,,,,0.091727,-0.013618,-0.172349,-0.003398,-0.000173,-0.000207
204617,0.090859,-0.020589,-0.272553,0.087266,-0.0,-0.0,2.0,0.282024,0.299427,0.282024,0.262918,,,,,,,0.091589,-0.013622,-0.172353,1e-06,-0.000174,-0.000207
204637,0.090738,-0.020612,-0.272441,0.087266,-0.0,-0.0,2.0,0.282024,0.299471,0.282024,0.262865,,,,,,,0.091468,-0.013625,-0.172357,1e-06,-0.000176,-0.000195
204657,0.090617,-0.020629,-0.272446,0.087266,-0.0,-0.0,2.0,0.282024,0.299851,0.282024,0.262405,,,,,,,0.091347,-0.013629,-0.172361,-0.0,-0.000177,-0.000195
204677,0.090375,-0.020662,-0.272455,0.087266,-0.0,-0.0,2.0,0.282024,0.298558,0.282024,0.263962,,,,,,,0.091227,-0.013632,-0.172365,-0.024164,-0.00018,-0.000196
204697,0.090375,-0.020662,-0.272455,0.087266,-0.0,-0.0,2.0,0.282024,0.299938,0.282024,0.2623,,,,,,,0.091106,-0.013636,-0.172369,0.0,-0.00018,-0.000196
204717,0.090254,-0.020679,-0.27246,0.087266,-0.0,-0.0,2.0,0.282024,0.299774,0.282024,0.262499,,,,,,,0.090984,-0.013639,-0.172373,9.8e-05,-0.000181,-0.000196
204737,0.090134,-0.020696,-0.272465,0.087266,-0.0,-0.0,2.0,0.282024,0.299512,0.282024,0.262816,,,,,,,0.090847,-0.013643,-0.172377,0.003284,-0.000182,-0.000196
204757,0.089996,-0.020592,-0.272475,0.087266,-0.0,-0.0,2.0,0.282024,0.299175,0.282024,0.263222,,,,,,,0.090726,-0.013647,-0.172381,1e-06,-0.000172,-0.000196
204777,0.089996,-0.020592,-0.272475,0.087266,-0.0,-0.0,2.0,0.282024,0.30009,0.282024,0.262116,,,,,,,0.090727,-0.01365,-0.172385,-0.0,-0.000171,-0.000196
204797,0.089875,-0.020608,-0.27248,0.087266,-0.0,-0.0,2.0,0.282024,0.299341,0.282024,0.263022,,,,,,,0.090606,-0.013653,-0.172389,0.0,-0.000173,-0.000196
204817,0.089754,-0.020625,-0.272484,0.087266,-0.0,-0.0,2.0,0.282024,0.299197,0.282024,0.263195,,,,,,,0.090485,-0.013657,-0.172393,1e-06,-0.000174,-0.000196
204837,0.089628,-0.020642,-0.27244,0.087266,-0.0,-0.0,2.0,0.282024,0.298259,0.282024,0.264318,,,,,,,0.090359,-0.01366,-0.172397,-0.000104,-0.000175,-0.000191
204857,0.089628,-0.020642,-0.27244,0.087266,-0.0,-0.0,2.0,0.282024,0.29997,0.282024,0.262262,,,,,,,0.090364,-0.013664,-0.1724,-0.001115,-0.000175,-0.000191
204877,0.089524,-0.020779,-0.27244,0.087266,-0.0,-0.0,2.0,0.282024,0.300702,0.282024,0.261369,,,,,,,0.090381,-0.013667,-0.172404,-0.02516,-0.000188,-0.000191
204897,0.089507,-0.020658,-0.272445,0.087266,-0.0,-0.0,2.0,0.282024,0.300013,0.282024,0.262209,,,,,,,0.090254,-0.013671,-0.172408,-0.003182,-0.000176,-0.000191
204917,0.089386,-0.020681,-0.272333,0.087266,-0.0,-0.0,2.0,0.282024,0.29896,0.282024,0.26348,,,,,,,0.090117,-0.013675,-0.172412,-0.000114,-0.000178,-0.000179
204937,0.089403,-0.020796,-0.272444,0.087266,-0.0,-0.0,2.0,0.282024,0.299778,0.282024,0.262495,,,,,,,0.090117,-0.013678,-0.172415,0.003284,-0.000189,-0.00019
204957,0.089403,-0.020796,-0.272444,0.087266,-0.0,-0.0,2.0,0.282024,0.300209,0.282024,0.261971,,,,,,,0.090133,-0.013682,-0.172419,1.4e-05,-0.000188,-0.000189
204977,0.089282,-0.020813,-0.272449,0.087266,-0.0,-0.0,2.0,0.282024,0.299639,0.282024,0.262662,,,,,,,0.090013,-0.013686,-0.172423,-0.0,-0.00019,-0.00019
204997,0.089145,-0.020709,-0.272459,0.087266,-0.0,-0.0,2.0,0.282024,0.300067,0.282024,0.262143,,,,,,,0.090012,-0.013689,-0.172427,-0.027347,-0.000179,-0.00019
205017,0.089145,-0.020709,-0.272459,0.087266,-0.0,-0.0,2.0,0.282024,0.29931,0.282024,0.26306,,,,,,,0.089875,-0.013693,-0.172431,1e-06,-0.000179,-0.00019
205037,0.089145,-0.020709,-0.272459,0.087266,-0.0,-0.0,2.0,0.282024,0.299868,0.282024,0.262386,,,,,,,0.089875,-0.013697,-0.172434,0.0,-0.000178,-0.000189
205057,0.089041,-0.020846,-0.272459,0.087266,-0.0,-0.0,2.0,0.282024,0.299731,0.282024,0.262551,,,,,,,0.089771,-0.0137,-0.172438,1.4e-05,-0.000192,-0.000189
205077,0.089041,-0.020846,-0.272459,0.087266,-0.0,-0.0,2.0,0.282024,0.300093,0.282024,0.262112,,,,,,,0.08977,-0.013704,-0.172442,0.000119,-0.000191,-0.000189
205097,0.08904,-0.020852,-0.272342,0.087266,-0.0,-0.0,2.0,0.282024,0.299963,0.282024,0.26227,,,,,,,0.08977,-0.013708,-0.172445,-0.0,-0.000191,-0.000177
205117,0.088903,-0.020742,-0.272468,0.087266,-0.0,-0.0,2.0,0.282024,0.298857,0.282024,0.263603,,,,,,,0.089634,-0.013712,-0.172449,-1.3e-05,-0.00018,-0.000189
205137,0.088782,-0.020759,-0.272473,0.087266,-0.0,-0.0,2.0,0.282024,0.298152,0.282024,0.264445,,,,,,,0.089513,-0.013715,-0.172453,-9.9e-05,-0.000181,-0.000189
205157,0.088782,-0.020759,-0.272473,0.087266,-0.0,-0.0,2.0,0.282024,0.299862,0.282024,0.262393,,,,,,,0.089512,-0.013719,-0.172457,0.000116,-0.000181,-0.000189
205177,0.088662,-0.020776,-0.272478,0.087266,-0.0,-0.0,2.0,0.282024,0.298175,0.282024,0.264418,,,,,,,0.089392,-0.013722,-0.17246,5e-06,-0.000182,-0.000189
205197,0.088661,-0.020781,-0.272361,0.087266,-0.0,-0.0,2.0,0.282024,0.299776,0.282024,0.262497,,,,,,,0.089392,-0.013726,-0.172464,-0.000104,-0.000183,-0.000177
205217,0.088662,-0.020776,-0.272478,0.087266,-0.0,-0.0,2.0,0.282024,0.299835,0.282024,0.262426,,,,,,,0.089392,-0.01373,-0.172468,-0.0,-0.000182,-0.000188
205237,0.088678,-0.020897,-0.272473,0.087266,-0.0,-0.0,2.0,0.282024,0.29934,0.282024,0.263023,,,,,,,0.089271,-0.013733,-0.172471,0.02735,-0.000193,-0.000187
205257,0.088557,-0.020913,-0.272478,0.087266,-0.0,-0.0,2.0,0.282024,0.299539,0.282024,0.262784,,,,,,,0.089271,-0.013737,-0.172475,0.003299,-0.000195,-0.000187
205277,0.088541,-0.020793,-0.272483,0.087266,-0.0,-0.0,2.0,0.282024,0.299763,0.282024,0.262512,,,,,,,0.089271,-0.013741,-0.172479,0.0,-0.000182,-0.000187
205297,0.08842,-0.020809,-0.272487,0.087266,-0.0,-0.0,2.0,0.282024,0.299526,0.282024,0.262799,,,,,,,0.089255,-0.013744,-0.172483,-0.020781,-0.000184,-0.000187
205317,0.088403,-0.020689,-0.272492,0.087266,-0.0,-0.0,2.0,0.282024,0.298402,0.282024,0.264148,,,,,,,0.089151,-0.013748,-0.172486,-0.003398,-0.000171,-0.000188
205337,0.088541,-0.020793,-0.272483,0.087266,-0.0,-0.0,2.0,0.282024,0.29996,0.282024,0.262274,,,,,,,0.08915,-0.013751,-0.17249,0.024078,-0.000181,-0.000186
205357,0.088299,-0.020826,-0.272492,0.087266,-0.0,-0.0,2.0,0.282024,0.299521,0.282024,0.262805,,,,,,,0.08915,-0.013755,-0.172494,-0.024065,-0.000184,-0.000187
205377,0.088178,-0.020843,-0.272497,0.087266,-0.0,-0.0,2.0,0.282024,0.298802,0.282024,0.26367,,,,,,,0.089046,-0.013759,-0.172498,-0.027452,-0.000185,-0.000187
205397,0.088299,-0.020826,-0.272492,0.087266,-0.0,-0.0,2.0,0.282024,0.298242,0.282024,0.264339,,,,,,,0.08891,-0.013763,-0.172501,0.023859,-0.000183,-0.000186
205417,0.088162,-0.020717,-0.272618,0.087266,-0.0,-0.0,2.0,0.282024,0.299788,0.282024,0.262482,,,,,,,0.08903,-0.013766,-0.172505,-0.027365,-0.000172,-0.000198
205437,0.0883,-0.020821,-0.272608,0.087266,-0.0,-0.0,2.0,0.282024,0.299589,0.282024,0.262723,,,,,,,0.088909,-0.01377,-0.172509,0.024173,-0.000182,-0.000197
205457,0.088178,-0.020843,-0.272497,0.087266,-0.0,-0.0,2.0,0.282024,0.299256,0.282024,0.263124,,,,,,,0.088892,-0.013773,-0.172513,0.003283,-0.000184,-0.000185
205477,0.088178,-0.020843,-0.272497,0.087266,-0.0,-0.0,2.0,0.282024,0.299818,0.282024,0.262446,,,,,,,0.088909,-0.013777,-0.172517,1.3e-05,-0.000184,-0.000185
205497,0.088178,-0.020843,-0.272497,0.087266,-0.0,-0.0,2.0,0.282024,0.299847,0.282024,0.262411,,,,,,,0.088926,-0.013781,-0.17252,-0.003407,-0.000183,-0.000185
205517,0.088195,-0.020958,-0.272608,0.087266,-0.0,-0.0,2.0,0.282024,0.299832,0.282024,0.262429,,,,,,,0.088925,-0.013785,-0.172524,0.000108,-0.000194,-0.000195
205537,0.088195,-0.020964,-0.272492,0.087266,-0.0,-0.0,2.0,0.282024,0.298704,0.282024,0.263787,,,,,,,0.088787,-0.013788,-0.172528,0.027456,-0.000195,-0.000183
205557,0.088057,-0.02086,-0.272501,0.087266,-0.0,-0.0,2.0,0.282024,0.299214,0.282024,0.263175,,,,,,,0.088788,-0.013792,-0.172531,-1.4e-05,-0.000184,-0.000184
205577,0.087937,-0.020876,-0.272506,0.087266,-0.0,-0.0,2.0,0.282024,0.299587,0.282024,0.262725,,,,,,,0.088788,-0.013796,-0.172535,-0.024068,-0.000185,-0.000184
205597,0.087937,-0.020871,-0.272623,0.087266,-0.0,-0.0,2.0,0.282024,0.299473,0.282024,0.262863,,,,,,,0.088667,-0.0138,-0.172539,0.000107,-0.000184,-0.000195
205617,0.087816,-0.020893,-0.272511,0.087266,-0.0,-0.0,2.0,0.282024,0.300409,0.282024,0.261727,,,,,,,0.088667,-0.013803,-0.172542,-0.023964,-0.000186,-0.000184
205637,0.087816,-0.020893,-0.272511,0.087266,-0.0,-0.0,2.0,0.282024,0.299186,0.282024,0.263208,,,,,,,0.08853,-0.013807,-0.172546,0.003285,-0.000186,-0.000183
205657,0.087816,-0.020893,-0.272511,0.087266,-0.0,-0.0,2.0,0.282024,0.299579,0.282024,0.262735,,,,,,,0.088547,-0.013811,-0.17255,-0.000105,-0.000185,-0.000183
205677,0.087816,-0.020893,-0.272511,0.087266,-0.0,-0.0,2.0,0.282024,0.299577,0.282024,0.262737,,,,,,,0.088546,-0.013814,-0.172554,0.0,-0.000185,-0.000183
205697,0.087816,-0.020893,-0.272511,0.087266,-0.0,-0.0,2.0,0.282024,0.299639,0.282024,0.262662,,,,,,,0.088546,-0.013818,-0.172557,-0.0,-0.000185,-0.000182
205717,0.087816,-0.020893,-0.272511,0.087266,-0.0,-0.0,2.0,0.282024,0.299593,0.282024,0.262718,,,,,,,0.088546,-0.013822,-0.172561,0.0,-0.000184,-0.000182
205737,0.087815,-0.020899,-0.272394,0.087266,-0.0,-0.0,2.0,0.282024,0.299429,0.282024,0.262917,,,,,,,0.088546,-0.013825,-0.172565,-0.000122,-0.000184,-0.00017
205757,0.087816,-0.020893,-0.272511,0.087266,-0.0,-0.0,2.0,0.282024,0.299592,0.282024,0.26272,,,,,,,0.088546,-0.013829,-0.172568,-0.0,-0.000183,-0.000181
205777,0.087696,-0.020905,-0.272632,0.087266,-0.0,-0.0,2.0,0.282024,0.299538,0.282024,0.262785,,,,,,,0.088546,-0.013833,-0.172572,-0.023958,-0.000184,-0.000193
205797,0.087695,-0.02091,-0.272516,0.087266,-0.0,-0.0,2.0,0.282024,0.299328,0.282024,0.263038,,,,,,,0.088425,-0.013837,-0.172575,0.000108,-0.000184,-0.000181
205817,0.087678,-0.020789,-0.27252,0.087266,-0.0,-0.0,2.0,0.282024,0.299518,0.282024,0.262809,,,,,,,0.088425,-0.01384,-0.172579,-0.003299,-0.000172,-0.000181
205837,0.087574,-0.020927,-0.27252,0.087266,-0.0,-0.0,2.0,0.282024,0.29951,0.282024,0.262818,,,,,,,0.088426,-0.013844,-0.172583,-0.024176,-0.000185,-0.000181
205857,0.087696,-0.020905,-0.272632,0.087266,-0.0,-0.0,2.0,0.282024,0.300169,0.282024,0.26202,,,,,,,0.088425,-0.013847,-0.172586,0.000108,-0.000183,-0.000192
205877,0.087695,-0.02091,-0.272516,0.087266,-0.0,-0.0,2.0,0.282024,0.299596,0.282024,0.262714,,,,,,,0.088425,-0.013851,-0.17259,0.0,-0.000183,-0.00018
205897,0.087574,-0.020927,-0.27252,0.087266,-0.0,-0.0,2.0,0.282024,0.299084,0.282024,0.263331,,,,,,,0.088305,-0.013855,-0.172594,0.0,-0.000184,-0.00018
205917,0.087558,-0.020806,-0.272525,0.087266,-0.0,-0.0,2.0,0.282024,0.29946,0.282024,0.262879,,,,,,,0.088305,-0.013859,-0.172597,-0.003296,-0.000172,-0.00018
205937,0.087574,-0.020927,-0.27252,0.087266,-0.0,-0.0,2.0,0.282024,0.299302,0.282024,0.263069,,,,,,,0.088288,-0.013862,-0.172601,0.003282,-0.000184,-0.000179
205957,0.087453,-0.020944,-0.272525,0.087266,-0.0,-0.0,2.0,0.282024,0.299858,0.282024,0.262398,,,,,,,0.088305,-0.013866,-0.172604,-0.024066,-0.000185,-0.000179
205977,0.087437,-0.020823,-0.27253,0.087266,-0.0,-0.0,2.0,0.282024,0.299359,0.282024,0.263001,,,,,,,0.088184,-0.013869,-0.172608,-0.003283,-0.000172,-0.000179
205997,0.087316,-0.02084,-0.272534,0.087266,-0.0,-0.0,2.0,0.282024,0.298494,0.282024,0.264037,,,,,,,0.088046,-0.013873,-0.172612,0.0,-0.000174,-0.000179
206017,0.087195,-0.020856,-0.272539,0.087266,-0.0,-0.0,2.0,0.282024,0.297599,0.282024,0.2651,,,,,,,0.087927,-0.013876,-0.172615,-0.000206,-0.000175,-0.000179
206037,0.087196,-0.020851,-0.272656,0.087266,-0.0,-0.0,2.0,0.282024,0.299072,0.282024,0.263345,,,,,,,0.087926,-0.01388,-0.172619,-1.3e-05,-0.000174,-0.000191
206057,0.087196,-0.020851,-0.272656,0.087266,-0.0,-0.0,2.0,0.282024,0.299265,0.282024,0.263114,,,,,,,0.087926,-0.013883,-0.172623,0.000107,-0.000174,-0.00019
206077,0.087058,-0.020752,-0.272549,0.087266,-0.0,-0.0,2.0,0.282024,0.298892,0.282024,0.263562,,,,,,,0.087805,-0.013887,-0.172626,-0.003286,-0.000164,-0.000179
206097,0.087058,-0.020752,-0.272549,0.087266,-0.0,-0.0,2.0,0.282024,0.299041,0.282024,0.263383,,,,,,,0.087789,-0.01389,-0.17263,-0.000119,-0.000163,-0.000179
206117,0.087058,-0.020747,-0.272665,0.087266,-0.0,-0.0,2.0,0.282024,0.299188,0.282024,0.263207,,,,,,,0.087789,-0.013893,-0.172634,-0.0,-0.000162,-0.00019
206137,0.087058,-0.020747,-0.272665,0.087266,-0.0,-0.0,2.0,0.282024,0.299134,0.282024,0.263271,,,,,,,0.087788,-0.013897,-0.172637,0.000105,-0.000162,-0.00019
206157,0.087074,-0.020873,-0.272544,0.087266,-0.0,-0.0,2.0,0.282024,0.299195,0.282024,0.263198,,,,,,,0.087788,-0.0139,-0.172641,0.003299,-0.000174,-0.000177
206177,0.087058,-0.020752,-0.272549,0.087266,-0.0,-0.0,2.0,0.282024,0.299101,0.282024,0.26331,,,,,,,0.087788,-0.013903,-0.172645,0.0,-0.000162,-0.000177
206197,0.087058,-0.020752,-0.272549,0.087266,-0.0,-0.0,2.0,0.282024,0.297438,0.282024,0.26529,,,,,,,0.087668,-0.013907,-0.172648,0.023848,-0.000162,-0.000177
206217,0.086937,-0.020764,-0.27267,0.087266,-0.0,-0.0,2.0,0.282024,0.29758,0.282024,0.265123,,,,,,,0.087668,-0.01391,-0.172652,-9.9e-05,-0.000162,-0.000189
206237,0.086937,-0.020764,-0.27267,0.087266,-0.0,-0.0,2.0,0.282024,0.298896,0.282024,0.263557,,,,,,,0.087651,-0.013913,-0.172656,0.003404,-0.000162,-0.000188
206257,0.0868,-0.02066,-0.272679,0.087266,-0.0,-0.0,2.0,0.282024,0.29816,0.282024,0.264435,,,,,,,0.08753,-0.013916,-0.172659,1e-06,-0.000151,-0.000189
206277,0.0868,-0.02066,-0.272679,0.087266,-0.0,-0.0,2.0,0.282024,0.298099,0.282024,0.264508,,,,,,,0.087531,-0.013919,-0.172663,-0.0001,-0.000151,-0.000189
206297,0.0868,-0.02066,-0.272679,0.087266,-0.0,-0.0,2.0,0.282024,0.298956,0.282024,0.263485,,,,,,,0.08753,-0.013922,-0.172667,-0.0,-0.000151,-0.000188
206317,0.086784,-0.020539,-0.272684,0.087266,-0.0,-0.0,2.0,0.282024,0.298996,0.282024,0.263438,,,,,,,0.08753,-0.013925,-0.172671,-0.0033,-0.000138,-0.000188
206337,0.0868,-0.020665,-0.272563,0.087266,-0.0,-0.0,2.0,0.282024,0.298951,0.282024,0.263491,,,,,,,0.087525,-0.013928,-0.172674,0.001074,-0.000151,-0.000176
206357,0.0868,-0.020665,-0.272563,0.087266,-0.0,-0.0,2.0,0.282024,0.299062,0.282024,0.263357,,,,,,,0.08753,-0.013931,-0.172678,-0.000107,-0.00015,-0.000175
206377,0.086663,-0.020556,-0.272689,0.087266,-0.0,-0.0,2.0,0.282024,0.29892,0.282024,0.263528,,,,,,,0.08753,-0.013934,-0.172682,-0.027365,-0.000139,-0.000188
206397,0.086679,-0.020676,-0.272684,0.087266,-0.0,-0.0,2.0,0.282024,0.297988,0.282024,0.26464,,,,,,,0.08741,-0.013937,-0.172685,-0.0001,-0.000151,-0.000187
206417,0.0868,-0.02066,-0.272679,0.087266,-0.0,-0.0,2.0,0.282024,0.298291,0.282024,0.26428,,,,,,,0.087393,-0.01394,-0.172689,0.027353,-0.000149,-0.000186
206437,0.086679,-0.020676,-0.272684,0.087266,-0.0,-0.0,2.0,0.282024,0.298049,0.282024,0.264568,,,,,,,0.087393,-0.013943,-0.172693,0.003286,-0.00015,-0.000186
206457,0.086663,-0.020556,-0.272689,0.087266,-0.0,-0.0,2.0,0.282024,0.297756,0.282024,0.264914,,,,,,,0.087411,-0.013946,-0.172697,-0.00349,-0.000138,-0.000186
206477,0.086663,-0.02055,-0.272805,0.087266,-0.0,-0.0,2.0,0.282024,0.298786,0.282024,0.263689,,,,,,,0.087394,-0.013949,-0.1727,-0.0,-0.000137,-0.000197
206497,0.086663,-0.02055,-0.272805,0.087266,-0.0,-0.0,2.0,0.282024,0.298867,0.282024,0.263592,,,,,,,0.087393,-0.013951,-0.172704,0.000102,-0.000137,-0.000197
206517,0.086663,-0.02055,-0.272805,0.087266,-0.0,-0.0,2.0,0.282024,0.297234,0.282024,0.265531,,,,,,,0.087273,-0.013954,-0.172708,0.023966,-0.000137,-0.000197
206537,0.086663,-0.02055,-0.272805,0.087266,-0.0,-0.0,2.0,0.282024,0.298742,0.282024,0.263741,,,,,,,0.087377,-0.013957,-0.172712,0.003287,-0.000136,-0.000196
