time_ms,roll,pitch,yaw,roll_rate,pitch_rate,yaw_rate,reference_roll,reference_pitch,reference_yaw,reference_throttle,throttle_1,throttle_2,throttle_3,throttle_4,roll_predicted,pitch_predicted,yaw_predicted,roll_rate_predicted,pitch_rate_predicted,yaw_rate_predicted
42510,-0.001296,-0.028782,0.090036,0.0,-0.002128,0.001064,-0.0,-0.0,-0.0,3.0,0.3261,0.313911,0.3261,0.3377,0.0,-297.111001,0.0,0.0,-9.000258,0.0
42530,-0.001165,-0.028666,0.089795,-0.001064,-0.001064,0.0,5.7e-05,-0.0,-0.0,3.0,0.3261,0.313925,0.3261,0.337687,0.0,-297.477397,0.0,4.9e-05,-9.413917,0.0
42550,-0.00079,-0.02856,0.089557,-0.001064,0.0,0.0,0.003745,-0.0,-0.0,3.0,0.3261,0.31403,0.3261,0.337592,3.6e-05,-297.85922,2e-06,0.003272,-9.741276,5e-06
42570,-0.000898,-0.028309,0.089296,-0.001064,0.001064,-0.001064,0.007396,-0.0,-0.0,3.0,0.3261,0.313957,0.3261,0.337659,0.000226,-298.252222,4e-05,0.008707,-9.932001,3.5e-05
42590,-0.000889,-0.028188,0.089053,-0.001064,0.002128,-0.001064,0.009927,-0.0,-0.0,3.0,0.3261,0.313024,0.3261,0.3385,0.000635,-298.650385,0.000183,0.013349,-9.954083,9.5e-05
42610,-0.000629,-0.027955,0.088691,0.0,0.001064,-0.001064,0.014197,-0.0,-0.0,3.0,0.3261,0.311545,0.3261,0.339823,0.001397,-299.046801,0.000554,0.019917,-9.803065,0.000186
42630,-0.000258,-0.027972,0.088332,0.0,0.0,0.0,0.017921,-0.0,-0.0,3.0,0.3261,0.310249,0.3261,0.340968,0.002997,-299.434834,0.001574,0.026213,-9.503891,0.000313
42650,-0.000133,-0.027977,0.088091,0.0,-0.001064,0.0,0.021521,-0.0,-0.0,3.0,0.3261,0.308874,0.3261,0.342171,0.0079,-299.809216,0.005694,0.03078,-9.104209,0.000468
42670,0.000106,-0.028232,0.08773,0.0,-0.002128,0.0,0.025045,-0.0,-0.0,3.0,0.3261,0.308816,0.3261,0.342222,-0.040879,-300.166511,-0.044309,0.008495,-8.662381,0.000626
42690,0.000719,-0.028259,0.087495,0.0,-0.002128,0.001064,0.027628,-0.0,-0.0,3.0,0.3261,0.307902,0.3261,0.343013,-0.005271,-300.506384,-0.009185,0.050636,-8.235452,0.00077
42710,0.001205,-0.028402,0.087259,0.001064,-0.001064,0.0,0.031642,-0.0,-0.0,3.0,0.3261,0.30771,0.3261,0.343179,-0.001169,-300.830076,-0.00698,0.063685,-7.871084,0.001037
42730,0.001579,-0.028296,0.087021,0.002128,-0.001064,0.0,0.033442,-0.0,-0.0,3.0,0.3261,0.306939,0.3261,0.343842,0.001583,-301.14057,-0.006857,0.070359,-7.604141,0.00134
42750,0.002314,-0.028328,0.086788,0.003193,-0.001064,0.0,0.036812,-0.0,-0.0,3.0,0.3261,0.305724,0.3261,0.344878,0.004248,-301.442126,-0.007611,0.076169,-7.456659,0.001662
42770,0.003412,-0.028495,0.086423,0.004257,-0.001064,0.0,0.040103,-0.0,-0.0,3.0,0.3261,0.304636,0.3261,0.345798,0.00734,-301.739715,-0.009139,0.081988,-7.439315,0.002004
42790,0.004886,-0.028436,0.086078,0.004257,-0.001064,0.001064,0.043427,-0.0,-0.0,3.0,0.3261,0.303646,0.3261,0.346628,0.011403,-302.038578,-0.011777,0.087242,-7.552805,0.002373
42810,0.006846,-0.028397,0.08586,0.004257,-0.002128,0.001064,0.046215,-0.0,-0.0,3.0,0.3261,0.303002,0.3261,0.347165,0.017547,-302.343839,-0.016578,0.090268,-7.788329,0.002771
42830,0.008934,-0.02824,0.085522,0.004257,-0.002128,0.001064,0.049467,-0.0,-0.0,3.0,0.3261,0.303545,0.3261,0.346712,0.029328,-302.6601,-0.027127,0.08882,-8.127009,0.003191
42850,0.011506,-0.028225,0.085189,0.004257,-0.002128,0.001064,0.052483,-0.0,-0.0,3.0,0.3261,0.305641,0.3261,0.344949,0.069486,-302.990922,-0.066251,0.072526,-8.538749,0.003603
42870,0.014086,-0.027966,0.084976,0.005321,-0.001064,0.0,0.055411,-0.0,-0.0,3.0,0.3261,0.305149,0.3261,0.345365,12.486851,-303.302341,-12.485861,-0.666358,-8.981664,-0.033197
42890,0.017274,-0.027852,0.084526,0.006385,0.0,0.0,0.056818,-0.0,-0.0,3.0,0.3261,0.306713,0.3261,0.344035,12.497717,-303.667705,-12.562959,-3.119204,-9.397103,-0.189923
42910,0.020577,-0.027865,0.084199,0.00745,0.001064,0.001064,0.060326,-0.0,-0.0,3.0,0.3261,0.307582,0.3261,0.34329,12.378945,-304.04723,-12.613285,-5.284358,-9.686135,-0.36011
42930,0.024607,-0.02803,0.083896,0.008514,0.001064,0.001064,0.063028,-0.0,-0.0,3.0,0.3261,0.308983,0.3261,0.342077,12.185563,-304.427912,-12.707631,-7.172919,-9.751557,-0.542567
42950,0.029125,-0.028212,0.083581,0.009578,0.001064,0.001064,0.065534,-0.0,-0.0,3.0,0.3261,0.309344,0.3261,0.341762,11.898242,-304.782262,-12.867037,-8.789131,-9.52333,-0.735035
42970,0.034259,-0.028296,0.083285,0.010642,0.0,0.0,0.067945,-0.0,-0.0,3.0,0.3261,0.311242,0.3261,0.340091,11.482937,-305.061658,-13.118778,-10.153839,-8.975793,-0.934238
42990,0.039631,-0.028506,0.082853,0.010642,-0.001064,0.0,0.069085,-0.0,-0.0,3.0,0.3261,0.313666,0.3261,0.337922,10.926449,-305.198952,-13.463236,-11.319556,-8.129979,-1.136357
43010,0.045382,-0.028486,0.082433,0.011706,-0.001064,0.0,0.071968,-0.0,-0.0,3.0,0.3261,0.315633,0.3261,0.33613,10.305216,-305.155738,-13.805336,-12.36629,-7.035996,-1.337656
43030,0.051254,-0.028467,0.082009,0.011706,0.0,0.0,0.073185,-0.0,-0.0,3.0,0.3261,0.318212,0.3261,0.333737,9.715723,-304.985577,-14.024711,-13.377278,-5.743271,-1.534841
43050,0.057498,-0.028338,0.081581,0.012771,0.001064,0.0,0.075162,-0.0,-0.0,3.0,0.3261,0.32067,0.3261,0.331411,9.148996,-304.785431,-14.10845,-14.397377,-4.272374,-1.724927
43070,0.064339,-0.028597,0.081179,0.012771,0.001064,0.001064,0.076962,-0.0,-0.0,3.0,0.3261,0.32339,0.3261,0.328781,8.557085,-304.622833,-14.104556,-15.395984,-2.608841,-1.904727
43090,0.071071,-0.028599,0.080642,0.012771,0.001064,0.001064,0.078629,-0.0,-0.0,3.0,0.3261,0.326127,0.3261,0.326073,7.922811,-304.516146,-14.072983,-16.252546,-0.726426,-2.07045
43110,0.078151,-0.02898,0.080238,0.013835,0.001064,0.001064,0.079424,-0.0,-0.0,3.0,0.3261,0.329268,0.3261,0.32289,7.260024,-304.429384,-14.058425,-16.777906,1.372485,-2.217976
43130,0.085361,-0.029235,0.079705,0.015963,0.0,0.001064,0.081435,-0.0,-0.0,3.0,0.3261,0.330904,0.3261,0.321198,6.58192,-304.30247,-14.044523,-16.786303,3.623473,-2.344124
43150,0.092809,-0.029616,0.079175,0.017028,0.0,0.001064,0.08271,-0.0,-0.0,3.0,0.3261,0.332879,0.3261,0.319125,5.864939,-304.123517,-13.938248,-16.198108,5.90628,-2.448402
43170,0.099909,-0.02973,0.078521,0.017028,-0.001064,0.001064,0.083808,-0.0,-0.0,3.0,0.3261,0.33368,0.3261,0.318273,5.030129,-303.993506,-13.616698,-15.100769,8.101915,-2.533813
43190,0.107121,-0.030086,0.077876,0.017028,-0.002128,0.002128,0.084758,-0.0,-0.0,3.0,0.3261,0.334608,0.3261,0.317279,4.14438,-304.106513,-13.16076,-13.703669,10.160793,-2.605712
43210,0.11447,-0.030076,0.077207,0.014899,-0.002128,0.002128,0.085179,-0.0,-0.0,3.0,0.3261,0.33579,0.3261,0.316003,3.49555,-304.495546,-12.917693,-12.223978,12.126789,-2.669547
43230,0.121697,-0.030055,0.076532,0.013835,-0.001064,0.002128,0.086135,-0.0,-0.0,3.0,0.3261,0.336813,0.3261,0.314886,3.019718,-305.016432,-12.938819,-10.779749,14.085057,-2.72936
43250,0.128688,-0.030021,0.075866,0.012771,0.001064,0.001064,0.086647,-0.0,-0.0,3.0,0.3261,0.339079,0.3261,0.312379,2.436562,-305.538962,-13.27884,-9.359143,16.0657,-2.788123
43270,0.135302,-0.030089,0.075188,0.011706,0.002128,0.001064,0.086848,-0.0,-0.0,3.0,0.3261,0.342472,0.3261,0.308527,1.22127,-305.728543,-14.344431,-7.861863,17.980319,-2.849251
43290,0.141674,-0.030134,0.074384,0.012771,0.002128,0.001064,0.08713,-0.0,-0.0,3.0,0.3261,0.345773,0.3261,0.304666,0.389396,-305.153886,-15.052028,-6.184836,19.613491,-2.917974
43310,0.147919,-0.030536,0.073618,0.012771,0.001064,0.001064,0.087266,-0.0,-0.0,3.0,0.3261,0.346897,0.3261,0.303324,0.141862,-304.352048,-15.16592,-4.331029,20.68802,-3.001163
43330,0.153791,-0.030918,0.072836,0.012771,-0.001064,0.001064,0.08724,-0.0,-0.0,3.0,0.3261,0.347998,0.3261,0.301994,-0.078408,-303.510939,-15.067914,-2.400777,21.099374,-3.104887
43350,0.15919,-0.031158,0.072057,0.011706,-0.002128,0.002128,0.087064,-0.0,-0.0,3.0,0.3261,0.347952,0.3261,0.30205,1.076327,-303.072675,-16.264209,-0.529468,20.998466,-3.231902
43370,0.164344,-0.031252,0.071132,0.009578,-0.001064,0.002128,0.086736,-0.0,-0.0,3.0,0.3261,0.349011,0.3261,0.30076,0.119978,-302.403448,-15.324877,1.170112,20.55325,-3.381354
43390,0.169009,-0.031336,0.070326,0.00745,0.0,0.002128,0.086253,-0.0,-0.0,3.0,0.3261,0.350007,0.3261,0.299535,0.204553,-301.578773,-15.344385,2.771744,19.958378,-3.55061
43410,0.173309,-0.031158,0.069485,0.00745,0.0,0.002128,0.085577,-0.0,-0.0,3.0,0.3261,0.350987,0.3261,0.298318,0.365064,-300.779052,-15.280045,4.264858,19.330539,-3.737353
43430,0.176883,-0.031189,0.068555,0.006385,0.0,0.001064,0.084868,-0.0,-0.0,3.0,0.3261,0.352872,0.3261,0.295944,1.390727,-300.055559,-14.394807,5.602662,18.568848,-3.938965
43450,0.179719,-0.031082,0.067722,0.005321,0.0,0.001064,0.083919,-0.0,-0.0,3.0,0.3261,0.353562,0.3261,0.295063,6.512896,-299.476446,-9.494249,6.690238,17.477577,-4.151427
43470,0.181929,-0.031194,0.066897,0.004257,0.001064,0.001064,0.082833,-0.0,-0.0,3.0,0.3261,0.353067,0.3261,0.295695,6.753855,-298.781571,-9.561157,7.418388,15.911892,-4.369087
43490,0.183774,-0.031294,0.066073,0.003193,0.001064,0.001064,0.081604,-0.0,-0.0,3.0,0.3261,0.353604,0.3261,0.295009,7.044417,-298.175496,-9.740326,7.658105,13.836595,-4.584448
43510,0.18489,-0.031371,0.065248,0.001064,-0.001064,0.001064,0.08094,-0.0,-0.0,3.0,0.3261,0.351638,0.3261,0.297502,7.503295,-297.712619,-10.074885,7.3588,11.411288,-4.790271
43530,0.184896,-0.031646,0.064312,-0.001064,-0.002128,0.001064,0.080065,-0.0,-0.0,3.0,0.3261,0.351571,0.3261,0.297587,8.238896,-297.477451,-10.673509,6.555925,8.905674,-4.982056
43550,0.184532,-0.031677,0.063462,-0.003193,-0.002128,0.002128,0.077882,-0.0,-0.0,3.0,0.3261,0.350704,0.3261,0.298669,9.030495,-297.52346,-11.333251,5.34031,6.588985,-5.159087
43570,0.183566,-0.031569,0.0626,-0.004257,-0.001064,0.002128,0.076046,-0.0,-0.0,3.0,0.3261,0.351733,0.3261,0.297383,9.518232,-297.711153,-11.720836,3.833094,4.676355,-5.323688
43590,0.182238,-0.031331,0.061726,-0.003193,0.0,0.001064,0.074161,-0.0,-0.0,3.0,0.3261,0.352676,0.3261,0.296192,9.787343,-297.916308,-11.947627,2.170173,3.31367,-5.479609
43610,0.180535,-0.031083,0.06084,-0.004257,0.0,0.001064,0.072131,-0.0,-0.0,3.0,0.3261,0.353551,0.3261,0.295077,9.925211,-298.116241,-12.118931,0.502901,2.580917,-5.630398
43630,0.178592,-0.031074,0.059987,-0.004257,0.0,0.001064,0.070717,-0.0,-0.0,3.0,0.3261,0.353108,0.3261,0.295643,9.96135,-298.316223,-12.271789,-1.009223,2.497062,-5.778309
43650,0.176523,-0.03093,0.058989,-0.005321,0.0,0.001064,0.068169,-0.0,-0.0,3.0,0.3261,0.352955,0.3261,0.295838,9.910317,-298.524669,-12.421392,-2.215187,3.019927,-5.923981
43670,0.174569,-0.030923,0.058124,-0.005321,0.0,0.001064,0.065837,-0.0,-0.0,3.0,0.3261,0.353851,0.3261,0.294693,9.783283,-298.749064,-12.582079,-2.992039,4.047385,-6.06692
43690,0.172127,-0.031016,0.057145,-0.006385,-0.001064,0.001064,0.063369,-0.0,-0.0,3.0,0.3261,0.353571,0.3261,0.295051,9.581815,-298.992875,-12.781003,-3.261753,5.423823,-6.206542
43710,0.169319,-0.031113,0.056285,-0.00745,-0.002128,0.002128,0.060765,-0.0,-0.0,3.0,0.3261,0.353224,0.3261,0.295495,9.27403,-299.244601,-13.079838,-3.001947,6.951112,-6.343277
43730,0.166273,-0.031075,0.055292,-0.008514,-0.001064,0.002128,0.059373,-0.0,-0.0,3.0,0.3261,0.353527,0.3261,0.295108,8.749799,-299.445206,-13.61462,-2.251482,8.402344,-6.479171
43750,0.162736,-0.030793,0.054386,-0.008514,-0.001064,0.001064,0.056887,-0.0,-0.0,3.0,0.3261,0.353995,0.3261,0.294508,7.982357,-299.432722,-14.431367,-1.116839,9.540596,-6.617607
43770,0.158718,-0.030626,0.053497,-0.009578,-0.001064,0.001064,0.053838,-0.0,-0.0,3.0,0.3261,0.353412,0.3261,0.295255,7.49983,-299.134238,-15.017008,0.221187,10.144965,-6.762076
43790,0.154323,-0.030206,0.052567,-0.010642,0.0,0.001064,0.050919,-0.0,-0.0,3.0,0.3261,0.35267,0.3261,0.2962,7.370725,-298.719431,-15.322693,1.522678,10.05784,-6.914419
43810,0.149811,-0.030023,0.051542,-0.011706,0.0,0.001064,0.04789,-0.0,-0.0,3.0,0.3261,0.351912,0.3261,0.297158,7.423519,-298.291963,-15.547219,2.530864,9.255035,-7.073558
43830,0.145053,-0.029847,0.050636,-0.011706,0.0,0.002128,0.044751,-0.0,-0.0,3.0,0.3261,0.351101,0.3261,0.298175,7.60729,-297.898412,-15.783386,3.037182,7.876344,-7.235818
43850,0.139677,-0.030027,0.04975,-0.012771,-0.001064,0.001064,0.041994,-0.0,-0.0,3.0,0.3261,0.349986,0.3261,0.29956,7.934211,-297.569198,-16.105554,2.938034,6.195879,-7.396853
43870,0.134063,-0.029963,0.048843,-0.013835,-0.002128,0.001064,0.038637,-0.0,-0.0,3.0,0.3261,0.34895,0.3261,0.300835,8.484797,-297.339187,-16.635381,2.261112,4.548033,-7.553837
43890,0.127949,-0.030134,0.047936,-0.014899,-0.001064,0.001064,0.035297,-0.0,-0.0,3.0,0.3261,0.348836,0.3261,0.300974,9.310431,-297.285218,-17.457447,1.158279,3.244833,-7.706354
43910,0.121239,-0.030056,0.047014,-0.015963,-0.001064,0.001064,0.031912,-0.0,-0.0,3.0,0.3261,0.347447,0.3261,0.302661,9.934814,-297.446497,-18.119583,-0.121263,2.512508,-7.855592
43930,0.11403,-0.030099,0.046204,-0.017028,-0.001064,0.001064,0.030198,-0.0,-0.0,3.0,0.3261,0.345371,0.3261,0.305143,10.176047,-297.709416,-18.451892,-1.289258,2.451035,-8.002791
43950,0.10671,-0.030018,0.045269,-0.017028,-0.001064,0.001064,0.025382,-0.0,-0.0,3.0,0.3261,0.34415,0.3261,0.306579,10.226828,-298.010498,-18.646216,-2.082055,3.014193,-8.14829
43970,0.099021,-0.029812,0.044313,-0.018092,0.0,0.001064,0.021786,-0.0,-0.0,3.0,0.3261,0.342413,0.3261,0.308596,10.183581,-298.338525,-18.789288,-2.31759,4.020832,-8.291904
43990,0.090971,-0.029611,0.04348,-0.019156,0.0,0.001064,0.018195,-0.0,-0.0,3.0,0.3261,0.341644,0.3261,0.309478,10.092117,-298.693807,-18.920936,-1.943252,5.197357,-8.434107
44010,0.082306,-0.02953,0.042764,-0.02022,-0.001064,0.001064,0.014607,-0.0,-0.0,3.0,0.3261,0.340094,0.3261,0.311239,10.001955,-298.977232,-19.033849,-1.312928,6.007989,-8.540905
44030,0.073521,-0.029447,0.041921,-0.02022,-0.002128,0.001064,0.012785,-0.0,-0.0,3.0,0.3261,0.336766,0.3261,0.314938,9.750706,-299.463378,-19.348433,0.137109,6.883726,-8.722437
44050,0.064251,-0.02912,0.041182,-0.02022,-0.002128,0.001064,0.010508,-0.0,-0.0,3.0,0.3261,0.333915,0.3261,0.318023,9.028904,-299.783277,-20.157631,1.324525,6.957728,-8.872902
44070,0.054492,-0.029033,0.040448,-0.021285,-0.001064,0.0,0.005479,-0.0,-0.0,3.0,0.3261,0.332853,0.3261,0.319152,7.575731,-299.625475,-21.721256,2.202397,6.438539,-9.027668
44090,0.044611,-0.028825,0.039698,-0.022349,-0.001064,0.0,0.001811,-0.0,-0.0,3.0,0.3261,0.33011,0.3261,0.322023,7.475844,-299.201767,-21.944643,2.49238,5.460708,-9.184157
44110,0.034725,-0.028994,0.039087,-0.023413,-0.001064,0.0,-0.001879,-0.0,-0.0,3.0,0.3261,0.327298,0.3261,0.324896,7.530602,-298.784703,-22.015872,2.079021,4.316288,-9.33927
44130,0.024481,-0.028669,0.03845,-0.023413,-0.001064,0.0,-0.005542,-0.0,-0.0,3.0,0.3261,0.326669,0.3261,0.32553,7.592425,-298.379067,-22.056522,1.081084,3.366455,-9.491359
44150,0.014112,-0.028591,0.037818,-0.023413,-0.001064,0.001064,-0.009491,-0.0,-0.0,3.0,0.3261,0.324844,0.3261,0.32735,7.623221,-297.977942,-22.086129,-0.184725,2.901827,-9.640543
44170,0.003501,-0.02827,0.037427,-0.023413,0.0,0.0,-0.012749,-0.0,-0.0,3.0,0.3261,0.322644,0.3261,0.329508,7.615747,-297.573805,-22.116453,-1.305506,3.03015,-9.78748
44190,-0.007233,-0.027948,0.037031,-0.022349,0.001064,-0.001064,-0.016464,-0.0,-0.0,3.0,0.3261,0.319251,0.3261,0.332759,7.606345,-297.160517,-22.178408,-1.913481,3.63308,-9.932474
44210,-0.017721,-0.02751,0.036637,-0.022349,0.0,-0.001064,-0.018279,-0.0,-0.0,3.0,0.3261,0.315185,0.3261,0.336541,6.421213,-296.751271,-21.073233,-1.818367,4.410672,-10.076029
44230,-0.028455,-0.027192,0.036243,-0.023413,-0.002128,0.0,-0.021814,-0.0,-0.0,3.0,0.3261,0.31275,0.3261,0.338747,7.327087,-296.364192,-22.0566,-1.124297,5.003179,-10.219678
44250,-0.038834,-0.027122,0.036098,-0.023413,-0.002128,0.0,-0.025611,-0.0,-0.0,3.0,0.3261,0.310441,0.3261,0.340799,7.334984,-295.906358,-22.104383,-0.067335,5.14021,-10.365488
44270,-0.049333,-0.026927,0.035949,-0.023413,-0.002128,-0.001064,-0.028713,-0.0,-0.0,3.0,0.3261,0.30905,0.3261,0.342018,7.361132,-295.444363,-22.135973,0.939193,4.741189,-10.51447
44290,-0.059832,-0.026601,0.036043,-0.023413,-0.003193,-0.001064,-0.032267,-0.0,-0.0,3.0,0.3261,0.307746,0.3261,0.343148,7.407535,-294.986601,-22.171386,1.520645,3.957247,-10.665625
44310,-0.069967,-0.026157,0.036151,-0.022349,-0.002128,-0.001064,-0.035665,-0.0,-0.0,3.0,0.3261,0.306448,0.3261,0.344262,7.443303,-294.536136,-22.225681,1.478282,3.115939,-10.816966
44330,-0.079987,-0.025952,0.036372,-0.021285,-0.001064,-0.001064,-0.038979,-0.0,-0.0,3.0,0.3261,0.303782,0.3261,0.346514,7.388852,-294.091885,-22.354099,0.872526,2.592582,-10.967182
44350,-0.08988,-0.025494,0.036724,-0.02022,0.0,-0.002128,-0.042282,-0.0,-0.0,3.0,0.3261,0.301067,0.3261,0.34876,4.419529,-293.68944,-25.35871,0.01043,2.643808,-11.116036
44370,-0.099536,-0.025165,0.036958,-0.02022,0.0,-0.001064,-0.045175,-0.0,-0.0,3.0,0.3261,0.298193,0.3261,0.351086,4.480312,-294.146735,-25.289819,-0.631962,3.263341,-11.263611
44390,-0.108712,-0.025072,0.037428,-0.019156,-0.001064,-0.001064,-0.048382,-0.0,-0.0,3.0,0.3261,0.294141,0.3261,0.35428,4.413852,-294.6213,-25.333432,-0.816281,4.162176,-11.410048
44410,-0.117278,-0.024985,0.037904,-0.02022,-0.001064,-0.002128,-0.051392,-0.0,-0.0,3.0,0.3261,0.292894,0.3261,0.355243,4.369992,-295.112824,-25.364424,-0.467013,4.897374,-11.55618
44430,-0.125598,-0.024645,0.038518,-0.02022,-0.001064,-0.002128,-0.052893,-0.0,-0.0,3.0,0.3261,0.291103,0.3261,0.35661,4.360696,-295.61789,-25.394358,0.202848,5.066204,-11.70354
44450,-0.133804,-0.024295,0.039261,-0.019156,-0.001064,-0.002128,-0.055763,-0.0,-0.0,3.0,0.3261,0.291203,0.3261,0.356534,4.393513,-296.127002,-25.425698,0.791564,4.523795,-11.852839
44470,-0.141514,-0.023817,0.040135,-0.018092,0.0,-0.002128,-0.057428,-0.0,-0.0,3.0,0.3261,0.29098,0.3261,0.356703,4.462179,-296.631267,-25.464921,0.926414,3.485432,-12.003019
44490,-0.148871,-0.023452,0.041134,-0.015963,0.0,-0.003193,-0.061219,-0.0,-0.0,3.0,0.3261,0.290248,0.3261,0.357256,-30.968539,-296.893977,10.00057,1.786779,2.436342,-12.152508
44510,-0.155976,-0.023215,0.041998,-0.013835,0.001064,-0.003193,-0.063824,-0.0,-0.0,3.0,0.3261,0.28912,0.3261,0.358102,-33.613642,-296.868041,12.775304,5.132627,-0.508692,-12.303063
44530,-0.162486,-0.023098,0.04299,-0.012771,0.001064,-0.003193,-0.066278,-0.0,-0.0,3.0,0.3261,0.286695,0.3261,0.359896,-38.884732,-297.326328,18.265152,5.240642,-5.191858,-12.443813
44550,-0.168019,-0.02323,0.044093,-0.011706,0.0,-0.003193,-0.068619,-0.0,-0.0,3.0,0.3261,0.284536,0.3261,0.361465,-38.694082,-297.895672,18.238798,2.079879,-8.894834,-12.57539
44570,-0.173309,-0.023361,0.045198,-0.011706,-0.001064,-0.003193,-0.06985,-0.0,-0.0,3.0,0.3261,0.281973,0.3261,0.363294,-38.671377,-298.524062,18.213407,-2.516151,-9.316734,-12.721623
44590,-0.178234,-0.023352,0.046561,-0.011706,-0.001064,-0.003193,-0.072777,-0.0,-0.0,3.0,0.3261,0.283095,0.3261,0.362498,-38.832792,-299.134782,18.196187,-5.681223,-6.023254,-12.888389
44610,-0.182658,-0.023236,0.047813,-0.010642,-0.001064,-0.003193,-0.074723,-0.0,-0.0,3.0,0.3261,0.283999,0.3261,0.361851,-39.022874,-299.680216,18.247097,-5.265908,-0.916021,-13.050582
44630,-0.186719,-0.023114,0.049192,-0.009578,0.0,-0.003193,-0.076551,-0.0,-0.0,3.0,0.3261,0.283526,0.3261,0.36219,-42.450718,-300.099429,14.987799,-1.322362,2.817063,-13.197612
44650,-0.190423,-0.022875,0.050599,-0.006385,0.0,-0.004257,-0.077424,-0.0,-0.0,3.0,0.3261,0.28279,0.3261,0.362715,-42.715159,-299.60182,14.706962,3.832438,2.702091,-13.346949
44670,-0.193755,-0.022751,0.052114,-0.005321,0.0,-0.004257,-0.07913,-0.0,-0.0,3.0,0.3261,0.282506,0.3261,0.362916,-42.430907,-299.063428,14.800075,6.640167,-1.322563,-13.498768
44690,-0.196349,-0.022775,0.053503,-0.004257,0.0,-0.004257,-0.080437,-0.0,-0.0,3.0,0.3261,0.280877,0.3261,0.364066,-42.142044,-298.508045,14.888964,4.98612,-6.593657,-13.634483
44710,-0.198216,-0.022795,0.055151,-0.003193,0.0,-0.003193,-0.081831,-0.0,-0.0,3.0,0.3261,0.281021,0.3261,0.363965,-42.038175,-297.885961,15.016109,-0.244103,-9.417391,-13.768306
44730,-0.199346,-0.022955,0.056795,-0.002128,0.0,-0.004257,-0.083086,-0.0,-0.0,3.0,0.3261,0.281396,0.3261,0.363701,-42.349997,-297.24949,15.302858,-5.569568,-7.640297,-13.928893
44750,-0.200233,-0.023121,0.058445,-0.002128,-0.001064,-0.004257,-0.084134,-0.0,-0.0,3.0,0.3261,0.281785,0.3261,0.363427,-52.605952,-296.980596,25.325923,-7.144667,-2.291096,-14.098736
44770,-0.200757,-0.023298,0.060103,-0.001064,-0.001064,-0.004257,-0.085144,-0.0,-0.0,3.0,0.3261,0.282303,0.3261,0.363061,-51.954436,-297.487474,24.429607,-3.579845,2.78695,-14.248183
44790,-0.201032,-0.023215,0.062035,0.0,-0.001064,-0.004257,-0.0858,-0.0,-0.0,3.0,0.3261,0.284231,0.3261,0.361684,-52.042375,-298.075622,24.484975,2.814261,3.591223,-14.394098
44810,-0.200927,-0.023023,0.063978,0.0,0.0,-0.005321,-0.086158,-0.0,-0.0,3.0,0.3261,0.283294,0.3261,0.362356,-51.852807,-298.66217,24.487376,7.251726,-0.866505,-14.547624
44830,-0.200587,-0.022732,0.06583,0.001064,0.0,-0.005321,-0.086674,-0.0,-0.0,3.0,0.3261,0.283966,0.3261,0.361875,-51.606439,-299.25942,24.391805,6.05292,-7.390712,-14.681369
44850,-0.199997,-0.022546,0.067908,0.001064,0.001064,-0.004257,-0.087024,-0.0,-0.0,3.0,0.3261,0.28323,0.3261,0.362401,-51.98857,-299.909037,23.79596,-0.211077,-10.673995,-14.809407
44870,-0.199289,-0.022488,0.069977,0.001064,0.001064,-0.005321,-0.087221,-0.0,-0.0,3.0,0.3261,0.282487,0.3261,0.362931,-39.526962,-300.092924,36.367226,-6.597365,-7.552131,-14.973498
44890,-0.198711,-0.02267,0.072018,0.001064,0.001064,-0.005321,-0.087263,-0.0,-0.0,3.0,0.3261,0.281634,0.3261,0.363534,-39.084376,-300.621501,37.088391,-7.536406,-0.014283,-15.142375
44910,-0.198134,-0.022852,0.07406,0.001064,0.0,-0.005321,-0.087155,-0.0,-0.0,3.0,0.3261,0.280722,0.3261,0.364174,-39.4323,-301.23041,36.919025,-1.808785,5.842293,-15.283119
44930,-0.1978,-0.022638,0.076386,0.001064,0.0,-0.005321,-0.08689,-0.0,-0.0,3.0,0.3261,0.279648,0.3261,0.364923,-39.398077,-301.877584,36.789235,6.12187,4.656988,-15.435612
44950,-0.197214,-0.022568,0.078572,0.001064,0.0,-0.005321,-0.086469,-0.0,-0.0,3.0,0.3261,0.278609,0.3261,0.365642,-39.043842,-302.503264,36.703051,9.162423,-3.251716,-15.591647
44970,-0.196624,-0.022366,0.080892,0.001064,0.0,-0.005321,-0.085899,-0.0,-0.0,3.0,0.3261,0.277506,0.3261,0.366398,-38.8918,-303.186502,36.865213,3.843,-11.306722,-15.71124
44990,-0.196062,-0.022518,0.083311,0.001064,0.001064,-0.005321,-0.085556,-0.0,-0.0,3.0,0.3261,0.276479,0.3261,0.367097,-38.652208,-303.654455,36.664659,-5.920231,-11.942768,-15.858605
45010,-0.19572,-0.022416,0.085731,0.0,0.001064,-0.005321,-0.08441,-0.0,-0.0,3.0,0.3261,0.275027,0.3261,0.368076,-38.982671,-304.397188,36.651288,-11.173709,-3.636343,-16.051663
45030,-0.195033,-0.022443,0.088288,0.0,0.002128,-0.005321,-0.083387,-0.0,-0.0,3.0,0.3261,0.275269,0.3261,0.367914,-39.387278,-305.044696,36.74848,-6.033234,6.536926,-16.198884
45050,-0.194079,-0.02224,0.090861,0.001064,0.002128,-0.006385,-0.082822,-0.0,-0.0,3.0,0.3261,0.274289,0.3261,0.368569,-39.290158,-305.735119,37.039145,5.789682,8.539111,-16.340411
45070,-0.193016,-0.022277,0.093535,0.002128,0.001064,-0.006385,-0.081594,-0.0,-0.0,3.0,0.3261,0.273076,0.3261,0.369374,-36.940217,-306.234539,39.08446,13.17939,-0.727648,-16.516953
45090,-0.19219,-0.022183,0.096213,0.003193,0.0,-0.006385,-0.080155,-0.0,-0.0,3.0,0.3261,0.271666,0.3261,0.3703,-35.453129,-305.635964,40.071828,7.870869,-13.066181,-16.626535
45110,-0.190896,-0.022239,0.098913,0.003193,0.0,-0.006385,-0.078769,-0.0,-0.0,3.0,0.3261,0.270458,0.3261,0.371085,-35.352458,-304.733382,40.051155,-6.344512,-15.725049,-16.752749
45130,-0.18921,-0.022184,0.101723,0.003193,0.0,-0.006385,-0.077088,-0.0,-0.0,3.0,0.3261,0.269283,0.3261,0.371842,-35.775978,-303.892586,40.029103,-15.646464,-4.408322,-16.974371
45150,-0.18717,-0.022155,0.104563,0.003193,0.0,-0.006385,-0.075249,-0.0,-0.0,3.0,0.3261,0.269746,0.3261,0.371544,-35.730427,-303.224001,39.364841,-9.116755,10.786788,-17.111436
45170,-0.185254,-0.022102,0.107641,0.003193,0.0,-0.006385,-0.073307,-0.0,-0.0,3.0,0.3261,0.270114,0.3261,0.371307,-28.665969,-303.052776,32.181032,8.415313,13.318959,-17.241903
45190,-0.182959,-0.021845,0.110634,0.004257,0.0,-0.006385,-0.07109,-0.0,-0.0,3.0,0.3261,0.272068,0.3261,0.370036,-29.863381,-302.542269,33.934105,18.645424,-1.921619,-17.451414
45210,-0.18041,-0.021598,0.113735,0.006385,0.0,-0.00745,-0.069228,-0.0,-0.0,3.0,0.3261,0.272731,0.3261,0.369601,-29.096668,-301.734185,33.755825,8.461485,-20.31258,-17.514463
45230,-0.177621,-0.021252,0.116876,0.00745,0.001064,-0.00745,-0.06788,-0.0,-0.0,3.0,0.3261,0.27218,0.3261,0.369963,-29.114346,-300.601966,33.653743,-13.651069,-20.418742,-17.663071
45250,-0.174335,-0.020946,0.120012,0.008514,0.0,-0.00745,-0.065456,-0.0,-0.0,3.0,0.3261,0.269845,0.3261,0.371481,-29.632667,-299.847715,33.890136,-23.115866,1.427296,-17.949827
45270,-0.170683,-0.020683,0.123038,0.008514,0.0,-0.00745,-0.06297,-0.0,-0.0,3.0,0.3261,0.269188,0.3261,0.371903,-30.762594,-298.988103,33.480882,-5.453348,22.686779,-17.997621
45290,-0.166882,-0.020226,0.125703,0.008514,-0.001064,-0.006385,-0.060367,-0.0,-0.0,3.0,0.3261,0.270118,0.3261,0.371305,-30.533389,-297.819602,33.503749,22.551522,16.358606,-18.218207
45310,-0.16234,-0.019757,0.127797,0.008514,-0.002128,-0.004257,-0.058953,-0.0,-0.0,3.0,0.3261,0.271865,0.3261,0.370169,-29.61268,-296.993115,33.670714,27.011012,-15.343682,-18.438987
45330,-0.157138,-0.018787,0.129207,0.009578,-0.002128,-0.002128,-0.055125,-0.0,-0.0,3.0,0.3261,0.27289,0.3261,0.369496,-28.213317,-296.354784,32.985798,-3.235576,-36.23632,-18.352147
45350,-0.152061,-0.018011,0.129632,0.010642,-0.002128,0.0,-0.052237,-0.0,-0.0,3.0,0.3261,0.275777,0.3261,0.367572,-29.309106,-294.930957,33.453132,-35.665958,-16.384881,-18.800714
45370,-0.146623,-0.017435,0.129327,0.012771,-0.001064,0.001064,-0.049258,-0.0,-0.0,3.0,0.3261,0.277261,0.3261,0.366565,-30.74448,-294.037326,33.447237,-26.757878,27.432133,-18.949543
45390,-0.140574,-0.017182,0.128365,0.013835,-0.001064,0.002128,-0.046101,-0.0,-0.0,3.0,0.3261,0.280414,0.3261,0.36439,-30.932571,-292.393834,33.666944,21.293535,39.710333,-18.925558
45410,-0.13382,-0.01723,0.127182,0.015963,0.0,0.002128,-0.044382,-0.0,-0.0,3.0,0.3261,0.281482,0.3261,0.36364,-29.278969,-291.091764,33.304997,50.65869,-4.585791,-19.58174
45430,-0.126722,-0.017786,0.125826,0.017028,0.0,0.003193,-0.03971,-0.0,-0.0,3.0,0.3261,0.281549,0.3261,0.363593,-21.482035,-290.79012,27.173686,13.33317,-56.423706,-19.144423
45450,-0.119153,-0.018484,0.124491,0.017028,0.0,0.003193,-0.037987,-0.0,-0.0,3.0,0.3261,0.283004,0.3261,0.362563,-19.757776,-292.175155,24.852006,-52.346599,-41.625279,-19.700565
45470,-0.110853,-0.019331,0.123261,0.017028,0.001064,0.002128,-0.034649,-0.0,-0.0,3.0,0.3261,0.287021,0.3261,0.359657,-22.639164,-293.154665,23.956861,-57.528384,37.465985,-20.30125
45490,-0.102195,-0.02019,0.122055,0.018092,0.001064,0.003193,-0.031221,-0.0,-0.0,3.0,0.3261,0.289705,0.3261,0.357664,-25.13977,-291.626975,22.789523,25.50641,76.187685,-19.565558
45510,-0.093071,-0.021427,0.120958,0.019156,0.002128,0.002128,-0.027224,-0.0,-0.0,3.0,0.3261,0.293743,0.3261,0.354589,-23.303567,-289.27875,23.443249,92.297835,2.362206,-21.408924
45530,-0.083824,-0.022659,0.119858,0.021285,0.003193,0.002128,-0.024161,-0.0,-0.0,3.0,0.3261,0.296788,0.3261,0.352205,-19.26039,-288.368928,25.256804,25.80096,-102.872734,-19.838185
45550,-0.074095,-0.024035,0.118639,0.022349,0.003193,0.002128,-0.020184,-0.0,-0.0,3.0,0.3261,0.299687,0.3261,0.349884,-18.204964,-291.045138,23.997104,-100.410971,-73.064965,-21.390338
45570,-0.063876,-0.025302,0.117572,0.023413,0.002128,0.002128,-0.016616,-0.0,-0.0,3.0,0.3261,0.301599,0.3261,0.348323,-23.655386,-292.159922,24.203132,-98.360066,95.530889,-22.33656
45590,-0.053017,-0.026105,0.116523,0.023413,0.0,0.002128,-0.014799,-0.0,-0.0,3.0,0.3261,0.304409,0.3261,0.345988,-38.642791,-289.048754,35.145174,82.832824,143.023595,-20.462955
45610,-0.042014,-0.026537,0.115351,0.022349,-0.001064,0.003193,-0.011151,-0.0,-0.0,3.0,0.3261,0.307957,0.3261,0.342966,-35.060086,-286.38497,31.683193,183.485605,-67.957966,-26.503991
45630,-0.030736,-0.026356,0.114316,0.022349,-0.002128,0.003193,-0.008653,-0.0,-0.0,3.0,0.3261,0.312003,0.3261,0.339414,-40.20664,-289.053528,20.693099,-56.508791,-235.575584,-18.633153
45650,-0.019201,-0.025931,0.113264,0.023413,-0.002128,0.003193,-0.004291,-0.0,-0.0,3.0,0.3261,0.315503,0.3261,0.336249,-49.617925,-285.788059,21.452157,-292.008418,13.476627,-33.628515
45670,-0.007545,-0.025497,0.112206,0.024477,-0.001064,0.002128,-0.000523,-0.0,-0.0,3.0,0.3261,0.319249,0.3261,0.332761,-48.089421,-287.39431,6.354034,80.339381,392.072558,-16.621436
45690,0.004203,-0.025543,0.111245,0.026606,0.001064,0.002128,0.003147,-0.0,-0.0,3.0,0.3261,0.321852,0.3261,0.330275,-93.832129,-289.299547,-53.070448,545.250887,-154.263535,-55.682921
45710,0.01581,-0.025933,0.110162,0.026606,0.002128,0.002128,0.006815,-0.0,-0.0,3.0,0.3261,0.324449,0.3261,0.327741,44.212756,-297.046239,-176.73427,-395.733326,-844.348952,-38.758836
45730,0.02775,-0.026939,0.109215,0.026606,0.001064,0.002128,0.009333,-0.0,-0.0,3.0,0.3261,0.326373,0.3261,0.325827,-22.40162,-251.923647,-149.83407,507.615951,5171.583927,-71.999007
45750,0.039928,-0.028066,0.108262,0.026606,0.001064,0.002128,0.013553,-0.0,-0.0,3.0,0.3261,0.329063,0.3261,0.3231,-14217.401099,-25391.605929,23833.973841,11704847493.191936,-11990049967.082428,-1424824929.831152
45770,0.052231,-0.029185,0.107319,0.026606,0.0,0.002128,0.017195,-0.0,-0.0,3.0,0.3261,0.330994,0.3261,0.321104,1.0474981068978131e+30,7.707485059158103e+29,4.8599368083675644e+29,-1.4915883628069383e+61,-1.4357999620071868e+61,1.1284096869762545e+60
45790,0.06407,-0.029899,0.106371,0.025541,-0.001064,0.003193,0.020773,-0.0,-0.0,3.0,0.3261,0.334872,0.3261,0.316996,,,,,,
45810,0.0758,-0.030353,0.105521,0.025541,-0.002128,0.003193,0.024325,-0.0,-0.0,3.0,0.3261,0.337731,0.3261,0.313877,,,,,,
45830,0.087455,-0.029929,0.104496,0.025541,-0.002128,0.002128,0.026152,-0.0,-0.0,3.0,0.3261,0.340002,0.3261,0.311343,,,,,,
45850,0.098865,-0.029603,0.103471,0.023413,-0.001064,0.002128,0.031061,-0.0,-0.0,3.0,0.3261,0.340184,0.3261,0.311137,,,,,,
45870,0.109794,-0.029117,0.102417,0.022349,0.001064,0.002128,0.034469,-0.0,-0.0,3.0,0.3261,0.34297,0.3261,0.307953,,,,,,
45890,0.120467,-0.028974,0.101382,0.02022,0.002128,0.002128,0.036218,-0.0,-0.0,3.0,0.3261,0.345101,0.3261,0.305461,,,,,,
45910,0.130876,-0.029178,0.100476,0.02022,0.002128,0.001064,0.039516,-0.0,-0.0,3.0,0.3261,0.347833,0.3261,0.302195,,,,,,
45930,0.140768,-0.029957,0.099601,0.02022,0.001064,0.001064,0.042781,-0.0,-0.0,3.0,0.3261,0.350445,0.3261,0.298992,,,,,,
45950,0.150173,-0.030701,0.098723,0.02022,0.0,0.002128,0.0455,-0.0,-0.0,3.0,0.3261,0.350945,0.3261,0.29837,,,,,,
45970,0.158731,-0.031283,0.097954,0.019156,0.0,0.002128,0.04894,-0.0,-0.0,3.0,0.3261,0.352111,0.3261,0.296907,,,,,,
45990,0.167053,-0.031725,0.097172,0.017028,0.0,0.001064,0.051945,-0.0,-0.0,3.0,0.3261,0.352296,0.3261,0.296674,,,,,,
46010,0.174796,-0.031768,0.096374,0.015963,0.0,0.001064,0.054814,-0.0,-0.0,3.0,0.3261,0.353463,0.3261,0.29519,,,,,,
46030,0.182047,-0.031671,0.095663,0.013835,0.0,0.001064,0.05778,-0.0,-0.0,3.0,0.3261,0.354488,0.3261,0.293873,,,,,,
46050,0.188449,-0.031284,0.094911,0.012771,-0.001064,0.001064,0.060121,-0.0,-0.0,3.0,0.3261,0.355476,0.3261,0.29259,,,,,,
46070,0.194347,-0.031236,0.094191,0.010642,0.0,0.001064,0.062819,-0.0,-0.0,3.0,0.3261,0.356243,0.3261,0.291587,,,,,,
46090,0.199514,-0.031164,0.093593,0.009578,0.001064,0.001064,0.065321,-0.0,-0.0,3.0,0.3261,0.356877,0.3261,0.290751,,,,,,
46110,0.204067,-0.031196,0.09313,0.009578,0.001064,0.0,0.067688,-0.0,-0.0,3.0,0.3261,0.356334,0.3261,0.291467,,,,,,
46130,0.2075,-0.031528,0.092574,0.008514,0.0,0.0,0.068838,-0.0,-0.0,3.0,0.3261,0.355837,0.3261,0.292119,,,,,,
46150,0.210555,-0.031853,0.092125,0.006385,-0.001064,0.0,0.071784,-0.0,-0.0,3.0,0.3261,0.354724,0.3261,0.293567,,,,,,
46170,0.212871,-0.032389,0.091708,0.003193,0.0,0.001064,0.072888,-0.0,-0.0,3.0,0.3261,0.353932,0.3261,0.29459,,,,,,
46190,0.214589,-0.032423,0.091349,0.002128,-0.001064,0.001064,0.074962,-0.0,-0.0,3.0,0.3261,0.353758,0.3261,0.294812,,,,,,
46210,0.215222,-0.03229,0.090985,0.0,-0.002128,0.001064,0.076765,-0.0,-0.0,3.0,0.3261,0.353346,0.3261,0.29534,,,,,,
46230,0.215126,-0.031883,0.090584,-0.001064,-0.001064,0.0,0.078444,-0.0,-0.0,3.0,0.3261,0.352749,0.3261,0.296099,,,,,,
46250,0.214518,-0.031708,0.090318,-0.002128,0.0,0.0,0.079232,-0.0,-0.0,3.0,0.3261,0.353325,0.3261,0.295366,,,,,,
46270,0.213552,-0.031397,0.090042,-0.002128,0.0,0.0,0.081257,-0.0,-0.0,3.0,0.3261,0.352352,0.3261,0.296603,,,,,,
46290,0.212332,-0.031319,0.089794,-0.003193,-0.001064,0.0,0.082523,-0.0,-0.0,3.0,0.3261,0.351503,0.3261,0.297671,,,,,,
46310,0.2111,-0.031484,0.089572,-0.003193,-0.001064,-0.001064,0.083646,-0.0,-0.0,3.0,0.3261,0.350672,0.3261,0.29871,,,,,,
46330,0.209723,-0.031885,0.089359,-0.004257,-0.001064,0.0,0.084615,-0.0,-0.0,3.0,0.3261,0.350907,0.3261,0.298417,,,,,,
46350,0.208252,-0.031932,0.089246,-0.005321,-0.001064,0.0,0.085247,-0.0,-0.0,3.0,0.3261,0.352273,0.3261,0.296702,,,,,,
46370,0.20666,-0.031974,0.089132,-0.005321,-0.001064,0.0,0.08606,-0.0,-0.0,3.0,0.3261,0.352457,0.3261,0.29647,,,,,,
46390,0.204936,-0.031997,0.088882,-0.004257,-0.001064,-0.001064,0.086603,-0.0,-0.0,3.0,0.3261,0.352665,0.3261,0.296207,,,,,,
46410,0.202855,-0.031884,0.088622,-0.004257,0.0,0.0,0.08681,-0.0,-0.0,3.0,0.3261,0.352851,0.3261,0.29597,,,,,,
46430,0.20091,-0.03167,0.088485,-0.004257,0.0,0.0,0.087108,-0.0,-0.0,3.0,0.3261,0.353036,0.3261,0.295735,,,,,,
46450,0.199196,-0.031463,0.08833,-0.004257,-0.001064,0.0,0.087264,-0.0,-0.0,3.0,0.3261,0.352239,0.3261,0.296746,,,,,,
46470,0.197479,-0.031611,0.088107,-0.005321,-0.001064,-0.001064,0.087207,-0.0,-0.0,3.0,0.3261,0.351487,0.3261,0.297692,,,,,,
46490,0.19562,-0.031885,0.088,-0.006385,-0.001064,0.0,0.087115,-0.0,-0.0,3.0,0.3261,0.352844,0.3261,0.295979,,,,,,
46510,0.19354,-0.031921,0.088007,-0.006385,-0.001064,0.0,0.086821,-0.0,-0.0,3.0,0.3261,0.353106,0.3261,0.295646,,,,,,
46530,0.191321,-0.032071,0.08801,-0.006385,-0.001064,-0.001064,0.08637,-0.0,-0.0,3.0,0.3261,0.353361,0.3261,0.29532,,,,,,
46550,0.188994,-0.031962,0.087868,-0.006385,-0.001064,-0.001064,0.085737,-0.0,-0.0,3.0,0.3261,0.352554,0.3261,0.296347,,,,,,
46570,0.186416,-0.032075,0.087629,-0.00745,0.0,0.0,0.085074,-0.0,-0.0,3.0,0.3261,0.352742,0.3261,0.296108,,,,,,
46590,0.183729,-0.031842,0.087597,-0.00745,0.0,0.0,0.084184,-0.0,-0.0,3.0,0.3261,0.352953,0.3261,0.29584,,,,,,
46610,0.180789,-0.03183,0.087467,-0.00745,-0.001064,0.0,0.083149,-0.0,-0.0,3.0,0.3261,0.352046,0.3261,0.29699,,,,,,
46630,0.177839,-0.031817,0.087319,-0.00745,-0.001064,-0.001064,0.081941,-0.0,-0.0,3.0,0.3261,0.351169,0.3261,0.29809,,,,,,
46650,0.174538,-0.031781,0.087067,-0.008514,-0.001064,0.0,0.080576,-0.0,-0.0,3.0,0.3261,0.3513,0.3261,0.297926,,,,,,
46670,0.171099,-0.031759,0.08704,-0.008514,-0.001064,0.0,0.079363,-0.0,-0.0,3.0,0.3261,0.350251,0.3261,0.299233,,,,,,
46690,0.167072,-0.031583,0.086897,-0.009578,-0.002128,0.0,0.077574,-0.0,-0.0,3.0,0.3261,0.350265,0.3261,0.299215,,,,,,
46710,0.163026,-0.031639,0.086636,-0.010642,-0.001064,-0.001064,0.076713,-0.0,-0.0,3.0,0.3261,0.348896,0.3261,0.300901,,,,,,
46730,0.158615,-0.031681,0.086373,-0.011706,0.0,0.0,0.074895,-0.0,-0.0,3.0,0.3261,0.347674,0.3261,0.302387,,,,,,
46750,0.153969,-0.03148,0.086209,-0.011706,0.0,0.0,0.072939,-0.0,-0.0,3.0,0.3261,0.347497,0.3261,0.302601,,,,,,
46770,0.148702,-0.031374,0.086037,-0.012771,0.0,0.0,0.071823,-0.0,-0.0,3.0,0.3261,0.345762,0.3261,0.304678,,,,,,
46790,0.143443,-0.031271,0.085878,-0.012771,-0.001064,0.0,0.068775,-0.0,-0.0,3.0,0.3261,0.345679,0.3261,0.304777,,,,,,
46810,0.137941,-0.031158,0.085716,-0.012771,0.0,-0.001064,0.066371,-0.0,-0.0,3.0,0.3261,0.345312,0.3261,0.305211,,,,,,
46830,0.132206,-0.030792,0.085534,-0.012771,0.0,0.0,0.063897,-0.0,-0.0,3.0,0.3261,0.343764,0.3261,0.30703,,,,,,
46850,0.126092,-0.030663,0.085485,-0.013835,-0.001064,-0.001064,0.06133,-0.0,-0.0,3.0,0.3261,0.342096,0.3261,0.30896,,,,,,
46870,0.119845,-0.030648,0.085424,-0.013835,-0.002128,-0.001064,0.059859,-0.0,-0.0,3.0,0.3261,0.341138,0.3261,0.310056,,,,,,
46890,0.113718,-0.030876,0.085268,-0.014899,-0.001064,0.0,0.056016,-0.0,-0.0,3.0,0.3261,0.338648,0.3261,0.31286,,,,,,
46910,0.106994,-0.030728,0.085325,-0.017028,0.0,0.0,0.053091,-0.0,-0.0,3.0,0.3261,0.33906,0.3261,0.3124,,,,,,
46930,0.100154,-0.030575,0.085393,-0.017028,0.0,-0.001064,0.051643,-0.0,-0.0,3.0,0.3261,0.337816,0.3261,0.313782,,,,,,
46950,0.092941,-0.03041,0.08556,-0.017028,0.0,-0.001064,0.048624,-0.0,-0.0,3.0,0.3261,0.3369,0.3261,0.314792,,,,,,
46970,0.085359,-0.030343,0.085603,-0.017028,-0.001064,-0.002128,0.044768,-0.0,-0.0,3.0,0.3261,0.334949,0.3261,0.316913,,,,,,
46990,0.077656,-0.03027,0.085639,-0.017028,-0.001064,-0.001064,0.044768,-0.0,-0.0,3.0,0.3261,0.331689,0.3261,0.320378,,,,,,
47010,0.069476,-0.029942,0.085914,-0.017028,-0.001064,-0.001064,0.039241,-0.0,-0.0,3.0,0.3261,0.329954,0.3261,0.322183,,,,,,
47030,0.06141,-0.029854,0.086071,-0.018092,-0.001064,-0.002128,0.035848,-0.0,-0.0,3.0,0.3261,0.327531,0.3261,0.324661,,,,,,
47050,0.053219,-0.029762,0.086341,-0.019156,-0.001064,-0.001064,0.032454,-0.0,-0.0,3.0,0.3261,0.325003,0.3261,0.327192,,,,,,
47070,0.044666,-0.029653,0.086615,-0.02022,-0.002128,-0.001064,0.029015,-0.0,-0.0,3.0,0.3261,0.324717,0.3261,0.327476,,,,,,
47090,0.035865,-0.029529,0.086984,-0.02022,-0.001064,-0.002128,0.027267,-0.0,-0.0,3.0,0.3261,0.322543,0.3261,0.329605,,,,,,
47110,0.027192,-0.029286,0.087482,-0.019156,-0.001064,-0.002128,0.023688,-0.0,-0.0,3.0,0.3261,0.322162,0.3261,0.329975,,,,,,
47130,0.018148,-0.029145,0.087984,-0.019156,-0.001064,-0.002128,0.019626,-0.0,-0.0,3.0,0.3261,0.319336,0.3261,0.332679,,,,,,
47150,0.008986,-0.028869,0.088581,-0.019156,0.0,-0.002128,0.016047,-0.0,-0.0,3.0,0.3261,0.316231,0.3261,0.33558,,,,,,
47170,6.7e-05,-0.028597,0.08931,-0.019156,0.001064,-0.003193,0.012405,-0.0,-0.0,3.0,0.3261,0.3144,0.3261,0.337257,,,,,,
47190,-0.008614,-0.028451,0.09005,-0.02022,0.0,-0.003193,0.008574,-0.0,-0.0,3.0,0.3261,0.311387,0.3261,0.339963,,,,,,
47210,-0.017412,-0.028169,0.09078,-0.02022,-0.001064,-0.003193,0.00531,-0.0,-0.0,3.0,0.3261,0.310614,0.3261,0.340647,,,,,,
47230,-0.026235,-0.028363,0.09174,-0.021285,-0.002128,-0.002128,0.001623,-0.0,-0.0,3.0,0.3261,0.309929,0.3261,0.34125,,,,,,
47250,-0.034913,-0.028064,0.092697,-0.02022,-0.002128,-0.003193,-0.00207,-0.0,-0.0,3.0,0.3261,0.309249,0.3261,0.341845,,,,,,
47270,-0.043839,-0.027742,0.093779,-0.019156,-0.002128,-0.003193,-0.005749,-0.0,-0.0,3.0,0.3261,0.307142,0.3261,0.343668,,,,,,
47290,-0.052892,-0.027523,0.094848,-0.018092,-0.002128,-0.003193,-0.007565,-0.0,-0.0,3.0,0.3261,0.304259,0.3261,0.346115,,,,,,
47310,-0.061688,-0.026937,0.09606,-0.017028,-0.001064,-0.003193,-0.009664,-0.0,-0.0,3.0,0.3261,0.30147,0.3261,0.34843,,,,,,
47330,-0.070259,-0.026711,0.097381,-0.017028,-0.001064,-0.004257,-0.014674,-0.0,-0.0,3.0,0.3261,0.298391,0.3261,0.350928,,,,,,
47350,-0.078459,-0.026368,0.098704,-0.017028,-0.001064,-0.004257,-0.018362,-0.0,-0.0,3.0,0.3261,0.294877,0.3261,0.353708,,,,,,
47370,-0.086664,-0.026134,0.100014,-0.018092,-0.001064,-0.003193,-0.021987,-0.0,-0.0,3.0,0.3261,0.292623,0.3261,0.355451,,,,,,
47390,-0.094753,-0.025889,0.101457,-0.018092,-0.001064,-0.003193,-0.025552,-0.0,-0.0,3.0,0.3261,0.291719,0.3261,0.356142,,,,,,
47410,-0.102599,-0.025643,0.102898,-0.018092,-0.001064,-0.004257,-0.027799,-0.0,-0.0,3.0,0.3261,0.29175,0.3261,0.356118,,,,,,
47430,-0.110434,-0.025127,0.104585,-0.017028,0.0,-0.004257,-0.031888,-0.0,-0.0,3.0,0.3261,0.28964,0.3261,0.357713,,,,,,
47450,-0.118157,-0.02486,0.106012,-0.015963,0.0,-0.004257,-0.035365,-0.0,-0.0,3.0,0.3261,0.287279,0.3261,0.359466,,,,,,
47470,-0.125401,-0.024602,0.107584,-0.014899,0.0,-0.004257,-0.038717,-0.0,-0.0,3.0,0.3261,0.286422,0.3261,0.360096,,,,,,
47490,-0.132139,-0.024105,0.10928,-0.014899,0.0,-0.004257,-0.041962,-0.0,-0.0,3.0,0.3261,0.284238,0.3261,0.361679,,,,,,
47510,-0.138633,-0.023602,0.111098,-0.013835,-0.001064,-0.004257,-0.044187,-0.0,-0.0,3.0,0.3261,0.283142,0.3261,0.362464,,,,,,
47530,-0.144891,-0.023109,0.112818,-0.013835,-0.001064,-0.004257,-0.047846,-0.0,-0.0,3.0,0.3261,0.281203,0.3261,0.363837,,,,,,
47550,-0.150654,-0.022625,0.114648,-0.012771,-0.001064,-0.005321,-0.050908,-0.0,-0.0,3.0,0.3261,0.280652,0.3261,0.364223,,,,,,
47570,-0.156182,-0.022144,0.116503,-0.011706,-0.001064,-0.005321,-0.05386,-0.0,-0.0,3.0,0.3261,0.28012,0.3261,0.364594,,,,,,
47590,-0.161464,-0.021788,0.118331,-0.010642,-0.001064,-0.005321,-0.055296,-0.0,-0.0,3.0,0.3261,0.277559,0.3261,0.366362,,,,,,
47610,-0.166502,-0.021437,0.120163,-0.010642,-0.001064,-0.005321,-0.058084,-0.0,-0.0,3.0,0.3261,0.277087,0.3261,0.366684,,,,,,
47630,-0.171054,-0.021107,0.122007,-0.010642,-0.001064,-0.005321,-0.060517,-0.0,-0.0,3.0,0.3261,0.276643,0.3261,0.366986,,,,,,
47650,-0.175586,-0.020283,0.123912,-0.009578,-0.001064,-0.004257,-0.06323,-0.0,-0.0,3.0,0.3261,0.276299,0.3261,0.367219,,,,,,
47670,-0.17974,-0.019485,0.125686,-0.008514,-0.001064,-0.004257,-0.065713,-0.0,-0.0,3.0,0.3261,0.275996,0.3261,0.367424,,,,,,
47690,-0.183632,-0.018585,0.127336,-0.00745,-0.001064,-0.004257,-0.06807,-0.0,-0.0,3.0,0.3261,0.275732,0.3261,0.367602,,,,,,
47710,-0.187055,-0.017857,0.128775,-0.006385,-0.002128,-0.004257,-0.070426,-0.0,-0.0,3.0,0.3261,0.274128,0.3261,0.368676,,,,,,
47730,-0.190214,-0.017065,0.129729,-0.005321,-0.002128,-0.003193,-0.0723,-0.0,-0.0,3.0,0.3261,0.273935,0.3261,0.368804,,,,,,
47750,-0.193004,-0.01644,0.130422,-0.005321,-0.002128,-0.002128,-0.074352,-0.0,-0.0,3.0,0.3261,0.272427,0.3261,0.369801,,,,,,
47770,-0.194944,-0.015919,0.130667,-0.005321,-0.002128,-0.001064,-0.076213,-0.0,-0.0,3.0,0.3261,0.272715,0.3261,0.369612,,,,,,
47790,-0.196879,-0.015567,0.130396,-0.005321,-0.001064,0.0,-0.077936,-0.0,-0.0,3.0,0.3261,0.272943,0.3261,0.369461,,,,,,
47810,-0.19845,-0.015253,0.130019,-0.004257,-0.001064,0.001064,-0.078743,-0.0,-0.0,3.0,0.3261,0.272936,0.3261,0.369466,,,,,,
47830,-0.199545,-0.01513,0.129289,-0.003193,0.0,0.002128,-0.079632,-0.0,-0.0,3.0,0.3261,0.274677,0.3261,0.36831,,,,,,
47850,-0.200271,-0.015141,0.128659,-0.001064,0.0,0.001064,-0.081666,-0.0,-0.0,3.0,0.3261,0.273999,0.3261,0.368762,,,,,,
47870,-0.200998,-0.015153,0.128028,0.0,0.0,0.0,-0.082904,-0.0,-0.0,3.0,0.3261,0.274524,0.3261,0.368412,,,,,,
47890,-0.201134,-0.015449,0.127398,0.001064,0.0,0.001064,-0.083979,-0.0,-0.0,3.0,0.3261,0.272179,0.3261,0.369964,,,,,,
47910,-0.200894,-0.015757,0.126879,0.001064,-0.001064,0.001064,-0.084901,-0.0,-0.0,3.0,0.3261,0.271457,0.3261,0.370436,,,,,,
47930,-0.200553,-0.016182,0.126496,0.0,-0.001064,0.0,-0.085313,-0.0,-0.0,3.0,0.3261,0.27057,0.3261,0.371013,,,,,,
47950,-0.200075,-0.01636,0.126263,0.0,-0.001064,0.0,-0.086258,-0.0,-0.0,3.0,0.3261,0.27152,0.3261,0.370395,,,,,,
47970,-0.199457,-0.016412,0.126144,0.0,-0.001064,0.0,-0.086737,-0.0,-0.0,3.0,0.3261,0.272342,0.3261,0.369857,,,,,,
47990,-0.198959,-0.016457,0.12602,0.001064,0.0,-0.001064,-0.087065,-0.0,-0.0,3.0,0.3261,0.271522,0.3261,0.370394,,,,,,
48010,-0.198482,-0.01661,0.126028,0.001064,0.001064,-0.001064,-0.087238,-0.0,-0.0,3.0,0.3261,0.272178,0.3261,0.369965,,,,,,
48030,-0.198013,-0.016885,0.126023,0.002128,0.001064,-0.001064,-0.087266,-0.0,-0.0,3.0,0.3261,0.271236,0.3261,0.37058,,,,,,
48050,-0.197168,-0.017172,0.126131,0.002128,0.001064,-0.001064,-0.087223,-0.0,-0.0,3.0,0.3261,0.268864,0.3261,0.37211,,,,,,
48070,-0.19635,-0.017701,0.126238,0.001064,0.001064,-0.001064,-0.086992,-0.0,-0.0,3.0,0.3261,0.266374,0.3261,0.373687,,,,,,
48090,-0.195407,-0.01836,0.126316,0.001064,0.0,0.0,-0.086623,-0.0,-0.0,3.0,0.3261,0.26704,0.3261,0.373268,,,,,,
48110,-0.194086,-0.018777,0.126672,0.0,0.0,-0.001064,-0.086102,-0.0,-0.0,3.0,0.3261,0.267805,0.3261,0.372785,,,,,,
48130,-0.192999,-0.019069,0.126911,0.001064,0.0,-0.001064,-0.085387,-0.0,-0.0,3.0,0.3261,0.26839,0.3261,0.372413,,,,,,
48150,-0.191666,-0.019124,0.127326,0.003193,0.0,-0.001064,-0.084608,-0.0,-0.0,3.0,0.3261,0.267484,0.3261,0.372988,,,,,,
48170,-0.190436,-0.01905,0.127724,0.004257,0.0,-0.001064,-0.083605,-0.0,-0.0,3.0,0.3261,0.266441,0.3261,0.373645,,,,,,
48190,-0.188825,-0.018769,0.128039,0.004257,-0.001064,-0.001064,-0.082478,-0.0,-0.0,3.0,0.3261,0.265505,0.3261,0.37423,,,,,,
48210,-0.186952,-0.018396,0.12823,0.005321,-0.001064,-0.001064,-0.081195,-0.0,-0.0,3.0,0.3261,0.264617,0.3261,0.374781,,,,,,
48230,-0.184472,-0.018063,0.128443,0.005321,-0.001064,-0.001064,-0.080503,-0.0,-0.0,3.0,0.3261,0.264253,0.3261,0.375006,,,,,,
48250,-0.182141,-0.017977,0.128531,0.005321,-0.002128,0.0,-0.079771,-0.0,-0.0,3.0,0.3261,0.265428,0.3261,0.374278,,,,,,
48270,-0.179547,-0.017785,0.128614,0.005321,-0.001064,-0.001064,-0.077463,-0.0,-0.0,3.0,0.3261,0.267623,0.3261,0.3729,,,,,,
48290,-0.176473,-0.017879,0.128548,0.006385,0.0,0.0,-0.07567,-0.0,-0.0,3.0,0.3261,0.268656,0.3261,0.372243,,,,,,
48310,-0.173167,-0.018,0.128393,0.00745,0.001064,0.0,-0.073761,-0.0,-0.0,3.0,0.3261,0.268179,0.3261,0.372547,,,,,,
48330,-0.16938,-0.018395,0.12821,0.008514,0.001064,0.0,-0.07173,-0.0,-0.0,3.0,0.3261,0.267869,0.3261,0.372744,,,,,,
48350,-0.165464,-0.018676,0.12804,0.008514,0.001064,0.001064,-0.070665,-0.0,-0.0,3.0,0.3261,0.269616,0.3261,0.371628,,,,,,
48370,-0.161191,-0.019101,0.127871,0.009578,0.0,0.001064,-0.068337,-0.0,-0.0,3.0,0.3261,0.27099,0.3261,0.37074,,,,,,
48390,-0.156295,-0.019333,0.127619,0.010642,0.0,0.001064,-0.065767,-0.0,-0.0,3.0,0.3261,0.272533,0.3261,0.369731,,,,,,
48410,-0.151285,-0.019692,0.127358,0.011706,-0.001064,0.0,-0.063294,-0.0,-0.0,3.0,0.3261,0.272646,0.3261,0.369657,,,,,,
48430,-0.146008,-0.019813,0.127217,0.012771,-0.001064,0.0,-0.060715,-0.0,-0.0,3.0,0.3261,0.272851,0.3261,0.369522,,,,,,
48450,-0.140375,-0.019957,0.127106,0.012771,-0.001064,0.0,-0.057816,-0.0,-0.0,3.0,0.3261,0.274623,0.3261,0.368346,,,,,,
48470,-0.13424,-0.020009,0.12699,0.012771,0.0,0.0,-0.055408,-0.0,-0.0,3.0,0.3261,0.276813,0.3261,0.366871,,,,,,
48490,-0.127757,-0.020206,0.126893,0.012771,0.0,0.0,-0.052393,-0.0,-0.0,3.0,0.3261,0.277417,0.3261,0.366459,,,,,,
48510,-0.120779,-0.020424,0.126901,0.012771,0.0,0.0,-0.049435,-0.0,-0.0,3.0,0.3261,0.28123,0.3261,0.363818,,,,,,
48530,-0.113923,-0.020512,0.126928,0.013835,0.001064,0.0,-0.046338,-0.0,-0.0,3.0,0.3261,0.283463,0.3261,0.362235,,,,,,
48550,-0.10671,-0.020871,0.126799,0.015963,0.001064,0.0,-0.044777,-0.0,-0.0,3.0,0.3261,0.286448,0.3261,0.360076,,,,,,
48570,-0.098881,-0.021019,0.126835,0.018092,0.001064,0.0,-0.040411,-0.0,-0.0,3.0,0.3261,0.288596,0.3261,0.358493,,,,,,
48590,-0.090685,-0.021201,0.126627,0.019156,0.0,0.0,-0.038545,-0.0,-0.0,3.0,0.3261,0.289044,0.3261,0.358158,,,,,,
48610,-0.082367,-0.021381,0.126531,0.019156,0.0,0.0,-0.034901,-0.0,-0.0,3.0,0.3261,0.290321,0.3261,0.357201,,,,,,
48630,-0.073561,-0.021599,0.126193,0.018092,-0.001064,0.001064,-0.031514,-0.0,-0.0,3.0,0.3261,0.291915,0.3261,0.355993,,,,,,
48650,-0.06439,-0.021831,0.12597,0.018092,-0.001064,0.001064,-0.028045,-0.0,-0.0,3.0,0.3261,0.295026,0.3261,0.353591,,,,,,
48670,-0.05509,-0.021945,0.125739,0.018092,-0.001064,0.001064,-0.025527,-0.0,-0.0,3.0,0.3261,0.29854,0.3261,0.350809,,,,,,
48690,-0.045787,-0.021934,0.125517,0.018092,0.0,0.001064,-0.020358,-0.0,-0.0,3.0,0.3261,0.301094,0.3261,0.348738,,,,,,
48710,-0.036493,-0.022041,0.1253,0.02022,0.001064,0.0,-0.018488,-0.0,-0.0,3.0,0.3261,0.306142,0.3261,0.344523,,,,,,
48730,-0.026717,-0.022295,0.125051,0.021285,0.001064,0.0,-0.01484,-0.0,-0.0,3.0,0.3261,0.308125,0.3261,0.34282,,,,,,
48750,-0.016813,-0.022433,0.124691,0.022349,0.0,0.0,-0.011211,-0.0,-0.0,3.0,0.3261,0.308914,0.3261,0.342136,,,,,,
48770,-0.006809,-0.022937,0.124314,0.021285,-0.001064,0.001064,-0.006663,-0.0,-0.0,3.0,0.3261,0.309467,0.3261,0.341654,,,,,,
48790,0.003215,-0.023072,0.124067,0.021285,-0.001064,0.001064,-0.004548,-0.0,-0.0,3.0,0.3261,0.312191,0.3261,0.339247,,,,,,
48810,0.013471,-0.023459,0.123564,0.02022,-0.001064,0.001064,-0.000768,-0.0,-0.0,3.0,0.3261,0.314456,0.3261,0.337205,,,,,,
48830,0.023514,-0.023339,0.123181,0.019156,-0.001064,0.001064,0.002929,-0.0,-0.0,3.0,0.3261,0.316708,0.3261,0.335139,,,,,,
48850,0.033419,-0.023449,0.122783,0.02022,0.0,0.001064,0.006609,-0.0,-0.0,3.0,0.3261,0.320176,0.3261,0.331882,,,,,,
48870,0.04309,-0.023414,0.122242,0.02022,0.001064,0.001064,0.00846,-0.0,-0.0,3.0,0.3261,0.322965,0.3261,0.329195,,,,,,
48890,0.052753,-0.023495,0.121689,0.02022,0.002128,0.0,0.013277,-0.0,-0.0,3.0,0.3261,0.32361,0.3261,0.328565,,,,,,
48910,0.062275,-0.023928,0.121152,0.02022,0.002128,0.0,0.017017,-0.0,-0.0,3.0,0.3261,0.325797,0.3261,0.326403,,,,,,
48930,0.071925,-0.024358,0.120506,0.019156,0.001064,0.001064,0.020601,-0.0,-0.0,3.0,0.3261,0.328102,0.3261,0.324082,,,,,,
48950,0.081446,-0.024777,0.119946,0.019156,0.001064,0.001064,0.024174,-0.0,-0.0,3.0,0.3261,0.329218,0.3261,0.322941,,,,,,
48970,0.090357,-0.025277,0.119402,0.018092,0.0,0.001064,0.025939,-0.0,-0.0,3.0,0.3261,0.333091,0.3261,0.3189,,,,,,
48990,0.099276,-0.025766,0.11875,0.018092,0.0,0.001064,0.030663,-0.0,-0.0,3.0,0.3261,0.334888,0.3261,0.316978,,,,,,
49010,0.107967,-0.025867,0.118048,0.019156,-0.001064,0.001064,0.034288,-0.0,-0.0,3.0,0.3261,0.335835,0.3261,0.315954,,,,,,
49030,0.116522,-0.026197,0.11735,0.019156,-0.001064,0.002128,0.035973,-0.0,-0.0,3.0,0.3261,0.33738,0.3261,0.314264,,,,,,
49050,0.124484,-0.026365,0.116659,0.018092,0.0,0.002128,0.039304,-0.0,-0.0,3.0,0.3261,0.338276,0.3261,0.313273,,,,,,
49070,0.132552,-0.026778,0.115974,0.017028,0.0,0.001064,0.042542,-0.0,-0.0,3.0,0.3261,0.339267,0.3261,0.312169,,,,,,
49090,0.140514,-0.026933,0.115266,0.015963,0.001064,0.001064,0.044546,-0.0,-0.0,3.0,0.3261,0.341759,0.3261,0.309347,,,,,,
49110,0.148218,-0.027312,0.114569,0.014899,0.001064,0.001064,0.044546,-0.0,-0.0,3.0,0.3261,0.3448,0.3261,0.305816,,,,,,
49130,0.155327,-0.027644,0.113772,0.013835,0.001064,0.001064,0.051093,-0.0,-0.0,3.0,0.3261,0.344613,0.3261,0.306036,,,,,,
49150,0.162052,-0.028079,0.113082,0.013835,0.0,0.001064,0.054156,-0.0,-0.0,3.0,0.3261,0.346472,0.3261,0.303833,,,,,,
49170,0.168538,-0.028485,0.112269,0.013835,0.0,0.001064,0.056989,-0.0,-0.0,3.0,0.3261,0.34615,0.3261,0.304217,,,,,,
49190,0.174771,-0.029004,0.111587,0.012771,0.0,0.001064,0.059726,-0.0,-0.0,3.0,0.3261,0.346908,0.3261,0.30331,,,,,,
49210,0.180522,-0.029481,0.110787,0.010642,0.001064,0.001064,0.061303,-0.0,-0.0,3.0,0.3261,0.347893,0.3261,0.302121,,,,,,
49230,0.186035,-0.029684,0.109825,0.009578,0.002128,0.002128,0.06488,-0.0,-0.0,3.0,0.3261,0.349329,0.3261,0.30037,,,,,,
49250,0.191058,-0.030113,0.109029,0.009578,0.001064,0.002128,0.067383,-0.0,-0.0,3.0,0.3261,0.350944,0.3261,0.298371,,,,,,
49270,0.195709,-0.030505,0.108095,0.009578,0.0,0.001064,0.068542,-0.0,-0.0,3.0,0.3261,0.352854,0.3261,0.295966,,,,,,
49290,0.200005,-0.030739,0.107032,0.009578,0.0,0.002128,0.070772,-0.0,-0.0,3.0,0.3261,0.352219,0.3261,0.296771,,,,,,
49310,0.203695,-0.030939,0.105976,0.008514,0.0,0.001064,0.072933,-0.0,-0.0,3.0,0.3261,0.351439,0.3261,0.297752,,,,,,
49330,0.206898,-0.030975,0.104771,0.006385,0.0,0.002128,0.074643,-0.0,-0.0,3.0,0.3261,0.35174,0.3261,0.297375,,,,,,
49350,0.209842,-0.03125,0.103716,0.005321,0.0,0.002128,0.076505,-0.0,-0.0,3.0,0.3261,0.35193,0.3261,0.297135,,,,,,
49370,0.212066,-0.031366,0.102655,0.003193,0.0,0.002128,0.078209,-0.0,-0.0,3.0,0.3261,0.351964,0.3261,0.297092,,,,,,
49390,0.213786,-0.031575,0.101595,0.002128,0.0,0.002128,0.079761,-0.0,-0.0,3.0,0.3261,0.351899,0.3261,0.297175,,,,,,
49410,0.214767,-0.031746,0.100525,0.001064,0.001064,0.002128,0.080498,-0.0,-0.0,3.0,0.3261,0.352935,0.3261,0.295864,,,,,,
49430,0.215387,-0.031791,0.099566,0.0,0.001064,0.001064,0.081675,-0.0,-0.0,3.0,0.3261,0.352664,0.3261,0.296208,,,,,,
49450,0.215275,-0.031924,0.098629,0.0,0.0,0.001064,0.083438,-0.0,-0.0,3.0,0.3261,0.352003,0.3261,0.297043,,,,,,
49470,0.215025,-0.032062,0.097795,0.0,0.0,0.001064,0.084446,-0.0,-0.0,3.0,0.3261,0.350429,0.3261,0.299012,,,,,,
49490,0.214418,-0.032063,0.096952,-0.002128,-0.001064,0.001064,0.085298,-0.0,-0.0,3.0,0.3261,0.350948,0.3261,0.298366,,,,,,
49510,0.2137,-0.031829,0.096205,-0.002128,-0.001064,0.002128,0.086059,-0.0,-0.0,3.0,0.3261,0.350367,0.3261,0.299088,,,,,,
49530,0.212848,-0.031833,0.095484,-0.003193,-0.002128,0.001064,0.086537,-0.0,-0.0,3.0,0.3261,0.350902,0.3261,0.298423,,,,,,
49550,0.211888,-0.03159,0.094739,-0.003193,-0.001064,0.001064,0.086763,-0.0,-0.0,3.0,0.3261,0.351469,0.3261,0.297714,,,,,,
49570,0.210914,-0.03159,0.094019,-0.003193,0.0,0.001064,0.087083,-0.0,-0.0,3.0,0.3261,0.35307,0.3261,0.295691,,,,,,
49590,0.209829,-0.031356,0.093395,-0.002128,0.001064,0.001064,0.087244,-0.0,-0.0,3.0,0.3261,0.353598,0.3261,0.295017,,,,,,
49610,0.208599,-0.031602,0.092823,-0.002128,0.0,0.0,0.08725,-0.0,-0.0,3.0,0.3261,0.354121,0.3261,0.294346,,,,,,
49630,0.207235,-0.031842,0.092235,-0.002128,0.0,0.0,0.087192,-0.0,-0.0,3.0,0.3261,0.353546,0.3261,0.295084,,,,,,
49650,0.206127,-0.032095,0.09166,-0.003193,0.0,0.0,0.086838,-0.0,-0.0,3.0,0.3261,0.353121,0.3261,0.295627,,,,,,
49670,0.204657,-0.032225,0.091196,-0.004257,-0.001064,0.001064,0.086392,-0.0,-0.0,3.0,0.3261,0.353682,0.3261,0.29491,,,,,,
49690,0.202937,-0.032234,0.090825,-0.004257,-0.002128,0.001064,0.085795,-0.0,-0.0,3.0,0.3261,0.354206,0.3261,0.294237,,,,,,
49710,0.201113,-0.032119,0.090458,-0.005321,-0.002128,0.0,0.085051,-0.0,-0.0,3.0,0.3261,0.354734,0.3261,0.293555,,,,,,
49730,0.198788,-0.031847,0.089928,-0.005321,-0.001064,0.0,0.084445,-0.0,-0.0,3.0,0.3261,0.355068,0.3261,0.293122,,,,,,
49750,0.196356,-0.031464,0.089524,-0.006385,0.0,0.0,0.083154,-0.0,-0.0,3.0,0.3261,0.354494,0.3261,0.293865,,,,,,
49770,0.193666,-0.031338,0.089387,-0.006385,0.0,0.0,0.081944,-0.0,-0.0,3.0,0.3261,0.35488,0.3261,0.293365,,,,,,
49790,0.190839,-0.03156,0.089164,-0.00745,0.0,0.0,0.080609,-0.0,-0.0,3.0,0.3261,0.354187,0.3261,0.294261,,,,,,
49810,0.187894,-0.031668,0.089049,-0.00745,0.0,-0.001064,0.079884,-0.0,-0.0,3.0,0.3261,0.353267,0.3261,0.29544,,,,,,
49830,0.184805,-0.032011,0.088939,-0.008514,-0.001064,0.0,0.07826,-0.0,-0.0,3.0,0.3261,0.353622,0.3261,0.294986,,,,,,
49850,0.181254,-0.031995,0.089054,-0.008514,-0.002128,0.0,0.07686,-0.0,-0.0,3.0,0.3261,0.352694,0.3261,0.296169,,,,,,
49870,0.177324,-0.032071,0.089042,-0.009578,-0.002128,-0.001064,0.074874,-0.0,-0.0,3.0,0.3261,0.351811,0.3261,0.297285,,,,,,
49890,0.173047,-0.031768,0.088998,-0.010642,-0.001064,-0.001064,0.072916,-0.0,-0.0,3.0,0.3261,0.35188,0.3261,0.297198,,,,,,
49910,0.168641,-0.031346,0.089047,-0.010642,-0.001064,0.0,0.07082,-0.0,-0.0,3.0,0.3261,0.350856,0.3261,0.29848,,,,,,
49930,0.163862,-0.031285,0.089264,-0.011706,-0.001064,-0.001064,0.06852,-0.0,-0.0,3.0,0.3261,0.350846,0.3261,0.298493,,,,,,
49950,0.158729,-0.030965,0.08946,-0.012771,-0.001064,-0.001064,0.066366,-0.0,-0.0,3.0,0.3261,0.349588,0.3261,0.300052,,,,,,
49970,0.153334,-0.031006,0.089804,-0.012771,0.0,-0.001064,0.063778,-0.0,-0.0,3.0,0.3261,0.349442,0.3261,0.300232,,,,,,
49990,0.147814,-0.030916,0.090119,-0.012771,0.0,-0.001064,0.061237,-0.0,-0.0,3.0,0.3261,0.349224,0.3261,0.300499,,,,,,
50010,0.141797,-0.031179,0.090595,-0.012771,-0.001064,-0.002128,0.059892,-0.0,-0.0,3.0,0.3261,0.347388,0.3261,0.302733,,,,,,
50030,0.135545,-0.031298,0.090935,-0.013835,-0.002128,-0.002128,0.057171,-0.0,-0.0,3.0,0.3261,0.344744,0.3261,0.305881,,,,,,
50050,0.129168,-0.031285,0.091245,-0.014899,-0.001064,-0.002128,0.053433,-0.0,-0.0,3.0,0.3261,0.344546,0.3261,0.306114,,,,,,
50070,0.122554,-0.031268,0.091687,-0.015963,-0.001064,-0.001064,0.051892,-0.0,-0.0,3.0,0.3261,0.342475,0.3261,0.308524,,,,,,
50090,0.115573,-0.031239,0.092245,-0.017028,-0.001064,-0.002128,0.048858,-0.0,-0.0,3.0,0.3261,0.341817,0.3261,0.30928,,,,,,
50110,0.108237,-0.030945,0.092782,-0.018092,-0.002128,-0.002128,0.045769,-0.0,-0.0,3.0,0.3261,0.341037,0.3261,0.310171,,,,,,
50130,0.100658,-0.030635,0.093313,-0.018092,-0.001064,-0.002128,0.042587,-0.0,-0.0,3.0,0.3261,0.340178,0.3261,0.311145,,,,,,
50150,0.092958,-0.030314,0.093839,-0.018092,0.0,-0.002128,0.040854,-0.0,-0.0,3.0,0.3261,0.338796,0.3261,0.312695,,,,,,
50170,0.084891,-0.029976,0.09448,-0.018092,0.0,-0.003193,0.036248,-0.0,-0.0,3.0,0.3261,0.337003,0.3261,0.314678,,,,,,
50190,0.076447,-0.029858,0.095121,-0.018092,-0.002128,-0.003193,0.032799,-0.0,-0.0,3.0,0.3261,0.33469,0.3261,0.317191,,,,,,
50210,0.068003,-0.029852,0.095654,-0.019156,-0.002128,-0.002128,0.029372,-0.0,-0.0,3.0,0.3261,0.33231,0.3261,0.319725,,,,,,
50230,0.059674,-0.029972,0.096304,-0.02022,-0.002128,-0.001064,0.02589,-0.0,-0.0,3.0,0.3261,0.32992,0.3261,0.322219,,,,,,
50250,0.050621,-0.029933,0.097073,-0.021285,-0.001064,-0.002128,0.023396,-0.0,-0.0,3.0,0.3261,0.328098,0.3261,0.324086,,,,,,
50270,0.041698,-0.029645,0.097808,-0.021285,0.0,-0.003193,0.019185,-0.0,-0.0,3.0,0.3261,0.326812,0.3261,0.325386,,,,,,
50290,0.032541,-0.029216,0.098549,-0.02022,-0.001064,-0.003193,0.015501,-0.0,-0.0,3.0,0.3261,0.326427,0.3261,0.325773,,,,,,
50310,0.023128,-0.029011,0.099281,-0.02022,-0.001064,-0.003193,0.013691,-0.0,-0.0,3.0,0.3261,0.324102,0.3261,0.328082,,,,,,
50330,0.013473,-0.028785,0.100018,-0.02022,-0.001064,-0.003193,0.010027,-0.0,-0.0,3.0,0.3261,0.321015,0.3261,0.33108,,,,,,
50350,0.00395,-0.028313,0.100865,-0.02022,-0.002128,-0.002128,0.006201,-0.0,-0.0,3.0,0.3261,0.317937,0.3261,0.333995,,,,,,
50370,-0.005589,-0.028196,0.101581,-0.021285,-0.002128,-0.002128,0.002893,-0.0,-0.0,3.0,0.3261,0.314585,0.3261,0.337088,,,,,,
50390,-0.015126,-0.027947,0.102547,-0.022349,-0.001064,-0.002128,-0.000881,-0.0,-0.0,3.0,0.3261,0.311292,0.3261,0.340047,,,,,,
50410,-0.024912,-0.027796,0.103495,-0.023413,0.0,-0.003193,-0.004556,-0.0,-0.0,3.0,0.3261,0.310346,0.3261,0.340883,,,,,,
50430,-0.034563,-0.0274,0.104333,-0.023413,0.0,-0.004257,-0.008219,-0.0,-0.0,3.0,0.3261,0.309385,0.3261,0.341726,,,,,,
50450,-0.044223,-0.027111,0.10528,-0.022349,0.0,-0.004257,-0.012039,-0.0,-0.0,3.0,0.3261,0.307128,0.3261,0.34368,,,,,,
50470,-0.054126,-0.026797,0.106208,-0.021285,0.0,-0.003193,-0.014981,-0.0,-0.0,3.0,0.3261,0.305704,0.3261,0.344895,,,,,,
50490,-0.063922,-0.026723,0.107138,-0.02022,-0.001064,-0.003193,-0.019177,-0.0,-0.0,3.0,0.3261,0.303385,0.3261,0.346845,,,,,,
50510,-0.073219,-0.026421,0.108073,-0.02022,-0.001064,-0.003193,-0.020963,-0.0,-0.0,3.0,0.3261,0.300294,0.3261,0.349391,,,,,,
50530,-0.082406,-0.026231,0.109135,-0.02022,-0.002128,-0.003193,-0.024509,-0.0,-0.0,3.0,0.3261,0.296422,0.3261,0.352495,,,,,,
50550,-0.0916,-0.026151,0.110178,-0.02022,-0.002128,-0.003193,-0.028033,-0.0,-0.0,3.0,0.3261,0.295171,0.3261,0.353478,,,,,,
50570,-0.100538,-0.025823,0.111347,-0.019156,-0.002128,-0.003193,-0.030026,-0.0,-0.0,3.0,0.3261,0.293378,0.3261,0.354871,,,,,,
50590,-0.109232,-0.025496,0.112511,-0.019156,-0.002128,-0.004257,-0.034941,-0.0,-0.0,3.0,0.3261,0.291316,0.3261,0.356449,,,,,,
50610,-0.117811,-0.025164,0.113687,-0.018092,-0.001064,-0.004257,-0.038296,-0.0,-0.0,3.0,0.3261,0.290048,0.3261,0.357407,,,,,,
50630,-0.12601,-0.02472,0.114851,-0.017028,-0.001064,-0.004257,-0.041548,-0.0,-0.0,3.0,0.3261,0.28883,0.3261,0.358318,,,,,,
50650,-0.133723,-0.024164,0.116169,-0.015963,-0.001064,-0.004257,-0.04477,-0.0,-0.0,3.0,0.3261,0.286308,0.3261,0.360179,,,,,,
50670,-0.141207,-0.023855,0.117471,-0.014899,-0.001064,-0.004257,-0.046405,-0.0,-0.0,3.0,0.3261,0.284618,0.3261,0.361406,,,,,,
50690,-0.148069,-0.023329,0.118802,-0.013835,-0.001064,-0.004257,-0.050764,-0.0,-0.0,3.0,0.3261,0.284181,0.3261,0.36172,,,,,,
50710,-0.154314,-0.02282,0.120247,-0.013835,-0.001064,-0.004257,-0.052269,-0.0,-0.0,3.0,0.3261,0.282827,0.3261,0.362688,,,,,,
50730,-0.16009,-0.022445,0.121836,-0.012771,-0.002128,-0.004257,-0.055138,-0.0,-0.0,3.0,0.3261,0.282149,0.3261,0.36317,,,,,,
50750,-0.16549,-0.022093,0.123291,-0.011706,-0.002128,-0.005321,-0.057957,-0.0,-0.0,3.0,0.3261,0.281568,0.3261,0.36358,,,,,,
50770,-0.170528,-0.021635,0.124786,-0.010642,-0.002128,-0.004257,-0.060663,-0.0,-0.0,3.0,0.3261,0.281059,0.3261,0.363938,,,,,,
50790,-0.174938,-0.021208,0.126256,-0.009578,-0.002128,-0.004257,-0.063064,-0.0,-0.0,3.0,0.3261,0.280653,0.3261,0.364223,,,,,,
50810,-0.178985,-0.02069,0.127649,-0.008514,-0.001064,-0.004257,-0.065647,-0.0,-0.0,3.0,0.3261,0.280444,0.3261,0.364369,,,,,,
50830,-0.182659,-0.02008,0.128945,-0.00745,-0.001064,-0.003193,-0.068004,-0.0,-0.0,3.0,0.3261,0.280279,0.3261,0.364484,,,,,,
50850,-0.185945,-0.019523,0.129847,-0.006385,-0.001064,-0.002128,-0.070264,-0.0,-0.0,3.0,0.3261,0.281686,0.3261,0.363497,,,,,,
50870,-0.188626,-0.018896,0.130686,-0.005321,-0.001064,-0.002128,-0.072459,-0.0,-0.0,3.0,0.3261,0.28036,0.3261,0.364427,,,,,,
