time_ms,roll,pitch,yaw,x,y,z,reference_x,reference_y,reference_z,reference_yaw,throttle_1,throttle_2,throttle_3,throttle_4,roll_predicted,pitch_predicted,yaw_predicted,roll_rate_predicted,pitch_rate_predicted,yaw_rate_predicted,value1,value2,value3,value4,value5,value6
87455,-0.012989,-0.005003,0.019135,-0.033074,0.01011,0.73922,0.0,0.0,0.7,-0.0,0.561439,0.546031,0.540929,0.538073,-0.0,-0.0,0.7,-0.0,0.0,-0.0,11.092775,-0.009069,-0.004003,0.0,0.0,0.0
87475,-0.010553,-0.005512,0.019627,-0.032265,0.009407,0.738837,-4.4e-05,-4.4e-05,0.7,-0.0,0.556855,0.547184,0.540805,0.542336,-0.0,-0.0,0.7,-0.0,0.0,-0.0,11.099099,-0.009384,-0.005544,0.0,0.0,0.0
87495,-0.006537,-0.006526,0.020247,-0.031355,0.008625,0.738455,-4.4e-05,-4.4e-05,0.7,-0.0,0.553712,0.551776,0.549272,0.532155,-0.0,-0.0,0.7,-0.0,0.0,-0.0,11.097677,-0.008047,-0.00556,0.0,0.0,0.0
87515,-0.004344,-0.006914,0.020619,-0.031355,0.008625,0.738455,-0.001704,-0.001704,0.7,-0.0,0.561979,0.551365,0.542891,0.530192,-0.0,-0.0,0.7,-0.0,-0.0,-0.0,11.095062,-0.006611,-0.004606,0.0,0.0,0.0
87535,-0.001433,-0.008653,0.020873,-0.030081,0.007886,0.737904,-0.003692,-0.003692,0.7,-0.0,0.55154,0.553842,0.546484,0.534726,-0.0,-0.0,0.7,-1e-06,-1e-06,-0.0,11.092803,-0.006122,-0.004323,0.0,0.0,0.0
87555,0.000872,-0.009776,0.021372,-0.029174,0.007153,0.737492,-0.005536,-0.005536,0.7,-0.0,0.556162,0.556489,0.540398,0.531122,-0.0,-0.0,0.7,-4e-06,-4e-06,-0.0,11.066925,-0.00106,-8.4e-05,0.0,0.0,0.0
87575,0.003078,-0.008824,0.021869,-0.027989,0.005966,0.736952,-0.007383,-0.007383,0.7,-0.0,0.561153,0.541297,0.541553,0.541286,-0.0,-0.0,0.7,-3.4e-05,-3.4e-05,-0.0,11.078111,-0.000323,-0.00338,0.0,0.0,0.0
87595,0.007087,-0.010456,0.022258,-0.027143,0.004838,0.736499,-0.009088,-0.009088,0.7,-0.0,0.551279,0.555722,0.54726,0.531635,-2e-06,-2e-06,0.7,-0.000132,-0.000134,-0.0,11.085902,-0.000674,-0.005685,0.0,0.0,0.0
87615,0.008456,-0.007909,0.02262,-0.027143,0.004838,0.736499,-0.009088,-0.009088,0.7,-0.0,0.551137,0.534135,0.545474,0.556266,-5e-06,-6e-06,0.7,-0.000332,-0.000338,-0.0,11.098558,-0.003476,-0.008942,0.0,0.0,0.0
87635,0.011611,-0.009413,0.02325,-0.02631,0.004099,0.736045,-0.010927,-0.010927,0.7,-0.0,0.542174,0.552857,0.556247,0.536174,-1.4e-05,-1.5e-05,0.7,-0.00066,-0.000672,-0.0,11.103716,-0.005617,-0.00989,0.0,0.0,0.0
87655,0.013087,-0.008333,0.023616,-0.025363,0.002916,0.735593,-0.01288,-0.01288,0.7,-0.0,0.560577,0.548364,0.540032,0.536102,-3.1e-05,-3.1e-05,0.7,-0.001134,-0.001153,-0.0,11.076302,-0.001405,-0.004965,0.0,0.0,0.0
87675,0.014166,-0.009814,0.023996,-0.024455,0.001408,0.735128,-0.01472,-0.01472,0.7,-0.0,0.558239,0.55415,0.539923,0.532873,-5.8e-05,-5.9e-05,0.7,-0.00174,-0.001769,-0.0,11.078592,-8.5e-05,-0.005713,0.0,0.0,0.0
87695,0.013433,-0.009685,0.024358,-0.023656,4.4e-05,0.734719,-0.01645,-0.01645,0.7,-0.0,0.559835,0.543609,0.538346,0.544244,-9.8e-05,-0.0001,0.7,-0.002476,-0.002515,-0.0,11.086615,-0.002226,-0.008351,0.0,0.0,0.0
87715,0.013301,-0.010297,0.02485,-0.02284,-0.001595,0.73427,-0.018097,-0.018097,0.7,-0.0,0.554906,0.546694,0.545919,0.539331,-0.000154,-0.000156,0.7,-0.003356,-0.003408,-0.0,11.094662,-0.006222,-0.010722,0.0,0.0,0.0
87735,0.012078,-0.010406,0.025089,-0.022181,-0.002913,0.7339,-0.019639,-0.019639,0.7,-0.0,0.559159,0.545077,0.538861,0.543798,-0.000229,-0.000232,0.7,-0.00439,-0.004455,-0.0,11.09657,-0.008616,-0.012037,0.0,0.0,0.0
87755,0.011333,-0.011252,0.025334,-0.021625,-0.004401,0.733504,-0.021188,-0.021188,0.7,-0.0,0.562095,0.546609,0.541455,0.536812,-0.000325,-0.00033,0.7,-0.005581,-0.005659,-0.0,11.099255,-0.011385,-0.013112,0.0,0.0,0.0
87775,0.008767,-0.011343,0.025566,-0.021625,-0.004401,0.733504,-0.021188,-0.021188,0.7,-0.0,0.571599,0.548602,0.528564,0.53721,-0.000447,-0.000453,0.7,-0.006923,-0.007015,-0.0,11.096155,-0.011654,-0.013229,0.0,0.0,0.0
87795,0.005449,-0.013011,0.025674,-0.020835,-0.006158,0.733104,-0.022885,-0.022885,0.7,-0.0,0.563661,0.55676,0.531371,0.534344,-0.000596,-0.000605,0.7,-0.008409,-0.008515,-0.0,11.094609,-0.012143,-0.012838,0.0,0.0,0.0
87815,0.002752,-0.013709,0.026025,-0.02007,-0.008238,0.732519,-0.025085,-0.025085,0.7,-0.0,0.578,0.552955,0.517989,0.533659,-0.000776,-0.000787,0.7,-0.010026,-0.010145,-0.0,11.068238,-0.005006,-0.008995,0.0,0.0,0.0
87835,-0.000307,-0.014158,0.026126,-0.019404,-0.009847,0.732047,-0.026658,-0.026658,0.7,-0.0,0.579445,0.54587,0.522478,0.535173,-0.000989,-0.001003,0.7,-0.01174,-0.011869,-0.0,11.069724,-0.007021,-0.010759,0.0,0.0,0.0
87855,-0.002637,-0.014859,0.02623,-0.018838,-0.012187,0.731351,-0.028449,-0.028449,0.7,-0.0,0.569031,0.546841,0.531802,0.537948,-0.001237,-0.001253,0.7,-0.013529,-0.013667,-0.0,11.088696,-0.012209,-0.013513,0.0,0.0,0.0
87875,-0.005442,-0.014578,0.026454,-0.018838,-0.012187,0.731351,-0.028449,-0.028449,0.7,-0.0,0.565995,0.546487,0.53156,0.542657,-0.001522,-0.001541,0.7,-0.015396,-0.01554,-0.0,11.09932,-0.014252,-0.015202,0.0,0.0,0.0
87895,-0.006915,-0.015047,0.026568,-0.018195,-0.014238,0.730711,-0.030218,-0.030218,0.7,-0.0,0.563516,0.550262,0.539096,0.535645,-0.001844,-0.001866,0.7,-0.017336,-0.017484,-0.0,11.119377,-0.018806,-0.016062,0.0,0.0,0.0
87915,-0.008756,-0.015755,0.026551,-0.018195,-0.014238,0.730711,-0.032529,-0.032529,0.7,-0.0,0.580002,0.553761,0.515819,0.534701,-0.002206,-0.002231,0.7,-0.01934,-0.019488,-0.0,11.091639,-0.010558,-0.012888,0.0,0.0,0.0
87935,-0.009862,-0.016228,0.026662,-0.016958,-0.019346,0.72888,-0.032529,-0.032529,0.7,-0.0,0.565493,0.545548,0.533919,0.542042,-0.002608,-0.002636,0.7,-0.021373,-0.02152,-0.0,11.101957,-0.012179,-0.014247,0.0,0.0,0.0
87955,-0.01122,-0.017308,0.026766,-0.016958,-0.019346,0.72888,-0.034676,-0.034676,0.7,-0.0,0.58174,0.549296,0.520137,0.532041,-0.003051,-0.003081,0.7,-0.023418,-0.023559,-0.0,11.077451,-0.004242,-0.0131,0.0,0.0,0.0
87975,-0.010604,-0.017073,0.026529,-0.016568,-0.021384,0.728167,-0.037019,-0.037019,0.7,-0.0,0.543234,0.543078,0.561458,0.545116,-0.003535,-0.003568,0.7,-0.025477,-0.02561,-0.0,11.16893,-0.025308,-0.01779,0.0,0.0,0.0
87995,-0.009634,-0.017698,0.026291,-0.016369,-0.023035,0.727485,-0.038805,-0.038805,0.7,-0.0,0.569528,0.552875,0.536802,0.530936,-0.004059,-0.004095,0.7,-0.027527,-0.027648,-0.0,11.144508,-0.018059,-0.016952,0.0,0.0,0.0
88015,-0.009275,-0.018559,0.025924,-0.016358,-0.025073,0.72671,-0.040353,-0.040353,0.7,-0.0,0.564881,0.543117,0.544018,0.53878,-0.004625,-0.004663,0.7,-0.029556,-0.029663,-0.0,11.145952,-0.017569,-0.01744,0.0,0.0,0.0
88035,-0.009284,-0.019414,0.025676,-0.016175,-0.026347,0.726121,-0.04189,-0.04189,0.7,-0.0,0.568059,0.54631,0.545587,0.531042,-0.005232,-0.005272,0.7,-0.031578,-0.031667,-0.0,11.152167,-0.016842,-0.01717,0.0,0.0,0.0
88055,-0.008075,-0.020652,0.025317,-0.016302,-0.027836,0.725541,-0.043423,-0.043423,0.7,-0.0,0.563569,0.554129,0.547254,0.526979,-0.005878,-0.00592,0.7,-0.033594,-0.033665,-0.0,11.163737,-0.018406,-0.01602,0.0,0.0,0.0
88075,-0.008079,-0.021264,0.024949,-0.016302,-0.027836,0.725541,-0.043423,-0.043423,0.7,-0.0,0.570867,0.549255,0.534417,0.537144,-0.006565,-0.006608,0.7,-0.0356,-0.035651,-0.0,11.162118,-0.015857,-0.016225,0.0,0.0,0.0
88095,-0.006989,-0.022256,0.024591,-0.016199,-0.029066,0.724989,-0.045198,-0.045198,0.7,-0.0,0.567053,0.551395,0.549288,0.523453,-0.007292,-0.007336,0.7,-0.037588,-0.037617,-0.0,11.158126,-0.014258,-0.015242,0.0,0.0,0.0
88115,-0.007848,-0.023101,0.02409,-0.016622,-0.031214,0.72406,-0.047434,-0.047434,0.7,-0.0,0.578679,0.548275,0.531697,0.528536,-0.008059,-0.008103,0.7,-0.039548,-0.039556,-0.0,11.117763,-0.005824,-0.014539,0.0,0.0,0.0
88135,-0.005161,-0.023624,0.02351,-0.016833,-0.032423,0.723547,-0.049301,-0.049301,0.7,-0.0,0.563289,0.541108,0.550102,0.533764,-0.008864,-0.008908,0.7,-0.041454,-0.041438,-0.0,11.116416,-0.004184,-0.01564,0.0,0.0,0.0
88155,-0.00442,-0.02339,0.023031,-0.016833,-0.032423,0.723547,-0.049301,-0.049301,0.7,-0.0,0.570004,0.544647,0.546665,0.529249,-0.009707,-0.009751,0.7,-0.043294,-0.043255,-0.0,11.148898,-0.009506,-0.014257,0.0,0.0,0.0
88175,-0.001101,-0.022208,0.022216,-0.017484,-0.033736,0.722925,-0.051148,-0.051148,0.7,-0.0,0.559948,0.540199,0.556204,0.535011,-0.010586,-0.010629,0.7,-0.045082,-0.045019,-0.0,11.153179,-0.009813,-0.013968,0.0,0.0,0.0
88195,0.001839,-0.021872,0.021634,-0.018083,-0.035008,0.722369,-0.052857,-0.052857,0.7,-0.0,0.562848,0.542373,0.55071,0.532438,-0.011501,-0.011543,0.7,-0.046827,-0.046741,-0.0,11.117868,-0.002918,-0.014662,0.0,0.0,0.0
88215,0.003944,-0.019818,0.020919,-0.018901,-0.036293,0.721839,-0.054635,-0.054635,0.7,-0.0,0.56564,0.534266,0.557286,0.531209,-0.01245,-0.01249,0.7,-0.048509,-0.048402,-0.0,11.123033,-0.002662,-0.012827,0.0,0.0,0.0
88235,0.007859,-0.019855,0.019981,-0.019905,-0.03785,0.721333,-0.056572,-0.056572,0.7,-0.0,0.555576,0.543885,0.564045,0.525735,-0.013433,-0.01347,0.7,-0.050122,-0.049994,-0.0,11.132651,-0.003913,-0.011231,0.0,0.0,0.0
88255,0.011311,-0.01732,0.019023,-0.020864,-0.03915,0.720889,-0.058384,-0.058384,0.7,-0.0,0.553968,0.529425,0.56531,0.541168,-0.014447,-0.014481,0.7,-0.051674,-0.051525,-0.0,11.138943,-0.005072,-0.009207,0.0,0.0,0.0
88275,0.013897,-0.01563,0.0183,-0.020864,-0.03915,0.720889,-0.058384,-0.058384,0.7,-0.0,0.560188,0.535742,0.566553,0.527246,-0.015492,-0.015523,0.7,-0.053173,-0.053007,-0.0,11.141758,-0.007203,-0.006915,0.0,0.0,0.0
88295,0.016606,-0.013935,0.017085,-0.022271,-0.040501,0.720464,-0.060605,-0.060605,0.7,-0.0,0.559442,0.535535,0.565495,0.529201,-0.016566,-0.016594,0.7,-0.054631,-0.054449,-0.0,11.139405,-0.00749,-0.005609,0.0,0.0,0.0
88315,0.017368,-0.011247,0.015968,-0.023804,-0.042853,0.719971,-0.06228,-0.06228,0.7,-0.0,0.572264,0.518772,0.549901,0.545596,-0.01767,-0.017694,0.7,-0.056056,-0.055861,-0.0,11.10813,-0.000815,-0.009577,0.0,0.0,0.0
88335,0.018245,-0.009046,0.014854,-0.024972,-0.044219,0.719708,-0.063824,-0.063824,0.7,-0.0,0.567723,0.526589,0.560736,0.531577,-0.018801,-0.018821,0.7,-0.057429,-0.057223,-0.0,11.106979,-0.00081,-0.007024,0.0,0.0,0.0
88355,0.01802,-0.00708,0.013615,-0.026098,-0.045725,0.719498,-0.06536,-0.06536,0.7,-0.0,0.566009,0.531038,0.564425,0.525897,-0.01996,-0.019976,0.7,-0.058749,-0.058534,-0.0,11.117143,-0.008137,-0.002773,0.0,0.0,0.0
88375,0.017915,-0.004995,0.012497,-0.027245,-0.04737,0.719302,-0.06705,-0.06705,0.7,-0.0,0.5712,0.527827,0.555352,0.532765,-0.021144,-0.021156,0.7,-0.060029,-0.059808,-0.0,11.112613,-0.00957,-0.001492,0.0,0.0,0.0
88395,0.015977,-0.002655,0.011495,-0.027245,-0.04737,0.719302,-0.06705,-0.06705,0.7,-0.0,0.574849,0.529121,0.550794,0.53142,-0.022354,-0.022362,0.7,-0.061274,-0.06105,-0.0,11.102703,-0.009941,-0.001615,0.0,0.0,0.0
88415,0.013173,-0.002144,0.01039,-0.029309,-0.05033,0.71901,-0.069326,-0.069326,0.7,-0.0,0.574087,0.531219,0.55209,0.527999,-0.023589,-0.023592,0.7,-0.062487,-0.062262,-0.0,11.093423,-0.010619,-0.002088,0.0,0.0,0.0
88435,0.011593,-0.000908,0.009283,-0.030467,-0.052149,0.718853,-0.071114,-0.071114,0.7,-0.0,0.585021,0.51475,0.541417,0.541355,-0.024847,-0.024846,0.7,-0.063671,-0.063447,-0.0,11.074483,-0.002849,-0.008173,0.0,0.0,0.0
88455,0.008668,8.6e-05,0.008301,-0.031795,-0.05437,0.718665,-0.072954,-0.072954,0.7,-0.0,0.578915,0.531921,0.546427,0.526467,-0.02613,-0.026123,0.7,-0.064807,-0.064588,-0.0,11.07726,-0.010568,-0.003581,0.0,0.0,0.0
88475,0.006104,0.0001,0.007203,-0.033232,-0.056675,0.718469,-0.074783,-0.074783,0.7,-0.0,0.573692,0.532629,0.551199,0.526423,-0.027434,-0.027423,0.7,-0.0659,-0.065685,-0.0,11.075814,-0.013717,-0.002571,0.0,0.0,0.0
88495,0.004515,-0.000747,0.006228,-0.033232,-0.056675,0.718469,-0.074783,-0.074783,0.7,-0.0,0.576214,0.53494,0.554347,0.517833,-0.02876,-0.028745,0.7,-0.066962,-0.066755,-0.0,11.075581,-0.016992,-0.001963,0.0,0.0,0.0
88515,0.003172,-0.000619,0.005129,-0.034417,-0.059249,0.718245,-0.07668,-0.07668,0.7,-0.0,0.573648,0.534449,0.553088,0.522644,-0.030107,-0.030088,0.7,-0.068006,-0.067809,-0.0,11.076253,-0.0198,-0.001145,0.0,0.0,0.0
88535,-0.001345,-0.000974,0.00415,-0.035927,-0.061539,0.717976,-0.078913,-0.078913,0.7,-0.0,0.592483,0.526985,0.528994,0.532754,-0.031475,-0.031452,0.7,-0.069039,-0.068853,-0.0,11.064341,-0.009835,-0.007732,0.0,0.0,0.0
88555,-0.001347,-0.002928,0.00305,-0.037647,-0.064556,0.717583,-0.080688,-0.080688,0.7,-0.0,0.575865,0.531325,0.557523,0.517782,-0.032863,-0.032837,0.7,-0.070042,-0.069868,-0.0,11.06729,-0.013076,-0.008575,0.0,0.0,0.0
88575,-0.003909,-0.002071,0.002072,-0.038861,-0.066933,0.717196,-0.082594,-0.082594,0.7,-0.0,0.582752,0.524936,0.54582,0.529658,-0.034271,-0.034242,0.7,-0.07101,-0.070848,-0.0,11.075678,-0.016881,-0.006193,0.0,0.0,0.0
88595,-0.005618,-0.003781,0.001088,-0.040387,-0.069552,0.716749,-0.084206,-0.084206,0.7,-0.0,0.569834,0.540908,0.558175,0.51597,-0.035699,-0.035666,0.7,-0.071959,-0.071812,-0.0,11.090915,-0.023881,-0.00257,0.0,0.0,0.0
88615,-0.006714,-0.004272,0.000108,-0.041483,-0.071544,0.716362,-0.085745,-0.085745,0.7,-0.0,0.577406,0.535441,0.557709,0.51472,-0.037145,-0.037109,0.7,-0.072903,-0.07277,-0.0,11.103039,-0.026018,-0.002703,0.0,0.0,0.0
88635,-0.007445,-0.004398,-0.000993,-0.0424,-0.073536,0.71593,-0.085745,-0.085745,0.7,-0.0,0.57646,0.538448,0.55425,0.5175,-0.03861,-0.038572,0.7,-0.073848,-0.073731,-0.0,11.115095,-0.027918,-0.001952,0.0,0.0,0.0
88655,-0.010739,-0.004283,-0.001976,-0.0424,-0.073536,0.71593,-0.087289,-0.087289,0.7,-0.0,0.582384,0.528769,0.547228,0.528622,-0.040094,-0.040054,0.7,-0.074798,-0.074697,-0.0,11.120006,-0.025866,-0.003659,0.0,0.0,0.0
88675,-0.012688,-0.005634,-0.002966,-0.043608,-0.075636,0.71548,-0.089066,-0.089066,0.7,-0.0,0.586948,0.531768,0.550915,0.516924,-0.041597,-0.041555,0.7,-0.075748,-0.075663,-0.0,11.125398,-0.024242,-0.005848,0.0,0.0,0.0
88695,-0.013538,-0.005765,-0.00419,-0.04479,-0.078069,0.714814,-0.091218,-0.091218,0.7,-0.0,0.598558,0.519349,0.535856,0.529642,-0.043119,-0.043075,0.7,-0.076674,-0.076605,-0.0,11.101828,-0.011687,-0.01329,0.0,0.0,0.0
88715,-0.015979,-0.00541,-0.004926,-0.045842,-0.079921,0.714293,-0.092779,-0.092779,0.7,-0.0,0.589747,0.521918,0.538494,0.535005,-0.044659,-0.044614,0.7,-0.077563,-0.07751,-0.0,11.107668,-0.011787,-0.013272,0.0,0.0,0.0
88735,-0.014995,-0.007244,-0.00567,-0.046761,-0.081614,0.713752,-0.094472,-0.094472,0.7,-0.0,0.574784,0.537235,0.56083,0.515016,-0.046217,-0.046171,0.7,-0.078423,-0.078384,-0.0,11.132471,-0.016449,-0.01199,0.0,0.0,0.0
88755,-0.011684,-0.010902,-0.006412,-0.047726,-0.083125,0.713186,-0.096267,-0.096267,0.7,-0.0,0.567687,0.54968,0.566205,0.504832,-0.047792,-0.047745,0.7,-0.079267,-0.079241,-0.0,11.145503,-0.017859,-0.011418,0.0,0.0,0.0
88775,-0.007641,-0.013943,-0.007135,-0.048526,-0.084459,0.71261,-0.096267,-0.096267,0.7,-0.0,0.560387,0.542884,0.565557,0.521779,-0.049384,-0.049336,0.7,-0.0801,-0.080087,-0.0,11.153684,-0.01714,-0.012162,0.0,0.0,0.0
88795,-0.004819,-0.01723,-0.007489,-0.049649,-0.085835,0.712026,-0.098277,-0.098277,0.7,-0.0,0.567214,0.549886,0.561637,0.511722,-0.050992,-0.050944,0.7,-0.080926,-0.080925,-0.0,11.161034,-0.015105,-0.012933,0.0,0.0,0.0
88815,-0.001142,-0.020025,-0.007826,-0.050749,-0.087362,0.711403,-0.100087,-0.100087,0.7,-0.0,0.561935,0.553692,0.568298,0.506538,-0.052617,-0.052569,0.7,-0.081745,-0.081755,-0.0,11.167389,-0.01315,-0.013774,0.0,0.0,0.0
88835,0.002174,-0.02343,-0.008401,-0.052171,-0.089046,0.710726,-0.10189,-0.10189,0.7,-0.0,0.563442,0.549064,0.563144,0.516225,-0.054257,-0.05421,0.7,-0.082536,-0.082556,-0.0,11.172936,-0.011137,-0.013617,0.0,0.0,0.0
88855,0.005971,-0.025366,-0.008717,-0.05366,-0.090857,0.710023,-0.10189,-0.10189,0.7,-0.0,0.558089,0.547392,0.571002,0.5158,-0.055914,-0.055867,0.7,-0.083293,-0.083321,-0.0,11.180347,-0.010733,-0.013308,0.0,0.0,0.0
88875,0.009032,-0.026571,-0.009039,-0.055271,-0.092535,0.709348,-0.103617,-0.103617,0.7,-0.0,0.563811,0.544271,0.568102,0.516943,-0.057585,-0.057539,0.7,-0.084026,-0.084061,-0.0,11.190057,-0.011604,-0.011471,0.0,0.0,0.0
88895,0.012466,-0.028384,-0.009472,-0.056693,-0.093965,0.708772,-0.10534,-0.10534,0.7,-0.0,0.554355,0.55814,0.578033,0.501831,-0.059271,-0.059226,0.7,-0.084741,-0.084783,-0.0,11.200975,-0.013952,-0.008811,0.0,0.0,0.0
88915,0.01466,-0.026662,-0.00982,-0.058023,-0.095343,0.7082,-0.106884,-0.106884,0.7,-0.0,0.561123,0.543931,0.5711,0.51841,-0.060971,-0.060927,0.7,-0.085419,-0.085465,-0.0,11.206963,-0.014498,-0.006898,0.0,0.0,0.0
88935,0.015641,-0.026409,-0.010297,-0.058023,-0.095343,0.7082,-0.108435,-0.108435,0.7,-0.0,0.561553,0.54,0.568285,0.524976,-0.062684,-0.062641,0.7,-0.086051,-0.086101,-0.0,11.204634,-0.013252,-0.00668,0.0,0.0,0.0
88955,0.016238,-0.022983,-0.01068,-0.059747,-0.096736,0.707614,-0.109975,-0.109975,0.7,-0.0,0.570313,0.52274,0.565406,0.535637,-0.06441,-0.064367,0.7,-0.086646,-0.086698,-0.0,11.201241,-0.011708,-0.007451,0.0,0.0,0.0
88975,0.015974,-0.018833,-0.01096,-0.062116,-0.099013,0.70678,-0.112191,-0.112191,0.7,-0.0,0.581438,0.511183,0.548893,0.548407,-0.066147,-0.066106,0.7,-0.087209,-0.087263,-0.0,11.162372,-0.002937,-0.015639,0.0,0.0,0.0
88995,0.014486,-0.014323,-0.011251,-0.063943,-0.100709,0.706181,-0.113916,-0.113916,0.7,-0.0,0.581797,0.519694,0.545758,0.54335,-0.067895,-0.067855,0.7,-0.087744,-0.087798,-0.0,11.163972,-0.002601,-0.013854,0.0,0.0,0.0
89015,0.014348,-0.011515,-0.01127,-0.066365,-0.103203,0.705312,-0.113916,-0.113916,0.7,-0.0,0.561503,0.538824,0.564938,0.528731,-0.069654,-0.069615,0.7,-0.088254,-0.088307,-0.0,11.191307,-0.0088,-0.007137,0.0,0.0,0.0
89035,0.014329,-0.008097,-0.011295,-0.066365,-0.103203,0.705312,-0.115572,-0.115572,0.7,-0.0,0.562325,0.52616,0.562153,0.54427,-0.071423,-0.071385,0.7,-0.08875,-0.088803,-0.0,11.201962,-0.011696,-0.004075,0.0,0.0,0.0
89055,0.013824,-0.005294,-0.011194,-0.068895,-0.105342,0.70455,-0.117386,-0.117386,0.7,-0.0,0.563548,0.538534,0.563659,0.53103,-0.073202,-0.073164,0.7,-0.089242,-0.089294,-0.0,11.224017,-0.018031,0.001153,0.0,0.0,0.0
89075,0.012836,-0.003224,-0.01121,-0.071078,-0.107502,0.7038,-0.119025,-0.119025,0.7,-0.0,0.579037,0.514925,0.545774,0.552688,-0.07499,-0.074954,0.7,-0.089707,-0.089759,-0.0,11.187473,-0.008967,-0.008644,0.0,0.0,0.0
89095,0.011483,-0.0014,-0.011345,-0.073121,-0.109571,0.703093,-0.120989,-0.120989,0.7,-0.0,0.573671,0.528705,0.550246,0.541688,-0.076787,-0.076752,0.7,-0.090136,-0.090187,-0.0,11.197087,-0.010735,-0.005208,0.0,0.0,0.0
89115,0.009765,0.000178,-0.011354,-0.075245,-0.111778,0.702312,-0.122799,-0.122799,0.7,-0.0,0.567369,0.54435,0.5609,0.523053,-0.078593,-0.078559,0.7,-0.090538,-0.090588,-0.0,11.214836,-0.014672,-0.001584,0.0,0.0,0.0
89135,0.008544,0.000171,-0.011354,-0.077737,-0.114364,0.701371,-0.124606,-0.124606,0.7,-0.0,0.57188,0.535114,0.55835,0.531414,-0.080407,-0.080374,0.7,-0.090921,-0.090969,-0.0,11.227189,-0.0173,6.6e-05,0.0,0.0,0.0
89155,0.008179,4.8e-05,-0.01172,-0.079962,-0.116697,0.700474,-0.126133,-0.126133,0.7,-0.0,0.566935,0.538828,0.56451,0.52757,-0.082228,-0.082196,0.7,-0.091295,-0.091342,-0.0,11.240457,-0.019699,0.001254,0.0,0.0,0.0
89175,0.004881,0.000273,-0.011843,-0.08184,-0.118599,0.699705,-0.127666,-0.127666,0.7,-0.0,0.570958,0.542744,0.562565,0.52303,-0.084057,-0.084026,0.7,-0.091667,-0.091714,-0.0,11.261376,-0.02343,0.003957,0.0,0.0,0.0
89195,0.003793,-0.001442,-0.012084,-0.083758,-0.120798,0.698903,-0.129205,-0.129205,0.7,-0.0,0.580505,0.540383,0.556808,0.522323,-0.085893,-0.085863,0.7,-0.092044,-0.09209,-0.0,11.276118,-0.025155,0.004873,0.0,0.0,0.0
89215,0.002327,-0.001206,-0.012573,-0.083758,-0.120798,0.698903,-0.129205,-0.129205,0.7,-0.0,0.577444,0.54083,0.559456,0.522651,-0.087737,-0.087707,0.7,-0.092425,-0.092472,-0.0,11.278403,-0.023607,0.003202,0.0,0.0,0.0
89235,-0.002071,-0.000624,-0.012942,-0.085472,-0.122873,0.698128,-0.130823,-0.130823,0.7,-0.0,0.585266,0.536059,0.551049,0.527893,-0.089588,-0.08956,0.7,-0.092808,-0.092855,-0.0,11.280341,-0.023445,0.001639,0.0,0.0,0.0
89255,-0.004382,-0.001982,-0.013189,-0.088107,-0.125745,0.697039,-0.132665,-0.132665,0.7,-0.0,0.59865,0.529776,0.53627,0.530013,-0.091447,-0.09142,0.7,-0.09319,-0.093238,-0.0,11.231709,-0.012319,-0.009301,0.0,0.0,0.0
89275,-0.006457,-0.001876,-0.013801,-0.09008,-0.127957,0.696112,-0.134363,-0.134363,0.7,-0.0,0.590643,0.530864,0.551267,0.522937,-0.093314,-0.093287,0.7,-0.093545,-0.093594,-0.0,11.235866,-0.012581,-0.010582,0.0,0.0,0.0
89295,-0.009129,-0.003848,-0.014056,-0.092059,-0.12998,0.695259,-0.136284,-0.136284,0.7,-0.0,0.581445,0.551733,0.553698,0.512183,-0.095187,-0.095161,0.7,-0.093864,-0.093914,-0.0,11.272315,-0.019845,-0.004219,0.0,0.0,0.0
89315,-0.00898,-0.007389,-0.014438,-0.09396,-0.132215,0.694366,-0.13792,-0.13792,0.7,-0.0,0.567472,0.555841,0.572432,0.504815,-0.097066,-0.097042,0.7,-0.094156,-0.094206,-0.0,11.296372,-0.023093,-0.001543,0.0,0.0,0.0
89335,-0.008221,-0.010803,-0.014816,-0.09396,-0.132215,0.694366,-0.13792,-0.13792,0.7,-0.0,0.574556,0.552488,0.564627,0.510323,-0.098952,-0.098928,0.7,-0.094429,-0.094479,-0.0,11.307401,-0.023362,-0.000615,0.0,0.0,0.0
89355,-0.007962,-0.012512,-0.015188,-0.095686,-0.134146,0.693456,-0.139728,-0.139728,0.7,-0.0,0.574946,0.547519,0.562063,0.518897,-0.100842,-0.10082,0.7,-0.09469,-0.094741,-0.0,11.316167,-0.024184,-0.000706,0.0,0.0,0.0
89375,-0.008931,-0.013497,-0.015323,-0.097931,-0.136127,0.692488,-0.141767,-0.141767,0.7,-0.0,0.59573,0.528276,0.542922,0.531034,-0.102738,-0.102716,0.7,-0.094945,-0.094996,-0.0,11.266041,-0.013371,-0.01078,0.0,0.0,0.0
89395,-0.008542,-0.015695,-0.016063,-0.100132,-0.138237,0.691517,-0.143558,-0.143558,0.7,-0.0,0.586796,0.539224,0.56068,0.512042,-0.104639,-0.104618,0.7,-0.095171,-0.095222,-0.0,11.276152,-0.01282,-0.011617,0.0,0.0,0.0
89415,-0.007564,-0.015566,-0.016421,-0.102294,-0.140075,0.690439,-0.14544,-0.14544,0.7,-0.0,0.574094,0.543656,0.566922,0.517331,-0.106543,-0.106524,0.7,-0.095361,-0.095412,-0.0,11.301979,-0.015131,-0.007254,0.0,0.0,0.0
89435,-0.006818,-0.016904,-0.016664,-0.104722,-0.141897,0.689461,-0.146971,-0.146971,0.7,-0.0,0.572224,0.556457,0.563488,0.511554,-0.108452,-0.108434,0.7,-0.095529,-0.09558,-0.0,11.325712,-0.018214,-0.00317,0.0,0.0,0.0
89455,-0.006675,-0.018857,-0.017158,-0.106594,-0.143339,0.688675,-0.148515,-0.148515,0.7,-0.0,0.573743,0.554657,0.571028,0.505442,-0.110364,-0.110346,0.7,-0.095686,-0.095737,-0.0,11.350295,-0.019023,-0.000663,0.0,0.0,0.0
89475,-0.005689,-0.019704,-0.017396,-0.108371,-0.144815,0.687896,-0.150073,-0.150073,0.7,-0.0,0.572549,0.548388,0.571223,0.514603,-0.112279,-0.112262,0.7,-0.095841,-0.095891,-0.0,11.362819,-0.019126,0.002324,0.0,0.0,0.0
89495,-0.003613,-0.019199,-0.017863,-0.108371,-0.144815,0.687896,-0.150073,-0.150073,0.7,-0.0,0.576971,0.540486,0.567921,0.521301,-0.114197,-0.114181,0.7,-0.095996,-0.096046,-0.0,11.358496,-0.016949,0.001486,0.0,0.0,0.0
89515,-0.004858,-0.016037,-0.018355,-0.110293,-0.145905,0.687128,-0.151696,-0.151696,0.7,-0.0,0.586912,0.519157,0.559032,0.540468,-0.116118,-0.116103,0.7,-0.096149,-0.096199,-0.0,11.351886,-0.015069,-0.000508,0.0,0.0,0.0
89535,-0.004983,-0.015307,-0.018842,-0.11368,-0.14817,0.685933,-0.153774,-0.153774,0.7,-0.0,0.596754,0.523097,0.549056,0.531456,-0.118042,-0.118028,0.7,-0.096299,-0.09635,-0.0,11.298825,-0.006381,-0.011273,0.0,0.0,0.0
89555,-0.004872,-0.013721,-0.019448,-0.1158,-0.14958,0.685133,-0.155454,-0.155454,0.7,-0.0,0.588322,0.531748,0.558605,0.522461,-0.119969,-0.119956,0.7,-0.096423,-0.096473,-0.0,11.300083,-0.003882,-0.011153,0.0,0.0,0.0
89575,-0.005381,-0.011407,-0.019811,-0.117913,-0.150776,0.6844,-0.157398,-0.157398,0.7,-0.0,0.577799,0.541719,0.565878,0.519883,-0.121898,-0.121887,0.7,-0.096511,-0.096562,-0.0,11.342045,-0.009877,-0.00061,0.0,0.0,0.0
89595,-0.004518,-0.012131,-0.020052,-0.120293,-0.152181,0.683698,-0.159223,-0.159223,0.7,-0.0,0.574837,0.549792,0.567935,0.513733,-0.123829,-0.123818,0.7,-0.096578,-0.096627,-0.0,11.357674,-0.011529,0.002504,0.0,0.0,0.0
89615,-0.004877,-0.012624,-0.020422,-0.120293,-0.152181,0.683698,-0.159223,-0.159223,0.7,-0.0,0.58178,0.542322,0.566846,0.515183,-0.125761,-0.125751,0.7,-0.096632,-0.096681,-0.0,11.359742,-0.010327,0.0028,0.0,0.0,0.0
89635,-0.004131,-0.013716,-0.020664,-0.122641,-0.153456,0.682947,-0.160894,-0.160894,0.7,-0.0,0.581854,0.543373,0.56526,0.515549,-0.127694,-0.127685,0.7,-0.096684,-0.096732,-0.0,11.357452,-0.009957,0.003875,0.0,0.0,0.0
89655,-0.004025,-0.012006,-0.021025,-0.124861,-0.15453,0.682239,-0.162727,-0.162727,0.7,-0.0,0.591102,0.514617,0.551702,0.544262,-0.129628,-0.12962,0.7,-0.096739,-0.096787,-0.0,11.311192,-0.002888,-0.007462,0.0,0.0,0.0
89675,-0.005739,-0.011172,-0.021643,-0.127681,-0.15572,0.681476,-0.164729,-0.164729,0.7,-0.0,0.591285,0.527544,0.555271,0.528378,-0.131563,-0.131556,0.7,-0.096778,-0.096825,-0.0,11.317269,-0.002507,-0.006272,0.0,0.0,0.0
89695,-0.004742,-0.012992,-0.021764,-0.130299,-0.156971,0.680803,-0.166567,-0.166567,0.7,-0.0,0.58249,0.549194,0.563615,0.508112,-0.133499,-0.133493,0.7,-0.096789,-0.096836,-0.0,11.332395,-0.002692,-0.003168,0.0,0.0,0.0
89715,-0.00363,-0.013958,-0.022125,-0.132683,-0.157859,0.680195,-0.168169,-0.168169,0.7,-0.0,0.582637,0.556328,0.565441,0.499475,-0.135434,-0.13543,0.7,-0.096783,-0.096829,-0.0,11.349845,-0.003414,0.002671,0.0,0.0,0.0
89735,-0.003376,-0.014688,-0.022369,-0.134812,-0.158496,0.679698,-0.169709,-0.169709,0.7,-0.0,0.578565,0.55059,0.5639,0.513158,-0.13737,-0.137366,0.7,-0.096772,-0.096816,-0.0,11.35814,-0.004342,0.006407,0.0,0.0,0.0
89755,-0.003868,-0.014327,-0.022494,-0.136969,-0.159182,0.679222,-0.171247,-0.171247,0.7,-0.0,0.585348,0.544694,0.561561,0.514367,-0.139305,-0.139303,0.7,-0.096765,-0.096809,-0.0,11.359308,-0.003036,0.00739,0.0,0.0,0.0
89775,-0.004596,-0.014458,-0.022866,-0.139199,-0.15988,0.67875,-0.171247,-0.171247,0.7,-0.0,0.587808,0.53944,0.556616,0.521868,-0.141241,-0.141239,0.7,-0.096765,-0.096809,-0.0,11.352412,-0.000132,0.00611,0.0,0.0,0.0
89795,-0.003858,-0.014695,-0.023227,-0.141327,-0.160499,0.678315,-0.173023,-0.173023,0.7,-0.0,0.591861,0.541742,0.559265,0.511196,-0.143176,-0.143175,0.7,-0.096771,-0.096815,-0.0,11.345738,0.002132,0.004878,0.0,0.0,0.0
89815,-0.003757,-0.012619,-0.02371,-0.143674,-0.161039,0.677858,-0.17487,-0.17487,0.7,-0.0,0.589405,0.529712,0.56077,0.524551,-0.145111,-0.145111,0.7,-0.096781,-0.096825,-0.0,11.341347,0.002963,0.00514,0.0,0.0,0.0
89835,-0.004749,-0.011167,-0.024079,-0.145951,-0.161622,0.677462,-0.176629,-0.176629,0.7,-0.0,0.592576,0.527494,0.557059,0.526823,-0.147047,-0.147048,0.7,-0.096771,-0.096815,-0.0,11.33777,0.004501,0.004421,0.0,0.0,0.0
89855,-0.002939,-0.009192,-0.024554,-0.148111,-0.162214,0.677071,-0.178536,-0.178536,0.7,-0.0,0.587539,0.527574,0.565795,0.523074,-0.148982,-0.148984,0.7,-0.096733,-0.096777,-0.0,11.337871,0.006199,0.005046,0.0,0.0,0.0
89875,-0.001969,-0.00857,-0.024915,-0.148111,-0.162214,0.677071,-0.178536,-0.178536,0.7,-0.0,0.58881,0.535798,0.558809,0.520665,-0.150916,-0.150919,0.7,-0.096678,-0.096721,-0.0,11.335947,0.007333,0.005472,0.0,0.0,0.0
89895,0.001696,-0.008647,-0.025266,-0.150419,-0.162437,0.676677,-0.18024,-0.18024,0.7,-0.0,0.577623,0.541154,0.57433,0.510505,-0.152849,-0.152853,0.7,-0.096615,-0.096657,-0.0,11.334797,0.008202,0.005038,0.0,0.0,0.0
89915,0.003144,-0.007162,-0.025749,-0.152864,-0.162621,0.676232,-0.182071,-0.182071,0.7,-0.0,0.586099,0.518363,0.564892,0.532386,-0.154781,-0.154786,0.7,-0.096552,-0.096592,-0.0,11.310042,0.011352,-0.00649,0.0,0.0,0.0
89935,0.004376,-0.007878,-0.026109,-0.155552,-0.163049,0.675785,-0.184112,-0.184112,0.7,-0.0,0.584209,0.539352,0.562564,0.516131,-0.156712,-0.156717,0.7,-0.096468,-0.096508,-0.0,11.313079,0.0138,-0.005363,0.0,0.0,0.0
89955,0.006829,-0.0087,-0.026341,-0.158154,-0.163506,0.675307,-0.186035,-0.186035,0.7,-0.0,0.580623,0.545914,0.56628,0.510279,-0.15864,-0.158646,0.7,-0.096358,-0.096395,-0.0,11.325977,0.015679,-0.000798,0.0,0.0,0.0
89975,0.008463,-0.012095,-0.026685,-0.161418,-0.163888,0.674766,-0.186035,-0.186035,0.7,-0.0,0.578902,0.556327,0.570236,0.497323,-0.160567,-0.160573,0.7,-0.096229,-0.096265,-0.0,11.338721,0.015853,0.004469,0.0,0.0,0.0
89995,0.013511,-0.015077,-0.027004,-0.164032,-0.16405,0.674286,-0.187902,-0.187902,0.7,-0.0,0.568527,0.553282,0.584188,0.497593,-0.16249,-0.162497,0.7,-0.096096,-0.09613,-0.0,11.351188,0.015598,0.007953,0.0,0.0,0.0
90015,0.014852,-0.01469,-0.027362,-0.166303,-0.164115,0.673885,-0.189428,-0.189428,0.7,-0.0,0.584884,0.546485,0.568632,0.505461,-0.164411,-0.164419,0.7,-0.09597,-0.096003,-0.0,11.364606,0.015133,0.014496,0.0,0.0,0.0
90035,0.016456,-0.015641,-0.02783,-0.168766,-0.164496,0.673473,-0.190974,-0.190974,0.7,-0.0,0.583359,0.545312,0.569625,0.508065,-0.16633,-0.166338,0.7,-0.095832,-0.095863,-0.0,11.371839,0.016954,0.015587,0.0,0.0,0.0
90055,0.018514,-0.014018,-0.028559,-0.171009,-0.164753,0.673089,-0.192505,-0.192505,0.7,-0.0,0.591081,0.529293,0.573687,0.511317,-0.168245,-0.168254,0.7,-0.095675,-0.095704,-0.0,11.371606,0.019209,0.013629,0.0,0.0,0.0
90075,0.019206,-0.010949,-0.029314,-0.171009,-0.164753,0.673089,-0.194126,-0.194126,0.7,-0.0,0.589058,0.524503,0.573199,0.519131,-0.170157,-0.170167,0.7,-0.095504,-0.095532,-0.0,11.371219,0.019425,0.012642,0.0,0.0,0.0
90095,0.019519,-0.007154,-0.029959,-0.17376,-0.164907,0.672718,-0.1965,-0.1965,0.7,-0.0,0.596052,0.523908,0.563861,0.521837,-0.172066,-0.172076,0.7,-0.095325,-0.09535,-0.0,11.369962,0.019975,0.011071,0.0,0.0,0.0
90115,0.019466,-0.003483,-0.03097,-0.176942,-0.165485,0.672283,-0.198193,-0.198193,0.7,-0.0,0.595577,0.498156,0.567578,0.540849,-0.173971,-0.173982,0.7,-0.095138,-0.095162,-0.0,11.345469,0.0221,-0.002457,0.0,0.0,0.0
90135,0.017956,-0.00057,-0.031732,-0.176942,-0.165485,0.672283,-0.198193,-0.198193,0.7,-0.0,0.600872,0.516711,0.563311,0.521927,-0.175872,-0.175884,0.7,-0.094949,-0.094972,-0.0,11.346985,0.023677,-8.8e-05,0.0,0.0,0.0
90155,0.019783,-0.000292,-0.032221,-0.180998,-0.166368,0.671824,-0.199754,-0.199754,0.7,-0.0,0.583512,0.54183,0.57182,0.50803,-0.17777,-0.177782,0.7,-0.094773,-0.094794,-0.0,11.359605,0.022295,0.007941,0.0,0.0,0.0
90175,0.020633,9.3e-05,-0.032718,-0.183632,-0.166826,0.671481,-0.201494,-0.201494,0.7,-0.0,0.585057,0.513685,0.570873,0.534531,-0.179664,-0.179676,0.7,-0.094616,-0.094637,-0.0,11.344269,0.023356,-0.001801,0.0,0.0,0.0
90195,0.017568,0.000781,-0.03333,-0.18644,-0.16734,0.671196,-0.203337,-0.203337,0.7,-0.0,0.602555,0.532733,0.56419,0.503265,-0.181555,-0.181568,0.7,-0.094457,-0.094477,-0.0,11.356276,0.020697,0.008752,0.0,0.0,0.0
90215,0.017737,-0.002021,-0.033671,-0.189397,-0.168361,0.67091,-0.205247,-0.205247,0.7,-0.0,0.593374,0.552497,0.564493,0.493232,-0.183443,-0.183456,0.7,-0.094283,-0.094303,-0.0,11.364992,0.020388,0.013309,0.0,0.0,0.0
90235,0.017149,-0.003248,-0.034156,-0.192457,-0.169138,0.670624,-0.205247,-0.205247,0.7,-0.0,0.595258,0.53792,0.568368,0.50288,-0.185328,-0.185341,0.7,-0.094099,-0.094119,-0.0,11.367615,0.020657,0.016147,0.0,0.0,0.0
90255,0.015562,-0.00327,-0.034764,-0.192457,-0.169138,0.670624,-0.20727,-0.20727,0.7,-0.0,0.600005,0.536521,0.568626,0.498355,-0.187208,-0.187222,0.7,-0.093917,-0.093936,-0.0,11.368825,0.018435,0.018651,0.0,0.0,0.0
90275,0.015329,-0.003758,-0.035377,-0.195253,-0.170079,0.670342,-0.209076,-0.209076,0.7,-0.0,0.590607,0.541026,0.571203,0.502125,-0.189085,-0.189099,0.7,-0.093743,-0.093762,-0.0,11.370452,0.016986,0.021842,0.0,0.0,0.0
90295,0.012591,-0.000872,-0.036005,-0.198686,-0.170978,0.670063,-0.21076,-0.21076,0.7,-0.0,0.611983,0.502402,0.551862,0.535341,-0.190959,-0.190973,0.7,-0.09356,-0.093578,-0.0,11.353768,0.021439,0.006745,0.0,0.0,0.0
90315,0.006699,0.000856,-0.036748,-0.201431,-0.171944,0.669844,-0.212303,-0.212303,0.7,-0.0,0.615687,0.522261,0.546934,0.51707,-0.192828,-0.192843,0.7,-0.093362,-0.09338,-0.0,11.356267,0.020758,0.007403,0.0,0.0,0.0
90335,0.004608,0.001673,-0.037116,-0.203824,-0.172935,0.669659,-0.213843,-0.213843,0.7,-0.0,0.605605,0.538525,0.558976,0.499817,-0.194694,-0.194709,0.7,-0.093161,-0.093179,-0.0,11.363385,0.019478,0.015084,0.0,0.0,0.0
90355,0.00239,0.002731,-0.037604,-0.206132,-0.173823,0.66948,-0.215459,-0.215459,0.7,-0.0,0.604514,0.535699,0.557114,0.506624,-0.196556,-0.196571,0.7,-0.092964,-0.092981,-0.0,11.366522,0.0182,0.01853,0.0,0.0,0.0
90375,0.002033,0.002237,-0.038213,-0.209751,-0.174841,0.669278,-0.217364,-0.217364,0.7,-0.0,0.600945,0.533382,0.565482,0.504005,-0.198414,-0.19843,0.7,-0.092773,-0.092789,-0.0,11.366413,0.017312,0.018177,0.0,0.0,0.0
90395,0.001638,0.003695,-0.038586,-0.211937,-0.175426,0.669166,-0.217364,-0.217364,0.7,-0.0,0.599218,0.523717,0.567622,0.513758,-0.200268,-0.200284,0.7,-0.092587,-0.092603,-0.0,11.366083,0.017518,0.016668,0.0,0.0,0.0
90415,0.000886,0.004657,-0.038952,-0.211937,-0.175426,0.669166,-0.219151,-0.219151,0.7,-0.0,0.598987,0.526606,0.567402,0.511491,-0.202118,-0.202135,0.7,-0.092408,-0.092424,-0.0,11.368092,0.017471,0.022514,0.0,0.0,0.0
90435,0.000737,0.005997,-0.039318,-0.215053,-0.176449,0.669068,-0.221107,-0.221107,0.7,-0.0,0.602373,0.51944,0.563484,0.518833,-0.203965,-0.203982,0.7,-0.092242,-0.092258,-0.0,11.36506,0.019076,0.021472,0.0,0.0,0.0
90455,-0.001991,0.008019,-0.039674,-0.217535,-0.177069,0.669027,-0.222763,-0.222763,0.7,-0.0,0.615245,0.492255,0.551241,0.541539,-0.205809,-0.205826,0.7,-0.092067,-0.092083,-0.0,11.355407,0.024736,0.006493,0.0,0.0,0.0
90475,-0.00383,0.008348,-0.039909,-0.220316,-0.177979,0.669035,-0.224719,-0.224719,0.7,-0.0,0.611753,0.531321,0.552346,0.506467,-0.207649,-0.207666,0.7,-0.091876,-0.091891,-0.0,11.353961,0.024189,0.00983,0.0,0.0,0.0
90495,-0.003207,0.00775,-0.039913,-0.220316,-0.177979,0.669035,-0.224719,-0.224719,0.7,-0.0,0.597888,0.535441,0.558909,0.511622,-0.209485,-0.209502,0.7,-0.091681,-0.091695,-0.0,11.3517,0.024655,0.013134,0.0,0.0,0.0
90515,-0.003553,0.006767,-0.039791,-0.222581,-0.178723,0.669084,-0.226619,-0.226619,0.7,-0.0,0.602475,0.536264,0.560334,0.503156,-0.211317,-0.211335,0.7,-0.091488,-0.091502,-0.0,11.347404,0.023986,0.017021,0.0,0.0,0.0
90535,-0.000219,0.00488,-0.039803,-0.225064,-0.17941,0.669169,-0.228426,-0.228426,0.7,-0.0,0.596364,0.523612,0.567574,0.515418,-0.213145,-0.213163,0.7,-0.091306,-0.091318,-0.0,11.344711,0.027578,0.005582,0.0,0.0,0.0
90555,0.000408,0.004037,-0.039682,-0.22759,-0.179872,0.669274,-0.230341,-0.230341,0.7,-0.0,0.597194,0.535078,0.554303,0.516914,-0.21497,-0.214988,0.7,-0.091114,-0.091125,-0.0,11.340737,0.028059,0.005518,0.0,0.0,0.0
90575,0.003999,0.001544,-0.039318,-0.229977,-0.180279,0.669447,-0.23202,-0.23202,0.7,-0.0,0.58586,0.553378,0.570413,0.491763,-0.216791,-0.216809,0.7,-0.090906,-0.090916,-0.0,11.335738,0.028,0.009527,0.0,0.0,0.0
90595,0.005385,-0.000627,-0.039191,-0.231758,-0.180472,0.669636,-0.233557,-0.233557,0.7,-0.0,0.593712,0.551722,0.563315,0.49191,-0.218607,-0.218626,0.7,-0.090694,-0.090702,-0.0,11.331289,0.029344,0.01352,0.0,0.0,0.0
90615,0.006626,-0.001703,-0.03882,-0.233545,-0.180719,0.669884,-0.235102,-0.235102,0.7,-0.0,0.595848,0.547031,0.556107,0.502205,-0.22042,-0.220439,0.7,-0.090486,-0.090493,-0.0,11.324242,0.031056,0.015735,0.0,0.0,0.0
90635,0.006128,-0.001226,-0.038213,-0.235325,-0.181009,0.6702,-0.236724,-0.236724,0.7,-0.0,0.596078,0.540192,0.552655,0.512619,-0.222228,-0.222247,0.7,-0.09029,-0.090296,-0.0,11.317964,0.033722,0.013677,0.0,0.0,0.0
90655,0.005002,0.000217,-0.037966,-0.237984,-0.181509,0.670768,-0.238609,-0.238609,0.7,-0.0,0.602888,0.524697,0.549727,0.522988,-0.224032,-0.224051,0.7,-0.090105,-0.09011,-0.0,11.309967,0.035775,0.011313,0.0,0.0,0.0
90675,0.005842,0.000964,-0.037602,-0.237984,-0.181509,0.670768,-0.238609,-0.238609,0.7,-0.0,0.598681,0.529401,0.555259,0.51636,-0.225833,-0.225852,0.7,-0.089931,-0.089935,-0.0,11.299932,0.037121,0.009554,0.0,0.0,0.0
90695,0.006416,0.002928,-0.037365,-0.240021,-0.181769,0.671284,-0.240357,-0.240357,0.7,-0.0,0.595183,0.526766,0.556274,0.520002,-0.22763,-0.22765,0.7,-0.089768,-0.089771,-0.0,11.276371,0.037109,0.013203,0.0,0.0,0.0
90715,0.008833,0.004313,-0.036764,-0.241898,-0.181861,0.671866,-0.242239,-0.242239,0.7,-0.0,0.589096,0.514112,0.561824,0.534926,-0.229425,-0.229444,0.7,-0.089619,-0.089622,-0.0,11.292965,0.038958,0.003329,0.0,0.0,0.0
90735,0.009899,0.006164,-0.03666,-0.243707,-0.181837,0.672504,-0.244012,-0.244012,0.7,-0.0,0.598678,0.519659,0.55635,0.52338,-0.231216,-0.231235,0.7,-0.089465,-0.089467,-0.0,11.281241,0.040275,0.003597,0.0,0.0,0.0
90755,0.01147,0.007167,-0.036181,-0.24557,-0.18207,0.67329,-0.245916,-0.245916,0.7,-0.0,0.590974,0.526434,0.554707,0.525659,-0.233004,-0.233023,0.7,-0.089294,-0.089296,-0.0,11.262123,0.042172,0.005363,0.0,0.0,0.0
90775,0.010574,0.00959,-0.035704,-0.24557,-0.18207,0.67329,-0.245916,-0.245916,0.7,-0.0,0.602431,0.516364,0.549475,0.526207,-0.234788,-0.234808,0.7,-0.089118,-0.089118,-0.0,11.243027,0.044525,0.006619,0.0,0.0,0.0
90795,0.011322,0.008746,-0.03533,-0.247404,-0.182284,0.674109,-0.247932,-0.247932,0.7,-0.0,0.598938,0.532224,0.552456,0.508966,-0.236569,-0.236589,0.7,-0.088944,-0.088943,-0.0,11.219493,0.04526,0.007613,0.0,0.0,0.0
90815,0.012424,0.008641,-0.034967,-0.25033,-0.182606,0.675794,-0.249746,-0.249746,0.7,-0.0,0.597736,0.518139,0.551003,0.529098,-0.238347,-0.238367,0.7,-0.08878,-0.088778,-0.0,11.251859,0.046157,-0.001143,0.0,0.0,0.0
90835,0.014769,0.007337,-0.034606,-0.25033,-0.182606,0.675794,-0.251772,-0.251772,0.7,-0.0,0.594144,0.533462,0.557603,0.509154,-0.240121,-0.240141,0.7,-0.088605,-0.088602,-0.0,11.235151,0.046808,-0.000469,0.0,0.0,0.0
90855,0.018699,0.006059,-0.034361,-0.25261,-0.182613,0.677342,-0.253315,-0.253315,0.7,-0.0,0.582977,0.541886,0.567705,0.494699,-0.241892,-0.241912,0.7,-0.088415,-0.08841,-0.0,11.156656,0.046657,0.008403,0.0,0.0,0.0
90875,0.021911,0.003912,-0.033978,-0.25261,-0.182613,0.677342,-0.254852,-0.254852,0.7,-0.0,0.58972,0.529937,0.559815,0.511889,-0.243659,-0.243678,0.7,-0.088221,-0.088215,-0.0,11.193263,0.04855,0.000429,0.0,0.0,0.0
90895,0.022784,0.002828,-0.033966,-0.254821,-0.182363,0.678974,-0.256404,-0.256404,0.7,-0.0,0.593951,0.542718,0.555678,0.493338,-0.245422,-0.245441,0.7,-0.088034,-0.088027,-0.0,11.146641,0.050435,0.003512,0.0,0.0,0.0
90915,0.024038,0.000892,-0.033577,-0.254821,-0.182363,0.678974,-0.256404,-0.256404,0.7,-0.0,0.592559,0.529353,0.553642,0.515826,-0.247181,-0.2472,0.7,-0.087859,-0.087851,-0.0,11.192057,0.052142,-0.004292,0.0,0.0,0.0
90935,0.025173,-0.001288,-0.033427,-0.255673,-0.182564,0.679783,-0.258558,-0.258558,0.7,-0.0,0.596859,0.53974,0.552915,0.495629,-0.248937,-0.248956,0.7,-0.087695,-0.087685,-0.0,11.140581,0.054987,-0.00029,0.0,0.0,0.0
90955,0.026076,-0.004206,-0.033144,-0.256614,-0.182546,0.680602,-0.260582,-0.260582,0.7,-0.0,0.59116,0.529289,0.557663,0.512544,-0.25069,-0.250709,0.7,-0.087539,-0.087528,-0.0,11.185471,0.055524,-0.006189,0.0,0.0,0.0
90975,0.029069,-0.00807,-0.032596,-0.257747,-0.182724,0.68154,-0.262461,-0.262461,0.7,-0.0,0.588294,0.54352,0.559881,0.498409,-0.252439,-0.252458,0.7,-0.087368,-0.087357,-0.0,11.187685,0.055473,-0.00898,0.0,0.0,0.0
90995,0.030452,-0.010615,-0.032306,-0.259081,-0.182752,0.682646,-0.26401,-0.26401,0.7,-0.0,0.59118,0.536702,0.55334,0.508837,-0.254185,-0.254204,0.7,-0.087182,-0.087169,-0.0,11.178137,0.056606,-0.009638,0.0,0.0,0.0
91015,0.031357,-0.014027,-0.031637,-0.260405,-0.1831,0.683632,-0.26401,-0.26401,0.7,-0.0,0.5887,0.542277,0.556284,0.500884,-0.255928,-0.255946,0.7,-0.086995,-0.086981,-0.0,11.16055,0.056922,-0.008662,0.0,0.0,0.0
91035,0.032116,-0.01585,-0.031358,-0.260405,-0.1831,0.683632,-0.265604,-0.265604,0.7,-0.0,0.594457,0.53515,0.554936,0.500753,-0.257666,-0.257684,0.7,-0.086818,-0.086804,-0.0,11.134336,0.058,-0.006484,0.0,0.0,0.0
91055,0.032409,-0.019271,-0.030813,-0.261351,-0.183535,0.684606,-0.267459,-0.267459,0.7,-0.0,0.592785,0.54587,0.548652,0.496813,-0.259401,-0.259419,0.7,-0.086653,-0.086638,-0.0,11.120509,0.056839,-0.004131,0.0,0.0,0.0
91075,0.034628,-0.020954,-0.030277,-0.262688,-0.183851,0.685584,-0.269372,-0.269372,0.7,-0.0,0.590442,0.535588,0.558962,0.504534,-0.261133,-0.26115,0.7,-0.086477,-0.086462,-0.0,11.177063,0.058352,-0.010398,0.0,0.0,0.0
91095,0.035624,-0.022408,-0.029996,-0.264324,-0.184335,0.686553,-0.271406,-0.271406,0.7,-0.0,0.590615,0.540889,0.553657,0.50386,-0.262861,-0.262878,0.7,-0.086279,-0.086263,-0.0,11.169422,0.057919,-0.011719,0.0,0.0,0.0
91115,0.037953,-0.023355,-0.029582,-0.265958,-0.184744,0.687485,-0.271406,-0.271406,0.7,-0.0,0.588608,0.549015,0.555879,0.492915,-0.264585,-0.264602,0.7,-0.086069,-0.08605,0.0,11.149745,0.058135,-0.0095,0.0,0.0,0.0
91135,0.036982,-0.023985,-0.02934,-0.267752,-0.18556,0.688257,-0.273346,-0.273346,0.7,-0.0,0.596886,0.546641,0.545612,0.495215,-0.266305,-0.266321,0.7,-0.085857,-0.085838,0.0,11.130563,0.057893,-0.005633,0.0,0.0,0.0
91155,0.03808,-0.024095,-0.029079,-0.269215,-0.186239,0.688842,-0.27488,-0.27488,0.7,-0.0,0.589138,0.543691,0.558681,0.49223,-0.268021,-0.268036,0.7,-0.085657,-0.085637,0.0,11.119895,0.057469,-0.001736,0.0,0.0,0.0
91175,0.0388,-0.023354,-0.028961,-0.270811,-0.187006,0.689372,-0.276423,-0.276423,0.7,-0.0,0.589791,0.537523,0.556336,0.501189,-0.269732,-0.269748,0.7,-0.08545,-0.085429,0.0,11.122475,0.056007,0.001034,0.0,0.0,0.0
91195,0.041586,-0.021853,-0.028716,-0.272456,-0.187794,0.689842,-0.277957,-0.277957,0.7,-0.0,0.586238,0.528318,0.565533,0.506385,-0.27144,-0.271454,0.7,-0.08523,-0.085208,0.0,11.139223,0.055414,0.00124,0.0,0.0,0.0
91215,0.042261,-0.01794,-0.028667,-0.274204,-0.188527,0.690269,-0.279576,-0.279576,0.7,-0.0,0.589607,0.516352,0.562573,0.519501,-0.273142,-0.273157,0.7,-0.085003,-0.084981,0.0,11.156319,0.054999,0.001468,0.0,0.0,0.0
91235,0.041463,-0.013562,-0.028516,-0.274204,-0.188527,0.690269,-0.281678,-0.281678,0.7,-0.0,0.595403,0.507287,0.559359,0.526343,-0.274841,-0.274855,0.7,-0.084774,-0.084751,0.0,11.170396,0.054862,0.001903,0.0,0.0,0.0
91255,0.04201,-0.009162,-0.028481,-0.278231,-0.190948,0.690995,-0.283609,-0.283609,0.7,-0.0,0.596197,0.51195,0.558405,0.52298,-0.276535,-0.276548,0.7,-0.084545,-0.084521,0.0,11.182255,0.055401,0.002794,0.0,0.0,0.0
91275,0.041461,-0.004901,-0.02845,-0.278231,-0.190948,0.690995,-0.283609,-0.283609,0.7,-0.0,0.603161,0.493867,0.549396,0.544165,-0.278224,-0.278237,0.7,-0.084319,-0.084295,0.0,11.216324,0.060407,-0.006276,0.0,0.0,0.0
91295,0.042263,-0.001235,-0.028158,-0.280561,-0.192157,0.69127,-0.285395,-0.285395,0.7,-0.0,0.584897,0.532387,0.568893,0.505348,-0.279909,-0.279921,0.7,-0.084107,-0.084082,0.0,11.199832,0.051916,0.007072,0.0,0.0,0.0
91315,0.042347,0.001444,-0.027849,-0.282535,-0.193384,0.691562,-0.287024,-0.287024,0.7,-0.0,0.595967,0.514561,0.553321,0.529615,-0.281589,-0.281601,0.7,-0.083918,-0.083894,0.0,11.222243,0.055454,0.000472,0.0,0.0,0.0
91335,0.039755,0.003356,-0.02764,-0.284739,-0.195058,0.691837,-0.288715,-0.288715,0.7,-0.0,0.606323,0.526401,0.543959,0.516007,-0.283266,-0.283278,0.7,-0.083732,-0.083709,0.0,11.227572,0.05512,0.003147,0.0,0.0,0.0
91355,0.039365,0.005174,-0.02731,-0.28687,-0.196923,0.692135,-0.290544,-0.290544,0.7,-0.0,0.592107,0.528329,0.557681,0.516182,-0.284939,-0.284951,0.7,-0.083539,-0.083517,0.0,11.227795,0.053879,0.005482,0.0,0.0,0.0
91375,0.03888,0.005036,-0.026819,-0.289356,-0.199235,0.692444,-0.292432,-0.292432,0.7,-0.0,0.591975,0.532638,0.557377,0.512066,-0.286609,-0.286619,0.7,-0.083347,-0.083326,0.0,11.226308,0.050578,0.00829,0.0,0.0,0.0
91395,0.041328,0.004575,-0.026568,-0.289356,-0.199235,0.692444,-0.292432,-0.292432,0.7,-0.0,0.581811,0.532949,0.573426,0.505415,-0.288274,-0.288285,0.7,-0.083159,-0.083139,0.0,11.224472,0.046946,0.009969,0.0,0.0,0.0
91415,0.039865,0.004546,-0.026079,-0.293898,-0.203433,0.69316,-0.295763,-0.295763,0.7,-0.0,0.587803,0.534816,0.560252,0.511072,-0.289936,-0.289946,0.7,-0.082984,-0.082965,0.0,11.221326,0.042023,0.01286,0.0,0.0,0.0
91435,0.040355,0.004423,-0.025711,-0.295921,-0.205613,0.693503,-0.295763,-0.295763,0.7,-0.0,0.601707,0.517814,0.550125,0.524538,-0.291595,-0.291604,0.7,-0.082826,-0.082809,0.0,11.238327,0.050233,0.002408,0.0,0.0,0.0
91455,0.038143,0.005613,-0.02561,-0.297753,-0.207919,0.693887,-0.297303,-0.297303,0.7,-0.0,0.590095,0.538811,0.563215,0.499475,-0.29325,-0.293259,0.7,-0.082668,-0.082652,0.0,11.208299,0.037674,0.015376,0.0,0.0,0.0
91475,0.037538,0.00535,-0.024994,-0.297753,-0.207919,0.693887,-0.298842,-0.298842,0.7,-0.0,0.584536,0.536222,0.566384,0.504557,-0.294902,-0.294911,0.7,-0.082521,-0.082506,0.0,11.199816,0.033496,0.01786,0.0,0.0,0.0
91495,0.037536,0.005587,-0.024633,-0.299523,-0.210378,0.694296,-0.298786,-0.3,0.7,-0.0,0.58917,0.533212,0.56131,0.507643,-0.296551,-0.29656,0.7,-0.082378,-0.082364,0.0,11.195692,0.032629,0.015437,0.0,0.0,0.0
91515,0.034209,0.007986,-0.024543,-0.301928,-0.213507,0.694913,-0.295358,-0.3,0.7,-0.0,0.615196,0.499209,0.533084,0.541921,-0.298198,-0.298206,0.7,-0.082226,-0.082213,0.0,11.217326,0.045312,0.002759,0.0,0.0,0.0
91535,0.030537,0.009031,-0.023938,-0.304148,-0.216628,0.695424,-0.292016,-0.3,0.7,-0.0,0.605034,0.523283,0.540442,0.522994,-0.299841,-0.299849,0.7,-0.082066,-0.082055,0.0,11.211538,0.043918,0.001785,0.0,0.0,0.0
91555,0.031034,0.00842,-0.023564,-0.306156,-0.219986,0.696042,-0.28833,-0.3,0.7,-0.0,0.583177,0.539767,0.565962,0.501757,-0.301481,-0.301489,0.7,-0.081874,-0.081885,0.0,11.188197,0.035546,0.008813,0.0,0.0,0.0
91575,0.030317,0.007304,-0.022935,-0.308072,-0.223108,0.696621,-0.285118,-0.3,0.7,-0.0,0.583006,0.546752,0.559049,0.500833,-0.303117,-0.303125,0.7,-0.081567,-0.08168,0.0,11.173326,0.027981,0.014949,0.0,0.0,0.0
91595,0.031434,0.005844,-0.022427,-0.309726,-0.226211,0.697224,-0.28169,-0.3,0.7,-0.0,0.572131,0.539737,0.577625,0.498448,-0.304744,-0.304757,0.7,-0.081047,-0.081409,0.0,11.158183,0.021279,0.018787,0.0,0.0,0.0
91615,0.029108,0.00642,-0.021817,-0.309726,-0.226211,0.697224,-0.28169,-0.3,0.7,-0.0,0.586341,0.52839,0.558834,0.514488,-0.30636,-0.306383,0.7,-0.080229,-0.081047,0.0,11.147918,0.017749,0.020985,0.0,0.0,0.0
91635,0.027042,0.00566,-0.021436,-0.311433,-0.229589,0.697786,-0.278323,-0.3,0.7,-0.0,0.597124,0.537043,0.549958,0.501429,-0.307956,-0.308,0.7,-0.079049,-0.080574,0.0,11.138796,0.015806,0.021574,0.0,0.0,0.0
91655,0.02472,0.005997,-0.021069,-0.313431,-0.233638,0.698521,-0.274645,-0.3,0.7,-0.0,0.609806,0.522379,0.533431,0.52191,-0.309526,-0.309608,0.7,-0.077465,-0.079975,0.0,11.171268,0.031539,0.011737,0.0,0.0,0.0
91675,0.020052,0.008753,-0.020838,-0.315169,-0.237432,0.699203,-0.270743,-0.3,0.7,-0.0,0.606972,0.522559,0.538162,0.51981,-0.311061,-0.311202,0.7,-0.075492,-0.079242,0.0,11.166381,0.028103,0.013721,0.0,0.0,0.0
91695,0.017371,0.008478,-0.02046,-0.316979,-0.241701,0.699921,-0.26768,-0.3,0.7,-0.0,0.590431,0.544009,0.555203,0.496426,-0.312554,-0.31278,0.7,-0.07313,-0.078367,0.0,11.142696,0.017304,0.019921,0.0,0.0,0.0
91715,0.015042,0.00943,-0.020336,-0.318317,-0.245061,0.70051,-0.264595,-0.3,0.7,-0.0,0.589342,0.535557,0.558521,0.501557,-0.313996,-0.31434,0.7,-0.070354,-0.077347,0.0,11.12433,0.009045,0.024669,0.0,0.0,0.0
91735,0.013103,0.008309,-0.019832,-0.319606,-0.248522,0.701101,-0.261563,-0.3,0.7,-0.0,0.580768,0.543883,0.564248,0.494759,-0.31538,-0.315879,0.7,-0.067141,-0.076184,0.0,11.109164,0.000824,0.02848,0.0,0.0,0.0
91755,0.011739,0.010492,-0.019718,-0.320736,-0.251877,0.70174,-0.258299,-0.3,0.7,-0.0,0.589518,0.526648,0.55989,0.507653,-0.316696,-0.317393,0.7,-0.063491,-0.074881,0.0,11.106641,-0.000406,0.02915,0.0,0.0,0.0
91775,0.006215,0.01349,-0.019822,-0.320736,-0.251877,0.70174,-0.258299,-0.3,0.7,-0.0,0.610225,0.521233,0.538952,0.511017,-0.317936,-0.31888,0.7,-0.059423,-0.073442,0.0,11.106388,-0.000604,0.029281,0.0,0.0,0.0
91795,0.002777,0.01541,-0.019803,-0.32252,-0.257283,0.702643,-0.254621,-0.3,0.7,-0.0,0.600761,0.522606,0.550543,0.508362,-0.319091,-0.320337,0.7,-0.054959,-0.071876,0.0,11.103108,-0.000315,0.029147,0.0,0.0,0.0
91815,-0.000559,0.019405,-0.019899,-0.323312,-0.260658,0.703297,-0.251222,-0.3,0.7,-0.0,0.624471,0.503168,0.526886,0.526777,-0.320155,-0.321762,0.7,-0.050128,-0.070193,0.0,11.140334,0.018043,0.022016,0.0,0.0,0.0
91835,-0.004868,0.022657,-0.020215,-0.324321,-0.264832,0.704123,-0.247186,-0.3,0.7,-0.0,0.598511,0.514394,0.552661,0.518424,-0.321119,-0.323153,0.7,-0.045006,-0.068404,0.0,11.118251,0.005352,0.027261,0.0,0.0,0.0
91855,-0.00612,0.025453,-0.020441,-0.325032,-0.268857,0.704844,-0.243739,-0.3,0.7,-0.0,0.594679,0.514125,0.561638,0.512097,-0.32198,-0.324507,0.7,-0.039638,-0.06652,0.0,11.10365,-7.4e-05,0.028636,0.0,0.0,0.0
91875,-0.008089,0.026652,-0.020655,-0.325763,-0.272821,0.705547,-0.240204,-0.3,0.7,-0.0,0.590713,0.524549,0.562893,0.502888,-0.322731,-0.325823,0.7,-0.034044,-0.064554,0.0,11.083373,-0.006999,0.030878,0.0,0.0,0.0
91895,-0.007112,0.026418,-0.020791,-0.325763,-0.272821,0.705547,-0.240204,-0.3,0.7,-0.0,0.585156,0.531566,0.567192,0.496165,-0.323368,-0.327098,0.7,-0.028237,-0.062519,0.0,11.072717,-0.01187,0.031469,0.0,0.0,0.0
91915,-0.006731,0.024835,-0.020924,-0.32629,-0.276438,0.706145,-0.236251,-0.3,0.7,-0.0,0.583722,0.533242,0.570929,0.491191,-0.323888,-0.328333,0.7,-0.022238,-0.060429,0.0,11.067775,-0.014965,0.032392,0.0,0.0,0.0
91935,-0.004782,0.024977,-0.021192,-0.326337,-0.280462,0.706759,-0.232677,-0.3,0.7,-0.0,0.608338,0.514341,0.552589,0.505814,-0.324287,-0.329526,0.7,-0.016079,-0.058295,0.0,11.109227,0.004555,0.028235,0.0,0.0,0.0
91955,-0.006135,0.025694,-0.021417,-0.326331,-0.284418,0.707326,-0.228712,-0.3,0.7,-0.0,0.60335,0.519021,0.553646,0.506138,-0.324562,-0.330676,0.7,-0.009838,-0.056132,0.0,11.110587,0.003501,0.029266,0.0,0.0,0.0
91975,-0.006478,0.023248,-0.021664,-0.326214,-0.28832,0.70781,-0.225409,-0.3,0.7,-0.0,0.586681,0.525025,0.571592,0.498707,-0.324712,-0.331782,0.7,-0.003562,-0.053951,0.0,11.099941,-0.004588,0.028707,0.0,0.0,0.0
91995,-0.004762,0.02229,-0.021931,-0.325716,-0.291211,0.708147,-0.222331,-0.3,0.7,-0.0,0.582961,0.524791,0.5807,0.49177,-0.324736,-0.332845,0.7,0.002738,-0.051763,0.0,11.091237,-0.011981,0.028495,0.0,0.0,0.0
92015,-0.004006,0.019732,-0.022428,-0.32516,-0.293971,0.708452,-0.219238,-0.3,0.7,-0.0,0.585708,0.533201,0.571469,0.490231,-0.324634,-0.333863,0.7,0.009051,-0.049579,0.0,11.089861,-0.017197,0.028153,0.0,0.0,0.0
92035,-0.003248,0.017299,-0.022683,-0.324531,-0.296748,0.708731,-0.219238,-0.3,0.7,-0.0,0.589552,0.535412,0.572784,0.482203,-0.324405,-0.334839,0.7,0.015361,-0.047409,0.0,11.098899,-0.0153,0.026335,0.0,0.0,0.0
92055,-0.00495,0.016302,-0.023158,-0.324531,-0.296748,0.708731,-0.215377,-0.3,0.7,-0.0,0.602375,0.528543,0.559776,0.49012,-0.324051,-0.335771,0.7,0.021641,-0.045261,0.0,11.109247,-0.012018,0.024931,0.0,0.0,0.0
92075,-0.007613,0.014071,-0.023633,-0.323312,-0.300723,0.709067,-0.211294,-0.3,0.7,-0.0,0.608347,0.533823,0.550005,0.488768,-0.323571,-0.33666,0.7,0.027863,-0.043143,0.0,11.11775,-0.009861,0.022784,0.0,0.0,0.0
92095,-0.007823,0.010892,-0.024253,-0.321913,-0.304411,0.709305,-0.207898,-0.3,0.7,-0.0,0.616497,0.542952,0.547332,0.472752,-0.322968,-0.337507,0.7,0.03396,-0.041062,0.0,11.140237,0.006274,0.026627,0.0,0.0,0.0
92115,-0.007954,0.011377,-0.024739,-0.32053,-0.307062,0.709445,-0.204625,-0.3,0.7,-0.0,0.595707,0.520028,0.571771,0.496236,-0.322244,-0.338313,0.7,0.039906,-0.039022,0.0,11.13778,-0.001105,0.024371,0.0,0.0,0.0
92135,-0.008924,0.010507,-0.025469,-0.319202,-0.310056,0.709544,-0.201097,-0.3,0.7,-0.0,0.598725,0.519596,0.570956,0.493722,-0.321402,-0.339078,0.7,0.045713,-0.037029,0.0,11.136002,-0.010559,0.020643,0.0,0.0,0.0
92155,-0.007459,0.01028,-0.026088,-0.319202,-0.310056,0.709544,-0.201097,-0.3,0.7,-0.0,0.59231,0.518617,0.579882,0.492472,-0.320445,-0.339804,0.7,0.051388,-0.035086,0.0,11.140363,-0.012442,0.018237,0.0,0.0,0.0
92175,-0.007591,0.010763,-0.026818,-0.317527,-0.313026,0.709524,-0.197423,-0.3,0.7,-0.0,0.598702,0.516976,0.57344,0.494635,-0.319376,-0.340492,0.7,0.05693,-0.033195,0.0,11.147387,-0.014282,0.0177,0.0,0.0,0.0
92195,-0.005248,0.008718,-0.027568,-0.315838,-0.315874,0.709437,-0.193518,-0.3,0.7,-0.0,0.611926,0.544562,0.557258,0.466875,-0.318196,-0.341142,0.7,0.062336,-0.031358,0.0,11.158387,0.000467,0.023941,0.0,0.0,0.0
92215,-0.002184,0.00766,-0.028315,-0.313696,-0.31868,0.709274,-0.189921,-0.3,0.7,-0.0,0.587888,0.529197,0.58618,0.481331,-0.31691,-0.341756,0.7,0.06756,-0.029577,0.0,11.168254,-0.001786,0.022763,0.0,0.0,0.0
92235,-0.00025,0.008909,-0.028811,-0.311494,-0.321338,0.709067,-0.186091,-0.3,0.7,-0.0,0.587065,0.518255,0.587373,0.493837,-0.315521,-0.342334,0.7,0.072587,-0.027851,0.0,11.179171,-0.006973,0.02036,0.0,0.0,0.0
92255,0.002186,0.009066,-0.029432,-0.309292,-0.324183,0.708815,-0.182803,-0.3,0.7,-0.0,0.585647,0.522733,0.585672,0.49408,-0.314032,-0.342879,0.7,0.077441,-0.02618,0.0,11.191807,-0.011435,0.016225,0.0,0.0,0.0
92275,0.004495,0.009591,-0.030059,-0.307508,-0.326353,0.708615,-0.179716,-0.3,0.7,-0.0,0.58189,0.516738,0.593885,0.496058,-0.312448,-0.34339,0.7,0.082143,-0.024562,0.0,11.204255,-0.013975,0.013122,0.0,0.0,0.0
92295,0.006194,0.010106,-0.030678,-0.30551,-0.328504,0.708417,-0.176607,-0.3,0.7,-0.0,0.583605,0.515167,0.590728,0.500585,-0.310771,-0.343869,0.7,0.086713,-0.022998,0.0,11.215874,-0.016729,0.011328,0.0,0.0,0.0
92315,0.007189,0.00878,-0.031044,-0.30551,-0.328504,0.708417,-0.176607,-0.3,0.7,-0.0,0.591678,0.524205,0.582485,0.491651,-0.309003,-0.344318,0.7,0.091165,-0.021484,0.0,11.220536,-0.015409,0.012957,0.0,0.0,0.0
92335,0.007459,0.007076,-0.031404,-0.303257,-0.330615,0.708234,-0.173531,-0.3,0.7,-0.0,0.592747,0.527339,0.582335,0.487246,-0.307147,-0.344737,0.7,0.095499,-0.020019,0.0,11.222315,-0.013784,0.01409,0.0,0.0,0.0
92355,0.007707,0.006715,-0.03177,-0.299093,-0.334691,0.707932,-0.16865,-0.3,0.7,-0.0,0.607622,0.53422,0.564057,0.481574,-0.305205,-0.345126,0.7,0.099718,-0.018601,0.0,11.210403,-0.001097,0.024711,0.0,0.0,0.0
92375,0.00893,0.006492,-0.032138,-0.29664,-0.336841,0.707814,-0.165256,-0.3,0.7,-0.0,0.593825,0.520605,0.578571,0.496638,-0.30318,-0.345488,0.7,0.10378,-0.017227,0.0,11.21054,-0.001356,0.023746,0.0,0.0,0.0
92395,0.009419,0.00638,-0.032505,-0.294131,-0.338877,0.707698,-0.16178,-0.3,0.7,-0.0,0.578575,0.501762,0.596931,0.512955,-0.301075,-0.345822,0.7,0.107669,-0.015895,0.0,11.221125,-0.015597,0.010725,0.0,0.0,0.0
92415,0.012348,0.006429,-0.032879,-0.294131,-0.338877,0.707698,-0.16178,-0.3,0.7,-0.0,0.582165,0.513075,0.59543,0.499076,-0.298893,-0.34613,0.7,0.111426,-0.014602,0.0,11.219742,-0.018739,0.007748,0.0,0.0,0.0
92435,0.014271,0.008172,-0.033141,-0.291136,-0.341018,0.707536,-0.158557,-0.3,0.7,-0.0,0.58175,0.509175,0.587587,0.512641,-0.296637,-0.346413,0.7,0.115083,-0.013345,0.0,11.216276,-0.018125,0.008139,0.0,0.0,0.0
92455,0.012546,0.009002,-0.03375,-0.288068,-0.343651,0.707369,-0.154871,-0.3,0.7,-0.0,0.610087,0.529261,0.567626,0.479096,-0.294309,-0.346671,0.7,0.118654,-0.012123,0.0,11.205526,-0.005991,0.021748,0.0,0.0,0.0
92475,0.011221,0.007882,-0.033983,-0.284961,-0.346403,0.707212,-0.150943,-0.3,0.7,-0.0,0.599872,0.518997,0.574337,0.495492,-0.29191,-0.346904,0.7,0.122102,-0.010933,0.0,11.206479,-0.006713,0.019751,0.0,0.0,0.0
92495,0.010363,0.007991,-0.034224,-0.281342,-0.349244,0.707088,-0.14709,-0.3,0.7,-0.0,0.592113,0.512513,0.582038,0.502988,-0.289442,-0.347114,0.7,0.125413,-0.009774,0.0,11.210264,-0.013189,0.014514,0.0,0.0,0.0
92515,0.010821,0.009709,-0.034479,-0.281342,-0.349244,0.707088,-0.14709,-0.3,0.7,-0.0,0.580216,0.499362,0.592248,0.518248,-0.28691,-0.347301,0.7,0.128611,-0.008642,0.0,11.213472,-0.020084,0.010237,0.0,0.0,0.0
92535,0.009198,0.011636,-0.034847,-0.273561,-0.35467,0.706904,-0.14039,-0.3,0.7,-0.0,0.59485,0.494548,0.583609,0.515854,-0.284314,-0.347466,0.7,0.131727,-0.007537,0.0,11.213291,-0.025923,0.004902,0.0,0.0,0.0
92555,0.004545,0.012289,-0.035312,-0.273561,-0.35467,0.706904,-0.14039,-0.3,0.7,-0.0,0.622921,0.523775,0.553802,0.484477,-0.281657,-0.347608,0.7,0.134785,-0.006457,0.0,11.204464,-0.014609,0.01936,0.0,0.0,0.0
92575,0.001382,0.011623,-0.035292,-0.267015,-0.359541,0.706868,-0.134246,-0.3,0.7,-0.0,0.587336,0.486651,0.586868,0.527683,-0.278939,-0.347729,0.7,0.137754,-0.0054,0.0,11.207833,-0.032678,-0.005275,0.0,0.0,0.0
92595,-0.002034,0.011441,-0.035394,-0.267015,-0.359541,0.706868,-0.134246,-0.3,0.7,-0.0,0.617723,0.537609,0.551103,0.478836,-0.276162,-0.34783,0.7,0.140666,-0.004365,0.0,11.201426,-0.022982,0.007825,0.0,0.0,0.0
92615,-0.004465,0.01091,-0.035137,-0.263451,-0.362012,0.706884,-0.13097,-0.3,0.7,-0.0,0.582642,0.504164,0.585704,0.517005,-0.273327,-0.347909,0.7,0.143514,-0.003352,0.0,11.197024,-0.036728,-0.006868,0.0,0.0,0.0
92635,-0.011516,0.009198,-0.035105,-0.258831,-0.364775,0.706844,-0.126383,-0.3,0.7,-0.0,0.627419,0.548834,0.538206,0.466509,-0.270436,-0.347969,0.7,0.146319,-0.002359,0.0,11.192364,-0.025645,0.009353,0.0,0.0,0.0
92655,-0.014635,0.006093,-0.034867,-0.255049,-0.367091,0.706752,-0.123068,-0.3,0.7,-0.0,0.601702,0.535748,0.565143,0.484102,-0.267488,-0.348009,0.7,0.149064,-0.001386,0.0,11.187895,-0.02592,0.010357,0.0,0.0,0.0
92675,-0.017518,0.00336,-0.03452,-0.251058,-0.369181,0.706591,-0.119787,-0.3,0.7,-0.0,0.596878,0.526353,0.569204,0.495798,-0.264487,-0.348029,0.7,0.151732,-0.000433,0.0,11.188448,-0.030714,0.002212,0.0,0.0,0.0
92695,-0.017646,0.003723,-0.034639,-0.247159,-0.370713,0.706383,-0.119787,-0.3,0.7,-0.0,0.590916,0.51044,0.580429,0.506863,-0.261433,-0.348031,0.7,0.15435,0.000501,0.0,11.192987,-0.033098,-0.001463,0.0,0.0,0.0
92715,-0.020068,0.002585,-0.034399,-0.243402,-0.37255,0.706058,-0.116269,-0.3,0.7,-0.0,0.597088,0.519871,0.569334,0.503487,-0.258326,-0.348014,0.7,0.156941,0.001416,0.0,11.201956,-0.033382,-0.003917,0.0,0.0,0.0
92735,-0.019454,0.002347,-0.034769,-0.239411,-0.374139,0.705707,-0.112379,-0.3,0.7,-0.0,0.601535,0.505802,0.582009,0.498436,-0.255168,-0.347979,0.7,0.159505,0.002311,0.0,11.212103,-0.030418,-0.006191,0.0,0.0,0.0
92755,-0.022017,0.002303,-0.034764,-0.235339,-0.375818,0.705297,-0.108895,-0.3,0.7,-0.0,0.606486,0.512154,0.566457,0.505495,-0.251959,-0.347926,0.7,0.161997,0.003187,0.0,11.227644,-0.029593,-0.005439,0.0,0.0,0.0
92775,-0.02236,0.000954,-0.034778,-0.230245,-0.377669,0.704792,-0.105062,-0.3,0.7,-0.0,0.600043,0.514395,0.576914,0.500295,-0.248701,-0.347856,0.7,0.1644,0.004044,0.0,11.241635,-0.028488,-0.005539,0.0,0.0,0.0
92795,-0.020365,-0.001452,-0.034683,-0.230245,-0.377669,0.704792,-0.105062,-0.3,0.7,-0.0,0.595808,0.527109,0.57745,0.492717,-0.245396,-0.347769,0.7,0.166738,0.004881,0.0,11.25502,-0.02847,-0.006297,0.0,0.0,0.0
92815,-0.018877,-0.002769,-0.034696,-0.219573,-0.380464,0.703857,-0.101098,-0.3,0.7,-0.0,0.588535,0.516151,0.587752,0.502264,-0.242044,-0.347665,0.7,0.169027,0.005699,0.0,11.270418,-0.02998,-0.012291,0.0,0.0,0.0
92835,-0.018115,-0.004463,-0.034467,-0.219573,-0.380464,0.703857,-0.098016,-0.3,0.7,-0.0,0.607417,0.556107,0.566672,0.456349,-0.238646,-0.347545,0.7,0.171282,0.006496,0.0,11.250531,-0.021575,0.008609,0.0,0.0,0.0
92855,-0.015538,-0.005269,-0.033976,-0.210768,-0.382173,0.70321,-0.094933,-0.3,0.7,-0.0,0.576894,0.480444,0.59009,0.547814,-0.235204,-0.347409,0.7,0.173463,0.007272,0.0,11.287928,-0.028914,-0.027008,0.0,0.0,0.0
92875,-0.017629,-0.004444,-0.033241,-0.210768,-0.382173,0.70321,-0.091856,-0.3,0.7,-0.0,0.606722,0.551662,0.556135,0.477773,-0.231719,-0.347258,0.7,0.175559,0.008028,0.0,11.26915,-0.022756,-0.007617,0.0,0.0,0.0
92895,-0.01824,-0.004566,-0.032145,-0.206563,-0.382681,0.702889,-0.088757,-0.3,0.7,-0.0,0.589665,0.503103,0.561967,0.543679,-0.228192,-0.347092,0.7,0.177583,0.008763,0.0,11.284342,-0.024887,-0.029256,0.0,0.0,0.0
92915,-0.020684,-0.004592,-0.030929,-0.200776,-0.38364,0.702286,-0.084229,-0.3,0.7,-0.0,0.604565,0.554054,0.549454,0.485054,-0.224626,-0.346911,0.7,0.179541,0.009476,0.0,11.262782,-0.019223,-0.005941,0.0,0.0,0.0
92935,-0.017863,-0.005639,-0.029958,-0.19569,-0.383823,0.701609,-0.080922,-0.3,0.7,-0.0,0.584778,0.536874,0.573568,0.50065,-0.221021,-0.346716,0.7,0.181434,0.010167,0.0,11.258949,-0.016404,-0.001943,0.0,0.0,0.0
92955,-0.020805,-0.005058,-0.028616,-0.19569,-0.383823,0.701609,-0.080922,-0.3,0.7,-0.0,0.598785,0.514225,0.552619,0.532376,-0.217378,-0.346508,0.7,0.183269,0.010837,0.0,11.279673,-0.017747,-0.011584,0.0,0.0,0.0
92975,-0.019237,-0.003807,-0.027747,-0.189748,-0.384262,0.700596,-0.077537,-0.3,0.7,-0.0,0.588044,0.502816,0.570765,0.538151,-0.213699,-0.346286,0.7,0.185068,0.011484,0.0,11.304643,-0.015611,-0.018242,0.0,0.0,0.0
92995,-0.019767,-0.000876,-0.026865,-0.184252,-0.383914,0.699388,-0.073883,-0.3,0.7,-0.0,0.604144,0.538089,0.554905,0.499155,-0.209985,-0.346052,0.7,0.186844,0.01211,0.0,11.281187,-0.012472,0.004318,0.0,0.0,0.0
