time_ms,roll,pitch,yaw,x,y,z,reference_x,reference_y,reference_z,reference_yaw,throttle_1,throttle_2,throttle_3,throttle_4,roll_predicted,pitch_predicted,yaw_predicted,roll_rate_predicted,pitch_rate_predicted,yaw_rate_predicted,value1,value2,value3,value4,value5,value6
96972,0.001188,0.012969,-0.042747,-0.013254,0.016752,0.696861,0.0,0.0,0.7,-0.0,0.599085,0.524173,0.576254,0.50791,-0.000992,-0.001466,0.7,0.000568,0.000295,0.0,11.414213,0.012746,0.010505,0.0,0.0,0.0
96992,0.00126,0.015412,-0.042506,-0.013223,0.017328,0.696801,-3.5e-05,0.0,0.699965,-0.0,0.601188,0.513931,0.56574,0.527692,-0.000981,-0.00146,0.7,0.000577,0.000315,0.0,11.416519,0.013505,0.010971,0.0,0.0,0.0
97012,0.000373,0.017102,-0.042012,-0.013459,0.017939,0.696707,-0.001565,0.0,0.698435,-0.0,0.603165,0.515723,0.566418,0.523146,-0.000969,-0.001454,0.7,0.000586,0.000336,0.0,11.419555,0.013567,0.010434,0.0,0.0,0.0
97032,0.001124,0.016385,-0.041652,-0.013459,0.017939,0.696707,-0.003108,0.0,0.696892,-0.0,0.598064,0.528351,0.575423,0.506397,-0.000957,-0.001447,0.7,0.000594,0.000355,-1.8e-05,11.421295,0.013363,0.00978,0.0,0.0,0.0
97052,0.003329,0.016307,-0.04093,-0.013457,0.018366,0.696567,-0.004854,0.0,0.695146,-0.0,0.591015,0.516427,0.574606,0.522572,-0.000946,-0.001439,0.699995,0.000585,0.000375,-0.000826,11.362335,0.013408,0.003986,0.0,0.0,0.0
97072,0.004313,0.016204,-0.040328,-0.013307,0.01915,0.696306,-0.006761,0.0,0.693239,-0.0,0.59052,0.512226,0.573913,0.523413,-0.000935,-0.001432,0.699968,0.000336,0.000394,-0.002543,11.309568,0.010878,-0.001794,0.0,0.0,0.0
97092,0.006206,0.013431,-0.039479,-0.013194,0.019654,0.696071,-0.006761,0.0,0.693239,-0.0,0.583931,0.524158,0.57315,0.515901,-0.000933,-0.001424,0.699899,-0.000427,0.000412,-0.005112,11.26319,0.010713,-0.007384,0.0,0.0,0.0
97112,0.00886,0.009083,-0.0385,-0.013194,0.019654,0.696071,-0.006761,0.0,0.693239,-0.0,0.578167,0.531279,0.573619,0.511096,-0.000952,-0.001415,0.699773,-0.001897,0.00043,-0.008484,11.223119,0.012164,-0.013286,0.0,0.0,0.0
97132,0.011006,0.005579,-0.037513,-0.012367,0.020642,0.695738,-0.009808,0.0,0.690192,-0.0,0.580949,0.542228,0.578036,0.4949,-0.001005,-0.001407,0.699579,-0.004208,0.000447,-0.011544,11.268006,0.012191,-0.009772,0.0,0.0,0.0
97152,0.010967,0.001176,-0.036384,-0.012169,0.021165,0.695414,-0.011667,0.0,0.688333,-0.0,0.585036,0.546325,0.566856,0.501038,-0.001111,-0.001398,0.699329,-0.007155,0.000465,-0.013994,11.294101,0.010106,-0.006477,0.0,0.0,0.0
97172,0.011062,-0.004201,-0.035135,-0.01205,0.021564,0.695059,-0.013745,0.0,0.686255,-0.0,0.589658,0.530786,0.557515,0.514454,-0.001278,-0.001388,0.699026,-0.010394,0.000481,-0.017478,11.20254,0.012709,-0.020492,0.0,0.0,0.0
97192,0.01236,-0.008823,-0.034127,-0.011833,0.02194,0.694659,-0.015425,0.0,0.684575,-0.0,0.586135,0.540162,0.567513,0.494852,-0.001513,-0.001378,0.698645,-0.014098,0.000498,-0.021692,11.176508,0.012883,-0.024139,0.0,0.0,0.0
97212,0.01317,-0.013822,-0.032994,-0.011703,0.022425,0.694211,-0.015425,0.0,0.684575,-0.0,0.583931,0.542566,0.562397,0.498068,-0.001826,-0.001368,0.698177,-0.018464,0.000514,-0.026386,11.146856,0.012545,-0.02779,0.0,0.0,0.0
97232,0.01385,-0.018703,-0.031742,-0.011703,0.022425,0.694211,-0.017497,0.0,0.682503,-0.0,0.58288,0.546333,0.561875,0.495157,-0.002233,-0.001358,0.697613,-0.023525,0.000529,-0.031269,11.140603,0.012227,-0.029561,0.0,0.0,0.0
97252,0.01389,-0.022007,-0.030621,-0.010953,0.02284,0.693697,-0.019232,0.0,0.680768,-0.0,0.582095,0.548214,0.568011,0.492954,-0.002745,-0.001347,0.696955,-0.029228,0.000544,-0.035334,11.206364,0.012497,-0.023512,0.0,0.0,0.0
97272,0.012953,-0.025568,-0.029512,-0.011541,0.023134,0.693026,-0.020909,0.0,0.679091,-0.0,0.58564,0.539995,0.557706,0.504883,-0.003374,-0.001336,0.696218,-0.035193,0.000559,-0.039458,11.154429,0.010682,-0.027036,0.0,0.0,0.0
97292,0.012888,-0.030459,-0.028507,-0.011814,0.023253,0.69249,-0.022458,0.0,0.677542,-0.0,0.584288,0.539305,0.563544,0.499947,-0.004123,-0.001325,0.695397,-0.041284,0.000574,-0.043766,11.147295,0.01104,-0.031774,0.0,0.0,0.0
97312,0.013366,-0.030824,-0.02752,-0.011949,0.023459,0.691905,-0.023991,0.0,0.676009,-0.0,0.57981,0.534194,0.568243,0.505546,-0.004996,-0.001313,0.694489,-0.04752,0.000588,-0.048095,11.148958,0.010861,-0.02973,0.0,0.0,0.0
97332,0.011646,-0.030976,-0.026692,-0.012649,0.02369,0.691253,-0.025595,0.0,0.674405,-0.0,0.593564,0.535455,0.554455,0.503337,-0.005994,-0.001302,0.693495,-0.053858,0.000601,-0.052326,11.148265,0.010015,-0.028981,0.0,0.0,0.0
97352,0.01164,-0.031346,-0.025958,-0.013628,0.023732,0.690393,-0.027814,0.0,0.672186,-0.0,0.584359,0.526634,0.564461,0.512485,-0.007118,-0.001289,0.692418,-0.060217,0.000615,-0.056401,11.149366,0.009749,-0.029001,0.0,0.0,0.0
97372,0.010745,-0.029165,-0.025128,-0.013628,0.023732,0.690393,-0.027814,0.0,0.672186,-0.0,0.591184,0.522117,0.560191,0.513827,-0.00837,-0.001277,0.69126,-0.066496,0.000628,-0.060342,11.148942,0.009679,-0.027002,0.0,0.0,0.0
97392,0.010833,-0.027213,-0.024522,-0.014864,0.023812,0.689515,-0.029473,0.0,0.670527,-0.0,0.58705,0.518396,0.565113,0.515305,-0.009746,-0.001264,0.690023,-0.07261,0.00064,-0.064457,11.130223,0.008861,-0.026919,0.0,0.0,0.0
97412,0.010308,-0.024781,-0.023931,-0.016453,0.023962,0.688398,-0.031284,0.0,0.668716,-0.0,0.592746,0.523085,0.559889,0.513218,-0.011243,-0.001252,0.688708,-0.0786,0.000653,-0.067639,11.170081,0.008053,-0.021617,0.0,0.0,0.0
97432,0.008785,-0.02053,-0.023235,-0.018012,0.024077,0.68743,-0.033142,0.0,0.666858,-0.0,0.589698,0.512623,0.56015,0.526769,-0.012858,-0.001238,0.687333,-0.084185,0.000665,-0.07049,11.168696,0.007777,-0.019213,0.0,0.0,0.0
97452,0.008624,-0.017726,-0.022634,-0.020173,0.023988,0.686311,-0.034873,0.0,0.665127,-0.0,0.584512,0.515264,0.568969,0.520622,-0.01458,-0.001225,0.685902,-0.089212,0.000676,-0.073392,11.170295,0.007895,-0.016472,0.0,0.0,0.0
97472,0.009061,-0.013573,-0.021915,-0.021813,0.024066,0.685202,-0.036673,0.0,0.663327,-0.0,0.585629,0.516155,0.56249,0.524924,-0.016399,-0.001211,0.684412,-0.09374,0.000688,-0.076354,11.162749,0.007877,-0.014635,0.0,0.0,0.0
97492,0.008263,-0.007847,-0.021334,-0.021813,0.024066,0.685202,-0.036673,0.0,0.663327,-0.0,0.580997,0.50057,0.566123,0.541266,-0.018306,-0.001198,0.682863,-0.097841,0.000699,-0.079279,11.166879,0.007019,-0.010076,0.0,0.0,0.0
97512,0.007838,-0.002361,-0.020624,-0.024491,0.024087,0.684042,-0.038595,0.0,0.661405,-0.0,0.589163,0.501827,0.563011,0.534342,-0.020291,-0.001183,0.681256,-0.101545,0.000709,-0.082157,11.166351,0.007075,-0.00895,0.0,0.0,0.0
97532,0.00608,0.002381,-0.020271,-0.026844,0.02405,0.682858,-0.040851,0.0,0.659149,-0.0,0.599489,0.503995,0.555236,0.531159,-0.022347,-0.001169,0.679596,-0.104865,0.000719,-0.084052,11.193841,0.006819,-0.007392,0.0,0.0,0.0
97552,0.005307,0.006523,-0.019794,-0.029476,0.023908,0.681427,-0.042372,0.0,0.657628,-0.0,0.590206,0.509657,0.562175,0.528212,-0.024466,-0.001155,0.677902,-0.107551,0.000729,-0.085793,11.184229,0.006731,-0.002916,0.0,0.0,0.0
97572,0.006127,0.010314,-0.019323,-0.031588,0.023823,0.680438,-0.043915,0.0,0.656085,-0.0,0.58811,0.508695,0.568531,0.522748,-0.026633,-0.00114,0.676171,-0.109561,0.000739,-0.08788,11.1629,0.006444,-0.002129,0.0,0.0,0.0
97592,0.004008,0.015176,-0.018835,-0.033457,0.023818,0.67942,-0.045452,0.0,0.654548,-0.0,0.594151,0.504229,0.554985,0.53659,-0.028836,-0.001125,0.674398,-0.111094,0.000748,-0.08991,11.185634,0.00579,0.00284,0.0,0.0,0.0
97612,0.001785,0.018451,-0.018211,-0.035745,0.023771,0.67839,-0.045452,0.0,0.654548,-0.0,0.596627,0.504867,0.556819,0.531146,-0.031067,-0.00111,0.672586,-0.112231,0.000757,-0.091759,11.184387,0.00553,0.004549,0.0,0.0,0.0
97632,0.001294,0.0193,-0.017719,-0.035745,0.023771,0.67839,-0.047387,0.0,0.652613,-0.0,0.591526,0.520335,0.561372,0.51703,-0.033318,-0.001095,0.670738,-0.112969,0.000765,-0.093438,11.18377,0.005689,0.004915,0.0,0.0,0.0
97652,0.001274,0.022352,-0.017111,-0.038522,0.023402,0.676919,-0.049339,0.0,0.650661,-0.0,0.585602,0.516364,0.566537,0.527719,-0.035581,-0.00108,0.668861,-0.113298,0.000773,-0.094165,11.247495,0.005665,0.013627,0.0,0.0,0.0
97672,0.001021,0.024546,-0.016255,-0.041706,0.023447,0.675002,-0.051171,0.0,0.648829,-0.0,0.588528,0.49571,0.559857,0.544688,-0.037845,-0.001064,0.666974,-0.11302,0.000781,-0.094825,11.175446,0.005872,0.002576,0.0,0.0,0.0
97692,-0.000937,0.025995,-0.015742,-0.041706,0.023447,0.675002,-0.051171,0.0,0.648829,-0.0,0.596679,0.518956,0.553426,0.52034,-0.0401,-0.001048,0.665071,-0.112162,0.000788,-0.095753,11.176105,0.00448,0.005465,0.0,0.0,0.0
97712,-0.001921,0.028065,-0.01512,-0.043797,0.023226,0.673952,-0.05331,0.0,0.64669,-0.0,0.592267,0.514399,0.559555,0.525492,-0.042335,-0.001033,0.663148,-0.110934,0.000795,-0.096832,11.200383,0.00515,0.010077,0.0,0.0,0.0
97732,-0.002156,0.02843,-0.014261,-0.045631,0.022934,0.67273,-0.055007,0.0,0.644993,-0.0,0.591891,0.516614,0.559257,0.525365,-0.044543,-0.001017,0.661207,-0.109471,0.000802,-0.097064,11.215112,0.005524,0.008033,0.0,0.0,0.0
97752,-0.002765,0.029281,-0.013763,-0.047355,0.022955,0.671421,-0.057042,0.0,0.642958,-0.0,0.595486,0.512213,0.555505,0.526562,-0.046719,-0.001001,0.659264,-0.107629,0.000808,-0.097376,11.181098,0.0049,0.006182,0.0,0.0,0.0
97772,-0.003599,0.027444,-0.013141,-0.049425,0.022907,0.670076,-0.058957,0.0,0.641043,-0.0,0.592363,0.527851,0.557043,0.512622,-0.048856,-0.000984,0.657313,-0.105465,0.000814,-0.097881,11.177952,0.004112,0.005481,0.0,0.0,0.0
97792,-0.003216,0.026349,-0.012415,-0.049425,0.022907,0.670076,-0.058957,0.0,0.641043,-0.0,0.588336,0.528163,0.56033,0.51216,-0.050948,-0.000968,0.655351,-0.103156,0.00082,-0.098638,11.163946,0.004837,0.002991,0.0,0.0,0.0
97812,-0.004306,0.026588,-0.011667,-0.052327,0.022603,0.667614,-0.060698,0.0,0.639302,-0.0,0.589535,0.511583,0.553251,0.534433,-0.052994,-0.000952,0.653371,-0.100858,0.000825,-0.099592,11.159151,0.005144,0.002969,0.0,0.0,0.0
97832,-0.005253,0.023289,-0.010808,-0.053599,0.022525,0.666555,-0.063648,0.0,0.636352,-0.0,0.591362,0.532174,0.553093,0.513509,-0.054994,-0.000935,0.651376,-0.098668,0.000829,-0.099694,11.17636,0.005623,0.002285,0.0,0.0,0.0
97852,-0.003641,0.019881,-0.0101,-0.054645,0.022455,0.665403,-0.065293,0.0,0.634707,-0.0,0.584561,0.546117,0.564874,0.497237,-0.056951,-0.000918,0.649383,-0.0964,0.000834,-0.099654,11.219551,0.004728,0.006717,0.0,0.0,0.0
97872,-0.001905,0.015861,-0.009264,-0.055697,0.022403,0.664297,-0.066835,0.0,0.633165,-0.0,0.574052,0.526863,0.565296,0.522813,-0.058861,-0.000902,0.647386,-0.094034,0.000838,-0.100409,11.146108,0.004988,-0.001875,0.0,0.0,0.0
97892,-0.001402,0.014155,-0.008415,-0.056458,0.022545,0.663188,-0.066835,0.0,0.633165,-0.0,0.585469,0.525923,0.560026,0.516296,-0.060725,-0.000885,0.645371,-0.091862,0.000841,-0.101345,11.143126,0.005255,-0.004234,0.0,0.0,0.0
97912,-0.00151,0.011836,-0.007683,-0.056458,0.022545,0.663188,-0.068377,0.0,0.631623,-0.0,0.589771,0.532352,0.554843,0.510232,-0.062548,-0.000868,0.643337,-0.090021,0.000845,-0.102152,11.142409,0.005569,-0.005704,0.0,0.0,0.0
97932,0.000346,0.005739,-0.00696,-0.057233,0.022471,0.662061,-0.070171,0.0,0.629829,-0.0,0.582451,0.554921,0.563814,0.489648,-0.064336,-0.000851,0.641293,-0.088458,0.000847,-0.102029,11.204939,0.006677,-0.001541,0.0,0.0,0.0
97952,0.002673,0.004281,-0.005988,-0.058197,0.022524,0.660532,-0.072361,0.0,0.627639,-0.0,0.57872,0.528972,0.564256,0.51648,-0.066094,-0.000834,0.639255,-0.086917,0.00085,-0.101663,11.145504,0.006988,-0.008081,0.0,0.0,0.0
97972,0.00256,0.001349,-0.00513,-0.059125,0.022675,0.659377,-0.074244,0.0,0.625755,-0.0,0.585816,0.533381,0.554556,0.513259,-0.06782,-0.000817,0.637224,-0.085315,0.000852,-0.101482,11.132722,0.006946,-0.01118,0.0,0.0,0.0
97992,0.003908,-0.000602,-0.004394,-0.059125,0.022675,0.659377,-0.074244,0.0,0.625755,-0.0,0.579132,0.52759,0.560115,0.519883,-0.069515,-0.0008,0.635193,-0.083778,0.000854,-0.101697,11.121747,0.007481,-0.01463,0.0,0.0,0.0
98012,0.003301,-0.002558,-0.003659,-0.060209,0.022763,0.657698,-0.0759,0.0,0.6241,-0.0,0.584393,0.52801,0.556278,0.516496,-0.07118,-0.000783,0.633156,-0.082484,0.000856,-0.102148,11.109163,0.00836,-0.016323,0.0,0.0,0.0
98032,0.005137,-0.007073,-0.00279,-0.061352,0.022773,0.656114,-0.07776,0.0,0.62224,-0.0,0.572931,0.548711,0.564227,0.500525,-0.072822,-0.000766,0.631114,-0.081521,0.000857,-0.101769,11.128478,0.008451,-0.013648,0.0,0.0,0.0
98052,0.007942,-0.007317,-0.001802,-0.062451,0.022757,0.654224,-0.07997,0.0,0.62003,-0.0,0.57319,0.529791,0.563996,0.522078,-0.074446,-0.000749,0.629083,-0.080664,0.000858,-0.101231,11.144322,0.008931,-0.013984,0.0,0.0,0.0
98072,0.006962,-0.008909,-0.000824,-0.062451,0.022757,0.654224,-0.07997,0.0,0.62003,-0.0,0.58218,0.534158,0.550468,0.522071,-0.076053,-0.000732,0.627061,-0.07983,0.000858,-0.100948,11.144073,0.009009,-0.014931,0.0,0.0,0.0
98092,0.0094,-0.010743,5e-05,-0.063494,0.022953,0.652604,-0.081759,0.0,0.618241,-0.0,0.57527,0.538031,0.565003,0.509778,-0.077644,-0.000714,0.625042,-0.079133,0.000859,-0.101087,11.141718,0.008993,-0.017454,0.0,0.0,0.0
98112,0.011104,-0.011235,0.000917,-0.064669,0.022999,0.650968,-0.083674,0.0,0.616326,-0.0,0.575778,0.541043,0.558135,0.514581,-0.079223,-0.000697,0.623023,-0.078713,0.000859,-0.100498,11.152056,0.009073,-0.014786,0.0,0.0,0.0
98132,0.011952,-0.01295,0.001787,-0.066032,0.023074,0.649283,-0.085689,0.0,0.614311,-0.0,0.570295,0.534443,0.562806,0.522603,-0.080795,-0.00068,0.621018,-0.078387,0.000858,-0.099852,11.152956,0.010005,-0.015879,0.0,0.0,0.0
98152,0.01378,-0.010761,0.00276,-0.067411,0.022959,0.647437,-0.087236,0.0,0.612764,-0.0,0.57593,0.519123,0.566104,0.527724,-0.082361,-0.000663,0.619024,-0.078091,0.000858,-0.099527,11.14822,0.010148,-0.016799,0.0,0.0,0.0
98172,0.014264,-0.011011,0.003497,-0.068604,0.022987,0.646043,-0.088776,0.0,0.611224,-0.0,0.577649,0.530023,0.556705,0.524526,-0.083921,-0.000646,0.617034,-0.077944,0.000857,-0.09954,11.141636,0.010415,-0.017225,0.0,0.0,0.0
98192,0.0167,-0.011023,0.004487,-0.069746,0.022851,0.64463,-0.090307,0.0,0.609693,-0.0,0.563864,0.534868,0.567179,0.525243,-0.08548,-0.000629,0.615043,-0.07806,0.000856,-0.099609,11.162057,0.009848,-0.015552,0.0,0.0,0.0
98212,0.0178,-0.008105,0.005565,-0.070955,0.022762,0.643203,-0.091922,0.0,0.608078,-0.0,0.571814,0.522906,0.561921,0.533968,-0.087044,-0.000612,0.61305,-0.078445,0.000854,-0.099639,11.159085,0.010027,-0.015018,0.0,0.0,0.0
98232,0.01865,-0.008482,0.006426,-0.072589,0.022443,0.641383,-0.09364,0.0,0.60636,-0.0,0.574659,0.534999,0.560229,0.520355,-0.088617,-0.000595,0.611057,-0.079049,0.000853,-0.099627,11.157368,0.009495,-0.014822,0.0,0.0,0.0
98252,0.021339,-0.006793,0.007519,-0.072589,0.022443,0.641383,-0.09364,0.0,0.60636,-0.0,0.567263,0.5259,0.562663,0.534619,-0.090204,-0.000577,0.609065,-0.079821,0.000851,-0.099618,11.152747,0.009291,-0.014786,0.0,0.0,0.0
98272,0.021225,-0.003996,0.008465,-0.073988,0.022375,0.639901,-0.095787,0.0,0.604213,-0.0,0.571859,0.521355,0.559838,0.537716,-0.091807,-0.00056,0.607072,-0.080733,0.000848,-0.099675,11.160186,0.00816,-0.013423,0.0,0.0,0.0
98292,0.022807,-0.004625,0.009574,-0.075973,0.021734,0.637678,-0.097658,0.0,0.602342,-0.0,0.561099,0.537006,0.565401,0.527963,-0.093429,-0.000544,0.605082,-0.081772,0.000846,-0.098916,11.16174,0.008633,-0.012003,0.0,0.0,0.0
98312,0.024775,-0.001352,0.010635,-0.075973,0.021734,0.637678,-0.097658,0.0,0.602342,-0.0,0.565336,0.517926,0.560842,0.544709,-0.095072,-0.000527,0.60311,-0.082692,0.000843,-0.098295,11.134702,0.008743,-0.014106,0.0,0.0,0.0
98332,0.023934,0.00108,0.011705,-0.077987,0.021279,0.635419,-0.099757,0.0,0.600243,-0.0,0.572214,0.524298,0.554939,0.539087,-0.096732,-0.00051,0.601147,-0.083484,0.00084,-0.098009,11.154159,0.006392,-0.01216,0.0,0.0,0.0
98352,0.026377,0.001293,0.013042,-0.079758,0.020278,0.633137,-0.101561,0.0,0.598439,-0.0,0.557177,0.538115,0.564751,0.531154,-0.098407,-0.000493,0.599192,-0.084277,0.000837,-0.096991,11.155204,0.007253,-0.01111,0.0,0.0,0.0
98372,0.026035,0.004576,0.014098,-0.081142,0.019593,0.631167,-0.103584,0.0,0.596416,-0.0,0.573444,0.521582,0.552867,0.543126,-0.100098,-0.000476,0.59726,-0.084886,0.000834,-0.096136,11.161494,0.006012,-0.010661,0.0,0.0,0.0
98392,0.024579,0.005426,0.015312,-0.083067,0.018547,0.628882,-0.105392,0.0,0.594608,-0.0,0.567021,0.526906,0.555246,0.543915,-0.101799,-0.00046,0.595341,-0.085318,0.00083,-0.09562,11.179731,0.002667,-0.010114,0.0,0.0,0.0
98412,0.025073,0.005649,0.01665,-0.084539,0.017342,0.626722,-0.10712,0.0,0.59288,-0.0,0.554751,0.528984,0.565492,0.543371,-0.103508,-0.000443,0.593431,-0.085718,0.000826,-0.095451,11.171953,0.001306,-0.012306,0.0,0.0,0.0
98432,0.022666,0.009074,0.01784,-0.085995,0.01629,0.624543,-0.108738,0.0,0.591262,-0.0,0.575828,0.522841,0.549145,0.545251,-0.105226,-0.000427,0.591522,-0.086198,0.000822,-0.095497,11.186489,-0.001353,-0.010877,0.0,0.0,0.0
98452,0.020708,0.007979,0.019203,-0.08733,0.014982,0.6227,-0.110273,0.0,0.589727,-0.0,0.570817,0.541083,0.548585,0.534077,-0.106954,-0.00041,0.589611,-0.086811,0.000818,-0.095641,11.196029,-0.00421,-0.011358,0.0,0.0,0.0
98472,0.018031,0.00836,0.020432,-0.088329,0.013754,0.620844,-0.111786,0.0,0.588215,-0.0,0.570124,0.53213,0.552333,0.540971,-0.108696,-0.000394,0.587697,-0.087551,0.000813,-0.095793,11.208654,-0.005896,-0.011382,0.0,0.0,0.0
98492,0.013403,0.008765,0.021794,-0.088329,0.013754,0.620844,-0.111786,0.0,0.588215,-0.0,0.579087,0.53373,0.538454,0.543716,-0.110453,-0.000378,0.58578,-0.088382,0.000808,-0.095885,11.207902,-0.008391,-0.011604,0.0,0.0,0.0
98512,0.010946,0.006954,0.023158,-0.089529,0.012035,0.618984,-0.113725,0.0,0.586275,-0.0,0.569824,0.545545,0.542699,0.537677,-0.112227,-0.000361,0.583862,-0.089247,0.000804,-0.095897,11.208403,-0.010112,-0.013169,0.0,0.0,0.0
98532,0.005714,0.007987,0.024639,-0.089529,0.012035,0.618984,-0.116194,0.0,0.583806,-0.0,0.586624,0.537294,0.525227,0.543776,-0.114018,-0.000345,0.581949,-0.090087,0.000798,-0.095055,11.194248,-0.006272,-0.012275,0.0,0.0,0.0
98552,0.002402,0.006317,0.026241,-0.091683,0.009083,0.614795,-0.117744,0.0,0.582256,-0.0,0.571282,0.544704,0.540058,0.537163,-0.115825,-0.00033,0.580054,-0.090648,0.000793,-0.094249,11.179296,-0.010577,-0.014771,0.0,0.0,0.0
98572,-4.4e-05,0.005617,0.027713,-0.092436,0.007543,0.612757,-0.117744,0.0,0.582256,-0.0,0.578834,0.527494,0.525366,0.551007,-0.11764,-0.000314,0.578172,-0.090918,0.000788,-0.094072,11.067606,-0.006724,-0.024276,0.0,0.0,0.0
98592,-0.004696,0.004464,0.029431,-0.093424,0.006312,0.610888,-0.119417,0.0,0.580583,-0.0,0.567778,0.550443,0.536317,0.539524,-0.11946,-0.000298,0.576291,-0.09113,0.000782,-0.094035,11.187949,-0.016319,-0.018862,0.0,0.0,0.0
98612,-0.005712,0.001676,0.031261,-0.094084,0.004833,0.609011,-0.121128,0.0,0.578872,-0.0,0.556247,0.561989,0.548841,0.533145,-0.121285,-0.000282,0.574415,-0.091363,0.000776,-0.093158,11.260723,-0.018106,-0.013877,0.0,0.0,0.0
98632,-0.007698,-0.000361,0.033206,-0.094866,0.003647,0.607011,-0.123049,0.0,0.576951,-0.0,0.565248,0.551646,0.533565,0.548318,-0.123112,-0.000267,0.572559,-0.091372,0.00077,-0.092188,11.243728,-0.018298,-0.016057,0.0,0.0,0.0
98652,-0.008946,-0.001919,0.035028,-0.095762,0.002039,0.604712,-0.124846,0.0,0.575154,-0.0,0.566405,0.549029,0.534647,0.547449,-0.124938,-0.000252,0.570721,-0.091091,0.000764,-0.091444,11.228661,-0.019587,-0.01945,0.0,0.0,0.0
98672,-0.011663,-0.003448,0.036852,-0.096643,0.000581,0.602288,-0.124846,0.0,0.575154,-0.0,0.57095,0.551786,0.528999,0.544053,-0.126757,-0.000236,0.568896,-0.090638,0.000757,-0.091005,11.212844,-0.019451,-0.022642,0.0,0.0,0.0
98692,-0.012788,-0.004637,0.038549,-0.096643,0.000581,0.602288,-0.126846,0.0,0.573153,-0.0,0.558475,0.548118,0.543476,0.54692,-0.128566,-0.000221,0.567078,-0.090144,0.000751,-0.090793,11.217078,-0.021232,-0.024282,0.0,0.0,0.0
98712,-0.01502,-0.006167,0.04036,-0.09741,-0.000964,0.599827,-0.12863,0.0,0.57137,-0.0,0.568337,0.561995,0.532233,0.540504,-0.130365,-0.000206,0.565268,-0.089682,0.000744,-0.089824,11.300687,-0.022109,-0.018025,0.0,0.0,0.0
98732,-0.015307,-0.007857,0.042183,-0.098216,-0.002261,0.597239,-0.130306,0.0,0.569694,-0.0,0.56412,0.546362,0.52996,0.553366,-0.132155,-0.000191,0.563479,-0.089051,0.000737,-0.088957,11.185014,-0.016637,-0.025387,0.0,0.0,0.0
98752,-0.018015,-0.008515,0.044115,-0.098858,-0.003226,0.595245,-0.131847,0.0,0.568153,-0.0,0.565224,0.548716,0.525966,0.55509,-0.13393,-0.000177,0.561704,-0.088244,0.00073,-0.088404,11.202186,-0.018901,-0.02721,0.0,0.0,0.0
98772,-0.017711,-0.010825,0.046056,-0.099526,-0.003998,0.593256,-0.133367,0.0,0.566633,-0.0,0.555067,0.558708,0.540357,0.543412,-0.135688,-0.000162,0.559939,-0.087401,0.000723,-0.088021,11.22524,-0.019748,-0.028143,0.0,0.0,0.0
98792,-0.018378,-0.012746,0.047863,-0.099996,-0.004842,0.591285,-0.134913,0.0,0.565087,-0.0,0.565231,0.561115,0.527359,0.543149,-0.13743,-0.000148,0.558181,-0.086602,0.000716,-0.087693,11.22572,-0.019086,-0.029109,0.0,0.0,0.0
98812,-0.018835,-0.015893,0.049668,-0.100782,-0.00536,0.589328,-0.136451,0.0,0.563549,-0.0,0.558159,0.561612,0.527641,0.549687,-0.139157,-0.000134,0.55643,-0.085865,0.000708,-0.087377,11.225904,-0.017791,-0.029776,0.0,0.0,0.0
98832,-0.018674,-0.018567,0.051474,-0.101299,-0.006047,0.587365,-0.137993,0.0,0.562007,-0.0,0.552518,0.561164,0.535724,0.548021,-0.140869,-0.000119,0.554685,-0.085186,0.000701,-0.087082,11.225147,-0.01712,-0.031372,0.0,0.0,0.0
98852,-0.017796,-0.021627,0.053296,-0.102162,-0.006269,0.585423,-0.139542,0.0,0.560458,-0.0,0.555766,0.567084,0.535628,0.538478,-0.142568,-0.000105,0.552945,-0.084566,0.000693,-0.086802,11.223675,-0.015241,-0.031359,0.0,0.0,0.0
98872,-0.0169,-0.023958,0.054874,-0.102652,-0.006859,0.583489,-0.141082,0.0,0.558918,-0.0,0.561205,0.564317,0.531388,0.539905,-0.144255,-9.2e-05,0.551211,-0.084003,0.000685,-0.086536,11.223485,-0.014508,-0.032623,0.0,0.0,0.0
98892,-0.01533,-0.028265,0.056337,-0.10361,-0.007031,0.581549,-0.142885,0.0,0.557115,-0.0,0.553593,0.575419,0.532666,0.534538,-0.145931,-7.8e-05,0.549482,-0.083498,0.000677,-0.086284,11.221701,-0.011971,-0.032281,0.0,0.0,0.0
98912,-0.014678,-0.030228,0.05793,-0.105011,-0.007278,0.578916,-0.142885,0.0,0.557115,-0.0,0.550283,0.556899,0.534903,0.554948,-0.147597,-6.5e-05,0.547758,-0.083054,0.000669,-0.086039,11.219869,-0.011545,-0.033665,0.0,0.0,0.0
98932,-0.012439,-0.032238,0.059418,-0.106023,-0.007364,0.576971,-0.14497,0.0,0.55503,-0.0,0.550134,0.568417,0.537781,0.539465,-0.149255,-5.1e-05,0.546039,-0.082672,0.000661,-0.085932,11.208792,-0.009454,-0.034007,0.0,0.0,0.0
98952,-0.009443,-0.033423,0.060695,-0.106023,-0.007364,0.576971,-0.146603,0.0,0.553397,-0.0,0.552235,0.57633,0.547686,0.526532,-0.150907,-3.8e-05,0.544325,-0.082374,0.000652,-0.085056,11.302027,-0.008122,-0.024721,0.0,0.0,0.0
98972,-0.008267,-0.034309,0.061809,-0.107525,-0.007265,0.574062,-0.148232,0.0,0.551768,-0.0,0.557691,0.560629,0.536513,0.545775,-0.152551,-2.5e-05,0.54263,-0.081959,0.000644,-0.084311,11.264149,-0.00639,-0.027885,0.0,0.0,0.0
98992,-0.004877,-0.034779,0.062722,-0.109281,-0.007242,0.571901,-0.149969,0.0,0.550031,-0.0,0.543914,0.546389,0.547035,0.555811,-0.154187,-1.2e-05,0.540948,-0.081428,0.000635,-0.083796,11.170061,-0.004649,-0.032939,0.0,0.0,0.0
99012,-0.002773,-0.033501,0.06349,-0.111121,-0.007024,0.569564,-0.151748,0.0,0.548252,-0.0,0.5541,0.549656,0.53955,0.553423,-0.155811,0.0,0.539275,-0.080903,0.000627,-0.083396,11.214069,-0.00284,-0.030668,0.0,0.0,0.0
99032,-0.000566,-0.032838,0.064258,-0.113122,-0.006928,0.567074,-0.153758,0.0,0.546242,-0.0,0.553436,0.5565,0.545465,0.541403,-0.157426,1.3e-05,0.53761,-0.08044,0.000618,-0.083148,11.215126,-0.001723,-0.028276,0.0,0.0,0.0
99052,0.00304,-0.030634,0.064676,-0.113122,-0.006928,0.567074,-0.153758,0.0,0.546242,-0.0,0.544951,0.547159,0.554333,0.55087,-0.159031,2.5e-05,0.535947,-0.080086,0.000609,-0.083067,11.220039,4e-06,-0.026227,0.0,0.0,0.0
99072,0.005003,-0.03021,0.065069,-0.115235,-0.006415,0.564863,-0.155429,0.0,0.544571,-0.0,0.557434,0.556795,0.544762,0.538285,-0.160631,3.7e-05,0.534285,-0.079884,0.0006,-0.083247,11.222371,0.000868,-0.024937,0.0,0.0,0.0
99092,0.008874,-0.027527,0.065232,-0.117567,-0.006437,0.562581,-0.157155,0.0,0.542845,-0.0,0.546531,0.542938,0.554177,0.552209,-0.162229,4.9e-05,0.532623,-0.079881,0.000591,-0.082647,11.202765,0.001142,-0.023915,0.0,0.0,0.0
99112,0.010366,-0.02672,0.065246,-0.120041,-0.006113,0.560315,-0.158879,0.0,0.541121,-0.0,0.552604,0.543114,0.549869,0.550887,-0.163826,6.1e-05,0.530976,-0.079846,0.000582,-0.08192,11.209899,0.003557,-0.021244,0.0,0.0,0.0
99132,0.013022,-0.023876,0.06538,-0.122251,-0.006061,0.558449,-0.160429,0.0,0.539571,-0.0,0.548416,0.538901,0.558799,0.550707,-0.165422,7.2e-05,0.529342,-0.079686,0.000573,-0.0814,11.216046,0.003219,-0.018424,0.0,0.0,0.0
99152,0.015458,-0.020412,0.065254,-0.124426,-0.005995,0.55664,-0.161956,0.0,0.538044,-0.0,0.55753,0.543572,0.55221,0.543954,-0.167014,8.4e-05,0.527716,-0.07949,0.000564,-0.081059,11.220587,0.004421,-0.015553,0.0,0.0,0.0
99172,0.01624,-0.018968,0.064871,-0.126719,-0.005922,0.554866,-0.163542,0.0,0.536458,-0.0,0.559659,0.548616,0.551953,0.53643,-0.168603,9.5e-05,0.526097,-0.079337,0.000554,-0.080781,11.215099,0.00423,-0.013645,0.0,0.0,0.0
99192,0.018551,-0.015618,0.064369,-0.129477,-0.006099,0.552878,-0.165711,0.0,0.534289,-0.0,0.548187,0.527546,0.56065,0.559283,-0.170189,0.000106,0.524484,-0.079252,0.000545,-0.080512,11.208611,0.004134,-0.012172,0.0,0.0,0.0
99212,0.018491,-0.013781,0.063986,-0.129477,-0.006099,0.552878,-0.165711,0.0,0.534289,-0.0,0.561515,0.537784,0.548737,0.547359,-0.171774,0.000117,0.522875,-0.079227,0.000535,-0.080279,11.199869,0.004087,-0.010744,0.0,0.0,0.0
99232,0.020347,-0.009315,0.06334,-0.132266,-0.006111,0.551189,-0.167303,0.0,0.532697,-0.0,0.557708,0.530621,0.557584,0.547384,-0.173359,0.000128,0.52127,-0.079264,0.000526,-0.080385,11.177171,0.002969,-0.010107,0.0,0.0,0.0
99252,0.019556,-0.007329,0.062697,-0.135845,-0.006427,0.548775,-0.16899,0.0,0.53101,-0.0,0.566674,0.534545,0.548468,0.542614,-0.174945,0.000138,0.519665,-0.079433,0.000517,-0.079751,11.166074,0.002817,-0.012135,0.0,0.0,0.0
99272,0.019864,-0.005377,0.061826,-0.138769,-0.006891,0.546918,-0.17068,0.0,0.52932,-0.0,0.559355,0.532965,0.555655,0.544054,-0.176535,0.000148,0.518076,-0.079531,0.000507,-0.078958,11.16109,0.002635,-0.008655,0.0,0.0,0.0
99292,0.01919,-0.003517,0.061077,-0.141613,-0.007297,0.545302,-0.172444,0.0,0.527556,-0.0,0.562534,0.538105,0.552764,0.540468,-0.178125,0.000158,0.516502,-0.07946,0.000497,-0.078353,11.182797,0.001177,-0.00284,0.0,0.0,0.0
99312,0.018747,-0.002031,0.060332,-0.144609,-0.007909,0.543539,-0.174413,0.0,0.525587,-0.0,0.562795,0.541243,0.555166,0.534078,-0.179713,0.000168,0.514938,-0.079302,0.000488,-0.077924,11.177278,-0.000659,-0.000943,0.0,0.0,0.0
99332,0.017582,-0.000156,0.059453,-0.144609,-0.007909,0.543539,-0.174413,0.0,0.525587,-0.0,0.570998,0.533732,0.550466,0.536205,-0.181298,0.000178,0.513382,-0.079141,0.000478,-0.077683,11.15937,-0.001913,-4.3e-05,0.0,0.0,0.0
99352,0.016397,0.001108,0.05847,-0.147821,-0.008851,0.541864,-0.176237,0.0,0.523763,-0.0,0.569158,0.535171,0.549425,0.536367,-0.18288,0.000187,0.511829,-0.079043,0.000468,-0.077716,11.142249,-0.003836,0.000479,0.0,0.0,0.0
99372,0.013518,0.002909,0.057489,-0.150979,-0.009608,0.540247,-0.178166,0.0,0.521834,-0.0,0.571312,0.524846,0.544284,0.548848,-0.184461,0.000197,0.510278,-0.079067,0.000459,-0.076997,11.136716,-0.002793,-0.003486,0.0,0.0,0.0
99392,0.013083,0.00488,0.056614,-0.154265,-0.010712,0.538566,-0.179879,0.0,0.520121,-0.0,0.557381,0.52689,0.560972,0.543552,-0.186042,0.000206,0.508744,-0.079,0.000449,-0.076262,11.125883,-0.006017,-0.000721,0.0,0.0,0.0
99412,0.010827,0.007269,0.055756,-0.156563,-0.011426,0.537353,-0.181424,0.0,0.518576,-0.0,0.574563,0.531699,0.543054,0.537729,-0.18762,0.000215,0.507222,-0.078787,0.000439,-0.07588,11.109709,-0.007876,0.000859,0.0,0.0,0.0
99432,0.009512,0.00841,0.054782,-0.158998,-0.012414,0.536173,-0.182961,0.0,0.517039,-0.0,0.569528,0.534373,0.552226,0.530954,-0.189194,0.000223,0.505706,-0.078561,0.000429,-0.075698,11.10828,-0.010913,0.00365,0.0,0.0,0.0
99452,0.00746,0.009446,0.053936,-0.161158,-0.013339,0.535002,-0.18461,0.0,0.51539,-0.0,0.56411,0.533483,0.549004,0.539764,-0.190764,0.000232,0.504193,-0.078405,0.00042,-0.07556,11.094125,-0.011752,0.002426,0.0,0.0,0.0
99472,0.004199,0.011002,0.052975,-0.163899,-0.014326,0.533647,-0.18642,0.0,0.51358,-0.0,0.572793,0.527502,0.543719,0.540677,-0.192332,0.00024,0.502683,-0.078328,0.00041,-0.075427,11.081375,-0.01366,0.002091,0.0,0.0,0.0
99492,0.003693,0.010528,0.051994,-0.166032,-0.015536,0.532522,-0.188159,0.0,0.511841,-0.0,0.564279,0.53169,0.552746,0.535077,-0.193898,0.000248,0.501175,-0.07831,0.0004,-0.075353,11.06548,-0.014997,0.000189,0.0,0.0,0.0
99512,0.000186,0.012084,0.051038,-0.167937,-0.016408,0.531423,-0.188159,0.0,0.511841,-0.0,0.573952,0.527698,0.541913,0.538669,-0.195464,0.000256,0.499668,-0.078355,0.00039,-0.075429,11.053046,-0.016405,0.000474,0.0,0.0,0.0
99532,-0.001196,0.010776,0.05007,-0.170062,-0.017447,0.530323,-0.190157,0.0,0.509843,-0.0,0.56847,0.536634,0.550655,0.525194,-0.197032,0.000264,0.498158,-0.078491,0.000381,-0.075617,11.035855,-0.018573,-0.001566,0.0,0.0,0.0
99552,-0.002934,0.009841,0.04898,-0.171679,-0.018533,0.529199,-0.191998,0.0,0.508002,-0.0,0.575126,0.546599,0.546965,0.516203,-0.198604,0.000272,0.496648,-0.078729,0.000371,-0.074989,11.092222,-0.018955,0.00329,0.0,0.0,0.0
99572,-0.006647,0.007974,0.048006,-0.173617,-0.019376,0.528091,-0.194012,0.0,0.505988,-0.0,0.572678,0.533048,0.542278,0.534586,-0.200179,0.000279,0.495154,-0.078829,0.000361,-0.07442,11.055211,-0.020049,-0.000367,0.0,0.0,0.0
99592,-0.007089,0.004928,0.046899,-0.173617,-0.019376,0.528091,-0.194012,0.0,0.505988,-0.0,0.560044,0.53706,0.556825,0.527006,-0.201756,0.000286,0.493668,-0.078764,0.000351,-0.074157,11.031816,-0.021216,-0.00482,0.0,0.0,0.0
99612,-0.0088,0.004964,0.045806,-0.177607,-0.021656,0.52531,-0.195893,0.0,0.504107,-0.0,0.578556,0.528956,0.541505,0.528667,-0.20333,0.000293,0.492185,-0.078671,0.000342,-0.074212,11.004704,-0.0212,-0.007782,0.0,0.0,0.0
99632,-0.010987,0.000123,0.044686,-0.177607,-0.021656,0.52531,-0.197667,0.0,0.502333,-0.0,0.580846,0.547069,0.540179,0.509852,-0.204903,0.0003,0.490704,-0.078651,0.000332,-0.073523,11.019426,-0.017639,-0.009856,0.0,0.0,0.0
99652,-0.011038,-0.002202,0.043575,-0.179325,-0.022874,0.523914,-0.199541,0.0,0.500459,-0.0,0.556307,0.549303,0.565481,0.511892,-0.206476,0.000306,0.489239,-0.078509,0.000322,-0.072849,11.068246,-0.024617,-0.002471,0.0,0.0,0.0
99672,-0.013195,-0.006068,0.042571,-0.18144,-0.023703,0.522492,-0.201195,0.0,0.498805,-0.0,0.579536,0.537133,0.536914,0.523333,-0.208044,0.000313,0.487785,-0.078204,0.000313,-0.072451,10.997163,-0.020569,-0.013144,0.0,0.0,0.0
99692,-0.014853,-0.009705,0.041318,-0.182912,-0.02452,0.521407,-0.202736,0.0,0.497264,-0.0,0.570622,0.541426,0.54744,0.517409,-0.209605,0.000319,0.486338,-0.077857,0.000303,-0.07232,10.992324,-0.022594,-0.014865,0.0,0.0,0.0
99712,-0.015896,-0.013232,0.04031,-0.184427,-0.025113,0.52034,-0.204275,0.0,0.495725,-0.0,0.567158,0.546154,0.552763,0.511017,-0.21116,0.000325,0.484892,-0.07757,0.000293,-0.072314,10.998207,-0.022648,-0.013625,0.0,0.0,0.0
99732,-0.017382,-0.014676,0.039188,-0.185735,-0.025704,0.519259,-0.205856,0.0,0.494144,-0.0,0.578768,0.540937,0.544474,0.51194,-0.21271,0.000331,0.483445,-0.077381,0.000284,-0.072318,10.993616,-0.022722,-0.014902,0.0,0.0,0.0
99752,-0.018923,-0.019174,0.037915,-0.185735,-0.025704,0.519259,-0.205856,0.0,0.494144,-0.0,0.581661,0.549544,0.541676,0.501751,-0.214257,0.000336,0.481999,-0.077276,0.000274,-0.072308,10.988801,-0.021898,-0.015762,0.0,0.0,0.0
99772,-0.021419,-0.022678,0.036754,-0.188019,-0.026485,0.517536,-0.207982,0.0,0.492018,-0.0,0.574086,0.545753,0.541257,0.514655,-0.215802,0.000342,0.480553,-0.077231,0.000265,-0.072307,10.983085,-0.021303,-0.017542,0.0,0.0,0.0
99792,-0.022283,-0.02377,0.035878,-0.189644,-0.026818,0.516453,-0.209969,0.0,0.490031,-0.0,0.576904,0.540829,0.541738,0.517539,-0.217346,0.000347,0.479111,-0.077221,0.000255,-0.071505,10.998431,-0.018352,-0.017836,0.0,0.0,0.0
99812,-0.024508,-0.026064,0.03473,-0.19152,-0.027009,0.515111,-0.2118,0.0,0.4882,-0.0,0.5775,0.545724,0.53968,0.513498,-0.21889,0.000352,0.477687,-0.077022,0.000246,-0.070869,10.994747,-0.019379,-0.017412,0.0,0.0,0.0
99832,-0.024888,-0.027656,0.033729,-0.193737,-0.026976,0.513811,-0.213615,0.0,0.486385,-0.0,0.574066,0.536674,0.545839,0.518168,-0.220428,0.000357,0.476271,-0.076652,0.000237,-0.070661,10.969135,-0.018359,-0.019332,0.0,0.0,0.0
99852,-0.026583,-0.02764,0.032727,-0.193737,-0.026976,0.513811,-0.213615,0.0,0.486385,-0.0,0.582087,0.538122,0.538631,0.514812,-0.221958,0.000361,0.474858,-0.076295,0.000227,-0.070707,10.965655,-0.016986,-0.019157,0.0,0.0,0.0
99872,-0.026593,-0.028994,0.031856,-0.19604,-0.026962,0.512406,-0.215475,0.0,0.484525,-0.0,0.573113,0.544987,0.545815,0.509644,-0.223482,0.000366,0.473443,-0.076051,0.000218,-0.07093,10.960191,-0.014969,-0.017505,0.0,0.0,0.0
99892,-0.026193,-0.027791,0.030895,-0.198087,-0.026628,0.511074,-0.217444,0.0,0.482556,-0.0,0.577336,0.532111,0.54018,0.525799,-0.225002,0.00037,0.472026,-0.075951,0.000209,-0.070361,10.97686,-0.013527,-0.017911,0.0,0.0,0.0
99912,-0.027295,-0.028887,0.029893,-0.200659,-0.025962,0.509798,-0.219433,0.0,0.480567,-0.0,0.576743,0.540236,0.538242,0.519507,-0.22652,0.000374,0.470624,-0.075761,0.0002,-0.069789,10.970101,-0.012348,-0.016362,0.0,0.0,0.0
99932,-0.026162,-0.027449,0.029069,-0.203652,-0.025203,0.508305,-0.219433,0.0,0.480567,-0.0,0.567527,0.528384,0.546936,0.531515,-0.228032,0.000378,0.469231,-0.07543,0.000191,-0.069586,10.955823,-0.010058,-0.016676,0.0,0.0,0.0
99952,-0.024207,-0.027976,0.02836,-0.206829,-0.024033,0.506798,-0.222908,0.0,0.477092,-0.0,0.571268,0.546639,0.545842,0.508189,-0.229539,0.000382,0.467838,-0.075105,0.000182,-0.069719,10.940841,-0.006808,-0.014778,0.0,0.0,0.0
99972,-0.021231,-0.025832,0.027322,-0.209151,-0.023073,0.505734,-0.222908,0.0,0.477092,-0.0,0.565551,0.540591,0.551942,0.521369,-0.231039,0.000386,0.466447,-0.074894,0.000173,-0.069112,11.017913,-0.003797,-0.002881,0.0,0.0,0.0
99992,-0.019854,-0.024029,0.026504,-0.211806,-0.02186,0.504675,-0.224424,0.0,0.475576,-0.0,0.575851,0.523444,0.543062,0.52972,-0.232535,0.000389,0.465065,-0.074613,0.000164,-0.069346,10.937354,0.000399,-0.007341,0.0,0.0,0.0
100012,-0.016402,-0.022373,0.02558,-0.211806,-0.02186,0.504675,-0.22596,0.0,0.47404,-0.0,0.570165,0.543745,0.555213,0.50729,-0.234025,0.000392,0.463678,-0.074426,0.000155,-0.069076,10.995976,0.002896,0.000318,0.0,0.0,0.0
100032,-0.01196,-0.019508,0.02455,-0.214686,-0.020286,0.503581,-0.227583,0.0,0.472417,-0.0,0.562435,0.533289,0.556313,0.524287,-0.235513,0.000395,0.462301,-0.07426,0.000146,-0.06858,10.979722,0.00602,0.001494,0.0,0.0,0.0
100052,-0.007271,-0.016151,0.023506,-0.217961,-0.018801,0.502309,-0.229436,0.0,0.470564,-0.0,0.556171,0.50444,0.565116,0.544388,-0.236996,0.000398,0.460932,-0.07399,0.000137,-0.068169,10.920654,0.003355,-0.009011,0.0,0.0,0.0
100072,-0.004285,-0.011916,0.02244,-0.220895,-0.017208,0.501206,-0.231459,0.0,0.468541,-0.0,0.561354,0.510194,0.555104,0.54353,-0.238474,0.000401,0.459571,-0.073655,0.000129,-0.067877,10.913712,0.007967,-0.005514,0.0,0.0,0.0
100092,0.000993,-0.009899,0.021372,-0.2253,-0.015123,0.499493,-0.233121,0.0,0.466879,-0.0,0.55714,0.528529,0.564763,0.519189,-0.239944,0.000403,0.458215,-0.073312,0.00012,-0.067819,10.905584,0.011347,-0.00195,0.0,0.0,0.0
100112,0.004692,-0.006762,0.02028,-0.2253,-0.015123,0.499493,-0.233121,0.0,0.466879,-0.0,0.566518,0.516421,0.556793,0.527839,-0.241408,0.000406,0.456857,-0.073042,0.000112,-0.068084,10.884096,0.014592,-0.001215,0.0,0.0,0.0
100132,0.007748,-0.006788,0.019192,-0.2289,-0.01301,0.498225,-0.234917,0.0,0.465083,-0.0,0.568255,0.537363,0.554899,0.508564,-0.242868,0.000408,0.455493,-0.072939,0.000103,-0.068459,10.906265,0.019384,0.007296,0.0,0.0,0.0
100152,0.013146,-0.00427,0.018219,-0.232477,-0.01112,0.496811,-0.236834,0.0,0.463166,-0.0,0.550969,0.518349,0.574488,0.526644,-0.244327,0.00041,0.454125,-0.07301,9.5e-05,-0.068007,10.92175,0.01437,0.00248,0.0,0.0,0.0
100172,0.015107,-0.00367,0.017241,-0.236346,-0.00908,0.495443,-0.238814,0.0,0.461186,-0.0,0.571286,0.53613,0.54858,0.513835,-0.245787,0.000412,0.452769,-0.072999,8.7e-05,-0.067512,10.911726,0.019427,0.006374,0.0,0.0,0.0
100192,0.019023,-0.002717,0.016139,-0.240164,-0.007284,0.494039,-0.238814,0.0,0.461186,-0.0,0.557134,0.52543,0.564208,0.522849,-0.247246,0.000413,0.45142,-0.072843,7.9e-05,-0.067351,10.904459,0.022637,0.008983,0.0,0.0,0.0
100212,0.022572,-0.001637,0.015276,-0.240164,-0.007284,0.494039,-0.240657,0.0,0.459343,-0.0,0.561416,0.530752,0.562052,0.514093,-0.248702,0.000415,0.450073,-0.072674,7.1e-05,-0.067519,10.893073,0.025957,0.012153,0.0,0.0,0.0
100232,0.025028,0.000189,0.014155,-0.244094,-0.005054,0.492589,-0.242578,0.0,0.457422,-0.0,0.569861,0.53959,0.560488,0.503555,-0.250155,0.000416,0.448725,-0.072603,6.3e-05,-0.066954,10.966779,0.027682,0.023106,0.0,0.0,0.0
100252,0.028949,0.002251,0.013149,-0.247954,-0.003467,0.491182,-0.244253,0.0,0.455747,-0.0,0.552716,0.506201,0.569045,0.539761,-0.251606,0.000417,0.44739,-0.072437,5.5e-05,-0.066398,10.891885,0.02145,0.007774,0.0,0.0,0.0
100272,0.029812,0.003846,0.012148,-0.250988,-0.001964,0.490065,-0.245797,0.0,0.454203,-0.0,0.57101,0.527469,0.550354,0.519013,-0.253052,0.000418,0.446065,-0.072131,4.7e-05,-0.066205,10.88707,0.026046,0.011948,0.0,0.0,0.0
100292,0.032641,0.008241,0.010971,-0.254129,-0.00075,0.488923,-0.247335,0.0,0.452665,-0.0,0.560693,0.512566,0.567499,0.526991,-0.254493,0.000419,0.444741,-0.071828,3.9e-05,-0.066201,10.891674,0.027094,0.016186,0.0,0.0,0.0
100312,0.034592,0.008737,0.009855,-0.257137,0.000246,0.487748,-0.24888,0.0,0.45112,-0.0,0.565585,0.525997,0.561141,0.514831,-0.255927,0.00042,0.443416,-0.071607,3.2e-05,-0.066248,10.887066,0.027672,0.016723,0.0,0.0,0.0
100332,0.035579,0.011928,0.008575,-0.261402,0.001872,0.485922,-0.250971,0.0,0.449029,-0.0,0.56665,0.507374,0.566784,0.525702,-0.257358,0.000421,0.442091,-0.071477,2.4e-05,-0.066312,10.884668,0.026987,0.017745,0.0,0.0,0.0
100352,0.036555,0.013774,0.007437,-0.264425,0.002696,0.484726,-0.250971,0.0,0.449029,-0.0,0.569324,0.520454,0.561869,0.515054,-0.258787,0.000421,0.440764,-0.071423,1.7e-05,-0.066393,10.882308,0.025576,0.018075,0.0,0.0,0.0
100372,0.036671,0.014406,0.006204,-0.264425,0.002696,0.484726,-0.252672,0.0,0.447328,-0.0,0.574799,0.528943,0.553311,0.509679,-0.260216,0.000421,0.439434,-0.071437,9e-06,-0.066769,10.88383,0.027225,0.021499,0.0,0.0,0.0
100392,0.035689,0.016142,0.004838,-0.268137,0.003732,0.483085,-0.254704,0.0,0.445296,-0.0,0.572703,0.521396,0.563097,0.514549,-0.261645,0.000421,0.4381,-0.071575,2e-06,-0.066404,10.945466,0.025201,0.028044,0.0,0.0,0.0
100412,0.036412,0.015548,0.003866,-0.271384,0.004296,0.481606,-0.256428,0.0,0.443572,-0.0,0.562288,0.509247,0.570455,0.523692,-0.263078,0.000421,0.436775,-0.071633,-5e-06,-0.065949,10.874063,0.020096,0.013177,0.0,0.0,0.0
100432,0.034941,0.017401,0.002747,-0.273992,0.004869,0.480214,-0.258393,0.0,0.441607,-0.0,0.575837,0.517495,0.551069,0.521283,-0.26451,0.000421,0.435458,-0.071537,-1.2e-05,-0.065878,10.86923,0.020468,0.015725,0.0,0.0,0.0
100452,0.033346,0.017415,0.002028,-0.277187,0.005165,0.478583,-0.260144,0.0,0.439856,-0.0,0.574654,0.528353,0.550238,0.512616,-0.26594,0.000421,0.434139,-0.071429,-1.9e-05,-0.066024,10.870396,0.018809,0.017215,0.0,0.0,0.0
100472,0.031018,0.015113,0.00123,-0.277187,0.005165,0.478583,-0.260144,0.0,0.439856,-0.0,0.575466,0.535604,0.549936,0.503024,-0.267368,0.00042,0.432816,-0.071406,-2.6e-05,-0.066424,10.855859,0.017564,0.014739,0.0,0.0,0.0
100492,0.028082,0.015129,0.000276,-0.279654,0.005151,0.476924,-0.261993,0.0,0.438007,-0.0,0.575517,0.524408,0.548462,0.516885,-0.268797,0.00042,0.431484,-0.071534,-3.2e-05,-0.066963,10.862334,0.015418,0.016263,0.0,0.0,0.0
100512,0.024536,0.011965,-0.000391,-0.282883,0.005116,0.474996,-0.26404,0.0,0.43596,-0.0,0.578371,0.530058,0.54845,0.508546,-0.270229,0.000419,0.430145,-0.071826,-3.9e-05,-0.066678,10.870951,0.012454,0.011387,0.0,0.0,0.0
100532,0.022213,0.009654,-0.001084,-0.285311,0.005115,0.473149,-0.265619,0.0,0.434381,-0.0,0.572224,0.534082,0.554148,0.504993,-0.271668,0.000418,0.428814,-0.072028,-4.6e-05,-0.066365,10.869475,0.010027,0.010166,0.0,0.0,0.0
100552,0.018668,0.009538,-0.00192,-0.287244,0.004953,0.471644,-0.26716,0.0,0.43284,-0.0,0.588287,0.52692,0.540862,0.508305,-0.273109,0.000417,0.427487,-0.072079,-5.2e-05,-0.066444,10.869937,0.008001,0.011671,0.0,0.0,0.0
100572,0.014277,0.004656,-0.002475,-0.289182,0.004611,0.470074,-0.26868,0.0,0.43132,-0.0,0.586002,0.551284,0.537992,0.488943,-0.274551,0.000416,0.426157,-0.072126,-5.8e-05,-0.06664,10.885704,0.006533,0.011547,0.0,0.0,0.0
100592,0.01208,0.003315,-0.003194,-0.290851,0.004346,0.468452,-0.270355,0.0,0.429645,-0.0,0.576194,0.534123,0.552634,0.503489,-0.275994,0.000415,0.424823,-0.072232,-6.5e-05,-0.066836,10.88568,0.004669,0.009561,0.0,0.0,0.0
100612,0.007812,0.000625,-0.003787,-0.293013,0.003939,0.466537,-0.270355,0.0,0.429645,-0.0,0.586248,0.539808,0.536937,0.502902,-0.27744,0.000414,0.423484,-0.072387,-7.1e-05,-0.067015,10.888196,0.002405,0.00813,0.0,0.0,0.0
100632,0.00562,-0.001819,-0.00439,-0.294577,0.003541,0.464834,-0.272393,0.0,0.427607,-0.0,0.571594,0.529545,0.552376,0.513922,-0.278889,0.000412,0.422142,-0.072572,-7.7e-05,-0.067253,10.885813,0.000902,0.005219,0.0,0.0,0.0
100652,0.003911,-0.001822,-0.004758,-0.294577,0.003541,0.464834,-0.274303,0.0,0.425697,-0.0,0.577463,0.541508,0.549811,0.50441,-0.280342,0.000411,0.4208,-0.072781,-8.2e-05,-0.066704,10.964871,-0.00092,0.012232,0.0,0.0,0.0
100672,0.000862,-0.002928,-0.005371,-0.296905,0.002892,0.462173,-0.276062,0.0,0.423938,-0.0,0.584077,0.532464,0.543563,0.510502,-0.281798,0.000409,0.41947,-0.072798,-8.8e-05,-0.06627,10.93568,-0.00236,0.006678,0.0,0.0,0.0
100692,-0.000357,-0.003175,-0.005861,-0.298894,0.002456,0.460069,-0.277624,0.0,0.422376,-0.0,0.579554,0.511761,0.547306,0.524692,-0.283253,0.000407,0.418145,-0.072624,-9.4e-05,-0.066213,10.846131,-0.001823,-0.003946,0.0,0.0,0.0
100712,-0.002062,-0.004157,-0.006231,-0.30081,0.002101,0.457708,-0.279302,0.0,0.420698,-0.0,0.580372,0.534643,0.548744,0.502654,-0.284704,0.000405,0.41682,-0.072424,-9.9e-05,-0.066373,10.88919,-0.004183,-0.001888,0.0,0.0,0.0
100732,-0.00353,-0.003186,-0.006721,-0.302645,0.001686,0.455269,-0.279302,0.0,0.420698,-0.0,0.572504,0.526783,0.548822,0.521581,-0.286151,0.000403,0.415491,-0.072289,-0.000105,-0.066586,10.908714,-0.005192,-0.000784,0.0,0.0,0.0
100752,-0.004009,-0.005751,-0.006849,-0.302645,0.001686,0.455269,-0.281412,0.0,0.418588,-0.0,0.571265,0.541357,0.547483,0.511149,-0.287596,0.000401,0.414158,-0.072232,-0.00011,-0.06687,10.930124,-0.005672,-0.000665,0.0,0.0,0.0
100772,-0.004863,-0.005511,-0.007217,-0.304279,0.001215,0.452749,-0.283113,0.0,0.416887,-0.0,0.57269,0.537854,0.555482,0.512591,-0.289041,0.000399,0.412822,-0.072244,-0.000115,-0.066368,11.020009,-0.006339,0.006339,0.0,0.0,0.0
100792,-0.005714,-0.006491,-0.007344,-0.306288,0.000942,0.450139,-0.285216,0.0,0.414784,-0.0,0.578346,0.524421,0.546661,0.51932,-0.290485,0.000397,0.411498,-0.072101,-0.000121,-0.066018,10.904533,-0.005111,-0.004872,0.0,0.0,0.0
100812,-0.004735,-0.006733,-0.00783,-0.307996,0.000385,0.447373,-0.286747,0.0,0.413253,-0.0,0.573943,0.532776,0.554718,0.509392,-0.291925,0.000394,0.410179,-0.071807,-0.000126,-0.065944,10.931478,-0.006151,-0.005169,0.0,0.0,0.0
100832,-0.004975,-0.007466,-0.007954,-0.309318,0.000318,0.445203,-0.28829,0.0,0.41171,-0.0,0.569606,0.527766,0.555039,0.519906,-0.293359,0.000392,0.408858,-0.071498,-0.00013,-0.066239,10.939973,-0.006164,-0.005499,0.0,0.0,0.0
100852,-0.004488,-0.007099,-0.008196,-0.310502,0.000102,0.443019,-0.289805,0.0,0.410195,-0.0,0.570521,0.533052,0.557676,0.513838,-0.294787,0.000389,0.407531,-0.071297,-0.000135,-0.066613,10.977014,-0.007409,-0.004578,0.0,0.0,0.0
100872,-0.004238,-0.008075,-0.008685,-0.311907,-0.000134,0.440794,-0.291403,0.0,0.408597,-0.0,0.574266,0.529619,0.554383,0.51717,-0.296212,0.000386,0.406196,-0.071233,-0.00014,-0.066962,10.981611,-0.006338,-0.005522,0.0,0.0,0.0
100892,-0.003617,-0.010027,-0.009053,-0.313385,-0.000289,0.438124,-0.291403,0.0,0.408597,-0.0,0.567766,0.533649,0.55984,0.514841,-0.297637,0.000383,0.404854,-0.071271,-0.000144,-0.067276,10.987167,-0.006123,-0.006734,0.0,0.0,0.0
100912,-0.002283,-0.007824,-0.00941,-0.314538,-0.000512,0.435878,-0.293602,0.0,0.406398,-0.0,0.571555,0.520503,0.563177,0.520574,-0.299063,0.00038,0.403506,-0.071376,-0.000149,-0.067596,10.989669,-0.006049,-0.007108,0.0,0.0,0.0
100932,-0.002518,-0.00929,-0.009901,-0.315775,-0.000716,0.433629,-0.295207,0.0,0.404793,-0.0,0.578356,0.543583,0.556328,0.504042,-0.300492,0.000377,0.402156,-0.071523,-0.000153,-0.067111,11.076611,-0.005659,-0.000209,0.0,0.0,0.0
100952,-0.001782,-0.009409,-0.010386,-0.316907,-0.000757,0.431342,-0.296992,0.0,0.403008,-0.0,0.570839,0.525826,0.562004,0.521633,-0.301923,0.000374,0.400817,-0.071489,-0.000157,-0.066822,11.038818,-0.005648,-0.005422,0.0,0.0,0.0
100972,-0.00166,-0.009043,-0.010751,-0.318253,-0.00092,0.429054,-0.298825,0.0,0.401175,-0.0,0.573319,0.526754,0.560549,0.518979,-0.303351,0.000371,0.399481,-0.071296,-0.000162,-0.066765,11.032806,-0.005574,-0.006721,0.0,0.0,0.0
100992,-0.000921,-0.009893,-0.011237,-0.319383,-0.001054,0.426767,-0.298963,0.0,0.4,-0.0,0.56959,0.526987,0.561067,0.521408,-0.304775,0.000368,0.398145,-0.071076,-0.000166,-0.066893,11.022173,-0.004828,-0.008987,0.0,0.0,0.0
101012,0.000783,-0.008785,-0.011473,-0.319383,-0.001054,0.426767,-0.298963,0.0,0.4,-0.0,0.567828,0.519391,0.561991,0.528986,-0.306195,0.000365,0.396805,-0.070903,-0.000169,-0.067232,11.01163,-0.004758,-0.010099,0.0,0.0,0.0
101032,0.000906,-0.008784,-0.011717,-0.322069,-0.001258,0.421585,-0.295136,0.0,0.4,-0.0,0.571409,0.537429,0.558815,0.511753,-0.307613,0.000361,0.395459,-0.07083,-0.000173,-0.067415,11.030442,-0.004592,-0.00464,0.0,0.0,0.0
101052,0.001765,-0.009267,-0.012079,-0.322069,-0.001258,0.421585,-0.291392,0.0,0.4,-0.0,0.57577,0.53621,0.558703,0.505379,-0.309028,0.000358,0.394114,-0.070651,-0.000177,-0.066752,10.999888,-0.003891,-0.004449,0.0,0.0,0.0
101072,0.002873,-0.010481,-0.012438,-0.323546,-0.001326,0.418682,-0.287329,0.0,0.4,-0.0,0.57537,0.579315,0.564629,0.466152,-0.310438,0.000354,0.392789,-0.070028,-0.000181,-0.065193,11.189978,-0.004208,0.023739,0.0,0.0,0.0
101092,0.004091,-0.010107,-0.01231,-0.324781,-0.001344,0.416104,-0.28426,0.0,0.4,-0.0,0.559732,0.554682,0.569019,0.503733,-0.311827,0.00035,0.391501,-0.068181,-0.000184,-0.062902,11.130552,-0.0036,0.034831,0.0,0.0,0.0
101112,0.003459,-0.006693,-0.012197,-0.326105,-0.001286,0.413811,-0.281156,0.0,0.4,-0.0,0.574449,0.561057,0.558318,0.498418,-0.313165,0.000347,0.390263,-0.064299,-0.000187,-0.06002,11.202925,-0.003407,0.051706,0.0,0.0,0.0
101132,0.004032,-0.000586,-0.012207,-0.327321,-0.00132,0.411461,-0.278084,0.0,0.4,-0.0,0.572937,0.544408,0.565131,0.515143,-0.314407,0.000343,0.389087,-0.057874,-0.000191,-0.056672,11.249191,-0.003044,0.0603,0.0,0.0,0.0
101152,0.004685,0.011993,-0.012603,-0.328594,-0.001539,0.40907,-0.274734,0.0,0.4,-0.0,0.578105,0.515387,0.563129,0.543039,-0.315501,0.000339,0.387981,-0.048809,-0.000194,-0.05297,11.276632,-0.002431,0.068029,0.0,0.0,0.0
101172,0.005568,0.025917,-0.01314,-0.33001,-0.001526,0.406659,-0.274734,0.0,0.4,-0.0,0.579493,0.492752,0.571063,0.55608,-0.316394,0.000335,0.386951,-0.037253,-0.000197,-0.049008,11.304915,-0.002332,0.073957,0.0,0.0,0.0
101192,0.006431,0.04082,-0.01394,-0.330798,-0.001806,0.403662,-0.27113,0.0,0.4,-0.0,0.581835,0.487359,0.574535,0.556989,-0.317039,0.000331,0.386001,-0.023448,-0.0002,-0.04487,11.333613,-0.003052,0.080474,0.0,0.0,0.0
101212,0.008349,0.060621,-0.014693,-0.331515,-0.001942,0.401159,-0.267594,0.0,0.4,-0.0,0.576755,0.433566,0.579508,0.600503,-0.317392,0.000327,0.385136,-0.007695,-0.000203,-0.040626,11.365797,-0.002648,0.072263,0.0,0.0,0.0
101232,0.008527,0.080905,-0.015793,-0.332186,-0.002113,0.398849,-0.263892,0.0,0.4,-0.0,0.588095,0.463251,0.571628,0.57992,-0.31742,0.000323,0.384355,0.009275,-0.000205,-0.036337,11.422023,-0.003585,0.078648,0.0,0.0,0.0
101252,0.010228,0.094849,-0.016325,-0.332302,-0.002605,0.39657,-0.260594,0.0,0.4,-0.0,0.572767,0.470535,0.585527,0.578214,-0.317102,0.000319,0.383661,0.027091,-0.000208,-0.032052,11.453412,-0.003736,0.083509,0.0,0.0,0.0
101272,0.012177,0.107577,-0.01689,-0.331968,-0.002863,0.394365,-0.257075,0.0,0.4,-0.0,0.576328,0.467584,0.583323,0.580984,-0.316422,0.000315,0.383051,0.045702,-0.000211,-0.027815,11.476349,-0.004018,0.087266,0.0,0.0,0.0
101292,0.010758,0.116857,-0.016885,-0.33127,-0.00325,0.392236,-0.253613,0.0,0.4,-0.0,0.581884,0.486567,0.570042,0.57511,-0.315364,0.000311,0.382527,0.064986,-0.000213,-0.02366,11.496112,-0.005637,0.087266,0.0,0.0,0.0
101312,0.013391,0.121773,-0.01721,-0.33127,-0.00325,0.392236,-0.253613,0.0,0.4,-0.0,0.57503,0.498893,0.580459,0.562232,-0.313917,0.000306,0.382084,0.084744,-0.000215,-0.019617,11.509666,-0.005962,0.087266,0.0,0.0,0.0
101332,0.012653,0.12348,-0.017058,-0.330321,-0.003751,0.390064,-0.249936,0.0,0.4,-0.0,0.575236,0.519171,0.574781,0.550151,-0.312072,0.000302,0.381721,0.104739,-0.000218,-0.015707,11.515095,-0.006795,0.085665,0.0,0.0,0.0
101352,0.01437,0.123856,-0.016921,-0.327423,-0.004785,0.387685,-0.246347,0.0,0.4,-0.0,0.575483,0.49727,0.571135,0.566574,-0.309828,0.000298,0.381435,0.124689,-0.00022,-0.011949,11.432943,-0.005827,0.072434,0.0,0.0,0.0
101372,0.013085,0.118097,-0.016665,-0.323875,-0.005652,0.38545,-0.243126,0.0,0.4,-0.0,0.573025,0.54031,0.572079,0.529328,-0.307188,0.000293,0.381224,0.14384,-0.000222,-0.008356,11.450713,-0.007214,0.073673,0.0,0.0,0.0
101392,0.01389,0.111742,-0.016284,-0.320082,-0.006748,0.383753,-0.240034,0.0,0.4,-0.0,0.570858,0.542016,0.573217,0.530317,-0.304175,0.000289,0.381083,0.161852,-0.000223,-0.004937,11.469438,-0.010649,0.066176,0.0,0.0,0.0
101412,0.013265,0.100731,-0.015782,-0.315973,-0.007782,0.382177,-0.23697,0.0,0.4,-0.0,0.564514,0.551543,0.574395,0.526662,-0.300809,0.000284,0.381008,0.178763,-0.000225,-0.001699,11.477043,-0.012751,0.055943,0.0,0.0,0.0
101432,0.011884,0.090212,-0.015631,-0.311081,-0.008934,0.380657,-0.233574,0.0,0.4,-0.0,0.582023,0.559833,0.565065,0.506476,-0.297114,0.00028,0.380998,0.194532,-0.000227,0.001354,11.456664,-0.015485,0.046225,0.0,0.0,0.0
101452,0.010044,0.07639,-0.015332,-0.311081,-0.008934,0.380657,-0.233574,0.0,0.4,-0.0,0.573544,0.565661,0.568918,0.503539,-0.293112,0.000275,0.381047,0.209039,-0.000228,0.004219,11.436597,-0.017481,0.037027,0.0,0.0,0.0
101472,0.005652,0.061335,-0.014859,-0.297303,-0.012516,0.377299,-0.226369,0.0,0.4,-0.0,0.585512,0.576639,0.558972,0.485675,-0.288831,0.000271,0.381151,0.222165,-0.00023,0.006898,11.415136,-0.019663,0.027751,0.0,0.0,0.0
101492,0.003942,0.044225,-0.014999,-0.297303,-0.012516,0.377299,-0.226369,0.0,0.4,-0.0,0.580415,0.589059,0.561606,0.465374,-0.284298,0.000266,0.381308,0.233837,-0.000231,0.009391,11.336216,-0.01654,0.02676,0.0,0.0,0.0
101512,2e-05,0.030399,-0.014781,-0.289555,-0.014271,0.376125,-0.223014,0.0,0.4,-0.0,0.577868,0.552488,0.571755,0.507929,-0.279544,0.000261,0.381514,0.243597,-0.000232,0.011702,11.41314,-0.029451,-0.002204,0.0,0.0,0.0
101532,-0.006688,0.012645,-0.015218,-0.282394,-0.016087,0.375084,-0.219636,0.0,0.4,-0.0,0.602671,0.601841,0.545492,0.437782,-0.274609,0.000257,0.381764,0.251838,-0.000233,0.013835,11.339897,-0.024628,0.002548,0.0,0.0,0.0
101552,-0.008882,-0.003973,-0.015033,-0.274773,-0.018037,0.374294,-0.216275,0.0,0.4,-0.0,0.580991,0.58305,0.562358,0.471185,-0.26952,0.000252,0.382056,0.258461,-0.000234,0.015795,11.332546,-0.028333,-0.012451,0.0,0.0,0.0
101572,-0.014634,-0.017571,-0.015757,-0.266779,-0.019637,0.373736,-0.212711,0.0,0.4,-0.0,0.597184,0.575956,0.549904,0.473612,-0.264311,0.000247,0.382386,0.263299,-0.000235,0.017589,11.325447,-0.031688,-0.022039,0.0,0.0,0.0
101592,-0.019655,-0.030554,-0.016179,-0.258935,-0.021268,0.373403,-0.209014,0.0,0.4,-0.0,0.593483,0.570431,0.561022,0.470728,-0.259019,0.000243,0.38275,0.266534,-0.000236,0.019222,11.313139,-0.035082,-0.031927,0.0,0.0,0.0
101612,-0.025252,-0.045989,-0.017081,-0.258935,-0.021268,0.373403,-0.209014,0.0,0.4,-0.0,0.600467,0.582853,0.553558,0.45293,-0.253672,0.000238,0.383146,0.268351,-0.000237,0.020703,11.298947,-0.036444,-0.040775,0.0,0.0,0.0
101632,-0.029912,-0.056776,-0.017605,-0.24132,-0.024472,0.373474,-0.202185,0.0,0.4,-0.0,0.59307,0.572958,0.558882,0.467523,-0.248299,0.000233,0.38357,0.268941,-0.000238,0.022037,11.281162,-0.037793,-0.046854,0.0,0.0,0.0
101652,-0.037232,-0.067834,-0.018763,-0.234772,-0.025269,0.373805,-0.202185,0.0,0.4,-0.0,0.610839,0.583838,0.537311,0.452769,-0.242922,0.000228,0.38402,0.268474,-0.000238,0.023233,11.25601,-0.031991,-0.034098,0.0,0.0,0.0
101672,-0.040592,-0.075791,-0.018562,-0.227686,-0.026537,0.374368,-0.199109,0.0,0.4,-0.0,0.588139,0.529511,0.562153,0.515551,-0.237564,0.000224,0.384493,0.266632,-0.000239,0.024299,11.237487,-0.041155,-0.070214,0.0,0.0,0.0
101692,-0.045905,-0.080362,-0.019244,-0.227686,-0.026537,0.374368,-0.196006,0.0,0.4,-0.0,0.609908,0.539363,0.535378,0.505762,-0.232252,0.000219,0.384986,0.263851,-0.000239,0.02524,11.212372,-0.038366,-0.081534,0.0,0.0,0.0
101712,-0.049751,-0.086863,-0.01945,-0.220652,-0.027352,0.375055,-0.192925,0.0,0.4,-0.0,0.594904,0.560315,0.544245,0.488391,-0.227001,0.000214,0.385498,0.260106,-0.000239,0.026066,11.182409,-0.038248,-0.080063,0.0,0.0,0.0
101732,-0.05228,-0.090539,-0.019537,-0.21174,-0.027775,0.376042,-0.189199,0.0,0.4,-0.0,0.599444,0.601686,0.53459,0.439906,-0.221833,0.000209,0.386024,0.255297,-0.00024,0.026784,11.18465,-0.032813,-0.048523,0.0,0.0,0.0
101752,-0.054873,-0.093336,-0.018513,-0.205924,-0.027431,0.376735,-0.185778,0.0,0.4,-0.0,0.586419,0.560554,0.535401,0.505835,-0.216769,0.000205,0.386565,0.24965,-0.00024,0.0274,11.156012,-0.032002,-0.0534,0.0,0.0,0.0
101772,-0.055869,-0.091875,-0.018393,-0.199362,-0.026977,0.377675,-0.18181,0.0,0.4,-0.0,0.597019,0.531546,0.541236,0.515252,-0.211822,0.0002,0.387117,0.243395,-0.00024,0.027921,11.120812,-0.029754,-0.062819,0.0,0.0,0.0
101792,-0.056637,-0.089547,-0.017988,-0.199362,-0.026977,0.377675,-0.18181,0.0,0.4,-0.0,0.591846,0.541712,0.536101,0.514121,-0.207003,0.000195,0.387679,0.236823,-0.00024,0.028355,11.0984,-0.024717,-0.058659,0.0,0.0,0.0
101812,-0.053273,-0.085001,-0.017465,-0.193232,-0.026178,0.378504,-0.178009,0.0,0.4,-0.0,0.573818,0.528073,0.549324,0.532031,-0.202316,0.00019,0.388249,0.230181,-0.00024,0.028707,11.066735,-0.020225,-0.056327,0.0,0.0,0.0
101832,-0.05074,-0.082048,-0.017154,-0.187733,-0.024386,0.379304,-0.174617,0.0,0.4,-0.0,0.574922,0.544674,0.561802,0.500911,-0.197762,0.000185,0.388825,0.223687,-0.000239,0.028984,11.079236,-0.018586,-0.04345,0.0,0.0,0.0
101852,-0.044804,-0.07603,-0.017013,-0.182257,-0.022992,0.38015,-0.170762,0.0,0.4,-0.0,0.568394,0.520212,0.568284,0.524208,-0.193337,0.000181,0.389406,0.217021,-0.000239,0.029191,11.051849,-0.013872,-0.043139,0.0,0.0,0.0
101872,-0.041326,-0.070382,-0.01639,-0.177028,-0.020663,0.38109,-0.167185,0.0,0.4,-0.0,0.576392,0.524508,0.547873,0.531059,-0.189048,0.000176,0.389991,0.210186,-0.000239,0.029333,11.02977,-0.005809,-0.042073,0.0,0.0,0.0
101892,-0.034329,-0.060805,-0.015845,-0.177028,-0.020663,0.38109,-0.167185,0.0,0.4,-0.0,0.564131,0.504455,0.561608,0.546824,-0.184895,0.000171,0.390579,0.20349,-0.000239,0.029417,11.004918,-0.000984,-0.039249,0.0,0.0,0.0
101912,-0.029632,-0.052711,-0.015574,-0.167753,-0.015236,0.383151,-0.160117,0.0,0.4,-0.0,0.56817,0.49511,0.55779,0.552975,-0.180873,0.000166,0.391167,0.197219,-0.000238,0.029446,10.981851,0.006957,-0.037218,0.0,0.0,0.0
101932,-0.021401,-0.044228,-0.015139,-0.164276,-0.012965,0.384056,-0.160117,0.0,0.4,-0.0,0.543741,0.505316,0.580645,0.546367,-0.176972,0.000161,0.391756,0.191546,-0.000238,0.029425,11.000843,0.003423,-0.028581,0.0,0.0,0.0
101952,-0.014004,-0.038312,-0.014685,-0.161328,-0.009973,0.384982,-0.157044,0.0,0.4,-0.0,0.566303,0.506122,0.546707,0.552082,-0.173182,0.000157,0.392344,0.186112,-0.000237,0.029358,10.931772,0.023909,-0.03115,0.0,0.0,0.0
101972,-0.005521,-0.030803,-0.014133,-0.161328,-0.009973,0.384982,-0.154001,0.0,0.4,-0.0,0.553102,0.48219,0.569366,0.562599,-0.169497,0.000152,0.392931,0.181319,-0.000236,0.02925,10.922139,0.027056,-0.038801,0.0,0.0,0.0
101992,0.002852,-0.023908,-0.013888,-0.159048,-0.006155,0.385911,-0.150905,0.0,0.4,-0.0,0.557846,0.504695,0.569066,0.537738,-0.165903,0.000147,0.393515,0.177073,-0.000236,0.029103,10.914639,0.032809,-0.029655,0.0,0.0,0.0
102012,0.011251,-0.021411,-0.01319,-0.155168,-0.002911,0.387125,-0.146819,0.0,0.4,-0.0,0.530766,0.54741,0.58295,0.510552,-0.162392,0.000143,0.394096,0.173158,-0.000235,0.028922,10.948007,0.024727,-0.009773,0.0,0.0,0.0
102032,0.020618,-0.017448,-0.012394,-0.152101,-4.2e-05,0.388087,-0.143288,0.0,0.4,-0.0,0.537935,0.530334,0.572214,0.532136,-0.158955,0.000138,0.394673,0.169662,-0.000234,0.028709,10.937557,0.034663,-0.003239,0.0,0.0,0.0
102052,0.02816,-0.013625,-0.01177,-0.152101,-4.2e-05,0.388087,-0.143288,0.0,0.4,-0.0,0.551919,0.524328,0.566421,0.528227,-0.155585,0.000133,0.395245,0.166683,-0.000233,0.028467,10.917474,0.040388,-0.000572,0.0,0.0,0.0
102072,0.034718,-0.008221,-0.01145,-0.148651,0.004683,0.389389,-0.139181,0.0,0.4,-0.0,0.55127,0.509426,0.56983,0.539095,-0.15227,0.000129,0.395812,0.164424,-0.000232,0.028199,10.911854,0.043562,0.002693,0.0,0.0,0.0
102092,0.040666,-0.002342,-0.010811,-0.145104,0.008238,0.390567,-0.135842,0.0,0.4,-0.0,0.533498,0.510024,0.583166,0.545,-0.148993,0.000124,0.396374,0.162988,-0.000231,0.027907,10.947823,0.03395,0.00335,0.0,0.0,0.0
102112,0.046987,0.002932,-0.010559,-0.141966,0.011278,0.391564,-0.132004,0.0,0.4,-0.0,0.558031,0.518436,0.563098,0.531708,-0.145742,0.000119,0.39693,0.161906,-0.00023,0.027593,10.924129,0.046579,0.006713,0.0,0.0,0.0
102132,0.050746,0.00843,-0.010215,-0.138716,0.014269,0.392535,-0.128421,0.0,0.4,-0.0,0.558274,0.506028,0.556739,0.548474,-0.14251,0.000115,0.397479,0.161112,-0.000229,0.02726,10.909123,0.051959,0.005734,0.0,0.0,0.0
102152,0.053893,0.014894,-0.009671,-0.135089,0.01708,0.393527,-0.124524,0.0,0.4,-0.0,0.561149,0.499119,0.560457,0.547613,-0.139291,0.00011,0.398022,0.160802,-0.000227,0.02691,10.905023,0.05429,0.008859,0.0,0.0,0.0
102172,0.056566,0.019156,-0.00908,-0.131889,0.019444,0.394412,-0.124524,0.0,0.4,-0.0,0.557202,0.512768,0.556982,0.542587,-0.136074,0.000106,0.398557,0.161124,-0.000226,0.026544,10.902795,0.056159,0.009836,0.0,0.0,0.0
102192,0.060468,0.02244,-0.008362,-0.131889,0.019444,0.394412,-0.120482,0.0,0.4,-0.0,0.548188,0.51372,0.562779,0.544686,-0.132845,0.000101,0.399085,0.162154,-0.000225,0.026163,10.900374,0.057086,0.010376,0.0,0.0,0.0
102212,0.062059,0.025943,-0.007147,-0.128687,0.022027,0.395294,-0.117397,0.0,0.4,-0.0,0.556838,0.493938,0.553915,0.562789,-0.12959,9.7e-05,0.399606,0.163905,-0.000223,0.025769,10.901692,0.056109,-0.004078,0.0,0.0,0.0
102232,0.063287,0.026895,-0.006339,-0.12586,0.023438,0.39592,-0.114321,0.0,0.4,-0.0,0.547222,0.551825,0.563959,0.509156,-0.126297,9.2e-05,0.400118,0.165857,-0.000222,0.025364,10.93892,0.04534,0.0153,0.0,0.0,0.0
102252,0.065388,0.026117,-0.004757,-0.122784,0.024649,0.396487,-0.111282,0.0,0.4,-0.0,0.541607,0.53361,0.557561,0.540408,-0.122965,8.8e-05,0.400622,0.167865,-0.00022,0.024948,10.933235,0.047854,0.013191,0.0,0.0,0.0
102272,0.063692,0.026925,-0.003419,-0.119599,0.025693,0.396987,-0.108204,0.0,0.4,-0.0,0.556603,0.534393,0.545266,0.537087,-0.119592,8.3e-05,0.401118,0.170027,-0.000219,0.024523,10.935058,0.045022,0.013086,0.0,0.0,0.0
102292,0.062001,0.026276,-0.002157,-0.11654,0.026369,0.397389,-0.108204,0.0,0.4,-0.0,0.560803,0.54356,0.538992,0.530071,-0.116174,7.9e-05,0.401605,0.17234,-0.000217,0.02409,10.938614,0.042014,0.011805,0.0,0.0,0.0
102312,0.059328,0.02405,-0.00108,-0.112037,0.026803,0.397737,-0.102545,0.0,0.4,-0.0,0.557026,0.542732,0.543778,0.530419,-0.112709,7.5e-05,0.402084,0.174766,-0.000215,0.023649,10.94302,0.038999,0.010489,0.0,0.0,0.0
