time_ms,roll,pitch,yaw,reference_roll,reference_pitch,reference_yaw,reference_throttle,throttle_1,throttle_2,throttle_3,throttle_4,roll_predicted,pitch_predicted,yaw_predicted,roll_rate_predicted,pitch_rate_predicted,yaw_rate_predicted,value1,value2,value3,value4,value5,value6
685088,0.005914,-0.025744,-0.74872,0.0,-0.0,-0.0,3.0,0.3261,0.330219,0.3261,0.32191,,,,,,,0.004692,-0.023692,-0.737723,-0.021138,2.3e-05,-0.000947
685108,0.005845,-0.025903,-0.748721,0.0,-0.0,-0.0,3.0,0.3261,0.330812,0.3261,0.321294,,,,,,,0.004737,-0.023692,-0.737742,-0.040687,7e-06,-0.000946
685128,0.0058,-0.025789,-0.748721,0.0,-0.0,-0.0,3.0,0.3261,0.330109,0.3261,0.322023,,,,,,,0.004647,-0.023692,-0.737761,-0.033714,1.8e-05,-0.000944
685148,0.006028,-0.0257,-0.748719,0.0,-0.0,-0.0,3.0,0.3261,0.332684,0.3261,0.319331,,,,,,,0.004732,-0.023691,-0.73778,-0.007924,2.7e-05,-0.000942
685168,0.006026,-0.025701,-0.748636,0.0,-0.0,-0.0,3.0,0.3261,0.33359,0.3261,0.318369,,,,,,,0.004865,-0.023691,-0.737799,-0.030082,2.7e-05,-0.000931
685188,0.006229,-0.025883,-0.748636,0.0,-0.0,-0.0,3.0,0.3261,0.332307,0.3261,0.319729,,,,,,,0.004767,-0.023691,-0.737817,0.020843,9e-06,-0.00093
685208,0.006231,-0.025882,-0.748719,0.0,-0.0,-0.0,3.0,0.3261,0.331753,0.3261,0.320312,,,,,,,0.004774,-0.02369,-0.737836,0.01966,9e-06,-0.000936
685228,0.006003,-0.025972,-0.748721,0.0,-0.0,-0.0,3.0,0.3261,0.331795,0.3261,0.320267,,,,,,,0.004767,-0.02369,-0.737855,-0.017974,-0.0,-0.000934
685248,0.006048,-0.026085,-0.748721,0.0,-0.0,-0.0,3.0,0.3261,0.330975,0.3261,0.321124,,,,,,,0.004615,-0.02369,-0.737873,0.015366,-1.2e-05,-0.000932
685268,0.005934,-0.02613,-0.748722,0.0,-0.0,-0.0,3.0,0.3261,0.330096,0.3261,0.322037,,,,,,,0.004518,-0.02369,-0.737892,0.011936,-1.6e-05,-0.000931
685288,0.005845,-0.025903,-0.748721,0.0,-0.0,-0.0,3.0,0.3261,0.331816,0.3261,0.320245,,,,,,,0.004572,-0.02369,-0.737911,-0.011838,7e-06,-0.000929
685308,0.0058,-0.025789,-0.748721,0.0,-0.0,-0.0,3.0,0.3261,0.331928,0.3261,0.320127,,,,,,,0.004568,-0.02369,-0.737929,-0.018878,1.8e-05,-0.000927
685328,0.006028,-0.0257,-0.748719,0.0,-0.0,-0.0,3.0,0.3261,0.331688,0.3261,0.320379,,,,,,,0.004579,-0.02369,-0.737948,0.017914,2.7e-05,-0.000925
685348,0.006028,-0.0257,-0.748719,0.0,-0.0,-0.0,3.0,0.3261,0.331224,0.3261,0.320864,,,,,,,0.004648,-0.023689,-0.737966,0.005307,2.7e-05,-0.000923
685368,0.005914,-0.025744,-0.74872,0.0,-0.0,-0.0,3.0,0.3261,0.332729,0.3261,0.319283,,,,,,,0.004777,-0.023689,-0.737985,-0.035174,2.2e-05,-0.000921
685388,0.005891,-0.026015,-0.748805,0.0,-0.0,-0.0,3.0,0.3261,0.33339,0.3261,0.318582,,,,,,,0.004722,-0.023689,-0.738003,-0.02859,-5e-06,-0.000928
685408,0.005937,-0.02613,-0.748927,0.0,-0.0,-0.0,3.0,0.3261,0.331733,0.3261,0.320332,,,,,,,0.004552,-0.023689,-0.738022,0.007131,-1.6e-05,-0.000938
685428,0.005778,-0.026061,-0.748928,0.0,-0.0,-0.0,3.0,0.3261,0.330643,0.3261,0.32147,,,,,,,0.004294,-0.023689,-0.73804,0.023649,-9e-06,-0.000936
685448,0.005733,-0.025946,-0.748805,0.0,-0.0,-0.0,3.0,0.3261,0.332034,0.3261,0.320016,,,,,,,0.004292,-0.023688,-0.738059,0.017075,2e-06,-0.000922
685468,0.005599,-0.025605,-0.748805,0.0,-0.0,-0.0,3.0,0.3261,0.330991,0.3261,0.321108,,,,,,,0.004198,-0.023688,-0.738077,0.010149,3.6e-05,-0.00092
685488,0.005599,-0.025605,-0.748805,0.0,-0.0,-0.0,3.0,0.3261,0.33177,0.3261,0.320294,,,,,,,0.004252,-0.023688,-0.738096,0.000676,3.6e-05,-0.000919
685508,0.005599,-0.025605,-0.748805,0.0,-0.0,-0.0,3.0,0.3261,0.329346,0.3261,0.32281,,,,,,,0.004186,-0.023687,-0.738114,0.01018,3.6e-05,-0.000917
685528,0.005441,-0.025537,-0.748805,0.0,-0.0,-0.0,3.0,0.3261,0.330552,0.3261,0.321564,,,,,,,0.004142,-0.023687,-0.738133,-0.008486,4.3e-05,-0.000915
685548,0.005419,-0.025809,-0.749012,0.0,-0.0,-0.0,3.0,0.3261,0.332556,0.3261,0.319466,,,,,,,0.004289,-0.023687,-0.738151,-0.036985,1.6e-05,-0.000934
685568,0.005463,-0.025922,-0.749012,0.0,-0.0,-0.0,3.0,0.3261,0.333027,0.3261,0.318968,,,,,,,0.004162,-0.023686,-0.738169,-0.006774,4e-06,-0.000932
685588,0.005304,-0.025854,-0.748929,0.0,-0.0,-0.0,3.0,0.3261,0.333143,0.3261,0.318845,,,,,,,0.004061,-0.023686,-0.738188,-0.016411,1.1e-05,-0.000922
685608,0.005304,-0.025854,-0.748929,0.0,-0.0,-0.0,3.0,0.3261,0.333333,0.3261,0.318643,,,,,,,0.003785,-0.023685,-0.738206,0.03197,1.1e-05,-0.00092
685628,0.005144,-0.025784,-0.748808,0.0,-0.0,-0.0,3.0,0.3261,0.331493,0.3261,0.320584,,,,,,,0.003572,-0.023685,-0.738224,0.04021,1.8e-05,-0.000906
685648,0.004714,-0.025691,-0.74881,0.0,-0.0,-0.0,3.0,0.3261,0.328108,0.3261,0.324076,,,,,,,0.00324,-0.023684,-0.738243,0.021192,2.7e-05,-0.000904
685668,0.004284,-0.025597,-0.748811,0.0,-0.0,-0.0,3.0,0.3261,0.328748,0.3261,0.323423,,,,,,,0.003112,-0.023684,-0.738261,-0.030197,3.7e-05,-0.000903
685688,0.004127,-0.02553,-0.748934,0.0,-0.0,-0.0,3.0,0.3261,0.330007,0.3261,0.322129,,,,,,,0.003001,-0.023683,-0.738279,-0.038009,4.3e-05,-0.000913
685708,0.003787,-0.025663,-0.749019,0.0,-0.0,-0.0,3.0,0.3261,0.328174,0.3261,0.324009,,,,,,,0.002704,-0.023683,-0.738298,-0.046841,3e-05,-0.00092
685728,0.003787,-0.025663,-0.749019,0.0,-0.0,-0.0,3.0,0.3261,0.331372,0.3261,0.320711,,,,,,,0.00257,-0.023682,-0.738316,-0.022486,3e-05,-0.000918
685748,0.003357,-0.02557,-0.74902,0.0,-0.0,-0.0,3.0,0.3261,0.33217,0.3261,0.319873,,,,,,,0.002401,-0.023682,-0.738334,-0.066042,3.9e-05,-0.000916
685768,0.003288,-0.025728,-0.749021,0.0,-0.0,-0.0,3.0,0.3261,0.333793,0.3261,0.318152,,,,,,,0.002127,-0.023681,-0.738353,-0.029082,2.3e-05,-0.000915
685788,0.003175,-0.025773,-0.749022,0.0,-0.0,-0.0,3.0,0.3261,0.331502,0.3261,0.320574,,,,,,,0.0017,-0.02368,-0.738371,0.0242,1.9e-05,-0.000913
685808,0.003085,-0.025545,-0.749021,0.0,-0.0,-0.0,3.0,0.3261,0.329724,0.3261,0.322421,,,,,,,0.001468,-0.023679,-0.738389,0.047092,4.1e-05,-0.000911
685828,0.002858,-0.025635,-0.749023,0.0,-0.0,-0.0,3.0,0.3261,0.328677,0.3261,0.323495,,,,,,,0.001371,-0.023679,-0.738407,0.023931,3.2e-05,-0.000909
685848,0.0027,-0.025566,-0.749023,0.0,-0.0,-0.0,3.0,0.3261,0.328927,0.3261,0.32324,,,,,,,0.001303,-0.023678,-0.738425,0.008411,3.9e-05,-0.000907
685868,0.002745,-0.025679,-0.749023,0.0,-0.0,-0.0,3.0,0.3261,0.330133,0.3261,0.321999,,,,,,,0.001381,-0.023677,-0.738444,0.002611,2.8e-05,-0.000906
685888,0.002814,-0.025521,-0.749022,0.0,-0.0,-0.0,3.0,0.3261,0.330744,0.3261,0.321365,,,,,,,0.001503,-0.023677,-0.738462,-0.0065,4.4e-05,-0.000904
685908,0.002858,-0.025635,-0.749023,0.0,-0.0,-0.0,3.0,0.3261,0.332572,0.3261,0.319449,,,,,,,0.001631,-0.023676,-0.73848,-0.019662,3.2e-05,-0.000902
685928,0.002927,-0.025476,-0.749022,0.0,-0.0,-0.0,3.0,0.3261,0.334244,0.3261,0.31767,,,,,,,0.001756,-0.023675,-0.738498,-0.027927,4.8e-05,-0.0009
685948,0.002858,-0.025635,-0.749023,0.0,-0.0,-0.0,3.0,0.3261,0.333038,0.3261,0.318956,,,,,,,0.001651,-0.023675,-0.738516,-0.022245,3.2e-05,-0.000898
685968,0.002858,-0.025635,-0.749023,0.0,-0.0,-0.0,3.0,0.3261,0.330806,0.3261,0.3213,,,,,,,0.001458,-0.023674,-0.738534,0.009594,3.2e-05,-0.000897
685988,0.002746,-0.025679,-0.749106,0.0,-0.0,-0.0,3.0,0.3261,0.330228,0.3261,0.321901,,,,,,,0.001298,-0.023673,-0.738552,0.017642,2.7e-05,-0.000903
686008,0.002791,-0.025792,-0.749107,0.0,-0.0,-0.0,3.0,0.3261,0.331588,0.3261,0.320484,,,,,,,0.001413,-0.023673,-0.73857,0.005735,1.6e-05,-0.000901
686028,0.002677,-0.025837,-0.749107,0.0,-0.0,-0.0,3.0,0.3261,0.331679,0.3261,0.320388,,,,,,,0.001402,-0.023672,-0.738588,-0.011531,1.1e-05,-0.0009
686048,0.002746,-0.025679,-0.749106,0.0,-0.0,-0.0,3.0,0.3261,0.33264,0.3261,0.319377,,,,,,,0.001455,-0.023672,-0.738606,-0.008215,2.7e-05,-0.000898
686068,0.002815,-0.02552,-0.749105,0.0,-0.0,-0.0,3.0,0.3261,0.331944,0.3261,0.320111,,,,,,,0.001507,-0.023671,-0.738623,-0.005666,4.3e-05,-0.000896
686088,0.002815,-0.02552,-0.749105,0.0,-0.0,-0.0,3.0,0.3261,0.330192,0.3261,0.321937,,,,,,,0.001427,-0.023671,-0.738641,0.006861,4.3e-05,-0.000894
686108,0.002815,-0.02552,-0.749105,0.0,-0.0,-0.0,3.0,0.3261,0.331209,0.3261,0.32088,,,,,,,0.001473,-0.02367,-0.738659,-0.000812,4.3e-05,-0.000892
686128,0.002701,-0.025565,-0.749106,0.0,-0.0,-0.0,3.0,0.3261,0.331409,0.3261,0.320671,,,,,,,0.001461,-0.02367,-0.738677,-0.017776,3.8e-05,-0.000891
686148,0.002634,-0.025724,-0.749312,0.0,-0.0,-0.0,3.0,0.3261,0.332209,0.3261,0.319832,,,,,,,0.001436,-0.023669,-0.738695,-0.0243,2.2e-05,-0.000909
686168,0.00261,-0.025996,-0.749313,0.0,-0.0,-0.0,3.0,0.3261,0.330391,0.3261,0.321731,,,,,,,0.001178,-0.023668,-0.738713,0.01507,-5e-06,-0.000908
686188,0.00252,-0.025767,-0.749191,0.0,-0.0,-0.0,3.0,0.3261,0.331307,0.3261,0.320778,,,,,,,0.001086,-0.023668,-0.738731,0.015821,1.8e-05,-0.000894
686208,0.002476,-0.025654,-0.74919,0.0,-0.0,-0.0,3.0,0.3261,0.331183,0.3261,0.320908,,,,,,,0.001042,-0.023667,-0.738749,0.015684,2.9e-05,-0.000892
686228,0.002342,-0.025313,-0.749189,0.0,-0.0,-0.0,3.0,0.3261,0.330595,0.3261,0.32152,,,,,,,0.000986,-0.023666,-0.738767,0.002411,6.3e-05,-0.00089
686248,0.002183,-0.025244,-0.749189,0.0,-0.0,-0.0,3.0,0.3261,0.328346,0.3261,0.323833,,,,,,,0.000807,-0.023665,-0.738784,0.004186,7e-05,-0.000888
686268,0.002025,-0.025175,-0.74919,0.0,-0.0,-0.0,3.0,0.3261,0.329322,0.3261,0.322835,,,,,,,0.000688,-0.023664,-0.738802,-0.002171,7.7e-05,-0.000886
686288,0.001843,-0.025378,-0.749191,0.0,-0.0,-0.0,3.0,0.3261,0.330069,0.3261,0.322065,,,,,,,0.000669,-0.023663,-0.73882,-0.030221,5.6e-05,-0.000885
686308,0.001661,-0.025582,-0.749314,0.0,-0.0,-0.0,3.0,0.3261,0.331872,0.3261,0.320186,,,,,,,0.000646,-0.023662,-0.738838,-0.056463,3.6e-05,-0.000895
686328,0.00175,-0.025809,-0.749315,0.0,-0.0,-0.0,3.0,0.3261,0.332719,0.3261,0.319294,,,,,,,0.000501,-0.023662,-0.738855,-0.015068,1.3e-05,-0.000894
686348,0.001705,-0.025696,-0.749315,0.0,-0.0,-0.0,3.0,0.3261,0.332665,0.3261,0.319351,,,,,,,0.0004,-0.023661,-0.738873,-0.005048,2.4e-05,-0.000892
686368,0.001705,-0.025694,-0.749192,0.0,-0.0,-0.0,3.0,0.3261,0.330672,0.3261,0.32144,,,,,,,0.000105,-0.02366,-0.738891,0.044477,2.5e-05,-0.000878
686388,0.001615,-0.025467,-0.749192,0.0,-0.0,-0.0,3.0,0.3261,0.329539,0.3261,0.322611,,,,,,,-4e-05,-0.023659,-0.738908,0.053371,4.7e-05,-0.000876
686408,0.001299,-0.025329,-0.749192,0.0,-0.0,-0.0,3.0,0.3261,0.328226,0.3261,0.323955,,,,,,,-0.000185,-0.023658,-0.738926,0.023253,6.1e-05,-0.000874
686428,0.000959,-0.025465,-0.749315,0.0,-0.0,-0.0,3.0,0.3261,0.329041,0.3261,0.323123,,,,,,,-0.000213,-0.023657,-0.738944,-0.030106,4.7e-05,-0.000885
686448,0.000914,-0.025351,-0.749315,0.0,-0.0,-0.0,3.0,0.3261,0.330301,0.3261,0.321825,,,,,,,-0.000172,-0.023657,-0.738961,-0.044461,5.9e-05,-0.000883
686468,0.001005,-0.025578,-0.749399,0.0,-0.0,-0.0,3.0,0.3261,0.329695,0.3261,0.32245,,,,,,,-0.00026,-0.023656,-0.738979,-0.014754,3.6e-05,-0.00089
686488,0.000959,-0.025465,-0.749315,0.0,-0.0,-0.0,3.0,0.3261,0.331097,0.3261,0.320997,,,,,,,-0.000265,-0.023655,-0.738997,-0.021038,4.7e-05,-0.00088
686508,0.000934,-0.025736,-0.749316,0.0,-0.0,-0.0,3.0,0.3261,0.333265,0.3261,0.318715,,,,,,,-0.000192,-0.023654,-0.739014,-0.036218,2e-05,-0.000878
686528,0.001162,-0.025647,-0.749316,0.0,-0.0,-0.0,3.0,0.3261,0.333299,0.3261,0.318679,,,,,,,-0.000273,-0.023654,-0.739031,0.017594,2.9e-05,-0.000876
686548,0.001161,-0.025646,-0.749193,0.0,-0.0,-0.0,3.0,0.3261,0.331942,0.3261,0.320112,,,,,,,-0.000288,-0.023653,-0.739049,0.018961,2.9e-05,-0.000862
686568,0.001275,-0.025602,-0.749315,0.0,-0.0,-0.0,3.0,0.3261,0.331637,0.3261,0.320433,,,,,,,-0.000281,-0.023652,-0.739066,0.037155,3.3e-05,-0.000873
686588,0.00123,-0.025489,-0.749315,0.0,-0.0,-0.0,3.0,0.3261,0.331027,0.3261,0.32107,,,,,,,-6.7e-05,-0.023651,-0.739084,-0.007973,4.4e-05,-0.000871
686608,0.001232,-0.025488,-0.749398,0.0,-0.0,-0.0,3.0,0.3261,0.330211,0.3261,0.321918,,,,,,,-0.000105,-0.023651,-0.739101,-0.001477,4.4e-05,-0.000877
686628,0.00139,-0.025557,-0.749398,0.0,-0.0,-0.0,3.0,0.3261,0.33008,0.3261,0.322053,,,,,,,-8.7e-05,-0.02365,-0.739119,0.022147,3.7e-05,-0.000876
686648,0.00139,-0.025557,-0.749398,0.0,-0.0,-0.0,3.0,0.3261,0.331277,0.3261,0.320809,,,,,,,6.6e-05,-0.023649,-0.739136,-0.00359,3.7e-05,-0.000874
686668,0.001232,-0.025488,-0.749398,0.0,-0.0,-0.0,3.0,0.3261,0.3325,0.3261,0.319525,,,,,,,0.000145,-0.023648,-0.739154,-0.043234,4.4e-05,-0.000872
686688,0.001232,-0.025488,-0.749398,0.0,-0.0,-0.0,3.0,0.3261,0.331732,0.3261,0.320333,,,,,,,-1.2e-05,-0.023647,-0.739171,-0.016279,4.4e-05,-0.00087
686708,0.001346,-0.025444,-0.749398,0.0,-0.0,-0.0,3.0,0.3261,0.332643,0.3261,0.319374,,,,,,,-1.1e-05,-0.023646,-0.739189,0.003268,4.8e-05,-0.000869
686728,0.001392,-0.025557,-0.749481,0.0,-0.0,-0.0,3.0,0.3261,0.332407,0.3261,0.319623,,,,,,,2.5e-05,-0.023645,-0.739206,0.004985,3.7e-05,-0.000875
686748,0.001347,-0.025443,-0.749481,0.0,-0.0,-0.0,3.0,0.3261,0.330986,0.3261,0.321113,,,,,,,-5.5e-05,-0.023645,-0.739224,0.009883,4.8e-05,-0.000873
686768,0.001278,-0.025601,-0.749481,0.0,-0.0,-0.0,3.0,0.3261,0.3295,0.3261,0.322652,,,,,,,-0.000197,-0.023644,-0.739241,0.021726,3.2e-05,-0.000872
686788,0.001233,-0.025488,-0.749481,0.0,-0.0,-0.0,3.0,0.3261,0.332233,0.3261,0.319807,,,,,,,-5.7e-05,-0.023643,-0.739259,-0.008305,4.3e-05,-0.00087
686808,0.001278,-0.025601,-0.749481,0.0,-0.0,-0.0,3.0,0.3261,0.331823,0.3261,0.320238,,,,,,,-5e-06,-0.023642,-0.739276,-0.009823,3.2e-05,-0.000868
686828,0.001302,-0.025329,-0.74948,0.0,-0.0,-0.0,3.0,0.3261,0.331469,0.3261,0.320609,,,,,,,-6e-06,-0.023641,-0.739294,-0.005681,5.9e-05,-0.000866
686848,0.001304,-0.02533,-0.749686,0.0,-0.0,-0.0,3.0,0.3261,0.330268,0.3261,0.321859,,,,,,,-3.9e-05,-0.02364,-0.739311,-0.000822,5.9e-05,-0.000885
686868,0.001304,-0.02533,-0.749686,0.0,-0.0,-0.0,3.0,0.3261,0.332657,0.3261,0.319359,,,,,,,9.9e-05,-0.02364,-0.739329,-0.023328,5.9e-05,-0.000883
686888,0.001235,-0.025488,-0.749686,0.0,-0.0,-0.0,3.0,0.3261,0.333481,0.3261,0.318485,,,,,,,0.000106,-0.023639,-0.739347,-0.035085,4.3e-05,-0.000882
686908,0.00144,-0.02567,-0.74977,0.0,-0.0,-0.0,3.0,0.3261,0.331983,0.3261,0.320069,,,,,,,-8.3e-05,-0.023638,-0.739364,0.031655,2.5e-05,-0.000888
686928,0.001484,-0.025784,-0.74977,0.0,-0.0,-0.0,3.0,0.3261,0.331497,0.3261,0.320579,,,,,,,-9.7e-05,-0.023637,-0.739382,0.040913,1.3e-05,-0.000887
686948,0.001326,-0.025715,-0.74977,0.0,-0.0,-0.0,3.0,0.3261,0.33166,0.3261,0.320409,,,,,,,-4.6e-05,-0.023636,-0.7394,0.005372,2e-05,-0.000885
686968,0.001306,-0.025329,-0.749769,0.0,-0.0,-0.0,3.0,0.3261,0.331106,0.3261,0.320988,,,,,,,-0.000111,-0.023635,-0.739417,0.013412,5.9e-05,-0.000883
686988,0.001375,-0.025171,-0.749768,0.0,-0.0,-0.0,3.0,0.3261,0.330437,0.3261,0.321684,,,,,,,-8.7e-05,-0.023634,-0.739435,0.020212,7.4e-05,-0.000881
687008,0.001216,-0.025102,-0.749768,0.0,-0.0,-0.0,3.0,0.3261,0.32875,0.3261,0.323421,,,,,,,-0.000153,-0.023633,-0.739453,0.002768,8.1e-05,-0.000879
687028,0.001261,-0.025216,-0.749768,0.0,-0.0,-0.0,3.0,0.3261,0.330249,0.3261,0.321878,,,,,,,-6.3e-05,-0.023632,-0.73947,-0.004662,7e-05,-0.000878
687048,0.001149,-0.02526,-0.749852,0.0,-0.0,-0.0,3.0,0.3261,0.331123,0.3261,0.320971,,,,,,,-4.2e-05,-0.023631,-0.739488,-0.026587,6.5e-05,-0.000884
687068,0.001125,-0.025533,-0.749975,0.0,-0.0,-0.0,3.0,0.3261,0.333429,0.3261,0.318541,,,,,,,3.6e-05,-0.02363,-0.739505,-0.04254,3.8e-05,-0.000895
687088,0.001238,-0.025487,-0.749853,0.0,-0.0,-0.0,3.0,0.3261,0.334457,0.3261,0.317443,,,,,,,-2.5e-05,-0.023629,-0.739523,-0.011757,4.2e-05,-0.000881
687108,0.001397,-0.025556,-0.749853,0.0,-0.0,-0.0,3.0,0.3261,0.333058,0.3261,0.318935,,,,,,,-0.00011,-0.023627,-0.739541,0.029474,3.5e-05,-0.000879
687128,0.001465,-0.025398,-0.749852,0.0,-0.0,-0.0,3.0,0.3261,0.331693,0.3261,0.320374,,,,,,,-0.000143,-0.023626,-0.739558,0.046298,5.1e-05,-0.000877
687148,0.001421,-0.025286,-0.749974,0.0,-0.0,-0.0,3.0,0.3261,0.32983,0.3261,0.322312,,,,,,,-0.000189,-0.023625,-0.739576,0.04552,6.2e-05,-0.000887
687168,0.001331,-0.025057,-0.749851,0.0,-0.0,-0.0,3.0,0.3261,0.330075,0.3261,0.322059,,,,,,,-0.000104,-0.023624,-0.739594,0.015082,8.5e-05,-0.000873
687188,0.001218,-0.025103,-0.749973,0.0,-0.0,-0.0,3.0,0.3261,0.330217,0.3261,0.321912,,,,,,,-2.1e-05,-0.023623,-0.739612,-0.018467,8e-05,-0.000884
687208,0.001264,-0.025216,-0.750057,0.0,-0.0,-0.0,3.0,0.3261,0.330537,0.3261,0.32158,,,,,,,-2e-06,-0.023622,-0.739629,-0.014166,6.8e-05,-0.00089
687228,0.001264,-0.025216,-0.750057,0.0,-0.0,-0.0,3.0,0.3261,0.332135,0.3261,0.31991,,,,,,,0.000144,-0.02362,-0.739647,-0.038621,6.8e-05,-0.000889
687248,0.001264,-0.025216,-0.750057,0.0,-0.0,-0.0,3.0,0.3261,0.334231,0.3261,0.317685,,,,,,,0.000173,-0.023619,-0.739665,-0.041853,6.8e-05,-0.000887
687268,0.001309,-0.02533,-0.750057,0.0,-0.0,-0.0,3.0,0.3261,0.333939,0.3261,0.317997,,,,,,,8.8e-05,-0.023617,-0.739682,-0.019309,5.7e-05,-0.000885
687288,0.001423,-0.025285,-0.750057,0.0,-0.0,-0.0,3.0,0.3261,0.331646,0.3261,0.320423,,,,,,,-8.5e-05,-0.023616,-0.7397,0.028691,6.1e-05,-0.000883
687308,0.001536,-0.02524,-0.750056,0.0,-0.0,-0.0,3.0,0.3261,0.330174,0.3261,0.321956,,,,,,,-0.000214,-0.023615,-0.739718,0.069236,6.5e-05,-0.000882
687328,0.001309,-0.02533,-0.750057,0.0,-0.0,-0.0,3.0,0.3261,0.330319,0.3261,0.321806,,,,,,,-6.1e-05,-0.023613,-0.739735,0.004066,5.6e-05,-0.00088
687348,0.001197,-0.025374,-0.750141,0.0,-0.0,-0.0,3.0,0.3261,0.331032,0.3261,0.321065,,,,,,,-3.2e-05,-0.023612,-0.739753,-0.019587,5.2e-05,-0.000886
687368,0.001197,-0.025374,-0.750141,0.0,-0.0,-0.0,3.0,0.3261,0.331251,0.3261,0.320836,,,,,,,-3.2e-05,-0.023611,-0.739771,-0.0197,5.2e-05,-0.000885
687388,0.001311,-0.025329,-0.75014,0.0,-0.0,-0.0,3.0,0.3261,0.331202,0.3261,0.320888,,,,,,,-7e-06,-0.02361,-0.739789,-0.005123,5.6e-05,-0.000883
687408,0.001311,-0.025329,-0.75014,0.0,-0.0,-0.0,3.0,0.3261,0.332459,0.3261,0.319568,,,,,,,1.4e-05,-0.023609,-0.739806,-0.007677,5.6e-05,-0.000881
687428,0.001266,-0.025215,-0.75014,0.0,-0.0,-0.0,3.0,0.3261,0.332132,0.3261,0.319913,,,,,,,-3.1e-05,-0.023608,-0.739824,-0.00769,6.7e-05,-0.000879
687448,0.001266,-0.025215,-0.75014,0.0,-0.0,-0.0,3.0,0.3261,0.331283,0.3261,0.320803,,,,,,,-0.000189,-0.023607,-0.739842,0.019406,6.7e-05,-0.000878
687468,0.001311,-0.025329,-0.75014,0.0,-0.0,-0.0,3.0,0.3261,0.333055,0.3261,0.318938,,,,,,,-5.3e-05,-0.023606,-0.739859,0.004646,5.6e-05,-0.000876
687488,0.001357,-0.025443,-0.750346,0.0,-0.0,-0.0,3.0,0.3261,0.331431,0.3261,0.320648,,,,,,,-0.000152,-0.023604,-0.739877,0.028786,4.4e-05,-0.000895
687508,0.001244,-0.025488,-0.750346,0.0,-0.0,-0.0,3.0,0.3261,0.330781,0.3261,0.321326,,,,,,,-0.000134,-0.023603,-0.739895,0.005664,3.9e-05,-0.000893
687528,0.001268,-0.025216,-0.750345,0.0,-0.0,-0.0,3.0,0.3261,0.329788,0.3261,0.322355,,,,,,,-0.000211,-0.023602,-0.739912,0.022281,6.7e-05,-0.000891
687548,0.001154,-0.025261,-0.750346,0.0,-0.0,-0.0,3.0,0.3261,0.331213,0.3261,0.320876,,,,,,,-0.000113,-0.023601,-0.73993,-0.013249,6.2e-05,-0.000889
687568,0.001178,-0.024989,-0.750345,0.0,-0.0,-0.0,3.0,0.3261,0.331877,0.3261,0.320181,,,,,,,-0.000123,-0.0236,-0.739948,-0.007006,8.9e-05,-0.000887
687588,0.001065,-0.025034,-0.750345,0.0,-0.0,-0.0,3.0,0.3261,0.328957,0.3261,0.323209,,,,,,,-0.0003,-0.023598,-0.739966,0.001982,8.4e-05,-0.000886
687608,0.001065,-0.025034,-0.750345,0.0,-0.0,-0.0,3.0,0.3261,0.330822,0.3261,0.321284,,,,,,,-0.000269,-0.023597,-0.739984,-0.002423,8.4e-05,-0.000884
687628,0.000882,-0.025237,-0.750346,0.0,-0.0,-0.0,3.0,0.3261,0.332081,0.3261,0.319967,,,,,,,-0.000269,-0.023596,-0.740001,-0.032287,6.4e-05,-0.000882
687648,0.000929,-0.02535,-0.75043,0.0,-0.0,-0.0,3.0,0.3261,0.333027,0.3261,0.318968,,,,,,,-0.00023,-0.023594,-0.740019,-0.030867,5.2e-05,-0.000889
687668,0.000973,-0.025463,-0.75043,0.0,-0.0,-0.0,3.0,0.3261,0.331453,0.3261,0.320625,,,,,,,-0.000417,-0.023593,-0.740037,0.008407,4.1e-05,-0.000887
687688,0.000815,-0.025394,-0.75043,0.0,-0.0,-0.0,3.0,0.3261,0.330797,0.3261,0.321309,,,,,,,-0.000608,-0.023592,-0.740054,0.013536,4.8e-05,-0.000885
687708,0.000543,-0.02537,-0.75043,0.0,-0.0,-0.0,3.0,0.3261,0.329723,0.3261,0.322422,,,,,,,-0.000892,-0.023591,-0.740072,0.015762,5e-05,-0.000884
687728,0.00034,-0.025188,-0.75043,0.0,-0.0,-0.0,3.0,0.3261,0.330343,0.3261,0.321781,,,,,,,-0.000939,-0.023589,-0.74009,-0.010986,6.8e-05,-0.000882
687748,0.000113,-0.025277,-0.75043,0.0,-0.0,-0.0,3.0,0.3261,0.32836,0.3261,0.323819,,,,,,,-0.001212,-0.023589,-0.740107,-0.004057,5.9e-05,-0.00088
687768,-9e-05,-0.025095,-0.75043,0.0,-0.0,-0.0,3.0,0.3261,0.327376,0.3261,0.324818,,,,,,,-0.001467,-0.023587,-0.740125,0.004214,7.7e-05,-0.000878
687788,-0.000385,-0.025342,-0.750514,0.0,-0.0,-0.0,3.0,0.3261,0.329571,0.3261,0.322579,,,,,,,-0.001508,-0.023586,-0.740142,-0.03836,5.2e-05,-0.000885
687808,-0.000498,-0.025387,-0.750514,0.0,-0.0,-0.0,3.0,0.3261,0.330051,0.3261,0.322083,,,,,,,-0.00161,-0.023585,-0.74016,-0.04066,4.8e-05,-0.000883
687828,-0.000566,-0.025547,-0.750637,0.0,-0.0,-0.0,3.0,0.3261,0.331362,0.3261,0.320721,,,,,,,-0.001753,-0.023584,-0.740178,-0.026433,3.2e-05,-0.000894
687848,-0.00068,-0.025591,-0.750638,0.0,-0.0,-0.0,3.0,0.3261,0.331164,0.3261,0.320927,,,,,,,-0.001961,-0.023584,-0.740195,-0.010176,2.7e-05,-0.000892
687868,-0.000839,-0.025521,-0.750515,0.0,-0.0,-0.0,3.0,0.3261,0.33123,0.3261,0.320858,,,,,,,-0.002175,-0.023583,-0.740213,-0.000311,3.4e-05,-0.000878
687888,-0.001111,-0.025497,-0.750515,0.0,-0.0,-0.0,3.0,0.3261,0.328703,0.3261,0.323469,,,,,,,-0.002539,-0.023582,-0.740231,0.014382,3.6e-05,-0.000876
687908,-0.001359,-0.025201,-0.750514,0.0,-0.0,-0.0,3.0,0.3261,0.327806,0.3261,0.324382,,,,,,,-0.002804,-0.023581,-0.740248,0.016985,6.6e-05,-0.000874
687928,-0.001813,-0.02538,-0.750514,0.0,-0.0,-0.0,3.0,0.3261,0.326296,0.3261,0.325904,,,,,,,-0.003098,-0.02358,-0.740266,-0.01103,4.8e-05,-0.000873
687948,-0.002129,-0.025242,-0.750513,0.0,-0.0,-0.0,3.0,0.3261,0.327658,0.3261,0.324532,,,,,,,-0.003257,-0.023579,-0.740284,-0.037747,6.2e-05,-0.000871
687968,-0.002311,-0.025447,-0.750636,0.0,-0.0,-0.0,3.0,0.3261,0.326082,0.3261,0.326119,,,,,,,-0.003598,-0.023578,-0.740301,-0.011957,4.1e-05,-0.000881
687988,-0.002583,-0.025422,-0.750636,0.0,-0.0,-0.0,3.0,0.3261,0.328123,0.3261,0.32406,,,,,,,-0.003726,-0.023577,-0.740319,-0.035578,4.3e-05,-0.000879
688008,-0.002969,-0.025443,-0.750635,0.0,-0.0,-0.0,3.0,0.3261,0.330099,0.3261,0.322034,,,,,,,-0.003939,-0.023576,-0.740336,-0.063225,4.1e-05,-0.000878
688028,-0.003082,-0.025488,-0.750635,0.0,-0.0,-0.0,3.0,0.3261,0.33088,0.3261,0.321223,,,,,,,-0.004245,-0.023575,-0.740353,-0.029,3.7e-05,-0.000876
688048,-0.003172,-0.025261,-0.750634,0.0,-0.0,-0.0,3.0,0.3261,0.328567,0.3261,0.323608,,,,,,,-0.004578,-0.023574,-0.740371,0.011498,5.9e-05,-0.000874
688068,-0.00333,-0.02519,-0.750511,0.0,-0.0,-0.0,3.0,0.3261,0.325085,0.3261,0.327111,,,,,,,-0.005021,-0.023573,-0.740388,0.058141,6.6e-05,-0.00086
688088,-0.003602,-0.025166,-0.750511,0.0,-0.0,-0.0,3.0,0.3261,0.326704,0.3261,0.325494,,,,,,,-0.005037,-0.023572,-0.740406,0.014825,6.9e-05,-0.000858
688108,-0.003943,-0.0253,-0.750511,0.0,-0.0,-0.0,3.0,0.3261,0.327205,0.3261,0.32499,,,,,,,-0.005129,-0.023571,-0.740423,-0.027123,5.5e-05,-0.000856
688128,-0.003829,-0.025256,-0.750511,0.0,-0.0,-0.0,3.0,0.3261,0.328874,0.3261,0.323294,,,,,,,-0.005068,-0.02357,-0.74044,-0.01767,5.9e-05,-0.000855
688148,-0.003829,-0.025257,-0.750633,0.0,-0.0,-0.0,3.0,0.3261,0.327843,0.3261,0.324345,,,,,,,-0.005156,-0.023568,-0.740457,-0.003304,5.9e-05,-0.000865
688168,-0.003829,-0.025256,-0.750511,0.0,-0.0,-0.0,3.0,0.3261,0.328445,0.3261,0.323733,,,,,,,-0.00523,-0.023567,-0.740474,0.009783,5.9e-05,-0.000851
688188,-0.004101,-0.025231,-0.75051,0.0,-0.0,-0.0,3.0,0.3261,0.327408,0.3261,0.324785,,,,,,,-0.005314,-0.023566,-0.740491,-0.022911,6.1e-05,-0.00085
688208,-0.004057,-0.025345,-0.75051,0.0,-0.0,-0.0,3.0,0.3261,0.328966,0.3261,0.3232,,,,,,,-0.005384,-0.023565,-0.740508,-0.002073,5e-05,-0.000848
688228,-0.00426,-0.025163,-0.750509,0.0,-0.0,-0.0,3.0,0.3261,0.328076,0.3261,0.324108,,,,,,,-0.0055,-0.023563,-0.740525,-0.017298,6.8e-05,-0.000846
688248,-0.004259,-0.025164,-0.750632,0.0,-0.0,-0.0,3.0,0.3261,0.328341,0.3261,0.323838,,,,,,,-0.005612,-0.023562,-0.740542,0.002188,6.8e-05,-0.000857
688268,-0.004418,-0.025095,-0.750631,0.0,-0.0,-0.0,3.0,0.3261,0.326972,0.3261,0.325225,,,,,,,-0.005762,-0.023561,-0.740559,0.000153,7.4e-05,-0.000855
688288,-0.00453,-0.02514,-0.750714,0.0,-0.0,-0.0,3.0,0.3261,0.325831,0.3261,0.326369,,,,,,,-0.005973,-0.023559,-0.740576,0.016414,7e-05,-0.000861
688308,-0.004688,-0.025071,-0.750713,0.0,-0.0,-0.0,3.0,0.3261,0.326518,0.3261,0.325682,,,,,,,-0.006016,-0.023558,-0.740593,-0.003123,7.7e-05,-0.00086
688328,-0.004917,-0.025161,-0.75063,0.0,-0.0,-0.0,3.0,0.3261,0.325223,0.3261,0.326974,,,,,,,-0.006169,-0.023556,-0.74061,-0.016686,6.7e-05,-0.00085
688348,-0.00512,-0.024977,-0.750506,0.0,-0.0,-0.0,3.0,0.3261,0.325571,0.3261,0.326629,,,,,,,-0.006326,-0.023555,-0.740628,-0.024541,8.6e-05,-0.000836
688368,-0.005278,-0.024909,-0.750627,0.0,-0.0,-0.0,3.0,0.3261,0.326358,0.3261,0.325842,,,,,,,-0.006437,-0.023553,-0.740645,-0.032442,9.2e-05,-0.000846
688388,-0.005548,-0.024885,-0.750709,0.0,-0.0,-0.0,3.0,0.3261,0.326627,0.3261,0.325572,,,,,,,-0.006688,-0.023551,-0.740662,-0.034768,9.5e-05,-0.000852
688408,-0.005707,-0.024816,-0.750708,0.0,-0.0,-0.0,3.0,0.3261,0.328088,0.3261,0.324096,,,,,,,-0.006869,-0.02355,-0.740678,-0.02986,0.000101,-0.000851
688428,-0.005776,-0.024974,-0.750709,0.0,-0.0,-0.0,3.0,0.3261,0.32563,0.3261,0.326569,,,,,,,-0.007279,-0.023548,-0.740695,0.027555,8.5e-05,-0.000849
688448,-0.006047,-0.02495,-0.750708,0.0,-0.0,-0.0,3.0,0.3261,0.324425,0.3261,0.327764,,,,,,,-0.007542,-0.023546,-0.740712,0.025533,8.7e-05,-0.000847
688468,-0.006319,-0.024926,-0.750706,0.0,-0.0,-0.0,3.0,0.3261,0.3248,0.3261,0.327394,,,,,,,-0.007718,-0.023544,-0.740729,0.00965,9e-05,-0.000845
688488,-0.006593,-0.024902,-0.750622,0.0,-0.0,-0.0,3.0,0.3261,0.324009,0.3261,0.328173,,,,,,,-0.007915,-0.023541,-0.740746,-0.003944,9.2e-05,-0.000835
688508,-0.006639,-0.024787,-0.750416,0.0,-0.0,-0.0,3.0,0.3261,0.324043,0.3261,0.32814,,,,,,,-0.007997,-0.02354,-0.740762,0.001264,0.000103,-0.000813
688528,-0.006911,-0.024763,-0.750414,0.0,-0.0,-0.0,3.0,0.3261,0.322748,0.3261,0.329406,,,,,,,-0.008124,-0.023537,-0.740779,-0.024725,0.000105,-0.000811
688548,-0.007069,-0.024694,-0.750413,0.0,-0.0,-0.0,3.0,0.3261,0.326076,0.3261,0.326124,,,,,,,-0.008079,-0.023536,-0.740795,-0.057645,0.000112,-0.00081
688568,-0.007113,-0.02458,-0.750496,0.0,-0.0,-0.0,3.0,0.3261,0.327508,0.3261,0.324684,,,,,,,-0.008108,-0.023534,-0.740812,-0.05879,0.000123,-0.000816
688588,-0.00725,-0.024897,-0.750496,0.0,-0.0,-0.0,3.0,0.3261,0.326369,0.3261,0.325831,,,,,,,-0.008458,-0.023532,-0.740828,-0.022067,9.1e-05,-0.000815
688608,-0.007295,-0.024785,-0.750618,0.0,-0.0,-0.0,3.0,0.3261,0.325219,0.3261,0.326978,,,,,,,-0.008835,-0.02353,-0.740844,0.034585,0.000102,-0.000825
688628,-0.007794,-0.02485,-0.750615,0.0,-0.0,-0.0,3.0,0.3261,0.321467,0.3261,0.330646,,,,,,,-0.009291,-0.023527,-0.74086,0.025765,9.6e-05,-0.000823
688648,-0.008338,-0.024802,-0.750612,0.0,-0.0,-0.0,3.0,0.3261,0.320962,0.3261,0.331131,,,,,,,-0.009731,-0.023525,-0.740877,0.008246,0.0001,-0.000821
688668,-0.008969,-0.024527,-0.75069,0.0,-0.0,-0.0,3.0,0.3261,0.318098,0.3261,0.333845,,,,,,,-0.01021,-0.023523,-0.740893,-0.019731,0.000128,-0.000827
688688,-0.009513,-0.024478,-0.750686,0.0,-0.0,-0.0,3.0,0.3261,0.318204,0.3261,0.333745,,,,,,,-0.010644,-0.02352,-0.74091,-0.039052,0.000132,-0.000825
688708,-0.009988,-0.024272,-0.750682,0.0,-0.0,-0.0,3.0,0.3261,0.32011,0.3261,0.331944,,,,,,,-0.010892,-0.023518,-0.740926,-0.077564,0.000153,-0.000823
688728,-0.010329,-0.024406,-0.750679,0.0,-0.0,-0.0,3.0,0.3261,0.322269,0.3261,0.329872,,,,,,,-0.011254,-0.023515,-0.740943,-0.07255,0.000139,-0.000821
688748,-0.010645,-0.024268,-0.750676,0.0,-0.0,-0.0,3.0,0.3261,0.323795,0.3261,0.328383,,,,,,,-0.011688,-0.023512,-0.740959,-0.050642,0.000152,-0.000819
688768,-0.010828,-0.024471,-0.750676,0.0,-0.0,-0.0,3.0,0.3261,0.324278,0.3261,0.327908,,,,,,,-0.01206,-0.023509,-0.740975,-0.017062,0.000132,-0.000818
688788,-0.01101,-0.024674,-0.750675,0.0,-0.0,-0.0,3.0,0.3261,0.322702,0.3261,0.329451,,,,,,,-0.012486,-0.023507,-0.740992,0.024332,0.000111,-0.000816
688808,-0.011168,-0.024605,-0.750673,0.0,-0.0,-0.0,3.0,0.3261,0.31971,0.3261,0.332325,,,,,,,-0.012901,-0.023504,-0.741008,0.066814,0.000118,-0.000814
688828,-0.011509,-0.02474,-0.750671,0.0,-0.0,-0.0,3.0,0.3261,0.317503,0.3261,0.3344,,,,,,,-0.013095,-0.023502,-0.741024,0.04008,0.000104,-0.000812
688848,-0.011895,-0.02476,-0.750668,0.0,-0.0,-0.0,3.0,0.3261,0.318294,0.3261,0.333661,,,,,,,-0.013179,-0.0235,-0.741041,-0.011075,0.000102,-0.00081
688868,-0.011919,-0.025032,-0.750669,0.0,-0.0,-0.0,3.0,0.3261,0.319557,0.3261,0.33247,,,,,,,-0.013114,-0.023498,-0.741057,-0.026899,7.5e-05,-0.000809
688888,-0.011917,-0.025032,-0.750752,0.0,-0.0,-0.0,3.0,0.3261,0.318876,0.3261,0.333114,,,,,,,-0.013203,-0.023497,-0.741073,-0.011907,7.4e-05,-0.000816
688908,-0.011872,-0.025147,-0.750875,0.0,-0.0,-0.0,3.0,0.3261,0.321579,0.3261,0.330538,,,,,,,-0.013072,-0.023495,-0.741089,-0.025438,6.3e-05,-0.000826
688928,-0.011802,-0.024989,-0.750958,0.0,-0.0,-0.0,3.0,0.3261,0.323742,0.3261,0.328435,,,,,,,-0.013016,-0.023494,-0.741106,-0.02077,7.8e-05,-0.000833
688948,-0.011645,-0.025058,-0.750877,0.0,-0.0,-0.0,3.0,0.3261,0.323248,0.3261,0.328919,,,,,,,-0.012939,-0.023492,-0.741122,-0.007341,7.1e-05,-0.000823
688968,-0.011461,-0.024855,-0.75096,0.0,-0.0,-0.0,3.0,0.3261,0.322787,0.3261,0.329369,,,,,,,-0.012857,-0.02349,-0.741139,0.009745,9.1e-05,-0.00083
688988,-0.011234,-0.024766,-0.750962,0.0,-0.0,-0.0,3.0,0.3261,0.323053,0.3261,0.329109,,,,,,,-0.012749,-0.023488,-0.741156,0.030462,0.0001,-0.000828
689008,-0.011277,-0.024652,-0.751044,0.0,-0.0,-0.0,3.0,0.3261,0.320778,0.3261,0.331307,,,,,,,-0.012683,-0.023487,-0.741172,0.010489,0.000111,-0.000835
689028,-0.011119,-0.024721,-0.751046,0.0,-0.0,-0.0,3.0,0.3261,0.322454,0.3261,0.329692,,,,,,,-0.01254,-0.023485,-0.741189,0.013948,0.000104,-0.000833
689048,-0.011076,-0.024834,-0.750964,0.0,-0.0,-0.0,3.0,0.3261,0.320733,0.3261,0.33135,,,,,,,-0.012524,-0.023483,-0.741205,0.017918,9.3e-05,-0.000824
689068,-0.011029,-0.024948,-0.751047,0.0,-0.0,-0.0,3.0,0.3261,0.321186,0.3261,0.330916,,,,,,,-0.012404,-0.023481,-0.741222,0.005736,8.1e-05,-0.00083
689088,-0.010984,-0.025062,-0.751048,0.0,-0.0,-0.0,3.0,0.3261,0.320559,0.3261,0.331516,,,,,,,-0.012394,-0.02348,-0.741238,0.01134,7e-05,-0.000829
689108,-0.010781,-0.025244,-0.751051,0.0,-0.0,-0.0,3.0,0.3261,0.320358,0.3261,0.331708,,,,,,,-0.012256,-0.023478,-0.741255,0.021601,5.1e-05,-0.000827
689128,-0.010737,-0.025358,-0.751052,0.0,-0.0,-0.0,3.0,0.3261,0.322423,0.3261,0.329722,,,,,,,-0.011953,-0.023477,-0.741271,-0.021065,4e-05,-0.000826
689148,-0.010396,-0.025223,-0.751054,0.0,-0.0,-0.0,3.0,0.3261,0.32486,0.3261,0.327334,,,,,,,-0.011593,-0.023476,-0.741288,-0.023328,5.3e-05,-0.000824
689168,-0.010167,-0.025135,-0.75126,0.0,-0.0,-0.0,3.0,0.3261,0.322994,0.3261,0.329167,,,,,,,-0.011502,-0.023474,-0.741305,-0.000554,6.2e-05,-0.000843
689188,-0.009895,-0.02516,-0.751263,0.0,-0.0,-0.0,3.0,0.3261,0.321047,0.3261,0.331049,,,,,,,-0.01153,-0.023473,-0.741321,0.04954,5.9e-05,-0.000842
689208,-0.009871,-0.024888,-0.751262,0.0,-0.0,-0.0,3.0,0.3261,0.323051,0.3261,0.329112,,,,,,,-0.011233,-0.023472,-0.741338,0.004315,8.6e-05,-0.00084
689228,-0.009871,-0.024888,-0.751262,0.0,-0.0,-0.0,3.0,0.3261,0.322976,0.3261,0.329184,,,,,,,-0.011091,-0.02347,-0.741355,-0.019761,8.6e-05,-0.000838
689248,-0.009599,-0.024912,-0.751264,0.0,-0.0,-0.0,3.0,0.3261,0.321255,0.3261,0.33085,,,,,,,-0.011089,-0.023469,-0.741372,0.025558,8.4e-05,-0.000837
689268,-0.009486,-0.024867,-0.751264,0.0,-0.0,-0.0,3.0,0.3261,0.319221,0.3261,0.332787,,,,,,,-0.011038,-0.023468,-0.741389,0.034447,8.8e-05,-0.000835
689288,-0.009396,-0.025094,-0.751266,0.0,-0.0,-0.0,3.0,0.3261,0.32173,0.3261,0.330393,,,,,,,-0.010757,-0.023467,-0.741405,0.003024,6.5e-05,-0.000834
689308,-0.00951,-0.025139,-0.751265,0.0,-0.0,-0.0,3.0,0.3261,0.322582,0.3261,0.329568,,,,,,,-0.010592,-0.023465,-0.741422,-0.04403,6.1e-05,-0.000832
689328,-0.009192,-0.025276,-0.751351,0.0,-0.0,-0.0,3.0,0.3261,0.322652,0.3261,0.3295,,,,,,,-0.010467,-0.023463,-0.741439,-0.011261,4.7e-05,-0.000839
689348,-0.008966,-0.025187,-0.751269,0.0,-0.0,-0.0,3.0,0.3261,0.321204,0.3261,0.330899,,,,,,,-0.010554,-0.023462,-0.741455,0.042156,5.5e-05,-0.000829
689368,-0.008853,-0.025142,-0.75127,0.0,-0.0,-0.0,3.0,0.3261,0.32248,0.3261,0.329667,,,,,,,-0.010336,-0.02346,-0.741471,0.024799,6e-05,-0.000828
689388,-0.008829,-0.024869,-0.751147,0.0,-0.0,-0.0,3.0,0.3261,0.322723,0.3261,0.32943,,,,,,,-0.010173,-0.023459,-0.741488,0.00153,8.7e-05,-0.000814
689408,-0.00876,-0.024712,-0.751269,0.0,-0.0,-0.0,3.0,0.3261,0.320348,0.3261,0.331718,,,,,,,-0.010136,-0.023457,-0.741505,0.005287,0.000102,-0.000824
689428,-0.008531,-0.024622,-0.751353,0.0,-0.0,-0.0,3.0,0.3261,0.321452,0.3261,0.33066,,,,,,,-0.009898,-0.023456,-0.741521,0.004288,0.000111,-0.000831
689448,-0.008416,-0.024578,-0.751436,0.0,-0.0,-0.0,3.0,0.3261,0.321162,0.3261,0.330939,,,,,,,-0.009721,-0.023454,-0.741538,-0.006815,0.000116,-0.000838
689468,-0.00828,-0.02492,-0.751644,0.0,-0.0,-0.0,3.0,0.3261,0.321119,0.3261,0.33098,,,,,,,-0.009574,-0.023452,-0.741555,-0.008967,8.1e-05,-0.000857
689488,-0.00803,-0.025216,-0.75173,0.0,-0.0,-0.0,3.0,0.3261,0.324888,0.3261,0.327307,,,,,,,-0.009196,-0.023451,-0.741572,-0.028889,5.2e-05,-0.000863
689508,-0.007894,-0.025558,-0.751937,0.0,-0.0,-0.0,3.0,0.3261,0.323748,0.3261,0.32843,,,,,,,-0.00925,-0.02345,-0.741589,0.004576,1.7e-05,-0.000882
689528,-0.007736,-0.025626,-0.751938,0.0,-0.0,-0.0,3.0,0.3261,0.321501,0.3261,0.330613,,,,,,,-0.009311,-0.023449,-0.741607,0.040906,1e-05,-0.000881
689548,-0.007577,-0.025695,-0.75194,0.0,-0.0,-0.0,3.0,0.3261,0.31812,0.3261,0.333824,,,,,,,-0.009392,-0.023448,-0.741624,0.079762,3e-06,-0.000879
689568,-0.007825,-0.025399,-0.751937,0.0,-0.0,-0.0,3.0,0.3261,0.317745,0.3261,0.334175,,,,,,,-0.009264,-0.023447,-0.741642,0.014771,3.3e-05,-0.000877
689588,-0.0078,-0.025127,-0.752019,0.0,-0.0,-0.0,3.0,0.3261,0.320863,0.3261,0.331226,,,,,,,-0.00897,-0.023446,-0.74166,-0.029533,6e-05,-0.000884
689608,-0.007618,-0.024924,-0.752019,0.0,-0.0,-0.0,3.0,0.3261,0.320958,0.3261,0.331135,,,,,,,-0.008779,-0.023445,-0.741677,-0.031867,8e-05,-0.000882
689628,-0.007301,-0.025062,-0.752021,0.0,-0.0,-0.0,3.0,0.3261,0.320926,0.3261,0.331166,,,,,,,-0.00871,-0.023444,-0.741695,0.010131,6.6e-05,-0.00088
689648,-0.006984,-0.025199,-0.752023,0.0,-0.0,-0.0,3.0,0.3261,0.325981,0.3261,0.326219,,,,,,,-0.008266,-0.023444,-0.741713,-0.008555,5.2e-05,-0.000879
689668,-0.006939,-0.025313,-0.752024,0.0,-0.0,-0.0,3.0,0.3261,0.326027,0.3261,0.326173,,,,,,,-0.008095,-0.023443,-0.74173,-0.029203,4.1e-05,-0.000877
689688,-0.006509,-0.025405,-0.752027,0.0,-0.0,-0.0,3.0,0.3261,0.324127,0.3261,0.328057,,,,,,,-0.008131,-0.023442,-0.741748,0.050277,3.2e-05,-0.000876
689708,-0.006237,-0.025429,-0.752028,0.0,-0.0,-0.0,3.0,0.3261,0.320221,0.3261,0.331839,,,,,,,-0.008133,-0.023441,-0.741765,0.095072,2.9e-05,-0.000874
689728,-0.006237,-0.025429,-0.752028,0.0,-0.0,-0.0,3.0,0.3261,0.318443,0.3261,0.333521,,,,,,,-0.008024,-0.02344,-0.741783,0.074889,2.9e-05,-0.000872
689748,-0.006236,-0.025429,-0.752111,0.0,-0.0,-0.0,3.0,0.3261,0.320213,0.3261,0.331847,,,,,,,-0.007614,-0.023439,-0.7418,0.005443,2.9e-05,-0.000879
689768,-0.006007,-0.025341,-0.752317,0.0,-0.0,-0.0,3.0,0.3261,0.320079,0.3261,0.331974,,,,,,,-0.007416,-0.023439,-0.741818,0.010444,3.8e-05,-0.000898
689788,-0.00569,-0.025478,-0.752319,0.0,-0.0,-0.0,3.0,0.3261,0.322031,0.3261,0.330102,,,,,,,-0.006937,-0.023438,-0.741836,-0.017319,2.4e-05,-0.000896
689808,-0.005348,-0.025344,-0.752402,0.0,-0.0,-0.0,3.0,0.3261,0.323566,0.3261,0.328608,,,,,,,-0.006567,-0.023437,-0.741854,-0.02115,3.7e-05,-0.000903
689828,-0.005076,-0.025367,-0.752403,0.0,-0.0,-0.0,3.0,0.3261,0.325252,0.3261,0.326945,,,,,,,-0.006158,-0.023437,-0.741872,-0.043733,3.5e-05,-0.000901
689848,-0.004644,-0.025461,-0.752611,0.0,-0.0,-0.0,3.0,0.3261,0.326084,0.3261,0.326117,,,,,,,-0.005839,-0.023436,-0.74189,-0.024197,2.5e-05,-0.00092
689868,-0.004143,-0.025395,-0.752695,0.0,-0.0,-0.0,3.0,0.3261,0.325763,0.3261,0.326437,,,,,,,-0.00563,-0.023436,-0.741908,0.026335,3.2e-05,-0.000926
689888,-0.003983,-0.025463,-0.752778,0.0,-0.0,-0.0,3.0,0.3261,0.325691,0.3261,0.326509,,,,,,,-0.005319,-0.023435,-0.741927,0.000707,2.5e-05,-0.000933
689908,-0.003754,-0.025375,-0.752984,0.0,-0.0,-0.0,3.0,0.3261,0.32471,0.3261,0.327482,,,,,,,-0.005206,-0.023435,-0.741946,0.020345,3.4e-05,-0.000951
689928,-0.003483,-0.025399,-0.752984,0.0,-0.0,-0.0,3.0,0.3261,0.323068,0.3261,0.329095,,,,,,,-0.005059,-0.023434,-0.741965,0.040426,3.1e-05,-0.00095
689948,-0.003483,-0.025399,-0.752984,0.0,-0.0,-0.0,3.0,0.3261,0.321831,0.3261,0.330295,,,,,,,-0.005068,-0.023433,-0.741983,0.04211,3.1e-05,-0.000948
689968,-0.003324,-0.025467,-0.752985,0.0,-0.0,-0.0,3.0,0.3261,0.322545,0.3261,0.329604,,,,,,,-0.004756,-0.023433,-0.742002,0.015249,2.4e-05,-0.000946
689988,-0.003166,-0.025536,-0.752986,0.0,-0.0,-0.0,3.0,0.3261,0.320424,0.3261,0.331645,,,,,,,-0.004689,-0.023432,-0.742021,0.029853,1.8e-05,-0.000944
690008,-0.002825,-0.025401,-0.752986,0.0,-0.0,-0.0,3.0,0.3261,0.323141,0.3261,0.329024,,,,,,,-0.004179,-0.023432,-0.74204,0.000898,3.1e-05,-0.000942
690028,-0.002599,-0.02531,-0.752863,0.0,-0.0,-0.0,3.0,0.3261,0.324927,0.3261,0.327267,,,,,,,-0.003716,-0.023431,-0.742059,-0.039022,4e-05,-0.000928
690048,-0.0021,-0.025244,-0.752863,0.0,-0.0,-0.0,3.0,0.3261,0.327603,0.3261,0.324588,,,,,,,-0.003248,-0.023431,-0.742078,-0.032094,4.7e-05,-0.000926
690068,-0.001511,-0.025405,-0.752864,0.0,-0.0,-0.0,3.0,0.3261,0.328675,0.3261,0.323497,,,,,,,-0.002898,-0.02343,-0.742096,0.010144,3e-05,-0.000924
690088,-0.001012,-0.02534,-0.752864,0.0,-0.0,-0.0,3.0,0.3261,0.328466,0.3261,0.323711,,,,,,,-0.00256,-0.023429,-0.742115,0.037749,3.7e-05,-0.000923
690108,-0.000626,-0.02532,-0.752987,0.087266,-0.0,-0.0,3.0,0.3261,0.270977,0.3261,0.370748,,,,,,,-0.002357,-0.023428,-0.742133,0.068812,3.9e-05,-0.000933
690128,-0.000239,-0.025298,-0.753069,0.087266,-0.0,-0.0,3.0,0.3261,0.26811,0.3261,0.372591,,,,,,,-0.001998,-0.023428,-0.742152,0.072592,4.1e-05,-0.000939
690148,0.000462,-0.025415,-0.752986,0.087266,-0.0,-0.0,3.0,0.3261,0.268172,0.3261,0.372551,,,,,,,-0.00137,-0.023427,-0.742171,0.084637,2.9e-05,-0.000929
690168,0.002277,-0.025354,-0.753065,0.087266,-0.0,-0.0,3.0,0.3261,0.275284,0.3261,0.367903,,,,,,,0.000232,-0.023426,-0.742189,0.121465,3.5e-05,-0.000935
690188,0.005495,-0.025526,-0.753053,0.087266,-0.0,-0.0,3.0,0.3261,0.289348,0.3261,0.357932,,,,,,,0.003313,-0.023425,-0.742208,0.147467,1.8e-05,-0.000932
690208,0.010529,-0.025636,-0.75322,0.087266,-0.0,-0.0,3.0,0.3261,0.308314,0.3261,0.342657,,,,,,,0.008004,-0.023425,-0.742227,0.212191,7e-06,-0.000947
690228,0.017308,-0.025843,-0.753342,0.087266,-0.0,-0.0,3.0,0.3261,0.326212,0.3261,0.325989,,,,,,,0.01444,-0.023424,-0.742246,0.276153,-1.4e-05,-0.000957
690248,0.025789,-0.026027,-0.753553,0.087266,-0.0,-0.0,3.0,0.3261,0.340648,0.3261,0.310613,,,,,,,0.022186,-0.023424,-0.742265,0.406501,-3.2e-05,-0.000976
690268,0.03543,-0.026144,-0.753913,0.087266,-0.0,-0.0,3.0,0.3261,0.350008,0.3261,0.299534,,,,,,,0.031117,-0.023424,-0.742284,0.529094,-4.4e-05,-0.001011
690288,0.045887,-0.026322,-0.754247,0.087266,-0.0,-0.0,3.0,0.3261,0.358137,0.3261,0.289073,,,,,,,0.04108,-0.023425,-0.742305,0.614262,-6.2e-05,-0.001042
690308,0.056461,-0.026448,-0.754605,0.087266,-0.0,-0.0,3.0,0.3261,0.364721,0.3261,0.279939,,,,,,,0.05198,-0.023426,-0.742326,0.557701,-7.4e-05,-0.001076
690328,0.067198,-0.026629,-0.755066,0.087266,-0.0,-0.0,3.0,0.3261,0.371024,0.3261,0.270553,,,,,,,0.062974,-0.023428,-0.742348,0.5142,-9.2e-05,-0.001119
690348,0.077757,-0.027009,-0.755483,0.087266,-0.0,-0.0,3.0,0.3261,0.374067,0.3261,0.265766,,,,,,,0.073745,-0.02343,-0.742371,0.475788,-0.00013,-0.001159
690368,0.087566,-0.027147,-0.75582,0.087266,-0.0,-0.0,3.0,0.3261,0.374676,0.3261,0.264787,,,,,,,0.083645,-0.023433,-0.742394,0.45829,-0.000143,-0.00119
690388,0.095992,-0.027441,-0.756108,0.087266,-0.0,-0.0,3.0,0.3261,0.375801,0.3261,0.262958,,,,,,,0.09257,-0.023436,-0.742418,0.373769,-0.000172,-0.001217
690408,0.102829,-0.027713,-0.75627,0.087266,-0.0,-0.0,3.0,0.3261,0.372217,0.3261,0.268697,,,,,,,0.099831,-0.02344,-0.742443,0.300522,-0.000199,-0.00123
690428,0.107853,-0.028043,-0.756644,0.087266,-0.0,-0.0,3.0,0.3261,0.361276,0.3261,0.284797,,,,,,,0.10496,-0.023444,-0.742468,0.277735,-0.000232,-0.001265
690448,0.111198,-0.02813,-0.75695,0.087266,-0.0,-0.0,3.0,0.3261,0.350051,0.3261,0.29948,,,,,,,0.108578,-0.023448,-0.742493,0.224939,-0.00024,-0.001293
690468,0.112702,-0.027895,-0.757384,0.087266,-0.0,-0.0,3.0,0.3261,0.339551,0.3261,0.31185,,,,,,,0.11077,-0.023453,-0.742519,0.101952,-0.000216,-0.001334
690488,0.112826,-0.027826,-0.757867,0.087266,-0.0,-0.0,3.0,0.3261,0.331088,0.3261,0.321007,,,,,,,0.111572,-0.023457,-0.742546,-0.017122,-0.000209,-0.00138
690508,0.112105,-0.027957,-0.758391,0.087266,-0.0,-0.0,3.0,0.3261,0.328117,0.3261,0.324067,,,,,,,0.111333,-0.023462,-0.742574,-0.099469,-0.000221,-0.001429
690528,0.110999,-0.028111,-0.75895,0.087266,-0.0,-0.0,3.0,0.3261,0.32375,0.3261,0.328428,,,,,,,0.110191,-0.023467,-0.742603,-0.094606,-0.000236,-0.001482
690548,0.109577,-0.028131,-0.759538,0.087266,-0.0,-0.0,3.0,0.3261,0.322579,0.3261,0.329571,,,,,,,0.108866,-0.023472,-0.742633,-0.110755,-0.000238,-0.001538
690568,0.108403,-0.028445,-0.760102,0.087266,-0.0,-0.0,3.0,0.3261,0.324931,0.3261,0.327264,,,,,,,0.107556,-0.023476,-0.742664,-0.085327,-0.000269,-0.001591
690588,0.107727,-0.02869,-0.760618,0.087266,-0.0,-0.0,3.0,0.3261,0.327115,0.3261,0.325081,,,,,,,0.106541,-0.023481,-0.742697,-0.026082,-0.000293,-0.00164
690608,0.107625,-0.028714,-0.761122,0.087266,-0.0,-0.0,3.0,0.3261,0.329903,0.3261,0.322237,,,,,,,0.106229,-0.023487,-0.74273,0.010242,-0.000295,-0.001687
690628,0.10833,-0.028797,-0.761511,0.087266,-0.0,-0.0,3.0,0.3261,0.334646,0.3261,0.317239,,,,,,,0.106564,-0.023492,-0.742764,0.075501,-0.000302,-0.001722
690648,0.109496,-0.028703,-0.761897,0.087266,-0.0,-0.0,3.0,0.3261,0.337056,0.3261,0.31462,,,,,,,0.107581,-0.023498,-0.742799,0.099937,-0.000292,-0.001757
690668,0.111414,-0.028825,-0.762418,0.087266,-0.0,-0.0,3.0,0.3261,0.342342,0.3261,0.308677,,,,,,,0.109256,-0.023505,-0.742834,0.142857,-0.000304,-0.001806
690688,0.11344,-0.028907,-0.762719,0.087266,-0.0,-0.0,3.0,0.3261,0.345256,0.3261,0.305278,,,,,,,0.111435,-0.023511,-0.74287,0.116643,-0.000312,-0.001832
690708,0.115827,-0.029236,-0.76298,0.087266,-0.0,-0.0,3.0,0.3261,0.34968,0.3261,0.299938,,,,,,,0.113923,-0.023518,-0.742907,0.100502,-0.000344,-0.001855
690728,0.118449,-0.029471,-0.763338,0.087266,-0.0,-0.0,3.0,0.3261,0.351017,0.3261,0.29828,,,,,,,0.116466,-0.023525,-0.742944,0.113368,-0.000367,-0.001887
690748,0.120905,-0.029646,-0.7635,0.087266,-0.0,-0.0,3.0,0.3261,0.353799,0.3261,0.29476,,,,,,,0.119087,-0.023532,-0.742982,0.085389,-0.000383,-0.001899
690768,0.123165,-0.029632,-0.763885,0.087266,-0.0,-0.0,3.0,0.3261,0.355851,0.3261,0.2921,,,,,,,0.121482,-0.023539,-0.743021,0.06296,-0.000381,-0.001934
690788,0.125032,-0.029642,-0.764182,0.087266,-0.0,-0.0,3.0,0.3261,0.355398,0.3261,0.292693,,,,,,,0.123442,-0.023547,-0.743059,0.047234,-0.000381,-0.00196
690808,0.126553,-0.029798,-0.764307,0.087266,-0.0,-0.0,3.0,0.3261,0.352751,0.3261,0.296097,,,,,,,0.124887,-0.023555,-0.743099,0.058841,-0.000396,-0.001968
690828,0.127493,-0.029789,-0.7647,0.087266,-0.0,-0.0,3.0,0.3261,0.348618,0.3261,0.30124,,,,,,,0.125709,-0.023563,-0.743138,0.076918,-0.000395,-0.002004
690848,0.127589,-0.029998,-0.764979,0.087266,-0.0,-0.0,3.0,0.3261,0.345165,0.3261,0.305385,,,,,,,0.126036,-0.023571,-0.743179,0.036571,-0.000415,-0.002027
690868,0.127232,-0.029734,-0.765306,0.087266,-0.0,-0.0,3.0,0.3261,0.34187,0.3261,0.30922,,,,,,,0.125932,-0.023579,-0.743219,-0.007867,-0.000388,-0.002056
690888,0.126348,-0.029814,-0.765566,0.087266,-0.0,-0.0,3.0,0.3261,0.337545,0.3261,0.314082,,,,,,,0.125326,-0.023587,-0.74326,-0.057748,-0.000395,-0.002078
690908,0.125418,-0.029782,-0.76583,0.087266,-0.0,-0.0,3.0,0.3261,0.336716,0.3261,0.314993,,,,,,,0.124466,-0.023595,-0.743302,-0.070454,-0.000391,-0.0021
690928,0.124541,-0.029861,-0.766213,0.087266,-0.0,-0.0,3.0,0.3261,0.338376,0.3261,0.313162,,,,,,,0.123729,-0.023603,-0.743344,-0.093423,-0.000398,-0.002134
690948,0.123882,-0.029842,-0.766528,0.087266,-0.0,-0.0,3.0,0.3261,0.341991,0.3261,0.309081,,,,,,,0.123146,-0.023611,-0.743387,-0.10471,-0.000395,-0.002161
690968,0.123503,-0.029851,-0.766857,0.087266,-0.0,-0.0,3.0,0.3261,0.342958,0.3261,0.307967,,,,,,,0.122471,-0.023619,-0.743431,-0.053005,-0.000395,-0.00219
690988,0.12326,-0.030198,-0.767172,0.087266,-0.0,-0.0,3.0,0.3261,0.344171,0.3261,0.306554,,,,,,,0.121998,-0.023627,-0.743475,-0.012496,-0.000429,-0.002217
691008,0.123266,-0.030181,-0.76746,0.087266,-0.0,-0.0,3.0,0.3261,0.345239,0.3261,0.305298,,,,,,,0.121709,-0.023636,-0.743519,0.038638,-0.000427,-0.002241
691028,0.123317,-0.030278,-0.767743,0.087266,-0.0,-0.0,3.0,0.3261,0.343475,0.3261,0.307366,,,,,,,0.121595,-0.023644,-0.743564,0.065204,-0.000435,-0.002265
691048,0.123269,-0.03015,-0.767911,0.087266,-0.0,-0.0,3.0,0.3261,0.342987,0.3261,0.307933,,,,,,,0.121752,-0.023653,-0.743609,0.028621,-0.000422,-0.002278
691068,0.123296,-0.029862,-0.768196,0.087266,-0.0,-0.0,3.0,0.3261,0.344805,0.3261,0.305811,,,,,,,0.122089,-0.023661,-0.743655,-0.024203,-0.000392,-0.002301
691088,0.12364,-0.029707,-0.768448,0.087266,-0.0,-0.0,3.0,0.3261,0.347944,0.3261,0.30206,,,,,,,0.122568,-0.023669,-0.743701,-0.046677,-0.000376,-0.002322
691108,0.123964,-0.029831,-0.768621,0.087266,-0.0,-0.0,3.0,0.3261,0.348066,0.3261,0.301912,,,,,,,0.122781,-0.023677,-0.743748,-0.027566,-0.000387,-0.002335
691128,0.12422,-0.030107,-0.768883,0.087266,-0.0,-0.0,3.0,0.3261,0.349811,0.3261,0.299777,,,,,,,0.122953,-0.023685,-0.743795,-0.011903,-0.000414,-0.002356
691148,0.124151,-0.030258,-0.768972,0.087266,-0.0,-0.0,3.0,0.3261,0.349909,0.3261,0.299656,,,,,,,0.122867,-0.023693,-0.743842,-0.007652,-0.000428,-0.00236
691168,0.123977,-0.030447,-0.76928,0.087266,-0.0,-0.0,3.0,0.3261,0.347694,0.3261,0.302363,,,,,,,0.122479,-0.023702,-0.743889,0.028648,-0.000446,-0.002386
691188,0.123612,-0.030193,-0.769399,0.087266,-0.0,-0.0,3.0,0.3261,0.344533,0.3261,0.30613,,,,,,,0.121915,-0.02371,-0.743937,0.061526,-0.00042,-0.002394
691208,0.12291,-0.030078,-0.769554,0.087266,-0.0,-0.0,3.0,0.3261,0.341102,0.3261,0.310097,,,,,,,0.121402,-0.023718,-0.743985,0.025984,-0.000408,-0.002404
691228,0.122207,-0.029963,-0.769709,0.087266,-0.0,-0.0,3.0,0.3261,0.341515,0.3261,0.309625,,,,,,,0.121026,-0.023726,-0.744033,-0.030357,-0.000396,-0.002415
691248,0.121775,-0.029868,-0.769835,0.087266,-0.0,-0.0,3.0,0.3261,0.343016,0.3261,0.307899,,,,,,,0.120757,-0.023735,-0.744081,-0.058096,-0.000385,-0.002423
691268,0.121435,-0.029999,-0.769953,0.087266,-0.0,-0.0,3.0,0.3261,0.344687,0.3261,0.305949,,,,,,,0.120459,-0.023743,-0.74413,-0.064697,-0.000398,-0.00243
691288,0.121489,-0.03011,-0.770073,0.087266,-0.0,-0.0,3.0,0.3261,0.348284,0.3261,0.301647,,,,,,,0.120378,-0.023751,-0.744178,-0.040284,-0.000408,-0.002437
691308,0.121466,-0.030375,-0.770158,0.087266,-0.0,-0.0,3.0,0.3261,0.35057,0.3261,0.298837,,,,,,,0.120293,-0.023759,-0.744227,-0.027285,-0.000433,-0.00244
691328,0.121444,-0.030639,-0.770242,0.087266,-0.0,-0.0,3.0,0.3261,0.350527,0.3261,0.29889,,,,,,,0.120041,-0.023768,-0.744276,0.012871,-0.000459,-0.002444
691348,0.121444,-0.030639,-0.770242,0.087266,-0.0,-0.0,3.0,0.3261,0.348235,0.3261,0.301707,,,,,,,0.119818,-0.023777,-0.744325,0.049695,-0.000458,-0.002439
691368,0.121307,-0.0303,-0.770255,0.087266,-0.0,-0.0,3.0,0.3261,0.346222,0.3261,0.304131,,,,,,,0.119642,-0.023785,-0.744373,0.054933,-0.000423,-0.002435
691388,0.121101,-0.030114,-0.770357,0.087266,-0.0,-0.0,3.0,0.3261,0.345648,0.3261,0.304814,,,,,,,0.119581,-0.023793,-0.744422,0.028976,-0.000404,-0.002441
691408,0.120851,-0.029821,-0.770383,0.087266,-0.0,-0.0,3.0,0.3261,0.345727,0.3261,0.30472,,,,,,,0.11956,-0.023801,-0.744471,-0.011306,-0.000374,-0.002438
691428,0.120851,-0.029821,-0.770383,0.087266,-0.0,-0.0,3.0,0.3261,0.348961,0.3261,0.300822,,,,,,,0.119636,-0.023809,-0.74452,-0.022465,-0.000373,-0.002434
691448,0.120671,-0.030027,-0.770402,0.087266,-0.0,-0.0,3.0,0.3261,0.349922,0.3261,0.29964,,,,,,,0.119601,-0.023817,-0.744568,-0.04674,-0.000393,-0.002431
691468,0.120558,-0.030073,-0.770414,0.087266,-0.0,-0.0,3.0,0.3261,0.35034,0.3261,0.299122,,,,,,,0.119404,-0.023825,-0.744617,-0.031766,-0.000397,-0.002427
691488,0.120333,-0.030173,-0.770356,0.087266,-0.0,-0.0,3.0,0.3261,0.349033,0.3261,0.300734,,,,,,,0.119091,-0.023833,-0.744665,-0.017599,-0.000406,-0.002416
691508,0.1201,-0.030266,-0.770254,0.087266,-0.0,-0.0,3.0,0.3261,0.349338,0.3261,0.300358,,,,,,,0.118774,-0.023841,-0.744714,-0.003022,-0.000414,-0.002401
691528,0.119511,-0.030112,-0.770314,0.087266,-0.0,-0.0,3.0,0.3261,0.348792,0.3261,0.301028,,,,,,,0.118377,-0.023849,-0.744762,-0.035494,-0.000398,-0.002403
691548,0.118989,-0.0298,-0.770367,0.087266,-0.0,-0.0,3.0,0.3261,0.346681,0.3261,0.303582,,,,,,,0.117641,-0.023857,-0.74481,0.000575,-0.000366,-0.002403
691568,0.118167,-0.02974,-0.770325,0.087266,-0.0,-0.0,3.0,0.3261,0.343832,0.3261,0.306951,,,,,,,0.116818,-0.023864,-0.744858,-0.001073,-0.00036,-0.002394
691588,0.117398,-0.029791,-0.770403,0.087266,-0.0,-0.0,3.0,0.3261,0.342921,0.3261,0.308009,,,,,,,0.115946,-0.023871,-0.744906,0.016117,-0.000364,-0.002397
691608,0.116289,-0.029974,-0.770595,0.087266,-0.0,-0.0,3.0,0.3261,0.344,0.3261,0.306754,,,,,,,0.115182,-0.023878,-0.744954,-0.041636,-0.000381,-0.002411
691628,0.115287,-0.030126,-0.770488,0.087266,-0.0,-0.0,3.0,0.3261,0.342837,0.3261,0.308106,,,,,,,0.114186,-0.023886,-0.745002,-0.043035,-0.000396,-0.002396
691648,0.114194,-0.030045,-0.77047,0.087266,-0.0,-0.0,3.0,0.3261,0.340504,0.3261,0.310775,,,,,,,0.113066,-0.023894,-0.74505,-0.04008,-0.000387,-0.002389
691668,0.113199,-0.030189,-0.770567,0.087266,-0.0,-0.0,3.0,0.3261,0.341679,0.3261,0.309439,,,,,,,0.112203,-0.023902,-0.745098,-0.063077,-0.000401,-0.002394
691688,0.112157,-0.030213,-0.77075,0.087266,-0.0,-0.0,3.0,0.3261,0.344659,0.3261,0.305982,,,,,,,0.111434,-0.02391,-0.745146,-0.107739,-0.000402,-0.002408
691708,0.111521,-0.029939,-0.770891,0.087266,-0.0,-0.0,3.0,0.3261,0.345904,0.3261,0.304509,,,,,,,0.11061,-0.023918,-0.745194,-0.074283,-0.000374,-0.002417
691728,0.111182,-0.030078,-0.770924,0.087266,-0.0,-0.0,3.0,0.3261,0.346564,0.3261,0.303722,,,,,,,0.109851,-0.023925,-0.745243,-0.001735,-0.000387,-0.002415
691748,0.110705,-0.029871,-0.77105,0.087266,-0.0,-0.0,3.0,0.3261,0.347212,0.3261,0.302945,,,,,,,0.109289,-0.023932,-0.745291,0.01364,-0.000366,-0.002423
691768,0.110299,-0.030168,-0.771089,0.087266,-0.0,-0.0,3.0,0.3261,0.344524,0.3261,0.30614,,,,,,,0.10871,-0.02394,-0.745339,0.041366,-0.000395,-0.002422
691788,0.109982,-0.030035,-0.771119,0.087266,-0.0,-0.0,3.0,0.3261,0.345045,0.3261,0.305528,,,,,,,0.108429,-0.023947,-0.745388,0.035351,-0.000381,-0.00242
691808,0.109755,-0.03012,-0.771222,0.087266,-0.0,-0.0,3.0,0.3261,0.344991,0.3261,0.305591,,,,,,,0.108273,-0.023955,-0.745436,0.022546,-0.000388,-0.002426
691828,0.109596,-0.030054,-0.771236,0.087266,-0.0,-0.0,3.0,0.3261,0.345501,0.3261,0.304988,,,,,,,0.108307,-0.023963,-0.745484,-0.011404,-0.000381,-0.002422
691848,0.109437,-0.02998,-0.771332,0.087266,-0.0,-0.0,3.0,0.3261,0.346932,0.3261,0.303281,,,,,,,0.108347,-0.023971,-0.745533,-0.045284,-0.000373,-0.002427
691868,0.109278,-0.029914,-0.771347,0.087266,-0.0,-0.0,3.0,0.3261,0.348222,0.3261,0.301722,,,,,,,0.108211,-0.023979,-0.745581,-0.048073,-0.000365,-0.002424
691888,0.10921,-0.030066,-0.771435,0.087266,-0.0,-0.0,3.0,0.3261,0.350978,0.3261,0.298329,,,,,,,0.108118,-0.023986,-0.74563,-0.04178,-0.00038,-0.002428
691908,0.10903,-0.030271,-0.771452,0.087266,-0.0,-0.0,3.0,0.3261,0.349826,0.3261,0.299758,,,,,,,0.107762,-0.023994,-0.745678,-0.011325,-0.0004,-0.002425
691928,0.108757,-0.030244,-0.771559,0.087266,-0.0,-0.0,3.0,0.3261,0.347135,0.3261,0.303038,,,,,,,0.107136,-0.024001,-0.745727,0.048517,-0.000396,-0.002431
691948,0.108101,-0.030249,-0.77162,0.087266,-0.0,-0.0,3.0,0.3261,0.343663,0.3261,0.307147,,,,,,,0.106524,-0.024009,-0.745776,0.038943,-0.000396,-0.002432
691968,0.107399,-0.030142,-0.771685,0.087266,-0.0,-0.0,3.0,0.3261,0.342502,0.3261,0.308494,,,,,,,0.106058,-0.024017,-0.745824,-0.002914,-0.000384,-0.002433
691988,0.106855,-0.030094,-0.771816,0.087266,-0.0,-0.0,3.0,0.3261,0.344596,0.3261,0.306056,,,,,,,0.105818,-0.024025,-0.745873,-0.054429,-0.000379,-0.002442
692008,0.106424,-0.030007,-0.771855,0.087266,-0.0,-0.0,3.0,0.3261,0.346019,0.3261,0.304372,,,,,,,0.105594,-0.024033,-0.745922,-0.089746,-0.000369,-0.002441
692028,0.106423,-0.030001,-0.771936,0.087266,-0.0,-0.0,3.0,0.3261,0.347397,0.3261,0.302721,,,,,,,0.105335,-0.02404,-0.74597,-0.045344,-0.000368,-0.002444
692048,0.10631,-0.030047,-0.771946,0.087266,-0.0,-0.0,3.0,0.3261,0.349987,0.3261,0.29956,,,,,,,0.105175,-0.024048,-0.746019,-0.035093,-0.000372,-0.00244
692068,0.10613,-0.030252,-0.771963,0.087266,-0.0,-0.0,3.0,0.3261,0.351862,0.3261,0.297221,,,,,,,0.104996,-0.024055,-0.746068,-0.033054,-0.000392,-0.002437
692088,0.106018,-0.030298,-0.771974,0.087266,-0.0,-0.0,3.0,0.3261,0.348893,0.3261,0.300905,,,,,,,0.104589,-0.024063,-0.746117,0.015995,-0.000395,-0.002433
692108,0.105859,-0.030232,-0.771988,0.087266,-0.0,-0.0,3.0,0.3261,0.34556,0.3261,0.304918,,,,,,,0.104119,-0.02407,-0.746166,0.067346,-0.000388,-0.00243
692128,0.105315,-0.030191,-0.772037,0.087266,-0.0,-0.0,3.0,0.3261,0.34435,0.3261,0.306344,,,,,,,0.103877,-0.024078,-0.746214,0.014259,-0.000383,-0.00243
692148,0.104719,-0.030038,-0.771965,0.087266,-0.0,-0.0,3.0,0.3261,0.343544,0.3261,0.307287,,,,,,,0.103592,-0.024086,-0.746263,-0.039592,-0.000367,-0.002417
692168,0.104288,-0.029945,-0.772084,0.087266,-0.0,-0.0,3.0,0.3261,0.344959,0.3261,0.305629,,,,,,,0.103369,-0.024093,-0.746311,-0.075116,-0.000357,-0.002425
692188,0.103949,-0.030083,-0.772115,0.087266,-0.0,-0.0,3.0,0.3261,0.347291,0.3261,0.302849,,,,,,,0.103121,-0.024101,-0.74636,-0.089387,-0.00037,-0.002423
692208,0.103632,-0.02995,-0.772143,0.087266,-0.0,-0.0,3.0,0.3261,0.347516,0.3261,0.302578,,,,,,,0.102557,-0.024109,-0.746408,-0.046398,-0.000356,-0.002421
692228,0.103134,-0.030022,-0.772187,0.087266,-0.0,-0.0,3.0,0.3261,0.346783,0.3261,0.30346,,,,,,,0.102004,-0.024116,-0.746456,-0.036852,-0.000363,-0.00242
692248,0.102658,-0.029823,-0.772228,0.087266,-0.0,-0.0,3.0,0.3261,0.347472,0.3261,0.302632,,,,,,,0.101447,-0.024123,-0.746505,-0.021723,-0.000342,-0.00242
692268,0.102092,-0.030047,-0.77236,0.087266,-0.0,-0.0,3.0,0.3261,0.345032,0.3261,0.305543,,,,,,,0.100822,-0.02413,-0.746554,-0.013073,-0.000364,-0.002428
692288,0.101503,-0.029894,-0.772411,0.087266,-0.0,-0.0,3.0,0.3261,0.344495,0.3261,0.306175,,,,,,,0.10024,-0.024136,-0.746602,-0.014515,-0.000348,-0.002428
692308,0.101072,-0.0298,-0.772529,0.087266,-0.0,-0.0,3.0,0.3261,0.343875,0.3261,0.3069,,,,,,,0.09971,-0.024143,-0.746651,0.001797,-0.000338,-0.002435
692328,0.100528,-0.02976,-0.772576,0.087266,-0.0,-0.0,3.0,0.3261,0.343453,0.3261,0.307392,,,,,,,0.099218,-0.02415,-0.746699,-0.007377,-0.000333,-0.002435
692348,0.100137,-0.029786,-0.772484,0.087266,-0.0,-0.0,3.0,0.3261,0.344834,0.3261,0.305776,,,,,,,0.098982,-0.024157,-0.746748,-0.033577,-0.000335,-0.002421
692368,0.099752,-0.029812,-0.772517,0.087266,-0.0,-0.0,3.0,0.3261,0.346468,0.3261,0.303837,,,,,,,0.098734,-0.024164,-0.746796,-0.056031,-0.000337,-0.002419
692388,0.099548,-0.029633,-0.772534,0.087266,-0.0,-0.0,3.0,0.3261,0.346016,0.3261,0.304376,,,,,,,0.098433,-0.024171,-0.746844,-0.040167,-0.000318,-0.002416
692408,0.099322,-0.029725,-0.772553,0.087266,-0.0,-0.0,3.0,0.3261,0.345999,0.3261,0.304396,,,,,,,0.098041,-0.024178,-0.746893,-0.011193,-0.000327,-0.002413
692428,0.09905,-0.029705,-0.772576,0.087266,-0.0,-0.0,3.0,0.3261,0.34643,0.3261,0.303882,,,,,,,0.097833,-0.024184,-0.746941,-0.022578,-0.000324,-0.002411
692448,0.098756,-0.02995,-0.772683,0.087266,-0.0,-0.0,3.0,0.3261,0.348574,0.3261,0.301294,,,,,,,0.097712,-0.024191,-0.746989,-0.050185,-0.000348,-0.002417
692468,0.098763,-0.029949,-0.772808,0.087266,-0.0,-0.0,3.0,0.3261,0.347208,0.3261,0.302949,,,,,,,0.097406,-0.024198,-0.747038,0.00256,-0.000347,-0.002424
692488,0.098695,-0.030102,-0.772896,0.087266,-0.0,-0.0,3.0,0.3261,0.346754,0.3261,0.303494,,,,,,,0.09715,-0.024205,-0.747086,0.034499,-0.000362,-0.002428
692508,0.09849,-0.029916,-0.772994,0.087266,-0.0,-0.0,3.0,0.3261,0.345163,0.3261,0.305388,,,,,,,0.096844,-0.024212,-0.747134,0.05114,-0.000342,-0.002433
692528,0.098013,-0.029717,-0.773033,0.087266,-0.0,-0.0,3.0,0.3261,0.34431,0.3261,0.306391,,,,,,,0.096566,-0.024218,-0.747183,0.017066,-0.000322,-0.002432
692548,0.097695,-0.029577,-0.77314,0.087266,-0.0,-0.0,3.0,0.3261,0.344977,0.3261,0.305607,,,,,,,0.096409,-0.024225,-0.747232,-0.010596,-0.000307,-0.002438
692568,0.097514,-0.029777,-0.773237,0.087266,-0.0,-0.0,3.0,0.3261,0.344049,0.3261,0.306697,,,,,,,0.096225,-0.024232,-0.747281,-0.011548,-0.000326,-0.002443
692588,0.097248,-0.029743,-0.773547,0.087266,-0.0,-0.0,3.0,0.3261,0.344189,0.3261,0.306534,,,,,,,0.096015,-0.024238,-0.74733,-0.021268,-0.000322,-0.002469
692608,0.096862,-0.029763,-0.77366,0.087266,-0.0,-0.0,3.0,0.3261,0.346682,0.3261,0.303581,,,,,,,0.095947,-0.024245,-0.747379,-0.07398,-0.000324,-0.002475
692628,0.096867,-0.02975,-0.773948,0.087266,-0.0,-0.0,3.0,0.3261,0.348369,0.3261,0.301543,,,,,,,0.095725,-0.024252,-0.747429,-0.033876,-0.000322,-0.002499
692648,0.096965,-0.029963,-0.774228,0.087266,-0.0,-0.0,3.0,0.3261,0.349471,0.3261,0.300195,,,,,,,0.095592,-0.024258,-0.747479,0.006657,-0.000342,-0.002522
692668,0.096924,-0.029837,-0.774519,0.087266,-0.0,-0.0,3.0,0.3261,0.348441,0.3261,0.301456,,,,,,,0.095389,-0.024265,-0.74753,0.034246,-0.000329,-0.002546
692688,0.096816,-0.029871,-0.774816,0.087266,-0.0,-0.0,3.0,0.3261,0.347574,0.3261,0.302508,,,,,,,0.09519,-0.024271,-0.747581,0.04954,-0.000332,-0.002571
692708,0.096451,-0.029613,-0.775007,0.087266,-0.0,-0.0,3.0,0.3261,0.344838,0.3261,0.305772,,,,,,,0.094905,-0.024277,-0.747633,0.034314,-0.000306,-0.002585
692728,0.09623,-0.029693,-0.775313,0.087266,-0.0,-0.0,3.0,0.3261,0.344967,0.3261,0.305619,,,,,,,0.094916,-0.024284,-0.747685,-0.006366,-0.000313,-0.00261
692748,0.096009,-0.029773,-0.775619,0.087266,-0.0,-0.0,3.0,0.3261,0.345482,0.3261,0.305011,,,,,,,0.094856,-0.02429,-0.747737,-0.033784,-0.00032,-0.002635
692768,0.095788,-0.029847,-0.776006,0.087266,-0.0,-0.0,3.0,0.3261,0.346446,0.3261,0.303864,,,,,,,0.094852,-0.024297,-0.74779,-0.071356,-0.000327,-0.002669
692788,0.095614,-0.030039,-0.776309,0.087266,-0.0,-0.0,3.0,0.3261,0.347361,0.3261,0.302765,,,,,,,0.094602,-0.024304,-0.747843,-0.057279,-0.000346,-0.002694
692808,0.095295,-0.029895,-0.776496,0.087266,-0.0,-0.0,3.0,0.3261,0.348846,0.3261,0.300962,,,,,,,0.094294,-0.024311,-0.747897,-0.057482,-0.00033,-0.002707
692828,0.095053,-0.030247,-0.776805,0.087266,-0.0,-0.0,3.0,0.3261,0.347957,0.3261,0.302044,,,,,,,0.093785,-0.024317,-0.747952,-0.011065,-0.000365,-0.002733
692848,0.094853,-0.030055,-0.777108,0.087266,-0.0,-0.0,3.0,0.3261,0.346534,0.3261,0.303758,,,,,,,0.093305,-0.024324,-0.748006,0.036644,-0.000345,-0.002757
692868,0.094401,-0.030235,-0.777226,0.087266,-0.0,-0.0,3.0,0.3261,0.343734,0.3261,0.307065,,,,,,,0.092812,-0.024331,-0.748062,0.041843,-0.000362,-0.002764
692888,0.093863,-0.030183,-0.777557,0.087266,-0.0,-0.0,3.0,0.3261,0.341701,0.3261,0.309413,,,,,,,0.092464,-0.024338,-0.748117,0.007414,-0.000356,-0.002791
692908,0.093251,-0.030291,-0.777767,0.087266,-0.0,-0.0,3.0,0.3261,0.342201,0.3261,0.30884,,,,,,,0.092225,-0.024345,-0.748173,-0.056513,-0.000367,-0.002807
692928,0.093097,-0.030212,-0.778067,0.087266,-0.0,-0.0,3.0,0.3261,0.344912,0.3261,0.305684,,,,,,,0.092151,-0.024353,-0.748229,-0.069378,-0.000358,-0.002831
692948,0.093195,-0.030425,-0.778347,0.087266,-0.0,-0.0,3.0,0.3261,0.34702,0.3261,0.303175,,,,,,,0.092085,-0.024361,-0.748286,-0.040544,-0.000378,-0.002853
692968,0.093313,-0.030366,-0.778625,0.087266,-0.0,-0.0,3.0,0.3261,0.350159,0.3261,0.299347,,,,,,,0.092213,-0.024368,-0.748343,-0.040412,-0.000372,-0.002875
692988,0.093358,-0.030467,-0.778783,0.087266,-0.0,-0.0,3.0,0.3261,0.350119,0.3261,0.299396,,,,,,,0.092123,-0.024376,-0.748401,-0.015987,-0.000381,-0.002885
693008,0.093364,-0.030461,-0.77899,0.087266,-0.0,-0.0,3.0,0.3261,0.348792,0.3261,0.301028,,,,,,,0.09192,-0.024383,-0.748459,0.019577,-0.00038,-0.0029
