time_ms,roll,pitch,yaw,reference_roll,reference_pitch,reference_yaw,reference_throttle,throttle_1,throttle_2,throttle_3,throttle_4,roll_predicted,pitch_predicted,yaw_predicted,roll_rate_predicted,pitch_rate_predicted,yaw_rate_predicted,value1,value2,value3,value4,value5,value6
475669,-0.003536,-0.009157,-0.000871,-0.0,-0.0,0.0,3.0,0.328027,0.324158,0.328027,0.324158,,,,,,,-0.005001,-0.010343,-0.002194,0.021008,0.013547,-0.003745
475689,-0.003658,-0.00928,-0.000994,-0.0,-0.0,0.0,3.0,0.325692,0.326508,0.325692,0.326508,,,,,,,-0.005125,-0.010237,-0.002194,0.021341,-0.02502,-0.024767
475709,-0.003658,-0.00928,-0.000994,-0.0,-0.0,0.0,3.0,0.320373,0.331694,0.320373,0.331694,,,,,,,-0.005106,-0.010112,-0.002211,0.017287,-0.046158,-0.021069
475729,-0.003658,-0.00928,-0.000994,-0.0,-0.0,0.0,3.0,0.317947,0.333986,0.317947,0.333986,,,,,,,-0.004964,-0.010093,-0.002229,-0.007653,-0.049929,-0.017344
475749,-0.00378,-0.009157,-0.000872,-0.0,-0.0,0.0,3.0,0.319435,0.332585,0.319435,0.332585,,,,,,,-0.004963,-0.010006,-0.002352,-0.028748,-0.042194,0.024682
475769,-0.00378,-0.009035,-0.000872,-0.0,-0.0,0.0,3.0,0.321768,0.330356,0.321768,0.330356,,,,,,,-0.004771,-0.010025,-0.002352,-0.059534,-0.017187,0.024654
475789,-0.003414,-0.009157,-0.000992,-0.0,-0.0,0.0,3.0,0.330421,0.3217,0.330421,0.3217,,,,,,,-0.004789,-0.010168,-0.002439,0.007308,-0.013087,0.017389
475809,-0.003292,-0.009157,-0.000992,-0.0,-0.0,0.0,3.0,0.329213,0.322947,0.329213,0.322947,,,,,,,-0.004773,-0.010432,-0.002438,0.024815,0.032816,0.017389
475829,-0.003413,-0.009158,-0.001114,-0.0,-0.0,0.0,3.0,0.329641,0.322506,0.329641,0.322506,,,,,,,-0.005002,-0.010519,-0.00244,0.042386,0.046047,-0.003479
475849,-0.003535,-0.009402,-0.001115,-0.0,-0.0,0.0,3.0,0.322499,0.329648,0.322499,0.329648,,,,,,,-0.004916,-0.010729,-0.002334,0.007823,0.038508,-0.021029
475869,-0.003657,-0.009646,-0.001116,-0.0,-0.0,0.0,3.0,0.320936,0.331156,0.320936,0.331156,,,,,,,-0.005126,-0.010832,-0.002335,0.021192,0.013492,-0.020934
475889,-0.003779,-0.009768,-0.001117,-0.0,-0.0,0.0,3.0,0.320908,0.331183,0.320908,0.331183,,,,,,,-0.005191,-0.010725,-0.002335,0.009709,-0.025019,-0.021061
475909,-0.003902,-0.00989,-0.000996,-0.0,-0.0,0.0,3.0,0.320538,0.331536,0.320538,0.331536,,,,,,,-0.005066,-0.010705,-0.002334,-0.032545,-0.049826,-0.000337
475929,-0.004024,-0.010012,-0.000997,-0.0,-0.0,0.0,3.0,0.319592,0.332437,0.319592,0.332437,,,,,,,-0.004997,-0.010722,-0.002353,-0.063146,-0.067001,0.003451
475949,-0.003779,-0.00989,-0.000995,-0.0,-0.0,0.0,3.0,0.319399,0.332619,0.319399,0.332619,,,,,,,-0.004891,-0.010757,-0.002353,-0.038517,-0.038371,0.003632
475969,-0.003536,-0.00989,-0.000872,-0.0,-0.0,0.0,3.0,0.319051,0.332949,0.319051,0.332949,,,,,,,-0.004911,-0.0109,-0.002353,0.007492,-0.013206,0.02488
475989,-0.003413,-0.009646,-0.000993,-0.0,-0.0,0.0,3.0,0.322746,0.329408,0.322746,0.329408,,,,,,,-0.004914,-0.010918,-0.002355,0.028717,0.032576,0.004174
476009,-0.003291,-0.009646,-0.000993,-0.0,-0.0,0.0,3.0,0.326084,0.326116,0.326084,0.326116,,,,,,,-0.00502,-0.011025,-0.002336,0.067026,0.050001,0.000369
476029,-0.003413,-0.009768,-0.000993,-0.0,-0.0,0.0,3.0,0.32651,0.32569,0.32651,0.32569,,,,,,,-0.004964,-0.011178,-0.002317,-0.02881,0.009502,-0.003968
476049,-0.003658,-0.009646,-0.000994,-0.0,-0.0,0.0,3.0,0.328586,0.323589,0.328586,0.323589,,,,,,,-0.005108,-0.011093,-0.002318,0.017327,0.059199,-0.003695
476069,-0.003657,-0.00989,-0.000995,-0.0,-0.0,0.0,3.0,0.328876,0.323292,0.328876,0.323292,,,,,,,-0.004964,-0.011039,-0.002318,-0.007837,0.005758,-0.003917
476089,-0.003902,-0.00989,-0.000996,-0.0,-0.0,0.0,3.0,0.32067,0.331411,0.32067,0.331411,,,,,,,-0.00505,-0.010827,-0.002212,-0.03616,-0.028993,-0.021318
476109,-0.003902,-0.009768,-0.000874,-0.0,-0.0,0.0,3.0,0.314256,0.337387,0.314256,0.337387,,,,,,,-0.00498,-0.010475,-0.002106,-0.045921,-0.067368,-0.017676
476129,-0.004024,-0.009768,-0.000874,-0.0,-0.0,0.0,3.0,0.315927,0.33586,0.315927,0.33586,,,,,,,-0.005017,-0.010494,-0.002108,-0.059138,-0.063229,-0.017575
476149,-0.003781,-0.009401,-0.00075,-0.0,-0.0,0.0,3.0,0.313561,0.338017,0.313561,0.338017,,,,,,,-0.005157,-0.010284,-0.002126,0.007561,-0.034719,0.007617
476169,-0.003781,-0.009279,-0.00075,-0.0,-0.0,0.0,3.0,0.323025,0.329137,0.323025,0.329137,,,,,,,-0.005263,-0.01043,-0.002233,0.024947,0.01162,0.025116
476189,-0.003903,-0.009157,-0.00075,-0.0,-0.0,0.0,3.0,0.326842,0.325356,0.326842,0.325356,,,,,,,-0.005282,-0.010553,-0.002216,0.007744,0.053815,0.021205
476209,-0.003902,-0.009157,-0.000873,-0.0,-0.0,0.0,3.0,0.327662,0.324528,0.327662,0.324528,,,,,,,-0.005387,-0.010642,-0.002216,0.024894,0.067148,0.000335
476229,-0.003902,-0.009158,-0.000995,-0.0,-0.0,0.0,3.0,0.333109,0.318881,0.333109,0.318881,,,,,,,-0.005349,-0.010643,-0.00232,0.017153,0.067015,-0.003567
476249,-0.003902,-0.009279,-0.000873,-0.0,-0.0,0.0,3.0,0.325053,0.327143,0.325053,0.327143,,,,,,,-0.005455,-0.010483,-0.002195,0.03442,0.017188,-0.003806
476269,-0.004024,-0.009402,-0.000874,-0.0,-0.0,0.0,3.0,0.320447,0.331623,0.320447,0.331623,,,,,,,-0.005227,-0.010444,-0.00209,-0.024809,-0.011587,-0.021224
476289,-0.004025,-0.009401,-0.000751,-0.0,-0.0,0.0,3.0,0.316399,0.335425,0.316399,0.335425,,,,,,,-0.005226,-0.01032,-0.001966,-0.024838,-0.032801,-0.02135
476309,-0.004026,-0.009279,-0.000629,-0.0,-0.0,0.0,3.0,0.318076,0.333865,0.318076,0.333865,,,,,,,-0.005312,-0.009986,-0.001986,-0.011494,-0.067267,0.003572
476329,-0.004026,-0.009157,-0.000629,-0.0,-0.0,0.0,3.0,0.319123,0.33288,0.319123,0.33288,,,,,,,-0.005139,-0.010005,-0.001986,-0.038328,-0.042204,0.003635
476349,-0.004026,-0.009035,-0.000629,-0.0,-0.0,0.0,3.0,0.321354,0.330754,0.321354,0.330754,,,,,,,-0.005177,-0.010024,-0.001987,-0.030603,-0.017206,0.003672
476369,-0.004026,-0.009035,-0.000629,-0.0,-0.0,0.0,3.0,0.327762,0.324427,0.327762,0.324427,,,,,,,-0.005491,-0.010063,-0.002093,0.021042,-0.009386,0.021161
476389,-0.003904,-0.009035,-0.000628,-0.0,-0.0,0.0,3.0,0.327334,0.32486,0.327334,0.32486,,,,,,,-0.005613,-0.010292,-0.002094,0.0631,0.028903,0.021407
476409,-0.004269,-0.008913,-0.000752,-0.0,-0.0,0.0,3.0,0.327764,0.324425,0.327764,0.324425,,,,,,,-0.005596,-0.010502,-0.002095,-0.003521,0.084242,0.000248
476429,-0.004147,-0.008913,-0.000751,-0.0,-0.0,0.0,3.0,0.326702,0.325497,0.326702,0.325497,,,,,,,-0.005508,-0.010361,-0.002093,0.003612,0.059356,9.1e-05
476449,-0.004025,-0.009279,-0.000751,-0.0,-0.0,0.0,3.0,0.328667,0.323506,0.328667,0.323506,,,,,,,-0.005368,-0.010362,-0.002074,-0.000233,-0.003641,-0.003898
476469,-0.004025,-0.009157,-0.000751,-0.0,-0.0,0.0,3.0,0.328942,0.323224,0.328942,0.323224,,,,,,,-0.005349,-0.01034,-0.002074,-0.003878,0.013135,-0.003881
476489,-0.003781,-0.009279,-0.00075,-0.0,-0.0,0.0,3.0,0.322834,0.329322,0.322834,0.329322,,,,,,,-0.005226,-0.010199,-0.001968,0.017128,-0.0327,-0.021118
476509,-0.003781,-0.009401,-0.00075,-0.0,-0.0,0.0,3.0,0.31707,0.334803,0.31707,0.334803,,,,,,,-0.005105,-0.010111,-0.001863,-0.003618,-0.067126,-0.038496
476529,-0.003781,-0.009401,-0.000628,-0.0,-0.0,0.0,3.0,0.315031,0.336681,0.315031,0.336681,,,,,,,-0.005019,-0.010128,-0.001862,-0.017142,-0.063259,-0.017502
476549,-0.003904,-0.009157,-0.000506,-0.0,-0.0,0.0,3.0,0.315705,0.336064,0.315705,0.336064,,,,,,,-0.00502,-0.010127,-0.001863,-0.038247,-0.021229,0.003591
476569,-0.003661,-0.009401,-0.000383,-0.0,-0.0,0.0,3.0,0.318723,0.333257,0.318723,0.333257,,,,,,,-0.005105,-0.010413,-0.001865,0.016909,-0.012962,0.024922
476589,-0.003783,-0.009156,-0.000384,-0.0,-0.0,0.0,3.0,0.322208,0.329931,0.322208,0.329931,,,,,,,-0.005211,-0.01041,-0.001867,0.013411,0.028715,0.025068
476609,-0.003904,-0.009279,-0.000506,-0.0,-0.0,0.0,3.0,0.330964,0.321136,0.330964,0.321136,,,,,,,-0.005018,-0.010642,-0.001972,-0.038305,0.04622,0.02108
476629,-0.003904,-0.009279,-0.000629,-0.0,-0.0,0.0,3.0,0.329979,0.322158,0.329979,0.322158,,,,,,,-0.00516,-0.010745,-0.001972,-0.01337,0.063241,9.6e-05
476649,-0.003659,-0.009279,-0.000627,-0.0,-0.0,0.0,3.0,0.328754,0.323417,0.328754,0.323417,,,,,,,-0.005141,-0.010604,-0.001951,0.024735,0.038249,-0.003704
476669,-0.003781,-0.009401,-0.000628,-0.0,-0.0,0.0,3.0,0.326798,0.3254,0.326798,0.3254,,,,,,,-0.005248,-0.010481,-0.001951,0.021283,-0.003877,-0.003751
476689,-0.003781,-0.009645,-0.000629,-0.0,-0.0,0.0,3.0,0.320509,0.331564,0.320509,0.331564,,,,,,,-0.005143,-0.010461,-0.001846,0.003884,-0.049763,-0.021162
476709,-0.003659,-0.009645,-0.000628,-0.0,-0.0,0.0,3.0,0.319033,0.332965,0.319033,0.332965,,,,,,,-0.005107,-0.010459,-0.001864,0.017133,-0.049923,-0.01723
476729,-0.00366,-0.009767,-0.000506,-0.0,-0.0,0.0,3.0,0.318448,0.333516,0.318448,0.333516,,,,,,,-0.004965,-0.010495,-0.001864,-0.007757,-0.063085,0.003605
476749,-0.00366,-0.009645,-0.000506,-0.0,-0.0,0.0,3.0,0.325703,0.326497,0.325703,0.326497,,,,,,,-0.004755,-0.010512,-0.001968,-0.042256,-0.038285,0.020865
476769,-0.00366,-0.009889,-0.000506,-0.0,-0.0,0.0,3.0,0.32531,0.326888,0.32531,0.326888,,,,,,,-0.004773,-0.010778,-0.001969,-0.038366,-0.034088,0.020861
476789,-0.003538,-0.009889,-0.000506,-0.0,-0.0,0.0,3.0,0.325324,0.326874,0.325324,0.326874,,,,,,,-0.004896,-0.011022,-0.00197,0.003722,0.007866,0.021142
476809,-0.003537,-0.010133,-0.000628,-0.0,-0.0,0.0,3.0,0.327866,0.324321,0.327866,0.324321,,,,,,,-0.00502,-0.011375,-0.001972,0.025059,0.0252,0.000259
476829,-0.003781,-0.010378,-0.00063,-0.0,-0.0,0.0,3.0,0.326995,0.325202,0.326995,0.325202,,,,,,,-0.005162,-0.011704,-0.001972,0.007962,0.038614,6.6e-05
476849,-0.003903,-0.010866,-0.000632,-0.0,-0.0,0.0,3.0,0.324935,0.32726,0.324935,0.32726,,,,,,,-0.005389,-0.012054,-0.001974,0.025029,0.013843,0.000163
476869,-0.004025,-0.01111,-0.000633,-0.0,-0.0,0.0,3.0,0.324867,0.327327,0.324867,0.327327,,,,,,,-0.005474,-0.012191,-0.001974,0.017279,-0.003693,8.8e-05
476889,-0.003903,-0.011354,-0.000633,-0.0,-0.0,0.0,3.0,0.324871,0.327323,0.324871,0.327323,,,,,,,-0.005331,-0.012313,-0.001974,0.013176,-0.024797,2.6e-05
476909,-0.003903,-0.011476,-0.000633,-0.0,-0.0,0.0,3.0,0.324865,0.327329,0.324865,0.327329,,,,,,,-0.005085,-0.012309,-0.001972,-0.02887,-0.04593,-0.000251
476929,-0.003537,-0.011476,-0.000631,-0.0,-0.0,0.0,3.0,0.324797,0.327396,0.324797,0.327396,,,,,,,-0.004752,-0.012326,-0.001971,-0.02147,-0.042122,-0.000195
476949,-0.003293,-0.011476,-0.000507,-0.0,-0.0,0.0,3.0,0.318159,0.333788,0.318159,0.333788,,,,,,,-0.004404,-0.012449,-0.001864,-0.038532,-0.020987,0.003478
476969,-0.003049,-0.011354,-0.000506,-0.0,-0.0,0.0,3.0,0.31981,0.33223,0.31981,0.33223,,,,,,,-0.004426,-0.012381,-0.001865,0.007495,-0.00954,0.003919
476989,-0.002928,-0.011598,-0.000383,-0.0,-0.0,0.0,3.0,0.321772,0.330352,0.321772,0.330352,,,,,,,-0.004532,-0.012733,-0.001866,0.045846,0.008121,0.025098
477009,-0.003294,-0.011476,-0.000385,-0.0,-0.0,0.0,3.0,0.327216,0.324979,0.327216,0.324979,,,,,,,-0.004866,-0.01296,-0.001852,0.038609,0.067069,0.021402
477029,-0.003537,-0.011842,-0.000509,-0.0,-0.0,0.0,3.0,0.329979,0.322158,0.329979,0.322158,,,,,,,-0.005024,-0.013171,-0.001834,0.025151,0.038626,-0.003537
477049,-0.003903,-0.011964,-0.000512,-0.0,-0.0,0.0,3.0,0.329294,0.322864,0.329294,0.322864,,,,,,,-0.005232,-0.013254,-0.001835,-0.003617,0.030643,-0.003852
477069,-0.003904,-0.01233,-0.00039,-0.0,-0.0,0.0,3.0,0.324716,0.327477,0.324716,0.327477,,,,,,,-0.005333,-0.013271,-0.001712,0.013377,-0.02854,-0.003974
477089,-0.003905,-0.012452,-0.000269,-0.0,-0.0,0.0,3.0,0.313543,0.338033,0.313543,0.338033,,,,,,,-0.005315,-0.013163,-0.001503,0.009647,-0.067132,-0.017427
477109,-0.003661,-0.012574,-0.000145,-0.0,-0.0,0.0,3.0,0.319486,0.332537,0.319486,0.332537,,,,,,,-0.004773,-0.013389,-0.001483,-0.038611,-0.049714,-0.000412
477129,-0.003417,-0.012452,-0.000143,-0.0,-0.0,0.0,3.0,0.319022,0.332976,0.319022,0.332976,,,,,,,-0.004548,-0.0133,-0.001501,-0.034718,-0.042221,0.003606
477149,-0.00293,-0.012574,-1.8e-05,-0.0,-0.0,0.0,3.0,0.318549,0.333421,0.318549,0.333421,,,,,,,-0.004513,-0.013585,-0.001501,0.04162,-0.013058,0.025107
477169,-0.00293,-0.012574,-1.8e-05,-0.0,-0.0,0.0,3.0,0.323818,0.328361,0.323818,0.328361,,,,,,,-0.004393,-0.01383,-0.001483,0.021043,0.028965,0.021287
477189,-0.003174,-0.012818,-2e-05,-0.0,-0.0,0.0,3.0,0.32221,0.329928,0.32221,0.329928,,,,,,,-0.004555,-0.014058,-0.001362,0.007974,0.025216,6.8e-05
477209,-0.003418,-0.013062,-2.2e-05,-0.0,-0.0,0.0,3.0,0.327296,0.324898,0.327296,0.324898,,,,,,,-0.004887,-0.014427,-0.001346,0.021327,0.046239,-0.003668
477229,-0.003784,-0.013306,-2.5e-05,-0.0,-0.0,0.0,3.0,0.321597,0.33052,0.321597,0.33052,,,,,,,-0.005236,-0.014616,-0.001244,0.017732,0.034561,-0.020949
477249,-0.004151,-0.013794,9.3e-05,-0.0,-0.0,0.0,3.0,0.321753,0.33037,0.321753,0.33037,,,,,,,-0.005338,-0.014718,-0.001245,-0.028556,-0.032263,-0.000393
477269,-0.004151,-0.014038,9.3e-05,-0.0,-0.0,0.0,3.0,0.320649,0.331431,0.320649,0.331431,,,,,,,-0.005353,-0.01496,-0.001246,-0.025047,-0.032458,-0.000193
477289,-0.004029,-0.014283,9.3e-05,-0.0,-0.0,0.0,3.0,0.322693,0.32946,0.322693,0.32946,,,,,,,-0.005315,-0.014975,-0.001246,-0.01166,-0.070733,-0.000221
477309,-0.003908,-0.014526,0.000216,-0.0,-0.0,0.0,3.0,0.315953,0.335836,0.315953,0.335836,,,,,,,-0.004878,-0.015237,-0.001139,-0.063388,-0.066778,0.003153
477329,-0.003664,-0.014404,0.000218,-0.0,-0.0,0.0,3.0,0.319645,0.332386,0.319645,0.332386,,,,,,,-0.004708,-0.015272,-0.001139,-0.048103,-0.038345,0.003433
477349,-0.003176,-0.014649,0.000221,-0.0,-0.0,0.0,3.0,0.321911,0.330217,0.321911,0.330217,,,,,,,-0.00455,-0.015537,-0.00112,0.007269,-0.034069,-0.0
477369,-0.003176,-0.014649,0.000221,-0.0,-0.0,0.0,3.0,0.328413,0.323765,0.328413,0.323765,,,,,,,-0.004658,-0.015905,-0.001226,0.024897,0.028981,0.017475
477389,-0.003298,-0.014527,0.00022,-0.0,-0.0,0.0,3.0,0.32601,0.32619,0.32601,0.32619,,,,,,,-0.004763,-0.015905,-0.001245,0.021112,0.049841,0.021299
477409,-0.003542,-0.014649,0.000218,-0.0,-0.0,0.0,3.0,0.319604,0.332425,0.319604,0.332425,,,,,,,-0.004991,-0.016011,-0.001142,0.017459,0.046166,0.004028
477429,-0.003908,-0.014771,0.000215,-0.0,-0.0,0.0,3.0,0.322078,0.330057,0.322078,0.330057,,,,,,,-0.00513,-0.016116,-0.001125,-0.020727,0.042227,-7.3e-05
477449,-0.00403,-0.014649,0.000215,-0.0,-0.0,0.0,3.0,0.326416,0.325784,0.326416,0.325784,,,,,,,-0.005251,-0.015972,-0.001108,-0.020964,0.038109,-0.003968
477469,-0.003786,-0.014893,0.000216,-0.0,-0.0,0.0,3.0,0.32676,0.325439,0.32676,0.325439,,,,,,,-0.00525,-0.015937,-0.001108,0.020864,-0.011458,-0.003757
477489,-0.003908,-0.014893,0.000215,-0.0,-0.0,0.0,3.0,0.318462,0.333503,0.318462,0.333503,,,,,,,-0.005357,-0.01583,-0.001003,0.017527,-0.028956,-0.021015
477509,-0.003786,-0.014893,0.000216,-0.0,-0.0,0.0,3.0,0.318713,0.333267,0.318713,0.333267,,,,,,,-0.005146,-0.015706,-0.001001,0.003854,-0.049959,-0.021128
477529,-0.003787,-0.015137,0.000338,-0.0,-0.0,0.0,3.0,0.316346,0.335473,0.316346,0.335473,,,,,,,-0.00513,-0.015847,-0.00102,-8.4e-05,-0.066811,0.00363
477549,-0.003787,-0.015015,0.000338,-0.0,-0.0,0.0,3.0,0.317178,0.334702,0.317178,0.334702,,,,,,,-0.005111,-0.015777,-0.00102,-0.003927,-0.055639,0.003756
477569,-0.003787,-0.015137,0.000338,-0.0,-0.0,0.0,3.0,0.323421,0.32875,0.323421,0.32875,,,,,,,-0.004881,-0.01613,-0.001124,-0.042326,-0.016961,0.020784
477589,-0.003665,-0.015259,0.000338,-0.0,-0.0,0.0,3.0,0.325031,0.327165,0.325031,0.327165,,,,,,,-0.004901,-0.016393,-0.001125,-0.017507,0.008,0.020943
477609,-0.00342,-0.015625,0.000217,-0.0,-0.0,0.0,3.0,0.325544,0.326655,0.325544,0.326655,,,,,,,-0.005006,-0.016848,-0.001127,0.042017,0.021549,0.000453
477629,-0.003542,-0.015991,0.000216,-0.0,-0.0,0.0,3.0,0.320234,0.331827,0.320234,0.331827,,,,,,,-0.005026,-0.017214,-0.001003,0.025346,0.021437,-0.020893
477649,-0.003542,-0.01648,0.000215,-0.0,-0.0,0.0,3.0,0.320946,0.331146,0.320946,0.331146,,,,,,,-0.005046,-0.017686,-0.001005,0.028918,0.017657,-0.020839
477669,-0.003543,-0.01709,0.000336,-0.0,-0.0,0.0,3.0,0.320719,0.331364,0.320719,0.331364,,,,,,,-0.005115,-0.018156,-0.001006,0.038203,-0.007122,0.00018
477689,-0.003665,-0.017456,0.000334,-0.0,-0.0,0.0,3.0,0.319693,0.332341,0.319693,0.332341,,,,,,,-0.0052,-0.018397,-0.001007,0.030645,-0.028539,0.000261
477709,-0.003786,-0.017822,0.00021,-0.0,-0.0,0.0,3.0,0.326129,0.326072,0.326129,0.326072,,,,,,,-0.004951,-0.018744,-0.001111,-0.032612,-0.032303,-0.004031
477729,-0.003786,-0.018189,0.00021,-0.0,-0.0,0.0,3.0,0.322429,0.329716,0.322429,0.329716,,,,,,,-0.004741,-0.018882,-0.001127,-0.067211,-0.070565,-0.000731
477749,-0.003542,-0.018433,0.000212,-0.0,-0.0,0.0,3.0,0.321963,0.330167,0.321963,0.330167,,,,,,,-0.004654,-0.019143,-0.001127,-0.038522,-0.066786,-0.000466
477769,-0.003664,-0.018555,0.00021,-0.0,-0.0,0.0,3.0,0.321956,0.330174,0.321956,0.330174,,,,,,,-0.004779,-0.019424,-0.001128,-0.038068,-0.038038,-0.000419
477789,-0.003665,-0.018555,0.000332,-0.0,-0.0,0.0,3.0,0.321556,0.33056,0.321556,0.33056,,,,,,,-0.005062,-0.019564,-0.001131,0.011472,-0.013217,0.02106
477809,-0.003664,-0.018921,0.00021,-0.0,-0.0,0.0,3.0,0.329245,0.322914,0.329245,0.322914,,,,,,,-0.00527,-0.020076,-0.00124,0.045937,0.012096,0.017837
477829,-0.003663,-0.019165,8.7e-05,-0.0,-0.0,0.0,3.0,0.326235,0.325965,0.326235,0.325965,,,,,,,-0.005375,-0.020529,-0.001259,0.063289,0.046312,0.000784
477849,-0.003785,-0.019654,8.5e-05,-0.0,-0.0,0.0,3.0,0.324852,0.327342,0.324852,0.327342,,,,,,,-0.005252,-0.021088,-0.001258,0.021166,0.056043,0.000269
477869,-0.003663,-0.020142,8.5e-05,-0.0,-0.0,0.0,3.0,0.326752,0.325447,0.326752,0.325447,,,,,,,-0.00511,-0.021311,-0.001239,0.017049,0.009911,-0.003699
477889,-0.003541,-0.020752,8.5e-05,-0.0,-0.0,0.0,3.0,0.32479,0.327403,0.32479,0.327403,,,,,,,-0.00476,-0.021677,-0.001235,-0.02132,-0.032135,-0.004119
477909,-0.003541,-0.021118,8.5e-05,-0.0,-0.0,0.0,3.0,0.318453,0.333512,0.318453,0.333512,,,,,,,-0.004743,-0.021917,-0.001131,-0.024727,-0.053464,-0.021439
477929,-0.003297,-0.021485,8.7e-05,-0.0,-0.0,0.0,3.0,0.316909,0.334952,0.316909,0.334952,,,,,,,-0.004724,-0.022178,-0.00115,0.013335,-0.070627,-0.017195
477949,-0.003419,-0.021974,8.5e-05,-0.0,-0.0,0.0,3.0,0.322963,0.329197,0.322963,0.329197,,,,,,,-0.004743,-0.022686,-0.001256,-0.003698,-0.066754,-0.000125
477969,-0.003541,-0.02234,8.3e-05,-0.0,-0.0,0.0,3.0,0.320307,0.331757,0.320307,0.331757,,,,,,,-0.004675,-0.023317,-0.001274,-0.034366,-0.020528,0.003424
477989,-0.003541,-0.022707,8.2e-05,-0.0,-0.0,0.0,3.0,0.326284,0.325916,0.326284,0.325916,,,,,,,-0.004797,-0.023701,-0.001381,-0.013635,-0.016706,0.020909
478009,-0.003419,-0.023317,8.2e-05,-0.0,-0.0,0.0,3.0,0.321696,0.330425,0.321696,0.330425,,,,,,,-0.004988,-0.024314,-0.001261,0.038283,-0.016528,0.000391
478029,-0.003419,-0.023683,8.2e-05,-0.0,-0.0,0.0,3.0,0.322318,0.329824,0.322318,0.329824,,,,,,,-0.004902,-0.024748,-0.001261,0.00366,-0.007225,3e-05
478049,-0.003419,-0.023927,8.1e-05,-0.0,-0.0,0.0,3.0,0.324414,0.327775,0.324414,0.327775,,,,,,,-0.004675,-0.025131,-0.001259,-0.013422,0.017506,-0.000179
478069,-0.003175,-0.024294,8.4e-05,-0.0,-0.0,0.0,3.0,0.32244,0.329706,0.32244,0.329706,,,,,,,-0.004534,-0.025517,-0.001258,0.003553,0.021431,7.6e-05
478089,-0.003175,-0.024538,8.3e-05,-0.0,-0.0,0.0,3.0,0.328612,0.323562,0.328612,0.323562,,,,,,,-0.004621,-0.025723,-0.001364,0.017028,0.013619,0.017481
478109,-0.003175,-0.024904,8.3e-05,-0.0,-0.0,0.0,3.0,0.321888,0.33024,0.321888,0.33024,,,,,,,-0.004517,-0.025949,-0.001258,-2.5e-05,-0.011268,-4.4e-05
478129,-0.003297,-0.025148,8.1e-05,-0.0,-0.0,0.0,3.0,0.324399,0.327789,0.324399,0.327789,,,,,,,-0.004641,-0.026087,-0.001241,0.000157,-0.028601,-0.003888
478149,-0.003421,-0.02527,0.000201,-0.0,-0.0,0.0,3.0,0.318116,0.333827,0.318116,0.333827,,,,,,,-0.004851,-0.025999,-0.001139,0.013504,-0.063208,-5e-05
478169,-0.003543,-0.025392,0.000199,-0.0,-0.0,0.0,3.0,0.31543,0.336316,0.31543,0.336316,,,,,,,-0.004746,-0.026225,-0.001034,-0.024625,-0.045892,-0.017639
478189,-0.003545,-0.025514,0.000321,-0.0,-0.0,0.0,3.0,0.315642,0.336122,0.315642,0.336122,,,,,,,-0.004659,-0.026469,-0.001034,-0.038395,-0.024701,0.003227
478209,-0.003424,-0.025514,0.000445,-0.0,-0.0,0.0,3.0,0.316411,0.335413,0.316411,0.335413,,,,,,,-0.004641,-0.0264,-0.001034,-0.021557,-0.034313,0.024542
478229,-0.003058,-0.025636,0.000449,-0.0,-0.0,0.0,3.0,0.32166,0.33046,0.32166,0.33046,,,,,,,-0.004517,-0.026647,-0.001016,0.02055,-0.013114,0.02136
478249,-0.002934,-0.02588,0.000328,-0.0,-0.0,0.0,3.0,0.326698,0.325501,0.326698,0.325501,,,,,,,-0.004396,-0.02712,-0.001139,0.020772,0.025337,0.021533
478269,-0.003055,-0.02588,0.000205,-0.0,-0.0,0.0,3.0,0.327347,0.324847,0.327347,0.324847,,,,,,,-0.00454,-0.027242,-0.001121,0.025157,0.046014,-0.003359
478289,-0.003177,-0.02649,0.000202,-0.0,-0.0,0.0,3.0,0.326477,0.325723,0.326477,0.325723,,,,,,,-0.004662,-0.027698,-0.001123,0.025107,0.017777,-0.00353
478309,-0.003545,-0.026734,0.000319,-0.0,-0.0,0.0,3.0,0.322118,0.330018,0.322118,0.330018,,,,,,,-0.004978,-0.028025,-0.001004,0.013714,0.030771,-0.003761
478329,-0.003667,-0.0271,0.000317,-0.0,-0.0,0.0,3.0,0.317576,0.334332,0.317576,0.334332,,,,,,,-0.00508,-0.028023,-0.000901,0.00987,-0.032462,-0.021018
478349,-0.003911,-0.027467,0.000313,-0.0,-0.0,0.0,3.0,0.318086,0.333856,0.318086,0.333856,,,,,,,-0.005097,-0.028161,-0.000902,-0.028341,-0.0707,-0.021589
478369,-0.003789,-0.027711,0.000314,-0.0,-0.0,0.0,3.0,0.315743,0.336029,0.315743,0.336029,,,,,,,-0.004762,-0.028404,-0.000916,-0.063197,-0.070741,-0.018222
478389,-0.003545,-0.027955,0.000317,-0.0,-0.0,0.0,3.0,0.321813,0.330312,0.321813,0.330312,,,,,,,-0.004762,-0.028666,-0.001022,-0.021282,-0.066785,-0.000386
478409,-0.003301,-0.027955,0.00032,-0.0,-0.0,0.0,3.0,0.321169,0.330932,0.321169,0.330932,,,,,,,-0.004658,-0.028805,-0.00102,0.003736,-0.042088,-1.8e-05
478429,-0.003303,-0.028199,0.000442,-0.0,-0.0,0.0,3.0,0.320717,0.331365,0.320717,0.331365,,,,,,,-0.004574,-0.029211,-0.00102,-0.009756,-0.01295,0.020826
478449,-0.003303,-0.028321,0.000442,-0.0,-0.0,0.0,3.0,0.321972,0.330158,0.321972,0.330158,,,,,,,-0.004803,-0.029579,-0.001025,0.028541,0.029067,0.021572
478469,-0.003423,-0.028809,0.000317,-0.0,-0.0,0.0,3.0,0.322559,0.32959,0.322559,0.32959,,,,,,,-0.005012,-0.030052,-0.001028,0.042342,0.02547,0.00079
478489,-0.003665,-0.029176,0.000191,-0.0,-0.0,0.0,3.0,0.328189,0.323993,0.328189,0.323993,,,,,,,-0.005114,-0.030504,-0.001154,0.017506,0.038666,0.000391
478509,-0.003908,-0.02942,6.5e-05,-0.0,-0.0,0.0,3.0,0.324687,0.327505,0.324687,0.327505,,,,,,,-0.005131,-0.030747,-0.001153,-0.020621,0.038448,-0.021264
478529,-0.003786,-0.029786,6.6e-05,-0.0,-0.0,0.0,3.0,0.323241,0.328926,0.323241,0.328926,,,,,,,-0.005234,-0.03085,-0.001135,0.017474,-0.007502,-0.024715
478549,-0.003665,-0.030152,0.000189,-0.0,-0.0,0.0,3.0,0.322805,0.329351,0.322805,0.329351,,,,,,,-0.005111,-0.031075,-0.001134,0.017208,-0.032381,-0.003777
478569,-0.003787,-0.030152,0.000187,-0.0,-0.0,0.0,3.0,0.317578,0.334331,0.317578,0.334331,,,,,,,-0.005009,-0.031089,-0.001028,-0.020678,-0.028871,-0.021459
478589,-0.003665,-0.030396,0.000189,-0.0,-0.0,0.0,3.0,0.313899,0.337711,0.313899,0.337711,,,,,,,-0.005009,-0.031107,-0.001046,7.3e-05,-0.066914,-0.0173
478609,-0.003664,-0.030519,6.6e-05,-0.0,-0.0,0.0,3.0,0.318327,0.333629,0.318327,0.333629,,,,,,,-0.004989,-0.031351,-0.00117,-0.003631,-0.045847,-0.017206
478629,-0.003787,-0.030518,0.000186,-0.0,-0.0,0.0,3.0,0.32037,0.331696,0.32037,0.331696,,,,,,,-0.005091,-0.03151,-0.001295,-0.007904,-0.017095,0.024699
478649,-0.00391,-0.030762,0.000184,-0.0,-0.0,0.0,3.0,0.322537,0.329612,0.322537,0.329612,,,,,,,-0.005109,-0.031738,-0.001277,-0.025088,-0.020694,0.020693
478669,-0.00403,-0.031009,6e-05,-0.0,-0.0,0.0,3.0,0.323145,0.32902,0.323145,0.32902,,,,,,,-0.00525,-0.032144,-0.00128,-0.0209,0.008073,-0.000175
478689,-0.00403,-0.031253,5.9e-05,-0.0,-0.0,0.0,3.0,0.321953,0.330177,0.321953,0.330177,,,,,,,-0.005286,-0.03237,-0.00128,-0.013327,0.004158,-0.0002
478709,-0.004028,-0.031375,-6.3e-05,-0.0,-0.0,0.0,3.0,0.320326,0.331739,0.320326,0.331739,,,,,,,-0.005409,-0.032719,-0.001302,0.008023,0.042329,-0.016932
478729,-0.003906,-0.031619,-6.2e-05,-0.0,-0.0,0.0,3.0,0.325364,0.326834,0.325364,0.326834,,,,,,,-0.005494,-0.032841,-0.001407,0.042051,0.021295,0.000687
478749,-0.003906,-0.031741,-6.2e-05,-0.0,-0.0,0.0,3.0,0.328825,0.323344,0.328825,0.323344,,,,,,,-0.00537,-0.032963,-0.00151,0.020708,0.021197,0.017625
478769,-0.003906,-0.031741,-6.2e-05,-0.0,-0.0,0.0,3.0,0.324121,0.328063,0.324121,0.328063,,,,,,,-0.005354,-0.032925,-0.001386,0.017179,0.01327,-0.00357
478789,-0.003784,-0.031863,-6e-05,-0.0,-0.0,0.0,3.0,0.318511,0.333457,0.318511,0.333457,,,,,,,-0.005213,-0.032906,-0.001279,0.01355,-0.011576,-0.020904
478809,-0.00415,-0.031741,-6.6e-05,-0.0,-0.0,0.0,3.0,0.319074,0.332927,0.319074,0.332927,,,,,,,-0.005214,-0.032572,-0.001278,-0.049203,-0.046247,-0.021943
478829,-0.00415,-0.031619,-6.6e-05,-0.0,-0.0,0.0,3.0,0.314511,0.337155,0.314511,0.337155,,,,,,,-0.005039,-0.032449,-0.001293,-0.076415,-0.046088,-0.018477
478849,-0.00415,-0.031375,-6.5e-05,-0.0,-0.0,0.0,3.0,0.318587,0.333385,0.318587,0.333385,,,,,,,-0.005265,-0.032259,-0.00142,-0.038327,-0.034638,0.003248
478869,-0.003908,-0.031253,6.1e-05,-0.0,-0.0,0.0,3.0,0.323756,0.328421,0.323756,0.328421,,,,,,,-0.005471,-0.032157,-0.001528,0.03759,-0.030566,0.042658
478889,-0.004028,-0.030885,-6.2e-05,-0.0,-0.0,0.0,3.0,0.326709,0.32549,0.326709,0.32549,,,,,,,-0.005387,-0.032282,-0.001528,0.003754,0.053866,0.021376
478909,-0.004028,-0.030885,-6.2e-05,-0.0,-0.0,0.0,3.0,0.323825,0.328355,0.323825,0.328355,,,,,,,-0.005531,-0.032371,-0.001407,0.02885,0.067455,0.000517
478929,-0.003906,-0.031009,-6.1e-05,-0.0,-0.0,0.0,3.0,0.32889,0.323278,0.32889,0.323278,,,,,,,-0.005599,-0.032458,-0.00139,0.059324,0.059475,-0.002892
478949,-0.003906,-0.031131,-6.1e-05,-0.0,-0.0,0.0,3.0,0.327204,0.324991,0.327204,0.324991,,,,,,,-0.005476,-0.03244,-0.001388,0.038303,0.034408,-0.003225
478969,-0.004028,-0.031375,-6.3e-05,-0.0,-0.0,0.0,3.0,0.325024,0.327172,0.325024,0.327172,,,,,,,-0.005354,-0.032296,-0.001385,-0.003822,-0.032645,-0.00397
478989,-0.003906,-0.031375,-6.1e-05,-0.0,-0.0,0.0,3.0,0.318631,0.333344,0.318631,0.333344,,,,,,,-0.005194,-0.032312,-0.001277,-0.011453,-0.028983,-0.021332
479009,-0.003908,-0.031253,6.1e-05,-0.0,-0.0,0.0,3.0,0.318682,0.333296,0.318682,0.333296,,,,,,,-0.005194,-0.031959,-0.001277,-0.011564,-0.067635,-0.000393
479029,-0.00403,-0.031253,5.9e-05,-0.0,-0.0,0.0,3.0,0.315407,0.336337,0.315407,0.336337,,,,,,,-0.005005,-0.032102,-0.001171,-0.062871,-0.042171,-0.018313
479049,-0.00391,-0.031008,0.000184,-0.0,-0.0,0.0,3.0,0.315521,0.336233,0.315521,0.336233,,,,,,,-0.005059,-0.031996,-0.001171,-0.030718,-0.017615,0.003256
479069,-0.00391,-0.030762,0.000184,-0.0,-0.0,0.0,3.0,0.323079,0.329084,0.323079,0.329084,,,,,,,-0.005163,-0.031911,-0.001279,-0.013615,0.011573,0.020956
479089,-0.003908,-0.030763,6.2e-05,-0.0,-0.0,0.0,3.0,0.323122,0.329042,0.323122,0.329042,,,,,,,-0.00541,-0.031914,-0.001282,0.028887,0.011727,0.000602
479109,-0.003786,-0.030763,6.4e-05,-0.0,-0.0,0.0,3.0,0.322168,0.32997,0.322168,0.32997,,,,,,,-0.005496,-0.032144,-0.001283,0.063195,0.050257,0.001074
479129,-0.003908,-0.030763,6.2e-05,-0.0,-0.0,0.0,3.0,0.322222,0.329917,0.322222,0.329917,,,,,,,-0.00546,-0.032126,-0.001283,0.034604,0.04632,0.000625
479149,-0.003786,-0.031009,6.3e-05,-0.0,-0.0,0.0,3.0,0.324048,0.328135,0.324048,0.328135,,,,,,,-0.005022,-0.032441,-0.001277,-0.017447,0.055734,-0.000216
479169,-0.003786,-0.031131,6.3e-05,-0.0,-0.0,0.0,3.0,0.324268,0.327919,0.324268,0.327919,,,,,,,-0.005024,-0.032438,-0.001277,-0.017308,0.034512,-0.000255
479189,-0.003542,-0.031375,6.7e-05,-0.0,-0.0,0.0,3.0,0.32628,0.325921,0.32628,0.325921,,,,,,,-0.004987,-0.032419,-0.001258,0.017056,-0.011458,-0.003645
479209,-0.003664,-0.031375,6.5e-05,-0.0,-0.0,0.0,3.0,0.3244,0.327789,0.3244,0.327789,,,,,,,-0.004988,-0.032312,-0.001257,-0.003601,-0.028914,-0.003954
479229,-0.003786,-0.031375,6.3e-05,-0.0,-0.0,0.0,3.0,0.318138,0.333807,0.318138,0.333807,,,,,,,-0.005113,-0.032207,-0.001154,-0.00345,-0.046113,-0.021239
479249,-0.003666,-0.031375,0.000187,-0.0,-0.0,0.0,3.0,0.311735,0.339653,0.311735,0.339653,,,,,,,-0.005113,-0.032101,-0.001049,0.017344,-0.063276,-0.017186
479269,-0.00391,-0.031253,0.000183,-0.0,-0.0,0.0,3.0,0.31991,0.332135,0.31991,0.332135,,,,,,,-0.005198,-0.032102,-0.001156,-0.011284,-0.042242,-0.000184
479289,-0.004032,-0.031253,0.000181,-0.0,-0.0,0.0,3.0,0.319226,0.332783,0.319226,0.332783,,,,,,,-0.0049,-0.032244,-0.001171,-0.080433,-0.017073,0.002557
479309,-0.00391,-0.031131,0.000183,-0.0,-0.0,0.0,3.0,0.325321,0.326877,0.325321,0.326877,,,,,,,-0.00504,-0.032262,-0.001278,-0.034865,0.007739,0.02057
479329,-0.003542,-0.031375,6.7e-05,-0.0,-0.0,0.0,3.0,0.325251,0.326946,0.325251,0.326946,,,,,,,-0.005145,-0.03251,-0.00128,0.045768,0.008041,0.000819
479349,-0.003664,-0.031253,6.5e-05,-0.0,-0.0,0.0,3.0,0.324225,0.327961,0.324225,0.327961,,,,,,,-0.005148,-0.032632,-0.001279,0.025128,0.049776,0.00044
479369,-0.003664,-0.031375,6.5e-05,-0.0,-0.0,0.0,3.0,0.322047,0.330086,0.322047,0.330086,,,,,,,-0.005166,-0.032843,-0.001279,0.028786,0.063346,0.000572
479389,-0.003664,-0.031497,6.4e-05,-0.0,-0.0,0.0,3.0,0.322114,0.330022,0.322114,0.330022,,,,,,,-0.005253,-0.032823,-0.001281,0.042089,0.038348,0.000738
479409,-0.003786,-0.031619,6.2e-05,-0.0,-0.0,0.0,3.0,0.32219,0.329948,0.32219,0.329948,,,,,,,-0.005216,-0.032909,-0.00128,0.01341,0.030601,0.000272
479429,-0.00403,-0.031619,5.8e-05,-0.0,-0.0,0.0,3.0,0.324096,0.328088,0.324096,0.328088,,,,,,,-0.005092,-0.032661,-0.001259,-0.049684,-0.011671,-0.004651
479449,-0.003908,-0.031741,6e-05,-0.0,-0.0,0.0,3.0,0.322155,0.329982,0.322155,0.329982,,,,,,,-0.004985,-0.032451,-0.001276,-0.046207,-0.067062,-0.000856
479469,-0.003908,-0.031619,6e-05,-0.0,-0.0,0.0,3.0,0.319583,0.332445,0.319583,0.332445,,,,,,,-0.004898,-0.032345,-0.001274,-0.059352,-0.063365,-0.001005
479489,-0.003786,-0.031375,6.3e-05,-0.0,-0.0,0.0,3.0,0.319425,0.332595,0.319425,0.332595,,,,,,,-0.004899,-0.032241,-0.001274,-0.038355,-0.03846,-0.000622
479509,-0.003544,-0.031131,0.000189,-0.0,-0.0,0.0,3.0,0.319185,0.332822,0.319185,0.332822,,,,,,,-0.005022,-0.032156,-0.001295,0.02446,-0.00959,0.025197
479529,-0.003542,-0.031131,6.7e-05,-0.0,-0.0,0.0,3.0,0.326773,0.325426,0.326773,0.325426,,,,,,,-0.005041,-0.032405,-0.001401,0.028551,0.032857,0.021739
479549,-0.003418,-0.031131,-5.3e-05,-0.0,-0.0,0.0,3.0,0.325717,0.326483,0.325717,0.326483,,,,,,,-0.005042,-0.03251,-0.0014,0.049753,0.04996,0.000953
479569,-0.003418,-0.031375,-5.4e-05,-0.0,-0.0,0.0,3.0,0.324809,0.327385,0.324809,0.327385,,,,,,,-0.00513,-0.032721,-0.001401,0.063191,0.042377,0.001024
479589,-0.003662,-0.031375,-5.7e-05,-0.0,-0.0,0.0,3.0,0.326895,0.325303,0.326895,0.325303,,,,,,,-0.005198,-0.032823,-0.001384,0.030841,0.059339,-0.003293
479609,-0.003664,-0.031741,6.4e-05,-0.0,-0.0,0.0,3.0,0.32236,0.329783,0.32236,0.329783,,,,,,,-0.004988,-0.03291,-0.001257,-0.003926,0.009758,-0.004047
479629,-0.003786,-0.031863,6.2e-05,-0.0,-0.0,0.0,3.0,0.324235,0.327951,0.324235,0.327951,,,,,,,-0.004989,-0.032888,-0.001258,-0.024894,-0.015429,-0.004268
479649,-0.003786,-0.031863,6.2e-05,-0.0,-0.0,0.0,3.0,0.32236,0.329783,0.32236,0.329783,,,,,,,-0.005073,-0.032677,-0.001278,-0.011596,-0.049988,-0.000277
479669,-0.003908,-0.031863,6e-05,-0.0,-0.0,0.0,3.0,0.317818,0.334106,0.317818,0.334106,,,,,,,-0.00509,-0.032571,-0.001296,-0.028715,-0.067071,0.003308
479689,-0.003906,-0.031863,-6.2e-05,-0.0,-0.0,0.0,3.0,0.323741,0.328437,0.323741,0.328437,,,,,,,-0.004934,-0.032695,-0.001399,-0.051695,-0.045923,-0.000749
479709,-0.003664,-0.031863,6.4e-05,-0.0,-0.0,0.0,3.0,0.321764,0.33036,0.321764,0.33036,,,,,,,-0.004915,-0.03275,-0.001397,-0.013874,-0.034342,0.020706
479729,-0.003542,-0.031619,6.6e-05,-0.0,-0.0,0.0,3.0,0.322967,0.329193,0.322967,0.329193,,,,,,,-0.005127,-0.032645,-0.001401,0.041839,-0.009644,0.021765
479749,-0.003418,-0.031375,-5.4e-05,-0.0,-0.0,0.0,3.0,0.323389,0.328782,0.323389,0.328782,,,,,,,-0.005004,-0.032752,-0.0014,0.042093,0.049743,0.000885
479769,-0.00354,-0.031375,-5.6e-05,-0.0,-0.0,0.0,3.0,0.322239,0.3299,0.322239,0.3299,,,,,,,-0.004796,-0.032736,-0.001396,-0.013291,0.04605,-0.000129
479789,-0.003538,-0.031375,-0.000178,-0.0,-0.0,0.0,3.0,0.326826,0.325372,0.326826,0.325372,,,,,,,-0.004776,-0.032719,-0.001519,-0.017268,0.042112,-8.8e-05
479809,-0.003538,-0.031375,-0.000178,-0.0,-0.0,0.0,3.0,0.325161,0.327035,0.325161,0.327035,,,,,,,-0.004862,-0.032614,-0.001519,-0.003866,0.024823,-6.6e-05
479829,-0.00366,-0.031497,-0.00018,-0.0,-0.0,0.0,3.0,0.327021,0.325176,0.327021,0.325176,,,,,,,-0.005003,-0.032578,-0.001503,0.000217,-0.003858,-0.003896
479849,-0.003658,-0.03162,-0.000302,-0.0,-0.0,0.0,3.0,0.325507,0.326692,0.325507,0.326692,,,,,,,-0.005002,-0.032681,-0.001502,0.000393,-0.007715,-0.024841
479869,-0.00378,-0.03162,-0.000304,-0.0,-0.0,0.0,3.0,0.318195,0.333754,0.318195,0.333754,,,,,,,-0.005232,-0.032451,-0.0014,0.018066,-0.04618,-0.042024
479889,-0.003904,-0.031619,-0.000184,-0.0,-0.0,0.0,3.0,0.313945,0.337669,0.313945,0.337669,,,,,,,-0.005249,-0.032433,-0.001418,0.000362,-0.049921,-0.017407
479909,-0.003904,-0.031375,-0.000183,-0.0,-0.0,0.0,3.0,0.321047,0.331049,0.321047,0.331049,,,,,,,-0.005228,-0.032242,-0.001523,-0.003885,-0.038539,-6.2e-05
479929,-0.003784,-0.031131,-5.9e-05,-0.0,-0.0,0.0,3.0,0.318087,0.333855,0.318087,0.333855,,,,,,,-0.005104,-0.032032,-0.001539,-0.004415,-0.030978,0.024748
479949,-0.00366,-0.030885,-0.000179,-0.0,-0.0,0.0,3.0,0.327512,0.32468,0.327512,0.32468,,,,,,,-0.004875,-0.032017,-0.001642,-0.021511,0.007659,0.020912
479969,-0.003414,-0.030641,-0.000297,-0.0,-0.0,0.0,3.0,0.326378,0.325822,0.326378,0.325822,,,,,,,-0.004667,-0.031914,-0.001638,-0.013592,0.032539,-6.6e-05
479989,-0.003168,-0.030397,-0.000415,-0.0,-0.0,0.0,3.0,0.325816,0.326384,0.325816,0.326384,,,,,,,-0.004774,-0.03188,-0.001639,0.046162,0.066855,-0.020215
480009,-0.003168,-0.030519,-0.000415,-0.0,-0.0,0.0,3.0,0.322565,0.329584,0.322565,0.329584,,,,,,,-0.004671,-0.031986,-0.001636,0.029119,0.063339,-0.020568
480029,-0.003414,-0.030885,-0.000297,-0.0,-0.0,0.0,3.0,0.321252,0.330852,0.321252,0.330852,,,,,,,-0.004825,-0.031823,-0.001638,-0.011392,-0.049876,-0.000214
480049,-0.00366,-0.031131,-0.000179,-0.0,-0.0,0.0,3.0,0.325126,0.32707,0.325126,0.32707,,,,,,,-0.00509,-0.032089,-0.001625,0.013275,-0.02485,0.017304
480069,-0.003904,-0.031375,-0.000183,-0.0,-0.0,0.0,3.0,0.320363,0.331704,0.320363,0.331704,,,,,,,-0.005298,-0.032192,-0.001524,0.005907,-0.049803,1.8e-05
480089,-0.004148,-0.031497,-0.000188,-0.0,-0.0,0.0,3.0,0.316616,0.335224,0.316616,0.335224,,,,,,,-0.005192,-0.032312,-0.001418,-0.053263,-0.049816,-0.018187
480109,-0.00427,-0.031619,-0.00019,-0.0,-0.0,0.0,3.0,0.317035,0.334835,0.317035,0.334835,,,,,,,-0.005141,-0.032433,-0.001418,-0.080142,-0.049717,-0.018592
480129,-0.003904,-0.031619,-0.000184,-0.0,-0.0,0.0,3.0,0.323146,0.329018,0.323146,0.329018,,,,,,,-0.005033,-0.032469,-0.001521,-0.034754,-0.042111,-0.000603
480149,-0.003782,-0.031497,-0.000182,-0.0,-0.0,0.0,3.0,0.31855,0.333421,0.31855,0.333421,,,,,,,-0.005036,-0.032524,-0.001539,-0.013469,-0.009516,0.003662
480169,-0.003418,-0.031619,-5.4e-05,-0.0,-0.0,0.0,3.0,0.319964,0.332084,0.319964,0.332084,,,,,,,-0.005037,-0.032753,-0.00154,0.04924,0.008006,0.025628
480189,-0.00354,-0.031497,-5.6e-05,-0.0,-0.0,0.0,3.0,0.323489,0.328684,0.323489,0.328684,,,,,,,-0.00525,-0.032895,-0.001526,0.063109,0.053706,0.022221
480209,-0.003782,-0.031742,-0.000182,-0.0,-0.0,0.0,3.0,0.326256,0.325945,0.326256,0.325945,,,,,,,-0.005145,-0.03321,-0.001525,0.004025,0.063508,0.000271
480229,-0.004024,-0.031986,-0.000309,-0.0,-0.0,0.0,3.0,0.325969,0.326232,0.325969,0.326232,,,,,,,-0.005477,-0.033313,-0.00153,0.017742,0.038468,-0.020673
480249,-0.004266,-0.03223,-0.000435,-0.0,-0.0,0.0,3.0,0.329275,0.322883,0.329275,0.322883,,,,,,,-0.005577,-0.033397,-0.001636,-0.007186,0.009626,-0.024951
480269,-0.004632,-0.032597,-0.000442,-0.0,-0.0,0.0,3.0,0.325462,0.326737,0.325462,0.326737,,,,,,,-0.005802,-0.033414,-0.001638,-0.031861,-0.049692,-0.025596
480289,-0.004512,-0.032596,-0.000318,-0.0,-0.0,0.0,3.0,0.3141,0.337529,0.3141,0.337529,,,,,,,-0.005714,-0.033287,-0.001549,-0.024811,-0.071058,-0.017901
480309,-0.00439,-0.032718,-0.000316,-0.0,-0.0,0.0,3.0,0.313153,0.338385,0.313153,0.338385,,,,,,,-0.005609,-0.033428,-0.001568,-0.020937,-0.066975,-0.013823
480329,-0.004268,-0.032718,-0.000314,-0.0,-0.0,0.0,3.0,0.323614,0.328561,0.323614,0.328561,,,,,,,-0.005606,-0.033463,-0.001796,-0.00043,-0.059225,0.024883
480349,-0.00402,-0.032597,-0.000554,-0.0,-0.0,0.0,3.0,0.331079,0.321016,0.331079,0.321016,,,,,,,-0.00529,-0.033728,-0.002019,-0.010127,0.007829,0.021241
480369,-0.003652,-0.032841,-0.000671,-0.0,-0.0,0.0,3.0,0.334081,0.317845,0.334081,0.317845,,,,,,,-0.005149,-0.033995,-0.002121,0.02817,0.011975,0.017826
480389,-0.00353,-0.033085,-0.000669,-0.0,-0.0,0.0,3.0,0.332592,0.319428,0.332592,0.319428,,,,,,,-0.005134,-0.034345,-0.00212,0.04562,0.029121,0.017992
480409,-0.003529,-0.033451,-0.00067,-0.0,-0.0,0.0,3.0,0.328647,0.323527,0.328647,0.323527,,,,,,,-0.005222,-0.034781,-0.001999,0.059496,0.038631,-0.002847
480429,-0.003893,-0.03394,-0.000799,-0.0,-0.0,0.0,3.0,0.327789,0.3244,0.327789,0.3244,,,,,,,-0.005223,-0.035109,-0.001999,-0.003167,0.009894,-0.024868
480449,-0.004137,-0.034428,-0.000804,-0.0,-0.0,0.0,3.0,0.3308,0.321306,0.3308,0.321306,,,,,,,-0.005342,-0.035351,-0.002124,-0.024718,-0.032253,-0.004358
480469,-0.004257,-0.034795,-0.000929,-0.0,-0.0,0.0,3.0,0.330325,0.3218,0.330325,0.3218,,,,,,,-0.00546,-0.035612,-0.002249,-0.024796,-0.049554,-0.004222
480489,-0.004257,-0.035161,-0.00093,-0.0,-0.0,0.0,3.0,0.324184,0.328001,0.324184,0.328001,,,,,,,-0.005562,-0.035768,-0.002269,-0.007618,-0.08399,-0.000266
480509,-0.004257,-0.035283,-0.00093,-0.0,-0.0,0.0,3.0,0.321564,0.330552,0.321564,0.330552,,,,,,,-0.005475,-0.036239,-0.002287,-0.021088,-0.024713,0.003469
480529,-0.004135,-0.035649,-0.000929,-0.0,-0.0,0.0,3.0,0.32736,0.324834,0.32736,0.324834,,,,,,,-0.005387,-0.036521,-0.002391,-0.01379,-0.03783,0.020825
480549,-0.00401,-0.035771,-0.001049,-0.0,-0.0,0.0,3.0,0.327334,0.32486,0.327334,0.32486,,,,,,,-0.005388,-0.036906,-0.002392,0.007639,0.007938,0.000287
480569,-0.003764,-0.035893,-0.001167,-0.0,-0.0,0.0,3.0,0.330911,0.321192,0.330911,0.321192,,,,,,,-0.005369,-0.037151,-0.002515,0.04576,0.028987,0.000991
480589,-0.003886,-0.036015,-0.00117,-0.0,-0.0,0.0,3.0,0.329288,0.322869,0.329288,0.322869,,,,,,,-0.005352,-0.037379,-0.002514,0.02116,0.04614,0.000426
480609,-0.003886,-0.03626,-0.00117,-0.0,-0.0,0.0,3.0,0.331271,0.320815,0.331271,0.320815,,,,,,,-0.005333,-0.037569,-0.002495,0.017214,0.034647,-0.00351
480629,-0.004252,-0.036382,-0.001177,-0.0,-0.0,0.0,3.0,0.331695,0.320372,0.331695,0.320372,,,,,,,-0.005438,-0.037548,-0.002497,-0.028438,0.009498,-0.00439
480649,-0.004252,-0.03626,-0.001177,-0.0,-0.0,0.0,3.0,0.323276,0.328891,0.323276,0.328891,,,,,,,-0.005351,-0.037319,-0.002389,-0.041844,-0.008024,-0.021876
480669,-0.004374,-0.03626,-0.001179,-0.0,-0.0,0.0,3.0,0.32167,0.33045,0.32167,0.33045,,,,,,,-0.00535,-0.037073,-0.002408,-0.062783,-0.049998,-0.01847
480689,-0.004252,-0.036016,-0.001176,-0.0,-0.0,0.0,3.0,0.327586,0.324605,0.327586,0.324605,,,,,,,-0.005469,-0.036882,-0.002514,-0.021044,-0.038547,-0.000434
480709,-0.004132,-0.035649,-0.001051,-0.0,-0.0,0.174533,3.0,0.65982,0.15,0.65982,0.15,,,,,,,-0.005594,-0.036656,-0.002516,0.020725,-0.013622,0.02133
480729,-0.004161,-0.035402,0.000537,-0.0,-0.0,0.174533,3.0,0.643245,0.15,0.643245,0.15,,,,,,,-0.00565,-0.036656,-0.001499,0.026646,0.028968,0.123798
480749,-0.004858,-0.034901,0.005535,-0.0,-0.0,0.174533,3.0,0.602838,0.15,0.602838,0.15,,,,,,,-0.006279,-0.036298,0.002293,0.01208,0.054106,0.336898
480769,-0.004999,-0.034392,0.013841,-0.0,-0.0,0.174533,3.0,0.548077,0.15,0.548077,0.15,,,,,,,-0.006649,-0.035876,0.009795,0.051507,0.067544,0.47981
480789,-0.004465,-0.03425,0.025457,-0.0,-0.0,0.174533,3.0,0.471788,0.15,0.471788,0.15,,,,,,,-0.006377,-0.035346,0.020677,0.097947,6e-05,0.613156
480809,-0.004108,-0.03435,0.040125,-0.0,-0.0,0.174533,3.0,0.385972,0.245112,0.385972,0.245112,,,,,,,-0.005735,-0.035223,0.034408,0.04843,-0.037499,0.779556
480829,-0.003908,-0.034575,0.056511,-0.0,-0.0,0.174533,3.0,0.287707,0.359151,0.287707,0.359151,,,,,,,-0.005408,-0.035535,0.050505,0.026589,-0.024152,0.832052
480849,-0.003339,-0.034695,0.072776,-0.0,-0.0,0.174533,3.0,0.212495,0.401123,0.212495,0.401123,,,,,,,-0.004964,-0.03577,0.066892,0.048034,-0.004427,0.811022
480869,-0.00359,-0.034547,0.087569,-0.0,-0.0,0.174533,3.0,0.212416,0.401155,0.212416,0.401155,,,,,,,-0.004659,-0.035781,0.082251,-0.045912,0.023352,0.709622
480889,-0.00344,-0.034541,0.100034,-0.0,-0.0,0.174533,3.0,0.253366,0.381446,0.253366,0.381446,,,,,,,-0.004705,-0.035644,0.095518,-0.013972,0.0012,0.568113
480909,-0.003371,-0.034538,0.110201,-0.0,-0.0,0.174533,3.0,0.30609,0.344567,0.30609,0.344567,,,,,,,-0.004652,-0.035764,0.106105,-0.011468,0.022131,0.4922
480929,-0.003514,-0.034401,0.118886,-0.0,-0.0,0.174533,3.0,0.329253,0.322906,0.329253,0.322906,,,,,,,-0.004682,-0.035631,0.115219,-0.030847,0.023131,0.415087
480949,-0.003647,-0.034264,0.127082,-0.0,-0.0,0.174533,3.0,0.326672,0.325527,0.326672,0.325527,,,,,,,-0.004914,-0.035384,0.123428,-0.014518,0.004948,0.411938
480969,-0.003777,-0.03425,0.134669,-0.0,-0.0,0.174533,3.0,0.316284,0.335531,0.316284,0.335531,,,,,,,-0.004961,-0.035359,0.131256,-0.027427,0.002104,0.370339
480989,-0.003918,-0.034479,0.14189,-0.0,-0.0,0.174533,3.0,0.305456,0.345105,0.305456,0.345105,,,,,,,-0.00507,-0.035364,0.138615,-0.033508,-0.035542,0.345833
481009,-0.004039,-0.034588,0.148384,-0.0,-0.0,0.174533,3.0,0.306502,0.344216,0.306502,0.344216,,,,,,,-0.005218,-0.035576,0.145242,-0.028099,-0.018685,0.321921
481029,-0.003906,-0.034718,0.154278,-0.0,-0.0,0.174533,3.0,0.309627,0.341514,0.309627,0.341514,,,,,,,-0.005228,-0.035713,0.151286,-0.002773,-0.016745,0.294481
481049,-0.003874,-0.034717,0.159417,-0.0,-0.0,0.174533,3.0,0.313721,0.337872,0.313721,0.337872,,,,,,,-0.005324,-0.035948,0.156677,0.018588,0.023603,0.250123
481069,-0.003977,-0.03495,0.164191,-0.0,-0.0,0.174533,3.0,0.313533,0.338042,0.313533,0.338042,,,,,,,-0.005317,-0.036297,0.161594,-0.000495,0.04271,0.224601
481089,-0.003955,-0.035194,0.168725,-0.0,-0.0,0.174533,3.0,0.309345,0.341761,0.309345,0.341761,,,,,,,-0.005274,-0.036278,0.166144,-0.004398,-0.003292,0.221004
481109,-0.003917,-0.035318,0.172898,-0.0,-0.0,0.174533,3.0,0.304652,0.345784,0.304652,0.345784,,,,,,,-0.005207,-0.036261,0.170454,-0.009918,-0.028032,0.196756
481129,-0.003852,-0.035201,0.17671,-0.0,-0.0,0.174533,3.0,0.299517,0.350021,0.299517,0.350021,,,,,,,-0.00504,-0.036168,0.174385,-0.026404,-0.022902,0.176126
481149,-0.003777,-0.035083,0.180009,-0.0,-0.0,0.174533,3.0,0.301465,0.348434,0.301465,0.348434,,,,,,,-0.00508,-0.035917,0.177845,-0.006815,-0.045531,0.147953
481169,-0.003829,-0.035077,0.182946,-0.0,-0.0,0.174533,3.0,0.304722,0.345725,0.304722,0.345725,,,,,,,-0.005137,-0.03593,0.180917,-0.00601,-0.041604,0.123782
481189,-0.003885,-0.035194,0.185524,-0.0,-0.0,0.174533,3.0,0.303614,0.346654,0.303614,0.346654,,,,,,,-0.00509,-0.036057,0.183614,-0.022862,-0.039868,0.103168
481209,-0.003926,-0.03519,0.187862,-0.0,-0.0,0.174533,3.0,0.305004,0.345488,0.305004,0.345488,,,,,,,-0.005122,-0.035947,0.185968,-0.024439,-0.057078,0.099646
481229,-0.003819,-0.034955,0.189963,-0.0,-0.0,0.174533,3.0,0.305983,0.344658,0.305983,0.344658,,,,,,,-0.005149,-0.035857,0.188036,-0.000938,-0.03095,0.105118
481249,-0.003706,-0.034719,0.191791,-0.0,-0.0,0.174533,3.0,0.30632,0.344371,0.30632,0.344371,,,,,,,-0.005201,-0.035854,0.189906,0.028024,0.00898,0.097194
481269,-0.00371,-0.034473,0.193377,-0.0,-0.0,0.174533,3.0,0.312703,0.338789,0.312703,0.338789,,,,,,,-0.005219,-0.03573,0.191513,0.030223,0.029888,0.092516
481289,-0.003709,-0.034227,0.194724,-0.0,-0.0,0.174533,3.0,0.314313,0.337336,0.314313,0.337336,,,,,,,-0.005194,-0.035593,0.192997,0.024644,0.04761,0.068212
481309,-0.003609,-0.034237,0.195954,-0.0,-0.0,0.174533,3.0,0.310386,0.340847,0.310386,0.340847,,,,,,,-0.00509,-0.035357,0.194346,0.024598,0.005395,0.047784
481329,-0.003478,-0.034005,0.196826,-0.0,-0.0,0.174533,3.0,0.311427,0.339927,0.311427,0.339927,,,,,,,-0.004973,-0.035245,0.195336,0.027003,0.026115,0.027622
481349,-0.003467,-0.033761,0.197577,-0.0,-0.0,0.174533,3.0,0.318076,0.333865,0.318076,0.333865,,,,,,,-0.004975,-0.035141,0.195929,0.029148,0.05059,0.054541
481369,-0.003696,-0.033492,0.198169,-0.0,-0.0,0.174533,3.0,0.320417,0.331652,0.320417,0.331652,,,,,,,-0.005199,-0.03498,0.196573,0.0274,0.068409,0.044644
481389,-0.003801,-0.033236,0.198644,-0.0,-0.0,0.174533,3.0,0.318192,0.333756,0.318192,0.333756,,,,,,,-0.005273,-0.034584,0.197168,0.02131,0.043809,0.024102
481409,-0.003783,-0.032993,0.199037,-0.0,-0.0,0.174533,3.0,0.319781,0.332257,0.319781,0.332257,,,,,,,-0.005148,-0.034315,0.1977,0.003701,0.037776,-0.000473
481429,-0.003765,-0.032749,0.199395,-0.0,-0.0,0.174533,3.0,0.315152,0.33657,0.315152,0.33657,,,,,,,-0.005203,-0.03394,0.198038,0.014906,0.015473,0.003604
481449,-0.00372,-0.032263,0.199633,-0.0,-0.0,0.174533,3.0,0.316803,0.335051,0.316803,0.335051,,,,,,,-0.00517,-0.033573,0.198275,0.017007,0.036249,0.003717
481469,-0.003575,-0.032032,0.199635,-0.0,-0.0,0.174533,3.0,0.323631,0.328544,0.323631,0.328544,,,,,,,-0.005032,-0.033238,0.198293,0.019038,0.018961,0.000277
481489,-0.003672,-0.031777,0.199633,-0.0,-0.0,0.174533,3.0,0.322886,0.329272,0.322886,0.329272,,,,,,,-0.004977,-0.032856,0.198293,-0.008022,-0.003396,-0.000121
481509,-0.003647,-0.031534,0.199633,-0.0,-0.0,0.174533,3.0,0.321359,0.33075,0.321359,0.33075,,,,,,,-0.004826,-0.032608,0.198295,-0.029468,-0.005131,-0.000451
481529,-0.003623,-0.031291,0.199633,-0.0,-0.0,0.174533,3.0,0.319805,0.332235,0.319805,0.332235,,,,,,,-0.004665,-0.032044,0.198297,-0.052123,-0.058651,-0.00072
481549,-0.003475,-0.031061,0.199516,-0.0,-0.0,0.174533,3.0,0.320581,0.331496,0.320581,0.331496,,,,,,,-0.004432,-0.031841,0.19818,-0.065149,-0.053412,-0.00076
481569,-0.003435,-0.030697,0.199278,-0.0,-0.0,0.174533,3.0,0.320044,0.332007,0.320044,0.332007,,,,,,,-0.004549,-0.031602,0.198059,-0.037325,-0.031207,-0.02084
481589,-0.003152,-0.030356,0.199007,-0.0,-0.0,0.174533,3.0,0.325862,0.326338,0.325862,0.326338,,,,,,,-0.004637,-0.03149,0.197662,0.02584,0.008768,0.00069
481609,-0.003367,-0.030089,0.198765,-0.0,-0.0,0.174533,3.0,0.323542,0.328631,0.323542,0.328631,,,,,,,-0.004758,-0.031481,0.197422,0.009477,0.052976,0.000332
481629,-0.003473,-0.029957,0.198525,-0.0,-0.0,0.174533,3.0,0.325065,0.327131,0.325065,0.327131,,,,,,,-0.005079,-0.031205,0.197178,0.045329,0.028188,0.000853
481649,-0.003469,-0.029957,0.198287,-0.0,-0.0,0.174533,3.0,0.32646,0.32574,0.32646,0.32574,,,,,,,-0.005077,-0.031418,0.196958,0.044819,0.062971,-0.002942
481669,-0.003706,-0.029933,0.19789,-0.0,-0.0,0.174533,3.0,0.326661,0.325538,0.326661,0.325538,,,,,,,-0.005182,-0.031266,0.196718,0.021956,0.040333,-0.029906
481689,-0.003713,-0.030055,0.197533,-0.0,-0.0,0.174533,3.0,0.327536,0.324656,0.327536,0.324656,,,,,,,-0.004973,-0.031354,0.196328,-0.013896,0.032083,-0.024228
481709,-0.003598,-0.03019,0.197177,-0.0,-0.0,0.174533,3.0,0.325183,0.327014,0.325183,0.327014,,,,,,,-0.004937,-0.031233,0.195971,-0.001001,-0.011562,-0.023947
481729,-0.003485,-0.030324,0.19694,-0.0,-0.0,0.174533,3.0,0.320526,0.331548,0.320526,0.331548,,,,,,,-0.004697,-0.030958,0.19582,-0.058701,-0.032766,-0.017383
481749,-0.003602,-0.030311,0.196664,-0.0,-0.0,0.174533,3.0,0.317739,0.33418,0.317739,0.33418,,,,,,,-0.004762,-0.031162,0.19548,-0.032658,-0.042766,-0.026886
481769,-0.003718,-0.030301,0.196305,-0.0,-0.0,0.174533,3.0,0.321701,0.33042,0.321701,0.33042,,,,,,,-0.004831,-0.031172,0.195084,-0.037996,-0.038608,-0.020715
481789,-0.003701,-0.03018,0.195947,-0.0,-0.0,0.174533,3.0,0.321621,0.330498,0.321621,0.330498,,,,,,,-0.004921,-0.031076,0.194725,-0.02022,-0.032706,-0.020464
481809,-0.003817,-0.03017,0.195588,-0.0,-0.0,0.174533,3.0,0.327658,0.324532,0.327658,0.324532,,,,,,,-0.005152,-0.03118,0.194261,-0.001065,-0.013265,-0.003366
481829,-0.003907,-0.029915,0.195074,-0.0,-0.0,0.174533,3.0,0.328258,0.323923,0.328258,0.323923,,,,,,,-0.00526,-0.031273,0.193866,0.001116,0.04596,-0.023859
481849,-0.003792,-0.030049,0.194718,-0.0,-0.0,0.174533,3.0,0.322525,0.329623,0.322525,0.329623,,,,,,,-0.00528,-0.03136,0.193509,0.001739,0.017025,-0.003354
481869,-0.003787,-0.03005,0.19436,-0.0,-0.0,0.174533,3.0,0.325974,0.326227,0.325974,0.326227,,,,,,,-0.00504,-0.031298,0.193155,-0.014403,0.026374,-0.024255
481889,-0.003648,-0.02994,0.193969,-0.0,-0.0,0.174533,3.0,0.327697,0.324493,0.327697,0.324493,,,,,,,-0.005015,-0.031281,0.192762,0.004295,0.04171,-0.023962
481909,-0.003543,-0.030197,0.193493,-0.0,-0.0,0.174533,3.0,0.332823,0.319183,0.332823,0.319183,,,,,,,-0.004998,-0.03114,0.192524,0.017103,-0.047947,-0.044153
481929,-0.003659,-0.030186,0.193134,-0.0,-0.0,0.174533,3.0,0.323463,0.328709,0.323463,0.328709,,,,,,,-0.005004,-0.031264,0.192048,0.000458,-0.004063,-0.044614
481949,-0.003678,-0.030428,0.19286,-0.0,-0.0,0.174533,3.0,0.323573,0.328601,0.323573,0.328601,,,,,,,-0.005118,-0.031235,0.191688,0.016684,-0.051243,-0.029821
481969,-0.004014,-0.030151,0.192497,-0.0,-0.0,0.174533,3.0,0.319126,0.332878,0.319126,0.332878,,,,,,,-0.005333,-0.031124,0.191394,-0.004952,-0.021053,-0.040872
481989,-0.00412,-0.030019,0.192256,-0.0,-0.0,0.174533,3.0,0.32976,0.322383,0.32976,0.322383,,,,,,,-0.005437,-0.031031,0.190929,-0.002912,0.007932,-0.003284
482009,-0.004248,-0.03013,0.191896,-0.0,-0.0,0.174533,3.0,0.323799,0.32838,0.323799,0.32838,,,,,,,-0.005526,-0.031128,0.190553,-0.056566,0.030635,-0.004321
482029,-0.004207,-0.029765,0.191504,-0.0,-0.0,0.174533,3.0,0.334264,0.317649,0.334264,0.317649,,,,,,,-0.005587,-0.031245,0.1902,0.004583,0.045723,-0.008227
482049,-0.0042,-0.029766,0.191026,-0.0,-0.0,0.174533,3.0,0.332462,0.319565,0.332462,0.319565,,,,,,,-0.00533,-0.031044,0.189702,-0.035351,0.032301,-0.003842
482069,-0.003951,-0.029791,0.190672,-0.0,-0.0,0.174533,3.0,0.327214,0.324981,0.327214,0.324981,,,,,,,-0.005469,-0.031204,0.189584,0.007641,0.033753,-0.024052
482089,-0.003826,-0.029802,0.1904,-0.0,-0.0,0.174533,3.0,0.323703,0.328474,0.323703,0.328474,,,,,,,-0.005332,-0.031114,0.189228,0.02879,0.035937,-0.029689
482109,-0.003832,-0.029924,0.190042,-0.0,-0.0,0.174533,3.0,0.324012,0.32817,0.324012,0.32817,,,,,,,-0.005204,-0.031106,0.188956,0.005792,0.012829,-0.044571
482129,-0.003827,-0.029926,0.189684,-0.0,-0.0,0.174533,3.0,0.320998,0.331096,0.320998,0.331096,,,,,,,-0.005176,-0.03086,0.188581,0.001655,-0.029251,-0.04078
482149,-0.003823,-0.029926,0.189445,-0.0,-0.0,0.174533,3.0,0.320754,0.33133,0.320754,0.33133,,,,,,,-0.00523,-0.03077,0.188221,0.009603,-0.043375,-0.020134
482169,-0.004041,-0.029661,0.189322,-0.0,-0.0,0.174533,3.0,0.319301,0.332712,0.319301,0.332712,,,,,,,-0.005327,-0.030531,0.187981,-0.01105,-0.037662,4.5e-05
482189,-0.004145,-0.029527,0.188928,-0.0,-0.0,0.174533,3.0,0.325324,0.326874,0.325324,0.326874,,,,,,,-0.005337,-0.030531,0.187586,-0.026338,-0.014879,7.7e-05
482209,-0.00424,-0.029273,0.188687,-0.0,-0.0,0.174533,3.0,0.325007,0.327188,0.325007,0.327188,,,,,,,-0.00537,-0.030529,0.187347,-0.035729,0.028315,-0.000335
482229,-0.003992,-0.029298,0.188333,-0.0,-0.0,0.174533,3.0,0.331172,0.320919,0.331172,0.320919,,,,,,,-0.005365,-0.030552,0.187006,0.006413,0.02835,-0.003364
482249,-0.003867,-0.02931,0.188096,-0.0,-0.0,0.174533,3.0,0.327679,0.324511,0.327679,0.324511,,,,,,,-0.005355,-0.030659,0.186768,0.025346,0.043831,-0.00321
482269,-0.003863,-0.029309,0.187823,-0.0,-0.0,0.174533,3.0,0.331135,0.320958,0.331135,0.320958,,,,,,,-0.005254,-0.030526,0.18652,0.009759,0.020196,-0.008218
482289,-0.003736,-0.029322,0.187466,-0.0,-0.0,0.174533,3.0,0.326321,0.325879,0.326321,0.325879,,,,,,,-0.005231,-0.03051,0.186258,0.026612,0.014643,-0.023645
482309,-0.003733,-0.029322,0.187227,-0.0,-0.0,0.174533,3.0,0.324949,0.327246,0.324949,0.327246,,,,,,,-0.005169,-0.030268,0.186021,0.015107,-0.026618,-0.023913
482329,-0.003708,-0.02908,0.187108,-0.0,-0.0,0.174533,3.0,0.318366,0.333593,0.318366,0.333593,,,,,,,-0.00503,-0.030139,0.185887,-0.004342,-0.007639,-0.020562
482349,-0.003693,-0.028959,0.186869,-0.0,-0.0,0.174533,3.0,0.319988,0.332061,0.319988,0.332061,,,,,,,-0.005008,-0.029933,0.185647,-0.005553,-0.020801,-0.020415
482369,-0.00379,-0.028703,0.186714,-0.0,-0.0,0.174533,3.0,0.32159,0.330527,0.32159,0.330527,,,,,,,-0.004984,-0.029725,0.185379,-0.02596,-0.011165,-0.001221
482389,-0.003774,-0.028583,0.186355,-0.0,-0.0,0.174533,3.0,0.327449,0.324744,0.327449,0.324744,,,,,,,-0.004994,-0.029708,0.185031,-0.02052,0.005687,-0.003643
482409,-0.003991,-0.028318,0.186113,-0.0,-0.0,0.174533,3.0,0.326089,0.326112,0.326089,0.326112,,,,,,,-0.005139,-0.029572,0.184772,-0.031743,0.02782,-0.000261
482429,-0.003987,-0.028319,0.185874,-0.0,-0.0,0.174533,3.0,0.321994,0.330137,0.321994,0.330137,,,,,,,-0.005495,-0.029647,0.184649,0.029114,0.03961,-0.020037
482449,-0.00413,-0.028551,0.185753,-0.0,-0.0,0.174533,3.0,0.324533,0.327658,0.324533,0.327658,,,,,,,-0.005711,-0.029751,0.184425,0.040361,0.017621,-0.003058
482469,-0.004259,-0.028662,0.185512,-0.0,-0.0,0.174533,3.0,0.325936,0.329433,0.32272,0.329433,,,,,,,-0.005692,-0.029589,0.184288,-0.008212,-0.049279,-0.020498
482489,-0.004276,-0.028904,0.185119,-0.0,-0.0,0.174533,3.0,0.327173,0.325023,0.327173,0.325023,,,,,,,-0.005618,-0.029967,0.183914,-0.000468,-0.007581,-0.023998
482509,-0.004174,-0.02916,0.184882,-0.0,-0.0,0.174533,3.0,0.323926,0.328255,0.323926,0.328255,,,,,,,-0.005709,-0.030061,0.183656,0.031477,-0.035536,-0.019923
482529,-0.004314,-0.029392,0.184641,-0.0,-0.0,0.174533,3.0,0.321611,0.330507,0.321611,0.330507,,,,,,,-0.005596,-0.030212,0.183419,-0.011814,-0.048762,-0.020512
482549,-0.004445,-0.029503,0.184519,-0.0,-0.0,0.174533,3.0,0.317073,0.334801,0.317073,0.334801,,,,,,,-0.005538,-0.030357,0.183283,0.019824,-0.011141,0.01734
482569,-0.004466,-0.029747,0.1844,-0.0,-0.0,0.174533,3.0,0.320617,0.331461,0.320617,0.331461,,,,,,,-0.005674,-0.030523,0.18306,-0.022244,-0.053371,-0.000122
482589,-0.004462,-0.029747,0.184161,-0.0,-0.0,0.174533,3.0,0.32436,0.327828,0.32436,0.327828,,,,,,,-0.005918,-0.030747,0.182816,0.008021,0.041904,-0.003449
482609,-0.004578,-0.029736,0.183767,-0.0,-0.0,0.174533,3.0,0.332832,0.319174,0.332832,0.319174,,,,,,,-0.005945,-0.031096,0.182445,0.004474,0.045951,-0.00437
482629,-0.004683,-0.029604,0.183406,-0.0,-0.0,0.174533,3.0,0.330434,0.321687,0.330434,0.321687,,,,,,,-0.006099,-0.031063,0.182199,0.013948,0.062098,-0.02391
482649,-0.004472,-0.029992,0.18329,-0.0,-0.0,0.174533,3.0,0.325095,0.327101,0.325095,0.327101,,,,,,,-0.006069,-0.031173,0.182083,0.043687,0.013542,-0.023672
482669,-0.004582,-0.029859,0.183288,-0.0,-0.0,0.174533,3.0,0.324301,0.327886,0.324301,0.327886,,,,,,,-0.006016,-0.030783,0.18215,-0.026953,-0.026732,-0.034
482689,-0.00447,-0.029992,0.18317,-0.0,-0.0,0.174533,3.0,0.317048,0.334823,0.317048,0.334823,,,,,,,-0.005778,-0.030915,0.18195,-0.023404,-0.061318,0.003495
482709,-0.0047,-0.029849,0.183047,-0.0,-0.0,0.174533,3.0,0.315329,0.336408,0.315329,0.336408,,,,,,,-0.005636,-0.030543,0.18171,-0.024081,-0.028606,0.02047
482729,-0.004553,-0.029618,0.18281,-0.0,-0.0,0.174533,3.0,0.319495,0.332529,0.319495,0.332529,,,,,,,-0.005741,-0.030373,0.181572,-0.026343,-0.05749,-0.016975
482749,-0.00454,-0.029497,0.182691,-0.0,-0.0,0.174533,3.0,0.327323,0.324871,0.327323,0.324871,,,,,,,-0.005626,-0.030527,0.181203,-0.043544,-0.009611,0.024884
482769,-0.004513,-0.029253,0.182419,-0.0,-0.0,0.174533,3.0,0.331077,0.321018,0.331077,0.321018,,,,,,,-0.006016,-0.030723,0.181092,0.027759,0.064651,-0.023873
482789,-0.00439,-0.029264,0.182301,-0.0,-0.0,0.174533,3.0,0.322984,0.329177,0.322984,0.329177,,,,,,,-0.005899,-0.030648,0.180956,0.029697,0.051335,0.0005
482809,-0.004521,-0.029375,0.182179,-0.0,-0.0,0.174533,3.0,0.321318,0.330789,0.321318,0.330789,,,,,,,-0.006059,-0.030826,0.180955,0.034935,0.06037,-0.020098
482829,-0.004541,-0.029619,0.182059,-0.0,-0.0,0.174533,3.0,0.324189,0.327996,0.324189,0.327996,,,,,,,-0.006049,-0.030931,0.180853,0.028609,0.035998,-0.023922
482849,-0.004562,-0.029862,0.18194,-0.0,-0.0,0.174533,3.0,0.322451,0.329695,0.322451,0.329695,,,,,,,-0.006026,-0.030895,0.180735,0.020149,-0.013393,-0.023984
482869,-0.004582,-0.030106,0.18182,-0.0,-0.0,0.174533,3.0,0.320435,0.331635,0.320435,0.331635,,,,,,,-0.00596,-0.031023,0.180598,0.002929,-0.032979,-0.020468
482889,-0.004461,-0.030117,0.181822,-0.0,-0.0,0.174533,3.0,0.319481,0.332542,0.319481,0.332542,,,,,,,-0.005435,-0.030666,0.180485,-0.033927,-0.031626,-0.000336
482909,-0.004459,-0.030117,0.181702,-0.0,-0.0,0.174533,3.0,0.320325,0.33174,0.320325,0.33174,,,,,,,-0.005294,-0.03087,0.180368,-0.086298,-0.059466,-0.001114
482929,-0.004181,-0.029775,0.181586,-0.0,-0.0,0.174533,3.0,0.322497,0.32965,0.322497,0.32965,,,,,,,-0.005397,-0.030669,0.180246,-0.020485,-0.033012,-0.000175
482949,-0.003914,-0.029555,0.181471,-0.0,-0.0,0.174533,3.0,0.322548,0.329601,0.322548,0.329601,,,,,,,-0.005387,-0.030568,0.180126,0.038963,0.067599,-0.003119
482969,-0.004024,-0.029422,0.181469,-0.0,-0.0,0.174533,3.0,0.325199,0.326998,0.325199,0.326998,,,,,,,-0.005656,-0.030988,0.180021,0.026817,0.06114,-0.003292
482989,-0.004011,-0.029301,0.181349,-0.0,-0.0,0.174533,3.0,0.321392,0.330718,0.321392,0.330718,,,,,,,-0.005738,-0.030961,0.180002,0.019119,0.058047,-0.02602
483009,-0.004131,-0.029288,0.181195,-0.0,-0.0,0.174533,3.0,0.328406,0.323772,0.328406,0.323772,,,,,,,-0.005735,-0.030752,0.179746,0.04408,0.063385,0.017638
483029,-0.004503,-0.029378,0.18095,-0.0,-0.0,0.174533,3.0,0.324144,0.328041,0.324144,0.328041,,,,,,,-0.005614,-0.03081,0.17975,-0.027467,-0.030245,-0.024742
483049,-0.004391,-0.029511,0.180832,-0.0,-0.0,0.174533,3.0,0.321554,0.330562,0.321554,0.330562,,,,,,,-0.005589,-0.030581,0.179631,-0.008335,-0.049576,-0.003839
483069,-0.00417,-0.029776,0.180836,-0.0,-0.0,0.174533,3.0,0.323317,0.328852,0.323317,0.328852,,,,,,,-0.005372,-0.030496,0.179617,-0.021091,-0.044476,-0.020798
483089,-0.004168,-0.029776,0.180716,-0.0,-0.0,0.174533,3.0,0.318422,0.333541,0.318422,0.333541,,,,,,,-0.005477,-0.030697,0.179514,-0.006368,-0.03233,-0.024351
483109,-0.004168,-0.029776,0.180716,-0.0,-0.0,0.174533,3.0,0.31469,0.336993,0.31469,0.336993,,,,,,,-0.005468,-0.030592,0.179496,-0.020309,-0.032754,0.003556
483129,-0.004046,-0.029787,0.180718,-0.0,-0.0,0.174533,3.0,0.313965,0.337651,0.313965,0.337651,,,,,,,-0.005342,-0.030393,0.179359,-0.007769,-0.083951,0.003779
483149,-0.004155,-0.029655,0.180596,-0.0,-0.0,0.174533,3.0,0.317137,0.334741,0.317137,0.334741,,,,,,,-0.005373,-0.030533,0.179238,0.019538,0.02745,0.017258
483169,-0.004131,-0.029412,0.180477,-0.0,-0.0,0.174533,3.0,0.327496,0.324696,0.327496,0.324696,,,,,,,-0.005489,-0.030687,0.179032,0.025594,0.051582,0.01733
483189,-0.004129,-0.029413,0.180357,-0.0,-0.0,0.174533,3.0,0.325522,0.330253,0.321874,0.330253,,,,,,,-0.005515,-0.030773,0.179015,0.008409,0.045495,-0.020381
483209,-0.004238,-0.029281,0.180236,-0.0,-0.0,0.174533,3.0,0.319252,0.331059,0.321036,0.331059,,,,,,,-0.005634,-0.030743,0.178894,0.009607,0.062469,8.4e-05
483229,-0.004115,-0.029292,0.180118,-0.0,-0.0,0.174533,3.0,0.321785,0.33034,0.321785,0.33034,,,,,,,-0.005713,-0.0307,0.17879,0.04121,0.030924,-0.003062
483249,-0.004104,-0.029171,0.180118,-0.0,-0.0,0.174533,3.0,0.325868,0.326333,0.325868,0.326333,,,,,,,-0.005714,-0.030699,0.178792,-0.002091,0.013599,-0.024371
483269,-0.003989,-0.029302,0.179848,-0.0,-0.0,0.174533,3.0,0.327729,0.324461,0.327729,0.324461,,,,,,,-0.005594,-0.030567,0.178673,-0.000896,-0.011711,-0.024363
483289,-0.00412,-0.029413,0.179726,-0.0,-0.0,0.174533,3.0,0.324133,0.328051,0.324133,0.328051,,,,,,,-0.005407,-0.030478,0.17866,0.005108,-0.050225,-0.026151
483309,-0.004019,-0.029668,0.179608,-0.0,-0.0,0.174533,3.0,0.316618,0.335222,0.316618,0.335222,,,,,,,-0.00532,-0.030273,0.178507,-0.049014,-0.08033,-0.02116
483329,-0.004251,-0.029524,0.179605,-0.0,-0.0,0.174533,3.0,0.314026,0.337596,0.314026,0.337596,,,,,,,-0.005233,-0.030299,0.178371,-0.037997,-0.035162,0.003298
483349,-0.004362,-0.029392,0.179603,-0.0,-0.0,0.174533,3.0,0.309791,0.341371,0.309791,0.341371,,,,,,,-0.005421,-0.030074,0.178247,-0.001137,-0.009674,0.024472
483369,-0.004229,-0.029281,0.179605,-0.0,-0.0,0.174533,3.0,0.322331,0.329811,0.322331,0.329811,,,,,,,-0.005551,-0.030171,0.178142,0.023369,0.026879,0.021132
