time_ms,roll,pitch,yaw,x,y,z,reference_roll,reference_pitch,reference_yaw,reference_throttle,throttle_1,throttle_2,throttle_3,throttle_4,roll_predicted,pitch_predicted,yaw_predicted,roll_rate_predicted,pitch_rate_predicted,yaw_rate_predicted,value1,value2,value3,value4,value5,value6
199964,0.002812,-0.001825,-0.004271,0.0,0.0,0.0,0.0,0.0,0.0,3.0,0.299436,0.355763,0.277278,0.359139,-0.0,0.0,0.0,-0.0,-0.0,-0.0,0.0,0.0,0.0,0.0,0.0,0.0
199984,0.002812,-0.001703,-0.004393,0.0,0.0,0.0,0.000759,0.087263,0.000759,3.0,0.33517,0.564954,0.303723,0.15,1e-06,0.001365,-0.000132,0.004422,0.417667,-0.036146,0.0,0.0,0.0,0.0,0.0,0.0
200015,0.003297,-0.000605,-0.00354,0.0,0.0,0.0,0.003767,0.087185,0.003767,3.0,0.33918,0.375545,0.289616,0.286309,0.000404,0.020303,-0.001216,0.028597,0.561617,-0.008292,0.0,0.0,0.0,0.0,0.0,0.0
200024,0.003173,0.000492,-0.002443,0.0,0.0,0.0,0.004417,0.087155,0.004417,3.0,0.340853,0.374362,0.284566,0.290911,0.000546,0.023111,-0.001256,0.034202,0.549426,-0.001093,0.0,0.0,0.0,0.0,0.0,0.0
200044,0.003052,0.004395,-0.000129,0.0,0.0,0.0,0.005234,0.087109,0.005234,3.0,0.244302,0.418645,0.170398,0.380448,0.001394,0.033739,-0.001071,0.051326,0.498046,0.021675,0.0,0.0,0.0,0.0,0.0,0.0
200064,0.003058,0.010619,0.001205,0.0,0.0,0.0,0.007419,0.086951,0.007419,3.0,0.341876,0.342443,0.276614,0.334896,0.002441,0.043306,-0.000573,0.061486,0.45393,0.0362,0.0,0.0,0.0,0.0,0.0,0.0
200084,0.003803,0.019772,0.001916,0.0,0.0,0.0,0.009212,0.086779,0.009212,3.0,0.320531,0.327753,0.279293,0.366549,0.003811,0.052036,0.000304,0.077676,0.408892,0.055781,0.0,0.0,0.0,0.0,0.0,0.0
200104,0.004808,0.030879,0.00298,0.0,0.0,0.0,0.011454,0.086512,0.011454,3.0,0.36277,0.261587,0.316467,0.348626,0.005434,0.059895,0.001488,0.084104,0.368778,0.065192,0.0,0.0,0.0,0.0,0.0,0.0
200124,0.00656,0.042714,0.004137,0.0,0.0,0.0,0.012606,0.086351,0.012606,3.0,0.30479,0.306171,0.27497,0.398197,0.007293,0.066974,0.002939,0.093819,0.331396,0.076942,0.0,0.0,0.0,0.0,0.0,0.0
200144,0.008702,0.055769,0.005506,0.0,0.0,0.0,0.014555,0.086044,0.014555,3.0,0.306624,0.282551,0.285102,0.40627,0.009281,0.073342,0.004549,0.100496,0.298244,0.085134,0.0,0.0,0.0,0.0,0.0,0.0
200164,0.011473,0.068945,0.006828,0.0,0.0,0.0,0.016317,0.085727,0.016317,3.0,0.31012,0.261964,0.29309,0.410721,0.011406,0.079074,0.006306,0.103588,0.269106,0.089299,0.0,0.0,0.0,0.0,0.0,0.0
200184,0.014877,0.081136,0.008343,0.0,0.0,0.0,0.017189,0.085557,0.017189,3.0,0.259103,0.297378,0.268389,0.434733,0.013622,0.084239,0.008162,0.102509,0.243732,0.089005,0.0,0.0,0.0,0.0,0.0,0.0
200207,0.018511,0.092592,0.009202,0.0,0.0,0.0,0.020907,0.084725,0.020907,3.0,0.351784,0.178418,0.336111,0.382294,0.016366,0.09001,0.010469,0.111212,0.213153,0.097727,0.0,0.0,0.0,0.0,0.0,0.0
200224,0.022782,0.102326,0.010499,0.0,0.0,0.0,0.021955,0.08446,0.021955,3.0,0.32459,0.235255,0.326067,0.390447,0.018228,0.09309,0.012042,0.118421,0.195716,0.104447,0.0,0.0,0.0,0.0,0.0,0.0
200253,0.029521,0.113228,0.013941,0.0,0.0,0.0,0.024661,0.083709,0.024661,3.0,0.297284,0.27912,0.308472,0.399195,0.022047,0.098542,0.015256,0.117258,0.167253,0.10298,0.0,0.0,0.0,0.0,0.0,0.0
200264,0.03192,0.116005,0.014873,0.0,0.0,0.0,0.025213,0.083545,0.025213,3.0,0.280477,0.29757,0.303852,0.401403,0.023336,0.100166,0.016337,0.120831,0.157306,0.106141,0.0,0.0,0.0,0.0,0.0,0.0
200284,0.036422,0.119723,0.016024,0.0,0.0,0.0,0.025864,0.083346,0.025864,3.0,0.241231,0.332818,0.293496,0.404518,0.025954,0.103137,0.018521,0.116611,0.141725,0.1016,0.0,0.0,0.0,0.0,0.0,0.0
200304,0.040772,0.121859,0.016829,0.0,0.0,0.0,0.027371,0.082863,0.027371,3.0,0.295789,0.301517,0.329155,0.368728,0.028396,0.105831,0.020538,0.110309,0.127971,0.095166,0.0,0.0,0.0,0.0,0.0,0.0
200324,0.044731,0.122651,0.017429,0.0,0.0,0.0,0.029832,0.082009,0.029832,3.0,0.328478,0.273438,0.347471,0.345274,0.030778,0.108234,0.022489,0.115864,0.112694,0.09967,0.0,0.0,0.0,0.0,0.0,0.0
200344,0.048486,0.122693,0.018795,0.0,0.0,0.0,0.030876,0.081622,0.030876,3.0,0.255482,0.343078,0.302488,0.38238,0.033333,0.110313,0.024567,0.116652,0.098244,0.099686,0.0,0.0,0.0,0.0,0.0,0.0
200364,0.051646,0.121754,0.020591,0.0,0.0,0.0,0.033201,0.080704,0.033201,3.0,0.319459,0.311106,0.327021,0.343392,0.035841,0.112125,0.026585,0.1169,0.08442,0.099382,0.0,0.0,0.0,0.0,0.0,0.0
200384,0.0543,0.12008,0.022313,0.0,0.0,0.0,0.034593,0.080117,0.034593,3.0,0.265067,0.357298,0.284842,0.376371,0.038451,0.113624,0.028673,0.12211,0.069141,0.103699,0.0,0.0,0.0,0.0,0.0,0.0
200404,0.056582,0.118401,0.024057,0.0,0.0,0.0,0.035304,0.079806,0.035304,3.0,0.241262,0.370877,0.272788,0.384953,0.04106,0.114862,0.030742,0.113657,0.060384,0.095209,0.0,0.0,0.0,0.0,0.0,0.0
200424,0.058087,0.117007,0.024986,0.0,0.0,0.0,0.037911,0.078601,0.037911,3.0,0.36113,0.268403,0.346456,0.315596,0.043474,0.115937,0.03263,0.111685,0.049332,0.093017,0.0,0.0,0.0,0.0,0.0,0.0
200444,0.05934,0.116232,0.025669,0.0,0.0,0.0,0.039396,0.077868,0.039396,3.0,0.323255,0.313154,0.316516,0.347709,0.046004,0.116719,0.034601,0.120226,0.03367,0.100639,0.0,0.0,0.0,0.0,0.0,0.0
200480,0.06061,0.116249,0.028546,0.0,0.0,0.0,0.042519,0.076207,0.042519,3.0,0.329443,0.299428,0.310949,0.358214,0.050461,0.117522,0.038037,0.116188,0.016521,0.096389,0.0,0.0,0.0,0.0,0.0,0.0
200488,0.061027,0.116337,0.029379,0.0,0.0,0.0,0.043439,0.075687,0.043439,3.0,0.299327,0.324566,0.288869,0.379157,0.051743,0.117622,0.039019,0.118951,0.009657,0.098907,0.0,0.0,0.0,0.0,0.0,0.0
200504,0.061485,0.117146,0.030685,0.0,0.0,0.0,0.044427,0.075111,0.044427,3.0,0.318598,0.304522,0.301251,0.371187,0.053707,0.117648,0.040519,0.118923,0.001835,0.098765,0.0,0.0,0.0,0.0,0.0,0.0
200524,0.062087,0.117941,0.032351,0.0,0.0,0.0,0.045178,0.074662,0.045178,3.0,0.290329,0.331807,0.279398,0.385911,0.056273,0.117526,0.042465,0.113025,-0.004795,0.093202,0.0,0.0,0.0,0.0,0.0,0.0
200544,0.062902,0.118992,0.033382,0.0,0.0,0.0,0.046766,0.073677,0.046766,3.0,0.321677,0.292705,0.310483,0.370351,0.05866,0.117306,0.044254,0.108631,-0.011914,0.089208,0.0,0.0,0.0,0.0,0.0,0.0
200564,0.064071,0.119909,0.034263,0.0,0.0,0.0,0.047561,0.073167,0.047561,3.0,0.290568,0.320565,0.296,0.383575,0.061004,0.116914,0.045999,0.104339,-0.018529,0.085262,0.0,0.0,0.0,0.0,0.0,0.0
200584,0.065752,0.120941,0.035367,0.0,0.0,0.0,0.050138,0.071426,0.050138,3.0,0.364107,0.219566,0.348883,0.341406,0.063219,0.116415,0.047631,0.103716,-0.027288,0.084965,0.0,0.0,0.0,0.0,0.0,0.0
200604,0.067825,0.121938,0.036929,0.0,0.0,0.0,0.050496,0.071173,0.050496,3.0,0.247365,0.336593,0.282459,0.405518,0.065553,0.115648,0.049355,0.105238,-0.037188,0.086624,0.0,0.0,0.0,0.0,0.0,0.0
200624,0.070024,0.122679,0.038612,0.0,0.0,0.0,0.052203,0.06993,0.052203,3.0,0.299599,0.299616,0.309676,0.383039,0.06775,0.1148,0.05096,0.099006,-0.041297,0.081276,0.0,0.0,0.0,0.0,0.0,0.0
200644,0.072544,0.122942,0.039673,0.0,0.0,0.0,0.054082,0.068487,0.054082,3.0,0.319902,0.27162,0.331066,0.369367,0.069918,0.113795,0.052541,0.103282,-0.053042,0.085837,0.0,0.0,0.0,0.0,0.0,0.0
200664,0.075308,0.122826,0.040852,0.0,0.0,0.0,0.055313,0.067498,0.055313,3.0,0.282319,0.31083,0.313799,0.383552,0.072179,0.112546,0.054197,0.105396,-0.0631,0.088405,0.0,0.0,0.0,0.0,0.0,0.0
200684,0.078322,0.122201,0.042279,0.0,0.0,0.0,0.056907,0.066159,0.056907,3.0,0.330791,0.258332,0.345083,0.355769,0.074398,0.111159,0.055817,0.09736,-0.064527,0.081562,0.0,0.0,0.0,0.0,0.0,0.0
200708,0.082443,0.121171,0.043902,0.0,0.0,0.0,0.058808,0.064475,0.058808,3.0,0.309513,0.28257,0.338301,0.363967,0.077064,0.109279,0.057759,0.099167,-0.076143,0.0843,0.0,0.0,0.0,0.0,0.0,0.0
200724,0.08505,0.120317,0.044867,0.0,0.0,0.0,0.059731,0.063621,0.059731,3.0,0.302958,0.285514,0.339955,0.365552,0.078698,0.107997,0.058953,0.100529,-0.083353,0.086187,0.0,0.0,0.0,0.0,0.0,0.0
200748,0.089401,0.118645,0.046619,0.0,0.0,0.0,0.061342,0.062069,0.061342,3.0,0.305108,0.285131,0.341432,0.362789,0.08135,0.105718,0.060891,0.094759,-0.087651,0.081948,0.0,0.0,0.0,0.0,0.0,0.0
200764,0.091875,0.117434,0.047498,0.0,0.0,0.0,0.06205,0.061362,0.06205,3.0,0.275213,0.3115,0.32964,0.374976,0.082898,0.10427,0.062022,0.095119,-0.093829,0.083014,0.0,0.0,0.0,0.0,0.0,0.0
200784,0.095336,0.115556,0.048834,0.0,0.0,0.0,0.062787,0.060607,0.062787,3.0,0.240607,0.338169,0.315525,0.384911,0.084909,0.102251,0.063493,0.09005,-0.096229,0.079255,0.0,0.0,0.0,0.0,0.0,0.0
200804,0.098518,0.113699,0.049692,0.0,0.0,0.0,0.063741,0.059603,0.063741,3.0,0.269653,0.318652,0.331492,0.371303,0.086767,0.100234,0.06485,0.083156,-0.096298,0.073844,0.0,0.0,0.0,0.0,0.0,0.0
200824,0.101458,0.111982,0.05045,0.0,0.0,0.0,0.065142,0.058069,0.065142,3.0,0.291161,0.299387,0.339848,0.364307,0.088502,0.098195,0.066116,0.081511,-0.101744,0.073367,0.0,0.0,0.0,0.0,0.0,0.0
200844,0.104053,0.110377,0.051596,0.0,0.0,0.0,0.066742,0.056222,0.066742,3.0,0.327849,0.250109,0.359048,0.349709,0.09022,0.096027,0.067376,0.078099,-0.104843,0.071191,0.0,0.0,0.0,0.0,0.0,0.0
200864,0.106407,0.108635,0.053002,0.0,0.0,0.0,0.067616,0.055168,0.067616,3.0,0.253657,0.326431,0.317559,0.385975,0.091946,0.093701,0.068649,0.082084,-0.116711,0.076067,0.0,0.0,0.0,0.0,0.0,0.0
200884,0.108147,0.10679,0.054454,0.0,0.0,0.0,0.068912,0.053541,0.068912,3.0,0.307072,0.278215,0.342212,0.365384,0.093639,0.09127,0.069904,0.075668,-0.115711,0.071256,0.0,0.0,0.0,0.0,0.0,0.0
200904,0.109628,0.105228,0.05543,0.0,0.0,0.0,0.069602,0.052641,0.069602,3.0,0.27688,0.311601,0.325893,0.376929,0.095261,0.088779,0.071114,0.073907,-0.120371,0.070841,0.0,0.0,0.0,0.0,0.0,0.0
200924,0.110734,0.103551,0.056428,0.0,0.0,0.0,0.071082,0.050624,0.071082,3.0,0.308997,0.277559,0.34303,0.363547,0.096806,0.086245,0.072274,0.073252,-0.126557,0.071513,0.0,0.0,0.0,0.0,0.0,0.0
200944,0.111594,0.101882,0.05744,0.0,0.0,0.0,0.071817,0.049575,0.071817,3.0,0.275337,0.316101,0.31725,0.381379,0.098359,0.083551,0.07345,0.071613,-0.13125,0.07122,0.0,0.0,0.0,0.0,0.0,0.0
200976,0.112455,0.099191,0.05923,0.0,0.0,0.0,0.073918,0.046385,0.073918,3.0,0.312302,0.275296,0.337402,0.367551,0.100859,0.078802,0.075368,0.065815,-0.134994,0.068061,0.0,0.0,0.0,0.0,0.0,0.0
200986,0.112577,0.098306,0.059759,0.0,0.0,0.0,0.074366,0.045664,0.074366,3.0,0.301379,0.293262,0.327293,0.37227,0.101564,0.077373,0.075915,0.066375,-0.139466,0.069214,0.0,0.0,0.0,0.0,0.0,0.0
201004,0.112945,0.096654,0.060802,0.0,0.0,0.0,0.074833,0.044893,0.074833,3.0,0.284167,0.309575,0.318219,0.379833,0.102616,0.07517,0.076734,0.064849,-0.142422,0.068765,0.0,0.0,0.0,0.0,0.0,0.0
201024,0.113306,0.094629,0.061988,0.0,0.0,0.0,0.07578,0.043276,0.07578,3.0,0.314568,0.275531,0.333596,0.368931,0.103931,0.072245,0.077772,0.057335,-0.136875,0.063055,0.0,0.0,0.0,0.0,0.0,0.0
201044,0.113888,0.092732,0.062776,0.0,0.0,0.0,0.07578,0.043276,0.07578,3.0,0.255309,0.337742,0.307462,0.383382,0.105142,0.069345,0.078743,0.052637,-0.13567,0.059916,0.0,0.0,0.0,0.0,0.0,0.0
201064,0.114584,0.090728,0.063333,0.0,0.0,0.0,0.077256,0.040582,0.077256,3.0,0.317663,0.271706,0.343314,0.360143,0.106181,0.066604,0.079602,0.050912,-0.139869,0.059596,0.0,0.0,0.0,0.0,0.0,0.0
201084,0.115409,0.088833,0.064,0.0,0.0,0.0,0.078029,0.039076,0.078029,3.0,0.295549,0.300549,0.333402,0.365945,0.107252,0.063655,0.080489,0.050869,-0.146953,0.060679,0.0,0.0,0.0,0.0,0.0,0.0
201104,0.116363,0.086539,0.06517,0.0,0.0,0.0,0.078653,0.037805,0.078653,3.0,0.283748,0.304712,0.327604,0.376185,0.108285,0.060628,0.081357,0.046369,-0.145179,0.057696,0.0,0.0,0.0,0.0,0.0,0.0
201124,0.117423,0.084132,0.066098,0.0,0.0,0.0,0.079654,0.035646,0.079654,3.0,0.290313,0.295545,0.332021,0.374687,0.109237,0.057613,0.082177,0.045405,-0.150855,0.058062,0.0,0.0,0.0,0.0,0.0,0.0
201144,0.118347,0.081493,0.066927,0.0,0.0,0.0,0.080209,0.034379,0.080209,3.0,0.272925,0.318653,0.325505,0.37425,0.110178,0.054458,0.082996,0.043811,-0.155247,0.057807,0.0,0.0,0.0,0.0,0.0,0.0
201164,0.119501,0.078588,0.06787,0.0,0.0,0.0,0.081063,0.032315,0.081063,3.0,0.299577,0.280894,0.343475,0.368183,0.111041,0.051316,0.08377,0.037423,-0.148141,0.053092,0.0,0.0,0.0,0.0,0.0,0.0
201184,0.120526,0.075586,0.068598,0.0,0.0,0.0,0.081388,0.031488,0.081388,3.0,0.257914,0.329324,0.321433,0.378114,0.11183,0.04818,0.084502,0.036184,-0.153405,0.053142,0.0,0.0,0.0,0.0,0.0,0.0
201204,0.121544,0.07259,0.069206,0.0,0.0,0.0,0.082366,0.028831,0.082366,3.0,0.306642,0.27279,0.352084,0.360127,0.112544,0.045063,0.08519,0.032877,-0.153412,0.05123,0.0,0.0,0.0,0.0,0.0,0.0
201224,0.122674,0.069217,0.069956,0.0,0.0,0.0,0.082785,0.027607,0.082785,3.0,0.270045,0.321445,0.330965,0.369204,0.11324,0.041803,0.085869,0.032706,-0.162332,0.052216,0.0,0.0,0.0,0.0,0.0,0.0
201256,0.12412,0.06434,0.071134,0.0,0.0,0.0,0.083822,0.024275,0.083822,3.0,0.285489,0.300313,0.341051,0.36661,0.114277,0.036165,0.086955,0.025591,-0.157941,0.047612,0.0,0.0,0.0,0.0,0.0,0.0
201264,0.124317,0.062603,0.071593,0.0,0.0,0.0,0.083902,0.023999,0.083902,3.0,0.272781,0.31514,0.3316,0.37202,0.11441,0.035353,0.087102,0.02543,-0.160094,0.047728,0.0,0.0,0.0,0.0,0.0,0.0
201284,0.125071,0.059381,0.072117,0.0,0.0,0.0,0.083984,0.023709,0.083984,3.0,0.261672,0.33286,0.329588,0.365972,0.114915,0.032062,0.087671,0.020823,-0.154735,0.044492,0.0,0.0,0.0,0.0,0.0,0.0
201304,0.125569,0.056173,0.072518,0.0,0.0,0.0,0.084564,0.021549,0.084564,3.0,0.285114,0.310813,0.338911,0.360532,0.115298,0.028986,0.088173,0.017255,-0.152915,0.042201,0.0,0.0,0.0,0.0,0.0,0.0
201324,0.126194,0.052834,0.073058,0.0,0.0,0.0,0.084927,0.02007,0.084927,3.0,0.269066,0.330409,0.328474,0.364347,0.115632,0.025864,0.088644,0.01472,-0.154554,0.040711,0.0,0.0,0.0,0.0,0.0,0.0
201344,0.126706,0.049735,0.073711,0.0,0.0,0.0,0.085502,0.017461,0.085502,3.0,0.28285,0.305022,0.334802,0.370422,0.115905,0.022747,0.089078,0.012052,-0.155816,0.039128,0.0,0.0,0.0,0.0,0.0,0.0
201364,0.126853,0.046892,0.07435,0.0,0.0,0.0,0.085789,0.01599,0.085789,3.0,0.273021,0.321828,0.327571,0.36985,0.116141,0.019523,0.089484,0.01019,-0.161185,0.038318,0.0,0.0,0.0,0.0,0.0,0.0
201384,0.126885,0.044186,0.074878,0.0,0.0,0.0,0.086166,0.013817,0.086166,3.0,0.292489,0.296348,0.335922,0.369151,0.11632,0.016286,0.089856,0.006548,-0.15739,0.0359,0.0,0.0,0.0,0.0,0.0,0.0
201404,0.12679,0.041364,0.075418,0.0,0.0,0.0,0.086384,0.012379,0.086384,3.0,0.27304,0.315828,0.328148,0.374234,0.11644,0.013041,0.090191,0.003921,-0.159315,0.034389,0.0,0.0,0.0,0.0,0.0,0.0
201424,0.126686,0.038539,0.075944,0.0,0.0,0.0,0.086631,0.010513,0.086631,3.0,0.276178,0.312828,0.332168,0.371135,0.116498,0.00981,0.09049,0.000996,-0.159696,0.032587,0.0,0.0,0.0,0.0,0.0,0.0
201444,0.12659,0.035846,0.076355,0.0,0.0,0.0,0.086791,0.009097,0.086791,3.0,0.278028,0.320271,0.332788,0.363231,0.116498,0.006562,0.090752,-0.001812,-0.161281,0.030855,0.0,0.0,0.0,0.0,0.0,0.0
201477,0.126076,0.031941,0.076959,0.0,0.0,0.0,0.087105,0.005307,0.087105,3.0,0.276061,0.309961,0.329123,0.37605,0.116338,0.001042,0.091124,-0.007429,-0.157195,0.027015,0.0,0.0,0.0,0.0,0.0,0.0
201486,0.126027,0.030595,0.077164,0.0,0.0,0.0,0.087154,0.004428,0.087154,3.0,0.269207,0.318433,0.328551,0.374268,0.116261,-0.000564,0.091207,-0.008646,-0.161196,0.026245,0.0,0.0,0.0,0.0,0.0,0.0
201504,0.125546,0.027672,0.077585,0.0,0.0,0.0,0.087195,0.003523,0.087195,3.0,0.281515,0.317623,0.331393,0.364255,0.11612,-0.003013,0.09131,-0.010901,-0.16141,0.024754,0.0,0.0,0.0,0.0,0.0,0.0
201524,0.125192,0.024753,0.077894,0.0,0.0,0.0,0.087233,0.002419,0.087233,3.0,0.276333,0.318548,0.331894,0.366624,0.115876,-0.006194,0.091419,-0.014289,-0.150948,0.022418,0.0,0.0,0.0,0.0,0.0,0.0
201544,0.124449,0.021491,0.078098,0.0,0.0,0.0,0.087265,0.000515,0.087265,3.0,0.275517,0.323868,0.330644,0.363796,0.115567,-0.009215,0.091503,-0.017188,-0.153003,0.020325,0.0,0.0,0.0,0.0,0.0,0.0
201564,0.123722,0.018473,0.078299,0.0,0.0,0.0,0.087265,-0.000523,0.087265,3.0,0.26867,0.332744,0.323172,0.367101,0.115201,-0.012243,0.091545,-0.020065,-0.14697,0.018204,0.0,0.0,0.0,0.0,0.0,0.0
201584,0.123217,0.015071,0.078622,0.0,0.0,0.0,0.087189,-0.003667,0.087189,3.0,0.261436,0.320539,0.323608,0.381426,0.114779,-0.01513,0.091563,-0.022979,-0.148473,0.015948,0.0,0.0,0.0,0.0,0.0,0.0
201604,0.122474,0.011695,0.078721,0.0,0.0,0.0,0.087181,-0.003868,0.087181,3.0,0.277477,0.336374,0.32598,0.355403,0.114297,-0.018175,0.091515,-0.025743,-0.147851,0.013872,0.0,0.0,0.0,0.0,0.0,0.0
201624,0.121719,0.008181,0.079052,0.0,0.0,0.0,0.087004,-0.006763,0.087004,3.0,0.267417,0.320836,0.320771,0.37984,0.113768,-0.021028,0.091457,-0.028289,-0.14178,0.012017,0.0,0.0,0.0,0.0,0.0,0.0
201644,0.120863,0.005052,0.079133,0.0,0.0,0.0,0.08685,-0.008511,0.08685,3.0,0.27398,0.328711,0.325631,0.365018,0.113178,-0.023955,0.091342,-0.03197,-0.152701,0.008979,0.0,0.0,0.0,0.0,0.0,0.0
201664,0.119736,0.001446,0.07923,0.0,0.0,0.0,0.086693,-0.009988,0.086693,3.0,0.276322,0.332412,0.321977,0.363294,0.112526,-0.026952,0.091172,-0.03457,-0.148664,0.007167,0.0,0.0,0.0,0.0,0.0,0.0
201684,0.118741,-0.001914,0.079186,0.0,0.0,0.0,0.086424,-0.012096,0.086424,3.0,0.262251,0.332881,0.319014,0.374461,0.111825,-0.029855,0.09098,-0.036951,-0.143489,0.005498,0.0,0.0,0.0,0.0,0.0,0.0
201714,0.117437,-0.007092,0.079262,0.0,0.0,0.0,0.085948,-0.015112,0.085948,3.0,0.274201,0.329551,0.327055,0.362902,0.110668,-0.034183,0.090613,-0.042075,-0.147789,0.001393,0.0,0.0,0.0,0.0,0.0,0.0
201729,0.116587,-0.009857,0.079296,0.0,0.0,0.0,0.08571,-0.016406,0.08571,3.0,0.273334,0.3351,0.32463,0.360645,0.110031,-0.036403,0.090376,-0.044609,-0.148927,-0.000567,0.0,0.0,0.0,0.0,0.0,0.0
201744,0.115752,-0.012486,0.079092,0.0,0.0,0.0,0.085445,-0.017737,0.085445,3.0,0.276212,0.333514,0.325598,0.359254,0.10936,-0.038621,0.090114,-0.046768,-0.147577,-0.002122,0.0,0.0,0.0,0.0,0.0,0.0
201764,0.114389,-0.015948,0.078922,0.0,0.0,0.0,0.085163,-0.019044,0.085163,3.0,0.277851,0.337003,0.324484,0.355879,0.108423,-0.041509,0.089744,-0.048571,-0.140624,-0.003224,0.0,0.0,0.0,0.0,0.0,0.0
201784,0.113031,-0.01942,0.078884,0.0,0.0,0.0,0.084877,-0.020282,0.084877,3.0,0.277846,0.342075,0.320687,0.354443,0.107449,-0.044273,0.089365,-0.051415,-0.139157,-0.005509,0.0,0.0,0.0,0.0,0.0,0.0
201804,0.111676,-0.022885,0.07872,0.0,0.0,0.0,0.084532,-0.021673,0.084532,3.0,0.285959,0.33954,0.324548,0.347432,0.106434,-0.046951,0.088964,-0.053172,-0.133446,-0.006874,0.0,0.0,0.0,0.0,0.0,0.0
201824,0.110561,-0.026244,0.078652,0.0,0.0,0.0,0.083982,-0.023718,0.083982,3.0,0.271516,0.344003,0.316123,0.36092,0.105387,-0.049511,0.088552,-0.055712,-0.131299,-0.009128,0.0,0.0,0.0,0.0,0.0,0.0
201844,0.109212,-0.029589,0.078473,0.0,0.0,0.0,0.083511,-0.025323,0.083511,3.0,0.274093,0.342968,0.313442,0.362365,0.104283,-0.052073,0.088085,-0.05779,-0.127986,-0.010961,0.0,0.0,0.0,0.0,0.0,0.0
201864,0.107617,-0.033041,0.078173,0.0,0.0,0.0,0.08287,-0.02735,0.08287,3.0,0.270527,0.345823,0.311261,0.363883,0.103132,-0.054589,0.087583,-0.061587,-0.13036,-0.014415,0.0,0.0,0.0,0.0,0.0,0.0
201884,0.106402,-0.036018,0.07783,0.0,0.0,0.0,0.082413,-0.028698,0.082413,3.0,0.285276,0.341166,0.32471,0.346222,0.101906,-0.05716,0.087003,-0.065393,-0.132257,-0.017762,0.0,0.0,0.0,0.0,0.0,0.0
201904,0.10507,-0.039109,0.077382,0.0,0.0,0.0,0.081706,-0.030652,0.081706,3.0,0.257743,0.345785,0.311581,0.371744,0.100642,-0.05966,0.086402,-0.064953,-0.121667,-0.017036,0.0,0.0,0.0,0.0,0.0,0.0
201924,0.103859,-0.042212,0.077052,0.0,0.0,0.0,0.081105,-0.032209,0.081105,3.0,0.269796,0.342686,0.319742,0.360254,0.099346,-0.062075,0.085784,-0.068519,-0.122844,-0.020278,0.0,0.0,0.0,0.0,0.0,0.0
201944,0.1024,-0.045428,0.076722,0.0,0.0,0.0,0.080401,-0.033929,0.080401,3.0,0.270137,0.349648,0.316851,0.355833,0.097991,-0.064484,0.085111,-0.072511,-0.124741,-0.023893,0.0,0.0,0.0,0.0,0.0,0.0
201979,0.099901,-0.050528,0.075851,0.0,0.0,0.0,0.079027,-0.037016,0.079027,3.0,0.266664,0.34462,0.317536,0.362382,0.095506,-0.068613,0.083843,-0.076536,-0.120391,-0.027376,0.0,0.0,0.0,0.0,0.0,0.0
201989,0.099128,-0.051825,0.075542,0.0,0.0,0.0,0.078667,-0.037774,0.078667,3.0,0.271841,0.34534,0.319005,0.356987,0.094761,-0.06979,0.083449,-0.079541,-0.123252,-0.030135,0.0,0.0,0.0,0.0,0.0,0.0
202004,0.098208,-0.053844,0.075145,0.0,0.0,0.0,0.078041,-0.039051,0.078041,3.0,0.270666,0.342864,0.318905,0.360215,0.093603,-0.07158,0.082815,-0.081123,-0.121024,-0.031402,0.0,0.0,0.0,0.0,0.0,0.0
202024,0.096658,-0.056677,0.074412,0.0,0.0,0.0,0.077694,-0.039737,0.077694,3.0,0.30473,0.328396,0.338367,0.329371,0.092034,-0.073894,0.081961,-0.08149,-0.114536,-0.031451,0.0,0.0,0.0,0.0,0.0,0.0
202044,0.095229,-0.059406,0.073915,0.0,0.0,0.0,0.076915,-0.041225,0.076915,3.0,0.285532,0.34293,0.322924,0.345921,0.09048,-0.076039,0.081145,-0.082431,-0.109602,-0.032317,0.0,0.0,0.0,0.0,0.0,0.0
202064,0.09355,-0.062139,0.073651,0.0,0.0,0.0,0.07634,-0.04228,0.07634,3.0,0.293782,0.340744,0.324062,0.340514,0.088908,-0.078092,0.080321,-0.082044,-0.102631,-0.032081,0.0,0.0,0.0,0.0,0.0,0.0
202084,0.09188,-0.064746,0.073255,0.0,0.0,0.0,0.074866,-0.044838,0.074866,3.0,0.245539,0.360733,0.296166,0.376553,0.087341,-0.080018,0.079512,-0.084679,-0.10151,-0.034891,0.0,0.0,0.0,0.0,0.0,0.0
202104,0.090093,-0.067451,0.072478,0.0,0.0,0.0,0.074866,-0.044838,0.074866,3.0,0.316845,0.332231,0.336091,0.316331,0.085678,-0.08201,0.078592,-0.086168,-0.098516,-0.036445,0.0,0.0,0.0,0.0,0.0,0.0
202124,0.08844,-0.069927,0.071823,0.0,0.0,0.0,0.072826,-0.048081,0.072826,3.0,0.233562,0.36206,0.291324,0.384968,0.084061,-0.083813,0.077736,-0.086839,-0.094167,-0.037368,0.0,0.0,0.0,0.0,0.0,0.0
202144,0.08668,-0.072152,0.071028,0.0,0.0,0.0,0.072045,-0.049244,0.072045,3.0,0.272026,0.351424,0.310057,0.358511,0.082323,-0.085717,0.07674,-0.096009,-0.103358,-0.04622,0.0,0.0,0.0,0.0,0.0,0.0
202164,0.084923,-0.074729,0.069879,0.0,0.0,0.0,0.071217,-0.050434,0.071217,3.0,0.312704,0.331183,0.335741,0.321876,0.080479,-0.087689,0.07563,-0.099439,-0.102877,-0.049246,0.0,0.0,0.0,0.0,0.0,0.0
202184,0.083051,-0.077066,0.068832,0.0,0.0,0.0,0.070448,-0.051502,0.070448,3.0,0.299801,0.340572,0.326081,0.333711,0.078619,-0.089579,0.074518,-0.097687,-0.094891,-0.047376,0.0,0.0,0.0,0.0,0.0,0.0
202208,0.080417,-0.079759,0.068125,0.0,0.0,0.0,0.0685,-0.054067,0.0685,3.0,0.221171,0.374121,0.285781,0.3832,0.076312,-0.091771,0.073165,-0.101281,-0.09338,-0.050892,0.0,0.0,0.0,0.0,0.0,0.0
202224,0.079282,-0.081658,0.067572,0.0,0.0,0.0,0.067683,-0.055086,0.067683,3.0,0.262547,0.363052,0.298025,0.362839,0.074844,-0.093131,0.072262,-0.105944,-0.095694,-0.055276,0.0,0.0,0.0,0.0,0.0,0.0
202253,0.07593,-0.085271,0.065888,0.0,0.0,0.0,0.065972,-0.057124,0.065972,3.0,0.27236,0.354541,0.310733,0.354645,0.071854,-0.095761,0.070414,-0.106553,-0.088842,-0.055641,0.0,0.0,0.0,0.0,0.0,0.0
202264,0.074937,-0.086562,0.065295,0.0,0.0,0.0,0.065605,-0.057545,0.065605,3.0,0.298499,0.34413,0.323063,0.334056,0.070841,-0.096609,0.069786,-0.109259,-0.089625,-0.058195,0.0,0.0,0.0,0.0,0.0,0.0
202284,0.072949,-0.08891,0.064339,0.0,0.0,0.0,0.065605,-0.057545,0.065605,3.0,0.329458,0.332198,0.336661,0.302337,0.068808,-0.098247,0.068528,-0.102487,-0.077032,-0.051748,0.0,0.0,0.0,0.0,0.0,0.0
202304,0.070567,-0.09151,0.06386,0.0,0.0,0.0,0.063609,-0.059744,0.063609,3.0,0.261748,0.36972,0.291968,0.361161,0.066923,-0.099618,0.067443,-0.105275,-0.075832,-0.054963,0.0,0.0,0.0,0.0,0.0,0.0
202324,0.068207,-0.09386,0.063122,0.0,0.0,0.0,0.062496,-0.060907,0.062496,3.0,0.291136,0.360821,0.306795,0.337318,0.064919,-0.101051,0.066217,-0.109609,-0.076473,-0.059498,0.0,0.0,0.0,0.0,0.0,0.0
202344,0.065892,-0.095944,0.061636,0.0,0.0,0.0,0.061276,-0.062134,0.061276,3.0,0.299484,0.347506,0.319109,0.333421,0.062876,-0.10245,0.064946,-0.108495,-0.071187,-0.058696,0.0,0.0,0.0,0.0,0.0,0.0
202364,0.063455,-0.098151,0.060143,0.0,0.0,0.0,0.059512,-0.063826,0.059512,3.0,0.274851,0.360788,0.303323,0.352678,0.060819,-0.103787,0.063658,-0.113989,-0.072606,-0.064212,0.0,0.0,0.0,0.0,0.0,0.0
202384,0.061019,-0.100003,0.058875,0.0,0.0,0.0,0.059512,-0.063826,0.059512,3.0,0.331562,0.334926,0.331299,0.302983,0.058664,-0.105148,0.062262,-0.111234,-0.065954,-0.061666,0.0,0.0,0.0,0.0,0.0,0.0
202404,0.058568,-0.101627,0.058083,0.0,0.0,0.0,0.057681,-0.065485,0.057681,3.0,0.253895,0.373769,0.283064,0.368291,0.056641,-0.106302,0.061017,-0.109608,-0.060616,-0.060587,0.0,0.0,0.0,0.0,0.0,0.0
202424,0.055869,-0.103251,0.057397,0.0,0.0,0.0,0.055557,-0.067296,0.055557,3.0,0.221922,0.386495,0.26373,0.384608,0.054552,-0.10745,0.059692,-0.117952,-0.064413,-0.068995,0.0,0.0,0.0,0.0,0.0,0.0
202444,0.053212,-0.104976,0.055853,0.0,0.0,0.0,0.054326,-0.068295,0.054326,3.0,0.298614,0.351204,0.314752,0.3343,0.052303,-0.108676,0.058184,-0.124154,-0.065795,-0.074911,0.0,0.0,0.0,0.0,0.0,0.0
202478,0.04879,-0.107231,0.052749,0.0,0.0,0.0,0.051584,-0.070388,0.051584,3.0,0.278638,0.360605,0.297215,0.355054,0.048312,-0.110693,0.055502,-0.124818,-0.059389,-0.075488,0.0,0.0,0.0,0.0,0.0,0.0
202488,0.047582,-0.108043,0.052097,0.0,0.0,0.0,0.050885,-0.070896,0.050885,3.0,0.290474,0.360122,0.300698,0.34382,0.047145,-0.11125,0.054707,-0.127767,-0.059687,-0.078286,0.0,0.0,0.0,0.0,0.0,0.0
202504,0.045525,-0.108956,0.051281,0.0,0.0,0.0,0.049826,-0.071644,0.049826,3.0,0.275017,0.367336,0.290431,0.355908,0.04536,-0.112079,0.053481,-0.128324,-0.057177,-0.078738,0.0,0.0,0.0,0.0,0.0,0.0
202524,0.042752,-0.110091,0.050062,0.0,0.0,0.0,0.049371,-0.071958,0.049371,3.0,0.319914,0.344991,0.314249,0.321856,0.042993,-0.11311,0.051867,-0.123859,-0.050209,-0.074483,0.0,0.0,0.0,0.0,0.0,0.0
202544,0.040081,-0.111238,0.049213,0.0,0.0,0.0,0.047434,-0.073249,0.047434,3.0,0.264553,0.376599,0.274523,0.364661,0.040752,-0.113978,0.050394,-0.123604,-0.046454,-0.07469,0.0,0.0,0.0,0.0,0.0,0.0
202564,0.037551,-0.112135,0.048107,0.0,0.0,0.0,0.046042,-0.074132,0.046042,3.0,0.297529,0.361192,0.294529,0.342046,0.03846,-0.114819,0.048856,-0.125908,-0.044611,-0.077335,0.0,0.0,0.0,0.0,0.0,0.0
202584,0.034789,-0.113516,0.046636,0.0,0.0,0.0,0.044335,-0.075165,0.044335,3.0,0.302114,0.358982,0.301142,0.335015,0.036136,-0.11562,0.047277,-0.129356,-0.043362,-0.080986,0.0,0.0,0.0,0.0,0.0,0.0
202604,0.03254,-0.114542,0.044936,0.0,0.0,0.0,0.042742,-0.076083,0.042742,3.0,0.297892,0.358148,0.304859,0.336313,0.033772,-0.116385,0.04565,-0.129087,-0.039788,-0.081007,0.0,0.0,0.0,0.0,0.0,0.0
202624,0.03015,-0.115816,0.043474,0.0,0.0,0.0,0.041357,-0.076844,0.041357,3.0,0.293725,0.360761,0.301109,0.340172,0.031396,-0.117094,0.044006,-0.12765,-0.035667,-0.079932,0.0,0.0,0.0,0.0,0.0,0.0
202644,0.027652,-0.116603,0.041994,0.0,0.0,0.0,0.03959,-0.077769,0.03959,3.0,0.28471,0.364824,0.293579,0.349062,0.029033,-0.117735,0.042372,-0.130456,-0.033935,-0.082972,0.0,0.0,0.0,0.0,0.0,0.0
202664,0.024896,-0.117391,0.040742,0.0,0.0,0.0,0.038234,-0.078445,0.038234,3.0,0.301641,0.358841,0.299407,0.337062,0.026626,-0.118341,0.040685,-0.132012,-0.031486,-0.084749,0.0,0.0,0.0,0.0,0.0,0.0
202684,0.022517,-0.118066,0.039385,0.0,0.0,0.0,0.037047,-0.079012,0.037047,3.0,0.311628,0.351846,0.307515,0.328625,0.02423,-0.118881,0.039004,-0.12882,-0.026724,-0.082057,0.0,0.0,0.0,0.0,0.0,0.0
202705,0.01989,-0.118982,0.038013,0.0,0.0,0.0,0.034039,-0.080354,0.034039,3.0,0.219333,0.395637,0.241392,0.388869,0.021299,-0.119442,0.036963,-0.130942,-0.023882,-0.084746,0.0,0.0,0.0,0.0,0.0,0.0
202724,0.017512,-0.120026,0.036532,0.0,0.0,0.0,0.033348,-0.080643,0.033348,3.0,0.308353,0.357584,0.303992,0.328485,0.019453,-0.11978,0.035636,-0.13683,-0.02416,-0.090565,0.0,0.0,0.0,0.0,0.0,0.0
202758,0.013146,-0.121519,0.033454,0.0,0.0,0.0,0.030252,-0.081855,0.030252,3.0,0.286473,0.36699,0.289995,0.348223,0.015212,-0.120413,0.032601,-0.132261,-0.016836,-0.086822,0.0,0.0,0.0,0.0,0.0,0.0
202764,0.012668,-0.121876,0.033182,0.0,0.0,0.0,0.029873,-0.081994,0.029873,3.0,0.273485,0.375336,0.277725,0.357838,0.014603,-0.120491,0.032162,-0.13383,-0.016698,-0.088415,0.0,0.0,0.0,0.0,0.0,0.0
202784,0.010178,-0.122684,0.031682,0.0,0.0,0.0,0.029873,-0.081994,0.029873,3.0,0.346783,0.333048,0.320921,0.298814,0.012152,-0.120774,0.030386,-0.126431,-0.010991,-0.081715,0.0,0.0,0.0,0.0,0.0,0.0
202804,0.007653,-0.123382,0.030798,0.0,0.0,0.0,0.026964,-0.082996,0.026964,3.0,0.23666,0.395824,0.243701,0.379203,0.009911,-0.120919,0.028828,-0.127207,-0.008878,-0.084377,0.0,0.0,0.0,0.0,0.0,0.0
202824,0.005159,-0.123586,0.029536,0.0,0.0,0.0,0.025823,-0.083358,0.025823,3.0,0.310169,0.358017,0.298236,0.331416,0.007552,-0.12107,0.027099,-0.129717,-0.007022,-0.087226,0.0,0.0,0.0,0.0,0.0,0.0
202844,0.003086,-0.124163,0.027314,0.0,0.0,0.0,0.023063,-0.084164,0.023063,3.0,0.231038,0.392534,0.262237,0.374907,0.00521,-0.121164,0.025383,-0.129253,-0.004027,-0.087101,0.0,0.0,0.0,0.0,0.0,0.0
202864,0.00088,-0.124491,0.025324,0.0,0.0,0.0,0.022083,-0.084426,0.022083,3.0,0.33862,0.337323,0.323477,0.300808,0.002754,-0.121242,0.023536,-0.137001,-0.003356,-0.094565,0.0,0.0,0.0,0.0,0.0,0.0
202884,-0.000964,-0.12459,0.023484,0.0,0.0,0.0,0.019608,-0.085035,0.019608,3.0,0.202903,0.402584,0.244985,0.386604,0.000319,-0.121261,0.021712,-0.12855,0.001782,-0.086642,0.0,0.0,0.0,0.0,0.0,0.0
202904,-0.002959,-0.124569,0.022126,0.0,0.0,0.0,0.018622,-0.085256,0.018622,3.0,0.317056,0.352436,0.303257,0.326712,-0.002122,-0.121228,0.019875,-0.136293,0.002731,-0.09423,0.0,0.0,0.0,0.0,0.0,0.0
202924,-0.004819,-0.124673,0.02053,0.0,0.0,0.0,0.016483,-0.085696,0.016483,3.0,0.265741,0.383525,0.270042,0.359536,-0.004558,-0.121143,0.018041,-0.133256,0.006277,-0.091578,0.0,0.0,0.0,0.0,0.0,0.0
202944,-0.00681,-0.12429,0.019173,0.0,0.0,0.0,0.015961,-0.085794,0.015961,3.0,0.342262,0.335497,0.317273,0.305343,-0.007014,-0.12101,0.016177,-0.131164,0.009438,-0.089853,0.0,0.0,0.0,0.0,0.0,0.0
202993,-0.011484,-0.123895,0.015676,0.0,0.0,0.0,0.010167,-0.086672,0.010167,3.0,0.252423,0.389298,0.261089,0.367391,-0.012942,-0.120412,0.0117,-0.137511,0.015246,-0.097147,0.0,0.0,0.0,0.0,0.0,0.0
203002,-0.011934,-0.123894,0.015032,0.0,0.0,0.0,0.009353,-0.086764,0.009353,3.0,0.307706,0.356563,0.303168,0.330946,-0.014204,-0.120269,0.010715,-0.139025,0.016482,-0.098631,0.0,0.0,0.0,0.0,0.0,0.0
203013,-0.013294,-0.12352,0.013344,0.0,0.0,0.0,0.00852,-0.08685,0.00852,3.0,0.309779,0.353355,0.307377,0.328806,-0.015472,-0.120115,0.009721,-0.138097,0.018031,-0.097768,0.0,0.0,0.0,0.0,0.0,0.0
203024,-0.014323,-0.12352,0.012171,0.0,0.0,0.0,0.008126,-0.086887,0.008126,3.0,0.340509,0.329144,0.327881,0.303066,-0.016732,-0.119946,0.008736,-0.137609,0.019529,-0.097345,0.0,0.0,0.0,0.0,0.0,0.0
203044,-0.016173,-0.123275,0.010455,0.0,0.0,0.0,0.007196,-0.086969,0.007196,3.0,0.339158,0.332118,0.316374,0.313558,-0.019183,-0.11956,0.006838,-0.129538,0.023057,-0.089953,0.0,0.0,0.0,0.0,0.0,0.0
203064,-0.018319,-0.12278,0.009586,0.0,0.0,0.0,0.00494,-0.087127,0.00494,3.0,0.271185,0.381345,0.262128,0.363451,-0.02147,-0.119106,0.005106,-0.127213,0.02587,-0.088467,0.0,0.0,0.0,0.0,0.0,0.0
203084,-0.020696,-0.122653,0.008453,0.0,0.0,0.0,0.003042,-0.087213,0.003042,3.0,0.270442,0.386679,0.259862,0.35962,-0.023777,-0.118608,0.003332,-0.128954,0.028302,-0.090834,0.0,0.0,0.0,0.0,0.0,0.0
203104,-0.02289,-0.12254,0.006347,0.0,0.0,0.0,0.001444,-0.087255,0.001444,3.0,0.303082,0.365471,0.294378,0.332715,-0.026115,-0.118067,0.001509,-0.126374,0.030905,-0.088953,0.0,0.0,0.0,0.0,0.0,0.0
203124,-0.024834,-0.121825,0.004141,0.0,0.0,0.0,-0.000494,-0.087265,-0.000494,3.0,0.30708,0.358423,0.297969,0.333986,-0.028421,-0.117478,-0.000295,-0.128495,0.033432,-0.091559,0.0,0.0,0.0,0.0,0.0,0.0
203144,-0.027052,-0.121471,0.002407,0.0,0.0,0.0,-0.002292,-0.087236,-0.002292,3.0,0.305116,0.363387,0.289323,0.337443,-0.030758,-0.116844,-0.002145,-0.13038,0.03606,-0.093829,0.0,0.0,0.0,0.0,0.0,0.0
203164,-0.029042,-0.120874,0.000939,0.0,0.0,0.0,-0.003061,-0.087213,-0.003061,3.0,0.33492,0.342302,0.30525,0.317938,-0.033103,-0.116163,-0.004017,-0.123806,0.038447,-0.08799,0.0,0.0,0.0,0.0,0.0,0.0
203184,-0.031169,-0.120153,-0.000288,0.0,0.0,0.0,-0.005946,-0.087064,-0.005946,3.0,0.217575,0.406389,0.218816,0.3892,-0.035298,-0.115436,-0.005742,-0.12285,0.040934,-0.087818,0.0,0.0,0.0,0.0,0.0,0.0
203204,-0.033398,-0.119197,-0.001884,0.0,0.0,0.0,-0.00755,-0.086939,-0.00755,3.0,0.304509,0.365035,0.277272,0.345476,-0.037597,-0.114662,-0.007597,-0.130215,0.043965,-0.095331,0.0,0.0,0.0,0.0,0.0,0.0
203265,-0.039549,-0.115993,-0.007602,0.0,0.0,0.0,-0.013585,-0.086203,-0.013585,3.0,0.272775,0.380673,0.258413,0.365426,-0.04501,-0.111827,-0.013644,-0.125821,0.052133,-0.092513,0.0,0.0,0.0,0.0,0.0,0.0
203268,-0.040129,-0.116003,-0.008128,0.0,0.0,0.0,-0.013585,-0.086203,-0.013585,3.0,0.272775,0.380673,0.258413,0.365426,-0.04501,-0.111827,-0.013644,-0.125821,0.052133,-0.092513,0.0,0.0,0.0,0.0,0.0,0.0
203271,-0.040129,-0.116003,-0.008128,0.0,0.0,0.0,-0.013706,-0.086183,-0.013706,3.0,0.308241,0.362741,0.284492,0.339265,-0.045586,-0.111588,-0.014121,-0.126551,0.052917,-0.093285,0.0,0.0,0.0,0.0,0.0,0.0
203284,-0.041654,-0.115173,-0.009306,0.0,0.0,0.0,-0.013706,-0.086183,-0.013706,3.0,0.348519,0.32921,0.313046,0.309384,-0.046741,-0.111099,-0.01508,-0.122587,0.053617,-0.089655,0.0,0.0,0.0,0.0,0.0,0.0
203304,-0.043769,-0.114233,-0.010882,0.0,0.0,0.0,-0.015284,-0.085918,-0.015284,3.0,0.325965,0.347407,0.290232,0.334778,-0.048893,-0.110106,-0.016837,-0.115645,0.055021,-0.08366,0.0,0.0,0.0,0.0,0.0,0.0
203324,-0.045909,-0.113043,-0.012082,0.0,0.0,0.0,-0.017191,-0.085556,-0.017191,3.0,0.297678,0.367929,0.270711,0.352664,-0.050957,-0.109081,-0.018517,-0.114225,0.05721,-0.083147,0.0,0.0,0.0,0.0,0.0,0.0
203344,-0.048034,-0.111983,-0.013527,0.0,0.0,0.0,-0.019946,-0.084956,-0.019946,3.0,0.24435,0.396105,0.233982,0.37992,-0.053038,-0.10801,-0.020237,-0.118677,0.060634,-0.088131,0.0,0.0,0.0,0.0,0.0,0.0
203364,-0.050346,-0.111438,-0.015976,0.0,0.0,0.0,-0.020904,-0.084726,-0.020904,3.0,0.360686,0.31853,0.325804,0.29213,-0.055255,-0.106867,-0.022121,-0.121419,0.063878,-0.091071,0.0,0.0,0.0,0.0,0.0,0.0
203384,-0.052179,-0.110287,-0.01838,0.0,0.0,0.0,-0.022413,-0.084339,-0.022413,3.0,0.318786,0.349716,0.303501,0.327818,-0.05738,-0.105696,-0.023916,-0.110592,0.063742,-0.081182,0.0,0.0,0.0,0.0,0.0,0.0
203404,-0.054184,-0.108996,-0.019925,0.0,0.0,0.0,-0.024802,-0.083668,-0.024802,3.0,0.271694,0.384605,0.251056,0.366414,-0.059403,-0.104501,-0.025618,-0.114678,0.06744,-0.085753,0.0,0.0,0.0,0.0,0.0,0.0
203424,-0.056314,-0.107959,-0.021485,0.0,0.0,0.0,-0.024802,-0.083668,-0.024802,3.0,0.356404,0.323664,0.31018,0.308843,-0.061502,-0.103241,-0.027417,-0.106863,0.067627,-0.078776,0.0,0.0,0.0,0.0,0.0,0.0
203444,-0.058458,-0.107151,-0.022678,0.0,0.0,0.0,-0.028288,-0.082554,-0.028288,3.0,0.15,0.437298,0.15,0.412204,-0.063368,-0.101998,-0.028983,-0.103577,0.069086,-0.076548,0.0,0.0,0.0,0.0,0.0,0.0
203480,-0.062182,-0.105705,-0.026505,0.0,0.0,0.0,-0.031856,-0.081244,-0.031856,3.0,0.334024,0.345183,0.305869,0.315094,-0.067473,-0.099263,-0.032575,-0.115955,0.078668,-0.089123,0.0,0.0,0.0,0.0,0.0,0.0
203499,-0.064142,-0.10447,-0.029144,0.0,0.0,0.0,-0.032993,-0.080789,-0.032993,3.0,0.328609,0.34582,0.302455,0.323275,-0.069068,-0.098167,-0.033992,-0.11412,0.080122,-0.087424,0.0,0.0,0.0,0.0,0.0,0.0
203514,-0.065537,-0.10356,-0.030776,0.0,0.0,0.0,-0.034172,-0.080298,-0.034172,3.0,0.324994,0.350371,0.295728,0.327913,-0.070638,-0.09705,-0.035387,-0.11221,0.08154,-0.085696,0.0,0.0,0.0,0.0,0.0,0.0
203524,-0.066624,-0.102612,-0.031286,0.0,0.0,0.0,-0.034921,-0.079975,-0.034921,3.0,0.321885,0.355263,0.285764,0.333927,-0.071668,-0.096295,-0.036301,-0.111382,0.082667,-0.085003,0.0,0.0,0.0,0.0,0.0,0.0
203544,-0.068539,-0.10109,-0.03255,0.0,0.0,0.0,-0.034921,-0.079975,-0.034921,3.0,0.359781,0.322485,0.304396,0.311699,-0.073664,-0.094771,-0.038065,-0.09914,0.080086,-0.073697,0.0,0.0,0.0,0.0,0.0,0.0
203564,-0.070728,-0.099312,-0.033323,0.0,0.0,0.0,-0.037633,-0.078735,-0.037633,3.0,0.256785,0.399345,0.21229,0.379643,-0.075389,-0.093309,-0.039552,-0.097932,0.082297,-0.073509,0.0,0.0,0.0,0.0,0.0,0.0
203584,-0.07266,-0.097663,-0.034329,0.0,0.0,0.0,-0.038592,-0.078269,-0.038592,3.0,0.331309,0.347404,0.280127,0.337644,-0.07722,-0.091751,-0.041181,-0.099241,0.085511,-0.075501,0.0,0.0,0.0,0.0,0.0,0.0
203604,-0.074531,-0.095944,-0.036673,0.0,0.0,0.0,-0.041086,-0.076989,-0.041086,3.0,0.267929,0.388289,0.247444,0.367039,-0.078974,-0.090182,-0.042745,-0.093761,0.085432,-0.071007,0.0,0.0,0.0,0.0,0.0,0.0
203624,-0.076411,-0.094224,-0.038889,0.0,0.0,0.0,-0.042338,-0.076308,-0.042338,3.0,0.345829,0.330436,0.305787,0.318273,-0.080772,-0.08854,-0.044378,-0.100698,0.091969,-0.078183,0.0,0.0,0.0,0.0,0.0,0.0
203644,-0.078064,-0.092734,-0.040733,0.0,0.0,0.0,-0.042793,-0.076054,-0.042793,3.0,0.360535,0.314525,0.309838,0.313643,-0.082565,-0.08685,-0.046021,-0.089784,0.08862,-0.068226,0.0,0.0,0.0,0.0,0.0,0.0
203664,-0.079892,-0.090729,-0.041704,0.0,0.0,0.0,-0.04553,-0.074448,-0.04553,3.0,0.213211,0.413809,0.181501,0.397086,-0.08415,-0.085221,-0.047454,-0.086584,0.089506,-0.066047,0.0,0.0,0.0,0.0,0.0,0.0
203684,-0.081699,-0.089233,-0.043065,0.0,0.0,0.0,-0.046722,-0.073706,-0.046722,3.0,0.319695,0.354338,0.273875,0.346006,-0.085825,-0.08349,-0.049009,-0.093886,0.096816,-0.073643,0.0,0.0,0.0,0.0,0.0,0.0
203704,-0.083586,-0.088009,-0.045162,0.0,0.0,0.0,-0.048459,-0.072575,-0.048459,3.0,0.320323,0.35901,0.275925,0.338994,-0.087502,-0.081706,-0.050583,-0.090408,0.09758,-0.070771,0.0,0.0,0.0,0.0,0.0,0.0
203733,-0.086558,-0.08612,-0.048129,0.0,0.0,0.0,-0.050951,-0.070848,-0.050951,3.0,0.322868,0.362984,0.274386,0.333393,-0.089976,-0.078952,-0.052927,-0.089173,0.101333,-0.070246,0.0,0.0,0.0,0.0,0.0,0.0
203745,-0.087629,-0.085689,-0.049004,0.0,0.0,0.0,-0.051487,-0.070459,-0.051487,3.0,0.334515,0.352024,0.282882,0.327305,-0.090808,-0.078,-0.053725,-0.090266,0.103725,-0.071451,0.0,0.0,0.0,0.0,0.0,0.0
203764,-0.089788,-0.084471,-0.050742,0.0,0.0,0.0,-0.052938,-0.069376,-0.052938,3.0,0.324997,0.360952,0.266402,0.339488,-0.092466,-0.076056,-0.055322,-0.087385,0.104852,-0.068968,0.0,0.0,0.0,0.0,0.0,0.0
203784,-0.092215,-0.083002,-0.052108,0.0,0.0,0.0,-0.053875,-0.06865,-0.053875,3.0,0.324249,0.363108,0.259157,0.342875,-0.094045,-0.074109,-0.056844,-0.079356,0.101861,-0.061702,0.0,0.0,0.0,0.0,0.0,0.0
203804,-0.094769,-0.08177,-0.053242,0.0,0.0,0.0,-0.054969,-0.067778,-0.054969,3.0,0.347737,0.343328,0.27304,0.330563,-0.095506,-0.072191,-0.058251,-0.077886,0.10389,-0.060948,0.0,0.0,0.0,0.0,0.0,0.0
203824,-0.097436,-0.080544,-0.054488,0.0,0.0,0.0,-0.056568,-0.066449,-0.056568,3.0,0.32271,0.368286,0.249717,0.344845,-0.096886,-0.070276,-0.059592,-0.074028,0.103888,-0.058033,0.0,0.0,0.0,0.0,0.0,0.0
203844,-0.100098,-0.079223,-0.056098,0.0,0.0,0.0,-0.057079,-0.066011,-0.057079,3.0,0.366072,0.326799,0.288578,0.314158,-0.098247,-0.068319,-0.060932,-0.068883,0.102497,-0.053888,0.0,0.0,0.0,0.0,0.0,0.0
203864,-0.102655,-0.077769,-0.05745,0.0,0.0,0.0,-0.059676,-0.063673,-0.059676,3.0,0.289202,0.392427,0.218452,0.363115,-0.099457,-0.066431,-0.062129,-0.063529,0.100777,-0.049755,0.0,0.0,0.0,0.0,0.0,0.0
203884,-0.104843,-0.076316,-0.058907,0.0,0.0,0.0,-0.060623,-0.062772,-0.060623,3.0,0.341623,0.352068,0.260042,0.337185,-0.100732,-0.064429,-0.063425,-0.072912,0.112822,-0.059455,0.0,0.0,0.0,0.0,0.0,0.0
203904,-0.10714,-0.074773,-0.060845,0.0,0.0,0.0,-0.061791,-0.061622,-0.061791,3.0,0.359496,0.333219,0.288333,0.315483,-0.102048,-0.062328,-0.064786,-0.068941,0.112401,-0.056086,0.0,0.0,0.0,0.0,0.0,0.0
203924,-0.109206,-0.0731,-0.062642,0.0,0.0,0.0,-0.062696,-0.060701,-0.062696,3.0,0.368896,0.323827,0.292973,0.309806,-0.103293,-0.060231,-0.066083,-0.06371,0.110552,-0.05159,0.0,0.0,0.0,0.0,0.0,0.0
203944,-0.111185,-0.070903,-0.063783,0.0,0.0,0.0,-0.064216,-0.059091,-0.064216,3.0,0.322965,0.370486,0.24451,0.345443,-0.104439,-0.058166,-0.067289,-0.059527,0.1096,-0.04827,0.0,0.0,0.0,0.0,0.0,0.0
203964,-0.112931,-0.068936,-0.064695,0.0,0.0,0.0,-0.065398,-0.05778,-0.065398,3.0,0.325447,0.364624,0.243386,0.350168,-0.105567,-0.056055,-0.068495,-0.060949,0.114758,-0.050271,0.0,0.0,0.0,0.0,0.0,0.0
204020,-0.117025,-0.063314,-0.068467,0.0,0.0,0.0,-0.069067,-0.05334,-0.069067,3.0,0.324377,0.360812,0.2558,0.347424,-0.108755,-0.049529,-0.072011,-0.054972,0.119174,-0.046263,0.0,0.0,0.0,0.0,0.0,0.0
204023,-0.117515,-0.062995,-0.068955,0.0,0.0,0.0,-0.069067,-0.05334,-0.069067,3.0,0.324377,0.360812,0.2558,0.347424,-0.108755,-0.049529,-0.072011,-0.054972,0.119174,-0.046263,0.0,0.0,0.0,0.0,0.0,0.0
204027,-0.117515,-0.062995,-0.068955,0.0,0.0,0.0,-0.069146,-0.053238,-0.069146,3.0,0.348838,0.342915,0.274835,0.328428,-0.109015,-0.048962,-0.072306,-0.055044,0.120299,-0.046437,0.0,0.0,0.0,0.0,0.0,0.0
204044,-0.118539,-0.060545,-0.07016,0.0,0.0,0.0,-0.069703,-0.052506,-0.069703,3.0,0.347408,0.337146,0.277414,0.333932,-0.109787,-0.047243,-0.073187,-0.052846,0.120523,-0.044629,0.0,0.0,0.0,0.0,0.0,0.0
204064,-0.119308,-0.058454,-0.071379,0.0,0.0,0.0,-0.070511,-0.051416,-0.070511,3.0,0.353013,0.331531,0.285041,0.327496,-0.110726,-0.044997,-0.074274,-0.046773,0.116426,-0.039349,0.0,0.0,0.0,0.0,0.0,0.0
204084,-0.120204,-0.056476,-0.072362,0.0,0.0,0.0,-0.071186,-0.050478,-0.071186,3.0,0.349799,0.340309,0.269838,0.333911,-0.111555,-0.042823,-0.075253,-0.040366,0.111434,-0.03399,0.0,0.0,0.0,0.0,0.0,0.0
204104,-0.121356,-0.054617,-0.073125,0.0,0.0,0.0,-0.072653,-0.048342,-0.072653,3.0,0.310097,0.381165,0.228536,0.354075,-0.112278,-0.040718,-0.076137,-0.038964,0.113422,-0.03361,0.0,0.0,0.0,0.0,0.0,0.0
204124,-0.122232,-0.053249,-0.074142,0.0,0.0,0.0,-0.07391,-0.046397,-0.07391,3.0,0.321784,0.37195,0.24487,0.344689,-0.113025,-0.038503,-0.077076,-0.040674,0.120241,-0.03602,0.0,0.0,0.0,0.0,0.0,0.0
204144,-0.122987,-0.05179,-0.075648,0.0,0.0,0.0,-0.07447,-0.045494,-0.07447,3.0,0.362432,0.326151,0.291141,0.316972,-0.113804,-0.036158,-0.078075,-0.039823,0.123411,-0.035688,0.0,0.0,0.0,0.0,0.0,0.0
204164,-0.123609,-0.050446,-0.077144,0.0,0.0,0.0,-0.075272,-0.044153,-0.075272,3.0,0.343176,0.346362,0.281774,0.325297,-0.114495,-0.033865,-0.07899,-0.0325,0.115745,-0.029215,0.0,0.0,0.0,0.0,0.0,0.0
204184,-0.124256,-0.049183,-0.077932,0.0,0.0,0.0,-0.076356,-0.042252,-0.076356,3.0,0.334746,0.355626,0.261479,0.339286,-0.115099,-0.031629,-0.079824,-0.033176,0.121727,-0.03057,0.0,0.0,0.0,0.0,0.0,0.0
204204,-0.124785,-0.04767,-0.078688,0.0,0.0,0.0,-0.077257,-0.040582,-0.077257,3.0,0.331296,0.36244,0.256744,0.338542,-0.115704,-0.029301,-0.080684,-0.030918,0.122536,-0.028998,0.0,0.0,0.0,0.0,0.0,0.0
204256,-0.125942,-0.044843,-0.081313,0.0,0.0,0.0,-0.079614,-0.035736,-0.079614,3.0,0.334778,0.358239,0.267488,0.332123,-0.117168,-0.022761,-0.082921,-0.025882,0.127537,-0.025587,0.0,0.0,0.0,0.0,0.0,0.0
204262,-0.126195,-0.044502,-0.081535,0.0,0.0,0.0,-0.07972,-0.0355,-0.07972,3.0,0.343563,0.351568,0.266957,0.330763,-0.117293,-0.022143,-0.083122,-0.025504,0.128226,-0.025321,0.0,0.0,0.0,0.0,0.0,0.0
204265,-0.126336,-0.043913,-0.08174,0.0,0.0,0.0,-0.07972,-0.0355,-0.07972,3.0,0.343563,0.351568,0.266957,0.330763,-0.117293,-0.022143,-0.083122,-0.025504,0.128226,-0.025321,0.0,0.0,0.0,0.0,0.0,0.0
204284,-0.126613,-0.042538,-0.082862,0.0,0.0,0.0,-0.080056,-0.034734,-0.080056,3.0,0.360382,0.328068,0.285441,0.322346,-0.117755,-0.019677,-0.083896,-0.02083,0.123708,-0.021238,0.0,0.0,0.0,0.0,0.0,0.0
204304,-0.127166,-0.040787,-0.083613,0.0,0.0,0.0,-0.080781,-0.033014,-0.080781,3.0,0.334281,0.355719,0.254208,0.344523,-0.118101,-0.017355,-0.084547,-0.01636,0.119322,-0.017579,0.0,0.0,0.0,0.0,0.0,0.0
204324,-0.127729,-0.038775,-0.08409,0.0,0.0,0.0,-0.081193,-0.031986,-0.081193,3.0,0.340222,0.345522,0.260797,0.344815,-0.118389,-0.015052,-0.085152,-0.012858,0.116651,-0.014991,0.0,0.0,0.0,0.0,0.0,0.0
204344,-0.128169,-0.036766,-0.084686,0.0,0.0,0.0,-0.082277,-0.029086,-0.082277,3.0,0.309391,0.383862,0.229484,0.35116,-0.118602,-0.012817,-0.08569,-0.010672,0.117264,-0.013734,0.0,0.0,0.0,0.0,0.0,0.0
204364,-0.128491,-0.034533,-0.085629,0.0,0.0,0.0,-0.082666,-0.027959,-0.082666,3.0,0.35115,0.337666,0.273438,0.332466,-0.118827,-0.010422,-0.086276,-0.011593,0.126785,-0.015264,0.0,0.0,0.0,0.0,0.0,0.0
204384,-0.128805,-0.032544,-0.086587,0.0,0.0,0.0,-0.083123,-0.02657,-0.083123,3.0,0.351206,0.337984,0.276188,0.32996,-0.119009,-0.008013,-0.086832,-0.007267,0.121219,-0.011615,0.0,0.0,0.0,0.0,0.0,0.0
204404,-0.129141,-0.030412,-0.087188,0.0,0.0,0.0,-0.083714,-0.024644,-0.083714,3.0,0.335587,0.356409,0.257777,0.340161,-0.119118,-0.005677,-0.087319,-0.004416,0.119843,-0.009504,0.0,0.0,0.0,0.0,0.0,0.0
204424,-0.129597,-0.028162,-0.087765,0.0,0.0,0.0,-0.084223,-0.022846,-0.084223,3.0,0.341669,0.350061,0.256416,0.341702,-0.119187,-0.003318,-0.087781,-0.00315,0.1239,-0.008911,0.0,0.0,0.0,0.0,0.0,0.0
204444,-0.129823,-0.025658,-0.088325,0.0,0.0,0.0,-0.084694,-0.021032,-0.084694,3.0,0.338304,0.352424,0.255884,0.342945,-0.119221,-0.000914,-0.088225,-0.000789,0.12426,-0.007186,0.0,0.0,0.0,0.0,0.0,0.0
204469,-0.130079,-0.02244,-0.08908,0.0,0.0,0.0,-0.085316,-0.018349,-0.085316,3.0,0.33697,0.360147,0.253326,0.337753,-0.119199,0.002106,-0.088734,0.002435,0.123493,-0.004737,0.0,0.0,0.0,0.0,0.0,0.0
204484,-0.13052,-0.02067,-0.089565,0.0,0.0,0.0,-0.085577,-0.017086,-0.085577,3.0,0.344829,0.34938,0.255426,0.339876,-0.119162,0.003972,-0.08903,0.003518,0.126953,-0.004051,0.0,0.0,0.0,0.0,0.0,0.0
204504,-0.130633,-0.01804,-0.090117,0.0,0.0,0.0,-0.085898,-0.015393,-0.085898,3.0,0.343818,0.345366,0.257506,0.343613,-0.119076,0.006492,-0.089399,0.006183,0.126134,-0.001864,0.0,0.0,0.0,0.0,0.0,0.0
204524,-0.130889,-0.015174,-0.090668,0.0,0.0,0.0,-0.086131,-0.01403,-0.086131,3.0,0.346456,0.340159,0.260457,0.344167,-0.118932,0.008975,-0.089715,0.009447,0.12169,0.000859,0.0,0.0,0.0,0.0,0.0,0.0
204544,-0.131019,-0.012293,-0.091083,0.0,0.0,0.0,-0.086152,-0.013902,-0.086152,3.0,0.347529,0.326512,0.260938,0.35558,-0.118722,0.011363,-0.089964,0.013263,0.112628,0.003978,0.0,0.0,0.0,0.0,0.0,0.0
204564,-0.131035,-0.009269,-0.091248,0.0,0.0,0.0,-0.086566,-0.011037,-0.086566,3.0,0.336594,0.348322,0.24773,0.353869,-0.118426,0.01351,-0.090114,0.015354,0.114213,0.00519,0.0,0.0,0.0,0.0,0.0,0.0
204584,-0.130802,-0.006364,-0.091546,0.0,0.0,0.0,-0.086739,-0.009577,-0.086739,3.0,0.343991,0.337169,0.263494,0.347476,-0.118106,0.015796,-0.090273,0.017253,0.116326,0.006242,0.0,0.0,0.0,0.0,0.0,0.0
204604,-0.130442,-0.003582,-0.091975,0.0,0.0,0.0,-0.086939,-0.007552,-0.086939,3.0,0.34549,0.342602,0.263623,0.340539,-0.117742,0.018071,-0.090401,0.0199,0.112037,0.008139,0.0,0.0,0.0,0.0,0.0,0.0
204624,-0.1302,-0.00092,-0.092291,0.0,0.0,0.0,-0.087097,-0.005432,-0.087097,3.0,0.346608,0.343587,0.262431,0.339227,-0.117332,0.020354,-0.090499,0.021623,0.117848,0.009168,0.0,0.0,0.0,0.0,0.0,0.0
204644,-0.129819,0.001383,-0.092633,0.0,0.0,0.0,-0.087166,-0.004185,-0.087166,3.0,0.351714,0.328841,0.267072,0.345146,-0.116887,0.022753,-0.090586,0.023697,0.121506,0.010673,0.0,0.0,0.0,0.0,0.0,0.0
204664,-0.129567,0.00381,-0.092845,0.0,0.0,0.0,-0.087246,-0.001889,-0.087246,3.0,0.34495,0.35353,0.259626,0.332468,-0.116392,0.025084,-0.090626,0.026446,0.110867,0.012903,0.0,0.0,0.0,0.0,0.0,0.0
204684,-0.129426,0.005988,-0.093072,0.0,0.0,0.0,-0.087263,-0.000743,-0.087263,3.0,0.351451,0.333778,0.267753,0.340218,-0.115848,0.027384,-0.090625,0.028531,0.116447,0.014371,0.0,0.0,0.0,0.0,0.0,0.0
204704,-0.128914,0.00807,-0.093193,0.0,0.0,0.0,-0.087263,-0.000743,-0.087263,3.0,0.347667,0.329255,0.255963,0.356167,-0.115259,0.029651,-0.090585,0.030815,0.10202,0.01608,0.0,0.0,0.0,0.0,0.0,0.0
204750,-0.128274,0.012581,-0.093407,0.0,0.0,0.0,-0.087037,0.00632,-0.087037,3.0,0.352843,0.345038,0.258587,0.333846,-0.113585,0.035059,-0.090317,0.036677,0.120414,0.020112,0.0,0.0,0.0,0.0,0.0,0.0
204761,-0.128071,0.013429,-0.0936,0.0,0.0,0.0,-0.086975,0.007131,-0.086975,3.0,0.3601,0.334753,0.271013,0.327414,-0.113212,0.036283,-0.090251,0.03788,0.120674,0.02114,0.0,0.0,0.0,0.0,0.0,0.0
204772,-0.127873,0.014415,-0.093544,0.0,0.0,0.0,-0.086905,0.007937,-0.086905,3.0,0.352434,0.34142,0.261834,0.33575,-0.112828,0.037506,-0.090175,0.039046,0.12003,0.022162,0.0,0.0,0.0,0.0,0.0,0.0
204784,-0.127588,0.016128,-0.093565,0.0,0.0,0.0,-0.086882,0.008177,-0.086882,3.0,0.355287,0.329893,0.26289,0.343352,-0.112431,0.038721,-0.090087,0.040121,0.118323,0.023099,0.0,0.0,0.0,0.0,0.0,0.0
204804,-0.127326,0.018328,-0.093557,0.0,0.0,0.0,-0.086747,0.009504,-0.086747,3.0,0.353103,0.332151,0.257691,0.346975,-0.111611,0.041032,-0.089875,0.041759,0.110548,0.024414,0.0,0.0,0.0,0.0,0.0,0.0
204824,-0.126832,0.020784,-0.09354,0.0,0.0,0.0,-0.086572,0.010984,-0.086572,3.0,0.350064,0.334244,0.261027,0.345865,-0.110758,0.043194,-0.089621,0.043302,0.104145,0.025474,0.0,0.0,0.0,0.0,0.0,0.0
204844,-0.126216,0.023245,-0.093528,0.0,0.0,0.0,-0.086142,0.013965,-0.086142,3.0,0.359915,0.335363,0.269904,0.327841,-0.109869,0.045275,-0.089333,0.045923,0.10712,0.027434,0.0,0.0,0.0,0.0,0.0,0.0
204864,-0.12561,0.025958,-0.093381,0.0,0.0,0.0,-0.086106,0.014185,-0.086106,3.0,0.345555,0.326807,0.261136,0.35709,-0.108912,0.047518,-0.089008,0.047877,0.105774,0.028833,0.0,0.0,0.0,0.0,0.0,0.0
204884,-0.12476,0.028683,-0.093243,0.0,0.0,0.0,-0.085573,0.017109,-0.085573,3.0,0.363228,0.332369,0.2718,0.325676,-0.107939,0.049573,-0.088656,0.049264,0.100809,0.029779,0.0,0.0,0.0,0.0,0.0,0.0
204904,-0.123793,0.031537,-0.093103,0.0,0.0,0.0,-0.085274,0.018541,-0.085274,3.0,0.354354,0.325233,0.270167,0.343595,-0.106903,0.051722,-0.088262,0.053103,0.109222,0.032962,0.0,0.0,0.0,0.0,0.0,0.0
204924,-0.122684,0.034158,-0.092848,0.0,0.0,0.0,-0.084857,0.020365,-0.084857,3.0,0.357116,0.32604,0.267651,0.341732,-0.105817,0.05389,-0.087832,0.054735,0.105897,0.034222,0.0,0.0,0.0,0.0,0.0,0.0
204944,-0.121593,0.037025,-0.092597,0.0,0.0,0.0,-0.084599,0.021412,-0.084599,3.0,0.349307,0.323088,0.266898,0.352934,-0.10469,0.056024,-0.087365,0.0558,0.100783,0.034924,0.0,0.0,0.0,0.0,0.0,0.0
204974,-0.119955,0.041254,-0.092412,0.0,0.0,0.0,-0.083572,0.025123,-0.083572,3.0,0.363609,0.317276,0.278858,0.334534,-0.102943,0.05909,-0.086608,0.060377,0.104936,0.038713,0.0,0.0,0.0,0.0,0.0,0.0
204991,-0.118838,0.043641,-0.092077,0.0,0.0,0.0,-0.08302,0.02689,-0.08302,3.0,0.354696,0.323461,0.271026,0.344261,-0.101677,0.061283,-0.086033,0.062882,0.105337,0.040816,0.0,0.0,0.0,0.0,0.0,0.0
205004,-0.117609,0.046279,-0.091734,0.0,0.0,0.0,-0.082801,0.027557,-0.082801,3.0,0.353002,0.318681,0.273029,0.348886,-0.101026,0.062374,-0.08573,0.063843,0.104445,0.041635,0.0,0.0,0.0,0.0,0.0,0.0
205024,-0.116147,0.049419,-0.091238,0.0,0.0,0.0,-0.082234,0.029206,-0.082234,3.0,0.350765,0.32003,0.271156,0.351267,-0.099693,0.064528,-0.085096,0.065531,0.101974,0.043049,0.0,0.0,0.0,0.0,0.0,0.0
205044,-0.114572,0.052561,-0.090889,0.0,0.0,0.0,-0.081974,0.029929,-0.081974,3.0,0.344848,0.310686,0.269325,0.366045,-0.098331,0.066612,-0.084431,0.066046,0.096372,0.043318,0.0,0.0,0.0,0.0,0.0,0.0
205064,-0.112886,0.055816,-0.090786,0.0,0.0,0.0,-0.08124,0.031868,-0.08124,3.0,0.359325,0.305594,0.284596,0.345134,-0.09699,0.068495,-0.083769,0.066306,0.09047,0.043301,0.0,0.0,0.0,0.0,0.0,0.0
205084,-0.111198,0.059208,-0.090439,0.0,0.0,0.0,-0.080624,0.033395,-0.080624,3.0,0.351975,0.306535,0.280284,0.355062,-0.095608,0.070357,-0.083073,0.06868,0.0907,0.04515,0.0,0.0,0.0,0.0,0.0,0.0
205104,-0.109253,0.062503,-0.089871,0.0,0.0,0.0,-0.07986,0.035183,-0.07986,3.0,0.364377,0.301048,0.293724,0.33626,-0.09419,0.07219,-0.082348,0.068391,0.08446,0.044536,0.0,0.0,0.0,0.0,0.0,0.0
205124,-0.107418,0.065548,-0.089317,0.0,0.0,0.0,-0.078973,0.037131,-0.078973,3.0,0.359346,0.303841,0.286113,0.345423,-0.092736,0.07399,-0.081594,0.072835,0.089457,0.048413,0.0,0.0,0.0,0.0,0.0,0.0
205144,-0.105452,0.068595,-0.088757,0.0,0.0,0.0,-0.078973,0.037131,-0.078973,3.0,0.329649,0.315641,0.261768,0.380154,-0.091205,0.075855,-0.08078,0.071709,0.081967,0.04708,0.0,0.0,0.0,0.0,0.0,0.0
205164,-0.103597,0.071274,-0.088232,0.0,0.0,0.0,-0.077427,0.040255,-0.077427,3.0,0.388421,0.284864,0.314589,0.301085,-0.089747,0.077458,-0.080013,0.071449,0.07666,0.046636,0.0,0.0,0.0,0.0,0.0,0.0
205184,-0.101618,0.07383,-0.087844,0.0,0.0,0.0,-0.076629,0.041755,-0.076629,3.0,0.365602,0.295305,0.295164,0.338553,-0.088179,0.079188,-0.079163,0.078177,0.085691,0.052661,0.0,0.0,0.0,0.0,0.0,0.0
205204,-0.099625,0.076532,-0.086968,0.0,0.0,0.0,-0.075889,0.043085,-0.075889,3.0,0.345446,0.31098,0.279104,0.358583,-0.086519,0.080998,-0.078241,0.081163,0.086698,0.055327,0.0,0.0,0.0,0.0,0.0,0.0
205250,-0.094653,0.081975,-0.085265,0.0,0.0,0.0,-0.073359,0.047264,-0.073359,3.0,0.362534,0.29027,0.303666,0.33887,-0.082256,0.085307,-0.075823,0.085405,0.082838,0.059064,0.0,0.0,0.0,0.0,0.0,0.0
205261,-0.093709,0.083263,-0.084772,0.0,0.0,0.0,-0.072909,0.047956,-0.072909,3.0,0.353964,0.301994,0.288685,0.350537,-0.081354,0.086182,-0.075297,0.086143,0.081912,0.059703,0.0,0.0,0.0,0.0,0.0,0.0
205265,-0.093237,0.083779,-0.084654,0.0,0.0,0.0,-0.072761,0.04818,-0.072761,3.0,0.357442,0.298268,0.292411,0.347102,-0.0809,0.086614,-0.075032,0.086629,0.081623,0.060147,0.0,0.0,0.0,0.0,0.0,0.0
205284,-0.090966,0.086123,-0.083687,0.0,0.0,0.0,-0.072679,0.048303,-0.072679,3.0,0.320623,0.316826,0.263831,0.385279,-0.079531,0.08789,-0.074228,0.084605,0.075424,0.05818,0.0,0.0,0.0,0.0,0.0,0.0
205304,-0.088588,0.088336,-0.083118,0.0,0.0,0.0,-0.071439,0.050118,-0.071439,3.0,0.359221,0.293611,0.299011,0.343669,-0.077803,0.089373,-0.073224,0.083879,0.070403,0.057468,0.0,0.0,0.0,0.0,0.0,0.0
205324,-0.086316,0.090177,-0.082561,0.0,0.0,0.0,-0.070565,0.051342,-0.070565,3.0,0.345312,0.302825,0.289035,0.358102,-0.076035,0.090835,-0.072184,0.085301,0.0689,0.058635,0.0,0.0,0.0,0.0,0.0,0.0
205344,-0.084143,0.092022,-0.08162,0.0,0.0,0.0,-0.069015,0.053407,-0.069015,3.0,0.380161,0.28198,0.309641,0.319592,-0.074245,0.092253,-0.071124,0.08636,0.066904,0.059511,0.0,0.0,0.0,0.0,0.0,0.0
205364,-0.082081,0.093626,-0.080578,0.0,0.0,0.0,-0.068191,0.054456,-0.068191,3.0,0.344774,0.307426,0.283763,0.358792,-0.072358,0.093725,-0.069984,0.092275,0.071311,0.064981,0.0,0.0,0.0,0.0,0.0,0.0
205384,-0.080119,0.094852,-0.079531,0.0,0.0,0.0,-0.066843,0.056102,-0.066843,3.0,0.369731,0.292227,0.301276,0.33124,-0.070442,0.095163,-0.068817,0.091199,0.066457,0.063975,0.0,0.0,0.0,0.0,0.0,0.0
205404,-0.078044,0.096209,-0.078502,0.0,0.0,0.0,-0.065991,0.057101,-0.065991,3.0,0.350289,0.306696,0.290229,0.349161,-0.068491,0.096569,-0.067616,0.091754,0.063871,0.064465,0.0,0.0,0.0,0.0,0.0,0.0
205424,-0.075841,0.097562,-0.077468,0.0,0.0,0.0,-0.06466,0.058605,-0.06466,3.0,0.345658,0.307038,0.284616,0.357644,-0.066537,0.097908,-0.066407,0.09561,0.065075,0.068129,0.0,0.0,0.0,0.0,0.0,0.0
205444,-0.073999,0.098533,-0.076564,0.0,0.0,0.0,-0.063342,0.060026,-0.063342,3.0,0.370791,0.288147,0.306701,0.328572,-0.064525,0.099245,-0.065147,0.095341,0.061559,0.067881,0.0,0.0,0.0,0.0,0.0,0.0
205479,-0.070544,0.100584,-0.074483,0.0,0.0,0.0,-0.060903,0.0625,-0.060903,3.0,0.364263,0.290597,0.29923,0.340483,-0.06093,0.101498,-0.062868,0.098863,0.059824,0.071252,0.0,0.0,0.0,0.0,0.0,0.0
205492,-0.069792,0.100882,-0.073906,0.0,0.0,0.0,-0.059995,0.063372,-0.059995,3.0,0.3652,0.295063,0.299076,0.335915,-0.059321,0.102468,-0.061831,0.100732,0.05938,0.073033,0.0,0.0,0.0,0.0,0.0,0.0
205506,-0.067945,0.102088,-0.072862,0.0,0.0,0.0,-0.059013,0.064287,-0.059013,3.0,0.3496,0.304753,0.288717,0.352622,-0.057697,0.103415,-0.060779,0.101134,0.057448,0.073473,0.0,0.0,0.0,0.0,0.0,0.0
205524,-0.065837,0.103073,-0.071611,0.0,0.0,0.0,-0.058635,0.064632,-0.058635,3.0,0.329562,0.314893,0.279396,0.369553,-0.056068,0.104329,-0.059719,0.100771,0.054823,0.073195,0.0,0.0,0.0,0.0,0.0,0.0
205544,-0.06374,0.104163,-0.070588,0.0,0.0,0.0,-0.057503,0.065642,-0.057503,3.0,0.337593,0.307606,0.2904,0.360465,-0.053965,0.10543,-0.058357,0.097785,0.049144,0.070499,0.0,0.0,0.0,0.0,0.0,0.0
205564,-0.061416,0.105505,-0.069708,0.0,0.0,0.0,-0.056385,0.066605,-0.056385,3.0,0.341441,0.297142,0.298106,0.359311,-0.051914,0.106424,-0.057032,0.095607,0.044464,0.06853,0.0,0.0,0.0,0.0,0.0,0.0
205584,-0.058848,0.106854,-0.068845,0.0,0.0,0.0,-0.05427,0.068339,-0.05427,3.0,0.387403,0.250941,0.336118,0.307163,-0.04989,0.107337,-0.055726,0.097788,0.04367,0.070685,0.0,0.0,0.0,0.0,0.0,0.0
205604,-0.056121,0.108218,-0.067368,0.0,0.0,0.0,-0.053555,0.068901,-0.053555,3.0,0.321409,0.310035,0.286313,0.375456,-0.047731,0.108304,-0.054302,0.101371,0.044054,0.074097,0.0,0.0,0.0,0.0,0.0,0.0
205624,-0.053257,0.109588,-0.065656,0.0,0.0,0.0,-0.051926,0.070137,-0.051926,3.0,0.349979,0.293545,0.302013,0.350759,-0.045601,0.109192,-0.052898,0.099375,0.039897,0.072405,0.0,0.0,0.0,0.0,0.0,0.0
205644,-0.050656,0.110694,-0.064439,0.0,0.0,0.0,-0.050379,0.071255,-0.050379,3.0,0.340643,0.297732,0.300367,0.35783,-0.043437,0.110052,-0.051459,0.105113,0.041649,0.077993,0.0,0.0,0.0,0.0,0.0,0.0
205664,-0.047683,0.112058,-0.062996,0.0,0.0,0.0,-0.049846,0.07163,-0.049846,3.0,0.303824,0.322931,0.272685,0.387804,-0.041203,0.110906,-0.049956,0.099746,0.03531,0.073084,0.0,0.0,0.0,0.0,0.0,0.0
205684,-0.044715,0.113037,-0.061918,0.0,0.0,0.0,-0.047591,0.073147,-0.047591,3.0,0.377713,0.256459,0.333279,0.318853,-0.039113,0.111608,-0.048567,0.099207,0.032509,0.072885,0.0,0.0,0.0,0.0,0.0,0.0
205704,-0.041755,0.114262,-0.060848,0.0,0.0,0.0,-0.045487,0.074474,-0.045487,3.0,0.387357,0.241109,0.342996,0.306455,-0.036913,0.112332,-0.047078,0.105831,0.034562,0.079318,0.0,0.0,0.0,0.0,0.0,0.0
205739,-0.036341,0.115723,-0.05746,0.0,0.0,0.0,-0.042861,0.076015,-0.042861,3.0,0.345383,0.291407,0.308701,0.351427,-0.03279,0.11364,-0.044231,0.1105,0.03316,0.084148,0.0,0.0,0.0,0.0,0.0,0.0
205749,-0.034829,0.116277,-0.056439,0.0,0.0,0.0,-0.042201,0.076384,-0.042201,3.0,0.318105,0.316744,0.28553,0.373387,-0.031585,0.113998,-0.04339,0.112099,0.03283,0.08579,0.0,0.0,0.0,0.0,0.0,0.0
205764,-0.032693,0.1166,-0.055326,0.0,0.0,0.0,-0.041202,0.076927,-0.041202,3.0,0.333631,0.30259,0.298176,0.362165,-0.029763,0.114519,-0.042114,0.111197,0.030431,0.085137,0.0,0.0,0.0,0.0,0.0,0.0
205784,-0.029815,0.117321,-0.053896,0.0,0.0,0.0,-0.040084,0.077516,-0.040084,3.0,0.321017,0.308885,0.296893,0.369075,-0.027384,0.115137,-0.040449,0.108506,0.026481,0.082914,0.0,0.0,0.0,0.0,0.0,0.0
205804,-0.026816,0.117909,-0.052588,0.0,0.0,0.0,-0.038549,0.078291,-0.038549,3.0,0.334025,0.297267,0.307458,0.358625,-0.025092,0.115658,-0.03885,0.105996,0.022755,0.080877,0.0,0.0,0.0,0.0,0.0,0.0
205824,-0.023829,0.118619,-0.051412,0.0,0.0,0.0,-0.037182,0.078949,-0.037182,3.0,0.332785,0.293641,0.312026,0.358787,-0.022821,0.116119,-0.037261,0.105208,0.020055,0.080422,0.0,0.0,0.0,0.0,0.0,0.0
205844,-0.020949,0.119325,-0.049985,0.0,0.0,0.0,-0.035256,0.079828,-0.035256,3.0,0.377626,0.248013,0.338655,0.319222,-0.020586,0.116513,-0.035696,0.101043,0.015856,0.076806,0.0,0.0,0.0,0.0,0.0,0.0
205864,-0.018174,0.120025,-0.048306,0.0,0.0,0.0,-0.033441,0.080605,-0.033441,3.0,0.347125,0.282431,0.31871,0.347903,-0.018321,0.116872,-0.034099,0.10963,0.017512,0.085245,0.0,0.0,0.0,0.0,0.0,0.0
205884,-0.015258,0.120595,-0.046382,0.0,0.0,0.0,-0.032088,0.081153,-0.032088,3.0,0.312454,0.313809,0.290861,0.37647,-0.015936,0.117232,-0.032393,0.110608,0.015678,0.086479,0.0,0.0,0.0,0.0,0.0,0.0
205904,-0.012583,0.121039,-0.044453,0.0,0.0,0.0,-0.030501,0.081763,-0.030501,3.0,0.351333,0.278596,0.320749,0.344683,-0.01359,0.117529,-0.030713,0.104513,0.011028,0.08112,0.0,0.0,0.0,0.0,0.0,0.0
205924,-0.009941,0.121351,-0.043138,0.0,0.0,0.0,-0.028743,0.082397,-0.028743,3.0,0.348928,0.279478,0.323864,0.343633,-0.01129,0.117761,-0.029064,0.109313,0.010655,0.08608,0.0,0.0,0.0,0.0,0.0,0.0
205944,-0.007409,0.121779,-0.04157,0.0,0.0,0.0,-0.026895,0.083019,-0.026895,3.0,0.344817,0.279032,0.323812,0.348138,-0.008912,0.117971,-0.02734,0.111523,0.009225,0.088544,0.0,0.0,0.0,0.0,0.0,0.0
205985,-0.002297,0.12225,-0.037815,0.0,0.0,0.0,-0.022634,0.08428,-0.022634,3.0,0.348227,0.283741,0.319223,0.345346,-0.003517,0.118284,-0.023395,0.112946,0.004637,0.090831,0.0,0.0,0.0,0.0,0.0,0.0
206000,-0.00039,0.122409,-0.036579,0.0,0.0,0.0,-0.021369,0.08461,-0.021369,3.0,0.346469,0.279573,0.322366,0.34741,-0.001648,0.118353,-0.022011,0.114132,0.003297,0.092238,0.0,0.0,0.0,0.0,0.0,0.0
206006,0.000254,0.122542,-0.036003,0.0,0.0,0.0,-0.021126,0.084671,-0.021126,3.0,0.322556,0.302026,0.304045,0.367689,-0.001022,0.11837,-0.021547,0.114545,0.002842,0.092735,0.0,0.0,0.0,0.0,0.0,0.0
206024,0.002574,0.122581,-0.034053,0.0,0.0,0.0,-0.021001,0.084702,-0.021001,3.0,0.278781,0.331314,0.280763,0.392994,0.000842,0.1184,-0.020161,0.1086,-0.000341,0.087429,0.0,0.0,0.0,0.0,0.0,0.0
206044,0.004855,0.122737,-0.032716,0.0,0.0,0.0,-0.018673,0.085245,-0.018673,3.0,0.348444,0.275146,0.325741,0.345596,0.003098,0.118347,-0.018503,0.105702,-0.003267,0.085312,0.0,0.0,0.0,0.0,0.0,0.0
206064,0.007138,0.12276,-0.031372,0.0,0.0,0.0,-0.017524,0.085489,-0.017524,3.0,0.320304,0.300993,0.307738,0.367479,0.005409,0.118258,-0.016788,0.105315,-0.005407,0.085355,0.0,0.0,0.0,0.0,0.0,0.0
