time_ms,roll,pitch,yaw,reference_roll,reference_pitch,reference_yaw,reference_throttle,throttle_1,throttle_2,throttle_3,throttle_4,roll_predicted,pitch_predicted,yaw_predicted,roll_rate_predicted,pitch_rate_predicted,yaw_rate_predicted,value1,value2,value3,value4,value5,value6
199271,0.000366,-0.000367,0.00232,-0.0,0.0,-0.0,3.0,0.329901,0.3261,0.322238,0.3261,,,,,,,-0.001202,-0.001342,0.004517,0.038299,-0.042126,-9.9e-05
199291,0.000366,-0.000367,0.002442,-0.0,0.0,-0.0,3.0,0.328466,0.3261,0.323711,0.3261,,,,,,,-0.001079,-0.00136,0.004621,0.017145,-0.038345,0.003741
199311,0.000122,-0.000244,0.002442,-0.0,0.0,-0.0,3.0,0.329245,0.3261,0.322914,0.3261,,,,,,,-0.001098,-0.001464,0.004638,-0.020888,-3.5e-05,-1e-06
199331,0.000122,-0.000122,0.002564,-0.0,0.0,-0.0,3.0,0.328313,0.3261,0.323867,0.3261,,,,,,,-0.000973,-0.001483,0.004638,-0.042208,0.02496,0.020968
199351,0.000366,-0.000245,0.002564,-0.0,0.0,-0.0,3.0,0.328587,0.3261,0.323587,0.3261,,,,,,,-0.000973,-0.001503,0.00476,-0.000256,0.007865,-2.5e-05
199371,0.000366,-0.000245,0.002564,-0.0,0.0,-0.0,3.0,0.330272,0.3261,0.321854,0.3261,,,,,,,-0.000973,-0.001608,0.00476,0.000127,0.024925,-5e-06
199391,0.000366,-0.000367,0.002564,-0.0,0.0,-0.0,3.0,0.332177,0.3261,0.319866,0.3261,,,,,,,-0.001097,-0.001713,0.00476,0.021206,0.021094,1e-06
199411,0.000365,-0.000733,0.002564,-0.0,0.0,-0.0,3.0,0.335343,0.3261,0.316487,0.3261,,,,,,,-0.000993,-0.002026,0.004779,0.003832,0.009858,-0.003842
199431,0.000243,-0.000855,0.002564,-0.0,0.0,-0.0,3.0,0.33281,0.3261,0.319198,0.3261,,,,,,,-0.001099,-0.00204,0.00476,5.3e-05,-0.007649,1e-06
199451,0.000243,-0.001099,0.002564,-0.0,0.0,-0.0,3.0,0.330116,0.3261,0.322016,0.3261,,,,,,,-0.001184,-0.001953,0.00476,0.01327,-0.063095,1.3e-05
199471,0.000121,-0.001221,0.002564,-0.0,0.0,-0.0,3.0,0.3297,0.3261,0.322445,0.3261,,,,,,,-0.001183,-0.002215,0.00476,-0.007648,-0.038133,-2e-06
199491,0.000121,-0.001221,0.002564,-0.0,0.0,-0.0,3.0,0.328932,0.3261,0.323235,0.3261,,,,,,,-0.000973,-0.002337,0.00476,-0.042236,-0.017091,-2.3e-05
199511,0.00012,-0.001343,0.002442,-0.0,0.0,-0.0,3.0,0.332639,0.3261,0.319378,0.3261,,,,,,,-0.000992,-0.002689,0.004637,-0.038249,0.021266,8.1e-05
199531,0.000242,-0.001465,0.002442,-0.0,0.0,-0.0,3.0,0.331048,0.3261,0.321048,0.3261,,,,,,,-0.001097,-0.002829,0.004638,-2.9e-05,0.025102,-5.1e-05
199551,0.000242,-0.001954,0.00232,-0.0,0.0,-0.0,3.0,0.334566,0.3261,0.317325,0.3261,,,,,,,-0.001344,-0.003161,0.004533,0.04226,-0.003427,-0.003691
199571,0.00012,-0.002198,0.00232,-0.0,0.0,-0.0,3.0,0.334244,0.3261,0.317671,0.3261,,,,,,,-0.001344,-0.003403,0.004516,0.021235,-0.003697,2.2e-05
199591,-3e-06,-0.002564,0.002198,-0.0,0.0,-0.0,3.0,0.334899,0.3261,0.316967,0.3261,,,,,,,-0.001345,-0.003629,0.004393,7e-06,-0.028486,0.000157
199611,-0.000125,-0.00293,0.002075,-0.0,0.0,-0.0,3.0,0.333952,0.3261,0.317983,0.3261,,,,,,,-0.001449,-0.003871,0.004394,-0.003851,-0.049495,-0.020983
199631,-3e-06,-0.003174,0.001953,-0.0,0.0,-0.0,3.0,0.332389,0.3261,0.319643,0.3261,,,,,,,-0.00141,-0.004151,0.004148,0.009358,-0.041909,0.000148
199651,-0.000125,-0.003296,0.001831,-0.0,0.0,-0.0,3.0,0.330395,0.3261,0.321727,0.3261,,,,,,,-0.001428,-0.00429,0.004026,-0.007586,-0.038112,9.5e-05
199671,-3e-06,-0.003296,0.001709,-0.0,0.0,-0.0,3.0,0.331293,0.3261,0.320793,0.3261,,,,,,,-0.001132,-0.004555,0.003904,-0.034588,0.007762,5.2e-05
199691,-0.000125,-0.003296,0.001587,-0.0,0.0,-0.0,3.0,0.332312,0.3261,0.319724,0.3261,,,,,,,-0.001362,-0.004782,0.003801,-0.017036,0.046115,-0.00376
199711,0.000119,-0.00354,0.001465,-0.0,0.0,-0.0,3.0,0.333541,0.3261,0.318421,0.3261,,,,,,,-0.001465,-0.004886,0.003783,0.042024,0.021317,-0.020901
199731,-0.000125,-0.003418,0.001465,-0.0,0.0,-0.0,3.0,0.332391,0.3261,0.31964,0.3261,,,,,,,-0.001571,-0.004761,0.003784,0.017561,0.020885,-0.021076
199751,-0.000247,-0.00354,0.001465,-0.0,0.0,-0.0,3.0,0.333854,0.3261,0.318087,0.3261,,,,,,,-0.001693,-0.004744,0.003765,0.017353,-0.003819,-0.017189
199771,-0.000369,-0.003418,0.001587,-0.0,0.0,-0.0,3.0,0.332219,0.3261,0.319822,0.3261,,,,,,,-0.001483,-0.004619,0.003784,-0.038338,-0.00397,-0.000151
199791,-0.000369,-0.003418,0.001587,-0.0,0.0,-0.0,3.0,0.332155,0.3261,0.319889,0.3261,,,,,,,-0.001568,-0.004497,0.003784,-0.024943,-0.024951,3e-06
199811,-0.000125,-0.003418,0.001587,-0.0,0.0,-0.0,3.0,0.330007,0.3261,0.322129,0.3261,,,,,,,-0.001443,-0.004411,0.003765,-0.004074,-0.038297,0.003834
199831,-3e-06,-0.00354,0.001587,-0.0,0.0,-0.0,3.0,0.331597,0.3261,0.320474,0.3261,,,,,,,-0.001341,-0.004516,0.003765,-0.0001,-0.042005,0.003842
199851,-3e-06,-0.003418,0.001587,-0.0,0.0,-0.0,3.0,0.332164,0.3261,0.319879,0.3261,,,,,,,-0.001237,-0.004761,0.003679,-0.017206,0.021082,0.017214
199871,-3e-06,-0.003418,0.001587,-0.0,0.0,-0.0,3.0,0.330614,0.3261,0.3215,0.3261,,,,,,,-0.001257,-0.004676,0.003784,-0.013368,0.007717,-4.8e-05
199891,0.000119,-0.003418,0.001587,-0.0,0.0,-0.0,3.0,0.332165,0.3261,0.319878,0.3261,,,,,,,-0.001362,-0.004781,0.003783,0.024812,0.024953,4.3e-05
199911,-3e-06,-0.003296,0.001587,-0.0,0.0,-0.0,3.0,0.332974,0.3261,0.319024,0.3261,,,,,,,-0.00143,-0.004762,0.003783,0.013567,0.042021,2.4e-05
199931,-0.000125,-0.003418,0.001587,-0.0,0.0,-0.0,3.0,0.33435,0.3261,0.317557,0.3261,,,,,,,-0.001447,-0.004745,0.003783,-0.003696,0.017305,-5e-06
199951,-0.000247,-0.003418,0.001587,-0.0,0.0,-0.0,3.0,0.333748,0.3261,0.3182,0.3261,,,,,,,-0.001361,-0.004744,0.003783,-0.038248,0.017245,-6.5e-05
199971,-0.000247,-0.00354,0.001587,-0.0,0.0,-0.0,3.0,0.332853,0.3261,0.319152,0.3261,,,,,,,-0.001483,-0.004498,0.003783,-0.017277,-0.046003,-3.4e-05
199991,-0.000125,-0.00354,0.001587,-0.0,0.0,-0.0,3.0,0.332557,0.3261,0.319465,0.3261,,,,,,,-0.001568,-0.004638,0.003783,0.017139,-0.021097,2.8e-05
200011,-0.000125,-0.00354,0.001587,-0.0,0.0,-0.0,3.0,0.331821,0.3261,0.32024,0.3261,,,,,,,-0.001675,-0.004638,0.003888,0.034472,-0.021089,-0.017186
200031,-0.000247,-0.00354,0.001709,-0.0,0.0,-0.0,3.0,0.332786,0.3261,0.319223,0.3261,,,,,,,-0.001483,-0.004761,0.003783,-0.01722,4.1e-05,0.02097
200051,-0.000247,-0.00354,0.001709,-0.0,0.0,-0.0,3.0,0.331689,0.3261,0.320379,0.3261,,,,,,,-0.001465,-0.004779,0.0038,-0.02118,0.003907,0.017183
200071,-3e-06,-0.00354,0.001709,-0.0,0.0,-0.0,3.0,0.33211,0.3261,0.319936,0.3261,,,,,,,-0.001465,-0.004902,0.003905,0.02086,0.025002,1.3e-05
200091,-3e-06,-0.003418,0.001709,-0.0,0.0,-0.0,3.0,0.332366,0.3261,0.319666,0.3261,,,,,,,-0.001324,-0.004903,0.003906,-0.003778,0.045924,-7e-06
200111,-3e-06,-0.003418,0.001709,-0.0,0.0,-0.0,3.0,0.334567,0.3261,0.317324,0.3261,,,,,,,-0.001343,-0.004867,0.00401,0.000112,0.038276,-0.017291
200131,-0.000125,-0.003418,0.001831,-0.0,0.0,-0.0,3.0,0.334306,0.3261,0.317604,0.3261,,,,,,,-0.001361,-0.004744,0.004028,-0.017067,0.017159,-0.000162
200151,-0.000247,-0.00354,0.001831,-0.0,0.0,-0.0,3.0,0.334593,0.3261,0.317296,0.3261,,,,,,,-0.001608,-0.004603,0.004027,0.00395,-0.028779,3e-06
200171,-0.000247,-0.00354,0.001831,-0.0,0.0,-0.0,3.0,0.334154,0.3261,0.317767,0.3261,,,,,,,-0.001692,-0.004601,0.004027,0.017214,-0.028854,2.6e-05
200191,-0.000247,-0.00354,0.001831,-0.0,0.0,-0.0,3.0,0.331773,0.3261,0.320291,0.3261,,,,,,,-0.001778,-0.004514,0.004027,0.030578,-0.042218,4.5e-05
200211,-0.000369,-0.003418,0.001709,-0.0,0.0,-0.0,3.0,0.330314,0.3261,0.321811,0.3261,,,,,,,-0.001691,-0.004532,0.003904,-0.00375,-0.017252,0.000148
200231,-0.000369,-0.003418,0.001587,-0.0,0.0,-0.0,3.0,0.330508,0.3261,0.32161,0.3261,,,,,,,-0.001481,-0.004675,0.003782,-0.038366,0.007882,4.5e-05
200251,-3e-06,-0.00354,0.001465,-0.0,0.0,-0.0,3.0,0.33327,0.3261,0.318709,0.3261,,,,,,,-0.001377,-0.004904,0.003678,0.00738,0.025126,-0.003719
200271,0.000119,-0.003662,0.001465,-0.0,0.0,-0.0,3.0,0.333816,0.3261,0.318128,0.3261,,,,,,,-0.001447,-0.005026,0.003661,0.038283,0.025029,2.2e-05
200291,-3e-06,-0.003784,0.001343,-0.0,0.0,-0.0,3.0,0.335837,0.3261,0.315951,0.3261,,,,,,,-0.001571,-0.005112,0.003661,0.03858,0.017251,-0.020901
200311,-0.000247,-0.004028,0.001343,-0.0,0.0,-0.0,3.0,0.337084,0.3261,0.31459,0.3261,,,,,,,-0.00159,-0.005197,0.003557,0.000171,-0.011379,-0.003819
200331,-0.000491,-0.00415,0.001342,-0.0,0.0,-0.0,3.0,0.333708,0.3261,0.318243,0.3261,,,,,,,-0.00171,-0.005088,0.003539,-0.020898,-0.049728,-5.3e-05
200351,-0.000613,-0.00415,0.00122,-0.0,0.0,-0.0,3.0,0.333524,0.3261,0.31844,0.3261,,,,,,,-0.001936,-0.005107,0.003539,-0.003696,-0.046057,-0.020949
200371,-0.000735,-0.004028,0.001219,-0.0,0.0,-0.0,3.0,0.330097,0.3261,0.322036,0.3261,,,,,,,-0.002057,-0.005038,0.003416,-0.003706,-0.034543,5e-06
200391,-0.000857,-0.003906,0.001097,-0.0,0.0,-0.0,3.0,0.330266,0.3261,0.321861,0.3261,,,,,,,-0.002092,-0.005039,0.003292,-0.017045,-0.013402,7.2e-05
200411,-0.000734,-0.003906,0.000975,-0.0,0.0,-0.0,3.0,0.331546,0.3261,0.320528,0.3261,,,,,,,-0.002092,-0.005163,0.00317,0.003761,0.007803,0.00012
200431,-0.000734,-0.003784,0.000853,-0.0,0.0,-0.0,3.0,0.33378,0.3261,0.318166,0.3261,,,,,,,-0.002093,-0.005269,0.003048,0.003862,0.045897,0.000134
200451,-0.00049,-0.004028,0.000732,-0.0,0.0,-0.0,3.0,0.336038,0.3261,0.315733,0.3261,,,,,,,-0.002074,-0.005375,0.002926,0.041953,0.021239,0.000201
200471,-0.00049,-0.004028,0.000609,-0.0,0.0,-0.0,3.0,0.33453,0.3261,0.317363,0.3261,,,,,,,-0.001897,-0.005373,0.002928,0.009562,0.021047,-0.020952
200491,-0.000612,-0.004028,0.000609,-0.0,0.0,-0.0,3.0,0.335397,0.3261,0.316429,0.3261,,,,,,,-0.001811,-0.005335,0.002824,-0.024828,0.013382,-0.003864
200511,-0.000612,-0.004273,0.000609,-0.0,0.0,-0.0,3.0,0.336631,0.3261,0.315086,0.3261,,,,,,,-0.001601,-0.005459,0.00293,-0.059435,-0.007473,-0.021214
200531,-0.000612,-0.004272,0.000731,-0.0,0.0,-0.0,3.0,0.332676,0.3261,0.319339,0.3261,,,,,,,-0.001724,-0.005247,0.002929,-0.038313,-0.042202,-0.000175
200551,-0.000368,-0.004395,0.000732,-0.0,0.0,-0.0,3.0,0.333426,0.3261,0.318544,0.3261,,,,,,,-0.001847,-0.00537,0.003033,0.024821,-0.042019,-0.017199
200571,-0.000368,-0.00415,0.000854,-0.0,0.0,-0.0,3.0,0.331445,0.3261,0.320634,0.3261,,,,,,,-0.001954,-0.005387,0.003032,0.042232,0.0037,0.003846
200591,-0.00049,-0.00415,0.000976,-0.0,0.0,-0.0,3.0,0.333325,0.3261,0.318651,0.3261,,,,,,,-0.002078,-0.00539,0.003049,0.042185,0.003832,0.021066
200611,-0.00049,-0.004028,0.000976,-0.0,0.0,-0.0,3.0,0.333403,0.3261,0.318569,0.3261,,,,,,,-0.001953,-0.00539,0.003048,0.020999,0.02481,0.021111
200631,-0.000368,-0.004028,0.000854,-0.0,0.0,-0.0,3.0,0.334188,0.3261,0.317731,0.3261,,,,,,,-0.001707,-0.005391,0.003049,-0.000125,0.0249,8.9e-05
200651,-0.000368,-0.00415,0.000854,-0.0,0.0,-0.0,3.0,0.334793,0.3261,0.317081,0.3261,,,,,,,-0.001567,-0.005373,0.00305,-0.025017,9.6e-05,-0.0001
200671,-0.000124,-0.004273,0.000854,-0.0,0.0,-0.0,3.0,0.336602,0.3261,0.315118,0.3261,,,,,,,-0.001319,-0.0056,0.00307,-0.025105,0.017361,-0.003896
200691,-2e-06,-0.004395,0.000977,-0.0,0.0,-0.0,3.0,0.336111,0.3261,0.315654,0.3261,,,,,,,-0.001341,-0.00558,0.003174,-8.6e-05,-0.007599,-0.000111
200711,-2e-06,-0.004517,0.000977,-0.0,0.0,-0.0,3.0,0.335478,0.3261,0.316341,0.3261,,,,,,,-0.001238,-0.005578,0.003297,-0.017208,-0.028647,-0.021122
200731,-2e-06,-0.004517,0.001099,-0.0,0.0,-0.0,3.0,0.333346,0.3261,0.318629,0.3261,,,,,,,-0.001238,-0.005492,0.003401,-0.017202,-0.042179,-0.017413
200751,-3e-06,-0.004273,0.001221,-0.0,0.0,-0.0,3.0,0.330387,0.3261,0.321736,0.3261,,,,,,,-0.001361,-0.005263,0.0034,0.003835,-0.038497,0.003765
200771,-2e-06,-0.004029,0.001221,-0.0,0.0,-0.0,3.0,0.330605,0.3261,0.321509,0.3261,,,,,,,-0.001466,-0.005161,0.003398,0.021067,-0.01358,0.003885
200791,-3e-06,-0.003784,0.001343,-0.0,0.0,-0.0,3.0,0.332219,0.3261,0.319822,0.3261,,,,,,,-0.001447,-0.005163,0.003417,0.017194,0.028563,0.021009
200811,0.000242,-0.003785,0.001221,-0.0,0.0,-0.0,3.0,0.333837,0.3261,0.318105,0.3261,,,,,,,-0.001238,-0.005166,0.003416,0.024696,0.028728,0.000132
200831,0.000242,-0.003907,0.001221,-0.0,0.0,-0.0,3.0,0.336867,0.3261,0.314827,0.3261,,,,,,,-0.001222,-0.005376,0.003417,0.021086,0.042238,3.7e-05
200851,0.000242,-0.004151,0.001221,-0.0,0.0,-0.0,3.0,0.33654,0.3261,0.315186,0.3261,,,,,,,-0.000994,-0.005356,0.003541,-0.017225,-0.003658,-0.021121
200871,0.000363,-0.004517,0.001344,-0.0,0.0,-0.0,3.0,0.338133,0.3261,0.313432,0.3261,,,,,,,-0.000957,-0.005563,0.003541,-0.003947,-0.032276,-8.7e-05
200891,0.000485,-0.004395,0.001466,-0.0,0.0,-0.0,3.0,0.333727,0.3261,0.318223,0.3261,,,,,,,-0.000921,-0.005473,0.003664,0.009432,-0.02502,-8.2e-05
200911,0.000241,-0.004273,0.001466,-0.0,0.0,-0.0,3.0,0.331486,0.3261,0.32059,0.3261,,,,,,,-0.00096,-0.005264,0.003767,-0.024722,-0.038387,-0.017288
200931,0.000363,-0.004029,0.00171,-0.0,0.0,-0.0,3.0,0.330969,0.3261,0.321131,0.3261,,,,,,,-0.000908,-0.005161,0.00389,-0.009666,-0.013561,0.003632
200951,0.000241,-0.003418,0.00171,-0.0,0.0,-0.0,3.0,0.33038,0.3261,0.321742,0.3261,,,,,,,-0.001033,-0.004917,0.003887,-0.009387,0.049334,0.003822
200971,0.000485,-0.003541,0.001832,-0.0,0.0,-0.0,3.0,0.335089,0.3261,0.316762,0.3261,,,,,,,-0.001242,-0.004905,0.004011,0.06691,0.024929,0.003849
200991,0.000485,-0.003419,0.001954,-0.0,0.0,-0.0,3.0,0.334611,0.3261,0.317277,0.3261,,,,,,,-0.001188,-0.004903,0.004028,0.055499,0.045815,0.021067
201011,0.000363,-0.003541,0.001954,-0.0,0.0,-0.0,3.0,0.335372,0.3261,0.316456,0.3261,,,,,,,-0.001169,-0.004744,0.00415,0.030672,-0.00381,3.1e-05
201031,0.000362,-0.003663,0.002076,-0.0,0.0,-0.0,3.0,0.336024,0.3261,0.315748,0.3261,,,,,,,-0.000835,-0.004867,0.004274,-0.02498,-0.003707,-0.000155
201051,0.000362,-0.003785,0.002198,-0.0,0.0,-0.0,3.0,0.336619,0.3261,0.315099,0.3261,,,,,,,-0.000484,-0.00497,0.004397,-0.084314,-0.007481,-0.000265
201071,0.000728,-0.003785,0.002321,-0.0,0.0,-0.0,3.0,0.333874,0.3261,0.318066,0.3261,,,,,,,-0.000485,-0.004883,0.004519,-0.021337,-0.02106,-0.00014
201091,0.001094,-0.003786,0.002444,-0.0,0.0,-0.0,3.0,0.333915,0.3261,0.318023,0.3261,,,,,,,-0.000347,-0.004883,0.004641,0.016915,-0.021078,-6.6e-05
201111,0.00085,-0.003541,0.002565,-0.0,0.0,-0.0,3.0,0.330941,0.3261,0.32116,0.3261,,,,,,,-0.000511,-0.004673,0.004763,0.004022,-0.0136,-9.6e-05
201131,0.00085,-0.003297,0.002687,-0.0,0.0,-0.0,3.0,0.333029,0.3261,0.318966,0.3261,,,,,,,-0.000546,-0.004658,0.004866,0.011548,0.024716,0.003743
201151,0.000728,-0.003053,0.002687,-0.0,0.0,-0.0,3.0,0.332616,0.3261,0.319402,0.3261,,,,,,,-0.000756,-0.004413,0.004883,0.025068,0.024648,3.3e-05
201171,0.000606,-0.002809,0.002809,-0.0,0.0,-0.0,3.0,0.332948,0.3261,0.319051,0.3261,,,,,,,-0.000964,-0.00415,0.004988,0.038432,0.020786,0.003781
201191,0.000606,-0.002931,0.002809,-0.0,0.0,-0.0,3.0,0.334568,0.3261,0.317323,0.3261,,,,,,,-0.000925,-0.004171,0.004986,0.03059,0.003884,0.003886
201211,0.000484,-0.002931,0.002809,-0.0,0.0,-0.0,3.0,0.333919,0.3261,0.318018,0.3261,,,,,,,-0.00082,-0.00417,0.0049,-0.007643,0.003847,0.017231
201231,0.000484,-0.003053,0.002809,-0.0,0.0,-0.0,3.0,0.33586,0.3261,0.315927,0.3261,,,,,,,-0.000627,-0.004257,0.004901,-0.038358,-0.003683,0.017161
201251,0.000606,-0.003175,0.002687,-0.0,0.0,-0.0,3.0,0.336123,0.3261,0.315641,0.3261,,,,,,,-0.000505,-0.004379,0.005006,-0.038355,-0.003672,-0.02106
201271,0.00085,-0.003175,0.002687,-0.0,0.0,-0.0,3.0,0.333267,0.3261,0.318713,0.3261,,,,,,,-0.000611,-0.00413,0.005007,0.020883,-0.046028,-0.021011
201291,0.001094,-0.003298,0.00281,-0.0,0.0,-0.0,3.0,0.334158,0.3261,0.317762,0.3261,,,,,,,-0.000348,-0.004273,0.004989,0.016934,-0.042031,0.003806
201311,0.001095,-0.002931,0.00281,-0.0,0.0,-0.0,3.0,0.330157,0.3261,0.321974,0.3261,,,,,,,-0.000245,-0.004062,0.005006,-4.2e-05,-0.013681,9e-06
201331,0.001217,-0.002687,0.00281,-0.0,0.0,-0.0,3.0,0.332931,0.3261,0.31907,0.3261,,,,,,,-0.000141,-0.004048,0.005006,0.003766,0.024728,-1e-05
201351,0.001339,-0.002321,0.002932,-0.0,0.0,-0.0,3.0,0.333463,0.3261,0.318505,0.3261,,,,,,,-3.7e-05,-0.003927,0.005111,0.007666,0.066723,0.003697
201371,0.00134,-0.002077,0.003054,-0.0,0.0,-0.0,3.0,0.333385,0.3261,0.318587,0.3261,,,,,,,-0.000248,-0.003542,0.005128,0.042207,0.041798,0.020997
201391,0.00134,-0.001833,0.003176,-0.0,0.0,-0.0,3.0,0.332552,0.3261,0.31947,0.3261,,,,,,,-0.00021,-0.003174,0.00525,0.034446,0.020748,0.020971
201411,0.001096,-0.001467,0.003297,-0.0,0.0,-0.0,3.0,0.329612,0.3261,0.322536,0.3261,,,,,,,-0.000332,-0.00256,0.005371,0.01352,-0.021468,0.020972
201431,0.001097,-0.001101,0.003419,-0.0,0.0,-0.0,3.0,0.329723,0.3261,0.322422,0.3261,,,,,,,-0.000101,-0.002194,0.005512,-0.024997,-0.021352,0.017109
201451,0.001098,-0.00049,0.003541,-0.0,0.0,-0.0,3.0,0.327949,0.3261,0.324237,0.3261,,,,,,,2.3e-05,-0.001723,0.00572,-0.045977,0.003398,0.003694
201471,0.001464,-0.000247,0.003663,-0.0,0.0,-0.0,3.0,0.330426,0.3261,0.321695,0.3261,,,,,,,0.000233,-0.001484,0.005842,-0.017516,0.003657,0.003728
201491,0.001831,-0.000126,0.003785,-0.0,0.0,-0.0,3.0,0.331999,0.3261,0.320053,0.3261,,,,,,,0.000581,-0.001506,0.005859,-0.01365,0.028663,0.020949
201511,0.002075,-0.000126,0.003907,-0.0,0.0,-0.0,3.0,0.333267,0.3261,0.318713,0.3261,,,,,,,0.000577,-0.001489,0.005981,0.02862,0.024825,0.020929
201531,0.002441,-0.000127,0.003907,-0.0,0.0,-0.0,3.0,0.334799,0.3261,0.317075,0.3261,,,,,,,0.000821,-0.001594,0.006104,0.049578,0.042044,-6.7e-05
201551,0.002319,-0.000127,0.004029,-0.0,0.0,-0.0,3.0,0.335145,0.3261,0.316701,0.3261,,,,,,,0.000835,-0.001576,0.006227,0.025065,0.038224,-0.000151
201571,0.002441,-0.000127,0.004151,-0.0,0.0,-0.0,3.0,0.334692,0.3261,0.317189,0.3261,,,,,,,0.000979,-0.001434,0.006349,0.020974,0.013307,-0.000123
201591,0.002563,-0.000128,0.004395,-0.0,0.0,-0.0,3.0,0.332523,0.3261,0.319501,0.3261,,,,,,,0.001139,-0.001206,0.006471,0.013212,-0.025005,0.020898
201611,0.002564,0.000238,0.004517,-0.0,0.0,-0.0,3.0,0.328753,0.3261,0.323418,0.3261,,,,,,,0.001367,-0.000874,0.006591,-0.024984,-0.017519,0.020979
201631,0.002687,0.000482,0.004517,-0.0,0.0,-0.0,3.0,0.329332,0.3261,0.322824,0.3261,,,,,,,0.001595,-0.000632,0.006713,-0.04229,-0.017337,1.2e-05
201651,0.00281,0.000848,0.004516,-0.0,0.0,-0.0,3.0,0.330147,0.3261,0.321984,0.3261,,,,,,,0.001699,-0.000511,0.006817,-0.038333,0.024735,-0.017264
201671,0.003177,0.001091,0.004638,-0.0,0.0,-0.0,3.0,0.330577,0.3261,0.321539,0.3261,,,,,,,0.001679,-0.000268,0.006836,0.028544,0.024616,-0.000137
201691,0.003054,0.001092,0.004638,-0.0,0.0,-0.0,3.0,0.332999,0.3261,0.318998,0.3261,,,,,,,0.001589,-0.000252,0.006834,0.021221,0.021011,-4.2e-05
201711,0.003177,0.001091,0.004638,-0.0,0.0,-0.0,3.0,0.331726,0.3261,0.32034,0.3261,,,,,,,0.001572,-0.000148,0.006834,0.045879,0.003709,-3.1e-05
201731,0.003054,0.001092,0.004516,-0.0,0.0,-0.0,3.0,0.332305,0.3261,0.319731,0.3261,,,,,,,0.001713,-0.000129,0.006834,5e-05,3.2e-05,-0.020975
201751,0.00281,0.001092,0.004516,-0.0,0.0,-0.0,3.0,0.333787,0.3261,0.318159,0.3261,,,,,,,0.001504,-0.000234,0.006817,-0.007433,0.017283,-0.017239
201771,0.00281,0.001092,0.004516,-0.0,0.0,-0.0,3.0,0.332697,0.3261,0.319317,0.3261,,,,,,,0.001508,-0.00011,0.006712,-0.007694,-0.003849,3.6e-05
201791,0.002566,0.001093,0.004516,-0.0,0.0,-0.0,3.0,0.33239,0.3261,0.319641,0.3261,,,,,,,0.001489,-0.000129,0.006712,-0.045787,0.000103,2.6e-05
201811,0.002566,0.001215,0.004516,-0.0,0.0,-0.0,3.0,0.330309,0.3261,0.321816,0.3261,,,,,,,0.001245,0.000119,0.006712,-0.003841,-0.021184,3e-05
201831,0.002445,0.001337,0.004516,-0.0,0.0,-0.0,3.0,0.330339,0.3261,0.321786,0.3261,,,,,,,0.001122,0.000241,0.006712,-0.003779,-0.021158,2.9e-05
201851,0.002323,0.00146,0.004516,-0.0,0.0,-0.0,3.0,0.329797,0.3261,0.322346,0.3261,,,,,,,0.000963,0.000345,0.006712,0.00391,-0.017334,1.7e-05
201871,0.002201,0.001582,0.004516,-0.0,0.0,-0.0,3.0,0.329658,0.3261,0.322489,0.3261,,,,,,,0.000965,0.000467,0.006712,-0.017171,-0.017286,3.4e-05
201891,0.002323,0.001582,0.004516,-0.0,0.0,-0.0,3.0,0.333032,0.3261,0.318962,0.3261,,,,,,,0.000737,0.000238,0.006712,0.042127,0.021014,-5.6e-05
201911,0.002201,0.001582,0.004394,-0.0,0.0,-0.0,3.0,0.332321,0.3261,0.319714,0.3261,,,,,,,0.000754,0.000219,0.006589,0.017357,0.02486,7e-05
201931,0.002079,0.00146,0.004394,-0.0,0.0,-0.0,3.0,0.33374,0.3261,0.31821,0.3261,,,,,,,0.000737,0.000115,0.00659,0.00013,0.021168,-2.3e-05
201951,0.002078,0.00146,0.004272,-0.0,0.0,-0.0,3.0,0.332869,0.3261,0.319135,0.3261,,,,,,,0.000862,0.000116,0.006466,-0.021039,0.021101,0.000102
201971,0.002078,0.001338,0.004272,-0.0,0.0,-0.0,3.0,0.33476,0.3261,0.317116,0.3261,,,,,,,0.000738,3e-05,0.006468,5.4e-05,0.013485,-1.5e-05
201991,0.001956,0.001217,0.004272,-0.0,0.0,-0.0,3.0,0.332582,0.3261,0.319439,0.3261,,,,,,,0.000757,0.000136,0.006468,-0.024867,-0.024788,4.2e-05
202011,0.001956,0.001095,0.00415,-0.0,0.0,-0.0,3.0,0.329769,0.3261,0.322375,0.3261,,,,,,,0.00072,0.000204,0.006468,0.003885,-0.013336,1.1e-05
202031,0.001955,0.000973,0.00415,-0.0,0.0,-0.0,3.0,0.332241,0.3261,0.319799,0.3261,,,,,,,0.000634,-4e-06,0.006346,-0.003903,-0.042046,6.7e-05
202051,0.001956,0.001217,0.004028,-0.0,0.0,-0.0,3.0,0.328221,0.3261,0.323961,0.3261,,,,,,,0.000597,6.6e-05,0.006241,0.003819,-0.009736,-0.003724
202071,0.001834,0.001339,0.003906,-0.0,0.0,-0.0,3.0,0.331017,0.3261,0.321081,0.3261,,,,,,,0.000578,-4.2e-05,0.006224,-0.013246,0.028729,-0.020994
202091,0.001956,0.001339,0.003784,-0.0,0.0,-0.0,3.0,0.332182,0.3261,0.31986,0.3261,,,,,,,0.000684,-2.4e-05,0.006102,-0.00961,0.02494,-0.020969
202111,0.001956,0.001339,0.003784,-0.0,0.0,-0.0,3.0,0.33226,0.3261,0.319779,0.3261,,,,,,,0.000473,-2.4e-05,0.00598,0.024998,0.024852,-1.5e-05
202131,0.001956,0.001339,0.003661,-0.0,0.0,-0.0,3.0,0.333174,0.3261,0.318812,0.3261,,,,,,,0.000387,1.4e-05,0.005856,0.038331,0.017147,6.9e-05
202151,0.001589,0.00134,0.003662,-0.0,0.0,-0.0,3.0,0.3323,0.3261,0.319736,0.3261,,,,,,,0.000264,0.000138,0.005858,-0.003569,-0.00386,5e-06
202171,0.001467,0.00134,0.003662,-0.0,0.0,-0.0,3.0,0.331494,0.3261,0.320582,0.3261,,,,,,,0.000268,0.000261,0.005858,-0.024863,-0.024879,3.7e-05
202191,0.001467,0.00134,0.003662,-0.0,0.0,-0.0,3.0,0.331665,0.3261,0.320404,0.3261,,,,,,,0.000288,0.000261,0.005858,-0.028787,-0.024846,4e-05
202211,0.001467,0.00134,0.00354,-0.0,0.0,-0.0,3.0,0.32975,0.3261,0.322394,0.3261,,,,,,,0.00027,0.000347,0.005734,-0.024967,-0.038255,0.000157
202231,0.001589,0.00134,0.00354,-0.0,0.0,-0.0,3.0,0.330318,0.3261,0.321807,0.3261,,,,,,,0.000356,0.000205,0.005736,-0.01735,-0.013319,2.2e-05
202251,0.001467,0.001462,0.003418,-0.0,0.0,-0.0,3.0,0.331455,0.3261,0.320624,0.3261,,,,,,,0.000212,0.0001,0.005631,-0.013224,0.024865,-0.00374
202271,0.001833,0.001218,0.003417,-0.0,0.0,-0.0,3.0,0.336013,0.3261,0.31576,0.3261,,,,,,,0.000213,-0.000234,0.005614,0.049608,0.038436,-6.2e-05
202291,0.001589,0.001096,0.003418,-0.0,0.0,-0.0,3.0,0.333765,0.3261,0.318182,0.3261,,,,,,,1.7e-05,-0.000249,0.005614,0.038534,0.021074,-3.6e-05
202311,0.001589,0.000974,0.003418,-0.0,0.0,-0.0,3.0,0.333843,0.3261,0.318099,0.3261,,,,,,,2e-05,-0.000211,0.005614,0.038258,-0.007664,-1.3e-05
202331,0.001345,0.000974,0.00354,-0.0,0.0,-0.0,3.0,0.331251,0.3261,0.320837,0.3261,,,,,,,5.8e-05,-0.000123,0.005614,-0.01138,-0.021079,0.020995
202351,0.001345,0.000974,0.00354,-0.0,0.0,-0.0,3.0,0.329822,0.3261,0.32232,0.3261,,,,,,,0.000128,-1.9e-05,0.005717,-0.021152,-0.038265,0.003856
202371,0.001467,0.001096,0.00354,-0.0,0.0,-0.0,3.0,0.331313,0.3261,0.320772,0.3261,,,,,,,0.000375,-0.000124,0.005717,-0.042248,1.2e-05,0.003865
202391,0.001589,0.001218,0.00354,-0.0,0.0,-0.0,3.0,0.328977,0.3261,0.323188,0.3261,,,,,,,0.00046,8.4e-05,0.005736,-0.034566,-0.013448,3.4e-05
202411,0.001833,0.001095,0.003662,-0.0,0.0,-0.0,3.0,0.332474,0.3261,0.319552,0.3261,,,,,,,0.000316,-0.000145,0.005736,0.032456,0.003901,0.020954
202431,0.001955,0.001095,0.003662,-0.0,0.0,-0.0,3.0,0.332927,0.3261,0.319073,0.3261,,,,,,,0.000456,-0.000249,0.005858,0.028672,0.021029,-5.9e-05
202451,0.001955,0.000973,0.003662,-0.0,0.0,-0.0,3.0,0.335203,0.3261,0.316639,0.3261,,,,,,,0.000349,-0.000477,0.005858,0.046053,0.038325,-5.5e-05
202471,0.001833,0.000851,0.003662,-0.0,0.0,-0.0,3.0,0.335194,0.3261,0.316649,0.3261,,,,,,,0.000386,-0.000599,0.005963,0.017367,0.038365,-0.017284
202491,0.001833,0.000729,0.003662,-0.0,0.0,-0.0,3.0,0.333319,0.3261,0.318658,0.3261,,,,,,,0.000388,-0.000474,0.005963,0.017202,-0.0038,-0.017221
202511,0.001832,0.000607,0.003662,-0.0,0.0,-0.0,3.0,0.332399,0.3261,0.319632,0.3261,,,,,,,0.000703,-0.000492,0.005857,-0.034655,-0.020885,0.000165
202531,0.001833,0.000729,0.003662,-0.0,0.0,-0.0,3.0,0.331743,0.3261,0.320322,0.3261,,,,,,,0.000635,-0.00035,0.005858,-0.02497,-0.025084,3.4e-05
202551,0.001833,0.000851,0.00354,-0.0,0.0,-0.0,3.0,0.331772,0.3261,0.320291,0.3261,,,,,,,0.00074,-0.00035,0.005858,-0.042157,-0.003831,-0.020953
202571,0.001955,0.000973,0.00354,-0.0,0.0,-0.0,3.0,0.330028,0.3261,0.322107,0.3261,,,,,,,0.000721,-0.000123,0.00584,-0.017348,-0.021143,-0.017189
202591,0.002077,0.001095,0.00354,-0.0,0.0,-0.0,3.0,0.329113,0.3261,0.323049,0.3261,,,,,,,0.000701,-3.8e-05,0.005736,0.007575,-0.013498,3.6e-05
202611,0.002077,0.001095,0.003662,-0.0,0.0,-0.0,3.0,0.33142,0.3261,0.32066,0.3261,,,,,,,0.000614,-0.000145,0.005736,0.021103,0.003809,0.020959
202631,0.001955,0.001217,0.003539,-0.0,0.0,-0.0,3.0,0.331273,0.3261,0.320813,0.3261,,,,,,,0.00049,-0.000144,0.005753,0.02121,0.02478,-0.003791
202651,0.001711,0.001096,0.00354,-0.0,0.0,-0.0,3.0,0.334477,0.3261,0.317421,0.3261,,,,,,,0.000491,-0.000374,0.005841,-0.020821,0.042304,-0.017272
202671,0.001711,0.000974,0.00354,-0.0,0.0,-0.0,3.0,0.334012,0.3261,0.317919,0.3261,,,,,,,0.00037,-0.000354,0.005841,4.6e-05,0.017315,-0.017233
202691,0.001955,0.000851,0.00354,-0.0,0.0,-0.0,3.0,0.33379,0.3261,0.318156,0.3261,,,,,,,0.000513,-0.000334,0.005736,0.017008,-0.007629,2.6e-05
202711,0.001955,0.000851,0.00354,-0.0,0.0,-0.0,3.0,0.332591,0.3261,0.319429,0.3261,,,,,,,0.00051,-0.000351,0.005736,0.017212,-0.003874,-4e-06
202731,0.002077,0.000851,0.00354,-0.0,0.0,-0.0,3.0,0.331513,0.3261,0.320562,0.3261,,,,,,,0.000739,-0.000228,0.005736,-0.00018,-0.024924,2.6e-05
202751,0.002077,0.000851,0.00354,-0.0,0.0,-0.0,3.0,0.331671,0.3261,0.320397,0.3261,,,,,,,0.000842,-0.000228,0.005736,-0.017284,-0.024868,3.4e-05
202771,0.002199,0.000973,0.00354,-0.0,0.0,-0.0,3.0,0.329197,0.3261,0.322963,0.3261,,,,,,,0.000965,-0.000142,0.00584,-0.017413,-0.017229,-0.017215
202791,0.002321,0.001094,0.003661,-0.0,0.0,-0.0,3.0,0.330398,0.3261,0.321724,0.3261,,,,,,,0.000983,-0.000144,0.005735,-6.6e-05,0.003734,0.020996
202811,0.002322,0.001217,0.003661,-0.0,0.0,-0.0,3.0,0.329679,0.3261,0.322468,0.3261,,,,,,,0.000877,-0.000163,0.005858,0.017343,0.028719,-6.7e-05
202831,0.002321,0.001094,0.003661,-0.0,0.0,-0.0,3.0,0.332852,0.3261,0.319153,0.3261,,,,,,,0.000963,-0.00027,0.005858,0.003862,0.025006,-3.1e-05
202851,0.002443,0.000972,0.003662,-0.0,0.0,-0.0,3.0,0.333579,0.3261,0.318381,0.3261,,,,,,,0.000962,-0.000373,0.005858,0.024853,0.021121,-3.7e-05
202871,0.002565,0.00085,0.003662,-0.0,0.0,-0.0,3.0,0.334626,0.3261,0.317261,0.3261,,,,,,,0.000979,-0.000458,0.005982,0.042048,0.013432,-0.021119
202891,0.002443,0.000728,0.003784,-0.0,0.0,-0.0,3.0,0.333372,0.3261,0.318601,0.3261,,,,,,,0.001015,-0.000476,0.005981,0.013454,-0.003783,-8.5e-05
202911,0.002565,0.000606,0.003784,-0.0,0.0,-0.0,3.0,0.333061,0.3261,0.318932,0.3261,,,,,,,0.001121,-0.000333,0.00598,0.016963,-0.049866,5.8e-05
202931,0.002443,0.000606,0.003784,-0.0,0.0,-0.0,3.0,0.331094,0.3261,0.321,0.3261,,,,,,,0.001263,-0.00035,0.00598,-0.028767,-0.045906,6.9e-05
202951,0.002565,0.00085,0.003784,-0.0,0.0,-0.0,3.0,0.327959,0.3261,0.324227,0.3261,,,,,,,0.001331,-0.000301,0.00598,-0.017347,-0.009697,2.1e-05
202971,0.002565,0.00085,0.003784,-0.0,0.0,-0.0,3.0,0.330321,0.3261,0.321804,0.3261,,,,,,,0.001454,-0.000389,0.00598,-0.038243,0.004037,1.1e-05
202991,0.002688,0.000972,0.003784,-0.0,0.0,-0.0,3.0,0.332636,0.3261,0.319382,0.3261,,,,,,,0.001101,-0.000495,0.00598,0.042186,0.041978,-7.2e-05
203011,0.002687,0.000849,0.003784,-0.0,0.0,-0.0,3.0,0.332915,0.3261,0.319087,0.3261,,,,,,,0.001205,-0.000515,0.00598,0.024922,0.024938,-4.2e-05
203031,0.002565,0.00085,0.003662,-0.0,0.0,-0.0,3.0,0.332605,0.3261,0.319414,0.3261,,,,,,,0.000977,-0.000494,0.00598,0.042281,0.021004,-0.021018
203051,0.002443,0.000606,0.003662,-0.0,0.0,-0.0,3.0,0.334634,0.3261,0.317252,0.3261,,,,,,,0.000978,-0.00058,0.005858,0.021128,-0.007526,2.6e-05
203071,0.00232,0.000484,0.003662,-0.0,0.0,-0.0,3.0,0.332695,0.3261,0.319319,0.3261,,,,,,,0.000893,-0.000596,0.005858,0.013439,-0.024842,2.5e-05
203091,0.00232,0.000484,0.003662,-0.0,0.0,-0.0,3.0,0.331342,0.3261,0.320741,0.3261,,,,,,,0.000999,-0.000614,0.005858,-0.003907,-0.021052,2.6e-05
203111,0.00232,0.000484,0.003662,-0.0,0.0,-0.0,3.0,0.33123,0.3261,0.320858,0.3261,,,,,,,0.001122,-0.000614,0.005858,-0.02501,-0.021012,3.2e-05
203131,0.002442,0.000484,0.003662,-0.0,0.0,-0.0,3.0,0.330262,0.3261,0.321865,0.3261,,,,,,,0.001209,-0.000632,0.00584,-0.017311,-0.017142,0.003868
203151,0.002565,0.000606,0.003662,-0.0,0.0,-0.0,3.0,0.331579,0.3261,0.320493,0.3261,,,,,,,0.001188,-0.000756,0.005858,0.007645,0.024826,-3.3e-05
203171,0.002687,0.000605,0.003662,-0.0,0.0,-0.0,3.0,0.332851,0.3261,0.319155,0.3261,,,,,,,0.001015,-0.000719,0.005858,0.013454,-0.003939,2e-06
203191,0.002565,0.000606,0.003662,-0.0,0.0,-0.0,3.0,0.333896,0.3261,0.318043,0.3261,,,,,,,0.001083,-0.000843,0.005858,0.024883,0.03812,-5.4e-05
203211,0.002321,0.000606,0.003662,-0.0,0.0,-0.0,3.0,0.333038,0.3261,0.318956,0.3261,,,,,,,0.000891,-0.000719,0.005858,0.013581,0.017166,-2.3e-05
203231,0.00232,0.000484,0.003662,-0.0,0.0,-0.0,3.0,0.332337,0.3261,0.319697,0.3261,,,,,,,0.000894,-0.000615,0.005858,0.013285,-0.02107,2e-05
203251,0.002076,0.000607,0.00354,-0.0,0.0,-0.0,3.0,0.332141,0.3261,0.319904,0.3261,,,,,,,0.001017,-0.000595,0.005735,-0.049709,-0.003888,0.000178
203271,0.002076,0.000607,0.003418,-0.0,0.0,-0.0,3.0,0.330969,0.3261,0.321131,0.3261,,,,,,,0.000878,-0.000491,0.005736,-0.024968,-0.021017,-0.020944
203291,0.002076,0.000607,0.003418,-0.0,0.0,-0.0,3.0,0.330763,0.3261,0.321345,0.3261,,,,,,,0.00084,-0.00051,0.005613,0.024894,0.003847,0.000144
203311,0.002077,0.000729,0.003418,-0.0,0.0,-0.0,3.0,0.330535,0.3261,0.321582,0.3261,,,,,,,0.000718,-0.00049,0.005614,0.003939,-4.4e-05,-1e-06
203331,0.002076,0.000607,0.003418,-0.0,0.0,-0.0,3.0,0.331344,0.3261,0.32074,0.3261,,,,,,,0.000594,-0.00051,0.005614,0.024896,-0.017172,9e-06
203351,0.001954,0.000729,0.003418,-0.0,0.0,-0.0,3.0,0.330535,0.3261,0.321582,0.3261,,,,,,,0.00049,-0.000509,0.005614,0.021222,0.003719,-1.1e-05
203371,0.001832,0.000729,0.003418,-0.0,0.0,-0.0,3.0,0.332674,0.3261,0.319341,0.3261,,,,,,,0.000472,-0.000615,0.005614,0.003962,0.021077,-2.1e-05
203391,0.00171,0.00073,0.003296,-0.0,0.0,-0.0,3.0,0.332096,0.3261,0.31995,0.3261,,,,,,,0.000387,-0.000614,0.005596,-0.00375,0.021126,-0.01715
203411,0.001832,0.000607,0.003296,-0.0,0.0,-0.0,3.0,0.333572,0.3261,0.318388,0.3261,,,,,,,0.000492,-0.000597,0.005491,-0.000213,-0.003802,-1.9e-05
203431,0.00171,0.000608,0.003296,-0.0,0.0,-0.0,3.0,0.332471,0.3261,0.319556,0.3261,,,,,,,0.000387,-0.000614,0.005511,-0.003733,-4e-05,-0.003841
203451,0.001832,0.000485,0.003296,-0.0,0.0,-0.0,3.0,0.333368,0.3261,0.318606,0.3261,,,,,,,0.000494,-0.000577,0.005492,-0.000159,-0.028703,2.6e-05
203471,0.00171,0.000486,0.003174,-0.0,0.0,-0.0,3.0,0.331306,0.3261,0.320779,0.3261,,,,,,,0.000473,-0.000612,0.005492,-0.01717,-0.021014,-0.020952
203491,0.001832,0.000363,0.003052,-0.0,0.0,-0.0,3.0,0.330698,0.3261,0.321413,0.3261,,,,,,,0.000579,-0.000612,0.00537,-0.013604,-0.041942,-0.020909
203511,0.001832,0.000363,0.003052,-0.0,0.0,-0.0,3.0,0.330417,0.3261,0.321704,0.3261,,,,,,,0.000492,-0.000752,0.005248,0.000147,0.02513,0.000134
203531,0.002076,0.000485,0.003052,-0.0,0.0,-0.0,3.0,0.331056,0.3261,0.32104,0.3261,,,,,,,0.000616,-0.000876,0.005248,0.020948,0.024856,-3e-05
203551,0.002076,0.000363,0.00293,-0.0,0.0,-0.0,3.0,0.331178,0.3261,0.320913,0.3261,,,,,,,0.000613,-0.000877,0.005125,0.021161,0.003992,0.000102
203571,0.002076,0.000241,0.00293,-0.0,0.0,-0.0,3.0,0.334378,0.3261,0.317527,0.3261,,,,,,,0.000822,-0.001228,0.005126,-0.013362,0.042343,-9.2e-05
203591,0.002198,0.000119,0.00293,-0.0,0.0,-0.0,3.0,0.334181,0.3261,0.317738,0.3261,,,,,,,0.000716,-0.001208,0.005126,0.024818,0.017265,-2.1e-05
203611,0.002197,-0.000125,0.00293,-0.0,0.0,-0.0,3.0,0.330614,0.3261,0.3215,0.3261,,,,,,,0.000859,-0.000996,0.005126,-0.042215,-0.05926,6.3e-05
203631,0.002075,-0.000125,0.00293,-0.0,0.0,-0.0,3.0,0.332986,0.3261,0.319011,0.3261,,,,,,,0.00065,-0.001205,0.005145,0.013203,-0.025037,-0.003815
203651,0.001831,-0.000247,0.00293,-0.0,0.0,-0.0,3.0,0.330384,0.3261,0.321739,0.3261,,,,,,,0.00086,-0.001119,0.00525,-0.021215,-0.017136,-6.6e-05
203671,0.001831,-0.000247,0.003053,-0.0,0.0,-0.0,3.0,0.331343,0.3261,0.320741,0.3261,,,,,,,0.000755,-0.001344,0.005249,-0.046086,-0.020917,-0.000117
203691,0.001831,-0.000125,0.003052,-0.0,0.0,-0.0,3.0,0.3295,0.3261,0.322652,0.3261,,,,,,,0.000737,-0.001239,0.005249,-0.042191,-0.017214,1.6e-05
203711,0.001953,-0.000369,0.003053,-0.0,0.0,-0.0,3.0,0.33533,0.3261,0.316501,0.3261,,,,,,,0.000384,-0.001556,0.005249,0.03852,-0.007386,1.3e-05
203731,0.001953,-0.000369,0.003053,-0.0,0.0,-0.0,3.0,0.333013,0.3261,0.318982,0.3261,,,,,,,0.000472,-0.001732,0.005249,0.025105,0.024883,-1.8e-05
203751,0.001708,-0.000735,0.002931,-0.0,0.0,-0.0,3.0,0.336203,0.3261,0.315554,0.3261,,,,,,,0.000242,-0.002064,0.005249,0.02141,0.017579,-0.020981
203771,0.001586,-0.000979,0.002931,-0.0,0.0,-0.0,3.0,0.336559,0.3261,0.315164,0.3261,,,,,,,0.00012,-0.002289,0.005127,0.021187,0.013562,-2.3e-05
203791,0.001341,-0.001223,0.002931,-0.0,0.0,-0.0,3.0,0.331934,0.3261,0.320121,0.3261,,,,,,,0.00016,-0.002076,0.005127,-0.028767,-0.042124,1.6e-05
203811,0.001219,-0.001467,0.002809,-0.0,0.0,-0.0,3.0,0.335132,0.3261,0.316716,0.3261,,,,,,,-8.6e-05,-0.002549,0.005004,-0.007658,-0.024539,0.000168
203831,0.000974,-0.001588,0.002687,-0.0,0.0,-0.0,3.0,0.332525,0.3261,0.319499,0.3261,,,,,,,-0.000189,-0.002564,0.004882,-0.032445,-0.04199,0.000109
203851,0.000852,-0.00171,0.002565,-0.0,0.0,-0.0,3.0,0.334104,0.3261,0.31782,0.3261,,,,,,,-0.000242,-0.002933,0.00476,-0.042034,0.00026,7.3e-05
203871,0.000609,-0.001588,0.00232,-0.0,0.0,-0.0,3.0,0.332751,0.3261,0.31926,0.3261,,,,,,,-0.00042,-0.00295,0.004533,-0.051424,0.024874,-0.003674
203891,0.000608,-0.001832,0.002198,-0.0,0.0,-0.0,3.0,0.334946,0.3261,0.316916,0.3261,,,,,,,-0.000874,-0.003178,0.004393,0.025068,0.021346,0.000125
203911,0.000486,-0.001954,0.001954,-0.0,0.0,-0.0,3.0,0.334704,0.3261,0.317176,0.3261,,,,,,,-0.001205,-0.003299,0.004166,0.059659,0.021157,-0.003519
203931,0.00012,-0.002075,0.001832,-0.0,0.0,-0.0,3.0,0.335717,0.3261,0.316082,0.3261,,,,,,,-0.001329,-0.003403,0.004045,0.017518,0.017311,-0.003715
203951,-2e-06,-0.002197,0.001587,-0.0,0.0,-0.0,3.0,0.335892,0.3261,0.315892,0.3261,,,,,,,-0.001116,-0.003525,0.003904,-0.038253,0.017358,-0.020911
203971,-2e-06,-0.002197,0.001587,-0.0,0.0,-0.0,3.0,0.334939,0.3261,0.316924,0.3261,,,,,,,-0.00122,-0.003382,0.003783,-0.021182,-0.007739,-0.0
203991,0.000243,-0.002075,0.001465,-0.0,0.0,-0.0,3.0,0.332233,0.3261,0.319806,0.3261,,,,,,,-0.001218,-0.003172,0.003661,0.020869,-0.021257,0.00018
204011,0.000365,-0.001954,0.001465,-0.0,0.0,-0.0,3.0,0.332717,0.3261,0.319296,0.3261,,,,,,,-0.00101,-0.003174,0.003662,-0.013526,0.042005,-2e-05
204031,0.000243,-0.001587,0.001465,-0.0,0.0,-0.0,3.0,0.330133,0.3261,0.321208,0.3261,,,,,,,-0.001079,-0.002966,0.003662,-0.003841,0.028705,-7e-06
204051,0.000365,-0.001587,0.001465,-0.0,0.0,-0.0,3.0,0.332619,0.3261,0.319399,0.3261,,,,,,,-0.000907,-0.002808,0.003662,-0.009718,5.8e-05,-8e-06
204071,0.000243,-0.001587,0.001587,-0.0,0.0,-0.0,3.0,0.331847,0.3261,0.320212,0.3261,,,,,,,-0.001014,-0.002826,0.003785,-0.013355,0.003947,-0.000121
204091,0.000487,-0.001832,0.001588,-0.0,0.0,-0.0,3.0,0.333867,0.3261,0.318074,0.3261,,,,,,,-0.001079,-0.003073,0.003784,0.038083,0.004128,3.5e-05
204111,0.000487,-0.001954,0.00171,-0.0,0.0,-0.0,3.0,0.334554,0.3261,0.317338,0.3261,,,,,,,-0.000939,-0.003318,0.003907,0.01342,0.02507,-0.00015
204131,0.000487,-0.001954,0.00171,-0.0,0.0,-0.0,3.0,0.334856,0.3261,0.317013,0.3261,,,,,,,-0.000852,-0.003299,0.003906,8.8e-05,0.021011,-5e-06
204151,0.000609,-0.001954,0.001832,-0.0,0.0,-0.0,3.0,0.335379,0.3261,0.316449,0.3261,,,,,,,-0.00054,-0.00328,0.004029,-0.030781,0.017196,-0.000195
204171,0.000853,-0.001832,0.001832,-0.0,0.0,-0.0,3.0,0.329021,0.3261,0.323143,0.3261,,,,,,,-0.000733,-0.002859,0.004028,0.021187,-0.030905,3e-05
204191,0.001219,-0.001832,0.001955,-0.0,0.0,-0.0,3.0,0.333155,0.3261,0.319368,0.3261,,,,,,,-0.000486,-0.00293,0.004028,-0.000152,-6.6e-05,0.020975
204211,0.001219,-0.001588,0.002077,-0.0,0.0,-0.0,3.0,0.329791,0.3261,0.322352,0.3261,,,,,,,-0.00033,-0.002578,0.00415,0.034404,-0.038614,0.021023
204231,0.001097,-0.001466,0.002076,-0.0,0.0,-0.0,3.0,0.331213,0.3261,0.320876,0.3261,,,,,,,-0.000121,-0.002581,0.004273,-0.021041,-0.017278,1.9e-05
204251,0.001097,-0.001344,0.002198,-0.0,0.0,-0.0,3.0,0.333414,0.3261,0.317766,0.3261,,,,,,,3e-06,-0.00283,0.004273,-5.8e-05,0.004086,-2e-06
204271,0.00122,-0.0011,0.002198,-0.0,0.0,-0.0,3.0,0.333739,0.3261,0.31821,0.3261,,,,,,,-0.000121,-0.002811,0.004271,-8.1e-05,0.084146,0.02101
204291,0.001463,-0.001344,0.002199,-0.0,0.0,-0.0,3.0,0.334944,0.3261,0.318433,0.3261,,,,,,,3e-06,-0.002565,0.004396,0.02084,-0.021406,-0.000129
204311,0.001464,-0.0011,0.002198,-0.0,0.087266,-0.0,3.0,0.376959,0.3261,0.261047,0.3261,,,,,,,-8.6e-05,-0.002459,0.004395,-0.007504,-0.017321,6e-06
204331,0.00122,-0.0011,0.002076,-0.0,0.087266,-0.0,3.0,0.37816,0.3261,0.259036,0.3261,,,,,,,-0.000103,-0.002177,0.004394,-0.003943,-0.004235,1e-06
204351,0.00122,-0.00049,0.002076,-0.0,0.087266,-0.0,3.0,0.377711,0.3261,0.259791,0.3261,,,,,,,-0.000245,-0.001828,0.004272,0.021008,0.02044,1.8e-05
204371,0.001344,0.001464,0.00183,-0.0,0.087266,-0.0,3.0,0.366955,0.3261,0.276689,0.3261,,,,,,,-1.3e-05,-0.000661,0.004167,0.003609,0.037158,-0.003756
204391,0.001591,0.004638,0.001706,-0.0,0.087266,-0.0,3.0,0.357989,0.3261,0.289271,0.3261,,,,,,,6e-06,0.001613,0.004024,0.000246,0.215499,-3.6e-05
204411,0.001716,0.009276,0.001579,-0.0,0.087266,-0.0,3.0,0.345459,0.3261,0.305038,0.3261,,,,,,,0.000111,0.006652,0.003776,0.046047,0.252608,-0.000259
204431,0.001963,0.015258,0.001328,-0.0,0.087266,-0.0,3.0,0.33946,0.3261,0.311953,0.3261,,,,,,,0.000218,0.011989,0.003545,0.070924,0.363888,-0.00439
204451,0.00221,0.022461,0.001074,-0.0,0.087266,-0.0,3.0,0.321327,0.3261,0.330781,0.3261,,,,,,,0.000465,0.018946,0.003416,0.070625,0.40938,-0.025828
204471,0.002458,0.030884,0.001061,-0.0,0.087266,-0.0,3.0,0.337697,0.3261,0.313914,0.3261,,,,,,,0.000627,0.025678,0.003392,0.084098,0.686807,-0.023083
204491,0.002951,0.040286,0.00104,-0.0,0.087266,-0.0,3.0,0.316665,0.3261,0.335179,0.3261,,,,,,,0.001121,0.034731,0.003251,0.084177,0.749931,-0.00255
204511,0.003442,0.050421,0.000891,-0.0,0.087266,-0.0,3.0,0.270969,0.3261,0.370754,0.3261,,,,,,,0.001717,0.046601,0.0031,0.066759,0.467772,-0.002249
204531,0.00393,0.060434,0.000737,-0.0,0.087266,-0.0,3.0,0.264948,0.3261,0.374576,0.3261,,,,,,,0.002331,0.056715,0.002982,0.045445,0.45115,-0.009757
204551,0.004418,0.070451,0.000579,-0.0,0.087266,-0.0,3.0,0.257603,0.3261,0.379004,0.3261,,,,,,,0.002803,0.066731,0.002912,0.048772,0.451369,-0.023655
204571,0.005147,0.079487,0.000407,-0.0,0.087266,-0.0,3.0,0.259472,0.3261,0.377901,0.3261,,,,,,,0.003303,0.076026,0.002627,0.087456,0.405425,-0.004287
204591,0.005621,0.087553,-2e-06,-0.0,0.087266,-0.0,3.0,0.267046,0.3261,0.373264,0.3261,,,,,,,0.003899,0.084136,0.002231,0.019166,0.477558,-0.030613
204611,0.005969,0.094155,-0.000405,-0.0,0.087266,-0.0,3.0,0.299807,0.3261,0.349786,0.3261,,,,,,,0.004278,0.089285,0.002081,-0.000666,0.10167,-0.003987
204631,0.006438,0.099289,-0.000813,-0.0,0.087266,-0.0,3.0,0.297798,0.3261,0.351403,0.3261,,,,,,,0.004836,0.094319,0.00167,-0.035117,0.254897,-0.002534
204651,0.006667,0.102954,-0.001083,-0.0,0.087266,-0.0,3.0,0.285179,0.3261,0.361,0.3261,,,,,,,0.005097,0.099877,0.001269,-0.001737,0.186505,-0.025128
204671,0.007135,0.105034,-0.001483,-0.0,0.087266,-0.0,3.0,0.311942,0.3261,0.339127,0.3261,,,,,,,0.005428,0.102478,0.001,0.002042,0.129873,-0.025415
204691,0.007493,0.105766,-0.001628,-0.0,0.087266,-0.0,3.0,0.314395,0.3261,0.337261,0.3261,,,,,,,0.005797,0.104556,0.000709,-0.00047,0.025384,0.000105
204711,0.007609,0.105279,-0.001755,-0.0,0.087266,-0.0,3.0,0.327624,0.3261,0.324567,0.3261,,,,,,,0.006046,0.104654,0.000467,-0.025269,0.004106,-0.00223
204731,0.007854,0.104182,-0.001764,-0.0,0.087266,-0.0,3.0,0.333371,0.3261,0.318602,0.3261,,,,,,,0.006161,0.104053,0.000342,-0.004296,-0.062116,-0.003242
204751,0.007855,0.102591,-0.001757,-0.0,0.087266,-0.0,3.0,0.340258,0.3261,0.311054,0.3261,,,,,,,0.006413,0.102639,0.00044,-0.005219,-0.095089,-0.020519
204771,0.007991,0.10137,-0.001513,-0.0,0.087266,-0.0,3.0,0.34153,0.3261,0.309609,0.3261,,,,,,,0.006522,0.101048,0.000546,-0.020864,-0.052198,0.004904
204791,0.008247,0.100632,-0.001277,-0.0,0.087266,-0.0,3.0,0.34218,0.3261,0.308863,0.3261,,,,,,,0.006448,0.099719,0.000802,0.0343,-0.035321,0.002059
204811,0.00851,0.100265,-0.000921,-0.0,0.087266,-0.0,3.0,0.334979,0.3261,0.31688,0.3261,,,,,,,0.006805,0.099305,0.000925,-0.023972,-0.024584,0.022262
204831,0.008644,0.100751,-0.000684,-0.0,0.087266,-0.0,3.0,0.33299,0.3261,0.319007,0.3261,,,,,,,0.007175,0.099043,0.001278,-0.021424,0.000186,0.000787
204851,0.00865,0.101732,-0.000566,-0.0,0.087266,-0.0,3.0,0.326688,0.3261,0.325511,0.3261,,,,,,,0.007305,0.099743,0.001513,-0.000228,0.02883,-0.000447
204871,0.008784,0.103072,-0.000333,-0.0,0.087266,-0.0,3.0,0.32316,0.3261,0.329005,0.3261,,,,,,,0.007629,0.100829,0.001719,-0.008543,0.073099,0.024818
204891,0.009162,0.105027,-0.000116,-0.0,0.087266,-0.0,3.0,0.318798,0.3261,0.333187,0.3261,,,,,,,0.007867,0.10228,0.001945,0.036206,0.098077,0.001385
204911,0.00965,0.106984,-0.000151,-0.0,0.087266,-0.0,3.0,0.310276,0.3261,0.340945,0.3261,,,,,,,0.008344,0.104657,0.00205,0.018925,0.028648,-0.001299
204931,0.010259,0.109184,-0.000195,-0.0,0.087266,-0.0,3.0,0.313492,0.3261,0.338079,0.3261,,,,,,,0.008204,0.106191,0.002049,0.101216,0.098671,-0.005978
204951,0.010739,0.111385,-0.000356,-0.0,0.087266,-0.0,3.0,0.309723,0.3261,0.34143,0.3261,,,,,,,0.008815,0.108394,0.002005,0.037947,0.098365,-0.002612
204971,0.011213,0.113465,-0.000641,-0.0,0.087266,-0.0,3.0,0.30796,0.3261,0.342963,0.3261,,,,,,,0.009297,0.110595,0.001842,-0.005352,0.098526,-0.021264
204991,0.011808,0.115179,-0.000932,-0.0,0.087266,-0.0,3.0,0.307103,0.3261,0.343875,0.3261,,,,,,,0.009877,0.112674,0.001551,-0.001876,0.098704,-0.021482
205011,0.012151,0.116651,-0.00133,-0.0,0.087266,-0.0,3.0,0.309396,0.3261,0.344028,0.3261,,,,,,,0.010468,0.11449,0.001155,-0.002067,0.059756,-0.024969
205031,0.012372,0.117872,-0.00172,-0.0,0.087266,-0.0,3.0,0.308113,0.3261,0.342832,0.3261,,,,,,,0.010816,0.115855,0.000862,-0.001578,0.077146,-0.021359
205051,0.012716,0.118612,-0.002115,-0.0,0.087266,-0.0,3.0,0.310269,0.3261,0.340951,0.3261,,,,,,,0.011349,0.116969,0.000453,-0.011162,0.074917,-0.020731
205071,0.013067,0.118736,-0.002383,-0.0,0.087266,-0.0,3.0,0.314979,0.3261,0.33415,0.3261,,,,,,,0.011691,0.117391,6e-05,-0.009931,0.041758,0.000607
205091,0.01354,0.118494,-0.002656,-0.0,0.087266,-0.0,3.0,0.320849,0.3261,0.331239,0.3261,,,,,,,0.012035,0.117409,-0.000313,0.031746,0.017248,-0.005515
205111,0.013891,0.118122,-0.00292,-0.0,0.087266,-0.0,3.0,0.323789,0.3261,0.328389,0.3261,,,,,,,0.012404,0.117061,-0.000578,0.049146,-0.007271,-0.006533
205131,0.014,0.117515,-0.003169,-0.0,0.087266,-0.0,3.0,0.324827,0.3261,0.327367,0.3261,,,,,,,0.012656,0.116586,-0.00073,0.044588,-0.031887,-0.023457
205151,0.014238,0.116785,-0.003301,-0.0,0.087266,-0.0,3.0,0.324132,0.3261,0.328052,0.3261,,,,,,,0.012868,0.115979,-0.000984,0.049613,-0.031922,-0.002556
205171,0.014719,0.115926,-0.003445,-0.0,0.087266,-0.0,3.0,0.324794,0.3261,0.327399,0.3261,,,,,,,0.013105,0.115248,-0.001115,0.049614,-0.052697,-0.002351
205191,0.015323,0.115439,-0.003599,-0.0,0.087266,-0.0,3.0,0.323674,0.3261,0.328503,0.3261,,,,,,,0.013478,0.114494,-0.001359,0.066341,-0.027963,-0.007249
205211,0.015682,0.115197,-0.003741,-0.0,0.087266,-0.0,3.0,0.321854,0.3261,0.330273,0.3261,,,,,,,0.013984,0.114112,-0.001402,0.040541,-0.045285,-0.023135
205231,0.016169,0.115319,-0.003771,-0.0,0.087266,-0.0,3.0,0.316528,0.3261,0.335305,0.3261,,,,,,,0.014343,0.114082,-0.001546,0.02082,-0.017265,-0.001042
205251,0.016527,0.115442,-0.003915,-0.0,0.087266,-0.0,3.0,0.315575,0.3261,0.336183,0.3261,,,,,,,0.014937,0.114204,-0.001581,0.003321,-0.017293,1e-06
205271,0.017008,0.115694,-0.004069,-0.0,0.087266,-0.0,3.0,0.312867,0.3261,0.338642,0.3261,,,,,,,0.015292,0.114432,-0.001728,0.003431,0.029561,-0.000409
205291,0.017494,0.11606,-0.004101,-0.0,0.087266,-0.0,3.0,0.313767,0.3261,0.33783,0.3261,,,,,,,0.015572,0.114681,-0.001765,0.037825,0.049445,0.001227
205311,0.017745,0.116303,-0.003995,-0.0,0.087266,-0.0,3.0,0.315346,0.3261,0.336393,0.3261,,,,,,,0.016059,0.114941,-0.001796,-0.003987,0.024691,0.003884
205331,0.017988,0.116425,-0.00401,-0.0,0.087266,-0.0,3.0,0.315855,0.3261,0.335926,0.3261,,,,,,,0.016304,0.115082,-0.001793,-0.004152,0.02091,5.2e-05
205351,0.018117,0.116302,-0.003893,-0.0,0.087266,-0.0,3.0,0.317694,0.3261,0.334222,0.3261,,,,,,,0.016757,0.115099,-0.001819,-0.038566,0.017123,0.002099
205371,0.018111,0.115937,-0.004013,-0.0,0.087266,-0.0,3.0,0.318201,0.3261,0.333748,0.3261,,,,,,,0.016879,0.114976,-0.001807,-0.017593,-0.003615,-0.002811
205391,0.018356,0.115077,-0.004018,-0.0,0.087266,-0.0,3.0,0.319074,0.3261,0.332927,0.3261,,,,,,,0.017091,0.114608,-0.001728,0.010318,-0.045172,-0.017556
205411,0.018486,0.114589,-0.003898,-0.0,0.087266,-0.0,3.0,0.319802,0.3261,0.332237,0.3261,,,,,,,0.017334,0.11385,-0.001735,0.011606,-0.041314,0.003467
205431,0.018739,0.113734,-0.003781,-0.0,0.087266,-0.0,3.0,0.321866,0.3261,0.330261,0.3261,,,,,,,0.017249,0.113155,-0.001706,0.026246,-0.02831,0.019906
205451,0.019112,0.113117,-0.003673,-0.0,0.087266,-0.0,3.0,0.323038,0.3261,0.329124,0.3261,,,,,,,0.017504,0.112299,-0.001589,0.066582,-0.027817,-0.003551
205471,0.019235,0.112508,-0.003674,-0.0,0.087266,-0.0,3.0,0.323287,0.3261,0.328881,0.3261,,,,,,,0.017771,0.11158,-0.001473,0.041982,-0.03181,-0.002224
205491,0.019608,0.112141,-0.003568,-0.0,0.087266,-0.0,3.0,0.321008,0.3261,0.330758,0.3261,,,,,,,0.0179,0.111075,-0.00137,0.021274,-0.028292,0.002841
205511,0.01986,0.111652,-0.003454,-0.0,0.087266,-0.0,3.0,0.318192,0.3261,0.333757,0.3261,,,,,,,0.018276,0.110815,-0.001266,0.020912,-0.066508,0.003259
205531,0.020111,0.111529,-0.003344,-0.0,0.087266,-0.0,3.0,0.317277,0.3261,0.334611,0.3261,,,,,,,0.018416,0.110431,-0.001252,-0.002737,-0.021076,0.021504
205551,0.020233,0.111529,-0.003351,-0.0,0.087266,-0.0,3.0,0.313321,0.3261,0.338233,0.3261,,,,,,,0.018564,0.110518,-0.001138,-0.007845,-0.013465,0.000601
205571,0.020111,0.111285,-0.003342,-0.0,0.087266,-0.0,3.0,0.314921,0.3261,0.336781,0.3261,,,,,,,0.018687,0.110412,-0.001144,-0.049668,-0.01703,0.002963
205591,0.019746,0.111407,-0.003322,-0.0,0.087266,-0.0,3.0,0.313247,0.3261,0.3383,0.3261,,,,,,,0.01867,0.110273,-0.001142,-0.045949,0.007837,0.002497
205611,0.019495,0.111287,-0.00343,-0.0,0.087266,-0.0,3.0,0.314132,0.3261,0.337499,0.3261,,,,,,,0.01851,0.11029,-0.001133,-0.038158,0.024825,0.00189
205631,0.019495,0.111165,-0.003429,-0.0,0.087266,-0.0,3.0,0.31538,0.3261,0.336362,0.3261,,,,,,,0.018264,0.110166,-0.001136,-0.016846,0.025026,0.004611
205651,0.019489,0.111166,-0.003552,-0.0,0.087266,-0.0,3.0,0.313199,0.3261,0.338343,0.3261,,,,,,,0.018156,0.10994,-0.001234,0.020925,0.042182,-0.001436
205671,0.019367,0.111166,-0.003545,-0.0,0.087266,-0.0,3.0,0.318863,0.3261,0.333126,0.3261,,,,,,,0.018148,0.109831,-0.001355,0.000361,-0.00265,3.4e-05
205691,0.019732,0.111288,-0.003567,-0.0,0.087266,-0.0,3.0,0.318212,0.3261,0.333738,0.3261,,,,,,,0.018228,0.109731,-0.001463,-0.013603,-0.007835,-0.002905
205711,0.020097,0.110916,-0.003583,-0.0,0.087266,-0.0,3.0,0.317638,0.3261,0.334275,0.3261,,,,,,,0.018492,0.109751,-0.001477,0.024299,-0.074591,-0.00449
205731,0.02022,0.11055,-0.003586,-0.0,0.087266,-0.0,3.0,0.318239,0.3261,0.333712,0.3261,,,,,,,0.018864,0.109383,-0.001388,0.023494,-0.053193,-0.021992
205751,0.020336,0.110185,-0.003711,-0.0,0.087266,-0.0,3.0,0.313247,0.3261,0.338299,0.3261,,,,,,,0.018984,0.109332,-0.001394,0.02374,-0.062775,-0.021874
205771,0.020344,0.109575,-0.003582,-0.0,0.087266,-0.0,3.0,0.314072,0.3261,0.337554,0.3261,,,,,,,0.019001,0.108964,-0.00141,0.000391,-0.041745,0.004199
205791,0.020223,0.109209,-0.003572,-0.0,0.087266,-0.0,3.0,0.314923,0.3261,0.33678,0.3261,,,,,,,0.019108,0.108456,-0.001393,-0.03821,-0.016698,0.002282
205811,0.020102,0.108843,-0.003561,-0.0,0.087266,-0.0,3.0,0.315135,0.3261,0.336586,0.3261,,,,,,,0.018771,0.108091,-0.001476,-0.023826,0.004,0.018638
205831,0.019973,0.108716,-0.003675,-0.0,0.087266,-0.0,3.0,0.314406,0.3261,0.337251,0.3261,,,,,,,0.018338,0.107828,-0.00145,0.047608,-0.012909,-0.006263
205851,0.019852,0.108472,-0.003666,-0.0,0.087266,-0.0,3.0,0.316644,0.3261,0.335198,0.3261,,,,,,,0.01843,0.107491,-0.001362,-0.029357,0.000414,-0.015768
205871,0.019852,0.10835,-0.003665,-0.0,0.087266,-0.0,3.0,0.317387,0.3261,0.334508,0.3261,,,,,,,0.018409,0.107144,-0.001463,-0.024999,0.038414,0.001
205891,0.019845,0.108352,-0.003788,-0.0,0.087266,-0.0,3.0,0.316971,0.3261,0.334895,0.3261,,,,,,,0.018508,0.107024,-0.001573,-0.041229,-0.00369,0.019646
205911,0.02009,0.108108,-0.003798,-0.0,0.087266,-0.0,3.0,0.31479,0.3261,0.336559,0.3261,,,,,,,0.018612,0.107027,-0.001597,-0.038359,-0.003897,0.002212
205931,0.020334,0.107986,-0.00381,-0.0,0.087266,-0.0,3.0,0.315028,0.3261,0.336684,0.3261,,,,,,,0.018858,0.106886,-0.001608,0.003497,-0.020833,2.6e-05
205951,0.020084,0.107744,-0.003917,-0.0,0.087266,-0.0,3.0,0.314585,0.3261,0.337088,0.3261,,,,,,,0.019101,0.106765,-0.00162,0.002635,-0.020749,-0.021047
205971,0.019962,0.107744,-0.003911,-0.0,0.087266,-0.0,3.0,0.313342,0.3261,0.338214,0.3261,,,,,,,0.01906,0.106625,-0.001634,-0.009143,0.00382,0.004238
205991,0.020084,0.107622,-0.003916,-0.0,0.087266,-0.0,3.0,0.312019,0.3261,0.339401,0.3261,,,,,,,0.018833,0.106521,-0.001621,0.028953,0.021068,0.002129
206011,0.020091,0.107377,-0.003791,-0.0,0.087266,-0.0,3.0,0.317754,0.3261,0.334166,0.3261,,,,,,,0.018748,0.106188,-0.001614,0.063239,0.01371,0.000311
206031,0.019855,0.107132,-0.003653,-0.0,0.087266,-0.0,3.0,0.31913,0.3261,0.332874,0.3261,,,,,,,0.018539,0.10584,-0.001581,0.034759,-0.011086,-0.001802
206051,0.019611,0.106888,-0.003637,-0.0,0.087266,-0.0,3.0,0.316357,0.3261,0.335463,0.3261,,,,,,,0.018403,0.105703,-0.001553,0.01729,-0.028513,-0.004555
206071,0.019611,0.106394,-0.003632,-0.0,0.087266,-0.0,3.0,0.316522,0.3261,0.335311,0.3261,,,,,,,0.018164,0.105458,-0.001432,-0.00358,-0.071527,0.000853
206091,0.019741,0.105783,-0.003509,-0.0,0.087266,-0.0,3.0,0.315003,0.3261,0.336707,0.3261,,,,,,,0.018172,0.105068,-0.001323,-0.003632,-0.066624,0.004618
206111,0.019743,0.105174,-0.003503,-0.0,0.087266,-0.0,3.0,0.318704,0.3261,0.337212,0.3261,,,,,,,0.018193,0.104561,-0.001302,0.013315,-0.062546,-7.6e-05
206131,0.019866,0.104686,-0.003505,-0.0,0.087266,-0.0,3.0,0.313921,0.3261,0.337691,0.3261,,,,,,,0.018194,0.104055,-0.001297,-0.00755,-0.037775,0.000777
206151,0.02011,0.103948,-0.003509,-0.0,0.087266,-0.0,3.0,0.316242,0.3261,0.33557,0.3261,,,,,,,0.018425,0.103462,-0.001303,-0.004106,0.000472,0.000211
206171,0.01999,0.103217,-0.003496,-0.0,0.087266,-0.0,3.0,0.31988,0.3261,0.332163,0.3261,,,,,,,0.01867,0.102616,-0.001307,-0.024989,-0.002878,0.001333
206191,0.0201,0.102732,-0.003742,-0.0,0.087266,-0.0,3.0,0.316216,0.3261,0.333715,0.3261,,,,,,,0.018756,0.10199,-0.001304,-0.039325,0.000889,-0.019032
206211,0.01998,0.102122,-0.00373,-0.0,0.087266,-0.0,3.0,0.321339,0.3261,0.330769,0.3261,,,,,,,0.018768,0.101295,-0.00144,-0.022069,0.014142,-0.016226
206231,0.019852,0.101757,-0.003842,-0.0,0.087266,-0.0,3.0,0.321604,0.3261,0.330514,0.3261,,,,,,,0.01864,0.100687,-0.001531,-0.020901,-0.007004,0.001166
206251,0.019486,0.101385,-0.003819,-0.0,0.087266,-0.0,3.0,0.321541,0.3261,0.330574,0.3261,,,,,,,0.018617,0.100215,-0.001649,-0.038142,-0.011326,0.002188
206271,0.019243,0.101263,-0.003806,-0.0,0.087266,-0.0,3.0,0.320611,0.3261,0.331467,0.3261,,,,,,,0.01814,0.099851,-0.001725,0.000253,-0.03214,-0.003447
206291,0.018993,0.101021,-0.003913,-0.0,0.087266,-0.0,3.0,0.319817,0.3261,0.336592,0.3261,,,,,,,0.017902,0.099941,-0.001607,0.020402,-0.066752,-0.021588
206311,0.018756,0.100776,-0.003776,-0.0,0.087266,-0.0,3.0,0.315687,0.3261,0.336081,0.3261,,,,,,,0.01776,0.099696,-0.001617,0.004422,-0.045843,0.003958
206331,0.018641,0.100652,-0.003646,-0.0,0.087266,-0.0,3.0,0.312222,0.3261,0.33922,0.3261,,,,,,,0.017412,0.099661,-0.001581,0.022467,-0.038365,0.020338
206351,0.018769,0.100529,-0.003529,-0.0,0.087266,-0.0,3.0,0.312818,0.3261,0.338685,0.3261,,,,,,,0.017298,0.099536,-0.00145,0.022187,0.003634,0.01997
206371,0.018897,0.100528,-0.003412,-0.0,0.087266,-0.0,3.0,0.31387,0.3261,0.337738,0.3261,,,,,,,0.017323,0.099411,-0.001328,0.017088,0.004048,-0.000926
206391,0.018904,0.100283,-0.003288,-0.0,0.087266,-0.0,3.0,0.314904,0.3261,0.336797,0.3261,,,,,,,0.017348,0.099306,-0.001205,0.013253,0.000163,-0.000829
206411,0.018904,0.100283,-0.003288,-0.0,0.087266,-0.0,3.0,0.316514,0.3261,0.335318,0.3261,,,,,,,0.017355,0.099059,-0.001079,-0.00874,0.021359,-0.020978
206431,0.019026,0.100161,-0.003292,-0.0,0.087266,-0.0,3.0,0.314728,0.3261,0.336957,0.3261,,,,,,,0.017356,0.099062,-0.00108,-0.028721,0.000125,0.001313
206451,0.018904,0.100039,-0.003285,-0.0,0.087266,-0.0,3.0,0.316949,0.3261,0.334916,0.3261,,,,,,,0.017586,0.098834,-0.00109,-0.046122,-0.003627,0.002353
206471,0.018532,0.100041,-0.003389,-0.0,0.087266,-0.0,3.0,0.314473,0.3261,0.33719,0.3261,,,,,,,0.017357,0.098818,-0.001079,-0.04947,-0.020959,0.002684
206491,0.018533,0.099675,-0.003386,-0.0,0.087266,-0.0,3.0,0.314921,0.3261,0.336782,0.3261,,,,,,,0.017304,0.098715,-0.001094,-0.039075,-0.003663,-0.015242
206511,0.018289,0.099303,-0.00337,-0.0,0.087266,-0.0,3.0,0.315883,0.3261,0.3359,0.3261,,,,,,,0.017404,0.098452,-0.0012,-0.034452,-0.020689,0.001946
206531,0.018161,0.099304,-0.003486,-0.0,0.087266,-0.0,3.0,0.31452,0.3261,0.337147,0.3261,,,,,,,0.017261,0.098184,-0.00119,-0.009452,0.024966,0.000234
206551,0.018039,0.099182,-0.003479,-0.0,0.087266,-0.0,3.0,0.315403,0.3261,0.336341,0.3261,,,,,,,0.016928,0.09808,-0.001191,0.025271,0.021161,0.002452
206571,0.018046,0.098937,-0.003354,-0.0,0.087266,-0.0,3.0,0.316081,0.3261,0.335718,0.3261,,,,,,,0.016696,0.097854,-0.001282,0.043344,-0.00371,0.019136
206591,0.017808,0.098814,-0.003218,-0.0,0.087266,-0.0,3.0,0.320652,0.3261,0.331427,0.3261,,,,,,,0.0166,0.0974,-0.00115,0.017415,0.009832,-0.000977
206611,0.017571,0.098691,-0.003083,-0.0,0.087266,-0.0,3.0,0.318686,0.3261,0.333293,0.3261,,,,,,,0.016461,0.097281,-0.001124,2.1e-05,-0.032278,-0.003618
206631,0.017328,0.098447,-0.003068,-0.0,0.087266,-0.0,3.0,0.317553,0.3261,0.334353,0.3261,,,,,,,0.016119,0.09716,-0.000981,-0.003552,-0.053444,-0.00337
206651,0.017207,0.097837,-0.003057,-0.0,0.087266,-0.0,3.0,0.320493,0.3261,0.337934,0.3261,,,,,,,0.015887,0.097125,-0.000759,-0.004302,-0.087649,-0.01647
206671,0.016848,0.09747,-0.002913,-0.0,0.087266,-0.0,3.0,0.31841,0.3261,0.338162,0.3261,,,,,,,0.015662,0.09672,-0.000747,-0.006141,-0.059181,0.025646
206691,0.016365,0.09722,-0.002764,-0.0,0.087266,-0.0,3.0,0.311907,0.3261,0.3395,0.3261,,,,,,,0.015301,0.096457,-0.000605,-0.02813,-0.01325,0.005331
206711,0.016128,0.096853,-0.002627,-0.0,0.087266,-0.0,3.0,0.312967,0.3261,0.338552,0.3261,,,,,,,0.014918,0.096205,-0.000565,-0.045512,-0.012994,0.002333
206731,0.016001,0.096488,-0.002741,-0.0,0.087266,-0.0,3.0,0.315711,0.3261,0.336059,0.3261,,,,,,,0.014575,0.095733,-0.000525,-0.007712,0.004363,-0.003524
206751,0.015386,0.096367,-0.002833,-0.0,0.087266,-0.0,3.0,0.316235,0.3261,0.335576,0.3261,,,,,,,0.014348,0.095367,-0.00053,-0.032234,0.0252,0.001362
206771,0.015136,0.096124,-0.002942,-0.0,0.087266,-0.0,3.0,0.315413,0.3261,0.3333,0.3261,,,,,,,0.01394,0.095037,-0.000632,-0.045468,0.017558,0.002174
206791,0.014887,0.095881,-0.00305,-0.0,0.087266,-0.0,3.0,0.320008,0.3261,0.332041,0.3261,,,,,,,0.013797,0.094691,-0.000745,-0.042073,0.013669,0.002032
206811,0.014754,0.095639,-0.003288,-0.0,0.087266,-0.0,3.0,0.320787,0.3261,0.331299,0.3261,,,,,,,0.013751,0.094345,-0.000968,-0.055541,-0.011102,-0.000847
206831,0.014504,0.095639,-0.003399,-0.0,0.087266,-0.0,3.0,0.317047,0.3261,0.334824,0.3261,,,,,,,0.013414,0.094313,-0.001092,-0.021773,-0.024744,-0.019753
206851,0.014127,0.095275,-0.003623,-0.0,0.087266,-0.0,3.0,0.320491,0.3261,0.335756,0.3261,,,,,,,0.013164,0.094315,-0.001202,0.020166,-0.067694,-0.021424
206871,0.014121,0.095148,-0.003744,-0.0,0.087266,-0.0,3.0,0.316473,0.3261,0.335356,0.3261,,,,,,,0.013097,0.093946,-0.001442,0.032718,-0.024873,-0.001222
206891,0.014,0.094782,-0.003736,-0.0,0.087266,-0.0,3.0,0.314363,0.3261,0.33729,0.3261,,,,,,,0.012986,0.093929,-0.001559,0.029961,-0.021162,0.019925
206911,0.014,0.09466,-0.003735,-0.0,0.087266,-0.0,3.0,0.316361,0.3261,0.33546,0.3261,,,,,,,0.01255,0.093559,-0.001535,0.059585,0.000388,-0.002705
206931,0.014001,0.094416,-0.003733,-0.0,0.087266,-0.0,3.0,0.315716,0.3261,0.336054,0.3261,,,,,,,0.012553,0.093438,-0.001534,0.017363,0.000171,-0.000826
206951,0.014001,0.094173,-0.003731,-0.0,0.087266,-0.0,3.0,0.318386,0.3261,0.333574,0.3261,,,,,,,0.012556,0.093088,-0.001531,-0.003794,-0.003463,0.000205
206971,0.013879,0.094173,-0.003726,-0.0,0.087266,-0.0,3.0,0.316607,0.3261,0.335232,0.3261,,,,,,,0.012347,0.09295,-0.00152,-0.011342,-0.020852,0.000683
206991,0.014008,0.093684,-0.003606,-0.0,0.087266,-0.0,3.0,0.316252,0.3261,0.33556,0.3261,,,,,,,0.012441,0.092847,-0.001419,-0.045719,-0.045773,0.00623
207011,0.01413,0.093562,-0.00361,-0.0,0.087266,-0.0,3.0,0.315514,0.3261,0.336239,0.3261,,,,,,,0.012463,0.092566,-0.0014,-0.007856,-0.017072,0.00054
207031,0.013887,0.093318,-0.003597,-0.0,0.087266,-0.0,3.0,0.317474,0.3261,0.33556,0.3261,,,,,,,0.012585,0.09234,-0.001405,-0.027708,-0.020935,0.022538
207051,0.013893,0.093073,-0.003473,-0.0,0.087266,-0.0,3.0,0.314441,0.3261,0.335546,0.3261,,,,,,,0.012658,0.092095,-0.001302,-0.038122,0.021075,0.005474
207071,0.0139,0.092707,-0.003348,-0.0,0.087266,-0.0,3.0,0.31741,0.3261,0.334486,0.3261,,,,,,,0.012868,0.09185,-0.001292,-0.029844,0.02118,0.022329
207091,0.014021,0.092579,-0.003352,-0.0,0.087266,-0.0,3.0,0.317074,0.3261,0.3348,0.3261,,,,,,,0.012872,0.091586,-0.001166,0.011342,0.025193,-0.000689
207111,0.014265,0.092457,-0.003363,-0.0,0.087266,-0.0,3.0,0.31817,0.3261,0.333777,0.3261,,,,,,,0.012888,0.091355,-0.001166,0.0298,0.022145,0.019439
207131,0.014271,0.092335,-0.003239,-0.0,0.087266,-0.0,3.0,0.316511,0.3261,0.335321,0.3261,,,,,,,0.012929,0.091128,-0.001062,0.042176,0.01737,0.001752
207151,0.01452,0.092456,-0.003129,-0.0,0.087266,-0.0,3.0,0.322113,0.3261,0.330022,0.3261,,,,,,,0.013034,0.090798,-0.001045,0.024875,0.009817,-0.001222
207171,0.014764,0.092212,-0.003138,-0.0,0.087266,-0.0,3.0,0.318816,0.3261,0.33317,0.3261,,,,,,,0.01328,0.090925,-0.00104,0.024483,-0.05349,-0.004636
207191,0.014643,0.092212,-0.003133,-0.0,0.087266,-0.0,3.0,0.317854,0.3261,0.334073,0.3261,,,,,,,0.013315,0.090785,-0.00104,-0.003831,-0.049705,-0.003312
207211,0.014637,0.091969,-0.003253,-0.0,0.087266,-0.0,3.0,0.313005,0.3261,0.338518,0.3261,,,,,,,0.013303,0.090996,-0.000935,0.020099,-0.063122,-0.021645
207231,0.01476,0.091603,-0.003256,-0.0,0.087266,-0.0,3.0,0.312941,0.3261,0.338575,0.3261,,,,,,,0.013405,0.090854,-0.000958,0.004051,-0.059086,0.004036
207251,0.014882,0.091603,-0.003262,-0.0,0.087266,-0.0,3.0,0.311699,0.3261,0.339685,0.3261,,,,,,,0.013314,0.090696,-0.001059,0.018124,0.011317,0.020319
207271,0.014888,0.091481,-0.003139,-0.0,0.087266,-0.0,3.0,0.312285,0.3261,0.339163,0.3261,,,,,,,0.013333,0.090694,-0.00106,-0.006731,0.032448,0.021233
207291,0.01501,0.091481,-0.003144,-0.0,0.087266,-0.0,3.0,0.315746,0.3261,0.336026,0.3261,,,,,,,0.01344,0.090464,-0.001044,-0.004314,0.050048,-0.003957
207311,0.014888,0.091481,-0.003139,-0.0,0.087266,-0.0,3.0,0.317306,0.3261,0.334583,0.3261,,,,,,,0.013563,0.09036,-0.001048,-0.025165,0.046078,-0.003103
207331,0.014766,0.091602,-0.003134,-0.0,0.087266,-0.0,3.0,0.317961,0.3261,0.333973,0.3261,,,,,,,0.013549,0.090256,-0.000941,-0.043031,0.042355,-0.019536
207351,0.014888,0.091602,-0.003139,-0.0,0.087266,-0.0,3.0,0.318108,0.3261,0.333835,0.3261,,,,,,,0.013531,0.090275,-0.00094,-0.017328,-0.003676,0.000738
