time_ms,roll,pitch,yaw,x,y,z,reference_roll,reference_pitch,reference_yaw,reference_throttle,throttle_1,throttle_2,throttle_3,throttle_4,roll_predicted,pitch_predicted,yaw_predicted,roll_rate_predicted,pitch_rate_predicted,yaw_rate_predicted,value1,value2,value3,value4,value5,value6
133044,0.000123,0.000977,0.001099,0.0,0.0,0.0,0.0,0.0,0.0,3.0,0.310426,0.334038,0.305181,0.349795,0.0,0.0,0.0,-0.0,-0.0,-0.0,0.0,0.0,0.0,0.0,0.0,0.0
133064,1e-06,0.000977,0.001221,0.0,0.0,0.0,0.0,0.0,0.0,3.0,0.307482,0.338493,0.300468,0.351922,0.0,0.0,0.0,-0.0,-0.0,-0.0,0.0,0.0,0.0,0.0,0.0,0.0
133084,1e-06,0.000855,0.001343,0.0,0.0,0.0,0.0,0.0,0.0,3.0,0.308725,0.337788,0.302545,0.349861,0.0,0.0,0.0,-0.0,-0.0,-0.0,0.0,0.0,0.0,0.0,0.0,0.0
133104,0.000123,0.000854,0.001343,0.0,0.0,0.0,0.0,0.0,0.0,3.0,0.307665,0.337112,0.301506,0.352238,0.0,0.0,0.0,-0.0,-0.0,-0.0,0.0,0.0,0.0,0.0,0.0,0.0
133124,1e-06,0.000977,0.001465,0.0,0.0,0.0,0.0,0.0,0.0,3.0,0.315534,0.331207,0.306558,0.346883,0.0,0.0,0.0,-0.0,-0.0,-0.0,0.0,0.0,0.0,0.0,0.0,0.0
133144,1e-06,0.000977,0.001343,0.0,0.0,0.0,0.0,0.0,0.0,3.0,0.317176,0.329718,0.307494,0.346034,0.0,0.0,0.0,-0.0,-0.0,-0.0,0.0,0.0,0.0,0.0,0.0,0.0
133164,1e-06,0.000977,0.001465,0.0,0.0,0.0,0.0,0.0,0.0,3.0,0.30674,0.340022,0.296995,0.353855,0.0,0.0,0.0,-0.0,-0.0,-0.0,0.0,0.0,0.0,0.0,0.0,0.0
133184,0.000123,0.000977,0.001587,0.0,0.0,0.0,0.0,0.0,0.0,3.0,0.310664,0.336078,0.299324,0.352455,0.0,0.0,0.0,-0.0,-0.0,-0.0,0.0,0.0,0.0,0.0,0.0,0.0
133204,0.000123,0.000732,0.001587,0.0,0.0,0.0,0.0,0.0,0.0,3.0,0.308197,0.339198,0.299939,0.351081,0.0,0.0,0.0,-0.0,-0.0,-0.0,0.0,0.0,0.0,0.0,0.0,0.0
133224,1e-06,0.000732,0.001587,0.0,0.0,0.0,0.0,0.0,0.0,3.0,0.310972,0.338229,0.298821,0.350563,0.0,0.0,0.0,-0.0,-0.0,-0.0,0.0,0.0,0.0,0.0,0.0,0.0
133244,-0.000121,0.000733,0.001587,0.0,0.0,0.0,0.0,0.0,0.0,3.0,0.315273,0.335132,0.302082,0.347139,0.0,0.0,0.0,-0.0,-0.0,-0.0,0.0,0.0,0.0,0.0,0.0,0.0
133264,-0.000121,0.000977,0.001709,0.0,0.0,0.0,0.0,0.0,0.0,3.0,0.308461,0.340206,0.29767,0.351715,0.0,0.0,0.0,-0.0,-0.0,-0.0,0.0,0.0,0.0,0.0,0.0,0.0
133284,1e-06,0.000977,0.001709,0.0,0.0,0.0,0.0,0.0,0.0,3.0,0.310097,0.338219,0.299102,0.351089,0.0,0.0,0.0,-0.0,-0.0,-0.0,0.0,0.0,0.0,0.0,0.0,0.0
133304,0.000123,0.001099,0.001831,0.0,0.0,0.0,0.0,0.0,0.0,3.0,0.308592,0.33825,0.300817,0.350943,0.0,0.0,0.0,-0.0,-0.0,-0.0,0.0,0.0,0.0,0.0,0.0,0.0
133324,0.000123,0.001221,0.001831,0.0,0.0,0.0,0.0,0.0,0.0,3.0,0.310874,0.339192,0.296009,0.35197,0.0,0.0,0.0,-0.0,-0.0,-0.0,0.0,0.0,0.0,0.0,0.0,0.0
133344,0.000123,0.001465,0.001709,0.0,0.0,0.0,0.0,0.0,0.0,3.0,0.310774,0.33668,0.297902,0.352931,0.0,0.0,0.0,-0.0,-0.0,-0.0,0.0,0.0,0.0,0.0,0.0,0.0
133364,0.000246,0.001709,0.001709,0.0,0.0,0.0,0.0,0.0,0.0,3.0,0.309419,0.335003,0.301709,0.352588,0.0,0.0,0.0,-0.0,-0.0,-0.0,0.0,0.0,0.0,0.0,0.0,0.0
133384,0.000246,0.001709,0.001709,0.0,0.0,0.0,0.0,0.0,0.0,3.0,0.309154,0.337801,0.300109,0.351469,0.0,0.0,0.0,-0.0,-0.0,-0.0,0.0,0.0,0.0,0.0,0.0,0.0
133404,0.000123,0.001587,0.001709,0.0,0.0,0.0,0.0,0.0,0.0,3.0,0.310258,0.336293,0.298771,0.353037,0.0,0.0,0.0,-0.0,-0.0,-0.0,0.0,0.0,0.0,0.0,0.0,0.0
133424,1e-06,0.001587,0.001709,0.0,0.0,0.0,0.0,0.0,0.0,3.0,0.309867,0.339186,0.299115,0.350349,0.0,0.0,0.0,-0.0,-0.0,-0.0,0.0,0.0,0.0,0.0,0.0,0.0
133444,-0.000121,0.001465,0.001709,0.0,0.0,0.0,0.0,0.0,0.0,3.0,0.310603,0.338562,0.298274,0.350998,0.0,0.0,0.0,-0.0,-0.0,-0.0,0.0,0.0,0.0,0.0,0.0,0.0
133464,-0.000121,0.001221,0.001587,0.0,0.0,0.0,0.0,0.0,0.0,3.0,0.317458,0.334582,0.30674,0.341785,0.0,0.0,0.0,-0.0,-0.0,-0.0,0.0,0.0,0.0,0.0,0.0,0.0
133484,-0.000121,0.001099,0.001587,0.0,0.0,0.0,0.0,0.0,0.0,3.0,0.314787,0.335938,0.306649,0.342943,0.0,0.0,0.0,-0.0,-0.0,-0.0,0.0,0.0,0.0,0.0,0.0,0.0
133504,-0.000121,0.000977,0.001587,0.0,0.0,0.0,0.0,0.0,0.0,3.0,0.309926,0.338758,0.299988,0.350003,0.0,0.0,0.0,-0.0,-0.0,-0.0,0.0,0.0,0.0,0.0,0.0,0.0
133524,1e-06,0.001099,0.001587,0.0,0.0,0.0,0.0,0.0,0.0,3.0,0.309591,0.336584,0.299538,0.35271,0.0,0.0,0.0,-0.0,-0.0,-0.0,0.0,0.0,0.0,0.0,0.0,0.0
133544,0.000123,0.001221,0.001465,0.0,0.0,0.0,0.0,0.0,0.0,3.0,0.308752,0.336605,0.300315,0.352769,0.0,0.0,0.0,-0.0,-0.0,-0.0,0.0,0.0,0.0,0.0,0.0,0.0
133564,0.000245,0.001465,0.001465,0.0,0.0,0.0,0.0,0.0,0.0,3.0,0.310863,0.332479,0.300363,0.354797,0.0,0.0,0.0,-0.0,-0.0,-0.0,0.0,0.0,0.0,0.0,0.0,0.0
133584,0.000123,0.001709,0.001343,0.0,0.0,0.0,0.0,0.0,0.0,3.0,0.308454,0.33638,0.301012,0.352669,0.0,0.0,0.0,-0.0,-0.0,-0.0,0.0,0.0,0.0,0.0,0.0,0.0
133604,0.000245,0.001831,0.001343,0.0,0.0,0.0,0.0,0.0,0.0,3.0,0.311179,0.334686,0.300304,0.352536,0.0,0.0,0.0,-0.0,-0.0,-0.0,0.0,0.0,0.0,0.0,0.0,0.0
133624,0.000123,0.001953,0.001343,0.0,0.0,0.0,0.0,0.0,0.0,3.0,0.305772,0.337699,0.300184,0.354312,0.0,0.0,0.0,-0.0,-0.0,-0.0,0.0,0.0,0.0,0.0,0.0,0.0
133644,0.000123,0.001831,0.001343,0.0,0.0,0.0,0.0,0.0,0.0,3.0,0.30658,0.339777,0.298935,0.35268,0.0,0.0,0.0,-0.0,-0.0,-0.0,0.0,0.0,0.0,0.0,0.0,0.0
133664,0.000245,0.001587,0.001343,0.0,0.0,0.0,0.0,0.0,0.0,3.0,0.311162,0.335698,0.30223,0.350037,0.0,0.0,0.0,-0.0,-0.0,-0.0,0.0,0.0,0.0,0.0,0.0,0.0
133684,0.000123,0.001465,0.001343,0.0,0.0,0.0,0.0,0.0,0.0,3.0,0.305984,0.338766,0.301868,0.351773,0.0,0.0,0.0,-0.0,-0.0,-0.0,0.0,0.0,0.0,0.0,0.0,0.0
133704,0.000123,0.001221,0.001343,0.0,0.0,0.0,0.0,0.0,0.0,3.0,0.306087,0.339031,0.299437,0.353394,0.0,0.0,0.0,-0.0,-0.0,-0.0,0.0,0.0,0.0,0.0,0.0,0.0
133724,1e-06,0.001099,0.001343,0.0,0.0,0.0,0.0,0.0,0.0,3.0,0.30255,0.34185,0.295023,0.357062,0.0,0.0,0.0,-0.0,-0.0,-0.0,0.0,0.0,0.0,0.0,0.0,0.0
133744,1e-06,0.001099,0.001221,0.0,0.0,0.0,0.0,0.0,0.0,3.0,0.310114,0.335962,0.302659,0.350327,0.0,0.0,0.0,-0.0,-0.0,-0.0,0.0,0.0,0.0,0.0,0.0,0.0
133764,-0.000121,0.001099,0.001221,0.0,0.0,0.0,0.0,0.0,0.0,3.0,0.317737,0.330668,0.307357,0.344756,0.0,0.0,0.0,-0.0,-0.0,-0.0,0.0,0.0,0.0,0.0,0.0,0.0
133784,-0.000121,0.001099,0.001221,0.0,0.0,0.0,0.0,0.0,0.0,3.0,0.306683,0.336964,0.30205,0.352752,0.0,0.0,0.0,-0.0,-0.0,-0.0,0.0,0.0,0.0,0.0,0.0,0.0
133804,-0.000121,0.001221,0.001343,0.0,0.0,0.0,0.0,0.0,0.0,3.0,0.307133,0.337544,0.302438,0.351516,0.0,0.0,0.0,-0.0,-0.0,-0.0,0.0,0.0,0.0,0.0,0.0,0.0
133824,1e-06,0.001099,0.001343,0.0,0.0,0.0,0.0,0.0,0.0,3.0,0.302791,0.339609,0.300704,0.354523,0.0,0.0,0.0,-0.0,-0.0,-0.0,0.0,0.0,0.0,0.0,0.0,0.0
133844,-0.000121,0.000977,0.001343,0.0,0.0,0.0,0.0,0.0,0.0,3.0,0.307842,0.337945,0.300939,0.351762,0.0,0.0,0.0,-0.0,-0.0,-0.0,0.0,0.0,0.0,0.0,0.0,0.0
133864,1e-06,0.000855,0.001221,0.0,0.0,0.0,0.0,0.0,0.0,3.0,0.311168,0.333536,0.305833,0.349091,0.0,0.0,0.0,-0.0,-0.0,-0.0,0.0,0.0,0.0,0.0,0.0,0.0
133884,-0.000122,0.000733,0.001221,0.0,0.0,0.0,0.0,0.0,0.0,3.0,0.310926,0.337706,0.29884,0.351084,0.0,0.0,0.0,-0.0,-0.0,-0.0,0.0,0.0,0.0,0.0,0.0,0.0
133904,-0.000122,0.000488,0.001221,0.0,0.0,0.0,0.0,0.0,0.0,3.0,0.303394,0.343129,0.297984,0.352844,0.0,0.0,0.0,-0.0,-0.0,-0.0,0.0,0.0,0.0,0.0,0.0,0.0
133924,-0.000244,0.000366,0.001343,0.0,0.0,0.0,0.0,0.0,0.0,3.0,0.307228,0.34112,0.29539,0.353669,0.0,0.0,0.0,-0.0,-0.0,-0.0,0.0,0.0,0.0,0.0,0.0,0.0
133944,-0.000122,0.000244,0.001343,0.0,0.0,0.0,0.0,0.0,0.0,3.0,0.303424,0.342347,0.297426,0.354011,0.0,0.0,0.0,-0.0,-0.0,-0.0,0.0,0.0,0.0,0.0,0.0,0.0
133964,-0.000366,0.000244,0.001343,0.0,0.0,0.0,0.0,0.0,0.0,3.0,0.31244,0.335152,0.303817,0.348149,0.0,0.0,0.0,-0.0,-0.0,-0.0,0.0,0.0,0.0,0.0,0.0,0.0
133984,-0.000366,0.000122,0.001221,0.0,0.0,0.0,0.0,0.0,0.0,3.0,0.312751,0.335348,0.302481,0.348799,0.0,0.0,0.0,-0.0,-0.0,-0.0,0.0,0.0,0.0,0.0,0.0,0.0
134004,-0.000366,0.000244,0.001343,0.0,0.0,0.0,0.0,0.0,0.0,3.0,0.304441,0.340705,0.297033,0.355058,-0.0,0.0,0.0,-0.0,-0.0,-0.0,0.0,0.0,0.0,0.0,0.0,0.0
134024,-0.000244,0.000122,0.001343,0.0,0.0,0.0,0.0,0.0,0.0,3.0,0.308778,0.338368,0.299455,0.351773,-0.0,0.0,0.0,-0.0,-0.0,-0.0,0.0,0.0,0.0,0.0,0.0,0.0
134044,-0.000244,0.000244,0.001343,0.0,0.0,0.0,0.0,0.0,0.0,3.0,0.307,0.336752,0.301677,0.35299,-0.0,-0.0,0.0,-0.0,-0.0,-0.0,0.0,0.0,0.0,0.0,0.0,0.0
134064,-0.000122,0.000122,0.001465,0.0,0.0,0.0,0.0,0.0,0.0,3.0,0.309396,0.334597,0.303039,0.351906,-0.0,-0.0,0.0,-0.0,-0.0,-0.0,0.0,0.0,0.0,0.0,0.0,0.0
134084,-0.000122,-0.000122,0.001465,0.0,0.0,0.0,0.0,0.0,0.0,3.0,0.307627,0.339899,0.298889,0.351731,-0.0,-0.0,0.0,-0.0,-0.0,-0.0,0.0,0.0,0.0,0.0,0.0,0.0
134104,-0.000367,-0.000366,0.001465,0.0,0.0,0.0,0.0,0.0,0.0,3.0,0.312027,0.338731,0.295795,0.3516,-0.0,-0.0,0.0,-0.0,-0.0,-0.0,0.0,0.0,0.0,0.0,0.0,0.0
134124,-0.000367,-0.000366,0.001587,0.0,0.0,0.0,0.0,0.0,0.0,3.0,0.306268,0.340542,0.297607,0.353265,-0.0,-0.0,0.0,-0.0,-0.0,-0.0,0.0,0.0,0.0,0.0,0.0,0.0
134144,-0.000366,-0.000244,0.001587,0.0,0.0,0.0,0.0,0.0,0.0,3.0,0.308938,0.338824,0.298446,0.352014,-0.0,-0.0,0.0,-0.0,-0.0,-0.0,0.0,0.0,0.0,0.0,0.0,0.0
134164,-0.000366,-0.000122,0.001587,0.0,0.0,0.0,0.0,0.0,0.0,3.0,0.308864,0.33975,0.298699,0.350991,-0.0,-0.0,0.0,-0.0,-0.0,-0.0,0.0,0.0,0.0,0.0,0.0,0.0
134184,-0.000244,-0.000122,0.001587,0.0,0.0,0.0,0.0,0.0,0.0,3.0,0.314369,0.335483,0.304471,0.345604,-0.0,-0.0,0.0,-0.0,-0.0,-0.0,0.0,0.0,0.0,0.0,0.0,0.0
134204,-0.000244,-0.000122,0.001709,0.0,0.0,0.0,0.0,0.0,0.0,3.0,0.305869,0.342783,0.298157,0.351005,-0.0,-0.0,0.0,-0.0,-0.0,-0.0,0.0,0.0,0.0,0.0,0.0,0.0
134224,-0.000122,0.0,0.001831,0.0,0.0,0.0,0.0,0.0,0.0,3.0,0.311365,0.33666,0.303098,0.348233,-0.0,-0.0,0.0,-0.0,-0.0,-0.0,0.0,0.0,0.0,0.0,0.0,0.0
134244,-0.000122,0.000122,0.001831,0.0,0.0,0.0,0.0,0.0,0.0,3.0,0.307417,0.338839,0.297743,0.353825,-0.0,-0.0,0.0,-0.0,-0.0,-0.0,0.0,0.0,0.0,0.0,0.0,0.0
134264,-0.000244,0.000122,0.001709,0.0,0.0,0.0,0.0,0.0,0.0,3.0,0.308382,0.337028,0.298056,0.35448,-0.0,-0.0,0.0,-0.0,-0.0,-0.0,0.0,0.0,0.0,0.0,0.0,0.0
134284,-0.000244,0.000122,0.001831,0.0,0.0,0.0,0.0,0.0,0.0,3.0,0.308342,0.338584,0.29615,0.354553,-0.0,-0.0,0.0,-0.0,-0.0,-0.0,0.0,0.0,0.0,0.0,0.0,0.0
134304,-0.000366,0.0,0.001831,0.0,0.0,0.0,0.0,0.0,0.0,3.0,0.308459,0.339966,0.297818,0.351829,-0.0,-0.0,0.0,-0.0,-0.0,-0.0,0.0,0.0,0.0,0.0,0.0,0.0
134324,-0.000488,0.000123,0.001831,0.0,0.0,0.0,0.0,0.0,0.0,3.0,0.305937,0.341527,0.296188,0.353718,-0.0,-0.0,0.0,0.0,-0.0,-0.0,0.0,0.0,0.0,0.0,0.0,0.0
134344,-0.000488,0.000123,0.001954,0.0,0.0,0.0,0.0,0.0,0.0,3.0,0.306998,0.340355,0.296742,0.353524,-0.0,-0.0,0.0,-0.0,-0.0,-0.0,0.0,0.0,0.0,0.0,0.0,0.0
134364,-0.000488,0.000123,0.001954,0.0,0.0,0.0,0.0,0.0,0.0,3.0,0.306813,0.340965,0.29894,0.351347,-0.0,-0.0,0.0,-0.0,-0.0,-0.0,0.0,0.0,0.0,0.0,0.0,0.0
134384,-0.000244,0.000122,0.001953,0.0,0.0,0.0,0.0,0.0,0.0,3.0,0.304149,0.342851,0.297835,0.352613,-0.0,-0.0,0.0,-0.0,-0.0,-0.0,0.0,0.0,0.0,0.0,0.0,0.0
134404,-0.000122,-0.000122,0.001953,0.0,0.0,0.0,0.0,0.0,0.0,3.0,0.305425,0.344313,0.296204,0.351442,-0.0,-0.0,0.0,-0.0,-0.0,-0.0,0.0,0.0,0.0,0.0,0.0,0.0
134424,-0.000122,-0.000366,0.001953,0.0,0.0,0.0,0.0,0.0,0.0,3.0,0.3078,0.342476,0.297579,0.350154,-0.0,-0.0,0.0,0.0,-0.0,-0.0,0.0,0.0,0.0,0.0,0.0,0.0
134444,-0.000122,-0.000122,0.001953,0.0,0.0,0.0,0.0,0.0,0.0,3.0,0.300543,0.343456,0.288952,0.361712,-0.0,-0.0,0.0,-0.0,-0.0,-0.0,0.0,0.0,0.0,0.0,0.0,0.0
134464,-0.000244,0.000122,0.001953,0.0,0.0,0.0,0.0,0.0,0.0,3.0,0.308379,0.335677,0.298067,0.355731,-0.0,-0.0,0.0,0.0,-0.0,-0.0,0.0,0.0,0.0,0.0,0.0,0.0
134484,-0.000122,0.000366,0.001831,0.0,0.0,0.0,0.0,0.0,0.0,3.0,0.309778,0.331999,0.303757,0.35341,-0.0,-0.0,0.0,-0.0,-0.0,-0.0,0.0,0.0,0.0,0.0,0.0,0.0
134504,-0.000244,0.000244,0.001831,0.0,0.0,0.0,0.0,0.0,0.0,3.0,0.306958,0.338429,0.299307,0.353349,-0.0,-0.0,0.0,0.0,-0.0,-0.0,0.0,0.0,0.0,0.0,0.0,0.0
134524,-0.000122,0.000366,0.001709,0.0,0.0,0.0,0.0,0.0,0.0,3.0,0.306094,0.336141,0.299675,0.355906,-0.0,-0.0,0.0,0.0,-0.0,-0.0,0.0,0.0,0.0,0.0,0.0,0.0
134544,-0.000122,0.000611,0.001831,0.0,0.0,0.0,0.0,0.0,0.0,3.0,0.30382,0.337968,0.296041,0.358888,-0.0,-0.0,0.0,-0.0,-0.0,-0.0,0.0,0.0,0.0,0.0,0.0,0.0
134564,0.000245,0.000854,0.001709,0.0,0.0,0.0,0.0,0.0,0.0,3.0,0.305801,0.337943,0.303691,0.351218,-0.0,-0.0,0.0,-0.0,0.0,-0.0,0.0,0.0,0.0,0.0,0.0,0.0
134584,0.000367,0.000854,0.001587,0.0,0.0,0.0,0.0,0.0,0.0,3.0,0.314427,0.333009,0.307121,0.345674,-0.0,-0.0,0.0,-0.0,0.0,-0.0,0.0,0.0,0.0,0.0,0.0,0.0
134604,0.000611,0.000732,0.001587,0.0,0.0,0.0,0.0,0.0,0.0,3.0,0.305341,0.340249,0.301898,0.350864,-0.0,-0.0,0.0,0.0,0.0,-0.0,0.0,0.0,0.0,0.0,0.0,0.0
134624,0.000489,0.00061,0.001465,0.0,0.0,0.0,0.0,0.0,0.0,3.0,0.307223,0.338626,0.298984,0.353201,-0.0,-0.0,0.0,0.0,0.0,-0.0,0.0,0.0,0.0,0.0,0.0,0.0
134644,0.000611,0.000488,0.001465,0.0,0.0,0.0,0.0,0.0,0.0,3.0,0.300101,0.344706,0.292377,0.358322,-0.0,-0.0,0.0,0.0,0.0,-0.0,0.0,0.0,0.0,0.0,0.0,0.0
134664,0.000488,0.000244,0.001465,0.0,0.0,0.0,0.0,0.0,0.0,3.0,0.307529,0.338901,0.299967,0.351899,-0.0,-0.0,0.0,0.0,0.0,-0.0,0.0,0.0,0.0,0.0,0.0,0.0
134684,0.000488,-0.0,0.001343,0.0,0.0,0.0,0.0,0.0,0.0,3.0,0.309919,0.337094,0.300666,0.351045,-0.0,-0.0,0.0,0.0,0.0,-0.0,0.0,0.0,0.0,0.0,0.0,0.0
134704,0.000244,0.000122,0.001343,0.0,0.0,0.0,0.0,0.0,0.0,3.0,0.307806,0.337908,0.29911,0.353295,-0.0,-0.0,0.0,-0.0,0.0,-0.0,0.0,0.0,0.0,0.0,0.0,0.0
134724,0.000244,0.000244,0.001221,0.0,0.0,0.0,0.0,0.0,0.0,3.0,0.304661,0.341226,0.298173,0.353485,-0.0,-0.0,0.0,0.0,0.0,-0.0,0.0,0.0,0.0,0.0,0.0,0.0
134744,0.000367,0.000488,0.001343,0.0,0.0,0.0,0.0,0.0,0.0,3.0,0.299175,0.343975,0.293602,0.35881,-0.0,-0.0,0.0,0.0,0.0,-0.0,0.0,0.0,0.0,0.0,0.0,0.0
134764,0.000733,0.00061,0.001343,0.0,0.0,0.0,0.0,0.0,0.0,3.0,0.304976,0.338685,0.30498,0.350132,-0.0,-0.0,0.0,0.0,0.0,-0.0,0.0,0.0,0.0,0.0,0.0,0.0
134784,0.000733,0.000488,0.001221,0.0,0.0,0.0,0.0,0.0,0.0,3.0,0.306552,0.339802,0.302466,0.349822,-0.0,-0.0,0.0,0.0,0.0,-0.0,0.0,0.0,0.0,0.0,0.0,0.0
134804,0.000855,0.000366,0.001099,0.0,0.0,0.0,0.0,0.0,0.0,3.0,0.310401,0.335006,0.304543,0.349433,-0.0,-0.0,0.0,0.0,0.0,-0.0,0.0,0.0,0.0,0.0,0.0,0.0
134824,0.000855,0.000488,0.001099,0.0,0.0,0.0,0.0,0.0,0.0,3.0,0.306875,0.336082,0.300812,0.354416,-0.0,-0.0,0.0,0.0,0.0,-0.0,0.0,0.0,0.0,0.0,0.0,0.0
134844,0.000977,0.000366,0.001099,0.0,0.0,0.0,0.0,0.0,0.0,3.0,0.303402,0.335961,0.303843,0.35492,-0.0,-0.0,0.0,-0.0,0.0,-0.0,0.0,0.0,0.0,0.0,0.0,0.0
134864,0.000855,0.000122,0.001099,0.0,0.0,0.0,0.0,0.0,0.0,3.0,0.300949,0.339138,0.298503,0.358175,-0.0,-0.0,0.0,0.0,0.0,-0.0,0.0,0.0,0.0,0.0,0.0,0.0
134884,0.000732,-0.0,0.000977,0.0,0.0,0.0,0.0,0.0,0.0,3.0,0.310422,0.335479,0.304125,0.349314,-0.0,-0.0,0.0,0.0,0.0,-0.0,0.0,0.0,0.0,0.0,0.0,0.0
134904,0.00061,-0.000122,0.000977,0.0,0.0,0.0,0.0,0.0,0.0,3.0,0.307522,0.33884,0.300318,0.35168,-0.0,-0.0,0.0,0.0,0.0,-0.0,0.0,0.0,0.0,0.0,0.0,0.0
134924,0.000488,-0.000244,0.000855,0.0,0.0,0.0,0.0,0.0,0.0,3.0,0.30993,0.337358,0.305424,0.346855,-0.0,-0.0,0.0,0.0,0.0,-0.0,0.0,0.0,0.0,0.0,0.0,0.0
134944,0.00061,-0.000366,0.000855,0.0,0.0,0.0,0.0,0.0,0.0,3.0,0.307036,0.340033,0.301155,0.350267,-0.0,-0.0,0.0,0.0,0.0,-0.0,0.0,0.0,0.0,0.0,0.0,0.0
134964,0.000732,-0.000367,0.000733,0.0,0.0,0.0,0.0,0.0,0.0,3.0,0.307946,0.336377,0.303956,0.350697,-0.0,-0.0,0.0,0.0,0.0,-0.0,0.0,0.0,0.0,0.0,0.0,0.0
134984,0.000732,-0.000244,0.000733,0.0,0.0,0.0,0.0,0.0,0.0,3.0,0.315397,0.32831,0.308214,0.348301,-0.0,-0.0,0.0,0.0,0.0,-0.0,0.0,0.0,0.0,0.0,0.0,0.0
135004,0.000855,-0.000122,0.000611,0.0,0.0,0.0,0.0,0.0,0.0,3.0,0.311257,0.332163,0.303736,0.352029,-0.0,-0.0,0.0,0.0,0.0,-0.0,0.0,0.0,0.0,0.0,0.0,0.0
135024,0.000732,-0.000122,0.000488,0.0,0.0,0.0,0.0,0.0,0.0,3.0,0.31013,0.336782,0.298529,0.352878,-0.0,-0.0,0.0,0.0,0.0,-0.0,0.0,0.0,0.0,0.0,0.0,0.0
135044,0.000732,-0.000244,0.000488,0.0,0.0,0.0,0.0,0.0,0.0,3.0,0.307838,0.338662,0.302793,0.349569,-0.0,-0.0,0.0,0.0,0.0,-0.0,0.0,0.0,0.0,0.0,0.0,0.0
135064,0.00061,-0.000244,0.000488,0.0,0.0,0.0,0.0,0.0,0.0,3.0,0.309627,0.338599,0.299088,0.351135,-0.0,-0.0,0.0,0.0,0.0,-0.0,0.0,0.0,0.0,0.0,0.0,0.0
135084,0.00061,-0.000122,0.000488,0.0,0.0,0.0,0.0,0.0,0.0,3.0,0.307991,0.338199,0.300659,0.351622,-0.0,-0.0,0.0,0.0,0.0,-0.0,0.0,0.0,0.0,0.0,0.0,0.0
135104,0.000488,-0.000244,0.000488,0.0,0.0,0.0,0.0,0.0,0.0,3.0,0.310611,0.340869,0.297889,0.349084,-0.0,-0.0,0.0,0.0,0.0,-0.0,0.0,0.0,0.0,0.0,0.0,0.0
135124,0.000488,-0.000244,0.000366,0.0,0.0,0.0,0.0,0.0,0.0,3.0,0.31717,0.332616,0.306717,0.343958,-0.0,-0.0,0.0,0.0,0.0,-0.0,0.0,0.0,0.0,0.0,0.0,0.0
135144,0.000244,-0.000366,0.000366,0.0,0.0,0.0,0.0,0.0,0.0,3.0,0.312039,0.338779,0.297703,0.350025,-0.0,-0.0,0.0,0.0,0.0,-0.0,0.0,0.0,0.0,0.0,0.0,0.0
135164,0.000366,-0.000366,0.000366,0.0,0.0,0.0,0.0,0.0,0.0,3.0,0.307532,0.338968,0.301493,0.350597,-0.0,-0.0,0.0,0.0,0.0,-0.0,0.0,0.0,0.0,0.0,0.0,0.0
135184,0.000366,-0.000366,0.000366,0.0,0.0,0.0,0.0,0.0,0.0,3.0,0.309917,0.336074,0.298952,0.353383,-0.0,-0.0,0.0,0.0,0.0,-0.0,0.0,0.0,0.0,0.0,0.0,0.0
135204,0.000366,-0.000244,0.000366,0.0,0.0,0.0,0.0,0.0,0.0,3.0,0.308032,0.337334,0.300896,0.352216,-0.0,-0.0,0.0,-0.0,0.0,-0.0,0.0,0.0,0.0,0.0,0.0,0.0
135224,0.000366,-0.000244,0.000244,0.0,0.0,0.0,0.0,0.0,0.0,3.0,0.317341,0.329431,0.306841,0.34671,-0.0,-0.0,0.0,0.0,0.0,-0.0,0.0,0.0,0.0,0.0,0.0,0.0
135244,0.000366,-0.0,0.000244,0.0,0.0,0.0,0.0,0.0,0.0,3.0,0.308371,0.337541,0.301859,0.350955,-0.0,-0.0,0.0,0.0,0.0,-0.0,0.0,0.0,0.0,0.0,0.0,0.0
135264,0.000488,0.000122,0.000244,0.0,0.0,0.0,0.0,0.0,0.0,3.0,0.307503,0.338382,0.301839,0.350899,-0.0,-0.0,0.0,0.0,0.0,-0.0,0.0,0.0,0.0,0.0,0.0,0.0
135284,0.00061,0.000122,0.000122,0.0,0.0,0.0,0.0,0.0,0.0,3.0,0.307879,0.337563,0.301389,0.351728,-0.0,-0.0,0.0,0.0,0.0,-0.0,0.0,0.0,0.0,0.0,0.0,0.0
135304,0.000488,0.000366,0.000122,0.0,0.0,0.0,0.0,0.0,0.0,3.0,0.309225,0.336258,0.30229,0.3511,-0.0,-0.0,0.0,0.0,0.0,-0.0,0.0,0.0,0.0,0.0,0.0,0.0
135324,0.00061,0.000366,-0.0,0.0,0.0,0.0,0.0,0.0,0.0,3.0,0.310187,0.33362,0.303706,0.351606,-0.0,-0.0,0.0,0.0,0.0,-0.0,0.0,0.0,0.0,0.0,0.0,0.0
135344,0.00061,0.000366,-0.0,0.0,0.0,0.0,0.0,0.0,0.0,3.0,0.309445,0.335965,0.30075,0.35244,-0.0,-0.0,0.0,0.0,0.0,-0.0,0.0,0.0,0.0,0.0,0.0,0.0
135364,0.000732,0.000366,-0.0,0.0,0.0,0.0,0.0,0.0,0.0,3.0,0.30802,0.33733,0.301988,0.351344,-0.0,-0.0,0.0,0.0,0.0,-0.0,0.0,0.0,0.0,0.0,0.0,0.0
135384,0.000732,0.000488,-0.0,0.0,0.0,0.0,0.0,0.0,0.0,3.0,0.307358,0.337372,0.298783,0.35443,-0.0,-0.0,0.0,0.0,0.0,-0.0,0.0,0.0,0.0,0.0,0.0,0.0
135404,0.000855,0.000488,-0.0,0.0,0.0,0.0,0.0,0.0,0.0,3.0,0.301662,0.342327,0.296555,0.356131,-0.0,-0.0,0.0,0.0,0.0,-0.0,0.0,0.0,0.0,0.0,0.0,0.0
135424,0.000732,0.000488,-0.0,0.0,0.0,0.0,0.0,0.0,0.0,3.0,0.302189,0.343223,0.2955,0.355678,-0.0,-0.0,0.0,0.0,0.0,-0.0,0.0,0.0,0.0,0.0,0.0,0.0
135444,0.000732,0.000366,-0.0,0.0,0.0,0.0,0.0,0.0,0.0,3.0,0.306323,0.339683,0.299075,0.352871,-0.0,-0.0,0.0,0.0,0.0,-0.0,0.0,0.0,0.0,0.0,0.0,0.0
135464,0.00061,0.000366,-0.0,0.0,0.0,0.0,0.0,0.0,0.0,3.0,0.30823,0.336992,0.301475,0.351905,-0.0,-0.0,0.0,0.0,0.0,-0.0,0.0,0.0,0.0,0.0,0.0,0.0
135484,0.00061,0.000244,-0.0,0.0,0.0,0.0,0.0,0.0,0.0,3.0,0.306821,0.3377,0.303188,0.351015,-0.0,-0.0,0.0,0.0,0.0,-0.0,0.0,0.0,0.0,0.0,0.0,0.0
135504,0.00061,0.000244,0.000122,0.0,0.0,0.0,0.0,0.0,0.0,3.0,0.298418,0.342366,0.295777,0.359254,-0.0,-0.0,0.0,0.0,0.0,-0.0,0.0,0.0,0.0,0.0,0.0,0.0
135524,0.000732,0.000244,0.000122,0.0,0.0,0.0,0.0,0.0,0.0,3.0,0.306908,0.336285,0.301788,0.353414,-0.0,-0.0,0.0,0.0,0.0,-0.0,0.0,0.0,0.0,0.0,0.0,0.0
135544,0.000732,0.000244,0.000122,0.0,0.0,0.0,0.0,0.0,0.0,3.0,0.30944,0.336377,0.30007,0.352605,-0.0,-0.0,0.0,-0.0,0.0,-0.0,0.0,0.0,0.0,0.0,0.0,0.0
135564,0.000855,0.000244,0.000122,0.0,0.0,0.0,0.0,0.0,0.0,3.0,0.315123,0.331011,0.309809,0.344649,-0.0,-0.0,0.0,0.0,0.0,-0.0,0.0,0.0,0.0,0.0,0.0,0.0
135584,0.000977,0.000244,0.000122,0.0,0.0,0.0,0.0,0.0,0.0,3.0,0.306891,0.340658,0.301777,0.349277,-0.0,-0.0,0.0,0.0,0.0,-0.0,0.0,0.0,0.0,0.0,0.0,0.0
135604,0.000977,-0.0,0.000244,0.0,0.0,0.0,0.0,0.0,0.0,3.0,0.307748,0.340686,0.301796,0.348513,-0.0,-0.0,0.0,0.0,0.0,-0.0,0.0,0.0,0.0,0.0,0.0,0.0
135624,0.000732,-0.0,0.000244,0.0,0.0,0.0,0.0,0.0,0.0,3.0,0.30236,0.345574,0.293291,0.354996,-0.0,-0.0,0.0,-0.0,0.0,-0.0,0.0,0.0,0.0,0.0,0.0,0.0
135644,0.000732,-0.000122,0.000244,0.0,0.0,0.0,0.0,0.0,0.0,3.0,0.315624,0.330218,0.308105,0.346417,-0.0,-0.0,0.0,0.0,0.0,-0.0,0.0,0.0,0.0,0.0,0.0,0.0
135664,0.00061,-0.0,0.000244,0.0,0.0,0.0,0.0,0.0,0.0,3.0,0.307734,0.336508,0.300475,0.353578,-0.0,-0.0,0.0,0.0,0.0,-0.0,0.0,0.0,0.0,0.0,0.0,0.0
135684,0.000855,0.000122,0.000244,0.0,0.0,0.0,0.0,0.0,0.0,3.0,0.302141,0.338991,0.299002,0.356975,-0.0,-0.0,0.0,0.0,0.0,-0.0,0.0,0.0,0.0,0.0,0.0,0.0
135704,0.000977,0.000122,0.000366,0.0,0.0,0.0,0.0,0.0,0.0,3.0,0.306123,0.337214,0.300337,0.354356,-0.0,-0.0,0.0,0.0,0.0,-0.0,0.0,0.0,0.0,0.0,0.0,0.0
135724,0.001099,0.000244,0.000488,0.0,0.0,0.0,0.0,0.0,0.0,3.0,0.307735,0.336959,0.300936,0.352783,-0.0,-0.0,0.0,0.0,0.0,-0.0,0.0,0.0,0.0,0.0,0.0,0.0
135744,0.000977,0.000244,0.000488,0.0,0.0,0.0,0.0,0.0,0.0,3.0,0.306842,0.33793,0.299671,0.353624,-0.0,-0.0,0.0,-0.0,0.0,-0.0,0.0,0.0,0.0,0.0,0.0,0.0
135764,0.001099,0.000244,0.000488,0.0,0.0,0.0,0.0,0.0,0.0,3.0,0.30729,0.337159,0.30102,0.352897,-0.0,-0.0,0.0,-0.0,0.0,-0.0,0.0,0.0,0.0,0.0,0.0,0.0
135784,0.001099,0.000122,0.000488,0.0,0.0,0.0,0.0,0.0,0.0,3.0,0.305371,0.340203,0.298823,0.35336,-0.0,-0.0,0.0,0.0,0.0,-0.0,0.0,0.0,0.0,0.0,0.0,0.0
135804,0.001099,-0.0,0.00061,0.0,0.0,0.0,0.0,0.0,0.0,3.0,0.305031,0.342068,0.29695,0.353345,-0.0,-0.0,0.0,0.0,0.0,-0.0,0.0,0.0,0.0,0.0,0.0,0.0
135824,0.000854,-0.000122,0.000733,0.0,0.0,0.0,0.0,0.0,0.0,3.0,0.3076,0.338999,0.300003,0.351717,-0.0,-0.0,0.0,-0.0,0.0,-0.0,0.0,0.0,0.0,0.0,0.0,0.0
135844,0.000854,-0.000244,0.000733,0.0,0.0,0.0,0.0,0.0,0.0,3.0,0.30975,0.336399,0.303894,0.349204,-0.0,-0.0,0.0,0.0,0.0,-0.0,0.0,0.0,0.0,0.0,0.0,0.0
135864,0.000732,-0.000244,0.000733,0.0,0.0,0.0,0.0,0.0,0.0,3.0,0.308911,0.338489,0.297006,0.353498,-0.0,-0.0,0.0,-0.0,0.0,-0.0,0.0,0.0,0.0,0.0,0.0,0.0
135884,0.000854,-0.000122,0.000855,0.0,0.0,0.0,0.0,0.0,0.0,3.0,0.304806,0.339942,0.298447,0.35437,-0.0,-0.0,0.0,0.0,0.0,-0.0,0.0,0.0,0.0,0.0,0.0,0.0
135904,0.000977,-0.000123,0.000977,0.0,0.0,0.0,0.0,0.0,0.0,3.0,0.29849,0.344204,0.292471,0.359984,-0.0,-0.0,0.0,-0.0,0.0,-0.0,0.0,0.0,0.0,0.0,0.0,0.0
135924,0.001099,-0.000123,0.000977,0.0,0.0,0.0,0.0,0.0,0.0,3.0,0.305711,0.338159,0.300089,0.354006,-0.0,-0.0,0.0,0.0,0.0,-0.0,0.0,0.0,0.0,0.0,0.0,0.0
135944,0.001099,-0.000123,0.000977,0.0,0.0,0.0,0.0,0.0,0.0,3.0,0.306493,0.339478,0.300167,0.35205,-0.0,-0.0,0.0,0.0,0.0,-0.0,0.0,0.0,0.0,0.0,0.0,0.0
135964,0.001221,0.000121,0.000977,0.0,0.0,0.0,0.0,0.0,0.0,3.0,0.309542,0.335586,0.304751,0.349442,-0.0,-0.0,0.0,-0.0,0.0,-0.0,0.0,0.0,0.0,0.0,0.0,0.0
135984,0.001099,0.000366,0.001099,0.0,0.0,0.0,0.0,0.0,0.0,3.0,0.306586,0.339736,0.296257,0.354831,-0.0,-0.0,0.0,-0.0,0.0,-0.0,0.0,0.0,0.0,0.0,0.0,0.0
136004,0.001099,0.000366,0.001099,0.0,0.0,0.0,0.0,0.0,0.0,3.0,0.304685,0.340383,0.301379,0.3517,-0.0,-0.0,0.0,0.0,0.0,-0.0,0.0,0.0,0.0,0.0,0.0,0.0
136024,0.000977,0.000488,0.001099,0.0,0.0,0.0,0.0,0.0,0.0,3.0,0.3071,0.340435,0.299057,0.351523,-0.0,-0.0,0.0,0.0,0.0,-0.0,0.0,0.0,0.0,0.0,0.0,0.0
136044,0.000855,0.000366,0.001221,0.0,0.0,0.0,0.0,0.0,0.0,3.0,0.312646,0.33447,0.304842,0.347763,-0.0,0.0,0.0,0.0,0.0,-0.0,0.0,0.0,0.0,0.0,0.0,0.0
136064,0.000733,0.000488,0.001221,0.0,0.0,0.0,0.0,0.0,0.0,3.0,0.312721,0.33609,0.299296,0.350717,-0.0,0.0,0.0,0.0,0.0,-0.0,0.0,0.0,0.0,0.0,0.0,0.0
136084,0.000855,0.000488,0.001221,0.0,0.0,0.0,0.0,0.0,0.0,3.0,0.301655,0.342044,0.296368,0.356552,-0.0,0.0,0.0,0.0,0.0,-0.0,0.0,0.0,0.0,0.0,0.0,0.0
136104,0.001099,0.000732,0.001343,0.0,0.0,0.0,0.0,0.0,0.0,3.0,0.303899,0.340071,0.295099,0.357596,-0.0,0.0,0.0,0.0,0.0,-0.0,0.0,0.0,0.0,0.0,0.0,0.0
136124,0.001343,0.000609,0.001343,0.0,0.0,0.0,0.0,0.0,0.0,3.0,0.304431,0.340396,0.300456,0.352641,-0.0,0.0,0.0,-0.0,0.0,-0.0,0.0,0.0,0.0,0.0,0.0,0.0
136144,0.001343,0.000609,0.001343,0.0,0.0,0.0,0.0,0.0,0.0,3.0,0.304782,0.340142,0.296125,0.356023,-0.0,0.0,0.0,0.0,0.0,-0.0,0.0,0.0,0.0,0.0,0.0,0.0
136164,0.001221,0.000732,0.001343,0.0,0.0,0.0,0.0,0.0,0.0,3.0,0.304769,0.341995,0.297821,0.35294,-0.0,0.0,0.0,0.0,0.0,-0.0,0.0,0.0,0.0,0.0,0.0,0.0
136184,0.001221,0.000732,0.001465,0.0,0.0,0.0,0.0,0.0,0.0,3.0,0.301943,0.341678,0.296865,0.356282,-0.0,0.0,0.0,0.0,0.0,-0.0,0.0,0.0,0.0,0.0,0.0,0.0
136204,0.001221,0.000732,0.001465,0.0,0.0,0.0,0.0,0.0,0.0,3.0,0.3046,0.339896,0.29973,0.353561,-0.0,0.0,0.0,0.0,0.0,-0.0,0.0,0.0,0.0,0.0,0.0,0.0
136224,0.001221,0.000487,0.001465,0.0,0.0,0.0,0.0,0.0,0.0,3.0,0.305675,0.342536,0.298905,0.350805,-0.0,0.0,0.0,0.0,0.0,-0.0,0.0,0.0,0.0,0.0,0.0,0.0
136244,0.001099,0.000488,0.001465,0.0,0.0,0.0,0.0,0.0,0.0,3.0,0.303332,0.344106,0.293015,0.355835,-0.0,0.0,0.0,0.0,0.0,-0.0,0.0,0.0,0.0,0.0,0.0,0.0
136264,0.001099,0.000487,0.001587,0.0,0.0,0.0,0.0,0.0,0.0,3.0,0.303292,0.342184,0.298458,0.353458,-0.0,0.0,0.0,-0.0,0.0,-0.0,0.0,0.0,0.0,0.0,0.0,0.0
136284,0.001343,0.000487,0.001465,0.0,0.0,0.0,0.0,0.0,0.0,3.0,0.297666,0.342811,0.294618,0.360304,-0.0,0.0,0.0,0.0,0.0,-0.0,0.0,0.0,0.0,0.0,0.0,0.0
136304,0.001465,0.000609,0.001465,0.0,0.0,0.0,0.0,0.0,0.0,3.0,0.306215,0.337324,0.299392,0.35493,-0.0,0.0,0.0,0.0,0.0,-0.0,0.0,0.0,0.0,0.0,0.0,0.0
136324,0.001465,0.000609,0.001465,0.0,0.0,0.0,0.0,0.0,0.0,3.0,0.30362,0.336541,0.30088,0.356583,-0.0,0.0,0.0,-0.0,0.0,-0.0,0.0,0.0,0.0,0.0,0.0,0.0
136344,0.001465,0.000609,0.001465,0.0,0.0,0.0,0.0,0.0,0.0,3.0,0.302581,0.342246,0.293542,0.357801,-0.0,0.0,0.0,0.0,0.0,-0.0,0.0,0.0,0.0,0.0,0.0,0.0
136364,0.001343,0.000731,0.001465,0.0,0.0,0.0,0.0,0.0,0.0,3.0,0.304501,0.337336,0.301246,0.354839,-0.0,0.0,0.0,0.0,0.0,-0.0,0.0,0.0,0.0,0.0,0.0,0.0
136384,0.001343,0.000609,0.001465,0.0,0.0,0.0,0.0,0.0,0.0,3.0,0.304575,0.339299,0.299742,0.354136,-0.0,0.0,0.0,-0.0,0.0,-0.0,0.0,0.0,0.0,0.0,0.0,0.0
136404,0.001343,0.000731,0.001465,0.0,0.0,0.0,0.0,0.0,0.0,3.0,0.303873,0.34051,0.300314,0.353102,-0.0,0.0,0.0,0.0,0.0,-0.0,0.0,0.0,0.0,0.0,0.0,0.0
136424,0.001343,0.000731,0.001465,0.0,0.0,0.0,0.0,0.0,0.0,3.0,0.304746,0.341801,0.299355,0.351921,-0.0,0.0,0.0,0.0,0.0,-0.0,0.0,0.0,0.0,0.0,0.0,0.0
136444,0.001221,0.000854,0.001465,0.0,0.0,0.0,0.0,0.0,0.0,3.0,0.30542,0.340224,0.298616,0.353465,-0.0,0.0,0.0,-0.0,0.0,-0.0,0.0,0.0,0.0,0.0,0.0,0.0
136464,0.001222,0.001098,0.001587,0.0,0.0,0.0,0.0,0.0,0.0,3.0,0.298418,0.343021,0.297485,0.357315,-0.0,0.0,0.0,0.0,0.0,-0.0,0.0,0.0,0.0,0.0,0.0,0.0
136484,0.001466,0.00122,0.001586,0.0,0.0,0.0,0.0,0.0,0.0,3.0,0.302956,0.337319,0.300194,0.356939,-0.0,0.0,0.0,0.0,0.0,-0.0,0.0,0.0,0.0,0.0,0.0,0.0
136504,0.001466,0.001342,0.001586,0.0,0.0,0.0,0.0,0.0,0.0,3.0,0.303634,0.338611,0.299892,0.355428,-0.0,0.0,0.0,0.0,0.0,-0.0,0.0,0.0,0.0,0.0,0.0,0.0
136524,0.001466,0.00122,0.001586,0.0,0.0,0.0,0.0,0.0,0.0,3.0,0.304519,0.338029,0.298958,0.355997,-0.0,0.0,0.0,-0.0,0.0,-0.0,0.0,0.0,0.0,0.0,0.0,0.0
136544,0.001344,0.00122,0.001586,0.0,0.0,0.0,0.0,0.0,0.0,3.0,0.305917,0.340568,0.297434,0.353667,-0.0,0.0,0.0,0.0,0.0,-0.0,0.0,0.0,0.0,0.0,0.0,0.0
136564,0.001344,0.001342,0.001586,0.0,0.0,0.0,0.0,0.0,0.0,3.0,0.295262,0.345692,0.29203,0.36139,-0.0,0.0,0.0,0.0,-0.0,-0.0,0.0,0.0,0.0,0.0,0.0,0.0
136584,0.001466,0.001464,0.001708,0.0,0.0,0.0,0.0,0.0,0.0,3.0,0.297677,0.345612,0.290493,0.360765,-0.0,0.0,0.0,-0.0,-0.0,-0.0,0.0,0.0,0.0,0.0,0.0,0.0
136604,0.001466,0.001586,0.001708,0.0,0.0,0.0,0.0,0.0,0.0,3.0,0.301296,0.340078,0.300717,0.355271,-0.0,0.0,0.0,-0.0,-0.0,-0.0,0.0,0.0,0.0,0.0,0.0,0.0
136624,0.001588,0.001586,0.001708,0.0,0.0,0.0,0.0,0.0,0.0,3.0,0.304139,0.341359,0.298599,0.353445,-0.0,0.0,0.0,0.0,-0.0,-0.0,0.0,0.0,0.0,0.0,0.0,0.0
136644,0.001466,0.001586,0.001708,0.0,0.0,0.0,0.0,0.0,0.0,3.0,0.300723,0.342606,0.298168,0.355352,-0.0,0.0,0.0,0.0,-0.0,-0.0,0.0,0.0,0.0,0.0,0.0,0.0
136664,0.001588,0.001586,0.001708,0.0,0.0,0.0,0.0,0.0,0.0,3.0,0.301072,0.338782,0.301437,0.356094,-0.0,0.0,0.0,-0.0,-0.0,-0.0,0.0,0.0,0.0,0.0,0.0,0.0
136684,0.001466,0.00183,0.001708,0.0,0.0,0.0,0.0,0.0,0.0,3.0,0.303128,0.337476,0.299528,0.357182,-0.0,0.0,0.0,0.0,-0.0,-0.0,0.0,0.0,0.0,0.0,0.0,0.0
136704,0.001466,0.001708,0.001708,0.0,0.0,0.0,0.0,0.0,0.0,3.0,0.301876,0.338421,0.300749,0.356337,-0.0,0.0,0.0,-0.0,-0.0,-0.0,0.0,0.0,0.0,0.0,0.0,0.0
136724,0.001344,0.001586,0.00183,0.0,0.0,0.0,0.0,0.0,0.0,3.0,0.300007,0.340923,0.294333,0.360465,-0.0,0.0,0.0,-0.0,-0.0,-0.0,0.0,0.0,0.0,0.0,0.0,0.0
136744,0.001466,0.001586,0.00183,0.0,0.0,0.0,0.0,0.0,0.0,3.0,0.299996,0.33887,0.301655,0.356691,-0.0,0.0,0.0,0.0,-0.0,-0.0,0.0,0.0,0.0,0.0,0.0,0.0
136764,0.001466,0.001464,0.00183,0.0,0.0,0.0,0.0,0.0,0.0,3.0,0.304326,0.340305,0.297625,0.355065,-0.0,0.0,0.0,0.0,-0.0,-0.0,0.0,0.0,0.0,0.0,0.0,0.0
136784,0.001589,0.001708,0.00183,0.0,0.0,0.0,0.0,0.0,0.0,3.0,0.302961,0.337102,0.303261,0.354686,-0.0,0.0,0.0,0.0,-0.0,-0.0,0.0,0.0,0.0,0.0,0.0,0.0
136804,0.001711,0.00183,0.00183,0.0,0.0,0.0,0.0,0.0,0.0,3.0,0.302272,0.340507,0.297925,0.356294,-0.0,0.0,0.0,-0.0,-0.0,-0.0,0.0,0.0,0.0,0.0,0.0,0.0
136824,0.001589,0.002074,0.00183,0.0,0.0,0.0,0.0,0.0,0.0,3.0,0.300326,0.341041,0.301429,0.354565,-0.0,0.0,0.0,-0.0,-0.0,-0.0,0.0,0.0,0.0,0.0,0.0,0.0
136844,0.001711,0.001952,0.001708,0.0,0.0,0.0,0.0,0.0,0.0,3.0,0.303466,0.339901,0.302536,0.35222,-0.0,0.0,0.0,0.0,-0.0,-0.0,0.0,0.0,0.0,0.0,0.0,0.0
136864,0.001589,0.00183,0.001708,0.0,0.0,0.0,0.0,0.0,0.0,3.0,0.302131,0.339266,0.300217,0.355765,-0.0,0.0,0.0,-0.0,-0.0,-0.0,0.0,0.0,0.0,0.0,0.0,0.0
136884,0.001711,0.001708,0.001708,0.0,0.0,0.0,0.0,0.0,0.0,3.0,0.30274,0.340716,0.299295,0.35464,-0.0,0.0,0.0,-0.0,-0.0,-0.0,0.0,0.0,0.0,0.0,0.0,0.0
136904,0.00171,0.001586,0.001586,0.0,0.0,0.0,0.0,0.0,0.0,3.0,0.304936,0.339202,0.296958,0.35613,-0.0,0.0,0.0,0.0,-0.0,-0.0,0.0,0.0,0.0,0.0,0.0,0.0
136924,0.001833,0.001585,0.001708,0.0,0.0,0.0,0.0,0.0,0.0,3.0,0.299407,0.340961,0.296674,0.359107,-0.0,0.0,0.0,0.0,-0.0,-0.0,0.0,0.0,0.0,0.0,0.0,0.0
136944,0.001832,0.001341,0.001708,0.0,0.0,0.0,0.0,0.0,0.0,3.0,0.302293,0.338689,0.299206,0.356974,-0.0,0.0,0.0,-0.0,-0.0,-0.0,0.0,0.0,0.0,0.0,0.0,0.0
136964,0.001832,0.001463,0.001708,0.0,0.0,0.0,0.0,0.0,0.0,3.0,0.302205,0.339633,0.299568,0.355875,-0.0,0.0,0.0,0.0,-0.0,-0.0,0.0,0.0,0.0,0.0,0.0,0.0
136984,0.001588,0.001586,0.00183,0.0,0.0,0.0,0.0,0.0,0.0,3.0,0.295584,0.344688,0.289962,0.363621,-0.0,0.0,0.0,0.0,-0.0,-0.0,0.0,0.0,0.0,0.0,0.0,0.0
137004,0.001589,0.001952,0.00183,0.0,0.0,0.0,0.0,0.0,0.0,3.0,0.299442,0.339199,0.297009,0.360457,-0.0,0.0,0.0,0.0,-0.0,-0.0,0.0,0.0,0.0,0.0,0.0,0.0
137024,0.001589,0.002196,0.00183,0.0,0.0,0.0,0.0,0.0,0.0,3.0,0.3006,0.341428,0.296419,0.35793,-0.0,0.0,0.0,0.0,-0.0,-0.0,0.0,0.0,0.0,0.0,0.0,0.0
137044,0.001833,0.002196,0.001829,0.0,0.0,0.0,0.0,0.0,0.0,3.0,0.297093,0.340029,0.299956,0.359222,-0.0,0.0,0.0,-0.0,-0.0,-0.0,0.0,0.0,0.0,0.0,0.0,0.0
137064,0.001833,0.002318,0.001829,0.0,0.0,0.0,0.0,0.0,0.0,3.0,0.303586,0.338139,0.3015,0.354627,-0.0,0.0,0.0,0.0,-0.0,-0.0,0.0,0.0,0.0,0.0,0.0,0.0
137084,0.002077,0.002318,0.001829,0.0,0.0,0.0,0.0,0.0,0.0,3.0,0.295354,0.344062,0.292137,0.36277,-0.0,0.0,0.0,0.0,-0.0,-0.0,0.0,0.0,0.0,0.0,0.0,0.0
137104,0.002078,0.00244,0.001829,0.0,0.0,0.0,0.0,0.0,0.0,3.0,0.300835,0.34051,0.295378,0.359405,-0.0,0.0,0.0,0.0,-0.0,-0.0,0.0,0.0,0.0,0.0,0.0,0.0
137124,0.002078,0.00244,0.001829,0.0,0.0,0.0,0.0,0.0,0.0,3.0,0.300224,0.340263,0.300416,0.35619,-0.0,0.0,0.0,-0.0,-0.0,-0.0,0.0,0.0,0.0,0.0,0.0,0.0
137144,0.001956,0.002318,0.001951,0.0,0.0,0.0,0.0,0.0,0.0,3.0,0.302091,0.336944,0.29876,0.3591,-0.0,0.0,0.0,0.0,-0.0,-0.0,0.0,0.0,0.0,0.0,0.0,0.0
137164,0.001833,0.002318,0.001951,0.0,0.0,0.0,0.0,0.0,0.0,3.0,0.303762,0.338093,0.298936,0.356565,-0.0,0.0,0.0,-0.0,-0.0,-0.0,0.0,0.0,0.0,0.0,0.0,0.0
137184,0.001589,0.002196,0.00183,0.0,0.0,0.0,0.0,0.0,0.0,3.0,0.297751,0.342023,0.29288,0.362284,-0.0,0.0,0.0,-0.0,-0.0,-0.0,0.0,0.0,0.0,0.0,0.0,0.0
137204,0.001467,0.002196,0.00183,0.0,0.0,0.0,0.0,0.0,0.0,3.0,0.303846,0.338679,0.298105,0.356603,-0.0,0.0,0.0,0.0,-0.0,-0.0,0.0,0.0,0.0,0.0,0.0,0.0
137224,0.001467,0.002196,0.001952,0.0,0.0,0.0,0.0,0.0,0.0,3.0,0.30106,0.340373,0.299618,0.356054,-0.0,0.0,0.0,0.0,-0.0,-0.0,0.0,0.0,0.0,0.0,0.0,0.0
137244,0.001467,0.002196,0.001952,0.0,0.0,0.0,0.0,0.0,0.0,3.0,0.301579,0.339864,0.300895,0.355104,-0.0,0.0,0.0,-0.0,-0.0,-0.0,0.0,0.0,0.0,0.0,0.0,0.0
137264,0.001589,0.002074,0.00183,0.0,0.0,0.0,0.0,0.0,0.0,3.0,0.300596,0.340308,0.30193,0.354642,-0.0,0.0,0.0,-0.0,-0.0,-0.0,0.0,0.0,0.0,0.0,0.0,0.0
137284,0.001467,0.002074,0.00183,0.0,0.0,0.0,0.0,0.0,0.0,3.0,0.301758,0.340358,0.298752,0.356195,-0.0,0.0,0.0,0.0,-0.0,-0.0,0.0,0.0,0.0,0.0,0.0,0.0
137304,0.001711,0.002196,0.00183,0.0,0.0,0.0,0.0,0.0,0.0,3.0,0.299257,0.337867,0.301114,0.358633,-0.0,0.0,0.0,-0.0,-0.0,-0.0,0.0,0.0,0.0,0.0,0.0,0.0
137324,0.001467,0.002318,0.00183,0.0,0.0,0.0,0.0,0.0,0.0,3.0,0.30204,0.337191,0.298224,0.359329,-0.0,0.0,0.0,0.0,-0.0,-0.0,0.0,0.0,0.0,0.0,0.0,0.0
137344,0.001589,0.00244,0.001829,0.0,0.0,0.0,0.0,0.0,0.0,3.0,0.30105,0.337705,0.299167,0.358904,-0.0,0.0,0.0,-0.0,-0.0,-0.0,0.0,0.0,0.0,0.0,0.0,0.0
137364,0.001467,0.00244,0.00183,0.0,0.0,0.0,0.0,0.0,0.0,3.0,0.30257,0.338499,0.297533,0.358238,-0.0,0.0,0.0,-0.0,-0.0,-0.0,0.0,0.0,0.0,0.0,0.0,0.0
137384,0.001467,0.00244,0.00183,0.0,0.0,0.0,0.0,0.0,0.0,3.0,0.300761,0.339158,0.299319,0.357666,-0.0,0.0,0.0,-0.0,-0.0,-0.0,0.0,0.0,0.0,0.0,0.0,0.0
137404,0.001345,0.002562,0.00183,0.0,0.0,0.0,0.0,0.0,0.0,3.0,0.300457,0.34048,0.299553,0.356484,-0.0,0.0,0.0,0.0,-0.0,-0.0,0.0,0.0,0.0,0.0,0.0,0.0
137424,0.001345,0.002562,0.00183,0.0,0.0,0.0,0.0,0.0,0.0,3.0,0.300839,0.338883,0.299109,0.358025,-0.0,0.0,0.0,0.0,-0.0,-0.0,0.0,0.0,0.0,0.0,0.0,0.0
137444,0.001467,0.002562,0.00183,0.0,0.0,0.0,0.0,0.0,0.0,3.0,0.299472,0.340669,0.300415,0.356403,-0.0,0.0,0.0,0.0,-0.0,-0.0,0.0,0.0,0.0,0.0,0.0,0.0
137464,0.001467,0.00244,0.00183,0.0,0.0,0.0,0.0,0.0,0.0,3.0,0.302242,0.340188,0.297527,0.356929,-0.0,0.0,0.0,0.0,-0.0,-0.0,0.0,0.0,0.0,0.0,0.0,0.0
137484,0.001467,0.002196,0.001952,0.0,0.0,0.0,0.0,0.0,0.0,3.0,0.292955,0.348667,0.290525,0.361434,-0.0,0.0,0.0,-0.0,-0.0,-0.0,0.0,0.0,0.0,0.0,0.0,0.0
137504,0.001467,0.002074,0.002074,0.0,0.0,0.0,0.0,0.0,0.0,3.0,0.300693,0.33997,0.297623,0.358287,-0.0,0.0,0.0,0.0,-0.0,-0.0,0.0,0.0,0.0,0.0,0.0,0.0
137524,0.001467,0.002074,0.002074,0.0,0.0,0.0,0.0,0.0,0.0,3.0,0.297554,0.343494,0.295342,0.359197,-0.0,0.0,0.0,0.0,-0.0,-0.0,0.0,0.0,0.0,0.0,0.0,0.0
137544,0.001345,0.001952,0.002074,0.0,0.0,0.0,0.0,0.0,0.0,3.0,0.302113,0.339873,0.296246,0.35832,-0.0,0.0,0.0,-0.0,-0.0,-0.0,0.0,0.0,0.0,0.0,0.0,0.0
137564,0.001345,0.00183,0.002074,0.0,0.0,0.0,0.0,0.0,0.0,3.0,0.29959,0.339514,0.299107,0.358423,-0.0,0.0,0.0,-0.0,-0.0,-0.0,0.0,0.0,0.0,0.0,0.0,0.0
137584,0.001345,0.001586,0.002197,0.0,0.0,0.0,0.0,0.0,0.0,3.0,0.296479,0.344245,0.293885,0.360429,-0.0,0.0,0.0,0.0,-0.0,-0.0,0.0,0.0,0.0,0.0,0.0,0.0
137604,0.001222,0.001219,0.002319,0.0,0.0,0.0,0.0,0.0,0.0,3.0,0.295818,0.345675,0.293582,0.359813,-0.0,0.0,0.0,-0.0,-0.0,-0.0,0.0,0.0,0.0,0.0,0.0,0.0
137624,0.0011,0.000975,0.002319,0.0,0.0,0.0,0.0,0.0,0.0,3.0,0.299967,0.343533,0.297207,0.355824,-0.0,0.0,0.0,-0.0,-0.0,-0.0,0.0,0.0,0.0,0.0,0.0,0.0
137644,0.000978,0.000853,0.002319,0.0,0.0,0.0,0.0,0.0,0.0,3.0,0.30159,0.341679,0.295964,0.357261,-0.0,0.0,0.0,0.0,-0.0,-0.0,0.0,0.0,0.0,0.0,0.0,0.0
137664,0.000855,0.000732,0.002197,0.0,0.0,0.0,0.0,0.0,0.0,3.0,0.302488,0.341466,0.299302,0.354124,-0.0,0.0,0.0,-0.0,-0.0,-0.0,0.0,0.0,0.0,0.0,0.0,0.0
137684,0.000855,0.000731,0.002319,0.0,0.0,0.0,0.0,0.0,0.0,3.0,0.297895,0.344899,0.29188,0.360234,-0.0,0.0,0.0,0.0,-0.0,-0.0,0.0,0.0,0.0,0.0,0.0,0.0
137704,0.000611,0.000732,0.00232,0.0,0.0,0.0,0.0,0.0,0.0,3.0,0.30139,0.343953,0.295471,0.355644,-0.0,0.0,0.0,0.0,-0.0,-0.0,0.0,0.0,0.0,0.0,0.0,0.0
137724,0.000367,0.00061,0.00232,0.0,0.0,0.0,0.0,0.0,0.0,3.0,0.302075,0.341725,0.295137,0.357471,-0.0,0.0,0.0,-0.0,-0.0,-0.0,0.0,0.0,0.0,0.0,0.0,0.0
137744,0.000367,0.00061,0.00232,0.0,0.0,0.0,0.0,0.0,0.0,3.0,0.300584,0.343073,0.296613,0.356237,-0.0,0.0,0.0,0.0,-0.0,-0.0,0.0,0.0,0.0,0.0,0.0,0.0
137764,0.000367,0.000488,0.00232,0.0,0.0,0.0,0.0,0.0,0.0,3.0,0.300666,0.340919,0.29645,0.358331,-0.0,0.0,0.0,0.0,-0.0,-0.0,0.0,0.0,0.0,0.0,0.0,0.0
137784,0.000367,0.00061,0.00232,0.0,0.0,0.0,0.0,0.0,0.0,3.0,0.298752,0.341217,0.298306,0.358114,-0.0,0.0,0.0,0.0,-0.0,-0.0,0.0,0.0,0.0,0.0,0.0,0.0
137804,0.000367,0.00061,0.00232,0.0,0.0,0.0,0.0,0.0,0.0,3.0,0.299721,0.340259,0.297246,0.359074,-0.0,0.0,0.0,0.0,-0.0,-0.0,0.0,0.0,0.0,0.0,0.0,0.0
137824,0.000489,0.00061,0.002198,0.0,0.0,0.0,0.0,0.0,0.0,3.0,0.299739,0.340161,0.297145,0.359229,-0.0,0.0,0.0,-0.0,-0.0,-0.0,0.0,0.0,0.0,0.0,0.0,0.0
137844,0.000367,0.000732,0.00232,0.0,0.0,0.0,0.0,0.0,0.0,3.0,0.299399,0.342003,0.295424,0.359099,-0.0,0.0,0.0,0.0,-0.0,-0.0,0.0,0.0,0.0,0.0,0.0,0.0
137864,0.000367,0.00061,0.00232,0.0,0.0,0.0,0.0,0.0,0.0,3.0,0.291502,0.346485,0.288727,0.365888,-0.0,0.0,0.0,0.0,-0.0,-0.0,0.0,0.0,0.0,0.0,0.0,0.0
137884,0.000367,0.000732,0.002442,0.0,0.0,0.0,0.0,0.0,0.0,3.0,0.296969,0.344418,0.292336,0.361057,-0.0,0.0,0.0,-0.0,-0.0,-0.0,0.0,0.0,0.0,0.0,0.0,0.0
137904,0.000489,0.00061,0.00232,0.0,0.0,0.0,0.0,0.0,0.0,3.0,0.297026,0.343901,0.294768,0.35966,-0.0,0.0,0.0,-0.0,-0.0,-0.0,0.0,0.0,0.0,0.0,0.0,0.0
137924,0.000367,0.000854,0.00232,0.0,0.0,0.0,0.0,0.0,0.0,3.0,0.300305,0.343288,0.293479,0.358667,-0.0,0.0,0.0,0.0,-0.0,-0.0,0.0,0.0,0.0,0.0,0.0,0.0
137944,0.000489,0.000854,0.002442,0.0,0.0,0.0,0.0,0.0,0.0,3.0,0.296158,0.344031,0.293769,0.360963,-0.0,0.0,0.0,0.0,-0.0,-0.0,0.0,0.0,0.0,0.0,0.0,0.0
137964,0.000368,0.001098,0.002442,0.0,0.0,0.0,0.0,0.0,0.0,3.0,0.2973,0.342638,0.294282,0.361002,-0.0,0.0,0.0,-0.0,-0.0,-0.0,0.0,0.0,0.0,0.0,0.0,0.0
137984,0.000368,0.001098,0.002442,0.0,0.0,0.0,0.0,0.0,0.0,3.0,0.29951,0.34149,0.296034,0.359025,-0.0,0.0,0.0,-0.0,-0.0,-0.0,0.0,0.0,0.0,0.0,0.0,0.0
138004,0.00049,0.001342,0.002442,0.0,0.0,0.0,0.0,0.0,0.0,3.0,0.300051,0.340781,0.295647,0.359561,-0.0,0.0,0.0,0.0,-0.0,-0.0,0.0,0.0,0.0,0.0,0.0,0.0
138024,0.00049,0.001464,0.002441,0.0,0.0,0.0,0.0,0.0,0.0,3.0,0.29661,0.34463,0.290676,0.362371,-0.0,0.0,0.0,0.0,-0.0,-0.0,0.0,0.0,0.0,0.0,0.0,0.0
138044,0.00049,0.001708,0.002441,0.0,0.0,0.0,0.0,0.0,0.0,3.0,0.30328,0.339549,0.293622,0.359704,-0.0,-0.0,0.0,-0.0,-0.0,-0.0,0.0,0.0,0.0,0.0,0.0,0.0
138064,0.000368,0.001831,0.002442,0.0,0.0,0.0,0.0,0.0,0.087266,3.0,0.9,0.15,0.9,0.15,-0.0,-0.0,0.000317,0.0,-0.0,0.126861,0.0,0.0,0.0,0.0,0.0,0.0
138084,0.000738,0.002562,0.004516,0.0,0.0,0.0,0.0,0.0,0.087266,3.0,0.423012,0.15,0.424981,0.177168,-0.0,-0.0,0.004285,0.0,-0.0,0.261767,0.0,0.0,0.0,0.0,0.0,0.0
138104,0.000871,0.003047,0.010498,0.0,0.0,0.0,0.0,0.0,0.087266,3.0,0.223205,0.381929,0.232948,0.404648,-0.0,-0.0,0.009628,0.0,-0.0,0.266118,0.0,0.0,0.0,0.0,0.0,0.0
138124,0.000398,0.003781,0.016724,0.0,0.0,0.0,0.0,0.0,0.087266,3.0,0.190462,0.398354,0.169275,0.42383,-0.0,-0.0,0.014842,0.0,-0.0,0.25102,0.0,0.0,0.0,0.0,0.0,0.0
138144,0.000165,0.004149,0.020508,0.0,0.0,0.0,0.0,0.0,0.087266,3.0,0.294276,0.34485,0.282249,0.369943,-0.0,-0.0,0.019744,0.0,-0.0,0.235403,0.0,0.0,0.0,0.0,0.0,0.0
138164,0.000175,0.004637,0.022709,0.0,0.0,0.0,0.0,0.0,0.087266,3.0,0.32979,0.30928,0.32534,0.336892,-0.0,-0.0,0.024341,0.0,-0.0,0.220945,0.0,0.0,0.0,0.0,0.0,0.0
138184,0.00031,0.005368,0.024662,0.0,0.0,0.0,0.0,0.0,0.087266,3.0,0.331849,0.300892,0.330923,0.336818,-0.0,-0.0,0.028659,0.0,-0.0,0.207659,0.0,0.0,0.0,0.0,0.0,0.0
138204,0.000201,0.005857,0.026981,0.0,0.0,0.0,0.0,0.0,0.087266,3.0,0.336147,0.299386,0.334095,0.330663,-0.0,-0.0,0.032719,0.0,-0.0,0.195419,0.0,0.0,0.0,0.0,0.0,0.0
138224,-3.3e-05,0.005983,0.029788,0.0,0.0,0.0,0.0,0.0,0.087266,3.0,0.318613,0.323777,0.309105,0.348859,-0.0,-0.0,0.036541,0.0,-0.0,0.184105,0.0,0.0,0.0,0.0,0.0,0.0
138244,-0.000148,0.005863,0.032844,0.0,0.0,0.0,0.0,0.0,0.087266,3.0,0.299335,0.342319,0.291707,0.361667,-0.0,-0.0,0.040143,0.0,-0.0,0.173612,0.0,0.0,0.0,0.0,0.0,0.0
138264,-0.000144,0.005619,0.035528,0.0,0.0,0.0,0.0,0.0,0.087266,3.0,0.307636,0.331986,0.305373,0.353885,-0.0,-0.0,0.043541,0.0,-0.0,0.163851,0.0,0.0,0.0,0.0,0.0,0.0
138284,-0.000148,0.005131,0.037479,0.0,0.0,0.0,0.0,0.0,0.087266,3.0,0.332359,0.312215,0.324654,0.332366,-0.0,-0.0,0.046749,0.0,-0.0,0.154746,0.0,0.0,0.0,0.0,0.0,0.0
138304,-0.000272,0.004767,0.03956,0.0,0.0,0.0,0.0,0.0,0.087266,3.0,0.321715,0.322094,0.317612,0.340109,-0.0,-0.0,0.049779,0.0,-0.0,0.146232,0.0,0.0,0.0,0.0,0.0,0.0
138324,-0.000266,0.004767,0.041877,0.0,0.0,0.0,0.0,0.0,0.087266,3.0,0.310877,0.329918,0.308627,0.350365,-0.0,-0.0,0.052643,0.0,-0.0,0.138252,0.0,0.0,0.0,0.0,0.0,0.0
138344,-0.000378,0.005015,0.044202,0.0,0.0,0.0,0.0,0.0,0.087266,3.0,0.31269,0.323829,0.310615,0.352674,-0.0,-0.0,0.055351,0.0,-0.0,0.130756,0.0,0.0,0.0,0.0,0.0,0.0
138364,-0.000373,0.005015,0.046031,0.0,0.0,0.0,0.0,0.0,0.087266,3.0,0.320259,0.317091,0.320646,0.343251,-0.0,-0.0,0.057913,0.0,-0.0,0.123702,0.0,0.0,0.0,0.0,0.0,0.0
138384,-0.000112,0.005498,0.047981,0.0,0.0,0.0,0.0,0.0,0.087266,3.0,0.315892,0.320681,0.314838,0.349108,-0.0,-0.0,0.060336,0.0,-0.0,0.117054,0.0,0.0,0.0,0.0,0.0,0.0
138404,-0.000101,0.005742,0.049941,0.0,0.0,0.0,0.0,0.0,0.087266,3.0,0.316795,0.323244,0.313988,0.346745,-0.0,-0.0,0.06263,0.0,-0.0,0.110778,0.0,0.0,0.0,0.0,0.0,0.0
138424,-9e-05,0.005986,0.051647,0.0,0.0,0.0,0.0,0.0,0.087266,3.0,0.321248,0.314251,0.319807,0.345638,-0.0,-0.0,0.0648,0.0,-0.0,0.104846,0.0,0.0,0.0,0.0,0.0,0.0
138444,-7.6e-05,0.006352,0.05311,0.0,0.0,0.0,0.0,0.0,0.087266,3.0,0.332835,0.304872,0.326607,0.336586,-0.0,-0.0,0.066855,0.0,-0.0,0.099233,0.0,0.0,0.0,0.0,0.0,0.0
138464,0.000181,0.00659,0.054825,0.0,0.0,0.0,0.0,0.0,0.087266,3.0,0.319808,0.318532,0.317736,0.344996,-0.0,-0.0,0.068799,0.0,-0.0,0.093916,0.0,0.0,0.0,0.0,0.0,0.0
138484,0.000314,0.00683,0.056287,0.0,0.0,0.0,0.0,0.0,0.087266,3.0,0.31856,0.318742,0.315306,0.348075,-0.0,-0.0,0.070639,0.0,-0.0,0.088875,0.0,0.0,0.0,0.0,0.0,0.0
138504,0.000315,0.006708,0.057627,0.0,0.0,0.0,0.0,0.0,0.087266,3.0,0.325212,0.313203,0.323618,0.3394,-0.0,-0.0,0.07238,0.0,-0.0,0.084092,0.0,0.0,0.0,0.0,0.0,0.0
138524,0.000327,0.006952,0.058978,0.0,0.0,0.0,0.0,0.0,0.087266,3.0,0.330957,0.311415,0.322359,0.336671,-0.0,-0.0,0.074028,0.0,-0.0,0.079551,0.0,0.0,0.0,0.0,0.0,0.0
138544,0.000206,0.006833,0.060196,0.0,0.0,0.0,0.0,0.0,0.087266,3.0,0.331416,0.310284,0.324033,0.335651,-0.0,-0.0,0.075586,0.0,0.0,0.075237,0.0,0.0,0.0,0.0,0.0,0.0
138564,-3.5e-05,0.00684,0.061293,0.0,0.0,0.0,0.0,0.0,0.087266,3.0,0.329245,0.307821,0.324102,0.339875,0.0,-0.0,0.07706,0.0,0.0,0.071137,0.0,0.0,0.0,0.0,0.0,0.0
138584,-3.5e-05,0.006719,0.062401,0.0,0.0,0.0,0.0,0.0,0.087266,3.0,0.329751,0.31095,0.325333,0.335439,0.0,-0.0,0.078453,0.0,0.0,0.067239,0.0,0.0,0.0,0.0,0.0,0.0
138604,7.9e-05,0.006349,0.063496,0.0,0.0,0.0,0.0,0.0,0.087266,3.0,0.330233,0.313419,0.324149,0.333858,0.0,-0.0,0.07977,0.0,0.0,0.063531,0.0,0.0,0.0,0.0,0.0,0.0
138624,-4.7e-05,0.006108,0.064471,0.0,0.0,0.0,0.0,0.0,0.087266,3.0,0.32427,0.318075,0.317489,0.341537,0.0,-0.0,0.081013,0.0,0.0,0.060003,0.0,0.0,0.0,0.0,0.0,0.0
138644,-0.000174,0.005868,0.065445,0.0,0.0,0.0,0.0,0.0,0.087266,3.0,0.331011,0.312247,0.324168,0.334144,0.0,-0.0,0.082188,0.0,0.0,0.056646,0.0,0.0,0.0,0.0,0.0,0.0
138664,-0.000436,0.005267,0.066432,0.0,0.0,0.0,0.0,0.0,0.087266,3.0,0.32748,0.314918,0.32362,0.335677,0.0,-0.0,0.083297,0.0,0.0,0.05345,0.0,0.0,0.0,0.0,0.0,0.0
138684,-0.000568,0.004905,0.067284,0.0,0.0,0.0,0.0,0.0,0.087266,3.0,0.329609,0.313115,0.324496,0.334416,0.0,-0.0,0.084343,0.0,0.0,0.050409,0.0,0.0,0.0,0.0,0.0,0.0
138704,-0.000704,0.004421,0.068136,0.0,0.0,0.0,0.0,0.0,0.087266,3.0,0.330509,0.315133,0.322141,0.333928,0.0,-0.0,0.085329,0.0,0.0,0.047513,0.0,0.0,0.0,0.0,0.0,0.0
138724,-0.00085,0.003694,0.068988,0.0,0.0,0.0,0.0,0.0,0.087266,3.0,0.331302,0.312801,0.323111,0.334363,0.0,-0.0,0.086258,0.0,0.0,0.044756,0.0,0.0,0.0,0.0,0.0,0.0
138744,-0.000987,0.00321,0.069719,0.0,0.0,0.0,0.0,0.0,0.087266,3.0,0.33342,0.30514,0.333526,0.328918,0.0,-0.0,0.087134,0.0,0.0,0.04213,0.0,0.0,0.0,0.0,0.0,0.0
138764,-0.000877,0.00284,0.070461,0.0,0.0,0.0,0.0,0.0,0.087266,3.0,0.331425,0.31054,0.327463,0.332093,0.0,-0.0,0.087957,0.0,0.0,0.039631,0.0,0.0,0.0,0.0,0.0,0.0
138784,-0.000641,0.002588,0.071313,0.0,0.0,0.0,0.0,0.0,0.087266,3.0,0.331642,0.311713,0.327474,0.330789,0.0,-0.0,0.088732,0.0,0.0,0.037251,0.0,0.0,0.0,0.0,0.0,0.0
138804,-0.000766,0.002471,0.071921,0.0,0.0,0.0,0.0,0.0,0.087266,3.0,0.333248,0.313232,0.326173,0.32904,0.0,-0.0,0.08946,0.0,0.0,0.034985,0.0,0.0,0.0,0.0,0.0,0.0
138824,-0.000783,0.001983,0.072529,0.0,0.0,0.0,0.0,0.0,0.087266,3.0,0.333087,0.312894,0.327014,0.328686,0.0,-0.0,0.090143,0.0,0.0,0.032828,0.0,0.0,0.0,0.0,0.0,0.0
138844,-0.000778,0.002105,0.073138,0.0,0.0,0.0,0.0,0.0,0.087266,3.0,0.323254,0.31455,0.321674,0.341834,0.0,-0.0,0.090784,0.0,0.0,0.030775,0.0,0.0,0.0,0.0,0.0,0.0
138864,-0.000782,0.001983,0.073881,0.0,0.0,0.0,0.0,0.0,0.087266,3.0,0.332195,0.308619,0.329527,0.331032,0.0,-0.0,0.091385,0.0,0.0,0.028821,0.0,0.0,0.0,0.0,0.0,0.0
138884,-0.000659,0.001979,0.074368,0.0,0.0,0.0,0.0,0.0,0.087266,3.0,0.334627,0.305728,0.331035,0.32968,0.0,-0.0,0.091947,0.0,0.0,0.02696,0.0,0.0,0.0,0.0,0.0,0.0
138904,-0.000659,0.001979,0.074855,0.0,0.0,0.0,0.0,0.0,0.087266,3.0,0.33426,0.304755,0.330811,0.331149,0.0,-0.0,0.092473,0.0,0.0,0.02519,0.0,0.0,0.0,0.0,0.0,0.0
138924,-0.00055,0.001609,0.075341,0.0,0.0,0.0,0.0,0.0,0.087266,3.0,0.326334,0.31636,0.323875,0.335212,0.0,-0.0,0.092964,0.0,0.0,0.023506,0.0,0.0,0.0,0.0,0.0,0.0
138944,-0.00055,0.001609,0.075706,0.0,0.0,0.0,0.0,0.0,0.087266,3.0,0.333544,0.303106,0.333942,0.330191,0.0,-0.0,0.093422,0.0,0.0,0.021904,0.0,0.0,0.0,0.0,0.0,0.0
138964,-0.000441,0.001238,0.076192,0.0,0.0,0.0,0.0,0.0,0.087266,3.0,0.334459,0.306553,0.329805,0.330338,0.0,-0.0,0.093848,0.0,0.0,0.02038,0.0,0.0,0.0,0.0,0.0,0.0
138984,-0.000446,0.001117,0.076693,0.0,0.0,0.0,0.0,0.0,0.087266,3.0,0.337204,0.304377,0.331857,0.327413,0.0,-0.0,0.094245,0.0,0.0,0.018931,0.0,0.0,0.0,0.0,0.0,0.0
139004,-0.000211,0.000863,0.077179,0.0,0.0,0.0,0.0,0.0,0.087266,3.0,0.333568,0.312349,0.32552,0.330179,0.0,-0.0,0.094613,0.0,0.0,0.017554,0.0,0.0,0.0,0.0,0.0,0.0
139024,-0.00022,0.000619,0.077544,0.0,0.0,0.0,0.0,0.0,0.087266,3.0,0.331231,0.314654,0.326344,0.32958,0.0,-0.0,0.094954,0.0,0.0,0.016244,0.0,0.0,0.0,0.0,0.0,0.0
139044,-0.000347,0.000502,0.077909,0.0,0.0,0.0,0.0,0.0,0.087266,3.0,0.331183,0.312498,0.327393,0.330604,0.0,-0.0,0.09527,0.0,0.0,0.015,0.0,0.0,0.0,0.0,0.0,0.0
139064,-0.000112,0.000249,0.078395,0.0,0.0,0.0,0.0,0.0,0.087266,3.0,0.320143,0.317953,0.323679,0.339773,0.0,-0.0,0.095561,0.0,0.0,0.013818,0.0,0.0,0.0,0.0,0.0,0.0
139084,-0.000112,0.000249,0.07876,0.0,0.0,0.0,0.0,0.0,0.087266,3.0,0.324643,0.314354,0.324587,0.337988,0.0,-0.0,0.095829,0.0,0.0,0.012695,0.0,0.0,0.0,0.0,0.0,0.0
139104,0.000132,0.000239,0.079125,0.0,0.0,0.0,0.0,0.0,0.087266,3.0,0.33207,0.309509,0.330838,0.329034,0.0,-0.0,0.096075,0.0,0.0,0.011629,0.0,0.0,0.0,0.0,0.0,0.0
139124,0.000385,0.000473,0.079489,0.0,0.0,0.0,0.0,0.0,0.087266,3.0,0.330669,0.30972,0.327287,0.333759,0.0,-0.0,0.096299,0.0,0.0,0.010617,0.0,0.0,0.0,0.0,0.0,0.0
139144,0.000503,0.000346,0.079869,0.0,0.0,0.0,0.0,0.0,0.087266,3.0,0.332466,0.310206,0.327013,0.331797,0.0,-0.0,0.096504,0.0,0.0,0.009656,0.0,0.0,0.0,0.0,0.0,0.0
139164,0.00039,0.000595,0.080112,0.0,0.0,0.0,0.0,0.0,0.087266,3.0,0.338469,0.301911,0.331616,0.328554,0.0,-0.0,0.096691,-0.0,0.0,0.008745,0.0,0.0,0.0,0.0,0.0,0.0
139184,0.000517,0.000712,0.080355,0.0,0.0,0.0,0.0,0.0,0.087266,3.0,0.330469,0.308233,0.32953,0.333099,0.0,-0.0,0.096859,-0.0,0.0,0.007881,0.0,0.0,0.0,0.0,0.0,0.0
139204,0.000512,0.00059,0.080598,0.0,0.0,0.0,0.0,0.0,0.087266,3.0,0.330287,0.307917,0.330383,0.332722,0.0,-0.0,0.09701,0.0,0.0,0.007062,0.0,0.0,0.0,0.0,0.0,0.0
139224,0.000635,0.000585,0.080963,0.0,0.0,0.0,0.0,0.0,0.087266,3.0,0.335096,0.305526,0.33192,0.328488,0.0,-0.0,0.097146,0.0,0.0,0.006286,0.0,0.0,0.0,0.0,0.0,0.0
139244,0.000757,0.00058,0.081206,0.0,0.0,0.0,0.0,0.0,0.087266,3.0,0.32956,0.313466,0.325231,0.333434,0.0,-0.0,0.097266,-0.0,0.0,0.005551,0.0,0.0,0.0,0.0,0.0,0.0
139264,0.000757,0.00058,0.081449,0.0,0.0,0.0,0.0,0.0,0.087266,3.0,0.337628,0.30445,0.331512,0.327256,0.0,-0.0,0.097372,0.0,0.0,0.004855,0.0,0.0,0.0,0.0,0.0,0.0
139284,0.000503,0.000346,0.081571,0.0,0.0,0.0,0.0,0.0,0.087266,3.0,0.334827,0.307118,0.333114,0.326092,0.0,-0.0,0.097464,-0.0,0.0,0.004196,0.0,0.0,0.0,0.0,0.0,0.0
139304,0.00062,0.000219,0.081814,0.0,0.0,0.0,0.0,0.0,0.087266,3.0,0.328488,0.309725,0.33051,0.332737,0.0,-0.0,0.097543,0.0,0.0,0.003573,0.0,0.0,0.0,0.0,0.0,0.0
139324,0.000874,0.000453,0.082057,0.0,0.0,0.0,0.0,0.0,0.087266,3.0,0.329826,0.309736,0.328152,0.333731,0.0,-0.0,0.09761,-0.0,0.0,0.002983,0.0,0.0,0.0,0.0,0.0,0.0
139344,0.000869,0.000331,0.0823,0.0,0.0,0.0,0.0,0.0,0.087266,3.0,0.338568,0.305856,0.332621,0.323841,0.0,-0.0,0.097665,-0.0,0.0,0.002426,0.0,0.0,0.0,0.0,0.0,0.0
139364,0.000757,0.00058,0.082422,0.0,0.0,0.0,0.0,0.0,0.087266,3.0,0.33669,0.30402,0.329839,0.330298,0.0,-0.0,0.09771,0.0,0.0,0.0019,0.0,0.0,0.0,0.0,0.0,0.0
139384,0.000879,0.000575,0.08268,0.0,0.0,0.0,0.0,0.0,0.087266,3.0,0.329186,0.31281,0.322954,0.336576,0.0,-0.0,0.097744,0.0,0.0,0.001404,0.0,0.0,0.0,0.0,0.0,0.0
139404,0.000884,0.000696,0.082923,0.0,0.0,0.0,0.0,0.0,0.087266,3.0,0.33855,0.301573,0.331152,0.329239,0.0,-0.0,0.097769,0.0,0.0,0.000935,0.0,0.0,0.0,0.0,0.0,0.0
139424,0.000884,0.000696,0.083166,0.0,0.0,0.0,0.0,0.0,0.087266,3.0,0.336548,0.304917,0.332107,0.327351,0.0,-0.0,0.097784,-0.0,0.0,0.000494,0.0,0.0,0.0,0.0,0.0,0.0
139444,0.001011,0.000813,0.083288,0.0,0.0,0.0,0.0,0.0,0.087266,3.0,0.327175,0.308259,0.330841,0.33501,0.0,-0.0,0.097791,-0.0,0.0,7.8e-05,0.0,0.0,0.0,0.0,0.0,0.0
139464,0.001006,0.000691,0.083409,0.0,0.0,0.0,0.0,0.0,0.087266,3.0,0.327854,0.306833,0.33103,0.335434,0.0,-0.0,0.097789,0.0,0.0,-0.000314,0.0,0.0,0.0,0.0,0.0,0.0
139484,0.001011,0.000813,0.083652,0.0,0.0,0.0,0.0,0.0,0.087266,3.0,0.335268,0.304964,0.333563,0.327145,0.0,-0.0,0.09778,-0.0,0.0,-0.000682,0.0,0.0,0.0,0.0,0.0,0.0
139504,0.001261,0.000925,0.083895,0.0,0.0,0.0,0.0,0.0,0.087266,3.0,0.340606,0.300871,0.333239,0.325577,0.0,-0.0,0.097764,-0.0,0.0,-0.001029,0.0,0.0,0.0,0.0,0.0,0.0
139524,0.001144,0.001051,0.084138,0.0,0.0,0.0,0.0,0.0,0.087266,3.0,0.341696,0.303297,0.33191,0.323587,0.0,-0.0,0.097741,-0.0,0.0,-0.001354,0.0,0.0,0.0,0.0,0.0,0.0
139544,0.001022,0.001057,0.08426,0.0,0.0,0.0,0.0,0.0,0.087266,3.0,0.332811,0.308009,0.330372,0.330123,0.0,-0.0,0.097712,0.0,0.0,-0.001659,0.0,0.0,0.0,0.0,0.0,0.0
139564,0.001139,0.000929,0.084382,0.0,0.0,0.0,0.0,0.0,0.087266,3.0,0.326194,0.310351,0.33104,0.333883,0.0,-0.0,0.097676,-0.0,0.0,-0.001945,0.0,0.0,0.0,0.0,0.0,0.0
139584,0.001271,0.001168,0.084624,0.0,0.0,0.0,0.0,0.0,0.087266,3.0,0.323566,0.312425,0.325875,0.339518,0.0,-0.0,0.097635,-0.0,0.0,-0.002213,0.0,0.0,0.0,0.0,0.0,0.0
139604,0.001388,0.001041,0.084867,0.0,0.0,0.0,0.0,0.0,0.087266,3.0,0.323871,0.316983,0.324511,0.336388,0.0,-0.0,0.097589,0.0,0.0,-0.002463,0.0,0.0,0.0,0.0,0.0,0.0
139624,0.001515,0.001157,0.08511,0.0,0.0,0.0,0.0,0.0,0.087266,3.0,0.329298,0.310638,0.325693,0.335817,0.0,-0.0,0.097538,0.0,0.0,-0.002697,0.0,0.0,0.0,0.0,0.0,0.0
139644,0.001516,0.001157,0.085232,0.0,0.0,0.0,0.0,0.0,0.087266,3.0,0.334011,0.305278,0.333013,0.328713,0.0,-0.0,0.097482,-0.0,0.0,-0.002916,0.0,0.0,0.0,0.0,0.0,0.0
139664,0.001505,0.000913,0.085354,0.0,0.0,0.0,0.0,0.0,0.087266,3.0,0.329491,0.312646,0.324108,0.335332,0.0,-0.0,0.097423,-0.0,0.0,-0.003119,0.0,0.0,0.0,0.0,0.0,0.0
139684,0.001394,0.001162,0.085612,0.0,0.0,0.0,0.0,0.0,0.087266,3.0,0.324389,0.312823,0.324297,0.339878,0.0,-0.0,0.097359,-0.0,0.0,-0.003308,0.0,0.0,0.0,0.0,0.0,0.0
139704,0.001399,0.001284,0.085855,0.0,0.0,0.0,0.0,0.0,0.087266,3.0,0.331675,0.30472,0.331911,0.332679,0.0,-0.0,0.097291,-0.0,0.0,-0.003484,0.0,0.0,0.0,0.0,0.0,0.0
139724,0.001283,0.001411,0.085977,0.0,0.0,0.0,0.0,0.0,0.087266,3.0,0.341021,0.29937,0.334789,0.324871,0.0,-0.0,0.09722,0.0,0.0,-0.003646,0.0,0.0,0.0,0.0,0.0,0.0
139744,0.001649,0.001395,0.086098,0.0,0.0,0.0,0.0,0.0,0.087266,3.0,0.330104,0.312485,0.32922,0.329884,0.0,-0.0,0.097146,-0.0,0.0,-0.003797,0.0,0.0,0.0,0.0,0.0,0.0
139764,0.001654,0.001517,0.086341,0.0,0.0,0.0,0.0,0.0,0.087266,3.0,0.322554,0.315007,0.323086,0.340766,0.0,-0.0,0.097069,-0.0,0.0,-0.003936,0.0,0.0,0.0,0.0,0.0,0.0
139784,0.001771,0.00139,0.086584,0.0,0.0,0.0,0.0,0.0,0.087266,3.0,0.322256,0.317749,0.321895,0.339666,0.0,-0.0,0.09699,-0.0,0.0,-0.004063,0.0,0.0,0.0,0.0,0.0,0.0
139804,0.001644,0.001273,0.086706,0.0,0.0,0.0,0.0,0.0,0.087266,3.0,0.326116,0.312994,0.324639,0.337768,0.0,-0.0,0.096907,-0.0,0.0,-0.004181,0.0,0.0,0.0,0.0,0.0,0.0
139824,0.001527,0.0014,0.086949,0.0,0.0,0.0,0.0,0.0,0.087266,3.0,0.329045,0.307804,0.328706,0.335687,0.0,-0.0,0.096823,0.0,0.0,-0.004288,0.0,0.0,0.0,0.0,0.0,0.0
139844,0.001522,0.001278,0.08707,0.0,0.0,0.0,0.0,0.0,0.087266,3.0,0.333396,0.30782,0.329533,0.330541,0.0,-0.0,0.096736,-0.0,0.0,-0.004386,0.0,0.0,0.0,0.0,0.0,0.0
139864,0.001283,0.00141,0.087313,0.0,0.0,0.0,0.0,0.0,0.087266,3.0,0.335566,0.308018,0.327323,0.330347,0.0,-0.0,0.096648,-0.0,0.0,-0.004475,0.0,0.0,0.0,0.0,0.0,0.0
139884,0.001151,0.001172,0.087435,0.0,0.0,0.0,0.0,0.0,0.087266,3.0,0.333424,0.308648,0.327187,0.33208,0.0,-0.0,0.096558,0.0,0.0,-0.004555,0.0,0.0,0.0,0.0,0.0,0.0
139904,0.001146,0.001049,0.087678,0.0,0.0,0.0,0.0,0.0,0.087266,3.0,0.328413,0.308741,0.329802,0.334395,0.0,-0.0,0.096466,-0.0,0.0,-0.004628,0.0,0.0,0.0,0.0,0.0,0.0
139924,0.001268,0.001044,0.087799,0.0,0.0,0.0,0.0,0.0,0.087266,3.0,0.331555,0.305311,0.329601,0.334559,0.0,-0.0,0.096373,0.0,0.0,-0.004692,0.0,0.0,0.0,0.0,0.0,0.0
139944,0.001517,0.001155,0.087921,0.0,0.0,0.0,0.0,0.0,0.087266,3.0,0.330583,0.308634,0.330432,0.331731,0.0,-0.0,0.096279,0.0,0.0,-0.00475,0.0,0.0,0.0,0.0,0.0,0.0
139964,0.001766,0.001266,0.088042,0.0,0.0,0.0,0.0,0.0,0.087266,3.0,0.327934,0.313709,0.325575,0.334471,0.0,-0.0,0.096184,-0.0,0.0,-0.0048,0.0,0.0,0.0,0.0,0.0,0.0
139984,0.001523,0.001277,0.088164,0.0,0.0,0.0,0.0,0.0,0.087266,3.0,0.325024,0.316307,0.322171,0.338125,0.0,-0.0,0.096087,-0.0,0.0,-0.004845,0.0,0.0,0.0,0.0,0.0,0.0
140004,0.001401,0.001282,0.088423,0.0,0.0,0.0,0.0,0.0,0.087266,3.0,0.323222,0.315893,0.319598,0.342562,0.0,-0.0,0.09599,-0.0,0.0,-0.004883,0.0,0.0,0.0,0.0,0.0,0.0
140024,0.001168,0.001537,0.088544,0.0,0.0,0.0,0.0,0.0,0.087266,3.0,0.324898,0.315443,0.320904,0.340207,0.0,0.0,0.095892,-0.0,0.0,-0.004915,0.0,0.0,0.0,0.0,0.0,0.0
140044,0.001163,0.001415,0.088666,0.0,0.0,0.0,0.0,0.0,0.087266,3.0,0.323329,0.317283,0.322328,0.338686,0.0,0.0,0.095794,0.0,0.0,-0.004941,0.0,0.0,0.0,0.0,0.0,0.0
140064,0.001163,0.001415,0.088787,0.0,0.0,0.0,0.0,0.0,0.087266,3.0,0.324903,0.317035,0.320354,0.339266,0.0,0.0,0.095695,-0.0,0.0,-0.004963,0.0,0.0,0.0,0.0,0.0,0.0
140084,0.001274,0.001165,0.088909,0.0,0.0,0.0,0.0,0.0,0.087266,3.0,0.330017,0.310885,0.329016,0.331649,0.0,0.0,0.095595,0.0,0.0,-0.004979,0.0,0.0,0.0,0.0,0.0,0.0
140104,0.001263,0.000921,0.089031,0.0,0.0,0.0,0.0,0.0,0.087266,3.0,0.331213,0.307054,0.329994,0.332961,0.0,0.0,0.095496,0.0,0.0,-0.004991,0.0,0.0,0.0,0.0,0.0,0.0
140124,0.001258,0.000799,0.089152,0.0,0.0,0.0,0.0,0.0,0.087266,3.0,0.32652,0.312222,0.327316,0.335515,0.0,0.0,0.095396,-0.0,0.0,-0.004999,0.0,0.0,0.0,0.0,0.0,0.0
140144,0.001502,0.000788,0.089273,0.0,0.0,0.0,0.0,0.0,0.087266,3.0,0.326663,0.312559,0.328075,0.334333,0.0,0.0,0.095296,-0.0,0.0,-0.005002,0.0,0.0,0.0,0.0,0.0,0.0
140164,0.001258,0.000799,0.089395,0.0,0.0,0.0,0.0,0.0,0.087266,3.0,0.328721,0.315586,0.322196,0.33521,0.0,0.0,0.095196,0.0,0.0,-0.005001,0.0,0.0,0.0,0.0,0.0,0.0
140184,0.00113,0.000683,0.089517,0.0,0.0,0.0,0.0,0.0,0.087266,3.0,0.327478,0.314824,0.32286,0.336485,0.0,0.0,0.095096,0.0,0.0,-0.004997,0.0,0.0,0.0,0.0,0.0,0.0
140204,0.001008,0.000688,0.089638,0.0,0.0,0.0,0.0,0.0,0.087266,3.0,0.326885,0.315434,0.323043,0.336325,0.0,0.0,0.094996,-0.0,0.0,-0.00499,0.0,0.0,0.0,0.0,0.0,0.0
140224,0.000881,0.000571,0.08976,0.0,0.0,0.0,0.0,0.0,0.087266,3.0,0.321447,0.316599,0.32112,0.342174,0.0,0.0,0.094896,0.0,0.0,-0.004979,0.0,0.0,0.0,0.0,0.0,0.0
140244,0.001136,0.000804,0.089881,0.0,0.0,0.0,0.0,0.0,0.087266,3.0,0.321527,0.317284,0.320175,0.342348,0.0,0.0,0.094797,0.0,0.0,-0.004965,0.0,0.0,0.0,0.0,0.0,0.0
140264,0.001374,0.000671,0.090002,0.0,0.0,0.0,0.0,0.0,0.087266,3.0,0.329269,0.313363,0.326192,0.332884,0.0,0.0,0.094697,-0.0,0.0,-0.004949,0.0,0.0,0.0,0.0,0.0,0.0
140284,0.001496,0.000666,0.090002,0.0,0.0,0.0,0.0,0.0,0.087266,3.0,0.326528,0.309951,0.327695,0.337184,0.0,0.0,0.094598,0.0,0.0,-0.004929,0.0,0.0,0.0,0.0,0.0,0.0
140304,0.001485,0.000422,0.090124,0.0,0.0,0.0,0.0,0.0,0.087266,3.0,0.322598,0.3156,0.32248,0.340754,0.0,0.0,0.0945,-0.0,0.0,-0.004907,0.0,0.0,0.0,0.0,0.0,0.0
140324,0.001491,0.000544,0.090245,0.0,0.0,0.0,0.0,0.0,0.087266,3.0,0.326043,0.31066,0.328786,0.33596,0.0,0.0,0.094402,0.0,0.0,-0.004883,0.0,0.0,0.0,0.0,0.0,0.0
140344,0.001247,0.000555,0.090367,0.0,0.0,0.0,0.0,0.0,0.087266,3.0,0.32844,0.313207,0.324832,0.335151,0.0,0.0,0.094305,0.0,0.0,-0.004857,0.0,0.0,0.0,0.0,0.0,0.0
140364,0.001247,0.000555,0.090367,0.0,0.0,0.0,0.0,0.0,0.087266,3.0,0.32962,0.308788,0.330017,0.332957,0.0,0.0,0.094208,-0.0,0.0,-0.004829,0.0,0.0,0.0,0.0,0.0,0.0
140384,0.001003,0.000566,0.090489,0.0,0.0,0.0,0.0,0.0,0.087266,3.0,0.325451,0.316157,0.322131,0.337893,0.0,0.0,0.094111,0.0,0.0,-0.004798,0.0,0.0,0.0,0.0,0.0,0.0
140404,0.000887,0.000693,0.09061,0.0,0.0,0.0,0.0,0.0,0.087266,3.0,0.327357,0.310746,0.326331,0.336987,0.0,0.0,0.094016,-0.0,0.0,-0.004766,0.0,0.0,0.0,0.0,0.0,0.0
140424,0.001014,0.000809,0.09061,0.0,0.0,0.0,0.0,0.0,0.087266,3.0,0.32552,0.311519,0.326402,0.337984,0.0,0.0,0.093921,-0.0,0.0,-0.004733,0.0,0.0,0.0,0.0,0.0,0.0
140444,0.001253,0.000676,0.090731,0.0,0.0,0.0,0.0,0.0,0.087266,3.0,0.327254,0.315771,0.322367,0.336299,0.0,0.0,0.093826,0.0,0.0,-0.004698,0.0,0.0,0.0,0.0,0.0,0.0
140464,0.001375,0.000671,0.090853,0.0,0.0,0.0,0.0,0.0,0.087266,3.0,0.323519,0.315902,0.322101,0.339976,0.0,0.0,0.093732,0.0,0.0,-0.004661,0.0,0.0,0.0,0.0,0.0,0.0
140484,0.001369,0.000549,0.090974,0.0,0.0,0.0,0.0,0.0,0.087266,3.0,0.320825,0.317494,0.320612,0.342404,0.0,0.0,0.09364,-0.0,0.0,-0.004623,0.0,0.0,0.0,0.0,0.0,0.0
140504,0.001486,0.000421,0.090974,0.0,0.0,0.0,0.0,0.0,0.087266,3.0,0.325647,0.314397,0.325891,0.335747,0.0,0.0,0.093547,-0.0,0.0,-0.004584,0.0,0.0,0.0,0.0,0.0,0.0
140524,0.001125,0.00056,0.091112,0.0,0.0,0.0,0.0,0.0,0.087266,3.0,0.322534,0.316424,0.321236,0.341221,0.0,0.0,0.093456,0.0,0.0,-0.004544,0.0,0.0,0.0,0.0,0.0,0.0
140544,0.001003,0.000565,0.091234,0.0,0.0,0.0,0.0,0.0,0.087266,3.0,0.319309,0.32071,0.317425,0.343756,0.0,0.0,0.093365,0.0,0.0,-0.004503,0.0,0.0,0.0,0.0,0.0,0.0
140564,0.000882,0.000571,0.091355,0.0,0.0,0.0,0.0,0.0,0.087266,3.0,0.325804,0.314775,0.324438,0.336641,0.0,0.0,0.093276,-0.0,0.0,-0.004461,0.0,0.0,0.0,0.0,0.0,0.0
140584,0.000632,0.00046,0.091477,0.0,0.0,0.0,0.0,0.0,0.087266,3.0,0.324528,0.31467,0.324365,0.338021,0.0,0.0,0.093187,0.0,-0.0,-0.004418,0.0,0.0,0.0,0.0,0.0,0.0
140604,0.000754,0.000454,0.091598,0.0,0.0,0.0,0.0,0.0,0.087266,3.0,0.317264,0.321946,0.316656,0.345157,0.0,0.0,0.093099,-0.0,-0.0,-0.004375,0.0,0.0,0.0,0.0,0.0,0.0
140624,0.001009,0.000687,0.091598,0.0,0.0,0.0,0.0,0.0,0.087266,3.0,0.325414,0.314385,0.323342,0.338403,0.0,0.0,0.093012,0.0,-0.0,-0.004331,0.0,0.0,0.0,0.0,0.0,0.0
140644,0.001242,0.000432,0.091598,0.0,0.0,0.0,0.0,0.0,0.087266,3.0,0.326348,0.314911,0.32318,0.337188,0.0,0.0,0.092925,0.0,-0.0,-0.004286,0.0,0.0,0.0,0.0,0.0,0.0
140664,0.001247,0.000554,0.09172,0.0,0.0,0.0,0.0,0.0,0.087266,3.0,0.325133,0.315758,0.320486,0.340088,0.0,0.0,0.09284,-0.0,-0.0,-0.004241,0.0,0.0,0.0,0.0,0.0,0.0
140684,0.001253,0.000676,0.091719,0.0,0.0,0.0,0.0,0.0,0.087266,3.0,0.321562,0.318789,0.319871,0.34123,0.0,0.0,0.092755,0.0,-0.0,-0.004195,0.0,0.0,0.0,0.0,0.0,0.0
140704,0.001004,0.000565,0.091841,0.0,0.0,0.0,0.0,0.0,0.087266,3.0,0.325689,0.317374,0.32059,0.337994,0.0,0.0,0.092672,-0.0,-0.0,-0.004149,0.0,0.0,0.0,0.0,0.0,0.0
140724,0.000882,0.000571,0.091841,0.0,0.0,0.0,0.0,0.0,0.087266,3.0,0.326812,0.315334,0.321374,0.338055,0.0,0.0,0.092589,-0.0,-0.0,-0.004102,0.0,0.0,0.0,0.0,0.0,0.0
140744,0.000643,0.000704,0.091963,0.0,0.0,0.0,0.0,0.0,0.087266,3.0,0.322696,0.318976,0.318142,0.341588,0.0,0.0,0.092508,0.0,-0.0,-0.004055,0.0,0.0,0.0,0.0,0.0,0.0
140764,0.000765,0.000698,0.092084,0.0,0.0,0.0,0.0,0.0,0.087266,3.0,0.31738,0.322073,0.315428,0.346026,0.0,0.0,0.092427,-0.0,-0.0,-0.004008,0.0,0.0,0.0,0.0,0.0,0.0
140784,0.000882,0.00057,0.092205,0.0,0.0,0.0,0.0,0.0,0.087266,3.0,0.323774,0.315523,0.32257,0.339644,0.0,0.0,0.092347,0.0,-0.0,-0.003961,0.0,0.0,0.0,0.0,0.0,0.0
140804,0.001126,0.000559,0.092205,0.0,0.0,0.0,0.0,0.0,0.087266,3.0,0.316826,0.319574,0.321063,0.343731,0.0,0.0,0.092268,0.0,-0.0,-0.003914,0.0,0.0,0.0,0.0,0.0,0.0
