time_ms,roll,pitch,yaw,reference_roll,reference_pitch,reference_yaw,reference_throttle,throttle_1,throttle_2,throttle_3,throttle_4,roll_predicted,pitch_predicted,yaw_predicted,roll_rate_predicted,pitch_rate_predicted,yaw_rate_predicted,value1,value2,value3,value4,value5,value6
34696,-0.000488,0.004273,0.000123,-0.0,-0.0,-0.0,3.0,0.314834,0.329959,0.326538,0.332684,-0.0,-0.0,-0.0,0.0,-0.0,0.0,0.017745,-0.018101,-0.016182,0.020706,-0.034325,-0.000202
34716,-0.000366,0.003907,0.000123,0.000944,0.087261,0.001888,3.0,0.372021,0.31947,0.275862,0.32731,0.0,0.000116,0.0,0.000264,0.046335,0.000401,0.017516,-0.018311,-0.016182,0.017627,2e-06,-3.6e-05
34736,-0.000732,0.003662,0.000123,0.002128,0.087241,0.004257,3.0,0.380408,0.310529,0.281833,0.32085,1.4e-05,0.001696,2.2e-05,0.001819,0.129307,0.002889,0.017375,-0.018661,-0.016182,-0.020687,0.017563,0.02102
34756,-0.000854,0.004029,0.000368,0.003383,0.087201,0.006766,3.0,0.382492,0.305339,0.2857,0.319875,6.6e-05,0.00478,0.000107,0.004199,0.191441,0.007081,0.016866,-0.018781,-0.016077,-0.016679,0.038408,0.024892
34776,-0.001218,0.004884,0.00098,0.006157,0.087049,0.012314,3.0,0.387075,0.29156,0.302306,0.311622,0.000172,0.008962,0.000288,0.007616,0.235215,0.013497,0.016661,-0.018202,-0.015708,-0.003687,0.045389,0.045585
34796,-0.001214,0.006838,0.001958,0.00748,0.086945,0.014961,3.0,0.373116,0.301794,0.300846,0.321441,0.000362,0.013906,0.000626,0.012331,0.264436,0.022823,0.016562,-0.016784,-0.014885,-0.007362,0.077035,0.052904
34816,-0.00096,0.010012,0.003301,0.009786,0.086716,0.019572,3.0,0.373741,0.292096,0.322358,0.308393,0.000649,0.019345,0.001157,0.016997,0.282409,0.033149,0.016778,-0.014266,-0.013888,-0.020621,0.171448,0.090978
34836,-0.000575,0.01465,0.004766,0.010911,0.086582,0.021822,3.0,0.358939,0.301183,0.326657,0.313767,0.001044,0.025074,0.001912,0.02205,0.291657,0.045039,0.017142,-0.010387,-0.012439,0.004472,0.262054,0.094389
34856,0.000311,0.020629,0.006468,0.013136,0.086272,0.026273,3.0,0.349257,0.299713,0.339661,0.312433,0.001544,0.030935,0.002906,0.026672,0.29429,0.057087,0.017656,-0.005043,-0.01073,0.046858,0.310447,0.072726
34876,0.001214,0.027707,0.008288,0.014205,0.086103,0.028411,3.0,0.333301,0.308008,0.344825,0.316557,0.002155,0.036807,0.004155,0.031429,0.291833,0.069926,0.018514,0.001377,-0.008922,0.076336,0.362755,0.09666
34896,0.002383,0.035879,0.010342,0.016396,0.085712,0.032793,3.0,0.321205,0.307464,0.354027,0.31921,0.002872,0.042599,0.005658,0.035717,0.285624,0.082426,0.019465,0.008932,-0.006878,0.111847,0.42828,0.09939
34916,0.003948,0.045147,0.012623,0.018183,0.085351,0.036366,3.0,0.313776,0.304275,0.370078,0.310426,0.003698,0.048241,0.007422,0.040203,0.276535,0.095395,0.020856,0.017684,-0.004832,0.057865,0.456448,0.121113
34936,0.005781,0.054409,0.015008,0.019972,0.08495,0.039943,3.0,0.307799,0.305372,0.380229,0.302111,0.004636,0.053683,0.009449,0.044576,0.26538,0.108254,0.022645,0.027057,-0.00256,0.086993,0.480317,0.119624
34956,0.007651,0.064401,0.017624,0.02088,0.084732,0.04176,3.0,0.286541,0.313221,0.38107,0.313337,0.005686,0.058887,0.011737,0.048567,0.25282,0.120463,0.024427,0.036772,-7.5e-05,0.119159,0.508312,0.121459
34976,0.009794,0.074263,0.020339,0.023432,0.084062,0.046864,3.0,0.289475,0.306688,0.39396,0.299661,0.006833,0.063829,0.014261,0.052015,0.239371,0.131535,0.026642,0.046759,0.002542,0.086576,0.5081,0.138772
34996,0.012329,0.083625,0.023146,0.024638,0.083716,0.049275,3.0,0.270762,0.321419,0.386122,0.311749,0.008084,0.068491,0.017018,0.055973,0.225129,0.142968,0.028785,0.056391,0.005463,0.111725,0.482491,0.123035
35016,0.014766,0.092374,0.026071,0.026772,0.083058,0.053544,3.0,0.278545,0.315041,0.391052,0.305101,0.009436,0.07286,0.019996,0.05937,0.210651,0.153148,0.031226,0.065435,0.008268,0.109571,0.450934,0.144319
35036,0.016978,0.10026,0.029116,0.027931,0.082676,0.055862,3.0,0.280078,0.314357,0.390664,0.305002,0.010886,0.076932,0.023183,0.06281,0.19598,0.1629,0.033548,0.073708,0.011214,0.131337,0.362082,0.159489
35056,0.019201,0.106802,0.032289,0.029277,0.082209,0.058554,3.0,0.280537,0.315151,0.390322,0.304239,0.012426,0.080705,0.026556,0.065556,0.181521,0.171054,0.035885,0.081095,0.014252,0.131883,0.300223,0.160211
35076,0.021544,0.112108,0.03545,0.031356,0.081438,0.062713,3.0,0.293275,0.313332,0.386022,0.300333,0.014042,0.084184,0.030084,0.067922,0.167311,0.17794,0.038208,0.086833,0.017417,0.11664,0.2858,0.18151
35096,0.023523,0.115942,0.038879,0.032452,0.081008,0.064903,3.0,0.292838,0.320174,0.374657,0.308826,0.015733,0.087371,0.033753,0.07046,0.153245,0.18439,0.040448,0.09145,0.020692,0.090416,0.212928,0.166173
35116,0.025361,0.118808,0.042083,0.034869,0.079997,0.069738,3.0,0.303819,0.311082,0.376733,0.305001,0.01749,0.090272,0.03754,0.072651,0.139576,0.189661,0.042315,0.094937,0.024012,0.085557,0.125,0.165951
35136,0.026697,0.120077,0.045563,0.036554,0.079241,0.073109,3.0,0.305348,0.31316,0.36608,0.314984,0.019317,0.092892,0.041437,0.075256,0.126034,0.194973,0.043803,0.097087,0.027477,0.081194,0.056271,0.167916
35156,0.028026,0.120487,0.049175,0.037361,0.078864,0.074723,3.0,0.306331,0.318437,0.354625,0.32235,0.021214,0.095235,0.045435,0.077387,0.113018,0.199114,0.045154,0.098061,0.030966,0.07789,0.01952,0.188434
35176,0.028988,0.120536,0.052936,0.03903,0.078052,0.07806,3.0,0.311203,0.318144,0.348906,0.324466,0.02316,0.097315,0.049499,0.078682,0.100747,0.201444,0.046334,0.098137,0.034591,0.039331,-0.007431,0.191097
35196,0.029675,0.119983,0.056476,0.040854,0.077113,0.081709,3.0,0.317863,0.311504,0.349994,0.32325,0.025144,0.099143,0.053605,0.080042,0.088827,0.203249,0.047173,0.097814,0.038232,0.054108,-0.049632,0.169122
35216,0.03046,0.119177,0.059755,0.041943,0.076526,0.083885,3.0,0.31736,0.313615,0.347063,0.324961,0.027168,0.100726,0.057744,0.081445,0.077258,0.204608,0.047959,0.097133,0.041766,0.03646,-0.070031,0.170444
35236,0.031132,0.118254,0.063299,0.043465,0.075672,0.086929,3.0,0.319951,0.312066,0.344984,0.326168,0.029222,0.102075,0.061897,0.082429,0.066283,0.204891,0.04862,0.0961,0.045178,0.037397,-0.031889,0.170092
35256,0.031699,0.117942,0.066841,0.045242,0.074623,0.090484,3.0,0.313012,0.31269,0.345464,0.33166,0.0313,0.103199,0.066047,0.083202,0.055803,0.204426,0.049215,0.095548,0.048704,0.051533,-0.011863,0.17262
35276,0.032635,0.117981,0.070234,0.046124,0.074081,0.092248,3.0,0.317486,0.305028,0.357532,0.321169,0.033397,0.104107,0.070183,0.08392,0.045721,0.203508,0.050003,0.095441,0.052019,0.056975,0.015776,0.185477
35296,0.033705,0.118132,0.073738,0.048188,0.072755,0.096377,3.0,0.314714,0.306318,0.360017,0.319789,0.035503,0.104812,0.074285,0.084293,0.03621,0.20173,0.051056,0.095596,0.055526,0.018632,0.039479,0.168603
35316,0.034794,0.118897,0.077124,0.049282,0.072019,0.098564,3.0,0.305248,0.315269,0.35746,0.32321,0.03762,0.105319,0.078351,0.084951,0.026861,0.200118,0.052224,0.095993,0.059015,0.027453,0.079726,0.16933
35336,0.036245,0.11976,0.080348,0.051182,0.070681,0.102364,3.0,0.305458,0.308516,0.365672,0.319883,0.039743,0.105638,0.082371,0.085253,0.018072,0.197802,0.05335,0.096836,0.062384,0.06181,0.065542,0.16948
35356,0.03784,0.12086,0.083696,0.052792,0.069487,0.105584,3.0,0.309851,0.304444,0.371935,0.311849,0.04187,0.105775,0.086341,0.085821,0.009402,0.195764,0.054913,0.097717,0.065632,0.065974,0.082176,0.165277
35376,0.039806,0.121813,0.087142,0.054247,0.068357,0.108493,3.0,0.303435,0.310173,0.370885,0.313822,0.044003,0.105734,0.090263,0.086327,0.001051,0.193624,0.056613,0.098811,0.068954,0.09231,0.080036,0.18832
35396,0.042027,0.122743,0.090692,0.055671,0.067203,0.111342,3.0,0.295579,0.31749,0.366907,0.318753,0.04614,0.105523,0.094133,0.08665,-0.006903,0.191239,0.058589,0.099757,0.072524,0.112009,0.079314,0.165741
35416,0.044119,0.12356,0.094146,0.056375,0.066613,0.11275,3.0,0.283327,0.329717,0.360022,0.325102,0.048274,0.10515,0.097944,0.08661,-0.014309,0.18834,0.060918,0.100685,0.076063,0.093727,0.057734,0.168501
35436,0.046454,0.12435,0.097563,0.058233,0.064995,0.116466,3.0,0.291516,0.319267,0.372065,0.314277,0.050392,0.104632,0.101681,0.086116,-0.021069,0.184712,0.063147,0.101573,0.079381,0.111468,0.042672,0.184837
35456,0.049014,0.125002,0.10072,0.059396,0.063934,0.118793,3.0,0.293983,0.318433,0.374389,0.309927,0.052494,0.103972,0.105342,0.086017,-0.027916,0.181644,0.065593,0.102231,0.082668,0.109744,0.02332,0.167346
35476,0.051436,0.125287,0.103891,0.060183,0.063193,0.120366,3.0,0.294015,0.319381,0.373294,0.31032,0.054581,0.103176,0.108928,0.085413,-0.034074,0.17787,0.068022,0.102641,0.085859,0.108415,0.001997,0.163388
35496,0.053725,0.125328,0.107074,0.061954,0.061458,0.123908,3.0,0.289962,0.323416,0.369994,0.313979,0.05664,0.10226,0.112424,0.084513,-0.039705,0.173628,0.070446,0.102815,0.089136,0.107201,-0.001583,0.146213
35516,0.055867,0.124882,0.110276,0.062831,0.060562,0.125661,3.0,0.287824,0.326398,0.364101,0.319944,0.058672,0.101227,0.115832,0.083941,-0.045421,0.169885,0.072618,0.102649,0.09233,0.103437,-0.030554,0.168112
35536,0.05813,0.124296,0.113594,0.064349,0.058946,0.128697,3.0,0.287764,0.325368,0.366263,0.318467,0.060677,0.100083,0.119151,0.083024,-0.050577,0.165693,0.074766,0.10232,0.095525,0.122592,-0.05406,0.164433
35556,0.060109,0.123228,0.116798,0.065067,0.058152,0.130134,3.0,0.290569,0.32661,0.361439,0.320489,0.062653,0.098833,0.122381,0.08223,-0.055658,0.161763,0.07688,0.101408,0.098756,0.102154,-0.039277,0.161601
35576,0.061946,0.122055,0.119792,0.066745,0.056219,0.133489,3.0,0.300389,0.319947,0.365348,0.313737,0.064595,0.097487,0.125518,0.081206,-0.060297,0.15758,0.078827,0.100256,0.101844,0.08442,-0.045975,0.162396
35596,0.063524,0.120764,0.122785,0.067912,0.054804,0.135823,3.0,0.30145,0.316566,0.366068,0.315294,0.066509,0.096044,0.128568,0.0805,-0.065128,0.153996,0.080422,0.098947,0.104835,0.098832,-0.083246,0.145256
35616,0.064956,0.119238,0.125671,0.068486,0.054084,0.136972,3.0,0.300838,0.317941,0.365937,0.314642,0.068395,0.094505,0.131537,0.079562,-0.069542,0.150257,0.082111,0.097516,0.107739,0.07588,-0.100168,0.140259
35636,0.066482,0.117335,0.12856,0.069621,0.052615,0.139242,3.0,0.294574,0.32528,0.357202,0.323245,0.070245,0.092886,0.134416,0.078149,-0.073197,0.145929,0.083531,0.095757,0.110736,0.096663,-0.105563,0.142656
35656,0.067994,0.115306,0.131453,0.070797,0.051021,0.141595,3.0,0.292227,0.3296,0.352317,0.326411,0.072054,0.091195,0.137201,0.076851,-0.076821,0.141841,0.085036,0.093743,0.113752,0.080526,-0.065622,0.121893
35676,0.069373,0.113286,0.134233,0.071723,0.049711,0.143446,3.0,0.294736,0.327434,0.355225,0.32317,0.073826,0.089432,0.139899,0.075747,-0.080564,0.13816,0.086547,0.091838,0.116519,0.07885,-0.086541,0.122691
35696,0.070725,0.111151,0.136776,0.072463,0.048627,0.144925,3.0,0.304884,0.319384,0.359763,0.316801,0.075562,0.087597,0.142513,0.074402,-0.083844,0.134275,0.087924,0.089739,0.119078,0.076602,-0.073985,0.139022
35716,0.07242,0.108741,0.139303,0.073818,0.046543,0.147637,3.0,0.308301,0.318524,0.362335,0.311271,0.077257,0.085703,0.145039,0.072928,-0.086798,0.13031,0.0895,0.087583,0.121602,0.05784,-0.093429,0.141757
35736,0.073993,0.106332,0.141962,0.074304,0.045764,0.148608,3.0,0.3065,0.32339,0.358648,0.312455,0.078913,0.083748,0.147483,0.071628,-0.089895,0.126734,0.09117,0.085166,0.12411,0.06179,-0.092827,0.145158
35756,0.075799,0.104031,0.14436,0.075561,0.043658,0.151121,3.0,0.306217,0.32226,0.361739,0.310159,0.080529,0.08174,0.149843,0.07012,-0.092557,0.122979,0.092887,0.082858,0.126657,0.075666,-0.111507,0.120209
35776,0.0776,0.101726,0.14676,0.076199,0.042534,0.152398,3.0,0.29757,0.328822,0.35694,0.317215,0.082105,0.079676,0.152124,0.0688,-0.095438,0.119641,0.094571,0.080523,0.129188,0.074511,-0.125055,0.120657
35796,0.079516,0.099406,0.149154,0.077356,0.040391,0.154712,3.0,0.294947,0.332704,0.356065,0.316513,0.083643,0.077562,0.154329,0.067299,-0.097929,0.116177,0.09648,0.078203,0.131704,0.097644,-0.126442,0.098474
35816,0.081539,0.096962,0.151454,0.077788,0.039554,0.155576,3.0,0.295166,0.333957,0.353824,0.317583,0.085142,0.075396,0.156461,0.065905,-0.100549,0.113017,0.098397,0.075764,0.133966,0.092178,-0.147451,0.102676
35836,0.083771,0.09425,0.153602,0.078699,0.037709,0.157397,3.0,0.302245,0.328922,0.358263,0.311151,0.0866,0.073189,0.158518,0.064215,-0.102535,0.109537,0.100418,0.073193,0.136139,0.108597,-0.148897,0.098062
35856,0.085861,0.091428,0.155645,0.079493,0.036005,0.158986,3.0,0.302014,0.33162,0.356764,0.310252,0.088015,0.070943,0.1605,0.062627,-0.104649,0.106296,0.102629,0.070479,0.13829,0.089493,-0.168379,0.100091
35876,0.088071,0.088585,0.157806,0.080232,0.034327,0.160463,3.0,0.304308,0.33011,0.358031,0.308135,0.089389,0.068657,0.162412,0.061058,-0.106758,0.103186,0.104735,0.067653,0.140351,0.106943,-0.170806,0.116314
35896,0.090251,0.085501,0.159859,0.080686,0.033245,0.161372,3.0,0.300017,0.33839,0.350714,0.311867,0.090723,0.066333,0.164256,0.059432,-0.108711,0.100098,0.107038,0.064696,0.142492,0.111927,-0.152556,0.103615
35916,0.092308,0.082551,0.161798,0.081154,0.032085,0.162309,3.0,0.303668,0.335013,0.353283,0.309082,0.092013,0.063978,0.166028,0.057548,-0.110003,0.096701,0.109097,0.061746,0.144446,0.091706,-0.15167,0.122123
35936,0.09435,0.079475,0.163746,0.082104,0.029569,0.164209,3.0,0.307736,0.334175,0.35363,0.305567,0.093256,0.061606,0.167727,0.055668,-0.111231,0.093335,0.111132,0.058713,0.146434,0.094379,-0.138279,0.093056
35956,0.096255,0.076419,0.165465,0.082498,0.028453,0.164995,3.0,0.306647,0.336044,0.350179,0.308701,0.094455,0.059206,0.169356,0.053978,-0.112919,0.090304,0.113063,0.05567,0.14825,0.090226,-0.141997,0.097371
35976,0.098014,0.073128,0.167205,0.083314,0.025965,0.166628,3.0,0.311576,0.332028,0.354285,0.30326,0.095611,0.056781,0.170917,0.052175,-0.114297,0.087173,0.114961,0.052607,0.149962,0.068824,-0.161473,0.120935
35996,0.099659,0.069959,0.169071,0.083616,0.024976,0.167232,3.0,0.310497,0.335168,0.351361,0.304387,0.096726,0.054328,0.172413,0.050481,-0.116023,0.084278,0.116697,0.049297,0.151705,0.072013,-0.156898,0.100238
36016,0.101267,0.066565,0.170592,0.084298,0.022569,0.168595,3.0,0.318674,0.32939,0.354182,0.298828,0.097797,0.05185,0.173843,0.048636,-0.117305,0.081222,0.118333,0.045931,0.153359,0.067938,-0.143848,0.090884
36036,0.102732,0.063056,0.172098,0.084582,0.02148,0.169163,3.0,0.3136,0.334771,0.348112,0.305548,0.098826,0.049346,0.175208,0.04685,-0.118839,0.078308,0.119818,0.042521,0.15501,0.043698,-0.179809,0.093945
36056,0.104055,0.059316,0.173658,0.085078,0.019419,0.170157,3.0,0.307954,0.341452,0.339696,0.313401,0.099811,0.046823,0.176508,0.044905,-0.119824,0.075198,0.121158,0.038916,0.156663,0.063436,-0.184688,0.07644
36076,0.105248,0.055592,0.175108,0.085472,0.017605,0.170944,3.0,0.312437,0.338378,0.341382,0.310509,0.100751,0.044283,0.177743,0.042988,-0.120977,0.072151,0.122486,0.035176,0.15807,0.039767,-0.181843,0.083449
36096,0.106417,0.051743,0.176536,0.085824,0.015804,0.171647,3.0,0.318056,0.335548,0.343125,0.305898,0.101647,0.041725,0.178911,0.041049,-0.122113,0.06909,0.123645,0.031336,0.159426,0.042104,-0.182432,0.074317
36116,0.107451,0.047798,0.177773,0.085985,0.0149,0.17197,3.0,0.318364,0.335338,0.341196,0.308047,0.102498,0.039151,0.180014,0.039034,-0.122958,0.065934,0.124724,0.027501,0.16074,0.055898,-0.182139,0.058748
36136,0.10848,0.043986,0.178736,0.086428,0.012067,0.172856,3.0,0.318775,0.337258,0.339891,0.306946,0.103302,0.036572,0.181049,0.036936,-0.123427,0.062645,0.125859,0.023546,0.161974,0.058357,-0.182797,0.053271
36156,0.109505,0.040039,0.179981,0.086602,0.01075,0.173204,3.0,0.316754,0.339061,0.335868,0.311547,0.10406,0.03398,0.182016,0.03494,-0.124667,0.059502,0.12677,0.019596,0.16307,0.05424,-0.199256,0.060302
36176,0.110403,0.036237,0.180957,0.086743,0.009546,0.173485,3.0,0.314226,0.342754,0.333538,0.312512,0.104773,0.031375,0.182915,0.032828,-0.125214,0.056191,0.127783,0.015782,0.164173,0.035387,-0.197268,0.038836
36196,0.111184,0.032447,0.181975,0.08695,0.007426,0.1739,3.0,0.321432,0.338011,0.339084,0.304182,0.105438,0.028771,0.183745,0.030651,-0.125317,0.052766,0.128802,0.011973,0.165061,0.015865,-0.197021,0.079213
36216,0.112084,0.028772,0.182832,0.087113,0.005179,0.174225,3.0,0.32409,0.33315,0.346401,0.298165,0.106056,0.026168,0.184505,0.028501,-0.125896,0.049362,0.129597,0.008397,0.165966,0.015055,-0.188484,0.049204
36236,0.112749,0.025248,0.183576,0.087179,0.00391,0.174358,3.0,0.321717,0.337452,0.33831,0.305413,0.106627,0.023557,0.185194,0.026342,-0.126683,0.045931,0.130244,0.00466,0.166821,0.038795,-0.155159,0.029772
36256,0.113417,0.021732,0.184236,0.087252,0.001611,0.174503,3.0,0.319538,0.340496,0.333873,0.309257,0.107151,0.020942,0.185811,0.024132,-0.127035,0.042415,0.130921,0.001013,0.167606,0.053915,-0.177585,0.030418
36276,0.114076,0.018215,0.184866,0.087265,0.000556,0.174529,3.0,0.321542,0.340606,0.334065,0.306799,0.107628,0.018324,0.186355,0.021905,-0.127535,0.038856,0.131705,-0.002496,0.168228,0.036365,-0.136834,0.008927
36296,0.114663,0.015202,0.185391,0.087257,-0.00129,0.174514,3.0,0.321207,0.339575,0.33564,0.306566,0.108057,0.01571,0.186827,0.019649,-0.127354,0.03524,0.132262,-0.00575,0.16873,0.036502,-0.138009,0.029519
36316,0.11512,0.012207,0.185768,0.08721,-0.003144,0.17442,3.0,0.32321,0.334052,0.342812,0.30243,0.108439,0.013106,0.187226,0.017375,-0.127279,0.031583,0.13277,-0.008662,0.169151,0.048457,-0.152699,0.026396
36336,0.115686,0.009079,0.18615,0.087123,-0.004997,0.174247,3.0,0.319004,0.339924,0.335869,0.308239,0.108774,0.010511,0.18755,0.01508,-0.127313,0.02788,0.133196,-0.011785,0.169657,0.031504,-0.149739,0.006488
36356,0.116274,0.006208,0.186283,0.08705,-0.006136,0.174101,3.0,0.318193,0.343999,0.33453,0.305882,0.10906,0.007923,0.1878,0.012771,-0.127293,0.024141,0.13386,-0.014798,0.170031,0.015886,-0.169399,0.008226
36376,0.116735,0.00322,0.186581,0.086928,-0.007678,0.173856,3.0,0.313325,0.346144,0.331566,0.311697,0.1093,0.005347,0.187976,0.010477,-0.126808,0.020417,0.134224,-0.017672,0.17032,0.03178,-0.187154,-0.010447
36396,0.117068,0.000258,0.186612,0.086679,-0.010106,0.173359,3.0,0.31786,0.34318,0.334626,0.307081,0.109493,0.002791,0.188078,0.008168,-0.126326,0.016671,0.134682,-0.020626,0.17033,0.014149,-0.148718,0.011378
36416,0.11728,-0.002693,0.186648,0.086545,-0.0112,0.17309,3.0,0.327039,0.33613,0.340636,0.29834,0.109639,0.000247,0.188105,0.005808,-0.126237,0.012842,0.135015,-0.023584,0.170276,-0.006615,-0.146057,0.004718
36436,0.117502,-0.005522,0.186678,0.086209,-0.013541,0.172419,3.0,0.320063,0.341203,0.336545,0.304874,0.109738,-0.002282,0.188057,0.003474,-0.125806,0.009049,0.135273,-0.026433,0.170289,0.027938,-0.144537,-0.013187
36456,0.11797,-0.008359,0.186465,0.085837,-0.015732,0.171673,3.0,0.323386,0.342341,0.335425,0.301214,0.10979,-0.004798,0.187932,0.001038,-0.125931,0.005099,0.135715,-0.029363,0.170217,0.012076,-0.130614,0.003251
36476,0.118062,-0.011291,0.186389,0.085636,-0.016791,0.171272,3.0,0.315403,0.349415,0.327096,0.310616,0.109793,-0.007312,0.187727,-0.001439,-0.126187,0.001066,0.135915,-0.032207,0.170234,0.016743,-0.124964,-0.034155
36496,0.118388,-0.014352,0.186077,0.085206,-0.018851,0.170412,3.0,0.322093,0.343427,0.332049,0.305189,0.109749,-0.009815,0.187444,-0.003831,-0.125874,-0.002851,0.136046,-0.03513,0.169935,0.025781,-0.16996,0.005415
36516,0.118593,-0.017402,0.18577,0.084778,-0.020693,0.169555,3.0,0.328487,0.33872,0.338835,0.295762,0.109659,-0.012306,0.187082,-0.006294,-0.125771,-0.006871,0.136353,-0.03822,0.169523,-0.011487,-0.158702,0.002427
36536,0.118433,-0.020403,0.185198,0.084321,-0.022482,0.168641,3.0,0.331618,0.337013,0.338416,0.294672,0.10952,-0.014786,0.186641,-0.008789,-0.125695,-0.010944,0.136422,-0.041354,0.169071,-0.028387,-0.11758,-0.019914
36556,0.118258,-0.023648,0.184674,0.083831,-0.024244,0.167662,3.0,0.334332,0.339183,0.333435,0.294803,0.109334,-0.017256,0.186119,-0.011306,-0.125592,-0.015055,0.136352,-0.044576,0.168562,-0.006184,-0.147795,-0.022434
36576,0.11833,-0.026908,0.184028,0.083501,-0.025357,0.167003,3.0,0.327524,0.344462,0.327413,0.303201,0.1091,-0.019715,0.185515,-0.013805,-0.125335,-0.019143,0.136222,-0.047725,0.168134,0.008426,-0.143247,-0.060166
36596,0.118287,-0.030034,0.183344,0.082816,-0.027513,0.165632,3.0,0.325936,0.346738,0.322314,0.3078,0.108821,-0.022154,0.184835,-0.016187,-0.124593,-0.023036,0.136047,-0.050924,0.167438,0.009369,-0.131316,-0.036588
36616,0.118002,-0.033254,0.182585,0.082511,-0.028415,0.165022,3.0,0.331091,0.341275,0.328307,0.301976,0.108496,-0.024575,0.184077,-0.018651,-0.124038,-0.027022,0.135921,-0.053932,0.16668,0.022979,-0.170642,-0.038031
36636,0.117974,-0.036375,0.181816,0.081816,-0.030357,0.163633,3.0,0.330274,0.34423,0.3233,0.304926,0.108128,-0.026969,0.183245,-0.020951,-0.12294,-0.030722,0.135765,-0.057288,0.165926,0.021424,-0.149305,-0.039182
36656,0.117834,-0.039355,0.180889,0.081003,-0.032465,0.162006,3.0,0.333378,0.342806,0.329267,0.296402,0.107716,-0.029338,0.182342,-0.023431,-0.122266,-0.034642,0.135831,-0.060304,0.165019,-0.035851,-0.162644,-0.021784
36676,0.117571,-0.042448,0.180003,0.080607,-0.033436,0.161213,3.0,0.32925,0.350123,0.320125,0.302442,0.107258,-0.031688,0.18136,-0.026001,-0.121797,-0.038692,0.13565,-0.063392,0.164229,-0.046261,-0.142431,-0.058997
36696,0.117087,-0.045268,0.178951,0.079652,-0.035652,0.159303,3.0,0.328689,0.347996,0.323467,0.302015,0.106755,-0.034015,0.180304,-0.028432,-0.120939,-0.042522,0.135321,-0.066242,0.163182,-0.012358,-0.14279,-0.039927
36716,0.1165,-0.04795,0.177772,0.079203,-0.036638,0.158406,3.0,0.333449,0.340516,0.330067,0.298167,0.106207,-0.036323,0.179171,-0.030995,-0.120352,-0.046537,0.134768,-0.068947,0.162048,0.00217,-0.140183,-0.042752
36736,0.116169,-0.050649,0.176504,0.07826,-0.038611,0.15652,3.0,0.33302,0.343937,0.325837,0.299356,0.105615,-0.038605,0.177964,-0.033393,-0.119365,-0.050288,0.134276,-0.071742,0.160875,-0.033338,-0.11867,-0.064222
36756,0.115389,-0.052827,0.175294,0.077419,-0.04027,0.154839,3.0,0.326585,0.348693,0.323284,0.303717,0.104979,-0.040864,0.176684,-0.035934,-0.118631,-0.054225,0.133677,-0.074194,0.159682,-0.067117,-0.112263,-0.064611
36776,0.114351,-0.055221,0.173977,0.076557,-0.041887,0.153114,3.0,0.322453,0.349503,0.318096,0.312672,0.104298,-0.043101,0.175328,-0.038514,-0.117937,-0.058217,0.132558,-0.076446,0.158459,-0.011502,-0.120045,-0.081244
36796,0.113107,-0.057233,0.172634,0.07611,-0.042693,0.15222,3.0,0.329144,0.340991,0.327541,0.305343,0.103572,-0.045317,0.173896,-0.040991,-0.117029,-0.062055,0.131582,-0.078612,0.157028,-0.017324,-0.095692,-0.06687
36816,0.11209,-0.059502,0.171184,0.075017,-0.044586,0.150034,3.0,0.330075,0.340624,0.326751,0.305604,0.102806,-0.047502,0.172396,-0.0432,-0.115603,-0.065442,0.130472,-0.080752,0.155571,-0.043478,-0.114534,-0.065768
36836,0.110864,-0.061379,0.169559,0.074246,-0.045858,0.148492,3.0,0.330454,0.342197,0.327139,0.30291,0.102,-0.049657,0.170829,-0.045687,-0.11461,-0.069179,0.129412,-0.082896,0.154126,-0.113403,-0.087945,-0.070307
36856,0.109359,-0.063735,0.168106,0.073409,-0.047187,0.146817,3.0,0.327499,0.34434,0.322503,0.308705,0.101151,-0.051784,0.169194,-0.048055,-0.113408,-0.072711,0.127935,-0.084887,0.152656,-0.075512,-0.131389,-0.093703
36876,0.108129,-0.065858,0.166399,0.07203,-0.049265,0.144061,3.0,0.323409,0.347785,0.318126,0.313632,0.100263,-0.053881,0.167494,-0.050454,-0.112221,-0.076247,0.126624,-0.087129,0.151058,-0.043237,-0.113134,-0.091071
36896,0.107015,-0.068113,0.164696,0.071278,-0.050348,0.142555,3.0,0.325754,0.346096,0.322379,0.308678,0.099331,-0.055953,0.165722,-0.053115,-0.111411,-0.080176,0.125503,-0.089153,0.149316,-0.060662,-0.129726,-0.085966
36916,0.10604,-0.070253,0.162864,0.069909,-0.052232,0.139818,3.0,0.330303,0.346998,0.319887,0.305285,0.098357,-0.057999,0.163879,-0.055576,-0.110296,-0.083826,0.12448,-0.09164,0.147523,-0.074346,-0.090012,-0.092154
36936,0.105187,-0.072518,0.160918,0.069335,-0.052991,0.13867,3.0,0.331686,0.347442,0.3205,0.302539,0.097338,-0.06002,0.161963,-0.058139,-0.109305,-0.08764,0.123471,-0.093776,0.145685,-0.068216,-0.111939,-0.090146
36956,0.104206,-0.074899,0.158974,0.067993,-0.054703,0.135986,3.0,0.333461,0.348491,0.315768,0.304313,0.09628,-0.062012,0.159982,-0.060362,-0.107839,-0.090925,0.122498,-0.096263,0.143753,-0.008903,-0.118834,-0.110661
36976,0.103463,-0.07742,0.157038,0.066776,-0.056182,0.133552,3.0,0.329147,0.350453,0.312804,0.309823,0.095184,-0.063972,0.157936,-0.062853,-0.106675,-0.094561,0.121583,-0.098524,0.141802,0.000228,-0.120903,-0.090071
36996,0.102987,-0.079717,0.15509,0.06557,-0.057585,0.131139,3.0,0.332617,0.351762,0.31539,0.301694,0.094045,-0.065906,0.155822,-0.06541,-0.105568,-0.0983,0.121051,-0.100957,0.139783,-0.053079,-0.133148,-0.097746
37016,0.102022,-0.082213,0.152904,0.064957,-0.058276,0.129913,3.0,0.338118,0.348897,0.317616,0.296401,0.092864,-0.067812,0.153636,-0.067812,-0.104271,-0.101824,0.120435,-0.103342,0.137717,-0.089667,-0.11364,-0.099564
37036,0.101315,-0.084606,0.150713,0.063634,-0.059717,0.127269,3.0,0.340713,0.349717,0.316787,0.293137,0.091648,-0.069684,0.151392,-0.069789,-0.102472,-0.104656,0.119717,-0.105858,0.135551,-0.048146,-0.138035,-0.096567
37056,0.100366,-0.087099,0.1484,0.062104,-0.061307,0.124208,3.0,0.335803,0.351281,0.312894,0.301259,0.090398,-0.07152,0.149095,-0.072105,-0.100998,-0.107898,0.11882,-0.108254,0.133337,-0.016033,-0.1359,-0.113091
37076,0.099676,-0.08949,0.146083,0.060959,-0.062445,0.121918,3.0,0.335751,0.353003,0.312086,0.300038,0.089107,-0.073326,0.146733,-0.074729,-0.099822,-0.111598,0.117968,-0.110632,0.131018,-0.068953,-0.111385,-0.11569
37096,0.098521,-0.091723,0.143623,0.060049,-0.063321,0.120099,3.0,0.343317,0.347559,0.31775,0.291573,0.087775,-0.075104,0.144304,-0.077026,-0.098323,-0.11485,0.117006,-0.113001,0.128588,-0.082045,-0.110348,-0.119988
37116,0.097128,-0.093944,0.141152,0.058187,-0.065036,0.116374,3.0,0.333553,0.352693,0.30727,0.307868,0.086409,-0.076846,0.141819,-0.079139,-0.096619,-0.11779,0.115552,-0.115221,0.126222,-0.034048,-0.111946,-0.140442
37136,0.095741,-0.096169,0.138676,0.057501,-0.065644,0.115001,3.0,0.338303,0.350451,0.306723,0.305735,0.085005,-0.078557,0.139274,-0.081531,-0.095156,-0.121123,0.114294,-0.117557,0.123757,-0.058577,-0.114225,-0.141134
37156,0.094383,-0.098149,0.136061,0.055772,-0.067119,0.111544,3.0,0.330715,0.355978,0.302976,0.311257,0.083567,-0.080232,0.136675,-0.083573,-0.093364,-0.123908,0.112927,-0.119554,0.121248,-0.05821,-0.111113,-0.137693
37176,0.092908,-0.100125,0.133438,0.054927,-0.067812,0.109855,3.0,0.340622,0.346425,0.315793,0.298449,0.082093,-0.081873,0.13402,-0.085774,-0.091694,-0.126892,0.111561,-0.12142,0.1185,-0.095758,-0.106938,-0.118566
37196,0.091322,-0.101853,0.130891,0.053243,-0.069142,0.106486,3.0,0.336098,0.351434,0.311623,0.302063,0.080588,-0.083477,0.131318,-0.087678,-0.089764,-0.129385,0.110077,-0.123292,0.115865,-0.091359,-0.103707,-0.118187
37216,0.089645,-0.10357,0.127995,0.051765,-0.070256,0.103529,3.0,0.343801,0.344794,0.315151,0.2973,0.079051,-0.085044,0.128567,-0.089835,-0.088016,-0.132204,0.108391,-0.12524,0.113121,-0.092792,-0.064429,-0.128294
37236,0.087714,-0.105404,0.125211,0.050266,-0.071335,0.100532,3.0,0.33857,0.349568,0.308135,0.305064,0.077478,-0.086577,0.125763,-0.092071,-0.086314,-0.135145,0.106575,-0.126957,0.110442,-0.072674,-0.127759,-0.163144
37256,0.08591,-0.107368,0.12231,0.048628,-0.072462,0.097256,3.0,0.341042,0.347091,0.307229,0.306081,0.075869,-0.088076,0.122905,-0.094373,-0.084645,-0.138219,0.104701,-0.128895,0.107541,-0.061401,-0.091567,-0.144038
37276,0.084113,-0.109208,0.119375,0.047615,-0.073132,0.09523,3.0,0.341932,0.346818,0.311823,0.300639,0.074223,-0.089542,0.119987,-0.096696,-0.082977,-0.141385,0.102988,-0.130514,0.104619,-0.114686,-0.12731,-0.143837
37296,0.081848,-0.11103,0.116314,0.046766,-0.073678,0.093531,3.0,0.35111,0.339529,0.31532,0.294435,0.072543,-0.090972,0.117018,-0.098354,-0.080867,-0.143567,0.101088,-0.1326,0.101588,-0.116542,-0.084166,-0.14992
37316,0.080075,-0.112884,0.113267,0.044351,-0.075156,0.088701,3.0,0.348127,0.344603,0.31037,0.297342,0.070842,-0.09236,0.114016,-0.1,-0.078712,-0.145605,0.099046,-0.134412,0.098533,-0.111562,-0.089405,-0.150703
37336,0.077935,-0.11473,0.110319,0.043296,-0.075769,0.086592,3.0,0.341044,0.350741,0.3005,0.308368,0.069108,-0.093711,0.110968,-0.102217,-0.076893,-0.148455,0.096875,-0.136276,0.095694,-0.085317,-0.086471,-0.167389
37356,0.075808,-0.116577,0.107242,0.041222,-0.076917,0.082443,3.0,0.340435,0.349013,0.300626,0.310978,0.067343,-0.095025,0.107873,-0.104163,-0.074904,-0.150933,0.094684,-0.137993,0.092608,-0.098594,-0.108228,-0.145718
37376,0.073444,-0.11842,0.104146,0.040143,-0.077485,0.080287,3.0,0.344763,0.345947,0.302815,0.307481,0.065543,-0.096303,0.104727,-0.106351,-0.073034,-0.153813,0.092561,-0.139844,0.089527,-0.118073,-0.106829,-0.167906
37396,0.071097,-0.120255,0.10078,0.038118,-0.078501,0.076237,3.0,0.348615,0.34339,0.305625,0.303122,0.063713,-0.097544,0.101534,-0.108155,-0.070947,-0.156152,0.090336,-0.141687,0.086188,-0.117873,-0.087008,-0.148153
37416,0.069009,-0.121992,0.097433,0.037136,-0.078971,0.074272,3.0,0.354717,0.337773,0.312736,0.294772,0.061852,-0.098747,0.098293,-0.110136,-0.068931,-0.158764,0.088103,-0.143434,0.082857,-0.113057,-0.103787,-0.172336
37436,0.066805,-0.123732,0.094073,0.035436,-0.079748,0.070871,3.0,0.349384,0.343995,0.301723,0.305372,0.059965,-0.09991,0.095013,-0.111565,-0.066639,-0.16053,0.085761,-0.145272,0.079603,-0.089837,-0.087426,-0.189627
37456,0.064487,-0.125364,0.090834,0.033751,-0.080475,0.067502,3.0,0.344465,0.345856,0.297151,0.31333,0.058055,-0.101033,0.091701,-0.113151,-0.0644,-0.162446,0.083348,-0.146906,0.076348,-0.099163,-0.105329,-0.168922
37476,0.06192,-0.126989,0.087679,0.032049,-0.081168,0.064099,3.0,0.344205,0.346783,0.295589,0.314008,0.056119,-0.102115,0.088354,-0.114842,-0.06219,-0.164478,0.08103,-0.148532,0.073087,-0.120325,-0.084709,-0.150099
37496,0.059627,-0.128381,0.084278,0.030164,-0.081888,0.060328,3.0,0.350419,0.342389,0.302936,0.304814,0.054157,-0.103157,0.08497,-0.116678,-0.060022,-0.166736,0.078712,-0.150041,0.069709,-0.115122,-0.064176,-0.154584
37516,0.05734,-0.12978,0.080871,0.028868,-0.082353,0.057736,3.0,0.352864,0.340531,0.30512,0.301818,0.052164,-0.10416,0.081541,-0.118615,-0.057876,-0.169209,0.076402,-0.151454,0.066305,-0.110424,-0.0812,-0.175147
37536,0.055068,-0.131302,0.077217,0.027266,-0.082898,0.054531,3.0,0.35885,0.336076,0.304803,0.299854,0.050143,-0.105124,0.078071,-0.120215,-0.055591,-0.17123,0.074012,-0.153059,0.062776,-0.091671,-0.047659,-0.176015
37556,0.052807,-0.13271,0.073554,0.025225,-0.083541,0.050451,3.0,0.358694,0.334971,0.307269,0.298803,0.048099,-0.106047,0.074566,-0.121671,-0.05324,-0.173024,0.071772,-0.154366,0.059143,-0.139376,-0.063015,-0.163232
37576,0.0503,-0.13388,0.070107,0.024021,-0.083895,0.048042,3.0,0.35214,0.343503,0.296348,0.307831,0.046029,-0.106929,0.071025,-0.123295,-0.050924,-0.175066,0.069482,-0.155782,0.055684,-0.133408,-0.043675,-0.17495
37596,0.047803,-0.134945,0.066663,0.021819,-0.084495,0.043638,3.0,0.352502,0.343074,0.29659,0.307665,0.043938,-0.107769,0.067454,-0.124558,-0.048484,-0.176552,0.067124,-0.156957,0.052139,-0.158936,-0.043953,-0.159616
37616,0.045203,-0.13576,0.063065,0.020792,-0.084753,0.041585,3.0,0.36005,0.333703,0.308511,0.29724,0.041825,-0.108567,0.06385,-0.126036,-0.046088,-0.178339,0.064619,-0.157909,0.048571,-0.154561,-0.040849,-0.163531
37636,0.042605,-0.136584,0.059463,0.018488,-0.085286,0.036975,3.0,0.352325,0.339289,0.299087,0.309836,0.039693,-0.109322,0.060224,-0.127088,-0.043569,-0.179452,0.061785,-0.158725,0.045063,-0.133772,-0.019961,-0.201908
37656,0.039664,-0.137041,0.055701,0.016684,-0.085657,0.033369,3.0,0.355226,0.332612,0.306312,0.306806,0.03754,-0.110034,0.056571,-0.128622,-0.041142,-0.181254,0.058976,-0.159318,0.041334,-0.160902,-0.016815,-0.165552
37676,0.036726,-0.137143,0.052051,0.014858,-0.085992,0.029715,3.0,0.348924,0.337079,0.304465,0.311158,0.035363,-0.110704,0.052884,-0.130153,-0.038693,-0.183111,0.056159,-0.159555,0.037678,-0.159101,0.007385,-0.183285
37696,0.033804,-0.13701,0.048271,0.013051,-0.086285,0.026103,3.0,0.350927,0.333753,0.307055,0.309963,0.033162,-0.111332,0.049163,-0.131642,-0.036211,-0.184976,0.053247,-0.159661,0.033905,-0.141338,0.027422,-0.182665
37716,0.030997,-0.137003,0.044492,0.01192,-0.086449,0.02384,3.0,0.356614,0.329413,0.311215,0.303692,0.030938,-0.111917,0.045407,-0.132942,-0.033676,-0.18662,0.050406,-0.159637,0.030149,-0.175318,0.023504,-0.188527
37736,0.027832,-0.136894,0.040701,0.010969,-0.086574,0.021937,3.0,0.359596,0.322994,0.31582,0.302229,0.028698,-0.112458,0.041629,-0.133395,-0.031009,-0.186958,0.047379,-0.159515,0.026342,-0.136255,0.022401,-0.203262
37756,0.02491,-0.136668,0.036916,0.007955,-0.086903,0.015909,3.0,0.349615,0.332345,0.306588,0.313498,0.026455,-0.112953,0.037856,-0.133952,-0.028342,-0.187244,0.044354,-0.1593,0.022551,-0.163973,0.004614,-0.162658
37776,0.021719,-0.136453,0.033483,0.006835,-0.086998,0.013669,3.0,0.346301,0.337359,0.302494,0.31575,0.024194,-0.113404,0.034064,-0.13521,-0.025742,-0.188525,0.041502,-0.159082,0.019019,-0.176232,0.004442,-0.184693
37796,0.018787,-0.136249,0.02982,0.005733,-0.087078,0.011466,3.0,0.350914,0.330057,0.30752,0.31355,0.021918,-0.113811,0.030258,-0.135675,-0.023066,-0.188647,0.038355,-0.158872,0.015467,-0.140011,0.024839,-0.204099
37816,0.015871,-0.136052,0.025912,0.002912,-0.087218,0.005824,3.0,0.352127,0.332178,0.303949,0.313298,0.019636,-0.114173,0.026455,-0.136441,-0.020394,-0.189117,0.035392,-0.158783,0.011702,-0.175947,0.001271,-0.189559
37836,0.012457,-0.136113,0.0221,0.00089,-0.087262,0.00178,3.0,0.351688,0.330413,0.301581,0.317926,0.017335,-0.114489,0.022635,-0.137642,-0.017728,-0.190286,0.032117,-0.158709,0.007893,-0.136311,-0.00116,-0.207064
37856,0.009296,-0.136056,0.018176,-0.000167,-0.087266,-0.000334,3.0,0.351298,0.328555,0.301007,0.320839,0.015014,-0.114761,0.018791,-0.138688,-0.015032,-0.191368,0.028866,-0.158654,0.004053,-0.165207,-1.2e-05,-0.202091
37876,0.005883,-0.136018,0.014361,-0.002318,-0.087236,-0.004635,3.0,0.355763,0.322643,0.310867,0.312397,0.01268,-0.114987,0.014936,-0.139144,-0.012316,-0.191617,0.025677,-0.158374,3.7e-05,-0.179742,-0.019271,-0.188686
37896,0.002462,-0.135869,0.010668,-0.003676,-0.087189,-0.007351,3.0,0.357868,0.322594,0.307973,0.312787,0.010336,-0.115168,0.011072,-0.139862,-0.00958,-0.192244,0.022366,-0.158448,-0.00377,-0.175565,0.018447,-0.188772
37916,-0.000942,-0.135723,0.006727,-0.005509,-0.087092,-0.011018,3.0,0.355682,0.322142,0.305909,0.317822,0.007984,-0.115302,0.007203,-0.140092,-0.00685,-0.192132,0.01884,-0.158313,-0.007471,-0.156878,0.000659,-0.208798
37936,-0.003991,-0.13572,0.002937,-0.007347,-0.086957,-0.014695,3.0,0.349183,0.331663,0.293868,0.32635,0.005626,-0.115392,0.003336,-0.140433,-0.004106,-0.192129,0.015524,-0.158285,-0.011173,-0.153415,0.017175,-0.204702
37956,-0.007047,-0.135726,-0.00073,-0.00918,-0.086782,-0.01836,3.0,0.349218,0.332403,0.293898,0.325527,0.003261,-0.115435,-0.000532,-0.140856,-0.001344,-0.192231,0.012459,-0.158163,-0.014965,-0.172294,-0.004183,-0.184645
37976,-0.010104,-0.135742,-0.004398,-0.010183,-0.08667,-0.020365,3.0,0.356689,0.325346,0.301474,0.317528,0.000887,-0.115432,-0.004402,-0.141112,0.001415,-0.192109,0.009535,-0.158174,-0.018749,-0.151607,-0.004662,-0.183135
37996,-0.012787,-0.135775,-0.008164,-0.01295,-0.0863,-0.025901,3.0,0.35264,0.329084,0.297848,0.321641,-0.001487,-0.115384,-0.00826,-0.141101,0.004153,-0.191541,0.006626,-0.158097,-0.02253,-0.132943,-0.001762,-0.203141
38016,-0.015462,-0.135689,-0.012051,-0.01403,-0.086131,-0.028061,3.0,0.358956,0.325022,0.300415,0.31618,-0.00387,-0.115289,-0.01212,-0.141704,0.006988,-0.191918,0.003906,-0.158234,-0.026279,-0.146177,0.015296,-0.207869
38036,-0.017902,-0.13561,-0.015797,-0.016216,-0.085747,-0.032432,3.0,0.354753,0.329679,0.294613,0.321512,-0.006259,-0.115147,-0.015979,-0.141796,0.009765,-0.191606,0.001242,-0.15815,-0.03004,-0.108163,-0.00609,-0.205352
38056,-0.020335,-0.135548,-0.019668,-0.017439,-0.085506,-0.034879,3.0,0.355588,0.329766,0.294913,0.320199,-0.008653,-0.114958,-0.019837,-0.142066,0.012593,-0.191607,-0.001074,-0.158072,-0.033796,-0.10876,-0.008017,-0.202051
38076,-0.022654,-0.135484,-0.023404,-0.019689,-0.085016,-0.039379,3.0,0.352645,0.33307,0.293976,0.320938,-0.01105,-0.114722,-0.023689,-0.141907,0.015351,-0.19099,-0.003423,-0.157928,-0.037661,-0.123298,0.000654,-0.180955
38096,-0.024974,-0.135436,-0.027143,-0.02059,-0.084803,-0.041181,3.0,0.361056,0.32517,0.298213,0.315567,-0.013448,-0.11444,-0.027536,-0.14192,0.018157,-0.19064,-0.005864,-0.157955,-0.041387,-0.123473,0.012312,-0.185442
38116,-0.027427,-0.135144,-0.030758,-0.022805,-0.084234,-0.045611,3.0,0.351975,0.331071,0.290364,0.326886,-0.015844,-0.114111,-0.031367,-0.141434,0.020852,-0.189518,-0.008403,-0.157684,-0.045031,-0.087603,-0.003822,-0.199805
38136,-0.02975,-0.13499,-0.034493,-0.024548,-0.083743,-0.049095,3.0,0.353538,0.330963,0.288414,0.326912,-0.018237,-0.113737,-0.035183,-0.141344,0.023653,-0.188952,-0.010704,-0.1575,-0.048779,-0.093701,0.011746,-0.175843
38156,-0.032085,-0.134591,-0.038094,-0.02632,-0.083203,-0.05264,3.0,0.353342,0.331593,0.292638,0.322867,-0.02063,-0.113316,-0.038989,-0.141256,0.026476,-0.188439,-0.012823,-0.157138,-0.052478,-0.148269,-0.0014,-0.182304
38176,-0.034534,-0.134333,-0.041831,-0.028066,-0.08263,-0.056132,3.0,0.358541,0.326281,0.296451,0.319003,-0.023024,-0.112846,-0.042788,-0.141152,0.029319,-0.187974,-0.015293,-0.156876,-0.0562,-0.123691,0.01941,-0.184079
38196,-0.03686,-0.133839,-0.045677,-0.029161,-0.08225,-0.058321,3.0,0.362423,0.320129,0.301897,0.315686,-0.025419,-0.112329,-0.04658,-0.140891,0.032137,-0.187348,-0.017725,-0.156491,-0.059926,-0.10547,0.017562,-0.20531
38216,-0.039313,-0.133235,-0.049526,-0.030529,-0.081752,-0.061058,3.0,0.360192,0.320729,0.299086,0.320326,-0.027808,-0.111765,-0.050355,-0.140089,0.034775,-0.185912,-0.020164,-0.156001,-0.063672,-0.08881,0.039736,-0.198381
38236,-0.041785,-0.132505,-0.053113,-0.032835,-0.080853,-0.065671,3.0,0.358416,0.323639,0.295712,0.322499,-0.030183,-0.111158,-0.054099,-0.139232,0.037382,-0.184295,-0.022495,-0.155398,-0.067511,-0.133556,0.039243,-0.158572
38256,-0.044392,-0.131791,-0.056591,-0.034732,-0.080057,-0.069463,3.0,0.353671,0.329575,0.285653,0.330449,-0.032552,-0.110504,-0.057822,-0.138971,0.04023,-0.183547,-0.025117,-0.154782,-0.070993,-0.129,0.055279,-0.17925
38276,-0.046872,-0.131085,-0.06018,-0.035779,-0.079595,-0.071558,3.0,0.353973,0.326646,0.28897,0.330287,-0.034921,-0.109801,-0.061536,-0.138664,0.043098,-0.182848,-0.027707,-0.15396,-0.074455,-0.111257,0.016013,-0.180579
38296,-0.04935,-0.130509,-0.063769,-0.037899,-0.078607,-0.075798,3.0,0.352103,0.329066,0.285261,0.332975,-0.037282,-0.109051,-0.065231,-0.137875,0.045778,-0.181491,-0.030186,-0.153258,-0.078062,-0.110948,0.036052,-0.196978
38316,-0.051952,-0.129704,-0.067477,-0.038808,-0.078162,-0.077616,3.0,0.363497,0.315489,0.302217,0.318752,-0.039637,-0.108253,-0.068908,-0.137253,0.048551,-0.180411,-0.032554,-0.152443,-0.081864,-0.150343,0.035059,-0.181896
38336,-0.054571,-0.128542,-0.071168,-0.040824,-0.077129,-0.081648,3.0,0.365987,0.310621,0.307458,0.315569,-0.041978,-0.10741,-0.072558,-0.136162,0.051104,-0.178621,-0.035155,-0.15154,-0.085671,-0.151967,0.061025,-0.161468
38356,-0.057075,-0.127504,-0.074729,-0.042426,-0.076259,-0.084852,3.0,0.359399,0.318048,0.297582,0.325235,-0.044307,-0.106522,-0.076181,-0.135385,0.053821,-0.177272,-0.037769,-0.150498,-0.089114,-0.111977,0.040253,-0.180785
38376,-0.059469,-0.126467,-0.078154,-0.044031,-0.075344,-0.088062,3.0,0.348891,0.329199,0.283424,0.337713,-0.046626,-0.105586,-0.079781,-0.134586,0.056552,-0.17593,-0.040289,-0.149458,-0.092462,-0.090239,0.040046,-0.192797
38396,-0.061877,-0.125195,-0.081565,-0.045601,-0.074404,-0.091202,3.0,0.353436,0.324418,0.291143,0.331243,-0.048935,-0.104603,-0.083358,-0.133746,0.059288,-0.174578,-0.042578,-0.1483,-0.095979,-0.131379,0.080573,-0.176013
38416,-0.064287,-0.123811,-0.085089,-0.046462,-0.07387,-0.092924,3.0,0.362469,0.313321,0.300084,0.324015,-0.051233,-0.103572,-0.086913,-0.132676,0.061912,-0.172929,-0.045097,-0.147162,-0.099523,-0.110722,0.081116,-0.174383
38436,-0.066707,-0.122314,-0.088601,-0.04749,-0.073213,-0.094979,3.0,0.367198,0.305329,0.307667,0.31898,-0.053511,-0.102498,-0.090431,-0.13096,0.064128,-0.170264,-0.047492,-0.14578,-0.103023,-0.11425,0.057937,-0.181639
38456,-0.069141,-0.120822,-0.091984,-0.05,-0.071523,-0.099999,3.0,0.355009,0.317928,0.296013,0.331624,-0.055761,-0.101387,-0.093895,-0.129439,0.066435,-0.167729,-0.049926,-0.144177,-0.106424,-0.114904,0.061098,-0.177542
38476,-0.071484,-0.11908,-0.095101,-0.050981,-0.070826,-0.101962,3.0,0.347752,0.32352,0.292066,0.337395,-0.057997,-0.100229,-0.097325,-0.128494,0.069141,-0.166052,-0.052254,-0.142453,-0.109702,-0.115929,0.064745,-0.169573
38496,-0.073825,-0.11735,-0.098333,-0.05279,-0.069488,-0.10558,3.0,0.348771,0.323397,0.293271,0.335452,-0.060217,-0.099026,-0.10072,-0.127121,0.071579,-0.163808,-0.054489,-0.140714,-0.112914,-0.134197,0.084449,-0.173212
38516,-0.076178,-0.115388,-0.101668,-0.053575,-0.068885,-0.10715,3.0,0.355592,0.315509,0.300521,0.32935,-0.062419,-0.097777,-0.10408,-0.125811,0.074083,-0.161705,-0.056854,-0.138969,-0.116124,-0.130218,0.0804,-0.17667
38536,-0.078544,-0.113312,-0.10499,-0.055318,-0.067493,-0.110637,3.0,0.353801,0.31355,0.304423,0.329696,-0.064599,-0.096486,-0.107394,-0.124094,0.076279,-0.158991,-0.059195,-0.136922,-0.119452,-0.135902,0.107972,-0.175161
38556,-0.080917,-0.11136,-0.108187,-0.056136,-0.066815,-0.112272,3.0,0.354233,0.310529,0.304272,0.332147,-0.066755,-0.095153,-0.110664,-0.122491,0.078562,-0.156426,-0.061679,-0.134838,-0.122686,-0.117262,0.105029,-0.188511
38576,-0.083202,-0.109041,-0.111233,-0.057757,-0.065419,-0.115513,3.0,0.354318,0.308963,0.306214,0.331748,-0.068885,-0.093781,-0.113881,-0.120559,0.080562,-0.153334,-0.064055,-0.132792,-0.126001,-0.099231,0.111335,-0.144613
38596,-0.085485,-0.106978,-0.114302,-0.059134,-0.064176,-0.118268,3.0,0.351718,0.314366,0.297871,0.336891,-0.070988,-0.09237,-0.117045,-0.118858,0.082748,-0.15055,-0.066348,-0.130821,-0.128936,-0.116437,0.126411,-0.165149
38616,-0.087783,-0.104906,-0.1171,-0.06047,-0.062919,-0.12094,3.0,0.347152,0.316417,0.294585,0.342501,-0.073066,-0.090918,-0.12016,-0.117201,0.084988,-0.147861,-0.068747,-0.128631,-0.131857,-0.09964,0.106739,-0.144198
38636,-0.090087,-0.102723,-0.120005,-0.061885,-0.061528,-0.123769,3.0,0.3485,0.314199,0.298337,0.340018,-0.07512,-0.089423,-0.123227,-0.115569,0.087276,-0.14527,-0.070925,-0.126438,-0.134763,-0.123129,0.124999,-0.147297
38656,-0.092406,-0.100426,-0.122895,-0.062872,-0.060519,-0.125744,3.0,0.348794,0.310784,0.305105,0.336992,-0.077151,-0.087884,-0.126251,-0.113994,0.089661,-0.142854,-0.073145,-0.12405,-0.137669,-0.135295,0.068638,-0.167867
38676,-0.094594,-0.098267,-0.126044,-0.063922,-0.059409,-0.127843,3.0,0.355447,0.303222,0.309272,0.332891,-0.079156,-0.086302,-0.129229,-0.112084,0.091734,-0.14001,-0.075429,-0.121987,-0.140692,-0.121702,0.106231,-0.16823
38696,-0.096677,-0.095975,-0.129031,-0.065404,-0.057774,-0.130807,3.0,0.352925,0.305653,0.308004,0.334618,-0.08113,-0.084682,-0.132153,-0.110021,0.093642,-0.136941,-0.077671,-0.119704,-0.143708,-0.113678,0.107181,-0.164222
38716,-0.098898,-0.093812,-0.131802,-0.066078,-0.057002,-0.132155,3.0,0.350693,0.302008,0.309406,0.338905,-0.083075,-0.083023,-0.135025,-0.108019,0.095616,-0.133966,-0.07996,-0.117317,-0.146572,-0.083388,0.092591,-0.142316
38736,-0.101269,-0.091403,-0.134289,-0.0676,-0.055187,-0.135201,3.0,0.341909,0.312587,0.298979,0.347537,-0.084985,-0.081329,-0.137838,-0.105766,0.097294,-0.130597,-0.082089,-0.115,-0.149201,-0.123949,0.106311,-0.142672
38756,-0.103534,-0.088882,-0.136904,-0.068887,-0.053572,-0.137775,3.0,0.348676,0.306173,0.30769,0.338927,-0.086863,-0.079598,-0.140594,-0.103841,0.099362,-0.127717,-0.08425,-0.112597,-0.151928,-0.11663,0.108272,-0.120783
38776,-0.10556,-0.086231,-0.139593,-0.069604,-0.052638,-0.139208,3.0,0.345997,0.306395,0.307027,0.342063,-0.088711,-0.077824,-0.143301,-0.101899,0.101452,-0.124887,-0.086519,-0.110066,-0.154392,-0.118275,0.126671,-0.144443
38796,-0.107702,-0.083842,-0.142317,-0.070902,-0.050876,-0.141804,3.0,0.346052,0.306567,0.305663,0.34303,-0.090527,-0.076012,-0.145952,-0.099627,0.103135,-0.121607,-0.08869,-0.107549,-0.156992,-0.113009,0.126576,-0.160143
38816,-0.109738,-0.081318,-0.144876,-0.071959,-0.049369,-0.143919,3.0,0.346078,0.301936,0.307671,0.345203,-0.092307,-0.074164,-0.148547,-0.097514,0.105041,-0.118578,-0.090909,-0.105064,-0.159722,-0.083038,0.112328,-0.13631
38836,-0.111783,-0.07892,-0.147341,-0.072993,-0.047827,-0.145986,3.0,0.344542,0.30584,0.304324,0.346297,-0.094054,-0.072277,-0.151088,-0.095373,0.106939,-0.115548,-0.092854,-0.102642,-0.162304,-0.099099,0.127644,-0.13526
38856,-0.113741,-0.076155,-0.149775,-0.073725,-0.046692,-0.147449,3.0,0.348224,0.298183,0.314255,0.34038,-0.095767,-0.070351,-0.153575,-0.093182,0.108798,-0.112488,-0.094791,-0.100016,-0.164849,-0.078773,0.134191,-0.113675
38876,-0.11533,-0.073478,-0.152056,-0.074485,-0.045469,-0.14897,3.0,0.345289,0.300768,0.311461,0.34369,-0.097443,-0.068389,-0.156004,-0.090699,0.110217,-0.109003,-0.096602,-0.097354,-0.16714,-0.062074,0.133262,-0.137799
38896,-0.117049,-0.070826,-0.154482,-0.07552,-0.043728,-0.151041,3.0,0.346131,0.300926,0.310859,0.343236,-0.099077,-0.066398,-0.158367,-0.088189,0.111571,-0.105435,-0.098207,-0.094808,-0.169449,-0.081195,0.154673,-0.112047
38916,-0.118655,-0.068151,-0.156631,-0.076585,-0.041834,-0.153171,3.0,0.338348,0.306681,0.302494,0.353102,-0.100671,-0.064376,-0.160665,-0.085713,0.112969,-0.10189,-0.100018,-0.092147,-0.171625,-0.069281,0.154956,-0.111723
38936,-0.120527,-0.065381,-0.158797,-0.077064,-0.040945,-0.154129,3.0,0.344547,0.294092,0.316302,0.345625,-0.102224,-0.062321,-0.162901,-0.083252,0.114402,-0.098373,-0.101788,-0.089267,-0.173886,-0.126709,0.134808,-0.092013
38956,-0.122399,-0.062612,-0.160927,-0.078066,-0.039001,-0.156133,3.0,0.34843,0.287941,0.321686,0.341726,-0.103735,-0.060238,-0.165066,-0.080551,0.115377,-0.094477,-0.103655,-0.086526,-0.176171,-0.08412,0.120646,-0.092294
38976,-0.124176,-0.059713,-0.162952,-0.078536,-0.038046,-0.157073,3.0,0.348246,0.28627,0.32406,0.341029,-0.105202,-0.058128,-0.167162,-0.077922,0.116466,-0.090662,-0.105428,-0.08375,-0.178301,-0.104009,0.139267,-0.095096
38996,-0.125849,-0.056687,-0.164963,-0.079416,-0.036174,-0.158831,3.0,0.342694,0.294899,0.315717,0.347329,-0.106622,-0.055997,-0.169182,-0.075091,0.117107,-0.08651,-0.107241,-0.080936,-0.180225,-0.098544,0.174739,-0.083897
39016,-0.127518,-0.053768,-0.166706,-0.080245,-0.034295,-0.16049,3.0,0.339658,0.295435,0.313658,0.351631,-0.107996,-0.053844,-0.171127,-0.072454,0.118123,-0.082615,-0.108998,-0.077907,-0.182082,-0.064321,0.15562,-0.090038
39036,-0.128957,-0.050836,-0.168474,-0.080948,-0.032601,-0.161896,3.0,0.336477,0.29782,0.313228,0.353123,-0.109326,-0.051664,-0.173,-0.069884,0.119307,-0.078846,-0.110422,-0.07485,-0.183857,-0.06759,0.155856,-0.081934
39056,-0.130393,-0.047904,-0.170207,-0.081618,-0.030885,-0.163237,3.0,0.342657,0.291007,0.320112,0.346546,-0.110613,-0.049454,-0.174803,-0.067296,0.120487,-0.075098,-0.11175,-0.071916,-0.1857,-0.084142,0.13288,-0.090994
39076,-0.131718,-0.044976,-0.172086,-0.081938,-0.030026,-0.163876,3.0,0.346165,0.286057,0.324413,0.34299,-0.111854,-0.047215,-0.176537,-0.064598,0.121416,-0.071233,-0.113062,-0.0691,-0.187465,-0.061953,0.133567,-0.107227
39096,-0.13267,-0.042131,-0.173822,-0.08269,-0.027889,-0.16538,3.0,0.343997,0.291377,0.320983,0.344136,-0.113047,-0.044957,-0.178195,-0.061703,0.12179,-0.067071,-0.114151,-0.066248,-0.189203,-0.038403,0.131137,-0.11198
39116,-0.133621,-0.039394,-0.175323,-0.083168,-0.02643,-0.166336,3.0,0.340789,0.293362,0.318689,0.347787,-0.11419,-0.04268,-0.179776,-0.058996,0.122664,-0.063181,-0.115256,-0.063411,-0.190861,-0.055152,0.131651,-0.083064
39136,-0.134842,-0.036553,-0.176724,-0.083814,-0.024304,-0.167628,3.0,0.339766,0.293819,0.317142,0.349781,-0.115286,-0.040381,-0.181283,-0.056215,0.123321,-0.059201,-0.116331,-0.060686,-0.192364,-0.057718,0.153985,-0.059965
39156,-0.135805,-0.033811,-0.1781,-0.0841,-0.023295,-0.1682,3.0,0.336119,0.29541,0.315472,0.353438,-0.116333,-0.038058,-0.182716,-0.053467,0.124088,-0.055296,-0.11739,-0.057821,-0.193612,-0.043639,0.132286,-0.087581
39176,-0.136518,-0.031171,-0.179486,-0.08472,-0.020929,-0.169439,3.0,0.337082,0.295222,0.316546,0.351755,-0.11733,-0.035718,-0.184074,-0.050617,0.124497,-0.051253,-0.11825,-0.055071,-0.194989,-0.061484,0.132136,-0.066728
39196,-0.137502,-0.028303,-0.18073,-0.085027,-0.019644,-0.170053,3.0,0.339393,0.288423,0.32447,0.347806,-0.118277,-0.033357,-0.185356,-0.047864,0.125277,-0.047373,-0.119132,-0.05222,-0.196385,-0.055311,0.115664,-0.0631
39216,-0.138354,-0.025671,-0.182023,-0.085504,-0.017449,-0.171008,3.0,0.336964,0.290159,0.321128,0.35179,-0.119173,-0.030977,-0.186564,-0.045015,0.125667,-0.043369,-0.12009,-0.049475,-0.197658,-0.01729,0.119266,-0.059042
39236,-0.13885,-0.022883,-0.183281,-0.08572,-0.016355,-0.17144,3.0,0.338286,0.287185,0.324302,0.349974,-0.120018,-0.028577,-0.187696,-0.042203,0.126226,-0.039435,-0.120793,-0.046848,-0.198922,0.018088,0.147436,-0.058012
39256,-0.139099,-0.020179,-0.184313,-0.086045,-0.01455,-0.17209,3.0,0.33559,0.291185,0.323542,0.350141,-0.120811,-0.026163,-0.188752,-0.039272,0.126151,-0.035329,-0.121207,-0.044045,-0.20006,0.004567,0.146182,-0.057851
39276,-0.139355,-0.017344,-0.185183,-0.086331,-0.012744,-0.172662,3.0,0.335855,0.293211,0.323337,0.348489,-0.121549,-0.023742,-0.189727,-0.036373,0.126165,-0.031257,-0.121353,-0.041314,-0.201092,-0.033808,0.14043,-0.03691
39296,-0.13948,-0.014734,-0.185988,-0.086586,-0.010876,-0.173172,3.0,0.339696,0.286541,0.326584,0.347025,-0.122235,-0.02131,-0.190624,-0.033498,0.126283,-0.027221,-0.121692,-0.038609,-0.201979,0.022405,0.125707,-0.02405
39316,-0.139375,-0.011988,-0.186911,-0.086722,-0.00973,-0.173445,3.0,0.340163,0.287887,0.327831,0.344367,-0.122866,-0.018865,-0.191443,-0.030625,0.126361,-0.023193,-0.121586,-0.035958,-0.20276,-0.018184,0.137559,-0.047209
39336,-0.139252,-0.009363,-0.187809,-0.086881,-0.008191,-0.173762,3.0,0.342509,0.286626,0.33244,0.338612,-0.123444,-0.016415,-0.192183,-0.027709,0.125965,-0.0191,-0.121413,-0.033206,-0.203685,-0.026858,0.138322,-0.020651
39356,-0.139263,-0.006741,-0.188619,-0.087076,-0.005768,-0.174151,3.0,0.34091,0.287378,0.332133,0.339929,-0.123965,-0.013964,-0.192841,-0.024805,0.125541,-0.015022,-0.121312,-0.030452,-0.204502,-0.004189,0.118278,-0.040435
39376,-0.138917,-0.003945,-0.189161,-0.087184,-0.003782,-0.174369,3.0,0.341918,0.285078,0.333407,0.33949,-0.124433,-0.011506,-0.19342,-0.021956,0.125682,-0.011029,-0.121158,-0.027813,-0.20527,0.050842,0.124749,-0.024514
39396,-0.138593,-0.001029,-0.18973,-0.08723,-0.002511,-0.174461,3.0,0.331299,0.294904,0.329684,0.345613,-0.124845,-0.009035,-0.193922,-0.01911,0.125885,-0.007052,-0.120719,-0.024914,-0.205706,0.012187,0.12876,-0.019468
39416,-0.13813,0.001787,-0.190159,-0.087266,-0.000271,-0.174532,3.0,0.330884,0.295548,0.327602,0.347425,-0.125202,-0.006554,-0.194346,-0.01625,0.125652,-0.003061,-0.120527,-0.022108,-0.206177,-0.006413,0.143079,-0.03442
39436,-0.137824,0.004963,-0.190443,-0.087263,0.000766,-0.174526,3.0,0.330965,0.295209,0.331502,0.343964,-0.125504,-0.004065,-0.194691,-0.013398,0.125533,0.000914,-0.12011,-0.019172,-0.206579,-0.020225,0.142948,-0.017465
39456,-0.137649,0.00812,-0.190878,-0.08721,0.003144,-0.17442,3.0,0.334843,0.286371,0.337768,0.341214,-0.12575,-0.001575,-0.194957,-0.010553,0.12498,0.004882,-0.119891,-0.01601,-0.206981,-0.006918,0.143926,-0.017912
39476,-0.137201,0.011066,-0.191186,-0.087125,0.004965,-0.17425,3.0,0.336453,0.286367,0.336259,0.341127,-0.125939,0.000918,-0.195144,-0.007705,0.124829,0.008857,-0.119554,-0.013058,-0.207317,0.031249,0.144029,-0.019695
39496,-0.136414,0.014308,-0.191256,-0.086999,0.006827,-0.173998,3.0,0.328159,0.293931,0.334756,0.344529,-0.126072,0.003419,-0.195252,-0.00486,0.124667,0.012837,-0.118884,-0.009854,-0.207517,0.007912,0.168104,0.006669
39516,-0.135845,0.017292,-0.191216,-0.086836,0.008654,-0.173673,3.0,0.320379,0.300462,0.331866,0.349089,-0.126148,0.005926,-0.195281,-0.002017,0.124474,0.016827,-0.118264,-0.006517,-0.207474,-0.001841,0.127803,-0.012243
39536,-0.135046,0.020413,-0.1913,-0.086711,0.009834,-0.173421,3.0,0.326994,0.295404,0.335995,0.34323,-0.126167,0.008439,-0.195231,0.000808,0.124119,0.020807,-0.117563,-0.003635,-0.207567,0.017213,0.147177,-0.012067
39556,-0.134477,0.023397,-0.191266,-0.086522,0.011374,-0.173044,3.0,0.322863,0.296789,0.335938,0.345976,-0.126129,0.01095,-0.195101,0.003569,0.123231,0.024704,-0.116884,-0.000535,-0.207528,0.037769,0.152882,-0.012949
39576,-0.133906,0.026398,-0.190995,-0.086168,0.013805,-0.172335,3.0,0.319449,0.298665,0.332541,0.350737,-0.126035,0.013451,-0.194891,0.006316,0.122268,0.028581,-0.116279,0.00246,-0.207394,0.074083,0.135886,-0.012292
39596,-0.133072,0.029301,-0.190711,-0.086006,0.014781,-0.172011,3.0,0.32405,0.293191,0.337842,0.345947,-0.125884,0.015948,-0.194601,0.009088,0.121582,0.032507,-0.115576,0.005344,-0.207239,0.073806,0.15771,0.011476
39616,-0.132113,0.032096,-0.190477,-0.085547,0.017237,-0.171094,3.0,0.319965,0.298162,0.334541,0.348808,-0.125676,0.018434,-0.194232,0.011773,0.120426,0.03631,-0.114758,0.008252,-0.206853,0.034451,0.154475,0.010762
39636,-0.131405,0.034997,-0.190108,-0.085344,0.018218,-0.170687,3.0,0.319102,0.299827,0.334395,0.348363,-0.125411,0.020913,-0.193783,0.014515,0.119661,0.040211,-0.113956,0.011057,-0.206493,0.042176,0.151552,0.010115
39656,-0.130683,0.037784,-0.18963,-0.08503,0.019631,-0.17006,3.0,0.320354,0.295826,0.335695,0.349242,-0.12509,0.02338,-0.193256,0.01711,0.118278,0.043902,-0.113322,0.013827,-0.206128,0.078752,0.135499,0.027501
39676,-0.129948,0.04045,-0.189161,-0.084533,0.02167,-0.169066,3.0,0.320558,0.29492,0.335378,0.35008,-0.124715,0.025826,-0.192652,0.01965,0.11672,0.047497,-0.112571,0.016493,-0.205677,0.076572,0.135076,0.037131
39696,-0.129179,0.04288,-0.188556,-0.08411,0.023258,-0.16822,3.0,0.326913,0.291172,0.337328,0.345407,-0.124284,0.028254,-0.19197,0.022282,0.115604,0.051223,-0.111684,0.018962,-0.205176,0.051045,0.167235,0.030552
39716,-0.128536,0.045307,-0.187861,-0.083339,0.025885,-0.166678,3.0,0.32708,0.290889,0.335341,0.347387,-0.123798,0.030667,-0.191212,0.02489,0.114462,0.054925,-0.111064,0.021405,-0.204476,0.013762,0.159916,0.0319
39736,-0.127991,0.047607,-0.187015,-0.083053,0.026788,-0.166107,3.0,0.326324,0.289694,0.336033,0.348355,-0.123253,0.033074,-0.190374,0.027625,0.113844,0.058864,-0.110522,0.023822,-0.203776,0.057185,0.123025,0.053627
39756,-0.127319,0.049799,-0.186219,-0.082471,0.028531,-0.164941,3.0,0.326458,0.288273,0.338045,0.347405,-0.122651,0.03547,-0.189457,0.0301,0.112477,0.062456,-0.109854,0.026116,-0.202938,0.036813,0.104196,0.047763
39776,-0.126635,0.051997,-0.18527,-0.082134,0.029485,-0.164269,3.0,0.320519,0.294316,0.333933,0.351947,-0.121995,0.037847,-0.188463,0.032514,0.110984,0.065962,-0.109171,0.028314,-0.201992,0.016195,0.102056,0.049762
39796,-0.126065,0.054072,-0.184237,-0.081583,0.030979,-0.163165,3.0,0.31644,0.297308,0.331465,0.355419,-0.121287,0.040198,-0.187397,0.034759,0.109062,0.069191,-0.108631,0.030507,-0.200963,0.04077,0.104774,0.051013
39816,-0.125355,0.056026,-0.183306,-0.080552,0.033568,-0.161104,3.0,0.323722,0.288951,0.338021,0.349396,-0.120529,0.042517,-0.186262,0.037084,0.107372,0.072496,-0.107913,0.032565,-0.200032,0.036973,0.108273,0.052525
39836,-0.124526,0.058129,-0.182136,-0.079762,0.035404,-0.159524,3.0,0.327589,0.282906,0.343445,0.345188,-0.119716,0.044818,-0.185051,0.0397,0.106471,0.07626,-0.107238,0.034642,-0.199121,0.020297,0.108085,0.072967
39856,-0.123825,0.060221,-0.180993,-0.079252,0.036532,-0.158503,3.0,0.322731,0.288666,0.340881,0.347751,-0.118843,0.04711,-0.18376,0.042265,0.105543,0.080041,-0.106426,0.036741,-0.197968,0.021677,0.128104,0.05693
39876,-0.12312,0.06244,-0.179692,-0.078235,0.038661,-0.15647,3.0,0.328385,0.283273,0.342135,0.345464,-0.117916,0.049386,-0.182392,0.044617,0.104188,0.083566,-0.105691,0.038748,-0.196784,0.061177,0.125355,0.071973
39896,-0.122024,0.064457,-0.178307,-0.077756,0.039616,-0.155513,3.0,0.322879,0.290243,0.338636,0.348567,-0.116933,0.051646,-0.180946,0.047042,0.103031,0.087251,-0.104727,0.040876,-0.195384,0.061406,0.125081,0.071747
39916,-0.120825,0.066728,-0.176917,-0.076715,0.041597,-0.153429,3.0,0.314503,0.298067,0.336823,0.35151,-0.115897,0.053884,-0.179426,0.049205,0.101378,0.090571,-0.103559,0.043114,-0.193908,0.02864,0.108962,0.080353
39936,-0.11962,0.069004,-0.175409,-0.075819,0.043208,-0.151638,3.0,0.319491,0.290464,0.343017,0.347173,-0.114809,0.056099,-0.177831,0.051524,0.100032,0.094133,-0.102461,0.045376,-0.192496,0.068234,0.091283,0.073262
39956,-0.118431,0.071521,-0.17389,-0.074896,0.044789,-0.149791,3.0,0.316752,0.292441,0.343523,0.347555,-0.113667,0.058293,-0.176159,0.053818,0.098675,0.097703,-0.10113,0.047644,-0.191015,0.066404,0.115936,0.078169
39976,-0.116978,0.073953,-0.172153,-0.074418,0.045579,-0.148836,3.0,0.317234,0.290528,0.344666,0.347504,-0.11247,0.060467,-0.17441,0.055948,0.097079,0.101071,-0.099913,0.05006,-0.189485,0.063806,0.112683,0.094931
39996,-0.115756,0.076232,-0.170531,-0.07335,0.047279,-0.146699,3.0,0.316797,0.292236,0.342851,0.348337,-0.111228,0.062607,-0.172594,0.057723,0.094913,0.103884,-0.098589,0.052373,-0.187764,0.065636,0.128979,0.078539
40016,-0.114537,0.078638,-0.168783,-0.072684,0.048296,-0.145368,3.0,0.318296,0.289044,0.347351,0.345039,-0.10994,0.06471,-0.170712,0.059602,0.092927,0.106795,-0.097253,0.054785,-0.18612,0.066244,0.130078,0.094354
40036,-0.112932,0.080949,-0.167037,-0.071153,0.050524,-0.142306,3.0,0.318788,0.28992,0.346021,0.345247,-0.108609,0.066775,-0.168767,0.061456,0.090913,0.109619,-0.095898,0.057102,-0.184283,0.087078,0.127129,0.075775
40056,-0.111458,0.083379,-0.165188,-0.070489,0.051447,-0.140978,3.0,0.310735,0.295646,0.342682,0.351048,-0.107228,0.06881,-0.166754,0.063573,0.089339,0.112859,-0.094408,0.059536,-0.182452,0.062702,0.124895,0.080916
40076,-0.110114,0.086046,-0.163201,-0.069048,0.053365,-0.138095,3.0,0.310279,0.291456,0.349165,0.348344,-0.1058,0.070813,-0.164674,0.065402,0.087414,0.11571,-0.092947,0.062174,-0.180593,0.08509,0.134501,0.105642
40096,-0.108386,0.088628,-0.161125,-0.068381,0.054216,-0.136763,3.0,0.310298,0.291262,0.350148,0.34749,-0.104323,0.072785,-0.162526,0.067407,0.08577,0.118864,-0.091469,0.064728,-0.178603,0.086212,0.135449,0.122394
40116,-0.106639,0.091092,-0.158937,-0.066889,0.056048,-0.133778,3.0,0.307643,0.296532,0.346661,0.349059,-0.102801,0.074722,-0.160313,0.06916,0.083837,0.121673,-0.089737,0.067205,-0.176404,0.088607,0.131546,0.100702
40136,-0.104879,0.093548,-0.156723,-0.066152,0.056915,-0.132304,3.0,0.311269,0.291795,0.351579,0.344774,-0.101232,0.076628,-0.158033,0.071027,0.082089,0.124688,-0.087991,0.069661,-0.174315,0.090984,0.111655,0.115578
40156,-0.103093,0.09564,-0.154557,-0.064736,0.058521,-0.129471,3.0,0.317222,0.285023,0.356531,0.339638,-0.09962,0.078497,-0.155691,0.072588,0.080012,0.127262,-0.086225,0.071999,-0.172117,0.093818,0.089484,0.11552
40176,-0.101302,0.09773,-0.152392,-0.063478,0.059883,-0.126957,3.0,0.311558,0.290718,0.353704,0.34318,-0.097966,0.080328,-0.153288,0.07431,0.078142,0.130077,-0.084455,0.074212,-0.169817,0.096151,0.089466,0.094215
40196,-0.09948,0.099701,-0.149965,-0.062201,0.061208,-0.124402,3.0,0.316099,0.287692,0.356391,0.3387,-0.096269,0.082123,-0.150821,0.07604,0.076316,0.132941,-0.082529,0.076185,-0.167663,0.099059,0.091016,0.139537
40216,-0.097637,0.101438,-0.147457,-0.060808,0.062593,-0.121615,3.0,0.317613,0.286667,0.355928,0.338627,-0.094526,0.083884,-0.14829,0.077778,0.07453,0.135871,-0.080699,0.078051,-0.165246,0.077945,0.086151,0.136864
40236,-0.096018,0.103023,-0.144911,-0.05992,0.063443,-0.119839,3.0,0.31458,0.287887,0.353283,0.343188,-0.092739,0.085611,-0.145692,0.07949,0.072756,0.138834,-0.07908,0.079765,-0.162718,0.099114,0.044948,0.137401
