time_ms,roll,pitch,yaw,x,y,z,reference_roll,reference_pitch,reference_yaw,reference_throttle,throttle_1,throttle_2,throttle_3,throttle_4,roll_predicted,pitch_predicted,yaw_predicted,roll_rate_predicted,pitch_rate_predicted,yaw_rate_predicted,value1,value2,value3,value4,value5,value6
113265,-0.000366,0.000244,0.0,0.0,0.0,0.0,0.0,0.0,0.0,3.0,0.34895,0.315945,0.331998,0.302761,-0.0,0.0,-0.0,0.0,0.0,-0.0,-0.000122,0.000366,0.000122,0.00035,-0.006861,0.001766
113285,-0.000122,0.000366,0.000122,0.0,0.0,0.0,0.0,0.0,0.0,3.0,0.345294,0.313982,0.33636,0.30424,-0.0,0.0,-0.0,0.0,0.0,-0.0,-0.000123,0.000243,0.000122,0.023143,0.002194,0.001284
113305,-0.000244,-0.000122,-0.0,0.0,0.0,0.0,0.0,0.0,0.0,3.0,0.344178,0.313811,0.337512,0.304416,-0.0,0.0,0.0,0.0,0.0,0.0,-1e-06,0.000121,0.000122,0.029066,0.003585,0.001278
113325,-0.000244,-0.000366,0.000122,0.0,0.0,0.0,0.0,0.0,0.0,3.0,0.347326,0.318929,0.334235,0.298955,-0.0,0.0,0.0,0.0,0.0,0.0,-0.000123,-0.000244,0.000122,0.011323,-0.020844,0.001278
113345,-0.000488,-0.000732,0.000244,0.0,0.0,0.0,0.0,0.0,0.0,3.0,0.352227,0.316105,0.330353,0.30044,-0.0,0.0,0.0,0.0,0.0,-0.0,-0.000366,-0.000611,0.000122,-0.012719,-0.00846,1.2e-05
113365,-0.000244,-0.000855,0.000244,0.0,0.0,0.0,0.0,0.0,0.0,3.0,0.350931,0.319713,0.330641,0.297798,-0.0,0.0,0.0,0.0,0.0,0.0,-0.000366,-0.000976,0.000244,-0.008071,-0.022274,0.000648
113385,-0.000244,-0.001099,0.000244,0.0,0.0,0.0,0.0,0.0,0.0,3.0,0.349664,0.319373,0.330191,0.300259,-0.0,0.0,0.0,0.0,0.0,-0.0,-0.000243,-0.000976,0.000366,-0.006092,-0.015561,0.001921
113405,-0.000366,-0.001343,0.000366,0.0,0.0,0.0,0.0,0.0,0.0,3.0,0.335368,0.326916,0.328056,0.311169,-0.0,0.0,-0.0,0.0,0.0,-0.0,-1e-06,-0.001099,0.000488,0.02803,-0.008243,0.01721
113425,-0.000367,-0.001465,0.000366,0.0,0.0,0.0,0.0,0.0,0.0,3.0,0.337529,0.317318,0.334182,0.31216,-0.0,0.0,-0.0,0.0,0.0,0.0,-2e-06,-0.0011,0.000366,0.038782,0.019338,0.009921
113445,-0.000367,-0.001465,0.000366,0.0,0.0,0.0,0.0,0.0,0.0,3.0,0.345473,0.316375,0.336474,0.301365,-0.0,0.0,-0.0,0.0,0.0,-0.0,-0.000124,-0.001343,0.000366,0.023032,-0.003458,0.000157
113465,-0.000489,-0.001587,0.000366,0.0,0.0,0.0,0.0,0.0,0.0,3.0,0.350883,0.31908,0.330908,0.298247,-0.0,0.0,-0.0,0.0,0.0,-0.0,-0.000489,-0.001587,0.000366,-0.006583,-0.016607,-7e-06
113485,-0.000489,-0.001709,0.000488,0.0,0.0,0.0,0.0,0.0,0.0,3.0,0.348923,0.322512,0.326452,0.30195,-0.0,0.0,-0.0,0.0,0.0,0.0,-0.00061,-0.001709,0.000488,-0.012323,-0.016135,0.005584
113505,-0.000367,-0.001587,0.00061,0.0,0.0,0.0,0.0,0.0,0.0,3.0,0.348815,0.319039,0.332581,0.298924,-0.0,0.0,-0.0,0.0,0.0,-0.0,-0.000489,-0.001708,0.000488,0.004159,-0.014218,7.7e-05
113525,-0.000489,-0.001831,0.00061,0.0,0.0,0.0,0.0,0.0,0.0,3.0,0.345991,0.319864,0.334486,0.299271,-0.0,0.0,-0.0,0.0,0.0,0.0,-0.000245,-0.001709,0.00061,0.016613,-0.015457,0.000668
113545,-0.000367,-0.002075,0.000488,0.0,0.0,0.0,0.0,0.0,0.0,3.0,0.342924,0.315018,0.33829,0.303734,-0.0,0.0,-0.0,0.0,0.0,-0.0,-0.000124,-0.00171,0.00061,0.035599,0.007659,4.2e-05
113565,-0.000367,-0.001831,0.00061,0.0,0.0,0.0,0.0,0.0,0.0,3.0,0.335791,0.323804,0.326611,0.315516,-0.0,0.0,-0.0,0.0,0.0,0.0,-0.000124,-0.00171,0.000732,0.023634,0.014196,0.017192
113585,-0.000367,-0.001953,0.000732,0.0,0.0,0.0,0.0,0.0,0.0,3.0,0.347199,0.325069,0.32779,0.299722,-0.0,0.0,-0.0,0.0,0.0,-0.0,-0.000367,-0.001952,0.000732,-0.00467,-0.026667,0.005175
113605,-0.000245,-0.001831,0.000854,0.0,0.0,0.0,0.0,0.0,0.0,3.0,0.351168,0.319955,0.329079,0.299028,-0.0,0.0,-0.0,0.0,0.0,-0.0,-0.000488,-0.001829,0.000732,-0.012294,-0.015392,5.7e-05
113625,-0.000367,-0.001709,0.000854,0.0,0.0,0.0,0.0,0.0,0.0,3.0,0.348614,0.317608,0.330731,0.302832,-0.0,0.0,-0.0,0.0,0.0,0.0,-0.000367,-0.001831,0.000854,-0.000781,-0.000223,0.000656
113645,-0.000611,-0.001953,0.000854,0.0,0.0,0.0,0.0,0.0,0.0,3.0,0.338572,0.329067,0.324105,0.309493,-0.0,0.0,-0.0,0.0,0.0,0.0,-0.000368,-0.00183,0.000976,0.010277,-0.013995,0.015923
113665,-0.000733,-0.002197,0.000854,0.0,0.0,0.0,0.0,0.0,0.0,3.0,0.334618,0.326523,0.328642,0.311788,-0.0,0.0,0.0,0.0,0.0,0.0,-0.000369,-0.001953,0.000976,0.033578,-0.000865,0.01551
113685,-0.000489,-0.002075,0.001098,0.0,0.0,0.0,0.0,0.0,0.0,3.0,0.338123,0.321899,0.329041,0.312349,-0.0,0.0,0.0,0.0,0.0,0.0,-0.000368,-0.001954,0.000976,0.024872,0.01281,0.011817
113705,-0.000245,-0.002075,0.001099,0.0,0.0,0.0,0.0,0.0,0.0,3.0,0.345255,0.320331,0.33309,0.301267,-0.0,0.0,0.0,0.0,0.0,-0.0,-0.000368,-0.002074,0.001098,0.015598,-0.00953,0.000837
113725,-0.000123,-0.001953,0.001099,0.0,0.0,0.0,0.0,0.0,0.0,3.0,0.354807,0.318655,0.334862,0.28898,-0.0,0.0,0.0,0.0,0.0,0.0,-0.000367,-0.002195,0.001099,-0.007676,-0.032975,-0.010311
113745,-0.000123,-0.002075,0.001099,0.0,0.0,0.0,0.0,0.0,0.0,3.0,0.339352,0.330554,0.322339,0.308862,-0.0,0.0,0.0,0.0,0.0,-0.0,-0.000245,-0.002074,0.00122,0.002939,-0.018011,0.015762
113765,-0.000368,-0.002441,0.00122,0.0,0.0,0.0,0.0,0.0,0.0,3.0,0.33839,0.327604,0.323621,0.311789,-0.0,0.0,0.0,0.0,0.0,0.0,-0.000246,-0.002197,0.00122,0.00907,-0.002178,0.015485
113785,-0.000612,-0.002441,0.00122,0.0,0.0,0.0,0.0,0.0,0.0,3.0,0.345135,0.32183,0.333232,0.299605,-0.0,0.0,0.0,0.0,0.0,0.0,-0.000369,-0.002441,0.00122,0.016401,-0.01534,0.000234
113805,-0.000856,-0.002563,0.001098,0.0,0.0,0.0,0.0,0.0,0.0,3.0,0.351217,0.321282,0.326922,0.299955,-0.0,0.0,0.0,0.0,0.0,0.0,-0.000734,-0.002563,0.00122,-0.016987,-0.01243,-2.2e-05
113825,-0.000734,-0.002563,0.001342,0.0,0.0,0.0,0.0,0.0,0.0,3.0,0.340258,0.333925,0.316323,0.3104,-0.0,0.0,0.0,0.0,0.0,0.0,-0.000856,-0.002562,0.001342,-0.012501,-0.020777,0.019567
113845,-0.000734,-0.002441,0.001464,0.0,0.0,0.0,0.0,0.0,0.0,3.0,0.350352,0.319619,0.322912,0.307202,-0.0,0.0,0.0,0.0,0.0,0.0,-0.000977,-0.00244,0.001342,-0.02397,0.009,0.003932
113865,-0.000857,-0.002807,0.001586,0.0,0.0,0.0,0.0,0.0,0.0,3.0,0.349947,0.322217,0.32649,0.300978,-0.0,0.0,0.0,0.0,0.0,0.0,-0.000978,-0.002562,0.001464,-0.01318,-0.012091,0.000688
113885,-0.000857,-0.002685,0.001586,0.0,0.0,0.0,0.0,0.0,0.0,3.0,0.343535,0.319976,0.33285,0.303978,-0.0,0.0,0.0,0.0,0.0,-0.0,-0.000858,-0.002685,0.001586,0.022347,0.001576,0.000696
113905,-0.000735,-0.002685,0.001586,0.0,0.0,0.0,0.0,0.0,0.0,3.0,0.347217,0.31351,0.329607,0.310005,-0.0,0.0,0.0,0.0,-0.0,0.0,-0.000734,-0.002442,0.001586,0.00226,0.031832,2.4e-05
113925,-0.000613,-0.002685,0.001586,0.0,0.0,0.0,0.0,0.0,0.0,3.0,0.350389,0.320165,0.326132,0.30307,-0.0,0.0,0.0,0.0,-0.0,-0.0,-0.000856,-0.002685,0.001586,-0.015876,-0.000849,-2.2e-05
113945,-0.000734,-0.002563,0.001586,0.0,0.0,0.0,0.0,0.0,0.0,3.0,0.361778,0.315166,0.33133,0.287895,-0.0,0.0,0.0,0.0,0.0,-0.0,-0.000977,-0.002806,0.001464,-0.035582,-0.022524,-0.015965
113965,-0.000979,-0.002685,0.001586,0.0,0.0,0.0,0.0,0.0,0.0,3.0,0.350398,0.319841,0.325484,0.304122,-0.0,0.0,0.0,0.0,0.0,-0.0,-0.000978,-0.002685,0.001586,-0.017016,0.002769,0.00041
113985,-0.001101,-0.002929,0.001586,0.0,0.0,0.0,0.0,0.0,0.0,3.0,0.347166,0.313801,0.326818,0.312767,-0.0,0.0,0.0,0.0,0.0,-0.0,-0.000979,-0.002442,0.001708,-0.003891,0.038481,0.001936
114005,-0.001223,-0.002807,0.001708,0.0,0.0,0.0,0.0,0.0,0.0,3.0,0.335073,0.324976,0.322124,0.319701,-0.0,0.0,0.0,0.0,-0.0,0.0,-0.00098,-0.002564,0.00183,0.018144,0.027964,0.017235
114025,-0.001345,-0.003051,0.001707,0.0,0.0,0.0,0.0,0.0,0.0,3.0,0.35143,0.318595,0.324606,0.30516,-0.0,0.0,0.0,0.0,-0.0,0.0,-0.001345,-0.002807,0.001707,-0.020629,0.009411,-0.000437
114045,-0.000979,-0.002929,0.001708,0.0,0.0,0.0,0.0,0.0,0.0,3.0,0.350345,0.319499,0.32666,0.303257,-0.0,0.0,0.0,0.0,-0.0,-0.0,-0.001345,-0.002929,0.001707,-0.011853,0.003171,-0.001282
114065,-0.000979,-0.003295,0.001708,0.0,0.0,0.0,0.0,0.0,0.0,3.0,0.348083,0.319972,0.325101,0.307175,-0.0,0.0,0.0,0.0,0.0,-0.0,-0.001101,-0.003052,0.00183,-0.010419,0.012128,0.001889
114085,-0.000858,-0.003295,0.00183,0.0,0.0,0.0,0.0,0.0,0.0,3.0,0.341292,0.318048,0.332839,0.308638,-0.0,0.0,0.0,0.0,0.0,-0.0,-0.000736,-0.003175,0.00183,0.028654,0.021369,0.001343
114105,-0.000735,-0.003173,0.00183,0.0,0.0,0.0,0.0,0.0,0.0,3.0,0.342604,0.31924,0.332774,0.30594,-0.0,0.0,0.0,0.0,-0.0,0.0,-0.000614,-0.003174,0.00183,0.024209,0.011852,6.1e-05
114125,-0.000735,-0.003173,0.00183,0.0,0.0,0.0,0.0,0.0,0.0,3.0,0.355124,0.310052,0.336991,0.295512,-0.0,0.0,0.0,0.0,-0.0,0.0,-0.000735,-0.003174,0.001709,-0.000277,0.010472,-0.015904
114145,-0.000735,-0.003295,0.001708,0.0,0.0,0.0,0.0,0.0,0.0,3.0,0.357567,0.314148,0.333831,0.291666,-0.0,0.0,0.0,0.0,-0.0,0.0,-0.000857,-0.003418,0.001708,-0.015891,-0.007356,-0.015507
114165,-0.000979,-0.003173,0.001586,0.0,0.0,0.0,0.0,0.0,0.0,3.0,0.348591,0.316989,0.326862,0.307796,-0.0,0.0,0.0,0.0,0.0,0.0,-0.000856,-0.003051,0.001708,-0.008092,0.022065,-0.000222
114185,-0.001223,-0.003173,0.001707,0.0,0.0,0.0,0.0,0.0,0.0,3.0,0.34563,0.325898,0.325672,0.303064,-0.0,0.0,0.0,0.0,-0.0,0.0,-0.000979,-0.003173,0.001708,-0.002049,-0.011912,0.00367
114205,-0.001345,-0.003173,0.001585,0.0,0.0,0.0,0.0,0.0,0.0,3.0,0.346491,0.3177,0.331152,0.304809,-0.0,0.0,0.0,0.0,-0.0,0.0,-0.001102,-0.003174,0.001585,0.0109,0.013811,-0.00184
114225,-0.001223,-0.003173,0.001585,0.0,0.0,0.0,0.0,0.0,0.0,3.0,0.347685,0.320544,0.331821,0.299542,-0.0,0.0,0.0,0.0,-0.0,0.0,-0.001102,-0.003295,0.001585,0.009305,-0.005411,-0.003695
114245,-0.000979,-0.003051,0.001586,0.0,0.0,0.0,0.0,0.0,0.0,3.0,0.356226,0.31597,0.329766,0.29621,-0.0,0.0,0.0,0.0,0.0,0.0,-0.001222,-0.003295,0.001586,-0.021122,-0.001323,-0.010396
114265,-0.000857,-0.003173,0.001586,0.0,0.0,0.0,0.0,0.0,0.0,3.0,0.348292,0.328348,0.327148,0.295371,-0.0,0.0,0.0,0.0,-0.0,-0.0,-0.000979,-0.003539,0.001585,-0.005645,-0.034347,-0.000174
114285,-0.000857,-0.003295,0.001464,0.0,0.0,0.0,0.0,0.0,0.0,3.0,0.349952,0.321851,0.327629,0.300094,-0.0,0.0,0.0,0.0,-0.0,-0.0,-0.000856,-0.003295,0.001464,-0.009738,-0.007053,-0.001937
114305,-0.000857,-0.003418,0.001342,0.0,0.0,0.0,0.0,0.0,0.0,3.0,0.349937,0.318737,0.332026,0.298509,-0.0,0.0,0.0,0.0,-0.0,-0.0,-0.000735,-0.003418,0.001341,0.001784,-0.002022,-0.005622
114325,-0.000857,-0.003296,0.001342,0.0,0.0,0.0,0.0,0.0,0.0,3.0,0.347806,0.319114,0.328189,0.305039,-0.0,0.0,0.0,0.0,-0.0,-0.0,-0.000735,-0.003296,0.001342,-0.002388,0.012198,-7.6e-05
114345,-0.000979,-0.003051,0.001342,0.0,0.0,0.0,0.0,0.0,0.0,3.0,0.350989,0.324653,0.324597,0.299108,-0.0,0.0,0.0,0.0,-0.0,-0.0,-0.000979,-0.003417,0.001341,-0.020286,-0.015719,-4.2e-05
114365,-0.000979,-0.003173,0.001341,0.0,0.0,0.0,0.0,0.0,0.0,3.0,0.355393,0.319984,0.322182,0.301442,-0.0,0.0,0.0,0.0,-0.0,-0.0,-0.001221,-0.003295,0.001219,-0.038719,0.001617,-0.001979
114385,-0.001223,-0.003051,0.001219,0.0,0.0,0.0,0.0,0.0,0.0,3.0,0.353576,0.321665,0.323456,0.300471,-0.0,0.0,0.0,0.0,0.0,-0.0,-0.001344,-0.003296,0.001219,-0.029286,-0.004903,-0.001338
114405,-0.001467,-0.003173,0.001097,0.0,0.0,0.0,0.0,0.0,0.0,3.0,0.351051,0.3273,0.324793,0.295805,-0.0,0.0,0.0,0.0,-0.0,-0.0,-0.001467,-0.003294,0.001219,-0.017599,-0.030558,-6.7e-05
114425,-0.001467,-0.003417,0.001218,0.0,0.0,0.0,0.0,0.0,0.0,3.0,0.344582,0.326924,0.330266,0.297997,-0.0,0.0,0.0,0.0,0.0,-0.0,-0.001345,-0.003539,0.001219,0.015643,-0.023204,0.001271
114445,-0.001101,-0.003418,0.001219,0.0,0.0,0.0,0.0,0.0,0.0,3.0,0.344371,0.321262,0.331757,0.302835,-0.0,0.0,0.0,0.0,0.0,-0.0,-0.001101,-0.003295,0.001219,0.019305,0.002236,5.1e-05
114465,-0.000857,-0.003418,0.001219,0.0,0.0,0.0,0.0,0.0,0.0,3.0,0.359247,0.317706,0.3334,0.2859,-0.0,0.0,0.0,0.0,-0.0,-0.0,-0.001099,-0.003662,0.001097,-0.020333,-0.025806,-0.015958
114485,-0.00049,-0.003418,0.001098,0.0,0.0,0.0,0.0,0.0,0.0,3.0,0.36081,0.318749,0.331156,0.285309,-0.0,0.0,0.0,0.0,-0.0,-0.0,-0.000977,-0.003783,0.001097,-0.03181,-0.029084,-0.015547
114505,-0.000856,-0.00354,0.001097,0.0,0.0,0.0,0.0,0.0,0.0,3.0,0.350154,0.324902,0.32611,0.298165,-0.0,0.0,0.0,0.0,-0.0,-0.0,-0.000856,-0.003661,0.001097,-0.013898,-0.01626,-0.000249
114525,-0.001101,-0.00354,0.001097,0.0,0.0,0.0,0.0,0.0,0.0,3.0,0.34099,0.325187,0.3242,0.310828,-0.0,0.0,0.0,0.0,-0.0,-0.0,-0.000979,-0.003418,0.001096,0.008185,0.012652,0.010327
114545,-0.001223,-0.003295,0.001097,0.0,0.0,0.0,0.0,0.0,0.0,3.0,0.349111,0.320164,0.333233,0.296556,-0.0,0.0,0.0,0.0,-0.0,-0.0,-0.001101,-0.00354,0.000975,0.009777,-0.007847,-0.005438
114565,-0.001467,-0.003295,0.000974,0.0,0.0,0.0,0.0,0.0,0.0,3.0,0.360013,0.316215,0.332071,0.288201,-0.0,0.0,0.0,0.0,-0.0,-0.0,-0.001589,-0.003539,0.000974,-0.023917,-0.016618,-0.015381
114585,-0.001467,-0.003295,0.000974,0.0,0.0,0.0,0.0,0.0,0.0,3.0,0.357776,0.318585,0.329277,0.291856,-0.0,0.0,0.0,0.0,-0.0,0.0,-0.00171,-0.003417,0.000974,-0.024117,-0.014825,-0.010578
114605,-0.001467,-0.003173,0.001097,0.0,0.0,0.0,0.0,0.0,0.0,3.0,0.357617,0.315109,0.329313,0.295882,-0.0,0.0,0.0,0.0,-0.0,-0.0,-0.001709,-0.003173,0.000975,-0.023463,0.002366,-0.010496
114625,-0.001344,-0.002929,0.000975,0.0,0.0,0.0,0.0,0.0,0.0,3.0,0.350037,0.321445,0.331671,0.295794,-0.0,0.0,0.0,0.0,-0.0,-0.0,-0.001466,-0.003173,0.000974,0.004659,-0.013964,-0.005096
114645,-0.0011,-0.003051,0.000853,0.0,0.0,0.0,0.0,0.0,0.0,3.0,0.347003,0.324851,0.329394,0.298381,-0.0,0.0,0.0,0.0,-0.0,0.0,-0.001222,-0.003173,0.000975,0.006309,-0.016712,-7e-05
114665,-0.000856,-0.002807,0.000976,0.0,0.0,0.0,0.0,0.0,0.0,3.0,0.343244,0.316653,0.331825,0.308963,-0.0,0.0,0.0,0.0,-0.0,-0.0,-0.000856,-0.002808,0.000976,0.022257,0.02854,0.001306
114685,-0.000856,-0.003052,0.000975,0.0,0.0,0.0,0.0,0.0,0.0,3.0,0.349892,0.321298,0.328615,0.299662,-0.0,0.0,0.0,0.0,-0.0,-0.0,-0.000978,-0.00293,0.000853,-0.005286,-0.005193,-0.001909
114705,-0.0011,-0.002807,0.000853,0.0,0.0,0.0,0.0,0.0,0.0,3.0,0.361234,0.312216,0.333207,0.289665,-0.0,0.0,0.0,0.0,-0.0,0.0,-0.001221,-0.003052,0.000731,-0.025757,-0.004407,-0.017237
114725,-0.001466,-0.002807,0.00073,0.0,0.0,0.0,0.0,0.0,0.0,3.0,0.361235,0.317203,0.331342,0.286291,-0.0,0.0,0.0,0.0,-0.0,-0.0,-0.001465,-0.002928,0.000731,-0.029745,-0.024963,-0.015553
114745,-0.00171,-0.002929,0.000608,0.0,0.0,0.0,0.0,0.0,0.0,3.0,0.348119,0.321728,0.328973,0.300959,-0.0,0.0,0.0,0.0,-0.0,-0.0,-0.001466,-0.002807,0.00073,0.003261,-0.003382,-0.000217
114765,-0.001588,-0.002685,0.00073,0.0,0.0,0.0,0.0,0.0,0.0,3.0,0.335914,0.327844,0.324728,0.313114,-0.0,0.0,0.0,0.0,-0.0,0.0,-0.001467,-0.002686,0.00073,0.026847,0.00976,0.015294
114785,-0.001588,-0.002685,0.00073,0.0,0.0,0.0,0.0,0.0,0.0,3.0,0.349757,0.320677,0.329188,0.299861,-0.0,0.0,0.0,0.0,-0.0,-0.0,-0.001588,-0.002685,0.000608,-0.000274,-0.003543,-0.001704
114805,-0.001344,-0.002685,0.000731,0.0,0.0,0.0,0.0,0.0,0.0,3.0,0.358194,0.314215,0.334711,0.28969,-0.0,0.0,0.0,0.0,-0.0,0.0,-0.001587,-0.002685,0.000609,-0.010295,-0.010365,-0.015297
114825,-0.001222,-0.002807,0.000609,0.0,0.0,0.0,0.0,0.0,0.0,3.0,0.354867,0.314287,0.334529,0.294199,-0.0,0.0,0.0,0.0,-0.0,0.0,-0.001343,-0.002685,0.000609,-0.001766,-0.000155,-0.011788
114845,-0.001221,-0.002807,0.000487,0.0,0.0,0.0,0.0,0.0,0.0,3.0,0.346852,0.324368,0.330525,0.297807,-0.0,0.0,0.0,0.0,-0.0,0.0,-0.001099,-0.002929,0.000609,0.009899,-0.016566,-0.000163
114865,-0.001222,-0.003052,0.000487,0.0,0.0,0.0,0.0,0.0,0.0,3.0,0.345926,0.324886,0.332418,0.296163,-0.0,0.0,0.0,0.0,-0.0,0.0,-0.000978,-0.003052,0.000487,0.017298,-0.021086,-0.000643
114885,-0.001343,-0.003052,0.000364,0.0,0.0,0.0,0.0,0.0,0.0,3.0,0.349554,0.318848,0.327811,0.303639,-0.0,0.0,0.0,0.0,-0.0,-0.0,-0.001222,-0.00293,0.000487,-0.004746,0.011931,-9e-06
114905,-0.001832,-0.003296,0.000363,0.0,0.0,0.0,0.0,0.0,0.0,3.0,0.352164,0.323491,0.323535,0.300126,-0.0,0.0,0.0,0.0,-0.0,-0.0,-0.001588,-0.003052,0.000486,-0.022228,-0.007843,0.001222
114925,-0.001954,-0.00293,0.000363,0.0,0.0,0.0,0.0,0.0,0.0,3.0,0.352169,0.320282,0.326036,0.300864,-0.0,0.0,0.0,0.0,-0.0,0.0,-0.001953,-0.003051,0.000363,-0.013844,0.002416,-0.000657
114945,-0.001954,-0.002807,0.000486,0.0,0.0,0.0,0.0,0.0,0.0,3.0,0.351086,0.319726,0.326501,0.302284,-0.0,0.0,0.0,0.0,-0.0,0.0,-0.002075,-0.002807,0.000363,-0.008737,0.006288,-1.4e-05
114965,-0.001954,-0.003051,0.000485,0.0,0.0,0.0,0.0,0.0,0.0,3.0,0.337818,0.328496,0.328081,0.306676,-0.0,0.0,0.0,0.0,-0.0,0.0,-0.001711,-0.00293,0.000485,0.032324,-0.005509,0.011007
114985,-0.00171,-0.003174,0.000486,0.0,0.0,0.0,0.0,0.0,0.0,3.0,0.343603,0.315847,0.337711,0.302727,-0.0,0.0,0.0,0.0,-0.0,0.0,-0.001467,-0.002931,0.000486,0.041425,0.018107,-0.003448
115005,-0.001466,-0.003174,0.000486,0.0,0.0,0.0,0.0,0.0,0.0,3.0,0.343827,0.322731,0.333779,0.299558,-0.0,0.0,0.0,0.0,-0.0,0.0,-0.001345,-0.003052,0.000486,0.02932,-0.006505,-8e-06
115025,-0.001344,-0.003296,0.000486,0.0,0.0,0.0,0.0,0.0,0.0,3.0,0.349117,0.323622,0.330647,0.295693,-0.0,0.0,0.0,0.0,-0.0,0.0,-0.001343,-0.003295,0.000364,0.005356,-0.016653,-0.00192
115045,-0.001343,-0.003418,0.000364,0.0,0.0,0.0,0.0,0.0,0.0,3.0,0.351446,0.321572,0.327421,0.298787,-0.0,0.0,0.0,0.0,0.0,-0.0,-0.001343,-0.003296,0.000364,-0.010234,-0.003915,-0.001307
115065,-0.001588,-0.003418,0.000364,0.0,0.0,0.0,0.0,0.0,0.0,3.0,0.350732,0.323343,0.324231,0.301289,-0.0,0.0,0.0,0.0,-0.0,0.0,-0.001465,-0.003296,0.000486,-0.016056,-0.002469,0.00187
115085,-0.001832,-0.003296,0.000363,0.0,0.0,0.0,0.0,0.0,0.0,3.0,0.340175,0.329666,0.320648,0.310677,-0.0,0.0,0.0,0.0,-0.0,-0.0,-0.001589,-0.003173,0.000485,0.005722,0.003154,0.01529
115105,-0.001954,-0.003174,0.000363,0.0,0.0,0.0,0.0,0.0,0.0,3.0,0.34873,0.317901,0.329341,0.303941,-0.0,0.0,0.0,0.0,-0.0,-0.0,-0.001833,-0.003052,0.000363,0.005405,0.017208,-0.000415
115125,-0.002076,-0.003052,0.000363,0.0,0.0,0.0,0.0,0.0,0.0,3.0,0.350364,0.316639,0.33111,0.301305,-0.0,0.0,0.0,0.0,-0.0,-0.0,-0.001955,-0.00293,0.000363,0.00606,0.013722,-0.003665
115145,-0.001832,-0.003051,0.000486,0.0,0.0,0.0,0.0,0.0,0.0,3.0,0.346409,0.325558,0.328872,0.298908,-0.0,0.0,0.0,0.0,0.0,-0.0,-0.001955,-0.003051,0.000485,0.011652,-0.014452,0.001869
115165,-0.001588,-0.002929,0.000486,0.0,0.0,0.0,0.0,0.0,0.0,3.0,0.348062,0.324052,0.329095,0.298314,-0.0,0.0,0.0,0.0,-0.0,-0.0,-0.001709,-0.002929,0.000486,0.006416,-0.01228,2.4e-05
115185,-0.001466,-0.003174,0.000486,0.0,0.0,0.0,0.0,0.0,0.0,3.0,0.34613,0.324909,0.331149,0.297364,-0.0,0.0,0.0,0.0,-0.0,-0.0,-0.001466,-0.003051,0.000486,0.016645,-0.016085,1.3e-05
115205,-0.001344,-0.003052,0.000486,0.0,0.0,0.0,0.0,0.0,0.0,3.0,0.341667,0.321717,0.335721,0.301009,-0.0,0.0,0.0,0.0,0.0,-0.0,-0.001101,-0.003052,0.000487,0.040589,0.001024,6.3e-05
115225,-0.001221,-0.003052,0.000364,0.0,0.0,0.0,0.0,0.0,0.0,3.0,0.346823,0.321453,0.330356,0.30127,-0.0,0.0,0.0,0.0,-0.0,0.0,-0.001222,-0.002929,0.000487,0.011489,0.001927,1.8e-05
115245,-0.001221,-0.002807,0.000487,0.0,0.0,0.0,0.0,0.0,0.0,3.0,0.348131,0.326223,0.327573,0.29752,-0.0,0.0,0.0,0.0,-0.0,0.0,-0.001221,-0.002928,0.000487,0.000157,-0.019329,0.001249
115265,-0.001344,-0.002685,0.000487,0.0,0.0,0.0,0.0,0.0,0.0,3.0,0.34513,0.324593,0.328068,0.30244,-0.0,0.0,0.0,0.0,-0.0,0.0,-0.001222,-0.002684,0.000487,0.010304,-0.004333,0.00371
115285,-0.001587,-0.002685,0.000364,0.0,0.0,0.0,0.0,0.0,0.0,3.0,0.342934,0.325123,0.322987,0.309963,-0.0,0.0,0.0,0.0,-0.0,-0.0,-0.001467,-0.002564,0.000486,0.004192,0.012166,0.010375
115305,-0.001587,-0.002563,0.000364,0.0,0.0,0.0,0.0,0.0,0.0,3.0,0.348604,0.318776,0.33333,0.298603,-0.0,0.0,0.0,0.0,-0.0,-0.0,-0.001589,-0.002563,0.000364,0.016349,0.001427,-0.004167
115325,-0.001587,-0.002563,0.000364,0.0,0.0,0.0,0.0,0.0,0.0,3.0,0.344436,0.327426,0.326722,0.301627,-0.0,0.0,0.0,0.0,-0.0,-0.0,-0.001588,-0.002563,0.000487,0.010534,-0.013969,0.005543
115345,-0.001343,-0.002685,0.000364,0.0,0.0,0.0,0.0,0.0,0.0,3.0,0.349548,0.32294,0.328373,0.298545,-0.0,0.0,0.0,0.0,-0.0,-0.0,-0.001587,-0.002685,0.000364,0.00015,-0.008741,-0.000586
115365,-0.001343,-0.002808,0.000364,0.0,0.0,0.0,0.0,0.0,0.0,3.0,0.345842,0.3241,0.331677,0.298018,-0.0,0.0,-0.0,0.0,0.0,-0.0,-0.001344,-0.002807,0.000364,0.018982,-0.012354,1e-05
115385,-0.001221,-0.002808,0.000365,0.0,0.0,0.0,0.0,0.0,0.0,3.0,0.346229,0.323083,0.331239,0.299187,-0.0,0.0,0.0,0.0,-0.0,0.0,-0.001222,-0.002807,0.000365,0.016171,-0.006805,1.8e-05
115405,-0.001221,-0.00293,0.000242,0.0,0.0,0.0,0.0,0.0,0.0,3.0,0.348974,0.326892,0.328312,0.29485,-0.0,0.0,0.0,0.0,-0.0,0.0,-0.001221,-0.002929,0.000364,0.000223,-0.026314,-1.6e-05
115425,-0.001221,-0.002808,0.000365,0.0,0.0,0.0,0.0,0.0,0.0,3.0,0.336396,0.327537,0.32473,0.312908,-0.0,0.0,0.0,0.0,-0.0,-0.0,-0.0011,-0.002685,0.000364,0.026199,0.014509,0.015297
115445,-0.001221,-0.002563,0.000365,0.0,0.0,0.0,0.0,0.0,0.0,3.0,0.350533,0.322279,0.32887,0.297486,-0.0,0.0,-0.0,0.0,-0.0,-0.0,-0.001343,-0.002685,0.000242,-0.002198,-0.00885,-0.00171
115465,-0.001221,-0.002808,0.000365,0.0,0.0,0.0,0.0,0.0,0.0,3.0,0.348386,0.327249,0.328206,0.295301,-0.0,0.0,-0.0,0.0,-0.0,-0.0,-0.001343,-0.002929,0.000364,0.002385,-0.025837,0.000618
115485,-0.001588,-0.003052,0.000364,0.0,0.0,0.0,0.0,0.0,0.0,3.0,0.35934,0.321621,0.328174,0.287589,-0.0,0.0,-0.0,0.0,-0.0,-0.0,-0.001587,-0.003051,0.000365,-0.029349,-0.027843,-0.010365
115505,-0.001588,-0.003174,0.000364,0.0,0.0,0.0,0.0,0.0,0.0,3.0,0.349448,0.323435,0.327868,0.298692,-0.0,0.0,-0.0,0.0,-0.0,-0.0,-0.001588,-0.003051,0.000364,-0.000416,-0.00702,-0.000154
115525,-0.001465,-0.003052,0.000364,0.0,0.0,0.0,0.0,0.0,0.0,3.0,0.339329,0.327086,0.327069,0.307597,-0.0,0.0,-0.0,0.0,0.0,-0.0,-0.001467,-0.003051,0.000363,0.026194,0.004844,0.010351
115545,-0.001343,-0.003052,0.000242,0.0,0.0,0.0,0.0,0.0,0.0,3.0,0.357212,0.314985,0.336736,0.287643,-0.0,0.0,-0.0,0.0,0.0,0.0,-0.001465,-0.003051,0.000242,0.000394,-0.010254,-0.015768
115565,-0.001221,-0.00293,0.000364,0.0,0.0,0.0,0.0,0.0,0.0,3.0,0.354988,0.320556,0.333542,0.288163,-0.0,0.0,-0.0,0.0,-0.0,0.0,-0.001342,-0.003173,0.000243,-0.002272,-0.022685,-0.010549
115585,-0.001099,-0.00293,0.000365,0.0,0.0,0.0,0.0,0.0,0.0,3.0,0.343065,0.330623,0.318332,0.308748,-0.0,0.0,-0.0,0.0,-0.0,0.0,-0.001343,-0.002929,0.000364,-0.007946,-0.001947,0.014485
115605,-0.001221,-0.00293,0.000364,0.0,0.0,0.0,0.0,0.0,0.0,3.0,0.354218,0.31825,0.328763,0.297431,-0.0,0.0,0.0,0.0,-0.0,0.0,-0.001343,-0.00293,0.000242,-0.012936,0.003647,-0.00541
115625,-0.001221,-0.00293,0.000242,0.0,0.0,0.0,0.0,0.0,0.0,3.0,0.35681,0.313238,0.33664,0.290262,-0.0,0.0,0.0,0.0,-0.0,-0.0,-0.001221,-0.00293,0.000243,0.000494,4.1e-05,-0.015326
115645,-0.001221,-0.003052,0.000242,0.0,0.0,0.0,0.0,0.0,0.0,3.0,0.353904,0.318578,0.334632,0.290537,-0.0,0.0,0.0,0.0,-0.0,-0.0,-0.001221,-0.003051,0.000243,0.003702,-0.012231,-0.010528
115665,-0.001099,-0.00293,0.000243,0.0,0.0,0.0,0.0,0.0,0.0,3.0,0.35562,0.315056,0.335159,0.291613,-0.0,0.0,-0.0,0.0,-0.0,-0.0,-0.001221,-0.002929,0.000121,6.8e-05,-0.00121,-0.012377
115685,-0.001099,-0.00293,0.000243,0.0,0.0,0.0,0.0,0.0,0.0,3.0,0.354278,0.323563,0.324712,0.296061,-0.0,0.0,-0.0,0.0,-0.0,-0.0,-0.001342,-0.003051,0.00012,-0.023791,-0.012246,-0.00148
115705,-0.001099,-0.002808,0.000243,0.0,0.0,0.0,0.0,0.0,0.0,3.0,0.351157,0.325073,0.321295,0.302079,-0.0,0.0,-0.0,0.0,-0.0,-0.0,-0.001342,-0.002929,0.000242,-0.023484,-0.002458,0.004283
115725,-0.001221,-0.00293,0.00012,0.0,0.0,0.0,0.0,0.0,0.0,3.0,0.349698,0.322705,0.323542,0.304004,-0.0,0.0,-0.0,0.0,0.0,-0.0,-0.001343,-0.002807,0.000242,-0.013169,0.007983,0.003728
115745,-0.001099,-0.00293,0.00012,0.0,0.0,0.0,0.0,0.0,0.0,3.0,0.346859,0.316737,0.331778,0.304686,-0.0,0.0,-0.0,0.0,0.0,-0.0,-0.001099,-0.002686,0.000121,0.016377,0.024638,-0.000567
115765,-0.000977,-0.002686,0.000121,0.0,0.0,0.0,0.0,0.0,0.0,3.0,0.350491,0.316088,0.329759,0.303263,-0.0,0.0,-0.0,0.0,0.0,-0.0,-0.001099,-0.002564,-2e-06,0.000233,0.022452,-0.001912
115785,-0.000855,-0.002564,-1e-06,0.0,0.0,0.0,0.0,0.0,0.0,3.0,0.359603,0.316367,0.330342,0.290666,-0.0,0.0,-0.0,0.0,0.0,-0.0,-0.001098,-0.002685,-1e-06,-0.025541,-0.006973,-0.011634
115805,-0.000855,-0.002442,-1e-06,0.0,0.0,0.0,0.0,0.0,0.0,3.0,0.360413,0.316755,0.328204,0.291682,-0.0,0.0,-0.0,0.0,-0.0,0.0,-0.001097,-0.002563,-1e-06,-0.033796,-0.006077,-0.01052
115825,-0.000855,-0.002564,-1e-06,0.0,0.0,0.0,0.0,0.0,0.0,3.0,0.35488,0.319406,0.322963,0.301852,-0.0,0.0,-0.0,0.0,-0.0,-0.0,-0.001098,-0.002319,-1e-06,-0.030983,0.009845,-0.000181
115845,-0.000976,-0.002442,-0.000123,0.0,0.0,0.0,0.0,0.0,0.0,3.0,0.350832,0.314864,0.329796,0.304097,-0.0,0.0,-0.0,0.0,0.0,-0.0,-0.000977,-0.002321,-0.000123,-0.001042,0.026954,-0.001906
115865,-0.000854,-0.002442,-0.000123,0.0,0.0,0.0,0.0,0.0,0.0,3.0,0.352087,0.320184,0.326368,0.300701,-0.0,0.0,-0.0,0.0,0.0,0.0,-0.000976,-0.002319,-0.000123,-0.014005,0.005323,-4e-05
115885,-0.000732,-0.002197,-0.000123,0.0,0.0,0.0,0.0,0.0,0.0,3.0,0.349541,0.319811,0.329116,0.301155,-0.0,0.0,-0.0,0.0,-0.0,-0.0,-0.000854,-0.002197,-0.000123,0.000457,0.006931,3e-06
115905,-0.00061,-0.00232,-0.000123,0.0,0.0,0.0,0.0,0.0,0.0,3.0,0.352206,0.317235,0.326213,0.303899,-0.0,0.0,-0.0,0.0,-0.0,-0.0,-0.000854,-0.002076,-0.000123,-0.015246,0.019682,-9e-06
115925,-0.00061,-0.002197,-0.000123,0.0,0.0,0.0,0.0,0.0,0.0,3.0,0.352583,0.316974,0.328346,0.30134,-0.0,0.0,-0.0,0.0,-0.0,0.0,-0.000732,-0.002198,-0.000245,-0.011129,0.014869,-0.001924
115945,-0.00061,-0.002075,-0.000245,0.0,0.0,0.0,0.0,0.0,0.0,3.0,0.354832,0.31689,0.329239,0.297595,-0.0,0.0,-0.0,0.0,-0.0,0.0,-0.000732,-0.002075,-0.000245,-0.015405,0.005804,-0.004983
115965,-0.000488,-0.002197,-0.000245,0.0,0.0,0.0,0.0,0.0,0.0,3.0,0.356503,0.312851,0.333287,0.295127,-0.0,0.0,-0.0,0.0,-0.0,0.0,-0.000609,-0.002076,-0.000244,-0.00986,0.010384,-0.010385
115985,-0.000488,-0.001953,-0.000245,0.0,0.0,0.0,0.0,0.0,0.0,3.0,0.349566,0.316149,0.32971,0.304375,-0.0,0.0,-0.0,0.0,0.0,-0.0,-0.000488,-0.001831,-0.000245,0.000511,0.022913,-0.000142
116005,-0.000488,-0.001831,-0.000123,0.0,0.0,0.0,0.0,0.0,0.0,3.0,0.350007,0.317682,0.329088,0.302911,-0.0,0.0,-0.0,0.0,0.0,-0.0,-0.00061,-0.001832,-0.000245,-0.001911,0.015571,1e-06
116025,-0.00061,-0.001953,-0.000245,0.0,0.0,0.0,0.0,0.0,0.0,3.0,0.357882,0.318304,0.325861,0.296,-0.0,0.0,-0.0,0.0,0.0,0.0,-0.000854,-0.001953,-0.000245,-0.033094,-0.001702,-0.004976
116045,-0.000732,-0.002075,-0.000245,0.0,0.0,0.0,0.0,0.0,0.0,3.0,0.354519,0.318788,0.324221,0.301584,-0.0,0.0,-0.0,0.0,-0.0,0.0,-0.000853,-0.001954,-0.000245,-0.027287,0.010282,-9.1e-05
116065,-0.000732,-0.002075,-0.000245,0.0,0.0,0.0,0.0,0.0,0.0,3.0,0.350803,0.317856,0.328255,0.302684,-0.0,0.0,-0.0,0.0,-0.0,0.0,-0.000855,-0.001954,-0.000245,-0.005331,0.015397,0.0
116085,-0.00061,-0.002075,-0.000245,0.0,0.0,0.0,0.0,0.0,0.0,3.0,0.344451,0.321749,0.32372,0.311017,-0.0,0.0,-0.0,0.0,-0.0,-0.0,-0.000732,-0.001954,-0.000246,0.000568,0.02578,0.01032
116105,-0.00061,-0.002075,-0.000367,0.0,0.0,0.0,0.0,0.0,0.0,3.0,0.349549,0.317926,0.329477,0.30277,-0.0,0.0,-0.0,0.0,-0.0,-0.0,-0.00061,-0.001954,-0.000245,0.000661,0.015617,0.000153
116125,-0.000488,-0.002197,-0.000245,0.0,0.0,0.0,0.0,0.0,0.0,3.0,0.346266,0.322714,0.325209,0.306282,-0.0,0.0,-0.0,0.0,-0.0,-0.0,-0.000488,-0.001954,-0.000122,-0.001764,0.011791,0.006862
116145,-0.000366,-0.002197,-0.000122,0.0,0.0,0.0,0.0,0.0,0.0,3.0,0.349722,0.318757,0.323476,0.308257,-0.0,0.0,-0.0,0.0,-0.0,-0.0,-0.00061,-0.001954,-0.000122,-0.015937,0.026988,0.005028
116165,-0.000366,-0.001953,-0.000122,0.0,0.0,0.0,0.0,0.0,0.0,3.0,0.352484,0.316558,0.328512,0.301721,-0.0,0.0,-0.0,0.0,-0.0,0.0,-0.000487,-0.001954,-0.000245,-0.011138,0.016892,-0.001855
116185,-0.00061,-0.002075,-0.000245,0.0,0.0,0.0,0.0,0.0,0.0,3.0,0.348277,0.318269,0.329938,0.303426,-0.0,0.0,-0.0,0.0,-0.0,0.0,-0.000489,-0.001832,-0.000123,0.005206,0.016144,0.000639
116205,-0.00061,-0.002197,-0.000245,0.0,0.0,0.0,0.0,0.0,0.0,3.0,0.346851,0.31571,0.33076,0.306908,-0.0,0.0,-0.0,0.0,-0.0,-0.0,-0.000489,-0.001955,-0.000123,0.011643,0.031759,0.001291
116225,-0.00061,-0.001953,-0.000123,0.0,0.0,0.0,0.0,0.0,0.0,3.0,0.349063,0.315273,0.330904,0.304567,-0.0,0.0,-0.0,0.0,-0.0,-0.0,-0.000611,-0.001954,-0.000245,0.006134,0.027274,-0.000623
116245,-0.00061,-0.001953,-0.000123,0.0,0.0,0.0,0.0,0.0,0.0,3.0,0.351464,0.318639,0.329026,0.30016,-0.0,0.0,-0.0,0.0,0.0,0.0,-0.000732,-0.002076,-0.000245,-0.005507,0.008777,-0.001272
116265,-0.000488,-0.002075,-0.000123,0.0,0.0,0.0,0.0,0.0,0.0,3.0,0.349193,0.321872,0.328987,0.299469,-0.0,0.0,-0.0,0.0,0.0,0.0,-0.00061,-0.002075,-0.000123,0.000579,-0.001134,0.000638
116285,-0.000366,-0.002197,-0.000122,0.0,0.0,0.0,0.0,0.0,0.0,3.0,0.348989,0.31612,0.329895,0.304893,-0.0,0.0,-0.0,0.0,0.0,0.0,-0.000366,-0.001954,-0.000122,0.002578,0.026199,1.6e-05
116305,-0.000244,-0.002075,-0.000122,0.0,0.0,0.0,0.0,0.0,0.0,3.0,0.337085,0.323929,0.327105,0.313446,-0.0,0.0,-0.0,0.0,0.0,-0.0,-0.000123,-0.001954,-0.000123,0.028149,0.027195,0.014024
116325,-0.000244,-0.002075,-0.000122,0.0,0.0,0.0,0.0,0.0,0.0,3.0,0.339543,0.322217,0.328401,0.311115,-0.0,0.0,-0.0,0.0,0.0,-0.0,-1e-06,-0.001954,-0.000123,0.024179,0.025947,0.010534
116345,-0.000244,-0.001953,-0.000122,0.0,0.0,0.0,0.0,0.0,0.0,3.0,0.34695,0.311624,0.335887,0.305256,-0.0,0.0,-0.0,0.0,-0.0,0.0,-1e-06,-0.001833,-0.000122,0.023483,0.038153,-0.003506
116365,-0.000244,-0.001953,-0.0,0.0,0.0,0.0,0.0,0.0,0.0,3.0,0.349013,0.318104,0.327441,0.305491,-0.0,0.0,-0.0,0.0,-0.0,0.0,-0.000244,-0.001832,-0.0,-0.00466,0.022419,0.001866
116385,-0.000244,-0.001831,-0.0,0.0,0.0,0.0,0.0,0.0,0.0,3.0,0.351957,0.322038,0.326267,0.298938,-0.0,0.0,-0.0,0.0,-0.0,0.0,-0.000366,-0.002075,-0.0,-0.01597,-0.002252,9e-06
116405,-0.000366,-0.001831,-0.0,0.0,0.0,0.0,0.0,0.0,0.0,3.0,0.359333,0.308908,0.335907,0.292558,-0.0,0.0,-0.0,0.0,-0.0,-0.0,-0.000366,-0.001832,-0.000122,-0.011779,0.015267,-0.015916
116425,-0.000366,-0.001953,-0.000122,0.0,0.0,0.0,0.0,0.0,0.0,3.0,0.344047,0.317656,0.334257,0.30425,-0.0,0.0,-0.0,0.0,-0.0,-0.0,-0.000123,-0.001833,-0.0,0.027962,0.020832,0.000461
116445,-0.000366,-0.001831,-0.0,0.0,0.0,0.0,0.0,0.0,0.0,3.0,0.332866,0.327089,0.327106,0.314733,-0.0,0.0,-0.0,0.0,-0.0,-0.0,-2e-06,-0.001832,0.000122,0.039424,0.022176,0.017215
116465,-0.000122,-0.001587,0.000122,0.0,0.0,0.0,0.0,0.0,0.0,3.0,0.337566,0.326714,0.324115,0.313134,-0.0,0.0,-0.0,0.0,-0.0,-0.0,-0.0,-0.001587,0.000122,0.018319,0.018138,0.01551
116485,-0.0,-0.001587,0.000122,0.0,0.0,0.0,0.0,0.0,0.0,3.0,0.343133,0.327099,0.323748,0.306788,-0.0,0.0,-0.0,0.0,-0.0,-0.0,-0.0,-0.001709,0.000121,0.001509,0.00202,0.010529
116505,-0.0,-0.001465,0.000122,0.0,0.0,0.0,0.0,0.0,0.0,3.0,0.346526,0.31876,0.331558,0.303183,-0.0,0.0,-0.0,0.0,-0.0,0.0,0.000121,-0.001587,0.000122,0.012246,0.014672,0.00016
116525,-0.000122,-0.001465,0.000122,0.0,0.0,0.0,0.0,0.0,0.0,3.0,0.351246,0.318539,0.326634,0.303218,-0.0,0.0,-0.0,0.0,-0.0,-0.0,0.0,-0.001465,0.000122,-0.014471,0.014854,-9e-06
116545,-0.000244,-0.001465,0.000122,0.0,0.0,0.0,0.0,0.0,0.0,3.0,0.346843,0.322574,0.331374,0.298846,-0.0,0.0,-0.0,0.0,-0.0,-0.0,-1e-06,-0.001587,0.000122,0.011364,-0.005389,9e-06
116565,-0.000244,-0.001587,0.000122,0.0,0.0,0.0,0.0,0.0,0.0,3.0,0.349796,0.322982,0.328206,0.298381,-0.0,0.0,-0.0,0.0,-0.0,0.0,-0.000244,-0.001709,0.000122,-0.004831,-0.006932,-5e-06
116585,-0.000244,-0.001587,0.000122,0.0,0.0,0.0,0.0,0.0,0.0,3.0,0.353202,0.320548,0.328531,0.296445,-0.0,0.0,-0.0,0.0,-0.0,0.0,-0.000244,-0.001709,0.000122,-0.014054,-0.005037,-0.003695
116605,-0.0,-0.001587,0.000122,0.0,0.0,0.0,0.0,0.0,0.0,3.0,0.3492,0.323213,0.326359,0.300945,-0.0,0.0,-0.0,0.0,-0.0,0.0,-0.000122,-0.001709,0.000244,-0.008593,-0.001328,0.001858
116625,0.000122,-0.001587,0.000244,0.0,0.0,0.0,0.0,0.0,0.0,3.0,0.347727,0.32929,0.324504,0.297996,-0.0,0.0,-0.0,0.0,0.0,-0.0,0.0,-0.00183,0.000244,-0.009784,-0.02381,0.004961
116645,0.000122,-0.001709,0.000244,0.0,0.0,0.0,0.0,0.0,0.0,3.0,0.357427,0.315415,0.333093,0.291327,-0.0,0.0,-0.0,0.0,0.0,-0.0,0.0,-0.001831,0.000123,-0.01538,-0.002858,-0.012172
116665,0.000122,-0.001587,0.000122,0.0,0.0,0.0,0.0,0.0,0.0,3.0,0.354194,0.313234,0.340018,0.289544,-0.0,0.0,-0.0,0.0,0.0,0.0,0.000243,-0.001831,0.000123,0.012677,-0.001299,-0.015414
116685,0.000244,-0.001465,0.000244,0.0,0.0,0.0,0.0,0.0,0.0,3.0,0.3507,0.323062,0.32486,0.30094,-0.0,0.0,-0.0,0.0,0.0,0.0,0.000122,-0.001709,0.000244,-0.018149,-0.000621,0.001683
116705,0.000366,-0.001465,0.000244,0.0,0.0,0.0,0.0,0.0,0.0,3.0,0.350046,0.32826,0.327417,0.292944,-0.0,0.0,-0.0,0.0,0.0,0.0,0.000245,-0.00183,0.000244,-0.009912,-0.032425,1.9e-05
116725,0.000366,-0.001465,0.000367,0.0,0.0,0.0,0.0,0.0,0.0,3.0,0.353132,0.327531,0.32403,0.293758,-0.0,0.0,-0.0,0.0,0.0,-0.0,0.000123,-0.00183,0.000244,-0.027621,-0.028534,-2e-05
116745,0.000244,-0.001587,0.000244,0.0,0.0,0.0,0.0,0.0,0.0,3.0,0.351953,0.324439,0.326726,0.295725,-0.0,0.0,-0.0,0.0,0.0,0.0,0.000122,-0.001709,0.000244,-0.016903,-0.016257,-0.001273
116765,0.000244,-0.001587,0.000244,0.0,0.0,0.0,0.0,0.0,0.0,3.0,0.348877,0.323174,0.326159,0.301606,-0.0,0.0,-0.0,0.0,0.0,0.0,0.000245,-0.001587,0.000367,-0.009892,0.000428,0.001891
116785,0.000488,-0.001465,0.000367,0.0,0.0,0.0,0.0,0.0,0.0,3.0,0.342339,0.327644,0.329743,0.300489,-0.0,0.0,-0.0,0.0,-0.0,0.0,0.000488,-0.001587,0.000367,0.017674,-0.013988,0.004986
116805,0.00061,-0.001221,0.000367,0.0,0.0,0.0,0.0,0.0,0.0,3.0,0.348289,0.320899,0.328781,0.301875,-0.0,0.0,-0.0,0.0,-0.0,0.0,0.000366,-0.001343,0.000367,-0.001667,0.006055,6.6e-05
116825,0.00061,-0.001099,0.000367,0.0,0.0,0.0,0.0,0.0,0.0,3.0,0.357301,0.312393,0.336711,0.290461,-0.0,0.0,-0.0,0.0,-0.0,-0.0,0.000489,-0.001221,0.000245,-0.007245,0.000743,-0.015912
116845,0.00061,-0.001221,0.000367,0.0,0.0,0.0,0.0,0.0,0.0,3.0,0.354855,0.317271,0.332471,0.293367,-0.0,0.0,-0.0,0.0,-0.0,0.0,0.000489,-0.001221,0.000367,-0.01167,-0.004927,-0.009884
116865,0.00061,-0.001099,0.000489,0.0,0.0,0.0,0.0,0.0,0.0,3.0,0.344098,0.32481,0.326862,0.304766,-0.0,0.0,-0.0,0.0,-0.0,-0.0,0.00061,-0.001099,0.000489,0.004168,0.001846,0.005459
116885,0.000366,-0.001099,0.000489,0.0,0.0,0.0,0.0,0.0,0.0,3.0,0.347346,0.323328,0.329287,0.299783,-0.0,0.0,-0.0,0.0,-0.0,-0.0,0.000488,-0.001221,0.000489,0.001822,-0.005573,7.7e-05
116905,0.000366,-0.001099,0.000366,0.0,0.0,0.0,0.0,0.0,0.0,3.0,0.353927,0.31337,0.339819,0.28999,-0.0,0.0,-0.0,0.0,-0.0,-0.0,0.000487,-0.001099,0.000367,0.011602,-0.003102,-0.0159
116925,0.000366,-0.001221,0.000367,0.0,0.0,0.0,0.0,0.0,0.0,3.0,0.35507,0.317358,0.332857,0.292529,-0.0,0.0,-0.0,0.0,-0.0,-0.0,0.000367,-0.001099,0.000367,-0.010794,-0.007401,-0.010538
116945,0.000488,-0.001099,0.000489,0.0,0.0,0.0,0.0,0.0,0.0,3.0,0.343279,0.328115,0.32765,0.301199,-0.0,0.0,-0.0,0.0,-0.0,0.0,0.000488,-0.00122,0.000489,0.009119,-0.01475,0.005457
116965,0.000488,-0.001099,0.000489,0.0,0.0,0.0,0.0,0.0,0.0,3.0,0.339699,0.329935,0.321834,0.309679,-0.0,0.0,-0.0,0.0,-0.0,0.0,0.000488,-0.001099,0.000488,0.003799,0.000443,0.014068
116985,0.000488,-0.001221,0.000367,0.0,0.0,0.0,0.0,0.0,0.0,3.0,0.349509,0.320359,0.333234,0.295839,-0.0,0.0,-0.0,0.0,-0.0,0.0,0.00061,-0.001099,0.000366,0.005651,-0.007357,-0.005395
117005,0.00061,-0.001099,0.000367,0.0,0.0,0.0,0.0,0.0,0.0,3.0,0.346584,0.318386,0.334534,0.300106,-0.0,0.0,-0.0,0.0,-0.0,0.0,0.000732,-0.0011,0.000367,0.017247,0.007785,-0.003749
117025,0.00061,-0.000977,0.000367,0.0,0.0,0.0,0.0,0.0,0.0,3.0,0.344542,0.322233,0.332661,0.300537,-0.0,0.0,-0.0,0.0,-0.0,-0.0,0.000854,-0.000977,0.000367,0.017409,-0.001656,-4.2e-05
117045,0.00061,-0.001099,0.000367,0.0,0.0,0.0,0.0,0.0,0.0,3.0,0.349627,0.321958,0.327161,0.300905,-0.0,0.0,-0.0,0.0,-0.0,0.0,0.000611,-0.000977,0.000367,-0.011374,-2.1e-05,-6e-06
117065,0.00061,-0.001343,0.000367,0.0,0.0,0.0,0.0,0.0,0.0,3.0,0.349457,0.32603,0.32732,0.296377,-0.0,0.0,-0.0,0.0,-0.0,0.0,0.000611,-0.001221,0.000367,-0.010474,-0.020242,0.0
117085,0.00061,-0.001221,0.000245,0.0,0.0,0.0,0.0,0.0,0.0,3.0,0.347686,0.321545,0.329223,0.301406,-0.0,0.0,-0.0,0.0,-0.0,0.0,0.00061,-0.001099,0.000367,-0.000149,0.002893,-1e-06
117105,0.000366,-0.001221,0.000367,0.0,0.0,0.0,0.0,0.0,0.0,3.0,0.347004,0.322815,0.328553,0.301595,-0.0,0.0,-0.0,0.0,-0.0,0.0,0.00061,-0.000977,0.000367,-3e-06,-0.000466,0.001261
117125,0.000366,-0.001099,0.000366,0.0,0.0,0.0,0.0,0.0,0.0,3.0,0.338243,0.325395,0.327821,0.309839,-0.0,0.0,-0.0,0.0,-0.0,0.0,0.000609,-0.000977,0.000366,0.023135,0.012817,0.010336
117145,0.000488,-0.000977,0.000367,0.0,0.0,0.0,0.0,0.0,0.0,3.0,0.339928,0.325219,0.325897,0.310192,-0.0,0.0,-0.0,0.0,-0.0,-0.0,0.00061,-0.000855,0.000366,0.013157,0.013662,0.01046
117165,0.00061,-0.000977,0.000244,0.0,0.0,0.0,0.0,0.0,0.0,3.0,0.356494,0.315626,0.337097,0.28743,-0.0,0.0,-0.0,0.0,-0.0,0.0,0.000488,-0.000976,0.000245,-0.004146,-0.014447,-0.015757
117185,0.00061,-0.000855,0.000244,0.0,0.0,0.0,0.0,0.0,0.0,3.0,0.344098,0.329698,0.327053,0.299091,-0.0,0.0,-0.0,0.0,-0.0,-0.0,0.00061,-0.000976,0.000367,0.004273,-0.024505,0.005386
117205,0.00061,-0.000977,0.000367,0.0,0.0,0.0,0.0,0.0,0.0,3.0,0.345004,0.328633,0.326467,0.299868,-0.0,0.0,-0.0,0.0,-0.0,-0.0,0.00061,-0.000853,0.000367,5.3e-05,-0.020311,0.005023
117225,0.000366,-0.000977,0.000244,0.0,0.0,0.0,0.0,0.0,0.0,3.0,0.347062,0.319176,0.336155,0.296751,-0.0,0.0,-0.0,0.0,-0.0,-0.0,0.000609,-0.000855,0.000244,0.020619,-0.002713,-0.00552
117245,0.000366,-0.000855,0.000244,0.0,0.0,0.0,0.0,0.0,0.0,3.0,0.344189,0.321536,0.33329,0.301004,-0.0,0.0,-0.0,0.0,-0.0,0.0,0.000487,-0.000855,0.000244,0.021517,0.001221,-6.7e-05
117265,0.000366,-0.000855,0.000244,0.0,0.0,0.0,0.0,0.0,0.0,3.0,0.345172,0.323792,0.332167,0.298614,-0.0,0.0,-0.0,0.0,-0.0,-0.0,0.000488,-0.000854,0.000244,0.015557,-0.010294,7e-06
117285,0.000488,-0.000855,0.000244,0.0,0.0,0.0,0.0,0.0,0.0,3.0,0.344345,0.322064,0.329019,0.305069,-0.0,0.0,-0.0,0.0,-0.0,0.0,0.000365,-0.000732,0.000244,0.009872,0.00913,0.003684
117305,0.000488,-0.000855,0.000244,0.0,0.0,0.0,0.0,0.0,0.0,3.0,0.347458,0.321979,0.329666,0.300704,-0.0,0.0,-0.0,0.0,0.0,-0.0,0.000366,-0.000855,0.000244,0.002562,-0.000531,5.2e-05
117325,0.000488,-0.000855,0.000122,0.0,0.0,0.0,0.0,0.0,0.0,3.0,0.35416,0.31775,0.340034,0.284412,-0.0,0.0,-0.0,0.0,0.0,0.0,0.000488,-0.000976,0.000123,0.011003,-0.026219,-0.015897
117345,0.000488,-0.001099,0.000122,0.0,0.0,0.0,0.0,0.0,0.0,3.0,0.346286,0.328298,0.329093,0.295683,-0.0,0.0,-0.0,0.0,0.0,0.0,0.000488,-0.001098,0.000245,0.003834,-0.027848,0.001701
117365,0.00061,-0.001099,0.000245,0.0,0.0,0.0,0.0,0.0,0.0,3.0,0.339504,0.323105,0.332623,0.305571,-0.0,0.0,-0.0,0.0,0.0,0.0,0.000732,-0.000976,0.000245,0.031863,0.00888,0.00498
117385,0.000732,-0.000977,0.000245,0.0,0.0,0.0,0.0,0.0,0.0,3.0,0.337557,0.329576,0.324647,0.309507,-0.0,0.0,-0.0,0.0,0.0,0.0,0.000732,-0.000977,0.000244,0.015693,0.001376,0.014067
117405,0.000732,-0.001099,0.000245,0.0,0.0,0.0,0.0,0.0,0.0,3.0,0.349632,0.326511,0.327095,0.295866,-0.0,0.0,-0.0,0.0,0.0,0.0,0.000611,-0.001098,0.000245,-0.012006,-0.022512,0.0002
117425,0.000732,-0.000977,0.000245,0.0,0.0,0.0,0.0,0.0,0.0,3.0,0.349565,0.325525,0.323279,0.301355,-0.0,0.0,-0.0,0.0,0.0,0.0,0.000612,-0.001098,0.000245,-0.022051,-0.006946,0.003676
117445,0.000732,-0.000977,0.000245,0.0,0.0,0.0,0.0,0.0,0.0,3.0,0.3478,0.321462,0.325161,0.305858,-0.0,0.0,-0.0,0.0,0.0,0.0,0.000611,-0.000854,0.000245,-0.011884,0.013515,0.003723
117465,0.00061,-0.000855,0.000367,0.0,0.0,0.0,0.0,0.0,0.0,3.0,0.342575,0.323674,0.323411,0.311464,-0.0,0.0,-0.0,0.0,0.0,-0.0,0.00061,-0.000733,0.000244,-0.001432,0.021031,0.010354
117485,0.000732,-0.000733,0.000367,0.0,0.0,0.0,0.0,0.0,0.0,3.0,0.353111,0.312124,0.33982,0.29243,-0.0,0.0,-0.0,0.0,0.0,0.0,0.000732,-0.000732,0.000245,0.012211,0.00524,-0.015102
117505,0.000732,-0.000733,0.000367,0.0,0.0,0.0,0.0,0.0,0.0,3.0,0.351636,0.324766,0.32413,0.298697,-0.0,0.0,-0.0,0.0,0.0,0.0,0.000611,-0.000854,0.000367,-0.026043,-0.012148,0.000436
117525,0.000854,-0.000733,0.000244,0.0,0.0,0.0,0.0,0.0,0.0,3.0,0.350203,0.318822,0.328728,0.301851,-0.0,0.0,-0.0,0.0,0.0,0.0,0.000733,-0.00061,0.000244,-0.01002,0.009764,-0.001917
117545,0.000977,-0.000488,0.000244,0.0,0.0,0.0,0.0,0.0,0.0,3.0,0.351272,0.317622,0.325465,0.305446,-0.0,0.0,-0.0,0.0,0.0,-0.0,0.000734,-0.000489,0.000244,-0.022018,0.020985,-4.1e-05
117565,0.000854,-0.000488,0.000244,0.0,0.0,0.0,0.0,0.0,0.0,3.0,0.350365,0.32095,0.326414,0.301935,-0.0,0.0,-0.0,0.0,0.0,-0.0,0.000733,-0.000488,0.000244,-0.016825,0.003977,-6e-06
117585,0.000854,-0.000488,0.000244,0.0,0.0,0.0,0.0,0.0,0.0,3.0,0.352538,0.311807,0.335284,0.298942,-0.0,0.0,-0.0,0.0,0.0,0.0,0.000855,-0.000367,0.000245,0.000424,0.019647,-0.010318
117605,0.000977,-0.000488,0.000244,0.0,0.0,0.0,0.0,0.0,0.0,3.0,0.336745,0.324615,0.323045,0.317337,-0.0,0.0,-0.0,0.0,0.0,-0.0,0.000976,-0.000245,0.000366,0.012232,0.031423,0.015748
117625,0.000854,-0.000488,0.000244,0.0,0.0,0.0,0.0,0.0,0.0,3.0,0.351309,0.317194,0.325824,0.305461,-0.0,0.0,-0.0,0.0,0.0,-0.0,0.000733,-0.000368,0.000244,-0.021327,0.021668,-0.000446
117645,0.000854,-0.000366,0.000244,0.0,0.0,0.0,0.0,0.0,0.0,3.0,0.351141,0.319834,0.325516,0.30319,-0.0,0.0,-0.0,0.0,0.0,0.0,0.00061,-0.000489,0.000244,-0.021146,0.009965,-1.5e-05
117665,0.000854,-0.000488,0.000244,0.0,0.0,0.0,0.0,0.0,0.0,3.0,0.347594,0.31881,0.329362,0.304313,-0.0,0.0,-0.0,0.0,0.0,-0.0,0.000732,-0.000367,0.000244,-0.000899,0.014788,-6e-06
117685,0.000732,-0.000733,0.000244,0.0,0.0,0.0,0.0,0.0,0.0,3.0,0.336935,0.329,0.322613,0.312967,-0.0,0.0,-0.0,0.0,0.0,-0.0,0.000854,-0.000489,0.000366,0.010949,0.009854,0.015907
117705,0.00061,-0.00061,0.000244,0.0,0.0,0.0,0.0,0.0,0.0,3.0,0.337701,0.322213,0.328936,0.312606,-0.0,0.0,-0.0,0.0,0.0,0.0,0.000853,-0.000489,0.000244,0.025715,0.026955,0.009876
117725,0.000732,-0.000366,0.000366,0.0,0.0,0.0,0.0,0.0,0.0,3.0,0.342542,0.318391,0.33449,0.304978,-0.0,0.0,-0.0,0.0,0.0,-0.0,0.000853,-0.000367,0.000244,0.027187,0.017545,0.000141
117745,0.000732,-0.000366,0.000366,0.0,0.0,0.0,0.0,0.0,0.0,3.0,0.347538,0.319556,0.32823,0.304842,-0.0,0.0,-0.0,0.0,-0.0,0.0,0.000732,-0.000367,0.000366,-0.00395,0.014237,0.000651
117765,0.000854,-0.000366,0.000366,0.0,0.0,0.0,0.0,0.0,0.0,3.0,0.33536,0.326648,0.323784,0.315966,-0.0,0.0,-0.0,0.0,-0.0,-0.0,0.000976,-0.000246,0.000488,0.01777,0.022723,0.01591
117785,0.000977,-0.000122,0.000488,0.0,0.0,0.0,0.0,0.0,0.0,3.0,0.336644,0.325356,0.322911,0.316818,-0.0,0.0,-0.0,0.0,0.0,-0.0,0.000976,-0.000123,0.000488,0.011823,0.027789,0.015466
117805,0.000855,-0.0,0.000488,0.0,0.0,0.0,0.0,0.0,0.0,3.0,0.347255,0.31956,0.328538,0.304834,-0.0,0.0,-0.0,0.0,0.0,-0.0,0.000976,-1e-06,0.000488,-0.003511,0.012618,0.000212
117825,0.000855,-0.000122,0.000488,0.0,0.0,0.0,0.0,0.0,0.0,3.0,0.351873,0.315017,0.338893,0.291975,-0.0,0.0,-0.0,0.0,0.0,0.0,0.000976,-0.000123,0.000489,0.01152,-0.005415,-0.013986
117845,0.000855,-0.0,0.000488,0.0,0.0,0.0,0.0,0.0,0.0,3.0,0.342347,0.32354,0.327595,0.307383,-0.0,0.0,-0.0,0.0,0.0,0.0,0.000976,-1e-06,0.000611,0.008054,0.008463,0.005397
117865,0.000977,0.000122,0.00061,0.0,0.0,0.0,0.0,0.0,0.0,3.0,0.351726,0.324699,0.324434,0.298319,-0.0,0.0,-0.0,0.0,0.0,0.0,0.000734,-0.000122,0.000488,-0.026757,-0.015777,-0.000576
117885,0.000977,0.000244,0.00061,0.0,0.0,0.0,0.0,0.0,0.0,3.0,0.354518,0.319957,0.333411,0.289637,-0.0,0.0,-0.0,0.0,0.0,-0.0,0.000855,-0.000121,0.000489,-0.011299,-0.023352,-0.011568
117905,0.000977,-0.0,0.00061,0.0,0.0,0.0,0.0,0.0,0.0,3.0,0.34894,0.327225,0.32583,0.297359,-0.0,0.0,-0.0,0.0,0.0,0.0,0.000855,-0.000121,0.000611,-0.015419,-0.024727,0.000502
117925,0.000977,-0.0,0.000733,0.0,0.0,0.0,0.0,0.0,0.0,3.0,0.346325,0.324582,0.32664,0.302609,-0.0,0.0,-0.0,0.0,-0.0,0.0,0.000977,-0.000123,0.000733,-0.006191,-0.005292,0.001925
117945,0.001099,0.000122,0.000732,0.0,0.0,0.0,0.0,0.0,0.0,3.0,0.344018,0.32591,0.33114,0.298824,-0.0,0.0,-0.0,0.0,-0.0,-0.0,0.001098,-0.000244,0.000733,0.012127,-0.017244,3.6e-05
117965,0.001343,-0.0,0.000733,0.0,0.0,0.0,0.0,0.0,0.0,3.0,0.358719,0.320029,0.332939,0.28448,-0.0,0.0,-0.0,0.0,-0.0,-0.0,0.000978,-0.000366,0.000611,-0.026052,-0.033903,-0.015893
117985,0.001221,0.000244,0.000732,0.0,0.0,0.0,0.0,0.0,0.0,3.0,0.348004,0.324838,0.326359,0.300606,-0.0,0.0,-0.0,0.0,-0.0,0.0,0.001099,-0.000122,0.000733,-0.012548,-0.010731,0.000437
118005,0.000977,0.000122,0.000732,0.0,0.0,0.0,0.0,0.0,0.0,3.0,0.343212,0.325272,0.325335,0.306969,-0.0,0.0,-0.0,0.0,-0.0,-0.0,0.001099,0.000244,0.000855,-0.001437,0.00181,0.005603
118025,0.000855,0.000244,0.000855,0.0,0.0,0.0,0.0,0.0,0.0,3.0,0.333881,0.332678,0.321708,0.313298,-0.0,0.0,-0.0,0.0,0.0,0.0,0.001098,0.000244,0.000976,0.015232,-0.002412,0.017245
118045,0.000977,0.000244,0.000977,0.0,0.0,0.0,0.0,0.0,0.0,3.0,0.336811,0.330857,0.320544,0.313257,-0.0,0.0,-0.0,0.0,0.0,-0.0,0.000977,0.000366,0.000976,0.004506,0.001874,0.015493
118065,0.000855,0.000366,0.000854,0.0,0.0,0.0,0.0,0.0,0.0,3.0,0.347978,0.31711,0.332191,0.302481,-0.0,0.0,-0.0,0.0,0.0,-0.0,0.000977,0.000365,0.000854,0.003747,0.011596,-0.005386
118085,0.000977,0.000122,0.000977,0.0,0.0,0.0,0.0,0.0,0.0,3.0,0.344465,0.324369,0.327564,0.304038,-0.0,0.0,-0.0,0.0,0.0,-0.0,0.000977,0.000366,0.000977,0.001311,-0.003518,0.001844
118105,0.000977,0.000122,0.000977,0.0,0.0,0.0,0.0,0.0,0.0,3.0,0.344533,0.3234,0.329444,0.302921,-0.0,0.0,-0.0,0.0,0.0,-0.0,0.001099,0.000243,0.000977,0.005614,-0.003127,2.6e-05
118125,0.001099,0.000244,0.001099,0.0,0.0,0.0,0.0,0.0,0.0,3.0,0.33673,0.331596,0.319528,0.313595,-0.0,0.0,-0.0,0.0,0.0,0.0,0.001099,0.000244,0.001098,0.00134,0.001208,0.015908
118145,0.000977,0.000122,0.001099,0.0,0.0,0.0,0.0,0.0,0.0,3.0,0.342921,0.325046,0.330406,0.301946,-0.0,0.0,-0.0,0.0,-0.0,0.0,0.00122,0.000121,0.001099,0.012238,-0.00927,0.000229
118165,0.000977,0.000244,0.001099,0.0,0.0,0.0,0.0,0.0,0.0,3.0,0.341072,0.322267,0.332532,0.30476,-0.0,0.0,-0.0,0.0,-0.0,0.0,0.00122,0.000366,0.001099,0.023314,0.003692,-3e-06
118185,0.000977,0.000244,0.001099,0.0,0.0,0.0,0.0,0.0,0.0,3.0,0.345449,0.322749,0.327864,0.304302,-0.0,0.0,-0.0,0.0,-0.0,0.0,0.000977,0.000366,0.001099,-0.000978,0.001312,-0.0
118205,0.001099,0.00061,0.001098,0.0,0.0,0.0,0.0,0.0,0.0,3.0,0.342274,0.327575,0.327123,0.303584,-0.0,0.0,0.0,0.0,-0.0,0.0,0.001099,0.000489,0.001099,0.005577,-0.013745,0.003689
118225,0.000977,0.00061,0.001221,0.0,0.0,0.0,0.0,0.0,0.0,3.0,0.338814,0.333008,0.316477,0.31287,-0.0,0.0,0.0,0.0,-0.0,0.0,0.000978,0.000611,0.00122,-0.012146,-0.006173,0.015966
118245,0.001099,0.000488,0.001221,0.0,0.0,0.0,0.0,0.0,0.0,3.0,0.340234,0.322989,0.332527,0.30496,-0.0,0.0,0.0,0.0,-0.0,-0.0,0.001098,0.000488,0.001221,0.026043,0.001659,0.000218
118265,0.001221,0.000488,0.001221,0.0,0.0,0.0,0.0,0.0,0.0,3.0,0.34448,0.317935,0.332285,0.305673,-0.0,0.0,-0.0,0.0,-0.0,-0.0,0.001221,0.000609,0.00122,0.012602,0.015924,-0.003692
118285,0.001465,0.000609,0.00122,0.0,0.0,0.0,0.0,0.087266,0.0,3.0,0.343641,0.377061,0.329123,0.224994,-0.0,0.000109,-0.0,0.0,0.043805,0.0,0.001343,0.000489,0.001221,0.005764,-0.021051,-3.8e-05
118305,0.001343,0.000609,0.001343,0.0,0.0,0.0,0.0,0.087266,0.0,3.0,0.348623,0.374274,0.319453,0.237488,-0.0,0.001584,-0.0,0.0,0.118615,0.0,0.001223,0.00061,0.001221,-0.034015,0.011418,0.003685
118325,0.001099,0.000732,0.001465,0.0,0.0,0.0,0.0,0.087266,0.0,3.0,0.335822,0.381971,0.317784,0.246586,-0.0,0.004379,-0.0,0.0,0.170752,0.0,0.001221,0.000732,0.001464,-0.001736,0.005745,0.016611
118345,0.0011,0.001952,0.001708,0.0,0.0,0.0,0.0,0.087266,0.0,3.0,0.332873,0.373798,0.318375,0.264179,-0.0,0.008076,-0.0,0.0,0.205096,0.0,0.001221,0.001708,0.001708,0.007929,0.064723,0.018013
118365,0.001225,0.004272,0.001829,0.0,0.0,0.0,0.0,0.087266,0.0,3.0,0.33912,0.359535,0.325094,0.268926,-0.0,0.012353,-0.0,0.0,0.226178,0.0,0.001223,0.003661,0.001829,0.008112,0.113705,0.00577
118385,0.001473,0.007811,0.001948,0.0,0.0,0.0,0.0,0.087266,0.0,3.0,0.34099,0.346856,0.322799,0.286945,-0.0,0.016975,-0.0,0.0,0.237465,0.0,0.001227,0.006834,0.00195,-0.003378,0.179109,0.005578
118405,0.001722,0.012938,0.001942,0.0,0.0,0.0,0.0,0.087266,0.0,3.0,0.340027,0.326914,0.330157,0.303568,-0.0,0.021764,-0.0,0.0,0.241582,0.0,0.001598,0.011473,0.001944,0.017415,0.255908,-0.000205
118425,0.00185,0.019286,0.001936,0.0,0.0,0.0,0.0,0.087266,0.0,3.0,0.345323,0.301322,0.335957,0.317144,-0.0,0.026595,-0.0,0.0,0.240515,0.0,0.001848,0.017698,0.001938,0.017037,0.329853,-0.010736
118445,0.002101,0.026855,0.001926,0.0,0.0,0.0,0.0,0.087266,0.0,3.0,0.338226,0.28866,0.325772,0.345496,-0.0,0.031374,-0.0,0.0,0.235764,0.0,0.002101,0.025022,0.00205,0.008223,0.406552,0.00497
118465,0.002231,0.035157,0.001916,0.0,0.0,0.0,0.0,0.087266,0.0,3.0,0.340096,0.27637,0.330993,0.348091,-0.0,0.036038,-0.0,0.0,0.228454,0.0,0.002229,0.032959,0.001918,0.016405,0.408219,-0.001222
118485,0.002486,0.043824,0.002023,0.0,0.0,0.0,0.0,0.087266,0.0,3.0,0.347358,0.261454,0.333728,0.34879,-0.0,0.040542,-0.0,0.0,0.21943,0.0,0.002359,0.041384,0.001907,0.002322,0.405347,-0.010813
118505,0.002742,0.052616,0.002129,0.0,0.0,0.0,0.0,0.087266,0.0,3.0,0.348236,0.251593,0.33155,0.356253,-0.0,0.044856,-0.0,0.0,0.209321,0.0,0.002616,0.050177,0.002014,-0.007521,0.408824,-0.010085
118525,0.003002,0.060676,0.002356,0.0,0.0,0.0,0.0,0.087266,0.0,3.0,0.341328,0.26431,0.319915,0.364956,-0.0,0.048962,-0.0,0.0,0.198594,0.0,0.002754,0.058604,0.002244,-0.019471,0.375188,0.00625
118545,0.003019,0.067882,0.002591,0.0,0.0,0.0,0.0,0.087266,0.0,3.0,0.33717,0.265104,0.323941,0.364818,-0.0,0.052852,-0.0,0.0,0.187592,0.0,0.003013,0.066049,0.002471,0.001624,0.341308,0.005823
118565,0.003158,0.073868,0.002823,0.0,0.0,0.0,0.0,0.087266,0.0,3.0,0.328492,0.277472,0.317985,0.369263,-0.0,0.056521,-0.0,0.0,0.176563,0.0,0.003279,0.072644,0.00282,0.008587,0.301344,0.017887
118585,0.003418,0.07863,0.003051,0.0,0.0,0.0,0.0,0.087266,0.0,3.0,0.333905,0.277749,0.323565,0.3596,-0.0,0.05997,-0.0,0.0,0.165687,0.0,0.003417,0.077776,0.003053,0.007618,0.248812,0.007148
118605,0.003555,0.081927,0.003286,0.0,0.0,0.0,0.0,0.087266,0.0,3.0,0.333152,0.294886,0.323483,0.347539,-0.0,0.063204,-0.0,0.0,0.155089,0.0,0.003677,0.081318,0.003283,0.008157,0.159838,0.007063
118625,0.003812,0.083639,0.003518,0.0,0.0,0.0,0.0,0.087266,0.0,3.0,0.330956,0.306402,0.325102,0.338521,-0.0,0.066228,-0.0,0.0,0.144855,0.0,0.003812,0.083517,0.003519,0.017735,0.097361,0.006752
118645,0.004067,0.084248,0.003752,0.0,0.0,0.0,0.0,0.087266,0.0,3.0,0.328027,0.315917,0.327643,0.33031,-0.0,0.069051,-0.0,0.0,0.13504,0.0,0.004189,0.084491,0.003747,0.030664,0.046966,0.006265
118665,0.004194,0.083759,0.00387,0.0,0.0,0.0,0.0,0.087266,0.0,3.0,0.333258,0.329554,0.322309,0.316695,-0.0,0.071681,-0.0,0.0,0.125677,0.0,0.004194,0.084003,0.00387,0.001886,-0.022153,0.005691
118685,0.004314,0.082905,0.003867,0.0,0.0,0.0,0.0,0.087266,0.0,3.0,0.339255,0.330466,0.321139,0.310334,-0.0,0.074127,-0.0,0.0,0.116785,0.0,0.004316,0.083272,0.003866,-0.018726,-0.037191,0.000938
118705,0.004195,0.082168,0.003995,0.0,0.0,0.0,0.0,0.087266,0.0,3.0,0.338932,0.330671,0.321594,0.309997,-0.0,0.076399,0.0,0.0,0.108367,0.0,0.004191,0.08229,0.003872,-0.016257,-0.034013,0.000648
118725,0.004194,0.081558,0.003996,0.0,0.0,0.0,0.0,0.087266,0.0,3.0,0.335719,0.327544,0.324318,0.314076,-0.0,0.078506,0.0,0.0,0.10042,0.0,0.004194,0.08168,0.003996,-0.000225,-0.012464,0.00069
118745,0.004078,0.081802,0.004123,0.0,0.0,0.0,0.0,0.087266,0.0,3.0,0.335072,0.320743,0.322928,0.323153,-0.0,0.080458,0.0,0.0,0.092936,0.0,0.004077,0.081679,0.004123,-0.001782,0.029045,0.001951
118765,0.003836,0.08254,0.004133,0.0,0.0,0.0,0.0,0.087266,0.0,3.0,0.338063,0.318577,0.321101,0.323944,-0.0,0.082263,0.0,0.0,0.085899,0.0,0.003835,0.082168,0.004132,-0.014084,0.034795,0.000544
118785,0.003838,0.083759,0.00413,0.0,0.0,0.0,0.0,0.087266,0.0,3.0,0.333771,0.310961,0.326728,0.330069,-0.0,0.083931,0.0,0.0,0.079293,0.0,0.003959,0.083393,0.004126,0.012144,0.065143,-0.00062
118805,0.004091,0.085471,0.00424,0.0,0.0,0.0,0.0,0.087266,0.0,3.0,0.334634,0.31065,0.322398,0.333683,-0.0,0.085469,0.0,0.0,0.073099,0.0,0.003967,0.084856,0.004246,-0.002027,0.06939,0.001885
118825,0.0041,0.087422,0.004358,0.0,0.0,0.0,0.0,0.087266,0.0,3.0,0.344049,0.302126,0.324927,0.329171,-0.0,0.086887,0.0,0.0,0.067299,0.0,0.003973,0.086692,0.004243,-0.022189,0.069831,-0.00949
118845,0.004104,0.089135,0.004356,0.0,0.0,0.0,0.0,0.087266,0.0,3.0,0.33123,0.305694,0.323035,0.340812,-0.0,0.088192,0.0,0.0,0.061872,0.0,0.004103,0.088648,0.004357,0.008069,0.084573,0.003734
118865,0.003986,0.091214,0.004358,0.0,0.0,0.0,0.0,0.087266,0.0,3.0,0.323399,0.304085,0.31727,0.354538,-0.0,0.089391,0.0,0.0,0.056798,0.0,0.004235,0.090969,0.00447,0.01332,0.117748,0.015323
118885,0.003997,0.093536,0.004477,0.0,0.0,0.0,0.0,0.087266,0.0,3.0,0.323169,0.30402,0.315021,0.356712,-0.0,0.090491,0.0,0.0,0.052058,0.0,0.004123,0.093164,0.004593,0.008452,0.114424,0.01688
118905,0.004129,0.095487,0.00459,0.0,0.0,0.0,0.0,0.087266,0.0,3.0,0.327679,0.307086,0.310962,0.353623,-0.0,0.091498,0.0,0.0,0.047633,0.0,0.004007,0.095122,0.004596,-0.013593,0.088786,0.016074
118925,0.004139,0.0972,0.00471,0.0,0.0,0.0,0.0,0.087266,0.0,3.0,0.333892,0.301937,0.317598,0.346386,-0.0,0.092419,0.0,0.0,0.043503,0.0,0.003889,0.096714,0.0046,-0.013317,0.072642,0.00448
118945,0.003776,0.098548,0.004726,0.0,0.0,0.0,0.0,0.087266,0.0,3.0,0.332608,0.301254,0.318,0.34781,-0.0,0.09326,0.0,0.0,0.039652,0.0,0.003898,0.098299,0.00472,-0.008957,0.070871,0.004737
118965,0.003663,0.099401,0.004853,0.0,0.0,0.0,0.0,0.087266,0.0,3.0,0.324877,0.309134,0.312272,0.353335,-0.0,0.094026,0.0,0.0,0.036062,0.0,0.003662,0.099279,0.004853,-0.001766,0.063055,0.016056
118985,0.003548,0.100011,0.004981,0.0,0.0,0.0,0.0,0.087266,0.0,3.0,0.323317,0.311152,0.313398,0.352074,-0.0,0.094722,0.0,0.0,0.032717,0.0,0.003547,0.099888,0.004981,0.005592,0.051066,0.015873
119005,0.003427,0.100255,0.004987,0.0,0.0,0.0,0.0,0.087266,0.0,3.0,0.331228,0.306264,0.323539,0.339851,-0.0,0.095352,0.0,0.0,0.029603,0.0,0.003548,0.100254,0.004981,0.010438,0.025762,-0.000336
119025,0.003061,0.100134,0.005005,0.0,0.0,0.0,0.0,0.087266,0.0,3.0,0.330347,0.307725,0.324744,0.338292,-0.0,0.095922,0.0,0.0,0.026704,0.0,0.003425,0.100254,0.004987,0.016449,0.017233,-0.000849
119045,0.003305,0.100134,0.004993,0.0,0.0,0.0,0.0,0.087266,0.0,3.0,0.333883,0.312271,0.324342,0.331084,-0.0,0.096436,0.0,0.0,0.024006,0.0,0.003182,0.100011,0.004999,0.006589,-0.013361,-0.004018
119065,0.003433,0.100133,0.00511,0.0,0.0,0.0,0.0,0.087266,0.0,3.0,0.346915,0.314627,0.318839,0.320428,-0.0,0.096897,0.0,0.0,0.021498,0.0,0.002939,0.09977,0.005013,-0.044042,-0.047043,-0.011852
119085,0.003304,0.100012,0.004993,0.0,0.0,0.0,0.0,0.087266,0.0,3.0,0.342716,0.313795,0.321732,0.322968,-0.0,0.097309,0.0,0.0,0.019167,-0.0,0.003061,0.09977,0.005007,-0.025007,-0.038917,-0.010531
119105,0.003182,0.100012,0.004999,0.0,0.0,0.0,0.0,0.087266,0.0,3.0,0.342307,0.310592,0.320318,0.327822,-0.0,0.097676,0.0,0.0,0.017002,-0.0,0.003062,0.100014,0.005006,-0.027703,-0.019742,-0.00912
119125,0.003183,0.100256,0.004999,0.0,0.0,0.0,0.0,0.087266,0.0,3.0,0.332347,0.309763,0.320583,0.338452,-0.0,0.098001,0.0,0.0,0.014991,-0.0,0.003183,0.100378,0.004999,0.000285,0.009133,-0.000177
119145,0.003062,0.100622,0.005005,0.0,0.0,0.0,0.0,0.087266,0.0,3.0,0.32858,0.30514,0.32537,0.341641,-0.0,0.098286,0.0,0.0,0.013125,-0.0,0.003305,0.100865,0.004992,0.022571,0.026625,-0.001183
119165,0.003186,0.101237,0.004999,0.0,0.0,0.0,0.0,0.087266,0.0,3.0,0.327255,0.298959,0.326758,0.346764,-0.0,0.098536,0.0,0.0,0.011394,-0.0,0.003429,0.101358,0.004986,0.029173,0.053183,-0.001439
119185,0.003309,0.101847,0.004991,0.0,0.0,0.0,0.0,0.087266,0.0,3.0,0.33162,0.301851,0.320525,0.345991,-0.0,0.098751,0.0,0.0,0.00979,-0.0,0.003309,0.101846,0.004991,0.001114,0.04128,-0.000113
119205,0.003438,0.102334,0.005107,0.0,0.0,0.0,0.0,0.087266,0.0,3.0,0.335326,0.307766,0.314768,0.342591,-0.0,0.098936,0.0,0.0,0.008304,-0.0,0.003311,0.102091,0.004991,-0.024215,0.015502,0.001222
119225,0.003439,0.102456,0.005107,0.0,0.0,0.0,0.0,0.087266,0.0,3.0,0.341476,0.305253,0.321119,0.332773,-0.0,0.099091,0.0,0.0,0.006928,-0.0,0.003189,0.102214,0.004998,-0.024715,-0.006923,-0.010363
119245,0.003317,0.102456,0.005113,0.0,0.0,0.0,0.0,0.087266,0.0,3.0,0.330897,0.30965,0.314327,0.345597,-0.0,0.09922,0.0,0.0,0.005656,-0.0,0.003195,0.102334,0.00512,-0.012901,0.016969,0.004841
119265,0.003188,0.102335,0.004997,0.0,0.0,0.0,0.0,0.087266,0.0,3.0,0.329464,0.301064,0.329599,0.340264,-0.0,0.099324,0.0,0.0,0.00448,-0.0,0.003431,0.102455,0.004984,0.030092,0.021408,-0.007158
119285,0.003188,0.102213,0.004997,0.0,0.0,0.0,0.0,0.087266,0.0,3.0,0.331906,0.306668,0.323525,0.338854,-0.0,0.099406,0.0,0.0,0.003394,-0.0,0.003309,0.102211,0.004991,0.007469,0.004344,-0.004172
119305,0.00331,0.10209,0.004991,0.0,0.0,0.0,0.0,0.087266,0.0,3.0,0.334909,0.30855,0.321971,0.335701,-0.0,0.099466,0.0,0.0,0.002391,-0.0,0.003181,0.102091,0.004875,-0.00453,-0.00918,-0.005441
119325,0.003059,0.101969,0.004881,0.0,0.0,0.0,0.0,0.087266,0.0,3.0,0.331937,0.314476,0.320074,0.33508,-0.0,0.099507,0.0,0.0,0.001468,-0.0,0.003181,0.101847,0.004875,-0.001444,-0.025272,-0.001238
119345,0.002937,0.101726,0.004888,0.0,0.0,0.0,0.0,0.087266,0.0,3.0,0.32945,0.316264,0.321514,0.334518,-0.0,0.099529,0.0,0.0,0.000617,-0.0,0.003058,0.101726,0.004882,0.009547,-0.031494,-0.000468
119365,0.003053,0.101848,0.004759,0.0,0.0,0.0,0.0,0.087266,0.0,3.0,0.341395,0.300236,0.325923,0.332639,-0.0,0.099536,0.0,0.0,-0.000165,-0.0,0.002931,0.101848,0.004765,-0.011617,0.001524,-0.015417
119385,0.002925,0.102092,0.004642,0.0,0.0,0.0,0.0,0.087266,0.0,3.0,0.342076,0.30483,0.325413,0.328358,-0.0,0.099527,0.0,0.0,-0.000884,-0.0,0.002803,0.101972,0.004649,-0.014495,-0.022272,-0.015465
119405,0.002804,0.102336,0.004648,0.0,0.0,0.0,0.0,0.087266,0.0,3.0,0.331468,0.310165,0.319133,0.340287,-0.0,0.099504,0.0,0.0,-0.001544,-0.0,0.002803,0.102215,0.004648,-0.001473,-0.004363,-0.000148
119425,0.003047,0.102214,0.004636,0.0,0.0,0.0,0.0,0.087266,0.0,3.0,0.329002,0.308744,0.322034,0.341227,-0.0,0.099469,0.0,0.0,-0.002148,-0.0,0.002925,0.102336,0.004642,0.012189,0.000556,-0.000632
119445,0.003041,0.102214,0.004513,0.0,0.0,0.0,0.0,0.087266,0.0,3.0,0.339932,0.297975,0.323036,0.338818,-0.0,0.099422,0.0,0.0,-0.002701,-0.0,0.00292,0.102336,0.00452,-0.015641,0.018972,-0.011524
119465,0.003035,0.102092,0.004391,0.0,0.0,0.0,0.0,0.087266,0.0,3.0,0.330766,0.308283,0.319698,0.342091,-0.0,0.099364,0.0,0.0,-0.003205,-0.0,0.003041,0.102214,0.004513,0.00044,0.003287,-0.000202
119485,0.002906,0.101971,0.004275,0.0,0.0,0.0,0.0,0.087266,0.0,3.0,0.33175,0.306665,0.319195,0.343005,-0.0,0.099296,0.0,0.0,-0.003665,-0.0,0.003034,0.102091,0.004391,-0.003684,0.009695,-0.000485
119505,0.0029,0.101849,0.004152,0.0,0.0,0.0,0.0,0.087266,0.0,3.0,0.332031,0.307794,0.319045,0.341898,-0.0,0.09922,0.0,0.0,-0.004083,-0.0,0.002906,0.101848,0.004275,-0.004407,0.0042,-0.000448
119525,0.002656,0.101971,0.004165,0.0,0.0,0.0,0.0,0.087266,0.0,3.0,0.342016,0.30637,0.318673,0.333535,-0.0,0.099135,0.0,0.0,-0.004463,-0.0,0.002656,0.101728,0.004166,-0.032421,-0.015731,-0.009365
119545,0.002656,0.101971,0.004165,0.0,0.0,0.0,0.0,0.087266,0.0,3.0,0.33324,0.31171,0.316594,0.339519,-0.0,0.099043,0.0,0.0,-0.004806,-0.0,0.002534,0.101728,0.004171,-0.012691,-0.013006,0.000507
119565,0.002406,0.102094,0.004054,0.0,0.0,0.0,0.0,0.087266,0.0,3.0,0.332586,0.305699,0.320232,0.342088,-0.0,0.098945,0.0,0.0,-0.005116,-0.0,0.002528,0.102094,0.004048,-0.001523,0.00672,-0.00186
119585,0.002522,0.101972,0.003926,0.0,0.0,0.0,0.0,0.087266,0.0,3.0,0.332164,0.306058,0.326023,0.336767,-0.0,0.09884,0.0,0.0,-0.005395,-0.0,0.002521,0.101972,0.003926,0.014906,-0.0092,-0.006417
119605,0.002638,0.102094,0.003797,0.0,0.0,0.0,0.0,0.087266,0.0,3.0,0.332066,0.302818,0.326499,0.339218,-0.0,0.09873,0.0,0.0,-0.005644,-0.0,0.002637,0.102216,0.003796,0.015817,0.003674,-0.00653
119625,0.002759,0.101728,0.003791,0.0,0.0,0.0,0.0,0.087266,0.0,3.0,0.328738,0.305838,0.323458,0.342673,-0.0,0.098616,0.0,0.0,-0.005867,-0.0,0.002759,0.102093,0.003791,0.016119,0.00598,-0.000913
119645,0.002752,0.101484,0.003669,0.0,0.0,0.0,0.0,0.087266,0.0,3.0,0.332203,0.304986,0.326211,0.337487,-0.0,0.098497,0.0,0.0,-0.006064,-0.0,0.002752,0.101728,0.003668,0.013904,-0.005572,-0.006341
119665,0.002868,0.101484,0.00354,0.0,0.0,0.0,0.0,0.087266,0.0,3.0,0.338529,0.301211,0.331182,0.32955,-0.0,0.098374,0.0,0.0,-0.006239,-0.0,0.002745,0.101363,0.003547,0.009656,-0.017267,-0.01656
119685,0.002624,0.101485,0.003552,0.0,0.0,0.0,0.0,0.087266,0.0,3.0,0.344761,0.303115,0.322686,0.329724,-0.0,0.098248,0.0,0.0,-0.006391,-0.0,0.002497,0.101364,0.003437,-0.030058,-0.022012,-0.014677
119705,0.002374,0.101607,0.003442,0.0,0.0,0.0,0.0,0.087266,0.0,3.0,0.340186,0.298909,0.323456,0.33738,-0.0,0.09812,0.0,0.0,-0.006524,-0.0,0.002375,0.101486,0.003443,-0.014466,0.007734,-0.011143
119725,0.002002,0.101364,0.003339,0.0,0.0,0.0,0.0,0.087266,0.0,3.0,0.331036,0.30179,0.320816,0.346329,-0.0,0.097988,0.0,0.0,-0.006638,-0.0,0.002251,0.101606,0.003448,0.004541,0.025019,-0.000424
