time_ms,roll,pitch,yaw,x,y,z,reference_roll,reference_pitch,reference_yaw,reference_throttle,throttle_1,throttle_2,throttle_3,throttle_4,roll_predicted,pitch_predicted,yaw_predicted,roll_rate_predicted,pitch_rate_predicted,yaw_rate_predicted,value1,value2,value3,value4,value5,value6
35564,-0.006696,-0.013681,-0.002732,0.0,0.0,0.0,-0.0,-0.0,-0.0,3.0,0.345658,0.319227,0.327489,0.308225,-0.0,-0.0,-0.0,0.0,0.0,0.0,0.0,0.0,0.0,0.0,0.0,0.0
35584,-0.006697,-0.013437,-0.002609,0.0,0.0,0.0,0.0,0.0,0.0,3.0,0.343473,0.319486,0.327208,0.310784,-0.0,-0.0,-0.0,0.0,0.0,0.0,0.0,0.0,0.0,0.0,0.0,0.0
35604,-0.006819,-0.013437,-0.00261,0.0,0.0,0.0,0.0,0.0,0.0,3.0,0.34234,0.321873,0.326225,0.310641,-0.0,-0.0,-0.0,0.0,0.0,0.0,0.0,0.0,0.0,0.0,0.0,0.0
35624,-0.006696,-0.013315,-0.002731,0.0,0.0,0.0,0.0,0.0,0.0,3.0,0.343704,0.319791,0.32877,0.30851,-0.0,-0.0,-0.0,0.0,0.0,0.0,0.0,0.0,0.0,0.0,0.0,0.0
35644,-0.006574,-0.013437,-0.00273,0.0,0.0,0.0,0.0,0.0,0.0,3.0,0.345055,0.320728,0.327616,0.307208,-0.0,-0.0,-0.0,0.0,0.0,0.0,0.0,0.0,0.0,0.0,0.0,0.0
35664,-0.006697,-0.013559,-0.002609,0.0,0.0,0.0,0.0,0.0,0.0,3.0,0.344449,0.322669,0.324742,0.308962,-0.0,-0.0,-0.0,0.0,0.0,0.0,0.0,0.0,0.0,0.0,0.0,0.0
35684,-0.006575,-0.013315,-0.002608,0.0,0.0,0.0,0.0,0.0,0.0,3.0,0.342571,0.320837,0.327063,0.310564,-0.0,-0.0,-0.0,0.0,0.0,0.0,0.0,0.0,0.0,0.0,0.0,0.0
35704,-0.006575,-0.013315,-0.002608,0.0,0.0,0.0,0.0,0.0,0.0,3.0,0.346596,0.320478,0.325236,0.308246,-0.0,-0.0,-0.0,0.0,0.0,0.0,0.0,0.0,0.0,0.0,0.0,0.0
35724,-0.006574,-0.013193,-0.002729,0.0,0.0,0.0,0.0,0.0,0.0,3.0,0.343995,0.319837,0.327433,0.309576,-0.0,-0.0,-0.0,0.0,0.0,0.0,0.0,0.0,0.0,0.0,0.0,0.0
35744,-0.006574,-0.013071,-0.002729,0.0,0.0,0.0,0.0,0.0,0.0,3.0,0.345432,0.320069,0.325253,0.310014,0.0,0.0,-0.0,0.0,0.0,0.0,0.0,0.0,0.0,0.0,0.0,0.0
35764,-0.006574,-0.013193,-0.002729,0.0,0.0,0.0,0.0,0.0,0.0,3.0,0.343919,0.321436,0.326833,0.308632,0.0,0.0,-0.0,0.0,0.0,0.0,0.0,0.0,0.0,0.0,0.0,0.0
35784,-0.006452,-0.013071,-0.002728,0.0,0.0,0.0,0.0,0.0,0.0,3.0,0.344788,0.320752,0.324559,0.310783,0.0,0.0,-0.0,0.0,0.0,0.0,0.0,0.0,0.0,0.0,0.0,0.0
35804,-0.006329,-0.013071,-0.00285,0.0,0.0,0.0,0.0,0.0,0.0,3.0,0.345819,0.319402,0.326481,0.308944,0.0,0.0,-0.0,0.0,0.0,0.0,0.0,0.0,0.0,0.0,0.0,0.0
35824,-0.00645,-0.013194,-0.002973,0.0,0.0,0.0,0.0,0.0,0.0,3.0,0.345728,0.319709,0.328465,0.306568,0.0,0.0,0.0,0.0,0.0,0.0,0.0,0.0,0.0,0.0,0.0,0.0
35844,-0.006451,-0.013071,-0.002972,0.0,0.0,0.0,0.0,0.0,0.0,3.0,0.347047,0.317274,0.328538,0.307495,0.0,0.0,0.0,0.0,0.0,0.0,0.0,0.0,0.0,0.0,0.0,0.0
35864,-0.006573,-0.013072,-0.002973,0.0,0.0,0.0,0.0,0.0,0.0,3.0,0.345005,0.319104,0.32671,0.309954,0.0,0.0,0.0,0.0,0.0,0.0,0.0,0.0,0.0,0.0,0.0,0.0
35884,-0.006329,-0.012827,-0.002971,0.0,0.0,0.0,0.0,0.0,0.0,3.0,0.343521,0.319318,0.32802,0.310031,0.0,0.0,0.0,0.0,0.0,0.0,0.0,0.0,0.0,0.0,0.0,0.0
35904,-0.006329,-0.012827,-0.002971,0.0,0.0,0.0,0.0,0.0,0.0,3.0,0.345048,0.320907,0.325113,0.309731,0.0,0.0,0.0,0.0,0.0,0.0,0.0,0.0,0.0,0.0,0.0,0.0
35924,-0.00645,-0.012828,-0.003094,0.0,0.0,0.0,0.0,0.0,0.0,3.0,0.346428,0.318278,0.326646,0.309229,0.0,0.0,0.0,0.0,0.0,0.0,0.0,0.0,0.0,0.0,0.0,0.0
35944,-0.006205,-0.012828,-0.003214,0.0,0.0,0.0,0.0,0.0,0.0,3.0,0.344716,0.320423,0.327358,0.308206,0.0,0.0,0.0,0.0,0.0,0.0,0.0,0.0,0.0,0.0,0.0,0.0
35964,-0.006206,-0.012949,-0.003093,0.0,0.0,0.0,0.0,0.0,0.0,3.0,0.34441,0.32139,0.326885,0.308054,0.0,0.0,0.0,0.0,0.0,0.0,0.0,0.0,0.0,0.0,0.0,0.0
35984,-0.00584,-0.012827,-0.00309,0.0,0.0,0.0,0.0,0.0,0.0,3.0,0.342627,0.322362,0.325287,0.310799,0.0,0.0,0.0,0.0,0.0,0.0,0.0,0.0,0.0,0.0,0.0,0.0
36004,-0.00584,-0.012949,-0.00309,0.0,0.0,0.0,0.0,0.0,0.0,3.0,0.341948,0.322781,0.325253,0.311169,0.0,0.0,0.0,0.0,0.0,0.0,0.0,0.0,0.0,0.0,0.0,0.0
36024,-0.00584,-0.012949,-0.00309,0.0,0.0,0.0,0.0,0.0,0.0,3.0,0.347784,0.318525,0.329257,0.304506,0.0,0.0,0.0,0.0,0.0,0.0,0.0,0.0,0.0,0.0,0.0,0.0
36044,-0.005595,-0.012705,-0.00321,0.0,0.0,0.0,0.0,0.0,0.0,3.0,0.344165,0.320327,0.327522,0.308769,0.0,0.0,0.0,0.0,0.0,0.0,0.0,0.0,0.0,0.0,0.0,0.0
36064,-0.005596,-0.012582,-0.003088,0.0,0.0,0.0,0.0,0.0,0.0,3.0,0.34298,0.319862,0.32707,0.311105,0.0,0.0,0.0,0.0,0.0,-0.0,0.0,0.0,0.0,0.0,0.0,0.0
36084,-0.005474,-0.012704,-0.003087,0.0,0.0,0.0,0.0,0.0,0.0,3.0,0.346137,0.319422,0.327465,0.307484,0.0,0.0,0.0,0.0,0.0,-0.0,0.0,0.0,0.0,0.0,0.0,0.0
36104,-0.005595,-0.012583,-0.00321,0.0,0.0,0.0,0.0,0.0,0.0,3.0,0.345425,0.318788,0.327374,0.309081,0.0,0.0,0.0,0.0,0.0,-0.0,0.0,0.0,0.0,0.0,0.0,0.0
36124,-0.005594,-0.012827,-0.003332,0.0,0.0,0.0,0.0,0.0,0.0,3.0,0.345586,0.320271,0.326917,0.307831,0.0,0.0,0.0,0.0,0.0,-0.0,0.0,0.0,0.0,0.0,0.0,0.0
36144,-0.005594,-0.012827,-0.003332,0.0,0.0,0.0,0.0,0.0,0.0,3.0,0.345271,0.320168,0.326542,0.308713,0.0,0.0,0.0,0.0,0.0,-0.0,0.0,0.0,0.0,0.0,0.0,0.0
36164,-0.005594,-0.012705,-0.003332,0.0,0.0,0.0,0.0,0.0,0.0,3.0,0.346705,0.319504,0.326406,0.307882,0.0,0.0,0.0,0.0,0.0,-0.0,0.0,0.0,0.0,0.0,0.0,0.0
36184,-0.005594,-0.012705,-0.003454,0.0,0.0,0.0,0.0,0.0,0.0,3.0,0.345987,0.318852,0.328577,0.307045,0.0,0.0,0.0,-0.0,0.0,-0.0,0.0,0.0,0.0,0.0,0.0,0.0
36204,-0.005593,-0.012584,-0.003576,0.0,0.0,0.0,0.0,0.0,0.0,3.0,0.347057,0.318198,0.329219,0.305762,0.0,0.0,0.0,-0.0,0.0,-0.0,0.0,0.0,0.0,0.0,0.0,0.0
36224,-0.005592,-0.012584,-0.003698,0.0,0.0,0.0,0.0,0.0,0.0,3.0,0.349069,0.315403,0.331583,0.303659,0.0,0.0,0.0,-0.0,0.0,-0.0,0.0,0.0,0.0,0.0,0.0,0.0
36244,-0.005592,-0.012584,-0.003698,0.0,0.0,0.0,0.0,0.0,0.0,3.0,0.348959,0.317064,0.329784,0.304059,0.0,0.0,0.0,-0.0,0.0,-0.0,0.0,0.0,0.0,0.0,0.0,0.0
36264,-0.00547,-0.012584,-0.003697,0.0,0.0,0.0,0.0,0.0,0.0,3.0,0.344529,0.318412,0.33007,0.307575,0.0,0.0,0.0,-0.0,0.0,-0.0,0.0,0.0,0.0,0.0,0.0,0.0
36284,-0.005348,-0.012462,-0.003818,0.0,0.0,0.0,0.0,0.0,0.0,3.0,0.344939,0.318121,0.330772,0.306623,0.0,0.0,0.0,-0.0,0.0,-0.0,0.0,0.0,0.0,0.0,0.0,0.0
36304,-0.005225,-0.01234,-0.003939,0.0,0.0,0.0,0.0,0.0,0.0,3.0,0.34646,0.317028,0.330951,0.30578,0.0,0.0,0.0,-0.0,0.0,-0.0,0.0,0.0,0.0,0.0,0.0,0.0
36324,-0.005224,-0.012462,-0.004062,0.0,0.0,0.0,0.0,0.0,0.0,3.0,0.34876,0.316365,0.332295,0.302208,0.0,0.0,0.0,-0.0,-0.0,-0.0,0.0,0.0,0.0,0.0,0.0,0.0
36344,-0.005468,-0.012463,-0.004063,0.0,0.0,0.0,0.0,0.0,0.0,3.0,0.346054,0.319241,0.328095,0.307083,0.0,0.0,0.0,-0.0,-0.0,-0.0,0.0,0.0,0.0,0.0,0.0,0.0
36364,-0.005469,-0.01234,-0.003941,0.0,0.0,0.0,0.0,0.0,0.0,3.0,0.345377,0.317776,0.330355,0.306933,0.0,0.0,0.0,-0.0,-0.0,-0.0,0.0,0.0,0.0,0.0,0.0,0.0
36384,-0.00559,-0.012463,-0.004064,0.0,0.0,0.0,0.0,0.0,0.0,3.0,0.345947,0.31998,0.326843,0.307795,0.0,0.0,0.0,-0.0,0.0,-0.0,0.0,0.0,0.0,0.0,0.0,0.0
36404,-0.005467,-0.012463,-0.004185,0.0,0.0,0.0,0.0,0.0,0.0,3.0,0.348378,0.316282,0.332093,0.302988,0.0,0.0,0.0,-0.0,-0.0,-0.0,0.0,0.0,0.0,0.0,0.0,0.0
36424,-0.005467,-0.012463,-0.004185,0.0,0.0,0.0,0.0,0.0,0.0,3.0,0.348728,0.317643,0.329706,0.303809,0.0,0.0,0.0,-0.0,-0.0,-0.0,0.0,0.0,0.0,0.0,0.0,0.0
36444,-0.00559,-0.012219,-0.004185,0.0,0.0,0.0,0.0,0.0,0.0,3.0,0.346746,0.318262,0.327609,0.307831,0.0,0.0,0.0,-0.0,-0.0,-0.0,0.0,0.0,0.0,0.0,0.0,0.0
36464,-0.005468,-0.012097,-0.004184,0.0,0.0,0.0,0.0,0.0,0.0,3.0,0.345569,0.318643,0.328655,0.307669,0.0,0.0,-0.0,-0.0,-0.0,-0.0,0.0,0.0,0.0,0.0,0.0,0.0
36484,-0.005346,-0.011853,-0.004305,0.0,0.0,0.0,0.0,0.0,0.0,3.0,0.346897,0.316566,0.330274,0.3065,0.0,0.0,-0.0,-0.0,-0.0,-0.0,0.0,0.0,0.0,0.0,0.0,0.0
36504,-0.005223,-0.011975,-0.004427,0.0,0.0,0.0,0.0,0.0,0.0,3.0,0.349402,0.315906,0.330638,0.30379,0.0,0.0,-0.0,-0.0,-0.0,-0.0,0.0,0.0,0.0,0.0,0.0,0.0
36524,-0.005346,-0.011853,-0.004305,0.0,0.0,0.0,0.0,0.0,0.0,3.0,0.348513,0.316662,0.329691,0.305122,0.0,0.0,-0.0,-0.0,-0.0,-0.0,0.0,0.0,0.0,0.0,0.0,0.0
36544,-0.005224,-0.011852,-0.004304,0.0,0.0,0.0,0.0,0.0,0.0,3.0,0.346016,0.319739,0.326125,0.308745,0.0,0.0,-0.0,-0.0,-0.0,-0.0,0.0,0.0,0.0,0.0,0.0,0.0
36564,-0.005345,-0.011975,-0.004427,0.0,0.0,0.0,0.0,0.0,0.0,3.0,0.34863,0.316834,0.328786,0.305805,0.0,0.0,-0.0,-0.0,-0.0,-0.0,0.0,0.0,0.0,0.0,0.0,0.0
36584,-0.005589,-0.011854,-0.004551,0.0,0.0,0.0,0.0,0.0,0.0,3.0,0.350581,0.314535,0.331421,0.302922,0.0,0.0,-0.0,-0.0,-0.0,-0.0,0.0,0.0,0.0,0.0,0.0,0.0
36604,-0.005467,-0.011854,-0.00455,0.0,0.0,0.0,0.0,0.0,0.0,3.0,0.349611,0.315442,0.332112,0.302361,0.0,0.0,-0.0,-0.0,-0.0,-0.0,0.0,0.0,0.0,0.0,0.0,0.0
36624,-0.005467,-0.011975,-0.004428,0.0,0.0,0.0,0.0,0.0,0.0,3.0,0.346327,0.319115,0.329868,0.304937,0.0,0.0,-0.0,-0.0,-0.0,-0.0,0.0,0.0,0.0,0.0,0.0,0.0
36644,-0.005345,-0.011853,-0.004427,0.0,0.0,0.0,0.0,0.0,0.0,3.0,0.345086,0.317893,0.330151,0.307379,0.0,0.0,-0.0,-0.0,-0.0,-0.0,0.0,0.0,0.0,0.0,0.0,0.0
36664,-0.005345,-0.011731,-0.004549,0.0,0.0,0.0,0.0,0.0,0.0,3.0,0.347877,0.315159,0.331486,0.305456,0.0,0.0,-0.0,-0.0,-0.0,-0.0,0.0,0.0,0.0,0.0,0.0,0.0
36684,-0.005344,-0.011975,-0.004549,0.0,0.0,0.0,0.0,0.0,0.0,3.0,0.34959,0.315489,0.332031,0.30243,0.0,0.0,-0.0,-0.0,-0.0,-0.0,0.0,0.0,0.0,0.0,0.0,0.0
36704,-0.005467,-0.011732,-0.00455,0.0,0.0,0.0,0.0,0.0,0.0,3.0,0.345258,0.318185,0.329358,0.307743,0.0,0.0,-0.0,-0.0,-0.0,-0.0,0.0,0.0,0.0,0.0,0.0,0.0
36724,-0.005468,-0.011731,-0.004427,0.0,0.0,0.0,0.0,0.0,0.0,3.0,0.343686,0.319251,0.328257,0.309653,0.0,0.0,-0.0,-0.0,-0.0,-0.0,0.0,0.0,0.0,0.0,0.0,0.0
36744,-0.00559,-0.011487,-0.004427,0.0,0.0,0.0,0.0,0.0,0.0,3.0,0.348303,0.315304,0.331072,0.305259,0.0,0.0,-0.0,-0.0,-0.0,-0.0,0.0,0.0,0.0,0.0,0.0,0.0
36764,-0.00559,-0.011366,-0.004549,0.0,0.0,0.0,0.0,0.0,0.0,3.0,0.3489,0.315356,0.33027,0.305384,0.0,0.0,-0.0,-0.0,-0.0,-0.0,0.0,0.0,0.0,0.0,0.0,0.0
36784,-0.00559,-0.011122,-0.004549,0.0,0.0,0.0,0.0,0.0,0.0,3.0,0.34756,0.316651,0.327994,0.308134,0.0,0.0,-0.0,-0.0,-0.0,-0.0,0.0,0.0,0.0,0.0,0.0,0.0
36804,-0.005713,-0.011121,-0.004427,0.0,0.0,0.0,0.0,0.0,0.0,3.0,0.346061,0.318232,0.328725,0.307448,0.0,0.0,-0.0,-0.0,-0.0,0.0,0.0,0.0,0.0,0.0,0.0,0.0
36824,-0.005835,-0.011,-0.004427,0.0,0.0,0.0,0.0,0.0,0.0,3.0,0.348137,0.317837,0.326604,0.307727,0.0,0.0,-0.0,-0.0,-0.0,0.0,0.0,0.0,0.0,0.0,0.0,0.0
36844,-0.005957,-0.011,-0.004428,0.0,0.0,0.0,0.0,0.0,0.0,3.0,0.34919,0.317387,0.327514,0.305954,0.0,0.0,-0.0,-0.0,-0.0,0.0,0.0,0.0,0.0,0.0,0.0,0.0
36864,-0.005835,-0.011,-0.004427,0.0,0.0,0.0,0.0,0.0,0.0,3.0,0.348181,0.316265,0.3294,0.306258,0.0,0.0,-0.0,-0.0,-0.0,0.0,0.0,0.0,0.0,0.0,0.0,0.0
36884,-0.005714,-0.010877,-0.004426,0.0,0.0,0.0,0.0,0.0,0.0,3.0,0.346494,0.318841,0.327591,0.30754,0.0,0.0,-0.0,-0.0,-0.0,0.0,0.0,0.0,0.0,0.0,0.0,0.0
36904,-0.005714,-0.010877,-0.004304,0.0,0.0,0.0,0.0,0.0,0.0,3.0,0.345433,0.319693,0.326445,0.309128,0.0,0.0,-0.0,-0.0,-0.0,0.0,0.0,0.0,0.0,0.0,0.0,0.0
36924,-0.005958,-0.011,-0.004306,0.0,0.0,0.0,0.0,0.0,0.0,3.0,0.34669,0.319369,0.325868,0.308623,0.0,0.0,-0.0,-0.0,-0.0,0.0,0.0,0.0,0.0,0.0,0.0,0.0
36944,-0.005835,-0.011,-0.004427,0.0,0.0,0.0,0.0,0.0,0.0,3.0,0.350677,0.313699,0.331381,0.303727,0.0,0.0,-0.0,-0.0,-0.0,0.0,0.0,0.0,0.0,0.0,0.0,0.0
36964,-0.005836,-0.011121,-0.004306,0.0,0.0,0.0,0.0,0.0,0.0,3.0,0.348047,0.318043,0.328037,0.306053,0.0,0.0,-0.0,-0.0,-0.0,0.0,0.0,0.0,0.0,0.0,0.0,0.0
36984,-0.005714,-0.010999,-0.004305,0.0,0.0,0.0,0.0,0.0,0.0,3.0,0.346737,0.317234,0.32945,0.306901,0.0,0.0,-0.0,-0.0,-0.0,0.0,0.0,0.0,0.0,0.0,0.0,0.0
37004,-0.005592,-0.010877,-0.004304,0.0,0.0,0.0,0.0,0.0,0.0,3.0,0.345087,0.317431,0.32982,0.308223,0.0,0.0,-0.0,-0.0,-0.0,0.0,0.0,0.0,0.0,0.0,0.0,0.0
37024,-0.005836,-0.010878,-0.004427,0.0,0.0,0.0,0.0,0.0,0.0,3.0,0.348342,0.31494,0.330072,0.306703,0.0,0.0,-0.0,0.0,-0.0,0.0,0.0,0.0,0.0,0.0,0.0,0.0
37044,-0.005835,-0.010878,-0.004549,0.0,0.0,0.0,0.0,0.0,0.0,3.0,0.351092,0.312099,0.333782,0.302166,0.0,0.0,-0.0,0.0,0.0,0.0,0.0,0.0,0.0,0.0,0.0,0.0
37064,-0.005713,-0.010633,-0.004548,0.0,0.0,0.0,0.0,0.0,0.0,3.0,0.349743,0.313021,0.332949,0.303796,0.0,0.0,-0.0,0.0,0.0,0.0,0.0,0.0,0.0,0.0,0.0,0.0
37084,-0.005592,-0.010633,-0.004425,0.0,0.0,0.0,0.0,0.0,0.0,3.0,0.345175,0.319791,0.327214,0.308494,0.0,0.0,-0.0,-0.0,0.0,0.0,0.0,0.0,0.0,0.0,0.0,0.0
37104,-0.00547,-0.010511,-0.004546,0.0,0.0,0.0,0.0,0.0,0.0,3.0,0.348237,0.318027,0.327473,0.306463,0.0,0.0,-0.0,-0.0,0.0,0.0,0.0,0.0,0.0,0.0,0.0,0.0
37124,-0.00547,-0.010389,-0.004546,0.0,0.0,0.0,0.0,0.0,0.0,3.0,0.345699,0.317167,0.329375,0.30827,0.0,0.0,-0.0,-0.0,0.0,0.0,0.0,0.0,0.0,0.0,0.0,0.0
37144,-0.005469,-0.010511,-0.004668,0.0,0.0,0.0,0.0,0.0,0.0,3.0,0.350112,0.314896,0.333107,0.301192,0.0,0.0,-0.0,-0.0,0.0,0.0,0.0,0.0,0.0,0.0,0.0,0.0
37164,-0.005591,-0.010511,-0.004669,0.0,0.0,0.0,0.0,0.0,0.0,3.0,0.350495,0.314586,0.331899,0.302431,0.0,0.0,-0.0,-0.0,0.0,0.0,0.0,0.0,0.0,0.0,0.0,0.0
37184,-0.00547,-0.010511,-0.004546,0.0,0.0,0.0,0.0,0.0,0.0,3.0,0.345444,0.319651,0.327412,0.308112,0.0,0.0,-0.0,-0.0,0.0,0.0,0.0,0.0,0.0,0.0,0.0,0.0
37204,-0.005591,-0.010511,-0.004669,0.0,0.0,0.0,0.0,0.0,0.0,3.0,0.347535,0.317736,0.328382,0.306606,0.0,0.0,-0.0,-0.0,0.0,0.0,0.0,0.0,0.0,0.0,0.0,0.0
37224,-0.005712,-0.010756,-0.004792,0.0,0.0,0.0,0.0,0.0,0.0,3.0,0.349656,0.316813,0.331436,0.301616,0.0,0.0,-0.0,-0.0,-0.0,0.0,0.0,0.0,0.0,0.0,0.0,0.0
37244,-0.005712,-0.010512,-0.004792,0.0,0.0,0.0,0.0,0.0,0.0,3.0,0.35006,0.315581,0.329991,0.304062,0.0,0.0,-0.0,-0.0,-0.0,0.0,0.0,0.0,0.0,0.0,0.0,0.0
37264,-0.005468,-0.010512,-0.00479,0.0,0.0,0.0,0.0,0.0,0.0,3.0,0.34696,0.318455,0.329862,0.304891,0.0,0.0,-0.0,-0.0,-0.0,0.0,0.0,0.0,0.0,0.0,0.0,0.0
37284,-0.005468,-0.010512,-0.00479,0.0,0.0,0.0,0.0,0.0,0.0,3.0,0.347905,0.317135,0.329363,0.305715,0.0,0.0,-0.0,-0.0,-0.0,0.0,0.0,0.0,0.0,0.0,0.0,0.0
37304,-0.005346,-0.010389,-0.004911,0.0,0.0,0.0,0.0,0.0,0.0,3.0,0.350991,0.3127,0.33388,0.301548,0.0,0.0,-0.0,-0.0,-0.0,0.0,0.0,0.0,0.0,0.0,0.0,0.0
37324,-0.005467,-0.010634,-0.004913,0.0,0.0,0.0,0.0,0.0,0.0,3.0,0.352599,0.313808,0.33272,0.299719,0.0,0.0,-0.0,-0.0,-0.0,0.0,0.0,0.0,0.0,0.0,0.0,0.0
37344,-0.005468,-0.010634,-0.004791,0.0,0.0,0.0,0.0,0.0,0.0,3.0,0.349012,0.318265,0.328874,0.303734,0.0,0.0,-0.0,-0.0,-0.0,0.0,0.0,0.0,0.0,0.0,0.0,0.0
37364,-0.005224,-0.010389,-0.004789,0.0,0.0,0.0,0.0,0.0,0.0,3.0,0.345864,0.317592,0.328328,0.308779,0.0,0.0,-0.0,-0.0,-0.0,0.0,0.0,0.0,0.0,0.0,0.0,0.0
37384,-0.005346,-0.010389,-0.004911,0.0,0.0,0.0,0.0,0.0,0.0,3.0,0.348547,0.317426,0.328374,0.305736,0.0,0.0,-0.0,-0.0,-0.0,0.0,0.0,0.0,0.0,0.0,0.0,0.0
37404,-0.005223,-0.01039,-0.005033,0.0,0.0,0.0,0.0,0.0,0.0,3.0,0.349556,0.315954,0.330727,0.303453,0.0,0.0,-0.0,-0.0,-0.0,0.0,0.0,0.0,0.0,0.0,0.0,0.0
37424,-0.005347,-0.010023,-0.00491,0.0,0.0,0.0,0.0,0.0,0.0,3.0,0.350945,0.313533,0.330626,0.304423,0.0,0.0,-0.0,-0.0,-0.0,-0.0,0.0,0.0,0.0,0.0,0.0,0.0
37444,-0.005469,-0.010023,-0.004789,0.0,0.0,0.0,0.0,0.0,0.0,3.0,0.349191,0.317521,0.327267,0.306083,0.0,0.0,-0.0,-0.0,-0.0,-0.0,0.0,0.0,0.0,0.0,0.0,0.0
37464,-0.005348,-0.009779,-0.004788,0.0,0.0,0.0,0.0,0.0,0.0,3.0,0.349504,0.314488,0.332207,0.303391,0.0,0.0,-0.0,-0.0,-0.0,-0.0,0.0,0.0,0.0,0.0,0.0,0.0
37484,-0.005348,-0.009657,-0.004787,0.0,0.0,0.0,0.0,0.0,0.0,3.0,0.348808,0.315525,0.33071,0.304825,0.0,0.0,-0.0,-0.0,-0.0,-0.0,0.0,0.0,0.0,0.0,0.0,0.0
37504,-0.005471,-0.009413,-0.004787,0.0,0.0,0.0,0.0,0.0,0.0,3.0,0.346388,0.316999,0.32989,0.307072,0.0,0.0,-0.0,-0.0,-0.0,-0.0,0.0,0.0,0.0,0.0,0.0,0.0
37524,-0.005349,-0.009412,-0.004665,0.0,0.0,0.0,0.0,0.0,0.0,3.0,0.347813,0.318265,0.328676,0.305391,0.0,0.0,-0.0,-0.0,-0.0,-0.0,0.0,0.0,0.0,0.0,0.0,0.0
37544,-0.00535,-0.009168,-0.004664,0.0,0.0,0.0,0.0,0.0,0.0,3.0,0.346734,0.317626,0.327379,0.308757,0.0,0.0,-0.0,-0.0,-0.0,-0.0,0.0,0.0,0.0,0.0,0.0,0.0
37564,-0.005349,-0.009168,-0.004786,0.0,0.0,0.0,0.0,0.0,0.0,3.0,0.350149,0.315294,0.330101,0.304133,0.0,0.0,-0.0,-0.0,-0.0,-0.0,0.0,0.0,0.0,0.0,0.0,0.0
37584,-0.005349,-0.009291,-0.004786,0.0,0.0,0.0,0.0,0.0,0.0,3.0,0.351054,0.313785,0.332911,0.301437,0.0,0.0,-0.0,0.0,-0.0,-0.0,0.0,0.0,0.0,0.0,0.0,0.0
37604,-0.00535,-0.009046,-0.004664,0.0,0.0,0.0,0.0,0.0,0.0,3.0,0.34927,0.316101,0.328685,0.305918,0.0,0.0,-0.0,0.0,-0.0,-0.0,0.0,0.0,0.0,0.0,0.0,0.0
37624,-0.005107,-0.008923,-0.00454,0.0,0.0,0.0,0.0,0.0,0.0,3.0,0.344479,0.319716,0.326958,0.309657,0.0,0.0,-0.0,0.0,-0.0,-0.0,0.0,0.0,0.0,0.0,0.0,0.0
37644,-0.005351,-0.008924,-0.004541,0.0,0.0,0.0,0.0,0.0,0.0,3.0,0.347859,0.318369,0.326447,0.30767,0.0,0.0,-0.0,0.0,-0.0,-0.0,0.0,0.0,0.0,0.0,0.0,0.0
37664,-0.005229,-0.008924,-0.004663,0.0,0.0,0.0,0.0,0.0,0.0,3.0,0.350214,0.31375,0.331266,0.304365,0.0,0.0,-0.0,0.0,-0.0,-0.0,0.0,0.0,0.0,0.0,0.0,0.0
37684,-0.005351,-0.008924,-0.004541,0.0,0.0,0.0,0.0,0.0,0.0,3.0,0.349163,0.317086,0.32918,0.304462,0.0,0.0,-0.0,0.0,-0.0,-0.0,0.0,0.0,0.0,0.0,0.0,0.0
37704,-0.005352,-0.008923,-0.004419,0.0,0.0,0.0,0.0,0.0,0.0,3.0,0.347573,0.317905,0.328349,0.30642,0.0,0.0,-0.0,0.0,-0.0,-0.0,0.0,0.0,0.0,0.0,0.0,0.0
37724,-0.005352,-0.008923,-0.004297,0.0,0.0,0.0,0.0,0.0,0.0,3.0,0.345738,0.319295,0.327129,0.308451,0.0,0.0,-0.0,0.0,-0.0,-0.0,0.0,0.0,0.0,0.0,0.0,0.0
37744,-0.005475,-0.008801,-0.004297,0.0,0.0,0.0,0.0,0.0,0.0,3.0,0.349046,0.316554,0.328937,0.305434,0.0,0.0,-0.0,0.0,-0.0,-0.0,0.0,0.0,0.0,0.0,0.0,0.0
37764,-0.005597,-0.008923,-0.004176,0.0,0.0,0.0,0.0,0.0,0.0,3.0,0.348413,0.317855,0.328982,0.304771,0.0,0.0,-0.0,0.0,-0.0,0.0,0.0,0.0,0.0,0.0,0.0,0.0
37784,-0.005598,-0.008801,-0.004054,0.0,0.0,0.0,0.0,0.0,0.0,3.0,0.347296,0.318603,0.327806,0.306608,0.0,0.0,-0.0,0.0,-0.0,0.0,0.0,0.0,0.0,0.0,0.0,0.0
37804,-0.005477,-0.008556,-0.00393,0.0,0.0,0.0,0.0,0.0,0.0,3.0,0.343782,0.320696,0.326294,0.310148,0.0,0.0,-0.0,0.0,-0.0,0.0,0.0,0.0,0.0,0.0,0.0,0.0
37824,-0.005599,-0.008434,-0.003931,0.0,0.0,0.0,0.0,0.0,0.0,3.0,0.345728,0.31771,0.326687,0.310586,0.0,0.0,-0.0,0.0,-0.0,0.0,0.0,0.0,0.0,0.0,0.0,0.0
37844,-0.005599,-0.008312,-0.00393,0.0,0.0,0.0,0.0,0.0,0.0,3.0,0.348171,0.314974,0.330416,0.30649,0.0,0.0,-0.0,0.0,-0.0,0.0,0.0,0.0,0.0,0.0,0.0,0.0
37864,-0.005844,-0.008312,-0.003809,0.0,0.0,0.0,0.0,0.0,0.0,3.0,0.351046,0.315131,0.329522,0.303864,0.0,0.0,-0.0,0.0,0.0,0.0,0.0,0.0,0.0,0.0,0.0,0.0
37884,-0.005723,-0.008189,-0.003564,0.0,0.0,0.0,0.0,0.0,0.0,3.0,0.344945,0.318658,0.327193,0.309968,0.0,0.0,-0.0,0.0,0.0,0.0,0.0,0.0,0.0,0.0,0.0,0.0
37904,-0.005846,-0.007823,-0.003564,0.0,0.0,0.0,0.0,0.0,0.0,3.0,0.345604,0.318454,0.325951,0.310748,0.0,0.0,-0.0,0.0,0.0,0.0,0.0,0.0,0.0,0.0,0.0,0.0
37924,-0.005846,-0.007701,-0.003441,0.0,0.0,0.0,0.0,0.0,0.0,3.0,0.345545,0.318654,0.327267,0.309195,0.0,0.0,-0.0,0.0,0.0,0.0,0.0,0.0,0.0,0.0,0.0,0.0
37944,-0.005969,-0.007457,-0.003441,0.0,0.0,0.0,0.0,0.0,0.0,3.0,0.348784,0.314067,0.331423,0.30558,0.0,0.0,-0.0,-0.0,-0.0,0.0,0.0,0.0,0.0,0.0,0.0,0.0
37964,-0.006214,-0.007334,-0.003197,0.0,0.0,0.0,0.0,0.0,0.0,3.0,0.347532,0.317686,0.326501,0.30871,0.0,0.0,-0.0,0.0,0.0,0.0,0.0,0.0,0.0,0.0,0.0,0.0
37984,-0.006093,-0.007334,-0.003075,0.0,0.0,0.0,0.0,0.0,0.0,3.0,0.343633,0.31999,0.326546,0.310787,0.0,0.0,-0.0,0.0,0.0,0.0,0.0,0.0,0.0,0.0,0.0,0.0
38004,-0.006093,-0.007334,-0.003075,0.0,0.0,0.0,0.0,0.0,0.0,3.0,0.345923,0.318598,0.328038,0.307976,0.0,0.0,-0.0,-0.0,-0.0,0.0,0.0,0.0,0.0,0.0,0.0,0.0
38024,-0.006215,-0.007334,-0.003075,0.0,0.0,0.0,0.0,0.0,0.0,3.0,0.347981,0.317443,0.32886,0.305856,0.0,0.0,-0.0,0.0,-0.0,0.0,0.0,0.0,0.0,0.0,0.0,0.0
38044,-0.006093,-0.007333,-0.002953,0.0,0.0,0.0,0.0,0.0,0.0,3.0,0.345714,0.317756,0.329081,0.307961,0.0,0.0,-0.0,0.0,0.0,0.0,0.0,0.0,0.0,0.0,0.0,0.0
38064,-0.006215,-0.007334,-0.002953,0.0,0.0,0.0,0.0,0.0,0.0,3.0,0.347106,0.316516,0.328191,0.308592,0.0,0.0,-0.0,-0.0,-0.0,0.0,0.0,0.0,0.0,0.0,0.0,0.0
38084,-0.006216,-0.007333,-0.002831,0.0,0.0,0.0,0.0,0.0,0.0,3.0,0.344044,0.319975,0.325695,0.31124,0.0,0.0,-0.0,0.0,-0.0,0.0,0.0,0.0,0.0,0.0,0.0,0.0
38104,-0.006215,-0.007334,-0.002953,0.0,0.0,0.0,0.0,0.0,0.0,3.0,0.348026,0.31642,0.328335,0.307451,0.0,0.0,-0.0,-0.0,-0.0,0.0,0.0,0.0,0.0,0.0,0.0,0.0
38124,-0.006093,-0.007333,-0.002953,0.0,0.0,0.0,0.0,0.0,0.0,3.0,0.349475,0.314777,0.330619,0.30491,0.0,0.0,-0.0,-0.0,-0.0,0.0,0.0,0.0,0.0,0.0,0.0,0.0
38144,-0.006215,-0.007577,-0.002832,0.0,0.0,0.0,0.0,0.0,0.0,3.0,0.346964,0.318974,0.327812,0.306603,0.0,0.0,-0.0,0.0,0.0,0.0,0.0,0.0,0.0,0.0,0.0,0.0
38164,-0.006093,-0.007333,-0.00283,0.0,0.0,0.0,0.0,0.0,0.0,3.0,0.346519,0.317123,0.328633,0.308169,0.0,0.0,0.0,-0.0,-0.0,0.0,0.0,0.0,0.0,0.0,0.0,0.0
38184,-0.006216,-0.007211,-0.002708,0.0,0.0,0.0,0.0,0.0,0.0,3.0,0.344876,0.31985,0.324608,0.311568,0.0,0.0,0.0,-0.0,-0.0,0.0,0.0,0.0,0.0,0.0,0.0,0.0
38204,-0.006338,-0.007211,-0.002709,0.0,0.0,0.0,0.0,0.0,0.0,3.0,0.346063,0.319295,0.324405,0.310993,0.0,0.0,0.0,0.0,-0.0,0.0,0.0,0.0,0.0,0.0,0.0,0.0
38224,-0.006338,-0.007211,-0.002709,0.0,0.0,0.0,0.0,0.0,0.0,3.0,0.348069,0.318111,0.326495,0.30764,0.0,0.0,0.0,-0.0,-0.0,0.0,0.0,0.0,0.0,0.0,0.0,0.0
38244,-0.006461,-0.007211,-0.002587,0.0,0.0,0.0,0.0,0.0,0.0,3.0,0.348268,0.318914,0.324864,0.308324,0.0,0.0,0.0,-0.0,-0.0,-0.0,0.0,0.0,0.0,0.0,0.0,0.0
38264,-0.006217,-0.007088,-0.002464,0.0,0.0,0.0,0.0,0.0,0.0,3.0,0.346275,0.319294,0.325233,0.309867,0.0,0.0,0.0,0.0,-0.0,-0.0,0.0,0.0,0.0,0.0,0.0,0.0
38284,-0.006095,-0.006966,-0.002463,0.0,0.0,0.0,0.0,0.0,0.0,3.0,0.345997,0.319023,0.326149,0.30949,0.0,0.0,0.0,-0.0,-0.0,-0.0,0.0,0.0,0.0,0.0,0.0,0.0
38304,-0.005973,-0.007088,-0.002463,0.0,0.0,0.0,0.0,0.0,0.0,3.0,0.346198,0.319916,0.325317,0.309216,0.0,0.0,0.0,-0.0,-0.0,-0.0,0.0,0.0,0.0,0.0,0.0,0.0
38324,-0.005729,-0.006843,-0.002461,0.0,0.0,0.0,0.0,0.0,0.0,3.0,0.347456,0.315832,0.328037,0.309055,0.0,0.0,0.0,-0.0,-0.0,-0.0,0.0,0.0,0.0,0.0,0.0,0.0
38344,-0.005608,-0.006842,-0.002217,0.0,0.0,0.0,0.0,0.0,0.0,3.0,0.344969,0.319565,0.325516,0.310793,0.0,0.0,-0.0,0.0,0.0,-0.0,0.0,0.0,0.0,0.0,0.0,0.0
38364,-0.005364,-0.00672,-0.002216,0.0,0.0,0.0,0.0,0.0,0.0,3.0,0.345111,0.317549,0.327831,0.310236,0.0,0.0,-0.0,-0.0,-0.0,-0.0,0.0,0.0,0.0,0.0,0.0,0.0
38384,-0.005608,-0.006842,-0.002217,0.0,0.0,0.0,0.0,0.0,0.0,3.0,0.347617,0.318358,0.326051,0.308396,0.0,0.0,-0.0,-0.0,-0.0,-0.0,0.0,0.0,0.0,0.0,0.0,0.0
38404,-0.00573,-0.006964,-0.002096,0.0,0.0,0.0,0.0,0.0,0.0,3.0,0.347363,0.318496,0.325371,0.309281,0.0,0.0,-0.0,0.0,-0.0,-0.0,0.0,0.0,0.0,0.0,0.0,0.0
38424,-0.00573,-0.007086,-0.002096,0.0,0.0,0.0,0.0,0.0,0.0,3.0,0.34892,0.317048,0.328493,0.305557,0.0,0.0,-0.0,-0.0,-0.0,-0.0,0.0,0.0,0.0,0.0,0.0,0.0
38444,-0.005731,-0.006964,-0.001973,0.0,0.0,0.0,0.0,0.0,0.0,3.0,0.346107,0.319061,0.325991,0.309492,0.0,0.0,-0.0,-0.0,-0.0,-0.0,0.0,0.0,0.0,0.0,0.0,0.0
38464,-0.005731,-0.006842,-0.001851,0.0,0.0,0.0,0.0,0.0,0.0,3.0,0.342854,0.320055,0.323946,0.314351,0.0,0.0,-0.0,-0.0,-0.0,-0.0,0.0,0.0,0.0,0.0,0.0,0.0
38484,-0.005853,-0.006964,-0.001852,0.0,0.0,0.0,0.0,0.0,0.0,3.0,0.34373,0.32094,0.324118,0.312264,0.0,0.0,-0.0,0.0,-0.0,-0.0,0.0,0.0,0.0,0.0,0.0,0.0
38504,-0.005853,-0.007086,-0.001852,0.0,0.0,0.0,0.0,0.0,0.0,3.0,0.346159,0.318937,0.326452,0.309064,0.0,0.0,-0.0,-0.0,-0.0,-0.0,0.0,0.0,0.0,0.0,0.0,0.0
38524,-0.005854,-0.007085,-0.00173,0.0,0.0,0.0,0.0,0.0,0.0,3.0,0.346324,0.31919,0.324886,0.310288,0.0,0.0,-0.0,-0.0,-0.0,-0.0,0.0,0.0,0.0,0.0,0.0,0.0
38544,-0.005732,-0.007207,-0.001608,0.0,0.0,0.0,0.0,0.0,0.0,3.0,0.344859,0.321854,0.324016,0.310124,0.0,0.0,-0.0,-0.0,-0.0,-0.0,0.0,0.0,0.0,0.0,0.0,0.0
38564,-0.00561,-0.007451,-0.001608,0.0,0.0,0.0,0.0,0.0,0.0,3.0,0.343786,0.321685,0.326415,0.308974,0.0,0.0,-0.0,-0.0,-0.0,-0.0,0.0,0.0,0.0,0.0,0.0,0.0
38584,-0.005732,-0.007329,-0.001608,0.0,0.0,0.0,0.0,0.0,0.0,3.0,0.346223,0.3188,0.325962,0.30966,0.0,0.0,-0.0,-0.0,-0.0,-0.0,0.0,0.0,0.0,0.0,0.0,0.0
38604,-0.005854,-0.007573,-0.001609,0.0,0.0,0.0,0.0,0.0,0.0,3.0,0.346675,0.319984,0.325649,0.308229,0.0,0.0,-0.0,-0.0,-0.0,-0.0,0.0,0.0,0.0,0.0,0.0,0.0
38624,-0.005976,-0.007573,-0.00161,0.0,0.0,0.0,0.0,0.0,0.0,3.0,0.349231,0.317408,0.327048,0.306394,0.0,0.0,-0.0,-0.0,0.0,-0.0,0.0,0.0,0.0,0.0,0.0,0.0
38644,-0.006098,-0.007451,-0.001488,0.0,0.0,0.0,0.0,0.0,0.0,3.0,0.346859,0.31999,0.324722,0.309003,0.0,0.0,-0.0,-0.0,-0.0,-0.0,0.0,0.0,0.0,0.0,0.0,0.0
38664,-0.006099,-0.007451,-0.001366,0.0,0.0,0.0,0.0,0.0,0.0,3.0,0.342958,0.322314,0.323421,0.312444,0.0,0.0,-0.0,-0.0,-0.0,-0.0,0.0,0.0,0.0,0.0,0.0,0.0
38684,-0.006221,-0.007573,-0.001367,0.0,0.0,0.0,0.0,0.0,0.0,3.0,0.346508,0.320413,0.324882,0.308799,0.0,0.0,-0.0,0.0,0.0,-0.0,0.0,0.0,0.0,0.0,0.0,0.0
38704,-0.006221,-0.007695,-0.001367,0.0,0.0,0.0,0.0,0.0,0.0,3.0,0.348964,0.318358,0.327406,0.305319,0.0,0.0,-0.0,-0.0,-0.0,-0.0,0.0,0.0,0.0,0.0,0.0,0.0
38724,-0.006221,-0.007695,-0.001245,0.0,0.0,0.0,0.0,0.0,0.0,3.0,0.346437,0.321123,0.324615,0.308418,0.0,0.0,-0.0,-0.0,-0.0,-0.0,0.0,0.0,0.0,0.0,0.0,0.0
38744,-0.006222,-0.007694,-0.001123,0.0,0.0,0.0,0.0,0.0,0.0,3.0,0.343552,0.322947,0.322176,0.31241,0.0,0.0,-0.0,-0.0,-0.0,-0.0,0.0,0.0,0.0,0.0,0.0,0.0
38764,-0.006099,-0.007817,-0.001245,0.0,0.0,0.0,0.0,0.0,0.0,3.0,0.345704,0.320148,0.326136,0.308667,0.0,0.0,-0.0,-0.0,-0.0,-0.0,0.0,0.0,0.0,0.0,0.0,0.0
38784,-0.006221,-0.007695,-0.001245,0.0,0.0,0.0,0.0,0.0,0.0,3.0,0.347661,0.318331,0.325789,0.308654,0.0,0.0,-0.0,-0.0,-0.0,0.0,0.0,0.0,0.0,0.0,0.0,0.0
38804,-0.006221,-0.007938,-0.001124,0.0,0.0,0.0,0.0,0.0,0.0,3.0,0.3457,0.321677,0.324948,0.308337,0.0,0.0,-0.0,0.0,-0.0,0.0,0.0,0.0,0.0,0.0,0.0,0.0
38824,-0.006344,-0.007816,-0.001002,0.0,0.0,0.0,0.0,0.0,0.0,3.0,0.34563,0.321717,0.323835,0.309567,0.0,0.0,-0.0,-0.0,0.0,0.0,0.0,0.0,0.0,0.0,0.0,0.0
38844,-0.006223,-0.007816,-0.000879,0.0,0.0,0.0,0.0,0.0,0.0,3.0,0.343771,0.323216,0.324061,0.309891,0.0,0.0,-0.0,-0.0,-0.0,-0.0,0.0,0.0,0.0,0.0,0.0,0.0
38864,-0.006223,-0.007693,-0.000756,0.0,0.0,0.0,0.0,0.0,0.0,3.0,0.342131,0.324431,0.3219,0.312753,0.0,0.0,-0.0,-0.0,-0.0,-0.0,0.0,0.0,0.0,0.0,0.0,0.0
38884,-0.006345,-0.007693,-0.000757,0.0,0.0,0.0,0.0,0.0,0.0,3.0,0.343533,0.323088,0.322275,0.31218,0.0,0.0,-0.0,0.0,-0.0,-0.0,0.0,0.0,0.0,0.0,0.0,0.0
38904,-0.006223,-0.007815,-0.000757,0.0,0.0,0.0,0.0,0.0,0.0,3.0,0.344595,0.321585,0.325433,0.309199,0.0,0.0,-0.0,-0.0,-0.0,0.0,0.0,0.0,0.0,0.0,0.0,0.0
38924,-0.006346,-0.007937,-0.000636,0.0,0.0,0.0,0.0,0.0,0.0,3.0,0.344719,0.322805,0.32457,0.308689,0.0,0.0,-0.0,-0.0,-0.0,0.0,0.0,0.0,0.0,0.0,0.0,0.0
38944,-0.006346,-0.007814,-0.000513,0.0,0.0,0.0,0.0,0.0,0.0,3.0,0.343336,0.321511,0.324956,0.311234,0.0,0.0,-0.0,-0.0,-0.0,0.0,0.0,0.0,0.0,0.0,0.0,0.0
38964,-0.006591,-0.007692,-0.000392,0.0,0.0,0.0,0.0,0.0,0.0,3.0,0.342549,0.323635,0.321249,0.313789,0.0,0.0,-0.0,-0.0,-0.0,0.0,0.0,0.0,0.0,0.0,0.0,0.0
38984,-0.006713,-0.007936,-0.000393,0.0,0.0,0.0,0.0,0.0,0.0,3.0,0.347205,0.320162,0.325057,0.308057,0.0,0.0,-0.0,0.0,0.0,0.0,0.0,0.0,0.0,0.0,0.0,0.0
39004,-0.006957,-0.007936,-0.000272,0.0,0.0,0.0,0.0,0.0,0.0,3.0,0.347617,0.321552,0.323464,0.30781,0.0,0.0,-0.0,-0.0,-0.0,-0.0,0.0,0.0,0.0,0.0,0.0,0.0
39024,-0.00708,-0.007813,-0.00015,0.0,0.0,0.0,0.0,0.0,0.0,3.0,0.346894,0.32137,0.323152,0.309187,0.0,0.0,-0.0,-0.0,-0.0,-0.0,0.0,0.0,0.0,0.0,0.0,0.0
39044,-0.006959,-0.00769,9.5e-05,0.0,0.0,0.0,0.0,0.0,0.0,3.0,0.341414,0.325693,0.318493,0.315728,0.0,0.0,-0.0,-0.0,-0.0,-0.0,0.0,0.0,0.0,0.0,0.0,0.0
39064,-0.006959,-0.00769,9.5e-05,0.0,0.0,0.0,0.0,0.0,0.0,3.0,0.34457,0.322953,0.321526,0.31192,0.0,0.0,-0.0,-0.0,-0.0,0.0,0.0,0.0,0.0,0.0,0.0,0.0
39084,-0.006837,-0.00769,0.000218,0.0,0.0,0.0,0.0,0.0,0.0,3.0,0.342837,0.324468,0.319939,0.313943,0.0,0.0,-0.0,-0.0,-0.0,0.0,0.0,0.0,0.0,0.0,0.0,0.0
39104,-0.006716,-0.00769,0.00034,0.0,0.0,0.0,0.0,0.0,0.0,3.0,0.341825,0.324275,0.321186,0.313999,0.0,0.0,-0.0,-0.0,-0.0,0.0,0.0,0.0,0.0,0.0,0.0,0.0
39124,-0.006716,-0.007689,0.000463,0.0,0.0,0.0,0.0,0.0,0.0,3.0,0.343722,0.322537,0.321641,0.313201,0.0,0.0,-0.0,-0.0,-0.0,-0.0,0.0,0.0,0.0,0.0,0.0,0.0
39144,-0.006716,-0.007689,0.000463,0.0,0.0,0.0,0.0,0.0,0.0,3.0,0.346134,0.321417,0.323425,0.309733,0.0,0.0,-0.0,0.0,-0.0,-0.0,0.0,0.0,0.0,0.0,0.0,0.0
39164,-0.006594,-0.007689,0.000585,0.0,0.0,0.0,0.0,0.0,0.0,3.0,0.342821,0.323737,0.321321,0.3133,0.0,0.0,-0.0,-0.0,-0.0,-0.0,0.0,0.0,0.0,0.0,0.0,0.0
39184,-0.006595,-0.007688,0.000707,0.0,0.0,0.0,0.0,0.0,0.0,3.0,0.341643,0.325802,0.3191,0.314744,0.0,0.0,-0.0,-0.0,-0.0,-0.0,0.0,0.0,0.0,0.0,0.0,0.0
39204,-0.006473,-0.007566,0.000708,0.0,0.0,0.0,0.0,0.0,0.0,3.0,0.343072,0.321511,0.322944,0.313648,0.0,0.0,-0.0,0.0,-0.0,-0.0,0.0,0.0,0.0,0.0,0.0,0.0
39224,-0.006595,-0.007688,0.000707,0.0,0.0,0.0,0.0,0.0,0.0,3.0,0.34542,0.323858,0.320806,0.310741,0.0,0.0,-0.0,-0.0,-0.0,0.0,0.0,0.0,0.0,0.0,0.0,0.0
39244,-0.006473,-0.007688,0.000708,0.0,0.0,0.0,0.0,0.0,0.0,3.0,0.343902,0.322327,0.322422,0.312402,0.0,0.0,-0.0,-0.0,-0.0,0.0,0.0,0.0,0.0,0.0,0.0,0.0
39264,-0.006473,-0.007688,0.00083,0.0,0.0,0.0,0.0,0.0,0.0,3.0,0.341423,0.325931,0.319136,0.314818,0.0,0.0,-0.0,0.0,0.0,0.0,0.0,0.0,0.0,0.0,0.0,0.0
39284,-0.006595,-0.007688,0.000829,0.0,0.0,0.0,0.0,0.0,0.0,3.0,0.343815,0.323497,0.321834,0.311891,0.0,0.0,-0.0,-0.0,-0.0,0.0,0.0,0.0,0.0,0.0,0.0,0.0
39304,-0.006595,-0.007688,0.000829,0.0,0.0,0.0,0.0,0.0,0.0,3.0,0.346212,0.321142,0.324452,0.308836,0.0,0.0,-0.0,-0.0,-0.0,0.0,0.0,0.0,0.0,0.0,0.0,0.0
39324,-0.00684,-0.007565,0.000951,0.0,0.0,0.0,0.0,0.0,0.0,3.0,0.344215,0.324045,0.321013,0.311711,0.0,0.0,-0.0,0.0,-0.0,-0.0,0.0,0.0,0.0,0.0,0.0,0.0
39344,-0.00684,-0.007443,0.001073,0.0,0.0,0.0,0.0,0.0,0.0,3.0,0.342739,0.324785,0.319803,0.31386,0.0,0.0,-0.0,-0.0,0.0,0.0,0.0,0.0,0.0,0.0,0.0,0.0
39364,-0.006841,-0.007442,0.001195,0.0,0.0,0.0,0.0,0.0,0.0,3.0,0.339532,0.327437,0.31779,0.316696,0.0,0.0,-0.0,-0.0,-0.0,-0.0,0.0,0.0,0.0,0.0,0.0,0.0
39384,-0.006841,-0.007442,0.001195,0.0,0.0,0.0,0.0,0.0,0.0,3.0,0.341341,0.325496,0.318342,0.316169,0.0,0.0,-0.0,-0.0,-0.0,-0.0,0.0,0.0,0.0,0.0,0.0,0.0
39404,-0.006719,-0.007443,0.001196,0.0,0.0,0.0,0.0,0.0,0.0,3.0,0.34299,0.32381,0.32166,0.312682,0.0,0.0,-0.0,0.0,-0.0,-0.0,0.0,0.0,0.0,0.0,0.0,0.0
39424,-0.006597,-0.007442,0.001318,0.0,0.0,0.0,0.0,0.0,0.0,3.0,0.342451,0.32424,0.321505,0.313001,0.0,0.0,-0.0,-0.0,-0.0,0.0,0.0,0.0,0.0,0.0,0.0,0.0
39444,-0.006719,-0.007564,0.001318,0.0,0.0,0.0,0.0,0.0,0.0,3.0,0.343621,0.324336,0.320925,0.312175,0.0,0.0,-0.0,-0.0,-0.0,0.0,0.0,0.0,0.0,0.0,0.0,0.0
39464,-0.00672,-0.00732,0.00144,0.0,0.0,0.0,0.0,0.0,0.0,3.0,0.342079,0.324264,0.320849,0.314073,0.0,0.0,-0.0,0.0,-0.0,0.0,0.0,0.0,0.0,0.0,0.0,0.0
39484,-0.006842,-0.007442,0.00144,0.0,0.0,0.0,0.0,0.0,0.0,3.0,0.342594,0.324606,0.32162,0.312335,0.0,0.0,-0.0,0.0,0.0,0.0,0.0,0.0,0.0,0.0,0.0,0.0
39504,-0.006842,-0.007441,0.001562,0.0,0.0,0.0,0.0,0.0,0.0,3.0,0.341193,0.326538,0.319338,0.31423,0.0,0.0,-0.0,-0.0,-0.0,0.0,0.0,0.0,0.0,0.0,0.0,0.0
39524,-0.006842,-0.007319,0.001562,0.0,0.0,0.0,0.0,0.0,0.0,3.0,0.342502,0.323907,0.321204,0.313604,0.0,0.0,-0.0,-0.0,-0.0,0.0,0.0,0.0,0.0,0.0,0.0,0.0
39544,-0.006842,-0.007319,0.001562,0.0,0.0,0.0,0.0,0.0,0.0,3.0,0.34305,0.324122,0.320815,0.313163,0.0,0.0,-0.0,0.0,-0.0,0.0,0.0,0.0,0.0,0.0,0.0,0.0
39564,-0.006842,-0.007441,0.001562,0.0,0.0,0.0,0.0,0.0,0.0,3.0,0.34367,0.325053,0.320165,0.312151,0.0,0.0,-0.0,0.0,0.0,0.0,0.0,0.0,0.0,0.0,0.0,0.0
39584,-0.00672,-0.007319,0.001563,0.0,0.0,0.0,0.0,0.0,0.0,3.0,0.342954,0.32362,0.320892,0.313717,0.0,0.0,-0.0,-0.0,-0.0,0.0,0.0,0.0,0.0,0.0,0.0,0.0
39604,-0.00672,-0.007319,0.001563,0.0,0.0,0.0,0.0,0.0,0.0,3.0,0.343145,0.323549,0.320671,0.313803,0.0,0.0,-0.0,-0.0,-0.0,-0.0,0.0,0.0,0.0,0.0,0.0,0.0
39624,-0.006475,-0.00732,0.001441,0.0,0.0,0.0,0.0,0.0,0.0,3.0,0.345442,0.321321,0.324119,0.309899,0.0,0.0,-0.0,-0.0,-0.0,-0.0,0.0,0.0,0.0,0.0,0.0,0.0
39644,-0.006598,-0.007442,0.001441,0.0,0.0,0.0,0.0,0.0,0.0,3.0,0.346574,0.322219,0.322557,0.309294,0.0,0.0,-0.0,0.0,-0.0,-0.0,0.0,0.0,0.0,0.0,0.0,0.0
39664,-0.006476,-0.007319,0.001563,0.0,0.0,0.0,0.0,0.0,0.0,3.0,0.342391,0.324467,0.320368,0.314006,0.0,0.0,-0.0,-0.0,-0.0,0.0,0.0,0.0,0.0,0.0,0.0,0.0
39684,-0.006476,-0.007197,0.001564,0.0,0.0,0.0,0.0,0.0,0.0,3.0,0.341468,0.324426,0.32023,0.315222,0.0,0.0,-0.0,-0.0,0.0,0.0,0.0,0.0,0.0,0.0,0.0,0.0
39704,-0.006598,-0.007075,0.001564,0.0,0.0,0.0,0.0,0.0,0.0,3.0,0.342427,0.321872,0.321197,0.315803,0.0,0.0,-0.0,-0.0,-0.0,0.0,0.0,0.0,0.0,0.0,0.0,0.0
39724,-0.006842,-0.007075,0.001563,0.0,0.0,0.0,0.0,0.0,0.0,3.0,0.34353,0.32331,0.320154,0.314148,0.0,0.0,-0.0,-0.0,-0.0,-0.0,0.0,0.0,0.0,0.0,0.0,0.0
39744,-0.006964,-0.007197,0.001562,0.0,0.0,0.0,0.0,0.0,0.0,3.0,0.343548,0.32457,0.320154,0.312811,0.0,0.0,-0.0,0.0,-0.0,-0.0,0.0,0.0,0.0,0.0,0.0,0.0
39764,-0.007208,-0.007197,0.001561,0.0,0.0,0.0,0.0,0.0,0.0,3.0,0.344574,0.324771,0.319032,0.312586,0.0,0.0,-0.0,-0.0,-0.0,-0.0,0.0,0.0,0.0,0.0,0.0,0.0
39784,-0.007086,-0.007319,0.001561,0.0,0.0,0.0,0.0,0.0,0.0,3.0,0.343092,0.324756,0.320617,0.312652,0.0,0.0,-0.0,-0.0,-0.0,-0.0,0.0,0.0,0.0,0.0,0.0,0.0
39804,-0.006964,-0.007442,0.001439,0.0,0.0,0.0,0.0,0.0,0.0,3.0,0.343327,0.325403,0.321413,0.310873,0.0,0.0,-0.0,-0.0,-0.0,-0.0,0.0,0.0,0.0,0.0,0.0,0.0
39824,-0.006963,-0.007686,0.001316,0.0,0.0,0.0,0.0,0.0,0.0,3.0,0.34538,0.325089,0.321689,0.308547,0.0,0.0,-0.0,-0.0,-0.0,-0.0,0.0,0.0,0.0,0.0,0.0,0.0
39844,-0.006841,-0.007565,0.001195,0.0,0.0,0.0,0.0,0.0,0.0,3.0,0.346191,0.322746,0.324037,0.307602,0.0,0.0,-0.0,-0.0,-0.0,0.0,0.0,0.0,0.0,0.0,0.0,0.0
39864,-0.006841,-0.007442,0.001195,0.0,0.0,0.0,0.0,0.0,0.0,3.0,0.344231,0.323903,0.32071,0.312158,0.0,0.0,-0.0,0.0,-0.0,0.0,0.0,0.0,0.0,0.0,0.0,0.0
39884,-0.006719,-0.007565,0.001195,0.0,0.0,0.0,0.0,0.0,0.0,3.0,0.343084,0.326325,0.320219,0.311412,0.0,0.0,-0.0,0.0,0.0,0.0,0.0,0.0,0.0,0.0,0.0,0.0
39904,-0.006718,-0.007565,0.001073,0.0,0.0,0.0,0.0,0.0,0.0,3.0,0.343139,0.324287,0.321048,0.312646,0.0,0.0,-0.0,-0.0,-0.0,0.0,0.0,0.0,0.0,0.0,0.0,0.0
39924,-0.006717,-0.007444,0.00083,0.0,0.0,0.0,0.0,0.0,0.0,3.0,0.34675,0.320166,0.325519,0.308091,0.0,0.0,-0.0,-0.0,-0.0,0.0,0.0,0.0,0.0,0.0,0.0,0.0
39944,-0.006717,-0.007566,0.000829,0.0,0.0,0.0,0.0,0.0,0.0,3.0,0.344606,0.322235,0.323436,0.310628,0.0,0.0,-0.0,-0.0,-0.0,-0.0,0.0,0.0,0.0,0.0,0.0,0.0
39964,-0.006839,-0.007688,0.000706,0.0,0.0,0.0,0.0,0.0,0.0,3.0,0.346976,0.321353,0.324432,0.30774,0.0,0.0,-0.0,-0.0,-0.0,-0.0,0.0,0.0,0.0,0.0,0.0,0.0
39984,-0.006839,-0.00781,0.000706,0.0,0.0,0.0,0.0,0.0,0.0,3.0,0.344219,0.324432,0.322033,0.31023,0.0,0.0,-0.0,-0.0,-0.0,0.0,0.0,0.0,0.0,0.0,0.0,0.0
40004,-0.006839,-0.007688,0.000706,0.0,0.0,0.0,0.0,0.0,0.0,3.0,0.34229,0.324884,0.320933,0.313099,0.0,0.0,-0.0,-0.0,-0.0,0.0,0.0,0.0,0.0,0.0,0.0,0.0
40024,-0.006839,-0.007689,0.000584,0.0,0.0,0.0,0.0,0.0,0.0,3.0,0.344565,0.321477,0.324199,0.310664,0.0,0.0,-0.0,0.0,-0.0,0.0,0.0,0.0,0.0,0.0,0.0,0.0
40044,-0.006716,-0.007567,0.000463,0.0,0.0,0.0,0.0,0.0,0.0,3.0,0.34506,0.319529,0.327075,0.309053,0.0,0.0,-0.0,0.0,0.0,0.0,0.0,0.0,0.0,0.0,0.0,0.0
40064,-0.006838,-0.007811,0.000462,0.0,0.0,0.0,0.0,0.0,0.0,3.0,0.343617,0.323833,0.323313,0.310207,0.0,0.0,-0.0,-0.0,-0.0,0.0,0.0,0.0,0.0,0.0,0.0,0.0
40084,-0.006716,-0.007689,0.000463,0.0,0.0,0.0,0.0,0.0,0.0,3.0,0.343006,0.322958,0.323601,0.311525,0.0,0.0,-0.0,-0.0,-0.0,0.0,0.0,0.0,0.0,0.0,0.0,0.0
40104,-0.006716,-0.007812,0.00034,0.0,0.0,0.0,0.0,0.0,0.0,3.0,0.34358,0.323191,0.324008,0.310194,0.0,0.0,-0.0,-0.0,-0.0,-0.0,0.0,0.0,0.0,0.0,0.0,0.0
40124,-0.006593,-0.007934,0.000218,0.0,0.0,0.0,0.0,0.0,0.0,3.0,0.344908,0.322183,0.325044,0.30862,0.0,0.0,-0.0,0.0,-0.0,-0.0,0.0,0.0,0.0,0.0,0.0,0.0
40144,-0.006593,-0.008178,0.000217,0.0,0.0,0.0,0.0,0.0,0.0,3.0,0.345933,0.323447,0.32341,0.307828,0.0,0.0,-0.0,0.0,0.0,-0.0,0.0,0.0,0.0,0.0,0.0,0.0
40164,-0.006715,-0.008056,0.000217,0.0,0.0,0.0,0.0,0.0,0.0,3.0,0.346339,0.323289,0.320822,0.310262,0.0,0.0,-0.0,0.0,0.0,0.0,0.0,0.0,0.0,0.0,0.0,0.0
40184,-0.006593,-0.008056,0.000218,0.0,0.0,0.0,0.0,0.0,0.0,3.0,0.343984,0.324119,0.32112,0.311788,0.0,0.0,-0.0,-0.0,-0.0,-0.0,0.0,0.0,0.0,0.0,0.0,0.0
40204,-0.006593,-0.007935,9.6e-05,0.0,0.0,0.0,0.0,0.0,0.0,3.0,0.34517,0.322191,0.322824,0.310671,0.0,0.0,-0.0,-0.0,-0.0,-0.0,0.0,0.0,0.0,0.0,0.0,0.0
40224,-0.006593,-0.007812,9.6e-05,0.0,0.0,0.0,0.0,0.0,0.0,3.0,0.345926,0.322152,0.322178,0.310519,0.0,0.0,-0.0,0.0,-0.0,-0.0,0.0,0.0,0.0,0.0,0.0,0.0
40244,-0.00647,-0.007812,9.7e-05,0.0,0.0,0.0,0.0,0.0,0.0,3.0,0.346461,0.322566,0.323022,0.308564,0.0,0.0,-0.0,-0.0,-0.0,0.0,0.0,0.0,0.0,0.0,0.0,0.0
40264,-0.006593,-0.007812,0.000218,0.0,0.0,0.0,0.0,0.0,0.0,3.0,0.346055,0.32402,0.319708,0.31098,0.0,0.0,-0.0,0.0,-0.0,0.0,0.0,0.0,0.0,0.0,0.0,0.0
40284,-0.006227,-0.007934,0.000219,0.0,0.0,0.0,0.0,0.0,0.0,3.0,0.343276,0.324549,0.321787,0.311445,0.0,0.0,-0.0,0.0,-0.0,0.0,0.0,0.0,0.0,0.0,0.0,0.0
40304,-0.006227,-0.007812,0.00022,0.0,0.0,0.0,0.0,0.0,0.0,3.0,0.345452,0.323103,0.321482,0.310795,0.0,0.0,-0.0,0.0,0.0,0.0,0.0,0.0,0.0,0.0,0.0,0.0
40324,-0.006227,-0.007812,0.00022,0.0,0.0,0.0,0.0,0.0,0.0,3.0,0.345371,0.323397,0.321701,0.310348,0.0,0.0,-0.0,-0.0,-0.0,0.0,0.0,0.0,0.0,0.0,0.0,0.0
40344,-0.006227,-0.00769,0.000342,0.0,0.0,0.0,0.0,0.0,0.0,3.0,0.343647,0.322419,0.32179,0.313255,0.0,0.0,-0.0,-0.0,-0.0,0.0,0.0,0.0,0.0,0.0,0.0,0.0
40364,-0.00635,-0.007445,0.000465,0.0,0.0,0.0,0.0,0.0,0.0,3.0,0.341392,0.324152,0.319555,0.316279,0.0,0.0,-0.0,-0.0,-0.0,-0.0,0.0,0.0,0.0,0.0,0.0,0.0
40384,-0.006472,-0.007445,0.000464,0.0,0.0,0.0,0.0,0.0,0.0,3.0,0.343526,0.323732,0.320532,0.313324,0.0,0.0,-0.0,0.0,-0.0,-0.0,0.0,0.0,0.0,0.0,0.0,0.0
40404,-0.006472,-0.007201,0.000465,0.0,0.0,0.0,0.0,0.0,0.0,3.0,0.343819,0.32158,0.322494,0.3132,0.0,0.0,-0.0,0.0,0.0,0.0,0.0,0.0,0.0,0.0,0.0,0.0
40424,-0.006594,-0.006956,0.000588,0.0,0.0,0.0,0.0,0.0,0.0,3.0,0.34316,0.32314,0.319494,0.315416,0.0,0.0,-0.0,-0.0,-0.0,-0.0,0.0,0.0,0.0,0.0,0.0,0.0
40444,-0.006472,-0.007078,0.000588,0.0,0.0,0.0,0.0,0.0,0.0,3.0,0.344554,0.323302,0.322731,0.310307,0.0,0.0,-0.0,-0.0,-0.0,-0.0,0.0,0.0,0.0,0.0,0.0,0.0
40464,-0.006595,-0.007078,0.000709,0.0,0.0,0.0,0.0,0.0,0.0,3.0,0.344746,0.324626,0.319671,0.311884,0.0,0.0,-0.0,0.0,-0.0,-0.0,0.0,0.0,0.0,0.0,0.0,0.0
40484,-0.006473,-0.007078,0.000832,0.0,0.0,0.0,0.0,0.0,0.0,3.0,0.342659,0.32583,0.320018,0.31263,0.0,0.0,-0.0,-0.0,-0.0,0.0,0.0,0.0,0.0,0.0,0.0,0.0
40504,-0.006473,-0.006956,0.000832,0.0,0.0,0.0,0.0,0.0,0.0,3.0,0.343417,0.324548,0.320491,0.312633,0.0,0.0,-0.0,-0.0,-0.0,0.0,0.0,0.0,0.0,0.0,0.0,0.0
40524,-0.006717,-0.006955,0.000831,0.0,0.0,0.0,0.0,0.0,0.0,3.0,0.345252,0.323896,0.31999,0.311743,0.0,0.0,-0.0,0.0,-0.0,0.0,0.0,0.0,0.0,0.0,0.0,0.0
40544,-0.006717,-0.006833,0.000832,0.0,0.0,0.0,0.0,0.0,0.0,3.0,0.344448,0.323213,0.320933,0.312404,0.0,0.0,-0.0,0.0,-0.0,0.0,0.0,0.0,0.0,0.0,0.0,0.0
40564,-0.006717,-0.006711,0.000832,0.0,0.0,0.0,0.0,0.0,0.0,3.0,0.344519,0.323372,0.320856,0.312236,0.0,0.0,-0.0,-0.0,0.0,0.0,0.0,0.0,0.0,0.0,0.0,0.0
40584,-0.006595,-0.006833,0.000832,0.0,0.0,0.0,0.087266,0.0,0.0,3.0,0.498425,0.3248,0.15,0.31072,0.000875,0.0,7.2e-05,0.278338,7e-06,0.020928,0.0,0.0,0.0,0.0,0.0,0.0
40604,-0.006594,-0.0072,0.000587,0.0,0.0,0.0,0.087266,0.0,0.0,3.0,0.393207,0.321257,0.264732,0.304756,0.008014,-1e-06,0.000519,0.430648,9.6e-05,0.021954,0.0,0.0,0.0,0.0,0.0,0.0
40624,-0.00586,-0.00708,0.000101,0.0,0.0,0.0,0.087266,0.0,0.0,3.0,0.383604,0.31705,0.284945,0.305063,0.016826,-3e-06,0.000942,0.449895,0.000208,0.019799,0.0,0.0,0.0,0.0,0.0,0.0
40644,-0.003418,-0.006959,-0.000134,0.0,0.0,0.0,0.087266,0.0,0.0,3.0,0.374651,0.318548,0.293711,0.307307,0.025852,-5e-06,0.001321,0.452252,0.000318,0.017565,0.0,0.0,0.0,0.0,0.0,0.0
40664,0.00061,-0.006714,0.000124,0.0,0.0,0.0,0.087266,0.0,0.0,3.0,0.362732,0.324202,0.2943,0.315802,0.034883,-8e-06,0.001656,0.449496,0.00042,0.01533,0.0,0.0,0.0,0.0,0.0,0.0
40684,0.00659,-0.006594,0.000632,0.0,0.0,0.0,0.087266,0.0,0.0,3.0,0.350788,0.32769,0.302232,0.318884,0.04383,-1e-05,0.001946,0.443087,0.000509,0.013119,0.0,0.0,0.0,0.0,0.0,0.0
40704,0.014157,-0.005869,0.001384,0.0,0.0,0.0,0.087266,0.0,0.0,3.0,0.335829,0.330074,0.309578,0.325882,0.052625,-1.1e-05,0.002192,0.433605,0.000582,0.010953,0.0,0.0,0.0,0.0,0.0,0.0
40724,0.022579,-0.005028,0.002132,0.0,0.0,0.0,0.087266,0.0,0.0,3.0,0.33477,0.32742,0.314394,0.325131,0.059086,-1e-05,0.002349,0.424762,0.000624,0.009369,0.0,0.0,0.0,0.0,0.0,0.0
40744,0.032101,-0.004317,0.002876,0.0,0.0,0.0,0.087266,0.0,0.0,3.0,0.319571,0.33042,0.322924,0.329081,0.069537,-8e-06,0.002558,0.407266,0.000665,0.006823,0.0,0.0,0.0,0.0,0.0,0.0
40764,0.042844,-0.003493,0.003613,0.0,0.0,0.0,0.087266,0.0,0.0,3.0,0.310572,0.329544,0.333655,0.32774,0.077564,-3e-06,0.002681,0.391229,0.000672,0.00489,0.0,0.0,0.0,0.0,0.0,0.0
40784,0.05396,-0.002315,0.004453,0.0,0.0,0.0,0.087266,0.0,0.0,3.0,0.298944,0.332591,0.334889,0.33383,0.08526,4e-06,0.002765,0.373769,0.000655,0.00306,0.0,0.0,0.0,0.0,0.0,0.0
40804,0.065562,-0.001018,0.00503,0.0,0.0,0.0,0.087266,0.0,0.0,3.0,0.293346,0.328325,0.344622,0.332817,0.092598,1.2e-05,0.002814,0.35521,0.000614,0.001343,0.0,0.0,0.0,0.0,0.0,0.0
40824,0.077416,0.000271,0.005593,0.0,0.0,0.0,0.087266,0.0,0.0,3.0,0.284279,0.326244,0.35291,0.333479,0.099558,2.3e-05,0.00283,0.335844,0.000549,-0.000251,0.0,0.0,0.0,0.0,0.0,0.0
40844,0.088905,0.001309,0.00615,0.0,0.0,0.0,0.087266,0.0,0.0,3.0,0.278928,0.326855,0.355222,0.334607,0.106126,3.5e-05,0.002815,0.315934,0.000464,-0.001718,0.0,0.0,0.0,0.0,0.0,0.0
40864,0.099784,0.002098,0.006706,0.0,0.0,0.0,0.087266,0.0,0.0,3.0,0.274914,0.331258,0.354931,0.3337,0.112293,4.8e-05,0.002772,0.295715,0.000359,-0.003051,0.0,0.0,0.0,0.0,0.0,0.0
40884,0.110304,0.003131,0.007119,0.0,0.0,0.0,0.087266,0.0,0.0,3.0,0.271726,0.330423,0.358521,0.333011,0.118055,6.2e-05,0.002703,0.275392,0.000237,-0.00425,0.0,0.0,0.0,0.0,0.0,0.0
40904,0.120087,0.004291,0.007391,0.0,0.0,0.0,0.087266,0.0,0.0,3.0,0.270473,0.326897,0.361881,0.333684,0.123411,7.7e-05,0.00261,0.255149,0.000101,-0.005311,0.0,0.0,0.0,0.0,0.0,0.0
40924,0.129267,0.005327,0.007662,0.0,0.0,0.0,0.087266,0.0,0.0,3.0,0.269582,0.325803,0.364336,0.332659,0.128363,9.2e-05,0.002498,0.235145,-4.5e-05,-0.006235,0.0,0.0,0.0,0.0,0.0,0.0
40944,0.137101,0.006487,0.007919,0.0,0.0,0.0,0.087266,0.0,0.0,3.0,0.272759,0.325226,0.361837,0.33364,0.132918,0.000107,0.002368,0.215516,-0.0002,-0.007024,0.0,0.0,0.0,0.0,0.0,0.0
40964,0.144081,0.007525,0.008178,0.0,0.0,0.0,0.087266,0.0,0.0,3.0,0.271998,0.325598,0.361639,0.334072,0.137084,0.000121,0.002223,0.19638,-0.000359,-0.00768,0.0,0.0,0.0,0.0,0.0,0.0
40984,0.150087,0.008443,0.008444,0.0,0.0,0.0,0.087266,0.0,0.0,3.0,0.271701,0.325864,0.361048,0.334693,0.140872,0.000135,0.002066,0.177833,-0.00052,-0.008206,0.0,0.0,0.0,0.0,0.0,0.0
41004,0.155355,0.009494,0.008576,0.0,0.0,0.0,0.087266,0.0,0.0,3.0,0.271837,0.324219,0.362064,0.335046,0.144293,0.000147,0.001898,0.159959,-0.000679,-0.008608,0.0,0.0,0.0,0.0,0.0,0.0
41024,0.159405,0.010539,0.008832,0.0,0.0,0.0,0.087266,0.0,0.0,3.0,0.269623,0.326273,0.358275,0.338857,0.147363,0.000158,0.001724,0.142821,-0.000833,-0.008891,0.0,0.0,0.0,0.0,0.0,0.0
41044,0.162472,0.01173,0.008837,0.0,0.0,0.0,0.087266,0.0,0.0,3.0,0.276755,0.32236,0.358522,0.336991,0.150095,0.000167,0.001544,0.126471,-0.000981,-0.009061,0.0,0.0,0.0,0.0,0.0,0.0
41064,0.164687,0.01255,0.008996,0.0,0.0,0.0,0.087266,0.0,0.0,3.0,0.276336,0.325163,0.355124,0.338318,0.152507,0.000174,0.001361,0.110948,-0.001119,-0.009125,0.0,0.0,0.0,0.0,0.0,0.0
41084,0.166039,0.01313,0.009179,0.0,0.0,0.0,0.087266,0.0,0.0,3.0,0.280721,0.324551,0.353422,0.337359,0.154614,0.000179,0.001177,0.096277,-0.001246,-0.009091,0.0,0.0,0.0,0.0,0.0,0.0
41104,0.166286,0.013595,0.00938,0.0,0.0,0.0,0.087266,0.0,0.0,3.0,0.283604,0.326655,0.348007,0.338801,0.156435,0.000181,0.000994,0.082476,-0.001359,-0.008967,0.0,0.0,0.0,0.0,0.0,0.0
41124,0.166167,0.013697,0.009614,0.0,0.0,0.0,0.087266,0.0,0.0,3.0,0.28378,0.329225,0.345723,0.338561,0.157986,0.000181,0.000814,0.069551,-0.001457,-0.008761,0.0,0.0,0.0,0.0,0.0,0.0
41144,0.165427,0.01357,0.009751,0.0,0.0,0.0,0.087266,0.0,0.0,3.0,0.28932,0.328879,0.343105,0.337169,0.159285,0.000179,0.000638,0.0575,-0.00154,-0.00848,0.0,0.0,0.0,0.0,0.0,0.0
41164,0.164696,0.013199,0.009909,0.0,0.0,0.0,0.087266,0.0,0.0,3.0,0.292006,0.329347,0.342606,0.335028,0.16035,0.000175,0.000468,0.046317,-0.001606,-0.008135,0.0,0.0,0.0,0.0,0.0,0.0
41184,0.163955,0.012829,0.010065,0.0,0.0,0.0,0.087266,0.0,0.0,3.0,0.288575,0.332699,0.340849,0.336346,0.161198,0.000168,0.000306,0.035985,-0.001655,-0.007734,0.0,0.0,0.0,0.0,0.0,0.0
41204,0.163224,0.01259,0.010091,0.0,0.0,0.0,0.087266,0.0,0.0,3.0,0.290515,0.330027,0.343672,0.334491,0.161845,0.00016,0.000151,0.026486,-0.001686,-0.007284,0.0,0.0,0.0,0.0,0.0,0.0
41224,0.162606,0.012462,0.010226,0.0,0.0,0.0,0.087266,0.0,0.0,3.0,0.288592,0.331234,0.340998,0.337617,0.162308,0.000149,5e-06,0.017794,-0.001701,-0.006794,0.0,0.0,0.0,0.0,0.0,0.0
41244,0.162119,0.012465,0.01023,0.0,0.0,0.0,0.087266,0.0,0.0,3.0,0.288763,0.329803,0.341598,0.33826,0.162603,0.000137,-0.000131,0.009883,-0.001699,-0.006273,0.0,0.0,0.0,0.0,0.0,0.0
41264,0.161875,0.012355,0.010121,0.0,0.0,0.0,0.087266,0.0,0.0,3.0,0.290959,0.326746,0.345851,0.335056,0.162746,0.000123,-0.000256,0.002721,-0.001686,-0.005866,0.0,0.0,0.0,0.0,0.0,0.0
41284,0.161995,0.012111,0.010139,0.0,0.0,0.0,0.087266,0.0,0.0,3.0,0.287903,0.328827,0.347286,0.334028,0.162751,0.000108,-0.00037,-0.003725,-0.001647,-0.005167,0.0,0.0,0.0,0.0,0.0,0.0
41304,0.162362,0.012352,0.010117,0.0,0.0,0.0,0.087266,0.0,0.0,3.0,0.284786,0.327367,0.349666,0.335449,0.162632,9.6e-05,-0.000449,-0.008111,-0.001612,-0.004739,0.0,0.0,0.0,0.0,0.0,0.0
41324,0.162727,0.012349,0.010114,0.0,0.0,0.0,0.087266,0.0,0.0,3.0,0.283355,0.328875,0.348064,0.336806,0.162403,7.5e-05,-0.000565,-0.014612,-0.001538,-0.004023,0.0,0.0,0.0,0.0,0.0,0.0
41344,0.163222,0.012357,0.00999,0.0,0.0,0.0,0.087266,0.0,0.0,3.0,0.285939,0.326906,0.350874,0.333687,0.162076,5.8e-05,-0.000645,-0.019126,-0.001466,-0.003453,0.0,0.0,0.0,0.0,0.0,0.0
41364,0.16371,0.012475,0.009976,0.0,0.0,0.0,0.087266,0.0,0.0,3.0,0.28481,0.328,0.349512,0.334979,0.161663,4e-05,-0.000714,-0.023071,-0.001383,-0.002892,0.0,0.0,0.0,0.0,0.0,0.0
41384,0.164318,0.012471,0.009971,0.0,0.0,0.0,0.087266,0.0,0.0,3.0,0.281241,0.33128,0.347298,0.33692,0.161175,2.2e-05,-0.000771,-0.026485,-0.001291,-0.002345,0.0,0.0,0.0,0.0,0.0,0.0
41404,0.164693,0.012723,0.009827,0.0,0.0,0.0,0.087266,0.0,0.0,3.0,0.287126,0.325877,0.349037,0.335674,0.160767,8e-06,-0.000807,-0.028718,-0.001216,-0.001947,0.0,0.0,0.0,0.0,0.0,0.0
41424,0.164814,0.012732,0.009705,0.0,0.0,0.0,0.087266,0.0,0.0,3.0,0.288086,0.324828,0.351798,0.332966,0.160016,-1.4e-05,-0.000853,-0.031866,-0.001085,-0.001312,0.0,0.0,0.0,0.0,0.0,0.0
41444,0.164814,0.012732,0.009705,0.0,0.0,0.0,0.087266,0.0,0.0,3.0,0.28622,0.326643,0.349166,0.335529,0.159362,-3.1e-05,-0.000879,-0.033906,-0.000975,-0.000832,0.0,0.0,0.0,0.0,0.0,0.0
41464,0.164571,0.012865,0.009575,0.0,0.0,0.0,0.087266,0.0,0.0,3.0,0.285588,0.327608,0.347724,0.336617,0.158671,-4.7e-05,-0.000895,-0.03556,-0.000861,-0.000382,0.0,0.0,0.0,0.0,0.0,0.0
41484,0.164316,0.012633,0.009474,0.0,0.0,0.0,0.087266,0.0,0.0,3.0,0.287688,0.3274,0.348793,0.334004,0.15795,-6.2e-05,-0.000902,-0.036862,-0.000746,3.7e-05,0.0,0.0,0.0,0.0,0.0,0.0
41504,0.164072,0.012644,0.009354,0.0,0.0,0.0,0.087266,0.0,0.0,3.0,0.287711,0.324869,0.351019,0.334068,0.157205,-7.7e-05,-0.0009,-0.037844,-0.00063,0.000423,0.0,0.0,0.0,0.0,0.0,0.0
41524,0.163827,0.012534,0.009245,0.0,0.0,0.0,0.087266,0.0,0.0,3.0,0.28695,0.326857,0.35014,0.3337,0.156442,-9e-05,-0.000891,-0.038538,-0.000514,0.000774,0.0,0.0,0.0,0.0,0.0,0.0
41544,0.163461,0.012425,0.009136,0.0,0.0,0.0,0.087266,0.0,0.0,3.0,0.289304,0.325623,0.349843,0.333292,0.155668,-0.000102,-0.000875,-0.038972,-0.000401,0.00109,0.0,0.0,0.0,0.0,0.0,0.0
41564,0.163338,0.012436,0.009015,0.0,0.0,0.0,0.087266,0.0,0.0,3.0,0.289001,0.326445,0.350033,0.33254,0.154887,-0.000113,-0.000852,-0.039176,-0.00029,0.001369,0.0,0.0,0.0,0.0,0.0,0.0
41584,0.163215,0.012325,0.008904,0.0,0.0,0.0,0.087266,0.0,0.0,3.0,0.289291,0.325948,0.351699,0.330991,0.154103,-0.000123,-0.000824,-0.039175,-0.000183,0.001613,0.0,0.0,0.0,0.0,0.0,0.0
41604,0.162961,0.012335,0.008783,0.0,0.0,0.0,0.087266,0.0,0.0,3.0,0.289281,0.326091,0.35041,0.332249,0.15332,-0.000131,-0.000791,-0.038994,-8.1e-05,0.001821,0.0,0.0,0.0,0.0,0.0,0.0
41624,0.163093,0.012467,0.008652,0.0,0.0,0.0,0.087266,0.0,0.0,3.0,0.290089,0.323283,0.352796,0.331729,0.152543,-0.000137,-0.000754,-0.038657,1.5e-05,0.001993,0.0,0.0,0.0,0.0,0.0,0.0
41644,0.163093,0.012599,0.00852,0.0,0.0,0.0,0.087266,0.0,0.0,3.0,0.290821,0.321514,0.353145,0.332442,0.151773,-0.000143,-0.000713,-0.038186,0.000106,0.002132,0.0,0.0,0.0,0.0,0.0,0.0
41664,0.163335,0.012475,0.008528,0.0,0.0,0.0,0.087266,0.0,0.0,3.0,0.283691,0.328287,0.349187,0.335932,0.151013,-0.000146,-0.00067,-0.0376,0.00019,0.002238,0.0,0.0,0.0,0.0,0.0,0.0
41684,0.163334,0.012495,0.008285,0.0,0.0,0.0,0.087266,0.0,0.0,3.0,0.288144,0.324024,0.352817,0.332596,0.150266,-0.000149,-0.000624,-0.036917,0.000267,0.002312,0.0,0.0,0.0,0.0,0.0,0.0
41704,0.163456,0.012616,0.008274,0.0,0.0,0.0,0.087266,0.0,0.0,3.0,0.286309,0.325209,0.351547,0.334311,0.149534,-0.00015,-0.000577,-0.036156,0.000337,0.002357,0.0,0.0,0.0,0.0,0.0,0.0
41724,0.163455,0.012626,0.008152,0.0,0.0,0.0,0.087266,0.0,0.0,3.0,0.287597,0.325543,0.350968,0.333564,0.148817,-0.00015,-0.00053,-0.03533,0.000399,0.002373,0.0,0.0,0.0,0.0,0.0,0.0
41744,0.163576,0.012636,0.00803,0.0,0.0,0.0,0.087266,0.0,0.0,3.0,0.288711,0.324345,0.352245,0.332439,0.148117,-0.000149,-0.000481,-0.034455,0.000441,0.002369,0.0,0.0,0.0,0.0,0.0,0.0
41764,0.163576,0.012646,0.007908,0.0,0.0,0.0,0.087266,0.0,0.0,3.0,0.290081,0.322985,0.353943,0.330773,0.147434,-0.000146,-0.000433,-0.033543,0.000501,0.002332,0.0,0.0,0.0,0.0,0.0,0.0
41784,0.163453,0.012525,0.007919,0.0,0.0,0.0,0.087266,0.0,0.0,3.0,0.288324,0.32768,0.349677,0.332269,0.14677,-0.000143,-0.000386,-0.032606,0.00054,0.002278,0.0,0.0,0.0,0.0,0.0,0.0
41804,0.163331,0.012657,0.007788,0.0,0.0,0.0,0.087266,0.0,0.0,3.0,0.289674,0.325003,0.349988,0.333433,0.146125,-0.000138,-0.00034,-0.031653,0.000572,0.002205,0.0,0.0,0.0,0.0,0.0,0.0
41824,0.163208,0.012678,0.007546,0.0,0.0,0.0,0.087266,0.0,0.0,3.0,0.293498,0.322042,0.352995,0.329845,0.1455,-0.000133,-0.000295,-0.030693,0.000597,0.002114,0.0,0.0,0.0,0.0,0.0,0.0
41844,0.163077,0.012677,0.007546,0.0,0.0,0.0,0.087266,0.0,0.0,3.0,0.2889,0.325894,0.353072,0.333239,0.145043,-0.000129,-0.000263,-0.029975,0.000611,0.002037,0.0,0.0,0.0,0.0,0.0,0.0
41864,0.162711,0.012821,0.007295,0.0,0.0,0.0,0.087266,0.0,0.0,3.0,0.293729,0.321024,0.353008,0.330616,0.144305,-0.000121,-0.000212,-0.028787,0.000626,0.001892,0.0,0.0,0.0,0.0,0.0,0.0
41884,0.162466,0.012589,0.007195,0.0,0.0,0.0,0.087266,0.0,0.0,3.0,0.290963,0.324768,0.350817,0.331703,0.143737,-0.000114,-0.000174,-0.027852,0.00063,0.001765,0.0,0.0,0.0,0.0,0.0,0.0
41904,0.161978,0.01248,0.007087,0.0,0.0,0.0,0.087266,0.0,0.0,3.0,0.293375,0.322738,0.351604,0.330793,0.143186,-0.000106,-0.000138,-0.026937,0.000629,0.001629,0.0,0.0,0.0,0.0,0.0,0.0
41924,0.161734,0.012369,0.006977,0.0,0.0,0.0,0.087266,0.0,0.0,3.0,0.292572,0.322843,0.353542,0.329255,0.142654,-9.8e-05,-0.000105,-0.026047,0.000623,0.001488,0.0,0.0,0.0,0.0,0.0,0.0
41944,0.161358,0.012258,0.006867,0.0,0.0,0.0,0.087266,0.0,0.0,3.0,0.290184,0.325515,0.351739,0.330628,0.14214,-9e-05,-7.5e-05,-0.025183,0.000611,0.001342,0.0,0.0,0.0,0.0,0.0,0.0
41964,0.161113,0.012269,0.006747,0.0,0.0,0.0,0.087266,0.0,0.0,3.0,0.290344,0.324029,0.352117,0.331531,0.141643,-8.2e-05,-4.7e-05,-0.024351,0.000595,0.001194,0.0,0.0,0.0,0.0,0.0,0.0
41984,0.16087,0.012402,0.006618,0.0,0.0,0.0,0.087266,0.0,0.0,3.0,0.28984,0.322948,0.353062,0.331969,0.141162,-7.3e-05,-2.3e-05,-0.023551,0.000574,0.001045,0.0,0.0,0.0,0.0,0.0,0.0
42004,0.160747,0.012412,0.006497,0.0,0.0,0.0,0.087266,0.0,0.0,3.0,0.290839,0.322255,0.354224,0.330538,0.140696,-6.5e-05,-2e-06,-0.022785,0.00055,0.000898,0.0,0.0,0.0,0.0,0.0,0.0
42024,0.160625,0.012544,0.006366,0.0,0.0,0.0,0.087266,0.0,0.0,3.0,0.289417,0.322152,0.35414,0.331913,0.140246,-5.6e-05,1.6e-05,-0.022056,0.000523,0.000753,0.0,0.0,0.0,0.0,0.0,0.0
42044,0.160747,0.012675,0.006234,0.0,0.0,0.0,0.087266,0.0,0.0,3.0,0.28981,0.319969,0.355673,0.331997,0.13981,-4.8e-05,3.1e-05,-0.021363,0.000493,0.000611,0.0,0.0,0.0,0.0,0.0,0.0
42064,0.160625,0.012798,0.006225,0.0,0.0,0.0,0.087266,0.0,0.0,3.0,0.289136,0.321711,0.353596,0.333159,0.139388,-4e-05,4.4e-05,-0.020706,0.000461,0.000475,0.0,0.0,0.0,0.0,0.0,0.0
42084,0.160746,0.012807,0.006102,0.0,0.0,0.0,0.087266,0.0,0.0,3.0,0.288635,0.321891,0.354507,0.332408,0.138979,-3.3e-05,5.4e-05,-0.020087,0.000427,0.000345,0.0,0.0,0.0,0.0,0.0,0.0
42104,0.160745,0.012695,0.00599,0.0,0.0,0.0,0.087266,0.0,0.0,3.0,0.286008,0.323095,0.35433,0.333588,0.138581,-2.5e-05,6.1e-05,-0.019504,0.000392,0.000221,0.0,0.0,0.0,0.0,0.0,0.0
42124,0.160866,0.012704,0.005868,0.0,0.0,0.0,0.087266,0.0,0.0,3.0,0.286116,0.32185,0.356757,0.332044,0.138195,-1.8e-05,6.5e-05,-0.018958,0.000357,0.000105,0.0,0.0,0.0,0.0,0.0,0.0
42144,0.1605,0.012716,0.005749,0.0,0.0,0.0,0.087266,0.0,0.0,3.0,0.290114,0.319713,0.355681,0.33198,0.13782,-1.1e-05,6.7e-05,-0.018446,0.00032,-3e-06,0.0,0.0,0.0,0.0,0.0,0.0
42164,0.160378,0.012716,0.00575,0.0,0.0,0.0,0.087266,0.0,0.0,3.0,0.2868,0.323493,0.353475,0.333491,0.137455,-5e-06,6.7e-05,-0.017969,0.000284,-0.000102,0.0,0.0,0.0,0.0,0.0,0.0
42184,0.160003,0.012727,0.00563,0.0,0.0,0.0,0.087266,0.0,0.0,3.0,0.290467,0.321168,0.353919,0.332225,0.137099,0.0,6.5e-05,-0.017525,0.000248,-0.000192,0.0,0.0,0.0,0.0,0.0,0.0
42204,0.159637,0.012738,0.005511,0.0,0.0,0.0,0.087266,0.0,0.0,3.0,0.292956,0.321028,0.354898,0.329193,0.136838,4e-06,6.3e-05,-0.017213,0.000221,-0.000253,0.0,0.0,0.0,0.0,0.0,0.0
42224,0.159272,0.012618,0.005523,0.0,0.0,0.0,0.087266,0.0,0.0,3.0,0.290021,0.323553,0.352403,0.33195,0.136496,9e-06,5.8e-05,-0.016825,0.000186,-0.000327,0.0,0.0,0.0,0.0,0.0,0.0
42244,0.159027,0.012507,0.005413,0.0,0.0,0.0,0.087266,0.0,0.0,3.0,0.29237,0.322522,0.35238,0.331008,0.13608,1.5e-05,4.9e-05,-0.01638,0.000144,-0.000406,0.0,0.0,0.0,0.0,0.0,0.0
42264,0.158652,0.012396,0.005303,0.0,0.0,0.0,0.087266,0.0,0.0,3.0,0.292553,0.321865,0.353259,0.33053,0.135755,1.8e-05,4.1e-05,-0.016055,0.000112,-0.000459,0.0,0.0,0.0,0.0,0.0,0.0
42284,0.158286,0.012276,0.005315,0.0,0.0,0.0,0.087266,0.0,0.0,3.0,0.293655,0.322904,0.351489,0.330519,0.135436,2.2e-05,3.2e-05,-0.015757,8.2e-05,-0.000503,0.0,0.0,0.0,0.0,0.0,0.0
42304,0.157921,0.012287,0.005196,0.0,0.0,0.0,0.087266,0.0,0.0,3.0,0.295632,0.320845,0.353287,0.328854,0.135123,2.5e-05,2.2e-05,-0.015482,5.3e-05,-0.000538,0.0,0.0,0.0,0.0,0.0,0.0
42324,0.157677,0.012166,0.005208,0.0,0.0,0.0,0.087266,0.0,0.0,3.0,0.292365,0.322441,0.352944,0.330475,0.134815,2.7e-05,1.1e-05,-0.015231,2.6e-05,-0.000564,0.0,0.0,0.0,0.0,0.0,0.0
42344,0.157188,0.012066,0.004977,0.0,0.0,0.0,0.087266,0.0,0.0,3.0,0.299076,0.31773,0.356994,0.324706,0.134513,2.9e-05,0.0,-0.015002,1e-06,-0.000583,0.0,0.0,0.0,0.0,0.0,0.0
42364,0.156692,0.011824,0.004999,0.0,0.0,0.0,0.087266,0.0,0.0,3.0,0.296637,0.321959,0.353466,0.326696,0.134214,3e-05,-1.2e-05,-0.014792,-2.2e-05,-0.000593,0.0,0.0,0.0,0.0,0.0,0.0
42384,0.156326,0.01146,0.00503,0.0,0.0,0.0,0.087266,0.0,0.0,3.0,0.292551,0.325677,0.351635,0.328585,0.13392,3.1e-05,-2.4e-05,-0.014601,-4.3e-05,-0.000597,0.0,0.0,0.0,0.0,0.0,0.0
42404,0.15596,0.011349,0.00492,0.0,0.0,0.0,0.087266,0.0,0.0,3.0,0.293388,0.32344,0.352701,0.328901,0.133629,3.2e-05,-3.5e-05,-0.014426,-6.1e-05,-0.000593,0.0,0.0,0.0,0.0,0.0,0.0
42424,0.155706,0.011359,0.004799,0.0,0.0,0.0,0.087266,0.0,0.0,3.0,0.292453,0.321141,0.353294,0.331272,0.133413,3.2e-05,-4.4e-05,-0.014306,-7.4e-05,-0.000587,0.0,0.0,0.0,0.0,0.0,0.0
42444,0.155219,0.011482,0.004793,0.0,0.0,0.0,0.087266,0.0,0.0,3.0,0.293454,0.321324,0.352725,0.33087,0.133058,3.2e-05,-5.9e-05,-0.014123,-9.2e-05,-0.000569,0.0,0.0,0.0,0.0,0.0,0.0
42464,0.154975,0.011371,0.004683,0.0,0.0,0.0,0.087266,0.0,0.0,3.0,0.292119,0.321325,0.354775,0.329753,0.132776,3.1e-05,-7e-05,-0.013991,-0.000104,-0.00055,0.0,0.0,0.0,0.0,0.0,0.0
42484,0.154489,0.011495,0.004676,0.0,0.0,0.0,0.087266,0.0,0.0,3.0,0.297387,0.318386,0.355902,0.326798,0.132567,3.1e-05,-7.9e-05,-0.013899,-0.000112,-0.000532,0.0,0.0,0.0,0.0,0.0,0.0
42504,0.154123,0.011384,0.004567,0.0,0.0,0.0,0.087266,0.0,0.0,3.0,0.294556,0.318877,0.356716,0.327876,0.132221,3e-05,-9.2e-05,-0.013761,-0.000123,-0.000498,0.0,0.0,0.0,0.0,0.0,0.0
42524,0.153627,0.011628,0.00455,0.0,0.0,0.0,0.087266,0.0,0.0,3.0,0.293366,0.320419,0.353409,0.331066,0.131946,2.9e-05,-0.000102,-0.01366,-0.000129,-0.000467,0.0,0.0,0.0,0.0,0.0,0.0
42544,0.15326,0.011395,0.00445,0.0,0.0,0.0,0.087266,0.0,0.0,3.0,0.294124,0.321763,0.354394,0.328039,0.131674,2.7e-05,-0.000111,-0.013568,-0.000133,-0.000433,0.0,0.0,0.0,0.0,0.0,0.0
42564,0.152896,0.011518,0.004443,0.0,0.0,0.0,0.087266,0.0,0.0,3.0,0.293822,0.320544,0.354074,0.329831,0.131403,2.6e-05,-0.00012,-0.013483,-0.000136,-0.000398,0.0,0.0,0.0,0.0,0.0,0.0
42584,0.15252,0.011154,0.004472,0.0,0.0,0.0,0.087266,0.0,0.0,3.0,0.2921,0.323868,0.352759,0.329514,0.131134,2.4e-05,-0.000128,-0.013405,-0.000137,-0.000361,0.0,0.0,0.0,0.0,0.0,0.0
42604,0.152155,0.011155,0.004475,0.0,0.0,0.0,0.087266,0.0,0.0,3.0,0.289864,0.323384,0.351437,0.333284,0.130866,2.2e-05,-0.000135,-0.013332,-0.000137,-0.000322,0.0,0.0,0.0,0.0,0.0,0.0
42624,0.151911,0.010922,0.004373,0.0,0.0,0.0,0.087266,0.0,0.0,3.0,0.292424,0.321791,0.354056,0.329836,0.1306,2e-05,-0.000142,-0.013263,-0.000135,-0.000284,0.0,0.0,0.0,0.0,0.0,0.0
42644,0.151545,0.011054,0.004245,0.0,0.0,0.0,0.087266,0.0,0.0,3.0,0.294597,0.318241,0.355432,0.329877,0.130335,1.8e-05,-0.000147,-0.013199,-0.000132,-0.000245,0.0,0.0,0.0,0.0,0.0,0.0
42664,0.151058,0.010812,0.004266,0.0,0.0,0.0,0.087266,0.0,0.0,3.0,0.293317,0.323266,0.352887,0.328927,0.130072,1.6e-05,-0.000152,-0.013139,-0.000128,-0.000206,0.0,0.0,0.0,0.0,0.0,0.0
42684,0.150683,0.010813,0.004268,0.0,0.0,0.0,0.087266,0.0,0.0,3.0,0.293801,0.320419,0.35325,0.330871,0.12981,1.4e-05,-0.000156,-0.013081,-0.000123,-0.000168,0.0,0.0,0.0,0.0,0.0,0.0
42704,0.150317,0.01058,0.004166,0.0,0.0,0.0,0.087266,0.0,0.0,3.0,0.295036,0.321777,0.354091,0.327574,0.129548,1.2e-05,-0.00016,-0.013025,-0.000117,-0.000131,0.0,0.0,0.0,0.0,0.0,0.0
42724,0.150074,0.010581,0.004168,0.0,0.0,0.0,0.087266,0.0,0.0,3.0,0.29435,0.320935,0.35397,0.329118,0.129288,1.1e-05,-0.000162,-0.012985,-0.000112,-0.000105,0.0,0.0,0.0,0.0,0.0,0.0
42744,0.14983,0.01046,0.004179,0.0,0.0,0.0,0.087266,0.0,0.0,3.0,0.293293,0.323093,0.352493,0.329549,0.129029,8e-06,-0.000164,-0.012919,-0.000104,-6.2e-05,0.0,0.0,0.0,0.0,0.0,0.0
42764,0.149708,0.01046,0.004179,0.0,0.0,0.0,0.087266,0.0,0.0,3.0,0.291317,0.323892,0.350564,0.332528,0.128771,6e-06,-0.000166,-0.012867,-9.6e-05,-3e-05,0.0,0.0,0.0,0.0,0.0,0.0
42784,0.149707,0.010348,0.004067,0.0,0.0,0.0,0.087266,0.0,0.0,3.0,0.293831,0.320888,0.354183,0.329372,0.128514,5e-06,-0.000166,-0.012816,-8.8e-05,0.0,0.0,0.0,0.0,0.0,0.0,0.0
42804,0.149828,0.010113,0.003963,0.0,0.0,0.0,0.087266,0.0,0.0,3.0,0.295637,0.319242,0.356812,0.326478,0.128258,3e-06,-0.000166,-0.012766,-8e-05,2.8e-05,0.0,0.0,0.0,0.0,0.0,0.0
42824,0.14995,0.010234,0.003953,0.0,0.0,0.0,0.087266,0.0,0.0,3.0,0.292023,0.320915,0.355244,0.329711,0.128003,1e-06,-0.000166,-0.012715,-7.2e-05,5.4e-05,0.0,0.0,0.0,0.0,0.0,0.0
42844,0.150193,0.010364,0.00382,0.0,0.0,0.0,0.087266,0.0,0.0,3.0,0.292057,0.319742,0.356573,0.329339,0.12775,-0.0,-0.000165,-0.012664,-6.3e-05,7.7e-05,0.0,0.0,0.0,0.0,0.0,0.0
42864,0.150193,0.010495,0.003689,0.0,0.0,0.0,0.087266,0.0,0.0,3.0,0.295176,0.319949,0.355321,0.327863,0.127497,-2e-06,-0.000163,-0.012613,-5.5e-05,9.8e-05,0.0,0.0,0.0,0.0,0.0,0.0
42884,0.150071,0.010626,0.003559,0.0,0.0,0.0,0.087266,0.0,0.0,3.0,0.297381,0.318121,0.356439,0.326455,0.127245,-3e-06,-0.000161,-0.012561,-4.7e-05,0.000117,0.0,0.0,0.0,0.0,0.0,0.0
42904,0.149949,0.010505,0.003569,0.0,0.0,0.0,0.087266,0.0,0.0,3.0,0.289327,0.323508,0.353071,0.331845,0.127057,-4e-06,-0.000159,-0.012522,-4.1e-05,0.000129,0.0,0.0,0.0,0.0,0.0,0.0
42924,0.149948,0.010383,0.003578,0.0,0.0,0.0,0.087266,0.0,0.0,3.0,0.291947,0.32283,0.354135,0.329144,0.126744,-5e-06,-0.000156,-0.012456,-3.1e-05,0.000147,0.0,0.0,0.0,0.0,0.0,0.0
42944,0.149704,0.010393,0.003458,0.0,0.0,0.0,0.087266,0.0,0.0,3.0,0.295363,0.318948,0.355677,0.32827,0.126558,-6e-06,-0.000154,-0.012415,-2.5e-05,0.000155,0.0,0.0,0.0,0.0,0.0,0.0
42964,0.149207,0.010038,0.003366,0.0,0.0,0.0,0.087266,0.0,0.0,3.0,0.295995,0.320361,0.355125,0.32697,0.126248,-7e-06,-0.00015,-0.012347,-1.6e-05,0.000167,0.0,0.0,0.0,0.0,0.0,0.0
42984,0.149085,0.009917,0.003376,0.0,0.0,0.0,0.087266,0.0,0.0,3.0,0.292351,0.321505,0.355137,0.328982,0.126001,-8e-06,-0.000147,-0.012291,-1e-05,0.000174,0.0,0.0,0.0,0.0,0.0,0.0
43004,0.148963,0.009926,0.003255,0.0,0.0,0.0,0.087266,0.0,0.0,3.0,0.292742,0.319461,0.356543,0.329061,0.125756,-8e-06,-0.000143,-0.012234,-3e-06,0.000178,0.0,0.0,0.0,0.0,0.0,0.0
43024,0.149084,0.010056,0.003123,0.0,0.0,0.0,0.087266,0.0,0.0,3.0,0.292648,0.317673,0.358952,0.328156,0.125512,-9e-06,-0.00014,-0.012177,2e-06,0.000181,0.0,0.0,0.0,0.0,0.0,0.0
