time_ms,roll,pitch,yaw,x,y,z,reference_roll,reference_pitch,reference_yaw,reference_throttle,throttle_1,throttle_2,throttle_3,throttle_4,roll_predicted,pitch_predicted,yaw_predicted,roll_rate_predicted,pitch_rate_predicted,yaw_rate_predicted,value1,value2,value3,value4,value5,value6
263859,0.037691,0.049942,-0.001798,0.0,0.0,0.0,0.0,0.0,0.0,3.0,0.320855,0.318764,0.33081,0.331458,1.2e-05,0.049712,-2e-06,7.2e-05,-0.084566,1.3e-05,0.0,0.0,0.0,0.0,0.0,0.0
263879,0.037691,0.050064,-0.001801,0.0,0.0,0.0,0.0,0.0,0.0,3.0,0.323943,0.313881,0.327881,0.335929,1.4e-05,0.047589,-2e-06,7.1e-05,-0.085431,1.3e-05,0.0,0.0,0.0,0.0,0.0,0.0
263899,0.037691,0.04982,-0.001796,0.0,0.0,0.0,0.0,0.0,0.0,3.0,0.322197,0.319865,0.329207,0.330716,1.5e-05,0.045875,-2e-06,7.1e-05,-0.086083,1.3e-05,0.0,0.0,0.0,0.0,0.0,0.0
263919,0.03757,0.049815,-0.00167,0.0,0.0,0.0,0.0,0.0,0.0,3.0,0.321431,0.319084,0.326426,0.334911,1.7e-05,0.044149,-2e-06,7e-05,-0.086698,1.2e-05,0.0,0.0,0.0,0.0,0.0,0.0
263939,0.03757,0.049693,-0.001668,0.0,0.0,0.0,0.0,0.0,0.0,3.0,0.321753,0.319597,0.329296,0.33131,1.8e-05,0.04241,-1e-06,7e-05,-0.087276,1.2e-05,0.0,0.0,0.0,0.0,0.0,0.0
263959,0.037445,0.049695,-0.001787,0.0,0.0,0.0,0.0,0.0,0.0,3.0,0.326598,0.312072,0.333719,0.329222,2e-05,0.040661,-1e-06,6.9e-05,-0.087817,1.2e-05,0.0,0.0,0.0,0.0,0.0,0.0
263979,0.037204,0.049693,-0.001659,0.0,0.0,0.0,0.0,0.0,0.0,3.0,0.321072,0.319878,0.32376,0.337057,2.1e-05,0.038901,-1e-06,6.9e-05,-0.088322,1.2e-05,0.0,0.0,0.0,0.0,0.0,0.0
263999,0.037082,0.049937,-0.001661,0.0,0.0,0.0,0.0,0.0,0.0,3.0,0.322289,0.314298,0.329067,0.335968,2.2e-05,0.037131,-1e-06,6.8e-05,-0.088789,1.2e-05,0.0,0.0,0.0,0.0,0.0,0.0
264019,0.036963,0.049935,-0.001535,0.0,0.0,0.0,0.0,0.0,0.0,3.0,0.322935,0.316232,0.326566,0.336001,2.4e-05,0.035352,-1e-06,6.7e-05,-0.089219,1.2e-05,0.0,0.0,0.0,0.0,0.0,0.0
264039,0.036841,0.050057,-0.001535,0.0,0.0,0.0,0.0,0.0,0.0,3.0,0.322092,0.314381,0.329358,0.335794,2.5e-05,0.033564,-0.0,6.7e-05,-0.089612,1.1e-05,0.0,0.0,0.0,0.0,0.0,0.0
264059,0.036597,0.050057,-0.001528,0.0,0.0,0.0,0.0,0.0,0.0,3.0,0.322788,0.315134,0.328602,0.335181,2.6e-05,0.031769,-0.0,6.6e-05,-0.089967,1.1e-05,0.0,0.0,0.0,0.0,0.0,0.0
264079,0.036356,0.050055,-0.0014,0.0,0.0,0.0,0.0,0.0,0.0,3.0,0.322134,0.314673,0.327427,0.337357,2.8e-05,0.029967,-0.0,6.5e-05,-0.090286,1.1e-05,0.0,0.0,0.0,0.0,0.0,0.0
264099,0.036115,0.050175,-0.001274,0.0,0.0,0.0,0.0,0.0,0.0,3.0,0.319734,0.319256,0.32402,0.338635,2.9e-05,0.02816,0.0,6.4e-05,-0.090567,1.1e-05,0.0,0.0,0.0,0.0,0.0,0.0
264119,0.035749,0.050175,-0.001265,0.0,0.0,0.0,0.0,0.0,0.0,3.0,0.324283,0.315473,0.326014,0.335948,3e-05,0.026346,0.0,6.4e-05,-0.09081,1.1e-05,0.0,0.0,0.0,0.0,0.0,0.0
264139,0.03563,0.050051,-0.001138,0.0,0.0,0.0,0.0,0.0,0.0,3.0,0.318508,0.31767,0.322255,0.337638,3.1e-05,0.024983,0.0,6.3e-05,-0.090969,1.1e-05,0.0,0.0,0.0,0.0,0.0,0.0
264159,0.035142,0.050052,-0.001125,0.0,0.0,0.0,0.0,0.0,0.0,3.0,0.325458,0.314875,0.324731,0.336602,3.3e-05,0.022707,1e-06,6.2e-05,-0.091186,1.1e-05,0.0,0.0,0.0,0.0,0.0,0.0
264179,0.034901,0.049928,-0.000995,0.0,0.0,0.0,0.0,0.0,0.0,3.0,0.321858,0.319234,0.321248,0.339275,3.4e-05,0.020882,1e-06,6.1e-05,-0.091319,1e-05,0.0,0.0,0.0,0.0,0.0,0.0
264199,0.03466,0.05017,-0.000871,0.0,0.0,0.0,0.0,0.0,0.0,3.0,0.322047,0.313363,0.320953,0.344655,3.5e-05,0.019055,1e-06,6e-05,-0.091414,1e-05,0.0,0.0,0.0,0.0,0.0,0.0
264219,0.034663,0.049924,-0.000744,0.0,0.0,0.0,0.0,0.0,0.0,3.0,0.312893,0.323124,0.322803,0.342386,3.7e-05,0.017226,1e-06,5.9e-05,-0.091472,1e-05,0.0,0.0,0.0,0.0,0.0,0.0
264239,0.034541,0.049924,-0.000741,0.0,0.0,0.0,0.0,0.0,0.0,3.0,0.317188,0.317439,0.327089,0.339735,3.8e-05,0.015396,1e-06,5.8e-05,-0.091493,1e-05,0.0,0.0,0.0,0.0,0.0,0.0
264259,0.034419,0.049924,-0.000738,0.0,0.0,0.0,0.0,0.0,0.0,3.0,0.319956,0.316479,0.329905,0.335342,3.9e-05,0.013567,1e-06,5.7e-05,-0.091477,1e-05,0.0,0.0,0.0,0.0,0.0,0.0
264279,0.034178,0.049922,-0.00061,0.0,0.0,0.0,0.0,0.0,0.0,3.0,0.319308,0.314027,0.331165,0.336964,4e-05,0.012195,1e-06,5.7e-05,-0.091441,1e-05,0.0,0.0,0.0,0.0,0.0,0.0
264299,0.034056,0.050044,-0.000609,0.0,0.0,0.0,0.0,0.0,0.0,3.0,0.320189,0.315099,0.329046,0.337228,4.1e-05,0.00991,2e-06,5.5e-05,-0.091336,1e-05,0.0,0.0,0.0,0.0,0.0,0.0
264319,0.033937,0.04992,-0.000482,0.0,0.0,0.0,0.0,0.0,0.0,3.0,0.319166,0.315204,0.329009,0.338118,4.2e-05,0.008084,2e-06,5.4e-05,-0.091211,1e-05,0.0,0.0,0.0,0.0,0.0,0.0
264339,0.033696,0.050162,-0.000358,0.0,0.0,0.0,0.0,0.0,0.0,3.0,0.320276,0.311422,0.324798,0.340562,4.3e-05,0.006716,2e-06,5.4e-05,-0.091093,1e-05,0.0,0.0,0.0,0.0,0.0,0.0
264359,0.03333,0.049919,-0.000344,0.0,0.0,0.0,0.0,0.0,0.0,3.0,0.323295,0.315035,0.325861,0.337433,4.4e-05,0.004441,2e-06,5.2e-05,-0.090904,1e-05,0.0,0.0,0.0,0.0,0.0,0.0
264379,0.032964,0.049797,-0.000333,0.0,0.0,0.0,0.0,0.0,0.0,3.0,0.324546,0.316185,0.324411,0.336576,4.5e-05,0.002626,2e-06,5.1e-05,-0.090618,9e-06,0.0,0.0,0.0,0.0,0.0,0.0
264399,0.032726,0.049671,-8.1e-05,0.0,0.0,0.0,0.0,0.0,0.0,3.0,0.313309,0.325069,0.317733,0.344833,4.6e-05,0.000815,2e-06,5e-05,-0.090349,9e-06,0.0,0.0,0.0,0.0,0.0,0.0
264419,0.032241,0.049548,5.6e-05,0.0,0.0,0.0,0.0,0.0,0.0,3.0,0.315531,0.323883,0.317635,0.34405,4.7e-05,-0.000989,2e-06,4.9e-05,-0.090044,9e-06,0.0,0.0,0.0,0.0,0.0,0.0
264439,0.031997,0.049548,6.2e-05,0.0,0.0,0.0,0.0,0.0,0.0,3.0,0.319205,0.313153,0.327274,0.341581,4.8e-05,-0.002788,2e-06,4.8e-05,-0.089704,9e-06,0.0,0.0,0.0,0.0,0.0,0.0
264459,0.031265,0.049427,8.2e-05,0.0,0.0,0.0,0.0,0.0,0.0,3.0,0.326298,0.314218,0.321662,0.339286,4.9e-05,-0.004579,2e-06,4.7e-05,-0.089329,9e-06,0.0,0.0,0.0,0.0,0.0,0.0
264479,0.0309,0.049301,0.000215,0.0,0.0,0.0,0.0,0.0,0.0,3.0,0.321426,0.317139,0.319701,0.343003,5e-05,-0.006363,2e-06,4.6e-05,-0.088919,9e-06,0.0,0.0,0.0,0.0,0.0,0.0
264499,0.030537,0.049299,0.000346,0.0,0.0,0.0,0.0,0.0,0.0,3.0,0.316718,0.322019,0.316593,0.345632,5.1e-05,-0.008138,3e-06,4.4e-05,-0.088475,9e-06,0.0,0.0,0.0,0.0,0.0,0.0
264519,0.030293,0.049177,0.000354,0.0,0.0,0.0,0.0,0.0,0.0,3.0,0.319011,0.312932,0.326989,0.342221,5.2e-05,-0.009904,3e-06,4.3e-05,-0.087997,9e-06,0.0,0.0,0.0,0.0,0.0,0.0
264539,0.02993,0.049054,0.000487,0.0,0.0,0.0,0.0,0.0,0.0,3.0,0.312779,0.322279,0.320998,0.344915,5.3e-05,-0.01166,3e-06,4.2e-05,-0.087485,9e-06,0.0,0.0,0.0,0.0,0.0,0.0
264559,0.029564,0.048933,0.000498,0.0,0.0,0.0,0.0,0.0,0.0,3.0,0.313641,0.320237,0.323066,0.344127,5.4e-05,-0.013405,3e-06,4.1e-05,-0.086939,8e-06,0.0,0.0,0.0,0.0,0.0,0.0
264579,0.02932,0.048933,0.000504,0.0,0.0,0.0,0.0,0.0,0.0,3.0,0.31885,0.313477,0.328756,0.340208,5.5e-05,-0.01514,3e-06,4e-05,-0.08636,8e-06,0.0,0.0,0.0,0.0,0.0,0.0
264599,0.029076,0.048811,0.000512,0.0,0.0,0.0,0.0,0.0,0.0,3.0,0.317999,0.31147,0.330471,0.341129,5.5e-05,-0.016863,3e-06,3.8e-05,-0.085749,8e-06,0.0,0.0,0.0,0.0,0.0,0.0
264619,0.02871,0.04869,0.000522,0.0,0.0,0.0,0.0,0.0,0.0,3.0,0.319936,0.312027,0.328305,0.340934,5.6e-05,-0.018573,3e-06,3.7e-05,-0.085104,8e-06,0.0,0.0,0.0,0.0,0.0,0.0
264639,0.028343,0.04869,0.000531,0.0,0.0,0.0,0.0,0.0,0.0,3.0,0.321003,0.30924,0.327298,0.343353,5.7e-05,-0.02027,3e-06,3.6e-05,-0.084428,8e-06,0.0,0.0,0.0,0.0,0.0,0.0
264659,0.027977,0.048447,0.000544,0.0,0.0,0.0,0.0,0.0,0.0,3.0,0.325578,0.309381,0.329204,0.337144,5.8e-05,-0.021953,3e-06,3.5e-05,-0.08372,8e-06,0.0,0.0,0.0,0.0,0.0,0.0
264679,0.027736,0.048201,0.000675,0.0,0.0,0.0,0.0,0.0,0.0,3.0,0.320384,0.315261,0.324101,0.341595,5.8e-05,-0.023622,3e-06,3.3e-05,-0.08298,8e-06,0.0,0.0,0.0,0.0,0.0,0.0
264699,0.027248,0.047836,0.000692,0.0,0.0,0.0,0.0,0.0,0.0,3.0,0.32234,0.316411,0.32472,0.33816,5.9e-05,-0.025276,3e-06,3.2e-05,-0.082209,8e-06,0.0,0.0,0.0,0.0,0.0,0.0
264719,0.026879,0.047838,0.000578,0.0,0.0,0.0,0.0,0.0,0.0,3.0,0.328826,0.304973,0.332744,0.334439,5.9e-05,-0.026914,3e-06,3.1e-05,-0.081408,7e-06,0.0,0.0,0.0,0.0,0.0,0.0
264739,0.026635,0.047472,0.000589,0.0,0.0,0.0,0.0,0.0,0.0,3.0,0.318831,0.315471,0.329887,0.337336,6e-05,-0.028536,3e-06,2.9e-05,-0.080576,7e-06,0.0,0.0,0.0,0.0,0.0,0.0
264759,0.025904,0.047224,0.000732,0.0,0.0,0.0,0.0,0.0,0.0,3.0,0.318369,0.322236,0.314268,0.346017,6.1e-05,-0.030141,3e-06,2.8e-05,-0.079715,7e-06,0.0,0.0,0.0,0.0,0.0,0.0
264779,0.02566,0.047103,0.000739,0.0,0.0,0.0,0.0,0.0,0.0,3.0,0.316056,0.317466,0.319948,0.347312,6.1e-05,-0.031729,3e-06,2.7e-05,-0.078824,7e-06,0.0,0.0,0.0,0.0,0.0,0.0
264799,0.025169,0.046739,0.000633,0.0,0.0,0.0,0.0,0.0,0.0,3.0,0.324516,0.313772,0.325533,0.337737,6.2e-05,-0.033299,3e-06,2.5e-05,-0.077905,7e-06,0.0,0.0,0.0,0.0,0.0,0.0
264819,0.024803,0.046495,0.000645,0.0,0.0,0.0,0.0,0.0,0.0,3.0,0.321904,0.312512,0.325848,0.341014,6.2e-05,-0.03485,4e-06,2.4e-05,-0.076957,7e-06,0.0,0.0,0.0,0.0,0.0,0.0
264839,0.024315,0.046252,0.000659,0.0,0.0,0.0,0.0,0.0,0.0,3.0,0.316876,0.320117,0.319853,0.344295,6.3e-05,-0.036381,4e-06,2.3e-05,-0.076228,7e-06,0.0,0.0,0.0,0.0,0.0,0.0
264859,0.023824,0.04601,0.000551,0.0,0.0,0.0,0.0,0.0,0.0,3.0,0.324513,0.307797,0.328995,0.339749,6.3e-05,-0.037517,4e-06,2.2e-05,-0.075231,7e-06,0.0,0.0,0.0,0.0,0.0,0.0
264879,0.023458,0.04601,0.00056,0.0,0.0,0.0,0.0,0.0,0.0,3.0,0.320553,0.311141,0.327535,0.34188,6.4e-05,-0.039385,4e-06,2e-05,-0.073948,6e-06,0.0,0.0,0.0,0.0,0.0,0.0
264899,0.02297,0.045644,0.000575,0.0,0.0,0.0,0.0,0.0,0.0,3.0,0.315891,0.314984,0.323226,0.346688,6.4e-05,-0.040857,4e-06,1.9e-05,-0.072891,6e-06,0.0,0.0,0.0,0.0,0.0,0.0
264919,0.022479,0.04528,0.000468,0.0,0.0,0.0,0.0,0.0,0.0,3.0,0.32281,0.311667,0.327966,0.338913,6.4e-05,-0.042306,4e-06,1.7e-05,-0.071808,6e-06,0.0,0.0,0.0,0.0,0.0,0.0
264939,0.021866,0.044794,0.000365,0.0,0.0,0.0,0.0,0.0,0.0,3.0,0.331129,0.306916,0.330447,0.332721,6.5e-05,-0.043734,4e-06,1.6e-05,-0.0707,6e-06,0.0,0.0,0.0,0.0,0.0,0.0
264959,0.021498,0.044426,0.000377,0.0,0.0,0.0,0.0,0.0,0.0,3.0,0.330863,0.305507,0.329765,0.334908,6.5e-05,-0.04514,4e-06,1.5e-05,-0.069567,6e-06,0.0,0.0,0.0,0.0,0.0,0.0
264979,0.02101,0.04406,0.000392,0.0,0.0,0.0,0.0,0.0,0.0,3.0,0.325652,0.311595,0.322708,0.341266,6.5e-05,-0.046522,4e-06,1.3e-05,-0.06841,6e-06,0.0,0.0,0.0,0.0,0.0,0.0
264999,0.020766,0.04345,0.000404,0.0,0.0,0.0,0.0,0.0,0.0,3.0,0.320557,0.315949,0.327347,0.337746,6.6e-05,-0.047882,4e-06,1.2e-05,-0.067229,6e-06,0.0,0.0,0.0,0.0,0.0,0.0
265019,0.020278,0.043084,0.000418,0.0,0.0,0.0,0.0,0.0,0.0,3.0,0.322652,0.314674,0.325034,0.339149,6.6e-05,-0.049217,4e-06,1.1e-05,-0.066025,5e-06,0.0,0.0,0.0,0.0,0.0,0.0
265039,0.019665,0.042598,0.000314,0.0,0.0,0.0,0.0,0.0,0.0,3.0,0.326127,0.314039,0.323144,0.338226,6.6e-05,-0.050529,4e-06,9e-06,-0.064798,5e-06,0.0,0.0,0.0,0.0,0.0,0.0
265059,0.019177,0.042232,0.000328,0.0,0.0,0.0,0.0,0.0,0.0,3.0,0.323564,0.312088,0.324436,0.341173,6.6e-05,-0.051815,4e-06,8e-06,-0.063549,5e-06,0.0,0.0,0.0,0.0,0.0,0.0
265079,0.018564,0.041867,0.000222,0.0,0.0,0.0,0.0,0.0,0.0,3.0,0.32874,0.31021,0.325976,0.336472,6.6e-05,-0.053077,4e-06,6e-06,-0.062278,5e-06,0.0,0.0,0.0,0.0,0.0,0.0
265099,0.018076,0.04138,0.000237,0.0,0.0,0.0,0.0,0.0,0.0,3.0,0.323904,0.313662,0.324488,0.339403,6.6e-05,-0.054313,4e-06,5e-06,-0.060987,5e-06,0.0,0.0,0.0,0.0,0.0,0.0
265119,0.017588,0.041014,0.00025,0.0,0.0,0.0,0.0,0.0,0.0,3.0,0.323669,0.313162,0.324341,0.340209,6.6e-05,-0.055523,4e-06,4e-06,-0.059675,5e-06,0.0,0.0,0.0,0.0,0.0,0.0
265139,0.016974,0.040525,0.000144,0.0,0.0,0.0,0.0,0.0,0.0,3.0,0.325895,0.311212,0.325718,0.338552,6.7e-05,-0.056706,4e-06,2e-06,-0.058343,4e-06,0.0,0.0,0.0,0.0,0.0,0.0
265159,0.016606,0.040038,3.4e-05,0.0,0.0,0.0,0.0,0.0,0.0,3.0,0.327052,0.307684,0.328573,0.337845,6.7e-05,-0.057863,4e-06,1e-06,-0.056993,4e-06,0.0,0.0,0.0,0.0,0.0,0.0
265179,0.016118,0.03955,4.8e-05,0.0,0.0,0.0,0.0,0.0,0.0,3.0,0.322453,0.314084,0.326463,0.338513,6.7e-05,-0.058993,4e-06,-0.0,-0.055623,4e-06,0.0,0.0,0.0,0.0,0.0,0.0
265199,0.015749,0.039063,-6.4e-05,0.0,0.0,0.0,0.0,0.0,0.0,3.0,0.324943,0.310952,0.330743,0.33484,6.7e-05,-0.060095,4e-06,-2e-06,-0.054236,4e-06,0.0,0.0,0.0,0.0,0.0,0.0
265219,0.015137,0.038698,-0.000171,0.0,0.0,0.0,0.0,0.0,0.0,3.0,0.325573,0.312239,0.325273,0.338362,6.7e-05,-0.061169,4e-06,-3e-06,-0.052832,4e-06,0.0,0.0,0.0,0.0,0.0,0.0
265239,0.014646,0.038211,-0.00028,0.0,0.0,0.0,0.0,0.0,0.0,3.0,0.325766,0.312538,0.324941,0.338225,6.6e-05,-0.062215,4e-06,-4e-06,-0.051411,4e-06,0.0,0.0,0.0,0.0,0.0,0.0
265259,0.014158,0.037845,-0.000268,0.0,0.0,0.0,0.0,0.0,0.0,3.0,0.32699,0.313224,0.321706,0.339482,6.6e-05,-0.063232,4e-06,-6e-06,-0.049973,3e-06,0.0,0.0,0.0,0.0,0.0,0.0
265279,0.013546,0.037479,-0.000376,0.0,0.0,0.0,0.0,0.0,0.0,3.0,0.329582,0.310646,0.322601,0.338466,6.6e-05,-0.064221,4e-06,-7e-06,-0.048521,3e-06,0.0,0.0,0.0,0.0,0.0,0.0
265299,0.013055,0.037236,-0.000488,0.0,0.0,0.0,0.0,0.0,0.0,3.0,0.327738,0.304111,0.32536,0.343322,6.6e-05,-0.06518,4e-06,-8e-06,-0.047054,3e-06,0.0,0.0,0.0,0.0,0.0,0.0
265319,0.012321,0.036749,-0.000593,0.0,0.0,0.0,0.0,0.0,0.0,3.0,0.328609,0.310358,0.322572,0.339684,6.6e-05,-0.06611,4e-06,-1e-05,-0.045572,3e-06,0.0,0.0,0.0,0.0,0.0,0.0
265339,0.011588,0.035892,-0.000575,0.0,0.0,0.0,0.0,0.0,0.0,3.0,0.329278,0.317721,0.319628,0.335111,6.6e-05,-0.067011,4e-06,-1.1e-05,-0.044452,3e-06,0.0,0.0,0.0,0.0,0.0,0.0
265359,0.010854,0.035405,-0.000681,0.0,0.0,0.0,0.0,0.0,0.0,3.0,0.329041,0.314786,0.32196,0.335857,6.5e-05,-0.067881,4e-06,-1.2e-05,-0.04257,2e-06,0.0,0.0,0.0,0.0,0.0,0.0
265379,0.009996,0.034796,-0.000907,0.0,0.0,0.0,0.0,0.0,0.0,3.0,0.337297,0.306415,0.329549,0.327802,6.5e-05,-0.068721,4e-06,-1.4e-05,-0.04105,2e-06,0.0,0.0,0.0,0.0,0.0,0.0
265399,0.009262,0.034064,-0.001013,0.0,0.0,0.0,0.0,0.0,0.0,3.0,0.330167,0.312614,0.32799,0.330923,6.5e-05,-0.06953,4e-06,-1.5e-05,-0.039519,2e-06,0.0,0.0,0.0,0.0,0.0,0.0
265419,0.008164,0.033453,-0.000992,0.0,0.0,0.0,0.0,0.0,0.0,3.0,0.330294,0.312669,0.320023,0.338373,6.5e-05,-0.070309,4e-06,-1.6e-05,-0.037977,2e-06,0.0,0.0,0.0,0.0,0.0,0.0
265439,0.007188,0.032354,-0.000972,0.0,0.0,0.0,0.0,0.0,0.0,3.0,0.33122,0.317282,0.318426,0.33474,6.4e-05,-0.070873,4e-06,-1.7e-05,-0.036813,2e-06,0.0,0.0,0.0,0.0,0.0,0.0
265459,0.006088,0.031622,-0.001074,0.0,0.0,0.0,0.0,0.0,0.0,3.0,0.342853,0.312728,0.319851,0.325692,6.4e-05,-0.071774,4e-06,-1.9e-05,-0.034863,2e-06,0.0,0.0,0.0,0.0,0.0,0.0
265479,0.00511,0.030768,-0.001178,0.0,0.0,0.0,0.0,0.0,0.0,3.0,0.341711,0.312104,0.322432,0.324969,6.4e-05,-0.072459,4e-06,-2e-05,-0.033292,1e-06,0.0,0.0,0.0,0.0,0.0,0.0
265499,0.004254,0.030033,-0.001285,0.0,0.0,0.0,0.0,0.0,0.0,3.0,0.338391,0.310518,0.323026,0.329366,6.3e-05,-0.073113,4e-06,-2.1e-05,-0.031713,1e-06,0.0,0.0,0.0,0.0,0.0,0.0
265519,0.003278,0.029178,-0.001269,0.0,0.0,0.0,0.0,0.0,0.0,3.0,0.334817,0.316081,0.315885,0.334642,6.3e-05,-0.073736,4e-06,-2.2e-05,-0.030127,1e-06,0.0,0.0,0.0,0.0,0.0,0.0
265539,0.002302,0.028445,-0.001254,0.0,0.0,0.0,0.0,0.0,0.0,3.0,0.334297,0.314223,0.31587,0.336879,6.2e-05,-0.074326,4e-06,-2.3e-05,-0.028534,1e-06,0.0,0.0,0.0,0.0,0.0,0.0
265559,0.001448,0.02759,-0.001241,0.0,0.0,0.0,0.0,0.0,0.0,3.0,0.331934,0.316646,0.318618,0.334445,6.2e-05,-0.074885,4e-06,-2.5e-05,-0.026935,1e-06,0.0,0.0,0.0,0.0,0.0,0.0
265579,0.000472,0.026857,-0.001228,0.0,0.0,0.0,0.0,0.0,0.0,3.0,0.32921,0.320779,0.314296,0.337249,6.1e-05,-0.075412,4e-06,-2.6e-05,-0.02533,1e-06,0.0,0.0,0.0,0.0,0.0,0.0
265599,-0.000384,0.026002,-0.001339,0.0,0.0,0.0,0.0,0.0,0.0,3.0,0.333626,0.31816,0.320279,0.32975,6.1e-05,-0.075906,4e-06,-2.7e-05,-0.02372,0.0,0.0,0.0,0.0,0.0,0.0,0.0
265619,-0.00136,0.025147,-0.001326,0.0,0.0,0.0,0.0,0.0,0.0,3.0,0.333904,0.31995,0.316998,0.330884,6e-05,-0.076369,4e-06,-2.8e-05,-0.022107,0.0,0.0,0.0,0.0,0.0,0.0,0.0
265639,-0.002336,0.024414,-0.001315,0.0,0.0,0.0,0.0,0.0,0.0,3.0,0.332776,0.317574,0.318173,0.333161,6e-05,-0.076799,4e-06,-2.9e-05,-0.020489,0.0,0.0,0.0,0.0,0.0,0.0,0.0
265659,-0.003435,0.023681,-0.001425,0.0,0.0,0.0,0.0,0.0,0.0,3.0,0.342545,0.308589,0.32191,0.327874,5.9e-05,-0.077196,4e-06,-3e-05,-0.018869,-0.0,0.0,0.0,0.0,0.0,0.0,0.0
265679,-0.004533,0.022703,-0.001414,0.0,0.0,0.0,0.0,0.0,0.0,3.0,0.340995,0.312917,0.32292,0.32448,5.8e-05,-0.077561,4e-06,-3.1e-05,-0.017247,-0.0,0.0,0.0,0.0,0.0,0.0,0.0
265699,-0.00563,0.022093,-0.001281,0.0,0.0,0.0,0.0,0.0,0.0,3.0,0.335334,0.318689,0.312579,0.334733,5.8e-05,-0.077894,4e-06,-3.2e-05,-0.015623,-0.0,0.0,0.0,0.0,0.0,0.0,0.0
265719,-0.00685,0.021115,-0.001271,0.0,0.0,0.0,0.0,0.0,0.0,3.0,0.337867,0.318681,0.312438,0.332305,5.7e-05,-0.078194,4e-06,-3.3e-05,-0.013999,-1e-06,0.0,0.0,0.0,0.0,0.0,0.0
265739,-0.008192,0.020258,-0.00126,0.0,0.0,0.0,0.0,0.0,0.0,3.0,0.340647,0.318252,0.30938,0.332643,5.6e-05,-0.078462,4e-06,-3.4e-05,-0.012374,-1e-06,0.0,0.0,0.0,0.0,0.0,0.0
265759,-0.009289,0.01916,-0.001132,0.0,0.0,0.0,0.0,0.0,0.0,3.0,0.340031,0.323953,0.304308,0.332386,5.6e-05,-0.078698,4e-06,-3.6e-05,-0.01075,-1e-06,0.0,0.0,0.0,0.0,0.0,0.0
265779,-0.010143,0.018304,-0.001128,0.0,0.0,0.0,0.0,0.0,0.0,3.0,0.335965,0.31881,0.315322,0.333783,5.5e-05,-0.078853,4e-06,-3.6e-05,-0.009533,-1e-06,0.0,0.0,0.0,0.0,0.0,0.0
265799,-0.011241,0.017449,-0.001123,0.0,0.0,0.0,0.0,0.0,0.0,3.0,0.334132,0.3222,0.309549,0.335366,5.4e-05,-0.079071,4e-06,-3.7e-05,-0.007506,-1e-06,0.0,0.0,0.0,0.0,0.0,0.0
265819,-0.012095,0.01635,-0.001122,0.0,0.0,0.0,0.0,0.0,0.0,3.0,0.333082,0.319563,0.317901,0.331231,5.4e-05,-0.079209,3e-06,-3.8e-05,-0.005887,-1e-06,0.0,0.0,0.0,0.0,0.0,0.0
265839,-0.01307,0.015496,-0.000997,0.0,0.0,0.0,0.0,0.0,0.0,3.0,0.333598,0.322667,0.313974,0.331417,5.3e-05,-0.079314,3e-06,-3.9e-05,-0.004271,-1e-06,0.0,0.0,0.0,0.0,0.0,0.0
265859,-0.013924,0.014397,-0.000998,0.0,0.0,0.0,0.0,0.0,0.0,3.0,0.337319,0.321342,0.313339,0.329489,5.2e-05,-0.079388,3e-06,-4e-05,-0.002659,-2e-06,0.0,0.0,0.0,0.0,0.0,0.0
265879,-0.014777,0.013542,-0.000877,0.0,0.0,0.0,0.0,0.0,0.0,3.0,0.334694,0.324399,0.308905,0.333281,5.1e-05,-0.079429,3e-06,-4.1e-05,-0.001052,-2e-06,0.0,0.0,0.0,0.0,0.0,0.0
265899,-0.015631,0.012565,-0.000878,0.0,0.0,0.0,0.0,0.0,0.0,3.0,0.335947,0.323915,0.312835,0.328871,5e-05,-0.079438,3e-06,-4.2e-05,0.000551,-2e-06,0.0,0.0,0.0,0.0,0.0,0.0
265919,-0.016363,0.011711,-0.000881,0.0,0.0,0.0,0.0,0.0,0.0,3.0,0.335929,0.320717,0.315002,0.329966,5e-05,-0.079415,3e-06,-4.3e-05,0.002148,-2e-06,0.0,0.0,0.0,0.0,0.0,0.0
265939,-0.017217,0.010735,-0.000762,0.0,0.0,0.0,0.0,0.0,0.0,3.0,0.332515,0.3252,0.311458,0.332373,4.9e-05,-0.07936,3e-06,-4.4e-05,0.003738,-2e-06,0.0,0.0,0.0,0.0,0.0,0.0
265959,-0.018071,0.00988,-0.000765,0.0,0.0,0.0,0.0,0.0,0.0,3.0,0.337965,0.321569,0.312328,0.329545,4.8e-05,-0.079273,3e-06,-4.5e-05,0.005322,-2e-06,0.0,0.0,0.0,0.0,0.0,0.0
265979,-0.018924,0.009026,-0.000647,0.0,0.0,0.0,0.0,0.0,0.0,3.0,0.335701,0.323348,0.313394,0.329156,4.7e-05,-0.079155,3e-06,-4.5e-05,0.006898,-2e-06,0.0,0.0,0.0,0.0,0.0,0.0
265999,-0.019657,0.008049,-0.000653,0.0,0.0,0.0,0.0,0.0,0.0,3.0,0.335805,0.322465,0.315095,0.328312,4.6e-05,-0.079005,3e-06,-4.6e-05,0.008467,-2e-06,0.0,0.0,0.0,0.0,0.0,0.0
266019,-0.02051,0.007318,-0.000535,0.0,0.0,0.0,0.0,0.0,0.0,3.0,0.330082,0.326628,0.306333,0.337979,4.5e-05,-0.078824,3e-06,-4.7e-05,0.010026,-3e-06,0.0,0.0,0.0,0.0,0.0,0.0
266039,-0.021366,0.006219,-0.000544,0.0,0.0,0.0,0.0,0.0,0.0,3.0,0.340085,0.324358,0.309442,0.327284,4.4e-05,-0.078612,3e-06,-4.8e-05,0.011576,-3e-06,0.0,0.0,0.0,0.0,0.0,0.0
266059,-0.022098,0.005364,-0.000551,0.0,0.0,0.0,0.0,0.0,0.0,3.0,0.343172,0.322927,0.3067,0.327945,4.3e-05,-0.078369,3e-06,-4.8e-05,0.013117,-3e-06,0.0,0.0,0.0,0.0,0.0,0.0
266079,-0.022464,0.00451,-0.00056,0.0,0.0,0.0,0.0,0.0,0.0,3.0,0.335268,0.323245,0.315853,0.327383,4.2e-05,-0.078095,3e-06,-4.9e-05,0.014647,-3e-06,0.0,0.0,0.0,0.0,0.0,0.0
266099,-0.023074,0.003901,-0.000443,0.0,0.0,0.0,0.0,0.0,0.0,3.0,0.330065,0.325117,0.306214,0.339532,4.1e-05,-0.077791,3e-06,-5e-05,0.016165,-3e-06,0.0,0.0,0.0,0.0,0.0,0.0
266119,-0.023684,0.002802,-0.000455,0.0,0.0,0.0,0.0,0.0,0.0,3.0,0.336363,0.32475,0.313685,0.326819,4e-05,-0.077456,3e-06,-5e-05,0.017672,-3e-06,0.0,0.0,0.0,0.0,0.0,0.0
266139,-0.024172,0.002071,-0.000341,0.0,0.0,0.0,0.0,0.0,0.0,3.0,0.335644,0.322289,0.313114,0.330503,3.9e-05,-0.077091,3e-06,-5.1e-05,0.019167,-3e-06,0.0,0.0,0.0,0.0,0.0,0.0
266159,-0.02466,0.001096,-0.000231,0.0,0.0,0.0,0.0,0.0,0.0,3.0,0.328472,0.331971,0.308054,0.33281,3.8e-05,-0.076697,3e-06,-5.2e-05,0.02065,-3e-06,0.0,0.0,0.0,0.0,0.0,0.0
266179,-0.025148,0.000241,-0.000241,0.0,0.0,0.0,0.0,0.0,0.0,3.0,0.335527,0.323289,0.314166,0.328667,3.7e-05,-0.076273,3e-06,-5.2e-05,0.022119,-3e-06,0.0,0.0,0.0,0.0,0.0,0.0
266199,-0.025636,-0.000734,-0.000131,0.0,0.0,0.0,0.0,0.0,0.0,3.0,0.335952,0.326282,0.310841,0.328389,3.6e-05,-0.07582,3e-06,-5.3e-05,0.023574,-3e-06,0.0,0.0,0.0,0.0,0.0,0.0
266219,-0.026003,-0.002077,-0.000149,0.0,0.0,0.0,0.0,0.0,0.0,3.0,0.34224,0.328635,0.315287,0.314941,3.5e-05,-0.075337,3e-06,-5.3e-05,0.025014,-3e-06,0.0,0.0,0.0,0.0,0.0,0.0
266239,-0.026369,-0.002807,-3.7e-05,0.0,0.0,0.0,0.0,0.0,0.0,3.0,0.335254,0.328106,0.314017,0.324292,3.4e-05,-0.074826,3e-06,-5.4e-05,0.02644,-3e-06,0.0,0.0,0.0,0.0,0.0,0.0
266259,-0.026735,-0.00366,7.3e-05,0.0,0.0,0.0,0.0,0.0,0.0,3.0,0.335376,0.324267,0.310921,0.330884,3.3e-05,-0.074287,3e-06,-5.4e-05,0.02785,-3e-06,0.0,0.0,0.0,0.0,0.0,0.0
266279,-0.027224,-0.004513,0.000183,0.0,0.0,0.0,0.0,0.0,0.0,3.0,0.330233,0.330647,0.305147,0.334979,3.2e-05,-0.073719,3e-06,-5.5e-05,0.029245,-3e-06,0.0,0.0,0.0,0.0,0.0,0.0
266299,-0.027468,-0.005611,0.000167,0.0,0.0,0.0,0.0,0.0,0.0,3.0,0.335384,0.325661,0.313762,0.326857,3.1e-05,-0.073124,2e-06,-5.5e-05,0.030623,-3e-06,0.0,0.0,0.0,0.0,0.0,0.0
266319,-0.027835,-0.00634,0.0004,0.0,0.0,0.0,0.0,0.0,0.0,3.0,0.327145,0.33197,0.306431,0.335551,3e-05,-0.072502,2e-06,-5.6e-05,0.031984,-3e-06,0.0,0.0,0.0,0.0,0.0,0.0
266339,-0.028201,-0.007317,0.000385,0.0,0.0,0.0,0.0,0.0,0.0,3.0,0.336353,0.327257,0.312332,0.325603,2.9e-05,-0.071852,2e-06,-5.6e-05,0.033327,-3e-06,0.0,0.0,0.0,0.0,0.0,0.0
266359,-0.02869,-0.007803,0.000498,0.0,0.0,0.0,0.0,0.0,0.0,3.0,0.337613,0.325391,0.307758,0.330384,2.7e-05,-0.071175,2e-06,-5.6e-05,0.034653,-3e-06,0.0,0.0,0.0,0.0,0.0,0.0
266379,-0.029179,-0.008533,0.000608,0.0,0.0,0.0,0.0,0.0,0.0,3.0,0.33872,0.325567,0.306148,0.330526,2.6e-05,-0.070472,2e-06,-5.7e-05,0.03596,-3e-06,0.0,0.0,0.0,0.0,0.0,0.0
266399,-0.029302,-0.009142,0.00072,0.0,0.0,0.0,0.0,0.0,0.0,3.0,0.333932,0.327615,0.305561,0.335071,2.5e-05,-0.069928,2e-06,-5.7e-05,0.036928,-3e-06,0.0,0.0,0.0,0.0,0.0,0.0
266419,-0.029669,-0.00975,0.000832,0.0,0.0,0.0,0.0,0.0,0.0,3.0,0.334529,0.326318,0.310114,0.330481,2.4e-05,-0.068989,2e-06,-5.7e-05,0.038518,-3e-06,0.0,0.0,0.0,0.0,0.0,0.0
266439,-0.030037,-0.010115,0.000947,0.0,0.0,0.0,0.0,0.0,0.0,3.0,0.334623,0.324072,0.305932,0.336312,2.3e-05,-0.068209,2e-06,-5.8e-05,0.039767,-3e-06,0.0,0.0,0.0,0.0,0.0,0.0
266459,-0.030282,-0.010845,0.001056,0.0,0.0,0.0,0.0,0.0,0.0,3.0,0.330055,0.33259,0.303458,0.334717,2.2e-05,-0.067405,2e-06,-5.8e-05,0.040996,-3e-06,0.0,0.0,0.0,0.0,0.0,0.0
266479,-0.030527,-0.011209,0.001171,0.0,0.0,0.0,0.0,0.0,0.0,3.0,0.334038,0.327935,0.305731,0.333347,2.1e-05,-0.066576,2e-06,-5.8e-05,0.042205,-3e-06,0.0,0.0,0.0,0.0,0.0,0.0
266499,-0.03065,-0.011818,0.001284,0.0,0.0,0.0,0.0,0.0,0.0,3.0,0.333185,0.330022,0.3109,0.327434,1.9e-05,-0.065723,2e-06,-5.8e-05,0.043393,-3e-06,0.0,0.0,0.0,0.0,0.0,0.0
266519,-0.031018,-0.012182,0.001398,0.0,0.0,0.0,0.0,0.0,0.0,3.0,0.336364,0.327185,0.309141,0.328637,1.8e-05,-0.064846,2e-06,-5.8e-05,0.044559,-3e-06,0.0,0.0,0.0,0.0,0.0,0.0
266539,-0.031018,-0.012548,0.001392,0.0,0.0,0.0,0.0,0.0,0.0,3.0,0.332967,0.325213,0.31454,0.329045,1.7e-05,-0.063946,2e-06,-5.9e-05,0.045704,-3e-06,0.0,0.0,0.0,0.0,0.0,0.0
266559,-0.031385,-0.012912,0.001506,0.0,0.0,0.0,0.0,0.0,0.0,3.0,0.337436,0.326358,0.305935,0.331263,1.6e-05,-0.063024,2e-06,-5.9e-05,0.046826,-3e-06,0.0,0.0,0.0,0.0,0.0,0.0
266579,-0.031387,-0.013152,0.001746,0.0,0.0,0.0,0.0,0.0,0.0,3.0,0.326854,0.331329,0.301537,0.340685,1.5e-05,-0.062079,2e-06,-5.9e-05,0.047926,-3e-06,0.0,0.0,0.0,0.0,0.0,0.0
266599,-0.031265,-0.013396,0.001743,0.0,0.0,0.0,0.0,0.0,0.0,3.0,0.331165,0.323526,0.312544,0.334336,1.4e-05,-0.061112,2e-06,-5.9e-05,0.049002,-3e-06,0.0,0.0,0.0,0.0,0.0,0.0
266619,-0.031265,-0.01364,0.00174,0.0,0.0,0.0,0.0,0.0,0.0,3.0,0.335053,0.32164,0.311117,0.333561,1.2e-05,-0.060124,2e-06,-5.9e-05,0.050056,-3e-06,0.0,0.0,0.0,0.0,0.0,0.0
266639,-0.031266,-0.013882,0.001858,0.0,0.0,0.0,0.0,0.0,0.0,3.0,0.333944,0.324405,0.310575,0.332517,1.1e-05,-0.059115,2e-06,-5.9e-05,0.051086,-3e-06,0.0,0.0,0.0,0.0,0.0,0.0
266659,-0.031388,-0.014004,0.001855,0.0,0.0,0.0,0.0,0.0,0.0,3.0,0.338638,0.322246,0.307057,0.333008,1e-05,-0.058086,2e-06,-5.9e-05,0.052092,-3e-06,0.0,0.0,0.0,0.0,0.0,0.0
266679,-0.031267,-0.014003,0.001978,0.0,0.0,0.0,0.0,0.0,0.0,3.0,0.334488,0.32294,0.309529,0.334325,9e-06,-0.057037,2e-06,-5.9e-05,0.053074,-3e-06,0.0,0.0,0.0,0.0,0.0,0.0
266699,-0.031267,-0.014125,0.001976,0.0,0.0,0.0,0.0,0.0,0.0,3.0,0.335658,0.321075,0.311622,0.328852,8e-06,-0.056237,1e-06,-5.9e-05,0.053794,-3e-06,0.0,0.0,0.0,0.0,0.0,0.0
266719,-0.03139,-0.014123,0.002097,0.0,0.0,0.0,0.0,0.0,0.0,3.0,0.332337,0.322863,0.309797,0.336293,6e-06,-0.05488,1e-06,-5.9e-05,0.054963,-3e-06,0.0,0.0,0.0,0.0,0.0,0.0
266739,-0.031268,-0.014367,0.002094,0.0,0.0,0.0,0.0,0.0,0.0,3.0,0.334294,0.324005,0.311123,0.332051,5e-06,-0.053774,1e-06,-5.9e-05,0.05587,-3e-06,0.0,0.0,0.0,0.0,0.0,0.0
266759,-0.031513,-0.014609,0.002211,0.0,0.0,0.0,0.0,0.0,0.0,3.0,0.336162,0.327125,0.305526,0.332179,4e-06,-0.05265,1e-06,-5.9e-05,0.056752,-3e-06,0.0,0.0,0.0,0.0,0.0,0.0
266779,-0.031392,-0.014975,0.002206,0.0,0.0,0.0,0.0,0.0,0.0,3.0,0.335205,0.329869,0.310373,0.325997,3e-06,-0.051509,1e-06,-5.9e-05,0.057608,-3e-06,0.0,0.0,0.0,0.0,0.0,0.0
266799,-0.031271,-0.014973,0.002329,0.0,0.0,0.0,0.0,0.0,0.0,3.0,0.326255,0.33188,0.304596,0.338099,2e-06,-0.05035,1e-06,-5.8e-05,0.058438,-2e-06,0.0,0.0,0.0,0.0,0.0,0.0
266819,-0.031271,-0.015217,0.002325,0.0,0.0,0.0,0.0,0.0,0.0,3.0,0.333884,0.326139,0.308439,0.332831,1e-06,-0.049175,1e-06,-5.8e-05,0.059242,-2e-06,0.0,0.0,0.0,0.0,0.0,0.0
266839,-0.031393,-0.015583,0.002318,0.0,0.0,0.0,0.0,0.0,0.0,3.0,0.335951,0.325946,0.308831,0.33057,-1e-06,-0.047985,1e-06,-5.8e-05,0.060019,-2e-06,0.0,0.0,0.0,0.0,0.0,0.0
266859,-0.031272,-0.015828,0.002316,0.0,0.0,0.0,0.0,0.0,0.0,3.0,0.335199,0.325226,0.310391,0.32959,-1e-06,-0.047082,1e-06,-5.8e-05,0.060585,-2e-06,0.0,0.0,0.0,0.0,0.0,0.0
266879,-0.031272,-0.016072,0.002312,0.0,0.0,0.0,0.0,0.0,0.0,3.0,0.335664,0.327928,0.309368,0.328411,-3e-06,-0.045558,1e-06,-5.8e-05,0.061494,-2e-06,0.0,0.0,0.0,0.0,0.0,0.0
266899,-0.031395,-0.01607,0.002433,0.0,0.0,0.0,0.0,0.0,0.0,3.0,0.336239,0.32591,0.306351,0.33255,-4e-06,-0.044323,1e-06,-5.7e-05,0.06219,-2e-06,0.0,0.0,0.0,0.0,0.0,0.0
266919,-0.031395,-0.016436,0.002427,0.0,0.0,0.0,0.0,0.0,0.0,3.0,0.336709,0.327434,0.307723,0.329332,-5e-06,-0.043074,1e-06,-5.7e-05,0.06286,-2e-06,0.0,0.0,0.0,0.0,0.0,0.0
266939,-0.031395,-0.016558,0.002425,0.0,0.0,0.0,0.0,0.0,0.0,3.0,0.337627,0.325591,0.306588,0.331232,-6e-06,-0.041812,1e-06,-5.7e-05,0.063502,-2e-06,0.0,0.0,0.0,0.0,0.0,0.0
266959,-0.031275,-0.0168,0.002545,0.0,0.0,0.0,0.0,0.0,0.0,3.0,0.331567,0.328772,0.309266,0.331822,-7e-06,-0.040857,1e-06,-5.6e-05,0.063965,-2e-06,0.0,0.0,0.0,0.0,0.0,0.0
266979,-0.031153,-0.016923,0.002544,0.0,0.0,0.0,0.0,0.0,0.0,3.0,0.333454,0.326592,0.308164,0.333866,-8e-06,-0.039573,1e-06,-5.6e-05,0.064559,-2e-06,0.0,0.0,0.0,0.0,0.0,0.0
266999,-0.031031,-0.017045,0.002543,0.0,0.0,0.0,0.0,0.0,0.0,3.0,0.333926,0.326408,0.310174,0.33095,-1e-05,-0.037952,1e-06,-5.6e-05,0.065261,-1e-06,0.0,0.0,0.0,0.0,0.0,0.0
267019,-0.03091,-0.017287,0.002662,0.0,0.0,0.0,0.0,0.0,0.0,3.0,0.32991,0.333359,0.29936,0.337628,-1.1e-05,-0.036643,1e-06,-5.5e-05,0.065792,-1e-06,0.0,0.0,0.0,0.0,0.0,0.0
267039,-0.03091,-0.017409,0.00266,0.0,0.0,0.0,0.0,0.0,0.0,3.0,0.335007,0.328038,0.307874,0.330342,-1.2e-05,-0.035323,1e-06,-5.5e-05,0.066294,-1e-06,0.0,0.0,0.0,0.0,0.0,0.0
267059,-0.030788,-0.017654,0.002658,0.0,0.0,0.0,0.0,0.0,0.0,3.0,0.333594,0.328484,0.310218,0.329193,-1.3e-05,-0.033994,1e-06,-5.4e-05,0.066769,-1e-06,0.0,0.0,0.0,0.0,0.0,0.0
267079,-0.030788,-0.017654,0.002658,0.0,0.0,0.0,0.0,0.0,0.0,3.0,0.334076,0.325982,0.309446,0.331879,-1.4e-05,-0.032655,1e-06,-5.4e-05,0.067215,-1e-06,0.0,0.0,0.0,0.0,0.0,0.0
267099,-0.03079,-0.017774,0.002778,0.0,0.0,0.0,0.0,0.0,0.0,3.0,0.335178,0.328557,0.304393,0.332776,-1.5e-05,-0.031307,1e-06,-5.3e-05,0.067632,-1e-06,0.0,0.0,0.0,0.0,0.0,0.0
267119,-0.03079,-0.017896,0.002776,0.0,0.0,0.0,0.0,0.0,0.0,3.0,0.335119,0.325435,0.307676,0.332958,-1.6e-05,-0.029952,1e-06,-5.3e-05,0.068021,-1e-06,0.0,0.0,0.0,0.0,0.0,0.0
267139,-0.03079,-0.01814,0.002772,0.0,0.0,0.0,0.0,0.0,0.0,3.0,0.338215,0.328164,0.304752,0.32974,-1.7e-05,-0.02893,1e-06,-5.3e-05,0.068294,-1e-06,0.0,0.0,0.0,0.0,0.0,0.0
267159,-0.030547,-0.018261,0.002895,0.0,0.0,0.0,0.0,0.0,0.0,3.0,0.331716,0.331449,0.304043,0.333696,-1.8e-05,-0.027219,0.0,-5.2e-05,0.068712,-1e-06,0.0,0.0,0.0,0.0,0.0,0.0
267179,-0.030547,-0.018383,0.002893,0.0,0.0,0.0,0.0,0.0,0.0,3.0,0.336905,0.328392,0.305335,0.330342,-1.9e-05,-0.025842,0.0,-5.1e-05,0.069015,-0.0,0.0,0.0,0.0,0.0,0.0,0.0
267199,-0.030305,-0.018625,0.003013,0.0,0.0,0.0,0.0,0.0,0.0,3.0,0.333657,0.329638,0.305238,0.332493,-2e-05,-0.02446,0.0,-5.1e-05,0.06929,-0.0,0.0,0.0,0.0,0.0,0.0,0.0
267219,-0.030305,-0.018747,0.003012,0.0,0.0,0.0,0.0,0.0,0.0,3.0,0.337515,0.326039,0.304288,0.33296,-2.1e-05,-0.023072,0.0,-5e-05,0.069535,-0.0,0.0,0.0,0.0,0.0,0.0,0.0
267239,-0.030061,-0.019114,0.003008,0.0,0.0,0.0,0.0,0.0,0.0,3.0,0.336704,0.32894,0.305584,0.329779,-2.2e-05,-0.021679,0.0,-5e-05,0.069752,-0.0,0.0,0.0,0.0,0.0,0.0,0.0
267259,-0.02994,-0.019358,0.003006,0.0,0.0,0.0,0.0,0.0,0.0,3.0,0.335752,0.328158,0.306453,0.330747,-2.3e-05,-0.020283,0.0,-4.9e-05,0.06994,0.0,0.0,0.0,0.0,0.0,0.0,0.0
267279,-0.029697,-0.019601,0.003127,0.0,0.0,0.0,0.0,0.0,0.0,3.0,0.33209,0.330167,0.308298,0.330793,-2.4e-05,-0.018883,0.0,-4.8e-05,0.070099,0.0,0.0,0.0,0.0,0.0,0.0,0.0
267299,-0.029697,-0.019845,0.003123,0.0,0.0,0.0,0.0,0.0,0.0,3.0,0.339391,0.32579,0.309429,0.326605,-2.5e-05,-0.01748,0.0,-4.8e-05,0.070229,0.0,0.0,0.0,0.0,0.0,0.0,0.0
267319,-0.029575,-0.019968,0.003123,0.0,0.0,0.0,0.0,0.0,0.0,3.0,0.341789,0.323616,0.310914,0.324834,-2.6e-05,-0.016075,0.0,-4.7e-05,0.070331,0.0,0.0,0.0,0.0,0.0,0.0,0.0
267339,-0.029455,-0.020088,0.003244,0.0,0.0,0.0,0.0,0.0,0.0,3.0,0.335148,0.332546,0.301664,0.33125,-2.7e-05,-0.014667,0.0,-4.6e-05,0.070405,1e-06,0.0,0.0,0.0,0.0,0.0,0.0
267359,-0.029333,-0.02021,0.003244,0.0,0.0,0.0,0.0,0.0,0.0,3.0,0.335462,0.330757,0.30579,0.329049,-2.8e-05,-0.013259,0.0,-4.6e-05,0.070449,1e-06,0.0,0.0,0.0,0.0,0.0,0.0
267379,-0.029333,-0.020332,0.003242,0.0,0.0,0.0,0.0,0.0,0.0,3.0,0.334273,0.329101,0.307092,0.330742,-2.9e-05,-0.01185,0.0,-4.5e-05,0.070466,1e-06,0.0,0.0,0.0,0.0,0.0,0.0
267399,-0.029334,-0.020209,0.003366,0.0,0.0,0.0,0.0,0.0,0.0,3.0,0.328799,0.332454,0.297382,0.341235,-3e-05,-0.01044,0.0,-4.4e-05,0.070453,1e-06,0.0,0.0,0.0,0.0,0.0,0.0
267419,-0.029211,-0.020455,0.003241,0.0,0.0,0.0,0.0,0.0,0.0,3.0,0.336942,0.329112,0.305028,0.329862,-3.1e-05,-0.009032,0.0,-4.3e-05,0.070413,1e-06,0.0,0.0,0.0,0.0,0.0,0.0
267439,-0.029211,-0.020455,0.003241,0.0,0.0,0.0,0.0,0.0,0.0,3.0,0.335084,0.328767,0.306075,0.331165,-3.1e-05,-0.007976,0.0,-4.3e-05,0.070364,1e-06,0.0,0.0,0.0,0.0,0.0,0.0
267459,-0.029091,-0.020575,0.003363,0.0,0.0,0.0,0.0,0.0,0.0,3.0,0.332279,0.335729,0.301546,0.331029,-3.2e-05,-0.006218,0.0,-4.2e-05,0.070248,1e-06,0.0,0.0,0.0,0.0,0.0,0.0
267479,-0.028845,-0.020578,0.003243,0.0,0.0,0.0,0.0,0.0,0.0,3.0,0.339151,0.327429,0.308407,0.326166,-3.3e-05,-0.004814,0.0,-4.1e-05,0.070123,1e-06,0.0,0.0,0.0,0.0,0.0,0.0
267499,-0.028723,-0.020578,0.003245,0.0,0.0,0.0,0.0,0.0,0.0,3.0,0.341117,0.323282,0.312382,0.324498,-3.4e-05,-0.003412,-0.0,-4e-05,0.069971,1e-06,0.0,0.0,0.0,0.0,0.0,0.0
267519,-0.028725,-0.020698,0.003365,0.0,0.0,0.0,0.0,0.0,0.0,3.0,0.33359,0.333106,0.301365,0.332523,-3.5e-05,-0.002363,-0.0,-3.9e-05,0.069838,1e-06,0.0,0.0,0.0,0.0,0.0,0.0
267539,-0.028603,-0.020698,0.003366,0.0,0.0,0.0,0.0,0.0,0.0,3.0,0.337299,0.32751,0.302532,0.333291,-3.6e-05,-0.00062,-0.0,-3.8e-05,0.069583,2e-06,0.0,0.0,0.0,0.0,0.0,0.0
267559,-0.028603,-0.020942,0.003363,0.0,0.0,0.0,0.0,0.0,0.0,3.0,0.338351,0.330026,0.301689,0.330472,-3.6e-05,0.00077,-0.0,-3.8e-05,0.069348,2e-06,0.0,0.0,0.0,0.0,0.0,0.0
267579,-0.028237,-0.021065,0.003365,0.0,0.0,0.0,0.0,0.0,0.0,3.0,0.335737,0.331557,0.304576,0.329054,-3.7e-05,0.002155,-0.0,-3.7e-05,0.069087,2e-06,0.0,0.0,0.0,0.0,0.0,0.0
267599,-0.028238,-0.021186,0.003485,0.0,0.0,0.0,0.0,0.0,0.0,3.0,0.328858,0.339363,0.296746,0.33486,-3.8e-05,0.003535,-0.0,-3.6e-05,0.068798,2e-06,0.0,0.0,0.0,0.0,0.0,0.0
267619,-0.028116,-0.021186,0.003486,0.0,0.0,0.0,0.0,0.0,0.0,3.0,0.331462,0.33471,0.300303,0.333958,-3.9e-05,0.004908,-0.0,-3.5e-05,0.068482,2e-06,0.0,0.0,0.0,0.0,0.0,0.0
267639,-0.027749,-0.021188,0.003368,0.0,0.0,0.0,0.0,0.0,0.0,3.0,0.335681,0.328639,0.311113,0.326057,-3.9e-05,0.006276,-0.0,-3.4e-05,0.06814,2e-06,0.0,0.0,0.0,0.0,0.0,0.0
267659,-0.027871,-0.02131,0.003365,0.0,0.0,0.0,0.0,0.0,0.0,3.0,0.339609,0.331288,0.30037,0.329063,-4e-05,0.007636,-0.0,-3.3e-05,0.067771,2e-06,0.0,0.0,0.0,0.0,0.0,0.0
267679,-0.027627,-0.021311,0.003368,0.0,0.0,0.0,0.0,0.0,0.0,3.0,0.332914,0.331219,0.307061,0.33003,-4.1e-05,0.008988,-0.0,-3.2e-05,0.067377,2e-06,0.0,0.0,0.0,0.0,0.0,0.0
267699,-0.027382,-0.021557,0.003245,0.0,0.0,0.0,0.0,0.0,0.0,3.0,0.33986,0.325609,0.314341,0.321628,-4.1e-05,0.010333,-0.0,-3.1e-05,0.066956,2e-06,0.0,0.0,0.0,0.0,0.0,0.0
267719,-0.027261,-0.021556,0.003369,0.0,0.0,0.0,0.0,0.0,0.0,3.0,0.337592,0.329128,0.308342,0.32615,-4.2e-05,0.011668,-0.0,-3e-05,0.06651,2e-06,0.0,0.0,0.0,0.0,0.0,0.0
267739,-0.027139,-0.021556,0.00337,0.0,0.0,0.0,0.0,0.0,0.0,3.0,0.336115,0.32953,0.30405,0.331169,-4.2e-05,0.012664,-0.0,-3e-05,0.066159,2e-06,0.0,0.0,0.0,0.0,0.0,0.0
267759,-0.027261,-0.021556,0.003369,0.0,0.0,0.0,0.0,0.0,0.0,3.0,0.332369,0.333955,0.293803,0.339291,-4.3e-05,0.014312,-0.0,-2.8e-05,0.065543,2e-06,0.0,0.0,0.0,0.0,0.0,0.0
267779,-0.027261,-0.021556,0.003369,0.0,0.0,0.0,0.0,0.0,0.0,3.0,0.334271,0.334838,0.292767,0.337409,-4.4e-05,0.015619,-0.0,-2.7e-05,0.065022,2e-06,0.0,0.0,0.0,0.0,0.0,0.0
267799,-0.027139,-0.021678,0.003368,0.0,0.0,0.0,0.0,0.0,0.0,3.0,0.335767,0.33399,0.297003,0.333211,-4.4e-05,0.016916,-0.0,-2.6e-05,0.064476,2e-06,0.0,0.0,0.0,0.0,0.0,0.0
267819,-0.027138,-0.02168,0.003246,0.0,0.0,0.0,0.0,0.0,0.0,3.0,0.338349,0.328894,0.302044,0.331285,-4.5e-05,0.018201,-0.0,-2.5e-05,0.063907,3e-06,0.0,0.0,0.0,0.0,0.0,0.0
267839,-0.027016,-0.021558,0.003249,0.0,0.0,0.0,0.0,0.0,0.0,3.0,0.330355,0.331307,0.30158,0.337313,-4.5e-05,0.019475,-0.0,-2.4e-05,0.063313,3e-06,0.0,0.0,0.0,0.0,0.0,0.0
267859,-0.026892,-0.02156,0.003128,0.0,0.0,0.0,0.0,0.0,0.0,3.0,0.337566,0.324311,0.308194,0.331092,-4.6e-05,0.020736,-0.0,-2.3e-05,0.062696,3e-06,0.0,0.0,0.0,0.0,0.0,0.0
267879,-0.026893,-0.021804,0.003125,0.0,0.0,0.0,0.0,0.0,0.0,3.0,0.338563,0.33228,0.300962,0.328626,-4.6e-05,0.021985,-0.0,-2.2e-05,0.062055,3e-06,0.0,0.0,0.0,0.0,0.0,0.0
267899,-0.026771,-0.021682,0.003128,0.0,0.0,0.0,0.0,0.0,0.0,3.0,0.337747,0.332591,0.301362,0.328803,-4.7e-05,0.023222,-0.0,-2.1e-05,0.061392,3e-06,0.0,0.0,0.0,0.0,0.0,0.0
267919,-0.026525,-0.021806,0.003007,0.0,0.0,0.0,0.0,0.0,0.0,3.0,0.341718,0.327696,0.311944,0.31979,-4.7e-05,0.024444,-0.0,-2e-05,0.060706,3e-06,0.0,0.0,0.0,0.0,0.0,0.0
267939,-0.026525,-0.021684,0.003009,0.0,0.0,0.0,0.0,0.0,0.0,3.0,0.340479,0.32909,0.306734,0.324625,-4.7e-05,0.025653,-0.0,-1.9e-05,0.059998,3e-06,0.0,0.0,0.0,0.0,0.0,0.0
267959,-0.026403,-0.021684,0.00301,0.0,0.0,0.0,0.0,0.0,0.0,3.0,0.335173,0.333787,0.300841,0.330694,-4.8e-05,0.026848,-0.0,-1.8e-05,0.059268,3e-06,0.0,0.0,0.0,0.0,0.0,0.0
267979,-0.02628,-0.021564,0.002891,0.0,0.0,0.0,0.0,0.0,0.0,3.0,0.337938,0.329848,0.30461,0.328472,-4.8e-05,0.028027,-0.0,-1.7e-05,0.058517,3e-06,0.0,0.0,0.0,0.0,0.0,0.0
267999,-0.026156,-0.021566,0.00277,0.0,0.0,0.0,0.0,0.0,0.0,3.0,0.34105,0.327877,0.305452,0.326423,-4.8e-05,0.029192,-0.0,-1.6e-05,0.057744,3e-06,0.0,0.0,0.0,0.0,0.0,0.0
268019,-0.026156,-0.021322,0.002773,0.0,0.0,0.0,0.0,0.0,0.0,3.0,0.337369,0.329498,0.302096,0.331647,-4.9e-05,0.030341,-0.0,-1.5e-05,0.057151,3e-06,0.0,0.0,0.0,0.0,0.0,0.0
268039,-0.026156,-0.021444,0.002772,0.0,0.0,0.0,0.0,0.0,0.0,3.0,0.339436,0.333395,0.299597,0.327785,-4.9e-05,0.031474,-0.0,-1.4e-05,0.056138,3e-06,0.0,0.0,0.0,0.0,0.0,0.0
268059,-0.026033,-0.021324,0.002652,0.0,0.0,0.0,0.0,0.0,0.0,3.0,0.338403,0.327793,0.308042,0.326923,-4.9e-05,0.03259,-0.0,-1.3e-05,0.055304,3e-06,0.0,0.0,0.0,0.0,0.0,0.0
268079,-0.025911,-0.021446,0.002652,0.0,0.0,0.0,0.0,0.0,0.0,3.0,0.336323,0.332384,0.303428,0.328644,-5e-05,0.03369,-0.0,-1.2e-05,0.054451,3e-06,0.0,0.0,0.0,0.0,0.0,0.0
268099,-0.026033,-0.021324,0.002652,0.0,0.0,0.0,0.0,0.0,0.0,3.0,0.341177,0.327971,0.297145,0.333529,-5e-05,0.034773,-0.0,-1.1e-05,0.053579,3e-06,0.0,0.0,0.0,0.0,0.0,0.0
268119,-0.026031,-0.021447,0.002529,0.0,0.0,0.0,0.0,0.0,0.0,3.0,0.341735,0.331533,0.298904,0.327874,-5e-05,0.035838,-0.0,-1e-05,0.052688,3e-06,0.0,0.0,0.0,0.0,0.0,0.0
268139,-0.02603,-0.021693,0.002404,0.0,0.0,0.0,0.0,0.0,0.0,3.0,0.344771,0.333009,0.301732,0.320524,-5e-05,0.036884,-0.0,-9e-06,0.051779,3e-06,0.0,0.0,0.0,0.0,0.0,0.0
268159,-0.025908,-0.021571,0.002406,0.0,0.0,0.0,0.0,0.0,0.0,3.0,0.338929,0.332061,0.300682,0.328715,-5e-05,0.037913,-0.0,-8e-06,0.050851,3e-06,0.0,0.0,0.0,0.0,0.0,0.0
268179,-0.025786,-0.021205,0.002412,0.0,0.0,0.0,0.0,0.0,0.0,3.0,0.337256,0.328306,0.301668,0.333312,-5.1e-05,0.038923,-0.0,-7e-06,0.049907,3e-06,0.0,0.0,0.0,0.0,0.0,0.0
268199,-0.025664,-0.021449,0.002411,0.0,0.0,0.0,0.0,0.0,0.0,3.0,0.337952,0.332542,0.301156,0.328823,-5.1e-05,0.039914,-0.0,-6e-06,0.048945,3e-06,0.0,0.0,0.0,0.0,0.0,0.0
268219,-0.025908,-0.021449,0.002408,0.0,0.0,0.0,0.0,0.0,0.0,3.0,0.34136,0.33194,0.297223,0.329326,-5.1e-05,0.040886,-0.0,-5e-06,0.047967,3e-06,0.0,0.0,0.0,0.0,0.0,0.0
268239,-0.025664,-0.021572,0.002409,0.0,0.0,0.0,0.0,0.0,0.0,3.0,0.334323,0.332929,0.301123,0.332175,-5.1e-05,0.041601,-0.0,-4e-06,0.047223,3e-06,0.0,0.0,0.0,0.0,0.0,0.0
268259,-0.025664,-0.021694,0.002408,0.0,0.0,0.0,0.0,0.0,0.0,3.0,0.337136,0.336119,0.298095,0.328703,-5.1e-05,0.042769,-0.0,-3e-06,0.045963,3e-06,0.0,0.0,0.0,0.0,0.0,0.0
268279,-0.025542,-0.021816,0.002407,0.0,0.0,0.0,0.0,0.0,0.0,3.0,0.334282,0.337154,0.29718,0.331354,-5.1e-05,0.043681,-0.0,-2e-06,0.044938,3e-06,0.0,0.0,0.0,0.0,0.0,0.0
268299,-0.025297,-0.02194,0.002286,0.0,0.0,0.0,0.0,0.0,0.0,3.0,0.339055,0.331785,0.306912,0.323211,-5.1e-05,0.044572,-0.0,-1e-06,0.043898,3e-06,0.0,0.0,0.0,0.0,0.0,0.0
268319,-0.025297,-0.021818,0.002288,0.0,0.0,0.0,0.0,0.0,0.0,3.0,0.338454,0.333091,0.300872,0.327993,-5.1e-05,0.045442,-0.0,0.0,0.042844,3e-06,0.0,0.0,0.0,0.0,0.0,0.0
268339,-0.025175,-0.021818,0.002289,0.0,0.0,0.0,0.0,0.0,0.0,3.0,0.33846,0.333563,0.300405,0.327919,-5.1e-05,0.046291,-0.0,1e-06,0.041776,2e-06,0.0,0.0,0.0,0.0,0.0,0.0
268359,-0.025175,-0.021818,0.002289,0.0,0.0,0.0,0.0,0.0,0.0,3.0,0.339739,0.334224,0.298941,0.327196,-5.1e-05,0.047118,-0.0,2e-06,0.040695,2e-06,0.0,0.0,0.0,0.0,0.0,0.0
268379,-0.025053,-0.022062,0.002288,0.0,0.0,0.0,0.0,0.0,0.0,3.0,0.341354,0.337291,0.301226,0.320185,-5.1e-05,0.047924,-0.0,3e-06,0.039601,2e-06,0.0,0.0,0.0,0.0,0.0,0.0
268399,-0.025175,-0.02194,0.002288,0.0,0.0,0.0,0.0,0.0,0.0,3.0,0.3415,0.333792,0.297021,0.327469,-5.1e-05,0.048708,-0.0,4e-06,0.038495,2e-06,0.0,0.0,0.0,0.0,0.0,0.0
268419,-0.025053,-0.021818,0.002291,0.0,0.0,0.0,0.0,0.0,0.0,3.0,0.338533,0.332604,0.299941,0.32923,-5.1e-05,0.049469,-0.0,5e-06,0.037377,2e-06,0.0,0.0,0.0,0.0,0.0,0.0
268439,-0.025053,-0.021818,0.002291,0.0,0.0,0.0,0.0,0.0,0.0,3.0,0.340461,0.331709,0.297627,0.330148,-5.1e-05,0.050209,-0.0,6e-06,0.036247,2e-06,0.0,0.0,0.0,0.0,0.0,0.0
268459,-0.024931,-0.02194,0.00229,0.0,0.0,0.0,0.0,0.0,0.0,3.0,0.340361,0.332942,0.297769,0.328882,-5.1e-05,0.050925,-0.0,7e-06,0.035107,2e-06,0.0,0.0,0.0,0.0,0.0,0.0
268479,-0.024809,-0.021819,0.002293,0.0,0.0,0.0,0.0,0.0,0.0,3.0,0.339242,0.334265,0.299057,0.327572,-5e-05,0.051619,-0.0,8e-06,0.033956,2e-06,0.0,0.0,0.0,0.0,0.0,0.0
268499,-0.024566,-0.022062,0.002415,0.0,0.0,0.0,0.0,0.0,0.0,3.0,0.335796,0.339361,0.29711,0.32758,-5e-05,0.052289,-0.0,9e-06,0.032796,2e-06,0.0,0.0,0.0,0.0,0.0,0.0
268519,-0.024566,-0.022062,0.002415,0.0,0.0,0.0,0.0,0.0,0.0,3.0,0.338439,0.337579,0.299486,0.324588,-5e-05,0.052936,-0.0,1e-05,0.031626,2e-06,0.0,0.0,0.0,0.0,0.0,0.0
268539,-0.024565,-0.022063,0.002293,0.0,0.0,0.0,0.0,0.0,0.0,3.0,0.348298,0.327505,0.303627,0.320588,-5e-05,0.05356,-0.0,1.1e-05,0.030447,2e-06,0.0,0.0,0.0,0.0,0.0,0.0
268559,-0.02432,-0.021941,0.002297,0.0,0.0,0.0,0.0,0.0,0.0,3.0,0.341753,0.332744,0.302649,0.323253,-5e-05,0.05416,-0.0,1.2e-05,0.02926,2e-06,0.0,0.0,0.0,0.0,0.0,0.0
268579,-0.0242,-0.021818,0.002422,0.0,0.0,0.0,0.0,0.0,0.0,3.0,0.339431,0.333357,0.294649,0.332112,-4.9e-05,0.054736,-0.0,1.3e-05,0.028065,2e-06,0.0,0.0,0.0,0.0,0.0,0.0
268599,-0.024078,-0.02194,0.002422,0.0,0.0,0.0,0.0,0.0,0.0,3.0,0.340147,0.334161,0.297146,0.328406,-4.9e-05,0.055288,-0.0,1.4e-05,0.026862,2e-06,0.0,0.0,0.0,0.0,0.0,0.0
268619,-0.024078,-0.02194,0.002422,0.0,0.0,0.0,0.0,0.0,0.0,3.0,0.339323,0.333205,0.298122,0.32939,-4.9e-05,0.055817,-0.0,1.5e-05,0.025653,2e-06,0.0,0.0,0.0,0.0,0.0,0.0
268639,-0.023956,-0.02194,0.002423,0.0,0.0,0.0,0.0,0.0,0.0,3.0,0.339094,0.335813,0.298526,0.326599,-4.8e-05,0.056321,-0.0,1.6e-05,0.024438,2e-06,0.0,0.0,0.0,0.0,0.0,0.0
268659,-0.023834,-0.022185,0.002422,0.0,0.0,0.0,0.0,0.0,0.0,3.0,0.336873,0.340412,0.30127,0.321614,-4.8e-05,0.0568,-0.0,1.7e-05,0.023216,2e-06,0.0,0.0,0.0,0.0,0.0,0.0
268679,-0.024078,-0.022184,0.002419,0.0,0.0,0.0,0.0,0.0,0.0,3.0,0.345035,0.334535,0.299415,0.320741,-4.8e-05,0.057255,-0.0,1.8e-05,0.02199,1e-06,0.0,0.0,0.0,0.0,0.0,0.0
268699,-0.023835,-0.022183,0.002544,0.0,0.0,0.0,0.0,0.0,0.0,3.0,0.337249,0.338636,0.298879,0.325268,-4.7e-05,0.057686,-0.0,1.9e-05,0.020758,1e-06,0.0,0.0,0.0,0.0,0.0,0.0
268719,-0.023957,-0.021939,0.002545,0.0,0.0,0.0,0.0,0.0,0.0,3.0,0.345516,0.331213,0.298133,0.32483,-4.7e-05,0.058092,-0.0,2e-05,0.019523,1e-06,0.0,0.0,0.0,0.0,0.0,0.0
268739,-0.023835,-0.022061,0.002545,0.0,0.0,0.0,0.0,0.0,0.0,3.0,0.341756,0.336828,0.295477,0.325399,-4.7e-05,0.058473,-0.0,2.1e-05,0.018283,1e-06,0.0,0.0,0.0,0.0,0.0,0.0
268759,-0.023835,-0.021817,0.002548,0.0,0.0,0.0,0.0,0.0,0.0,3.0,0.341751,0.333814,0.294695,0.329195,-4.6e-05,0.058829,-0.0,2.1e-05,0.017041,1e-06,0.0,0.0,0.0,0.0,0.0,0.0
268779,-0.023714,-0.021938,0.00267,0.0,0.0,0.0,0.0,0.0,0.0,3.0,0.333695,0.342987,0.28813,0.33352,-4.6e-05,0.059161,-0.0,2.2e-05,0.015796,1e-06,0.0,0.0,0.0,0.0,0.0,0.0
268799,-0.023714,-0.021938,0.00267,0.0,0.0,0.0,0.0,0.0,0.0,3.0,0.340202,0.338242,0.295409,0.325627,-4.5e-05,0.059467,-0.0,2.3e-05,0.014548,1e-06,0.0,0.0,0.0,0.0,0.0,0.0
268819,-0.023592,-0.02206,0.00267,0.0,0.0,0.0,0.0,0.0,0.0,3.0,0.339635,0.336472,0.298722,0.325165,-4.5e-05,0.059749,-0.0,2.4e-05,0.013299,1e-06,0.0,0.0,0.0,0.0,0.0,0.0
268839,-0.02347,-0.02206,0.002671,0.0,0.0,0.0,0.0,0.0,0.0,3.0,0.34047,0.336485,0.299842,0.323259,-4.4e-05,0.060005,-0.0,2.5e-05,0.012048,1e-06,0.0,0.0,0.0,0.0,0.0,0.0
268859,-0.023348,-0.022183,0.002671,0.0,0.0,0.0,0.0,0.0,0.0,3.0,0.343703,0.336894,0.300194,0.318981,-4.4e-05,0.060237,-0.0,2.6e-05,0.010797,1e-06,0.0,0.0,0.0,0.0,0.0,0.0
268879,-0.02347,-0.022183,0.00267,0.0,0.0,0.0,0.0,0.087266,0.0,3.0,0.344769,0.509533,0.291233,0.15,-5.8e-05,0.064917,-0.000249,0.000274,0.704356,-0.035638,0.0,0.0,0.0,0.0,0.0,0.0
268899,-0.022983,-0.021816,0.002802,0.0,0.0,0.0,0.0,0.087266,0.0,3.0,0.330063,0.37253,0.291131,0.299949,-9.2e-05,0.080004,-0.00095,0.001729,0.720921,-0.032506,0.0,0.0,0.0,0.0,0.0,0.0
268919,-0.022867,-0.020828,0.003668,0.0,0.0,0.0,0.0,0.087266,0.0,3.0,0.315377,0.375862,0.271272,0.327992,-0.000101,0.090177,-0.00143,0.002593,0.592399,-0.030621,0.0,0.0,0.0,0.0,0.0,0.0
268939,-0.022742,-0.017774,0.003948,0.0,0.0,0.0,0.0,0.087266,0.0,3.0,0.329378,0.339182,0.282969,0.345591,-9.7e-05,0.102999,-0.002163,0.003322,0.402604,-0.026387,0.0,0.0,0.0,0.0,0.0,0.0
268959,-0.022486,-0.013386,0.003512,0.0,0.0,0.0,0.0,0.087266,0.0,3.0,0.347717,0.301206,0.309221,0.340717,-8.2e-05,0.110133,-0.00266,0.003425,0.290356,-0.02195,0.0,0.0,0.0,0.0,0.0,0.0
268979,-0.02162,-0.00778,0.002968,0.0,0.0,0.0,0.0,0.087266,0.0,3.0,0.344459,0.284564,0.31949,0.348244,-6.1e-05,0.115361,-0.003072,0.003251,0.220357,-0.018014,0.0,0.0,0.0,0.0,0.0,0.0
268999,-0.020999,-0.001437,0.00267,0.0,0.0,0.0,0.0,0.087266,0.0,3.0,0.344041,0.280902,0.309812,0.359597,-3.7e-05,0.119418,-0.003408,0.002935,0.178038,-0.014581,0.0,0.0,0.0,0.0,0.0,0.0
269019,-0.020136,0.004908,0.002613,0.0,0.0,0.0,0.0,0.087266,0.0,3.0,0.33214,0.29551,0.304517,0.36401,-1.4e-05,0.122767,-0.003679,0.002564,0.152451,-0.011592,0.0,0.0,0.0,0.0,0.0,0.0
269039,-0.019275,0.011254,0.00255,0.0,0.0,0.0,0.0,0.087266,0.0,3.0,0.331616,0.29263,0.306061,0.365408,9e-06,0.125687,-0.003892,0.002184,0.136801,-0.008992,0.0,0.0,0.0,0.0,0.0,0.0
269059,-0.018048,0.016257,0.002467,0.0,0.0,0.0,0.0,0.087266,0.0,3.0,0.329248,0.305367,0.310066,0.354367,2.9e-05,0.128342,-0.004056,0.001818,0.127018,-0.006733,0.0,0.0,0.0,0.0,0.0,0.0
269079,-0.017069,0.02016,0.002248,0.0,0.0,0.0,0.0,0.087266,0.0,3.0,0.338479,0.308536,0.313809,0.339679,4.7e-05,0.130831,-0.004176,0.001477,0.12069,-0.004774,0.0,0.0,0.0,0.0,0.0,0.0
269099,-0.016212,0.023087,0.002141,0.0,0.0,0.0,0.0,0.087266,0.0,3.0,0.334261,0.323992,0.307106,0.335711,6.3e-05,0.132624,-0.004241,0.00124,0.117327,-0.003478,0.0,0.0,0.0,0.0,0.0,0.0
269119,-0.015113,0.025039,0.002021,0.0,0.0,0.0,0.0,0.087266,0.0,3.0,0.329483,0.332326,0.31071,0.329027,7.8e-05,0.135513,-0.004309,0.000882,0.113268,-0.00161,0.0,0.0,0.0,0.0,0.0,0.0
269139,-0.014381,0.026014,0.001897,0.0,0.0,0.0,0.0,0.087266,0.0,3.0,0.332767,0.339701,0.307279,0.321149,9e-05,0.137203,-0.004329,0.000688,0.111394,-0.000643,0.0,0.0,0.0,0.0,0.0,0.0
269159,-0.013652,0.026134,0.001644,0.0,0.0,0.0,0.0,0.087266,0.0,3.0,0.334592,0.346062,0.309787,0.309623,0.000101,0.13996,-0.00433,0.000398,0.108781,0.000745,0.0,0.0,0.0,0.0,0.0,0.0
269179,-0.013167,0.025888,0.001392,0.0,0.0,0.0,0.0,0.087266,0.0,3.0,0.339058,0.34836,0.309082,0.30252,0.000111,0.142122,-0.004308,0.000194,0.106946,0.001679,0.0,0.0,0.0,0.0,0.0,0.0
269199,-0.013048,0.02613,0.001148,0.0,0.0,0.0,0.0,0.087266,0.0,3.0,0.346469,0.338458,0.30997,0.304578,0.000119,0.144248,-0.004267,1.2e-05,0.105222,0.002478,0.0,0.0,0.0,0.0,0.0,0.0
269219,-0.012929,0.026373,0.000903,0.0,0.0,0.0,0.0,0.087266,0.0,3.0,0.350885,0.339381,0.309397,0.29871,0.000126,0.14634,-0.004211,-0.000149,0.103549,0.003159,0.0,0.0,0.0,0.0,0.0,0.0
269239,-0.013054,0.027103,0.000665,0.0,0.0,0.0,0.0,0.087266,0.0,3.0,0.351812,0.333608,0.308651,0.305041,0.000132,0.148398,-0.004143,-0.000292,0.101891,0.003736,0.0,0.0,0.0,0.0,0.0,0.0
269259,-0.012811,0.028323,0.000548,0.0,0.0,0.0,0.0,0.087266,0.0,3.0,0.34491,0.331622,0.30966,0.314318,0.000137,0.150424,-0.004063,-0.000419,0.100228,0.004222,0.0,0.0,0.0,0.0,0.0,0.0
269279,-0.012447,0.030155,0.000432,0.0,0.0,0.0,0.0,0.087266,0.0,3.0,0.338108,0.329127,0.30585,0.327898,0.000141,0.152416,-0.003974,-0.00053,0.098548,0.004629,0.0,0.0,0.0,0.0,0.0,0.0
269299,-0.011962,0.032351,0.000194,0.0,0.0,0.0,0.0,0.087266,0.0,3.0,0.34295,0.318941,0.313027,0.32619,0.000145,0.154374,-0.003878,-0.000628,0.096844,0.004966,0.0,0.0,0.0,0.0,0.0,0.0
269319,-0.011477,0.035034,-4.3e-05,0.0,0.0,0.0,0.0,0.087266,0.0,3.0,0.344393,0.312582,0.314273,0.329522,0.000147,0.156298,-0.003775,-0.000714,0.095113,0.005242,0.0,0.0,0.0,0.0,0.0,0.0
269339,-0.010628,0.037843,-0.000287,0.0,0.0,0.0,0.0,0.087266,0.0,3.0,0.337439,0.313486,0.31584,0.334435,0.000149,0.158187,-0.003666,-0.000789,0.093353,0.005466,0.0,0.0,0.0,0.0,0.0,0.0
269359,-0.009535,0.041015,-0.000537,0.0,0.0,0.0,0.0,0.087266,0.0,3.0,0.33424,0.312734,0.317917,0.3364,0.000151,0.15958,-0.003582,-0.000839,0.092013,0.005603,0.0,0.0,0.0,0.0,0.0,0.0
269379,-0.008443,0.044069,-0.000792,0.0,0.0,0.0,0.0,0.087266,0.0,3.0,0.340711,0.309502,0.31817,0.332543,0.000152,0.161858,-0.003438,-0.00091,0.089744,0.00578,0.0,0.0,0.0,0.0,0.0,0.0
269399,-0.007592,0.047486,-0.00092,0.0,0.0,0.0,0.0,0.087266,0.0,3.0,0.336376,0.31037,0.314721,0.339326,0.000153,0.163639,-0.00332,-0.000959,0.087894,0.005882,0.0,0.0,0.0,0.0,0.0,0.0
269419,-0.006743,0.050784,-0.001051,0.0,0.0,0.0,0.0,0.087266,0.0,3.0,0.335549,0.308421,0.315569,0.341089,0.000153,0.165383,-0.0032,-0.001,0.086016,0.005953,0.0,0.0,0.0,0.0,0.0,0.0
269439,-0.006016,0.053838,-0.001183,0.0,0.0,0.0,0.0,0.087266,0.0,3.0,0.33585,0.313467,0.315698,0.33618,0.000152,0.167089,-0.003079,-0.001035,0.08411,0.005997,0.0,0.0,0.0,0.0,0.0,0.0
269459,-0.00541,0.056401,-0.001315,0.0,0.0,0.0,0.0,0.087266,0.0,3.0,0.336379,0.318901,0.311468,0.334495,0.000152,0.168757,-0.002957,-0.001064,0.082176,0.006018,0.0,0.0,0.0,0.0,0.0,0.0
269479,-0.004928,0.058845,-0.001445,0.0,0.0,0.0,0.0,0.087266,0.0,3.0,0.336169,0.320679,0.309863,0.334484,0.000151,0.170386,-0.002834,-0.001088,0.080216,0.006019,0.0,0.0,0.0,0.0,0.0,0.0
269499,-0.004567,0.061164,-0.001573,0.0,0.0,0.0,0.0,0.087266,0.0,3.0,0.337575,0.318094,0.31019,0.335196,0.00015,0.171975,-0.002712,-0.001107,0.07823,0.006002,0.0,0.0,0.0,0.0,0.0,0.0
269519,-0.004206,0.06312,-0.001703,0.0,0.0,0.0,0.0,0.087266,0.0,3.0,0.342197,0.314349,0.316593,0.328001,0.000149,0.173525,-0.00259,-0.001122,0.07622,0.00597,0.0,0.0,0.0,0.0,0.0,0.0
269539,-0.003964,0.064828,-0.001707,0.0,0.0,0.0,0.0,0.087266,0.0,3.0,0.336892,0.325948,0.308427,0.329972,0.000147,0.175034,-0.002469,-0.001133,0.074185,0.005925,0.0,0.0,0.0,0.0,0.0,0.0
269559,-0.003851,0.06654,-0.001953,0.0,0.0,0.0,0.0,0.087266,0.0,3.0,0.345502,0.315344,0.314611,0.325405,0.000145,0.176502,-0.002349,-0.001141,0.072127,0.005869,0.0,0.0,0.0,0.0,0.0,0.0
269579,-0.003491,0.06776,-0.002085,0.0,0.0,0.0,0.0,0.087266,0.0,3.0,0.349202,0.320922,0.314947,0.315427,0.000143,0.177929,-0.00223,-0.001146,0.070048,0.005803,0.0,0.0,0.0,0.0,0.0,0.0
269599,-0.003248,0.069591,-0.002091,0.0,0.0,0.0,0.0,0.087266,0.0,3.0,0.341469,0.325388,0.303435,0.330271,0.000141,0.179314,-0.002112,-0.001148,0.067947,0.005729,0.0,0.0,0.0,0.0,0.0,0.0
269619,-0.002884,0.071425,-0.002101,0.0,0.0,0.0,0.0,0.087266,0.0,3.0,0.334067,0.326856,0.299691,0.339585,0.000139,0.180657,-0.001996,-0.001147,0.065827,0.005648,0.0,0.0,0.0,0.0,0.0,0.0
269639,-0.002647,0.07326,-0.00223,0.0,0.0,0.0,0.0,0.087266,0.0,3.0,0.340424,0.318005,0.307245,0.335019,0.000137,0.181958,-0.001882,-0.001145,0.063687,0.005561,0.0,0.0,0.0,0.0,0.0,0.0
269659,-0.002039,0.075091,-0.002251,0.0,0.0,0.0,0.0,0.087266,0.0,3.0,0.33566,0.31904,0.31077,0.335716,0.000134,0.183215,-0.001769,-0.00114,0.061529,0.005469,0.0,0.0,0.0,0.0,0.0,0.0
269679,-0.001807,0.077413,-0.002503,0.0,0.0,0.0,0.0,0.087266,0.0,3.0,0.341292,0.308708,0.313692,0.336801,0.000132,0.18443,-0.001658,-0.001134,0.059354,0.005373,0.0,0.0,0.0,0.0,0.0,0.0
269699,-0.001571,0.079736,-0.002634,0.0,0.0,0.0,0.0,0.087266,0.0,3.0,0.340909,0.307817,0.313184,0.338436,0.000129,0.1856,-0.00155,-0.001126,0.057162,0.005273,0.0,0.0,0.0,0.0,0.0,0.0
269719,-0.001452,0.082175,-0.002637,0.0,0.0,0.0,0.0,0.087266,0.0,3.0,0.34106,0.309258,0.310846,0.339106,0.000127,0.186727,-0.001443,-0.001116,0.054956,0.00517,0.0,0.0,0.0,0.0,0.0,0.0
269739,-0.001089,0.08462,-0.002651,0.0,0.0,0.0,0.0,0.087266,0.0,3.0,0.33701,0.313405,0.310307,0.339939,0.000124,0.187809,-0.001338,-0.001105,0.052735,0.005065,0.0,0.0,0.0,0.0,0.0,0.0
269759,-0.000854,0.087187,-0.002784,0.0,0.0,0.0,0.0,0.087266,0.0,3.0,0.340807,0.309994,0.309041,0.340305,0.000121,0.188847,-0.001236,-0.001093,0.050501,0.004959,0.0,0.0,0.0,0.0,0.0,0.0
269779,-0.000614,0.089632,-0.002794,0.0,0.0,0.0,0.0,0.087266,0.0,3.0,0.338356,0.312029,0.308709,0.341236,0.000118,0.189841,-0.001136,-0.00108,0.048254,0.004851,0.0,0.0,0.0,0.0,0.0,0.0
269799,-0.000251,0.092199,-0.002811,0.0,0.0,0.0,0.0,0.087266,0.0,3.0,0.337842,0.310065,0.307195,0.344768,0.000115,0.190789,-0.001038,-0.001066,0.045996,0.004742,0.0,0.0,0.0,0.0,0.0,0.0
269819,0.000227,0.094522,-0.002957,0.0,0.0,0.0,0.0,0.087266,0.0,3.0,0.337022,0.309716,0.312943,0.34086,0.000112,0.191692,-0.000942,-0.001052,0.043728,0.004632,0.0,0.0,0.0,0.0,0.0,0.0
269839,0.00059,0.096845,-0.002976,0.0,0.0,0.0,0.0,0.087266,0.0,3.0,0.336606,0.308324,0.311829,0.343465,0.000109,0.192549,-0.000848,-0.001036,0.041451,0.004522,0.0,0.0,0.0,0.0,0.0,0.0
269859,0.000952,0.098924,-0.002996,0.0,0.0,0.0,0.0,0.087266,0.0,3.0,0.33781,0.310628,0.310108,0.341787,0.000106,0.193361,-0.000757,-0.00102,0.039165,0.004412,0.0,0.0,0.0,0.0,0.0,0.0
269879,0.001559,0.100998,-0.003028,0.0,0.0,0.0,0.0,0.087266,0.0,3.0,0.333824,0.311651,0.311743,0.343337,0.000103,0.194127,-0.000668,-0.001003,0.036871,0.004302,0.0,0.0,0.0,0.0,0.0,0.0
269899,0.001915,0.103077,-0.003172,0.0,0.0,0.0,0.0,0.087266,0.0,3.0,0.337465,0.305997,0.313008,0.343589,0.0001,0.194847,-0.000581,-0.000986,0.034572,0.004192,0.0,0.0,0.0,0.0,0.0,0.0
269919,0.00215,0.104913,-0.00331,0.0,0.0,0.0,0.0,0.087266,0.0,3.0,0.341503,0.306249,0.314182,0.338308,9.6e-05,0.195521,-0.000496,-0.000968,0.032266,0.004082,0.0,0.0,0.0,0.0,0.0,0.0
269939,0.002641,0.10687,-0.003216,0.0,0.0,0.0,0.0,0.087266,0.0,3.0,0.330156,0.31555,0.305273,0.348929,9.3e-05,0.196149,-0.000414,-0.00095,0.029957,0.003974,0.0,0.0,0.0,0.0,0.0,0.0
269959,0.002882,0.108706,-0.003233,0.0,0.0,0.0,0.0,0.087266,0.0,3.0,0.333034,0.313563,0.306125,0.347251,9e-05,0.196731,-0.000333,-0.000932,0.027644,0.003866,0.0,0.0,0.0,0.0,0.0,0.0
269979,0.002872,0.110419,-0.003358,0.0,0.0,0.0,0.0,0.087266,0.0,3.0,0.343381,0.306377,0.310851,0.339276,8.7e-05,0.197267,-0.000255,-0.000913,0.025328,0.003759,0.0,0.0,0.0,0.0,0.0,0.0
269999,0.002862,0.112247,-0.003484,0.0,0.0,0.0,0.0,0.087266,0.0,3.0,0.342445,0.306908,0.309422,0.341022,8.4e-05,0.197756,-0.000179,-0.000894,0.02301,0.003653,0.0,0.0,0.0,0.0,0.0,0.0
270019,0.002974,0.114083,-0.003617,0.0,0.0,0.0,0.0,0.087266,0.0,3.0,0.342725,0.302553,0.313605,0.340776,8e-05,0.198199,-0.000106,-0.000875,0.020692,0.003547,0.0,0.0,0.0,0.0,0.0,0.0
270039,0.003092,0.115918,-0.003628,0.0,0.0,0.0,0.0,0.087266,0.0,3.0,0.340608,0.305674,0.308441,0.344759,7.7e-05,0.198595,-3.4e-05,-0.000856,0.018375,0.003443,0.0,0.0,0.0,0.0,0.0,0.0
270059,0.003211,0.117632,-0.003639,0.0,0.0,0.0,0.0,0.087266,0.0,3.0,0.340487,0.305822,0.308225,0.344937,7.4e-05,0.198945,3.6e-05,-0.000837,0.016059,0.003341,0.0,0.0,0.0,0.0,0.0,0.0
270079,0.00333,0.119467,-0.00365,0.0,0.0,0.0,0.0,0.087266,0.0,3.0,0.340249,0.305064,0.308696,0.345409,7.1e-05,0.199249,0.000103,-0.000817,0.013744,0.003239,0.0,0.0,0.0,0.0,0.0,0.0
270099,0.003441,0.121302,-0.003784,0.0,0.0,0.0,0.0,0.087266,0.0,3.0,0.340723,0.302668,0.310635,0.345283,6.7e-05,0.199507,0.000168,-0.000798,0.011433,0.003139,0.0,0.0,0.0,0.0,0.0,0.0
270119,0.003803,0.123138,-0.003811,0.0,0.0,0.0,0.0,0.087266,0.0,3.0,0.33796,0.303941,0.313068,0.344797,6.4e-05,0.199718,0.000232,-0.000778,0.009127,0.00304,0.0,0.0,0.0,0.0,0.0,0.0
270139,0.004036,0.124852,-0.003953,0.0,0.0,0.0,0.0,0.087266,0.0,3.0,0.341724,0.298734,0.316303,0.34257,6.1e-05,0.199883,0.000293,-0.000759,0.006825,0.002942,0.0,0.0,0.0,0.0,0.0,0.0
270159,0.00452,0.126559,-0.003988,0.0,0.0,0.0,0.0,0.087266,0.0,3.0,0.33705,0.304789,0.315361,0.342936,5.8e-05,0.200002,0.000352,-0.000739,0.004529,0.002846,0.0,0.0,0.0,0.0,0.0,0.0
270179,0.00476,0.128272,-0.004008,0.0,0.0,0.0,0.0,0.087266,0.0,3.0,0.338193,0.303084,0.313209,0.345167,5.4e-05,0.200076,0.00041,-0.00072,0.00224,0.002751,0.0,0.0,0.0,0.0,0.0,0.0
270199,0.005244,0.129986,-0.004045,0.0,0.0,0.0,0.0,0.087266,0.0,3.0,0.336552,0.302107,0.315967,0.345142,5.1e-05,0.200104,0.000465,-0.0007,-4.2e-05,0.002658,0.0,0.0,0.0,0.0,0.0,0.0
270219,0.005485,0.131456,-0.004066,0.0,0.0,0.0,0.0,0.087266,0.0,3.0,0.338789,0.303326,0.312508,0.344995,4.8e-05,0.200086,0.000519,-0.000681,-0.002314,0.002566,0.0,0.0,0.0,0.0,0.0,0.0
270239,0.005847,0.132927,-0.004096,0.0,0.0,0.0,0.0,0.087266,0.0,3.0,0.337967,0.302053,0.314038,0.345519,4.5e-05,0.200022,0.00057,-0.000662,-0.004578,0.002476,0.0,0.0,0.0,0.0,0.0,0.0
270259,0.00621,0.134275,-0.004126,0.0,0.0,0.0,0.0,0.087266,0.0,3.0,0.337422,0.302076,0.315121,0.345075,4.1e-05,0.199914,0.00062,-0.000643,-0.00683,0.002387,0.0,0.0,0.0,0.0,0.0,0.0
270279,0.006329,0.135493,-0.004138,0.0,0.0,0.0,0.0,0.087266,0.0,3.0,0.33945,0.302963,0.311807,0.345267,3.8e-05,0.19976,0.000668,-0.000624,-0.009072,0.002299,0.0,0.0,0.0,0.0,0.0,0.0
270299,0.006692,0.13672,-0.004168,0.0,0.0,0.0,0.0,0.087266,0.0,3.0,0.336523,0.301112,0.316786,0.34527,3.5e-05,0.199562,0.000714,-0.000605,-0.011301,0.002214,0.0,0.0,0.0,0.0,0.0,0.0
270319,0.006933,0.137695,-0.004189,0.0,0.0,0.0,0.0,0.087266,0.0,3.0,0.336977,0.304426,0.316081,0.342674,3.2e-05,0.19932,0.000759,-0.000587,-0.013518,0.002129,0.0,0.0,0.0,0.0,0.0,0.0
270339,0.007175,0.138799,-0.00421,0.0,0.0,0.0,0.0,0.087266,0.0,3.0,0.337026,0.300936,0.316234,0.34542,2.9e-05,0.199033,0.000802,-0.000569,-0.01572,0.002046,0.0,0.0,0.0,0.0,0.0,0.0
270359,0.007538,0.139783,-0.004241,0.0,0.0,0.0,0.0,0.087266,0.0,3.0,0.339027,0.305064,0.313002,0.342858,2.6e-05,0.198702,0.000843,-0.00055,-0.017908,0.001965,0.0,0.0,0.0,0.0,0.0,0.0
270379,0.007892,0.14088,-0.004394,0.0,0.0,0.0,0.0,0.087266,0.0,3.0,0.340152,0.298583,0.318439,0.34233,2.3e-05,0.198327,0.000882,-0.000533,-0.020081,0.001885,0.0,0.0,0.0,0.0,0.0,0.0
270399,0.008256,0.141863,-0.004425,0.0,0.0,0.0,0.0,0.087266,0.0,3.0,0.339458,0.302384,0.313273,0.344462,2e-05,0.19791,0.00092,-0.000515,-0.022237,0.001806,0.0,0.0,0.0,0.0,0.0,0.0
270419,0.008619,0.142968,-0.004457,0.0,0.0,0.0,0.0,0.087266,0.0,3.0,0.344826,0.293673,0.320179,0.340086,1.6e-05,0.197449,0.000956,-0.000497,-0.024376,0.001729,0.0,0.0,0.0,0.0,0.0,0.0
270439,0.009103,0.144064,-0.004498,0.0,0.0,0.0,0.0,0.087266,0.0,3.0,0.338746,0.298156,0.315407,0.346768,1.3e-05,0.196945,0.000991,-0.00048,-0.026497,0.001654,0.0,0.0,0.0,0.0,0.0,0.0
270459,0.009587,0.145291,-0.00454,0.0,0.0,0.0,0.0,0.087266,0.0,3.0,0.338314,0.296959,0.315393,0.348165,1e-05,0.1964,0.001024,-0.000463,-0.0286,0.001579,0.0,0.0,0.0,0.0,0.0,0.0
270479,0.010185,0.146397,-0.004715,0.0,0.0,0.0,0.0,0.087266,0.0,3.0,0.336657,0.294422,0.320901,0.346904,7e-06,0.195812,0.001056,-0.000447,-0.030683,0.001507,0.0,0.0,0.0,0.0,0.0,0.0
270499,0.010547,0.147372,-0.004747,0.0,0.0,0.0,0.0,0.087266,0.0,3.0,0.337136,0.300639,0.317814,0.344149,5e-06,0.195183,0.001086,-0.00043,-0.032746,0.001436,0.0,0.0,0.0,0.0,0.0,0.0
270519,0.011041,0.148598,-0.004668,0.0,0.0,0.0,0.0,0.087266,0.0,3.0,0.332725,0.298095,0.315874,0.352118,2e-06,0.194512,0.001115,-0.000414,-0.034789,0.001366,0.0,0.0,0.0,0.0,0.0,0.0
270539,0.011526,0.149581,-0.004712,0.0,0.0,0.0,0.0,0.087266,0.0,3.0,0.333629,0.302252,0.316098,0.347701,-1e-06,0.193801,0.001142,-0.000398,-0.036809,0.001298,0.0,0.0,0.0,0.0,0.0,0.0
270559,0.012,0.150931,-0.004881,0.0,0.0,0.0,0.0,0.087266,0.0,3.0,0.337917,0.294615,0.318948,0.347287,-4e-06,0.19305,0.001168,-0.000383,-0.038808,0.001231,0.0,0.0,0.0,0.0,0.0,0.0
270579,0.012606,0.152027,-0.004935,0.0,0.0,0.0,0.0,0.087266,0.0,3.0,0.334222,0.294051,0.323397,0.347268,-7e-06,0.192259,0.001192,-0.000367,-0.040783,0.001165,0.0,0.0,0.0,0.0,0.0,0.0
270599,0.013211,0.153376,-0.004992,0.0,0.0,0.0,0.0,0.087266,0.0,3.0,0.331796,0.294166,0.320702,0.351866,-1e-05,0.191429,0.001216,-0.000352,-0.042735,0.001101,0.0,0.0,0.0,0.0,0.0,0.0
270619,0.013696,0.154481,-0.005038,0.0,0.0,0.0,0.0,0.087266,0.0,3.0,0.329838,0.298445,0.316652,0.353821,-1.3e-05,0.19056,0.001238,-0.000338,-0.044662,0.001038,0.0,0.0,0.0,0.0,0.0,0.0
270639,0.014302,0.155586,-0.005095,0.0,0.0,0.0,0.0,0.087266,0.0,3.0,0.334661,0.291706,0.322402,0.3496,-1.5e-05,0.189652,0.001258,-0.000323,-0.046564,0.000977,0.0,0.0,0.0,0.0,0.0,0.0
270659,0.014654,0.156439,-0.005253,0.0,0.0,0.0,0.0,0.087266,0.0,3.0,0.337123,0.289977,0.323971,0.347186,-1.8e-05,0.188707,0.001278,-0.000309,-0.04844,0.000917,0.0,0.0,0.0,0.0,0.0,0.0
270679,0.015018,0.157179,-0.005289,0.0,0.0,0.0,0.0,0.087266,0.0,3.0,0.335921,0.293472,0.321836,0.347524,-2.1e-05,0.187724,0.001296,-0.000296,-0.05029,0.000859,0.0,0.0,0.0,0.0,0.0,0.0
270699,0.015381,0.15791,-0.005324,0.0,0.0,0.0,0.0,0.087266,0.0,3.0,0.337114,0.293685,0.319626,0.348194,-2.3e-05,0.186705,0.001313,-0.000282,-0.052113,0.000801,0.0,0.0,0.0,0.0,0.0,0.0
270719,0.015623,0.15865,-0.005351,0.0,0.0,0.0,0.0,0.087266,0.0,3.0,0.336673,0.295268,0.320455,0.346612,-2.6e-05,0.185649,0.001329,-0.000269,-0.053909,0.000745,0.0,0.0,0.0,0.0,0.0,0.0
270739,0.015743,0.159137,-0.005364,0.0,0.0,0.0,0.0,0.087266,0.0,3.0,0.336833,0.295063,0.320247,0.346811,-2.8e-05,0.184557,0.001344,-0.000256,-0.055676,0.000691,0.0,0.0,0.0,0.0,0.0,0.0
