time_ms,roll,pitch,yaw,x,y,z,reference_roll,reference_pitch,reference_yaw,reference_throttle,throttle_1,throttle_2,throttle_3,throttle_4,roll_predicted,pitch_predicted,yaw_predicted,roll_rate_predicted,pitch_rate_predicted,yaw_rate_predicted,value1,value2,value3,value4,value5,value6
304719,0.0089,0.01734,-0.001298,0.0,0.0,0.0,0.0,0.0,0.0,3.0,0.325423,0.33452,0.304962,0.335974,-5.9e-05,-0.011757,0.0,1.1e-05,-0.048476,-3e-06,0.0,0.0,0.0,0.0,0.0,0.0
304739,0.008656,0.017706,-0.001298,0.0,0.0,0.0,0.0,0.0,0.0,3.0,0.326718,0.330692,0.315027,0.329403,-5.9e-05,-0.012724,0.0,1.2e-05,-0.048067,-3e-06,0.0,0.0,0.0,0.0,0.0,0.0
304759,0.008535,0.018193,-0.001177,0.0,0.0,0.0,0.0,0.0,0.0,3.0,0.332098,0.326178,0.313532,0.32992,-5.9e-05,-0.013682,0.0,1.4e-05,-0.04764,-3e-06,0.0,0.0,0.0,0.0,0.0,0.0
304779,0.008414,0.018559,-0.001055,0.0,0.0,0.0,0.0,0.0,0.0,3.0,0.332364,0.329153,0.311374,0.328704,-5.9e-05,-0.014631,0.0,1.5e-05,-0.047195,-3e-06,0.0,0.0,0.0,0.0,0.0,0.0
304799,0.00817,0.019047,-0.000933,0.0,0.0,0.0,0.0,0.0,0.0,3.0,0.332033,0.327418,0.311508,0.330639,-5.8e-05,-0.015572,0.0,1.6e-05,-0.046733,-3e-06,0.0,0.0,0.0,0.0,0.0,0.0
304819,0.007927,0.019412,-0.00081,0.0,0.0,0.0,0.0,0.0,0.0,3.0,0.328755,0.322738,0.315144,0.33507,-5.8e-05,-0.016503,0.0,1.7e-05,-0.046253,-3e-06,0.0,0.0,0.0,0.0,0.0,0.0
304839,0.007805,0.019656,-0.000809,0.0,0.0,0.0,0.0,0.0,0.0,3.0,0.330817,0.32894,0.31059,0.331198,-5.8e-05,-0.017424,0.0,1.8e-05,-0.045757,-3e-06,0.0,0.0,0.0,0.0,0.0,0.0
304859,0.007562,0.020144,-0.000687,0.0,0.0,0.0,0.0,0.0,0.0,3.0,0.329982,0.329815,0.311208,0.330593,-5.7e-05,-0.018336,0.0,1.9e-05,-0.045243,-3e-06,0.0,0.0,0.0,0.0,0.0,0.0
304879,0.007441,0.020388,-0.000564,0.0,0.0,0.0,0.0,0.0,0.0,3.0,0.323662,0.331658,0.314325,0.332077,-5.7e-05,-0.019237,0.0,2e-05,-0.044713,-3e-06,0.0,0.0,0.0,0.0,0.0,0.0
304899,0.007442,0.020631,-0.000443,0.0,0.0,0.0,0.0,0.0,0.0,3.0,0.323886,0.33432,0.30601,0.336721,-5.7e-05,-0.020127,0.0,2.1e-05,-0.044167,-3e-06,0.0,0.0,0.0,0.0,0.0,0.0
304919,0.007321,0.020753,-0.00032,0.0,0.0,0.0,0.0,0.0,0.0,3.0,0.319859,0.335465,0.309818,0.336001,-5.6e-05,-0.021006,0.0,2.2e-05,-0.043605,-3e-06,0.0,0.0,0.0,0.0,0.0,0.0
304939,0.007078,0.020998,-0.000319,0.0,0.0,0.0,0.0,0.0,0.0,3.0,0.328767,0.326857,0.315033,0.33118,-5.6e-05,-0.021874,0.0,2.3e-05,-0.043027,-3e-06,0.0,0.0,0.0,0.0,0.0,0.0
304959,0.006957,0.021364,-0.000196,0.0,0.0,0.0,0.0,0.0,0.0,3.0,0.336218,0.325301,0.314895,0.325271,-5.5e-05,-0.02273,0.0,2.4e-05,-0.042434,-3e-06,0.0,0.0,0.0,0.0,0.0,0.0
304979,0.006714,0.021608,-7.3e-05,0.0,0.0,0.0,0.0,0.0,0.0,3.0,0.336575,0.328529,0.31286,0.323579,-5.5e-05,-0.023574,0.0,2.5e-05,-0.041825,-3e-06,0.0,0.0,0.0,0.0,0.0,0.0
304999,0.006471,0.02173,5.2e-05,0.0,0.0,0.0,0.0,0.0,0.0,3.0,0.325861,0.331518,0.309582,0.334427,-5.4e-05,-0.024406,-0.0,2.6e-05,-0.041202,-3e-06,0.0,0.0,0.0,0.0,0.0,0.0
305019,0.006471,0.022096,5.1e-05,0.0,0.0,0.0,0.0,0.0,0.0,3.0,0.323701,0.329353,0.305152,0.342453,-5.4e-05,-0.025225,-0.0,2.7e-05,-0.040564,-3e-06,0.0,0.0,0.0,0.0,0.0,0.0
305039,0.00635,0.02234,0.000173,0.0,0.0,0.0,0.0,0.0,0.0,3.0,0.32693,0.32634,0.314425,0.33405,-5.3e-05,-0.026032,-0.0,2.8e-05,-0.039912,-3e-06,0.0,0.0,0.0,0.0,0.0,0.0
305059,0.006474,0.022828,0.000292,0.0,0.0,0.0,0.0,0.0,0.0,3.0,0.327387,0.330901,0.308728,0.334326,-5.3e-05,-0.026825,-0.0,2.9e-05,-0.039246,-3e-06,0.0,0.0,0.0,0.0,0.0,0.0
305079,0.006474,0.02295,0.000292,0.0,0.0,0.0,0.0,0.0,0.0,3.0,0.329347,0.331227,0.313721,0.327467,-5.2e-05,-0.027605,-0.0,3e-05,-0.038566,-2e-06,0.0,0.0,0.0,0.0,0.0,0.0
305099,0.005987,0.023193,0.000419,0.0,0.0,0.0,0.0,0.0,0.0,3.0,0.325944,0.332157,0.31027,0.333091,-5.1e-05,-0.028371,-0.0,3.1e-05,-0.037873,-2e-06,0.0,0.0,0.0,0.0,0.0,0.0
305119,0.005987,0.023316,0.000419,0.0,0.0,0.0,0.0,0.0,0.0,3.0,0.326026,0.323886,0.317369,0.334563,-5.1e-05,-0.029123,-0.0,3.2e-05,-0.037167,-2e-06,0.0,0.0,0.0,0.0,0.0,0.0
305139,0.005989,0.023803,0.000539,0.0,0.0,0.0,0.0,0.0,0.0,3.0,0.329221,0.321817,0.317948,0.332883,-5e-05,-0.029861,-0.0,3.3e-05,-0.036449,-2e-06,0.0,0.0,0.0,0.0,0.0,0.0
305159,0.005867,0.024292,0.000539,0.0,0.0,0.0,0.0,0.0,0.0,3.0,0.331108,0.326241,0.310122,0.333979,-4.9e-05,-0.030584,-0.0,3.4e-05,-0.035718,-2e-06,0.0,0.0,0.0,0.0,0.0,0.0
305179,0.005989,0.024658,0.000537,0.0,0.0,0.0,0.0,0.0,0.0,3.0,0.328264,0.32563,0.31494,0.332961,-4.9e-05,-0.031293,-0.0,3.5e-05,-0.034975,-2e-06,0.0,0.0,0.0,0.0,0.0,0.0
305199,0.005867,0.025268,0.000537,0.0,0.0,0.0,0.0,0.0,0.0,3.0,0.332721,0.323076,0.309902,0.335619,-4.8e-05,-0.031987,-0.0,3.6e-05,-0.034221,-2e-06,0.0,0.0,0.0,0.0,0.0,0.0
305219,0.005745,0.025512,0.000537,0.0,0.0,0.0,0.0,0.0,0.0,3.0,0.320649,0.327986,0.308224,0.343909,-4.7e-05,-0.032666,-0.0,3.7e-05,-0.033455,-2e-06,0.0,0.0,0.0,0.0,0.0,0.0
305239,0.005745,0.026245,0.000535,0.0,0.0,0.0,0.0,0.0,0.0,3.0,0.32425,0.323451,0.312796,0.340824,-4.7e-05,-0.033329,-0.0,3.7e-05,-0.032678,-2e-06,0.0,0.0,0.0,0.0,0.0,0.0
305259,0.005869,0.026611,0.000655,0.0,0.0,0.0,0.0,0.0,0.0,3.0,0.327977,0.326829,0.310876,0.335793,-4.6e-05,-0.033977,-0.0,3.8e-05,-0.031891,-2e-06,0.0,0.0,0.0,0.0,0.0,0.0
305279,0.005625,0.026855,0.000657,0.0,0.0,0.0,0.0,0.0,0.0,3.0,0.326635,0.329934,0.316251,0.32909,-4.5e-05,-0.034609,-0.0,3.9e-05,-0.031093,-2e-06,0.0,0.0,0.0,0.0,0.0,0.0
305299,0.005625,0.026855,0.000657,0.0,0.0,0.0,0.0,0.0,0.0,3.0,0.32776,0.32538,0.315284,0.333378,-4.4e-05,-0.035224,-0.0,4e-05,-0.030286,-2e-06,0.0,0.0,0.0,0.0,0.0,0.0
305319,0.005503,0.027099,0.000658,0.0,0.0,0.0,0.0,0.0,0.0,3.0,0.329595,0.325625,0.313167,0.333293,-4.3e-05,-0.035824,-0.0,4e-05,-0.029469,-2e-06,0.0,0.0,0.0,0.0,0.0,0.0
305339,0.005503,0.027221,0.000658,0.0,0.0,0.0,0.0,0.0,0.0,3.0,0.325864,0.326623,0.317379,0.332063,-4.3e-05,-0.036407,-0.0,4.1e-05,-0.028643,-2e-06,0.0,0.0,0.0,0.0,0.0,0.0
305359,0.005504,0.027343,0.00078,0.0,0.0,0.0,0.0,0.0,0.0,3.0,0.327103,0.325697,0.315981,0.333065,-4.2e-05,-0.036974,-0.0,4.2e-05,-0.027808,-1e-06,0.0,0.0,0.0,0.0,0.0,0.0
305379,0.005626,0.027221,0.000778,0.0,0.0,0.0,0.0,0.0,0.0,3.0,0.329385,0.329712,0.311167,0.331327,-4.1e-05,-0.037524,-0.0,4.3e-05,-0.026964,-1e-06,0.0,0.0,0.0,0.0,0.0,0.0
305399,0.005504,0.027221,0.00078,0.0,0.0,0.0,0.0,0.0,0.0,3.0,0.329207,0.324647,0.313218,0.334571,-4e-05,-0.038057,-0.0,4.3e-05,-0.026113,-1e-06,0.0,0.0,0.0,0.0,0.0,0.0
305419,0.005503,0.027221,0.000658,0.0,0.0,0.0,0.0,0.0,0.0,3.0,0.329789,0.320178,0.320367,0.331595,-3.9e-05,-0.038572,-0.0,4.4e-05,-0.025254,-1e-06,0.0,0.0,0.0,0.0,0.0,0.0
305439,0.005747,0.027343,0.000654,0.0,0.0,0.0,0.0,0.0,0.0,3.0,0.327153,0.327099,0.316279,0.331368,-3.8e-05,-0.039071,-0.0,4.5e-05,-0.024387,-1e-06,0.0,0.0,0.0,0.0,0.0,0.0
305459,0.005747,0.027587,0.000654,0.0,0.0,0.0,0.0,0.0,0.0,3.0,0.332416,0.322762,0.317333,0.329362,-3.7e-05,-0.039552,-0.0,4.5e-05,-0.023514,-1e-06,0.0,0.0,0.0,0.0,0.0,0.0
305479,0.005747,0.027709,0.000653,0.0,0.0,0.0,0.0,0.0,0.0,3.0,0.31862,0.331096,0.310459,0.340856,-3.6e-05,-0.040016,-0.0,4.6e-05,-0.022634,-1e-06,0.0,0.0,0.0,0.0,0.0,0.0
305499,0.005869,0.027831,0.000651,0.0,0.0,0.0,0.0,0.0,0.0,3.0,0.329002,0.321232,0.314712,0.336648,-3.6e-05,-0.040462,-0.0,4.6e-05,-0.021748,-1e-06,0.0,0.0,0.0,0.0,0.0,0.0
305519,0.005747,0.028075,0.000652,0.0,0.0,0.0,0.0,0.0,0.0,3.0,0.330788,0.325481,0.311625,0.333666,-3.5e-05,-0.04089,-0.0,4.7e-05,-0.020856,-1e-06,0.0,0.0,0.0,0.0,0.0,0.0
305539,0.005625,0.028198,0.000653,0.0,0.0,0.0,0.0,0.0,0.0,3.0,0.327153,0.326344,0.319651,0.328908,-3.4e-05,-0.041301,-0.0,4.7e-05,-0.019958,-1e-06,0.0,0.0,0.0,0.0,0.0,0.0
305559,0.005501,0.02832,0.000533,0.0,0.0,0.0,0.0,0.0,0.0,3.0,0.330176,0.322654,0.314629,0.334232,-3.3e-05,-0.041693,-0.0,4.8e-05,-0.019056,-1e-06,0.0,0.0,0.0,0.0,0.0,0.0
305579,0.005623,0.02832,0.000531,0.0,0.0,0.0,0.0,0.0,0.0,3.0,0.332077,0.321134,0.314205,0.33419,-3.2e-05,-0.042067,-0.0,4.8e-05,-0.018148,-1e-06,0.0,0.0,0.0,0.0,0.0,0.0
305599,0.005622,0.028442,0.000409,0.0,0.0,0.0,0.0,0.0,0.0,3.0,0.337828,0.315801,0.319058,0.328848,-3.1e-05,-0.042424,-0.0,4.9e-05,-0.017237,-1e-06,0.0,0.0,0.0,0.0,0.0,0.0
305619,0.005498,0.028687,0.000288,0.0,0.0,0.0,0.0,0.0,0.0,3.0,0.326495,0.323199,0.317827,0.334339,-3e-05,-0.042761,-0.0,4.9e-05,-0.016321,-1e-06,0.0,0.0,0.0,0.0,0.0,0.0
305639,0.005742,0.028565,0.000284,0.0,0.0,0.0,0.0,0.0,0.0,3.0,0.330652,0.318766,0.325364,0.327222,-2.9e-05,-0.043081,-0.0,5e-05,-0.015402,-1e-06,0.0,0.0,0.0,0.0,0.0,0.0
305659,0.005862,0.028565,0.000161,0.0,0.0,0.0,0.0,0.0,0.0,3.0,0.327748,0.32439,0.316446,0.333265,-2.8e-05,-0.043382,-0.0,5e-05,-0.01448,-0.0,0.0,0.0,0.0,0.0,0.0,0.0
305679,0.00574,0.028565,0.000162,0.0,0.0,0.0,0.0,0.0,0.0,3.0,0.330537,0.324983,0.314535,0.331719,-2.7e-05,-0.043665,-0.0,5.1e-05,-0.013555,-0.0,0.0,0.0,0.0,0.0,0.0,0.0
305699,0.005739,0.028687,4e-05,0.0,0.0,0.0,0.0,0.0,0.0,3.0,0.321654,0.328978,0.311449,0.339217,-2.6e-05,-0.043929,-0.0,5.1e-05,-0.012628,-0.0,0.0,0.0,0.0,0.0,0.0,0.0
305719,0.005494,0.028688,4.3e-05,0.0,0.0,0.0,0.0,0.0,0.0,3.0,0.330581,0.322439,0.313975,0.334639,-2.5e-05,-0.044174,-0.0,5.1e-05,-0.011699,-0.0,0.0,0.0,0.0,0.0,0.0,0.0
305739,0.005372,0.028565,4.5e-05,0.0,0.0,0.0,0.0,0.0,0.0,3.0,0.321788,0.327647,0.315263,0.336933,-2.4e-05,-0.044401,-0.0,5.2e-05,-0.010768,-0.0,0.0,0.0,0.0,0.0,0.0,0.0
305759,0.005127,0.028322,-7.3e-05,0.0,0.0,0.0,0.0,0.0,0.0,3.0,0.33266,0.322284,0.317621,0.329307,-2.3e-05,-0.04461,-0.0,5.2e-05,-0.009836,-0.0,0.0,0.0,0.0,0.0,0.0,0.0
305779,0.005125,0.028444,-0.000195,0.0,0.0,0.0,0.0,0.0,0.0,3.0,0.333468,0.319862,0.317828,0.330626,-2.2e-05,-0.0448,-0.0,5.2e-05,-0.008903,-0.0,0.0,0.0,0.0,0.0,0.0,0.0
305799,0.005367,0.028322,-0.00032,0.0,0.0,0.0,0.0,0.0,0.0,3.0,0.336886,0.31947,0.321515,0.323904,-2.1e-05,-0.044971,-0.0,5.2e-05,-0.007969,-0.0,0.0,0.0,0.0,0.0,0.0,0.0
305819,0.005245,0.028566,-0.000319,0.0,0.0,0.0,0.0,0.0,0.0,3.0,0.334583,0.313659,0.321056,0.33226,-2e-05,-0.045123,-0.0,5.3e-05,-0.007036,-0.0,0.0,0.0,0.0,0.0,0.0,0.0
305839,0.005489,0.028444,-0.000322,0.0,0.0,0.0,0.0,0.0,0.0,3.0,0.334402,0.318004,0.322453,0.326994,-1.8e-05,-0.045287,-0.0,5.3e-05,-0.005869,-0.0,0.0,0.0,0.0,0.0,0.0,0.0
305859,0.005733,0.028933,-0.000327,0.0,0.0,0.0,0.0,0.0,0.0,3.0,0.328393,0.319923,0.317669,0.335745,-1.8e-05,-0.045372,-0.0,5.3e-05,-0.00517,0.0,0.0,0.0,0.0,0.0,0.0,0.0
305879,0.005855,0.029055,-0.000329,0.0,0.0,0.0,0.0,0.0,0.0,3.0,0.326392,0.325732,0.314532,0.33506,-1.6e-05,-0.045468,-0.0,5.3e-05,-0.004238,0.0,0.0,0.0,0.0,0.0,0.0,0.0
305899,0.005732,0.028811,-0.000449,0.0,0.0,0.0,0.0,0.0,0.0,3.0,0.321575,0.327522,0.31207,0.340129,-1.5e-05,-0.045546,-0.0,5.3e-05,-0.003308,0.0,0.0,0.0,0.0,0.0,0.0,0.0
305919,0.005609,0.028689,-0.000447,0.0,0.0,0.0,0.0,0.0,0.0,3.0,0.3278,0.322919,0.317989,0.333185,-1.4e-05,-0.045605,-0.0,5.3e-05,-0.002379,0.0,0.0,0.0,0.0,0.0,0.0,0.0
305939,0.005365,0.028567,-0.000443,0.0,0.0,0.0,0.0,0.0,0.0,3.0,0.330319,0.320403,0.321701,0.329569,-1.3e-05,-0.045646,-0.0,5.3e-05,-0.001453,0.0,0.0,0.0,0.0,0.0,0.0,0.0
305959,0.005243,0.028445,-0.000441,0.0,0.0,0.0,0.0,0.0,0.0,3.0,0.333586,0.319483,0.323884,0.324988,-1.2e-05,-0.045668,-0.0,5.4e-05,-0.000529,0.0,0.0,0.0,0.0,0.0,0.0,0.0
305979,0.005121,0.028323,-0.000439,0.0,0.0,0.0,0.0,0.0,0.0,3.0,0.337844,0.316918,0.319411,0.32743,-1.1e-05,-0.045672,-0.0,5.4e-05,0.000392,0.0,0.0,0.0,0.0,0.0,0.0,0.0
305999,0.005242,0.028445,-0.000563,0.0,0.0,0.0,0.0,0.0,0.0,3.0,0.336666,0.315975,0.320826,0.328183,-1e-05,-0.045657,-0.0,5.4e-05,0.00131,0.0,0.0,0.0,0.0,0.0,0.0,0.0
306019,0.005242,0.028567,-0.000563,0.0,0.0,0.0,0.0,0.0,0.0,3.0,0.33008,0.320081,0.315401,0.336048,-9e-06,-0.045624,-0.0,5.4e-05,0.002224,0.0,0.0,0.0,0.0,0.0,0.0,0.0
306039,0.00524,0.028689,-0.000686,0.0,0.0,0.0,0.0,0.0,0.0,3.0,0.327569,0.319782,0.317468,0.336859,-8e-06,-0.045572,-0.0,5.4e-05,0.003134,0.0,0.0,0.0,0.0,0.0,0.0,0.0
306059,0.005486,0.028689,-0.000567,0.0,0.0,0.0,0.0,0.0,0.0,3.0,0.321749,0.318402,0.322057,0.33939,-7e-06,-0.045503,-0.0,5.4e-05,0.00404,0.0,0.0,0.0,0.0,0.0,0.0,0.0
306079,0.005608,0.028811,-0.000569,0.0,0.0,0.0,0.0,0.0,0.0,3.0,0.329577,0.318578,0.315046,0.338256,-6e-06,-0.045415,-0.0,5.4e-05,0.004942,0.0,0.0,0.0,0.0,0.0,0.0,0.0
306099,0.00573,0.028689,-0.000571,0.0,0.0,0.0,0.0,0.0,0.0,3.0,0.328818,0.327528,0.315885,0.329668,-5e-06,-0.04531,-0.0,5.3e-05,0.005838,0.0,0.0,0.0,0.0,0.0,0.0,0.0
306119,0.00524,0.028445,-0.000685,0.0,0.0,0.0,0.0,0.0,0.0,3.0,0.332631,0.321894,0.315553,0.331663,-4e-06,-0.045186,-0.0,5.3e-05,0.006729,0.0,0.0,0.0,0.0,0.0,0.0,0.0
306139,0.005242,0.028201,-0.000562,0.0,0.0,0.0,0.0,0.0,0.0,3.0,0.31913,0.327579,0.312017,0.342367,-3e-06,-0.045045,-0.0,5.3e-05,0.007614,0.0,0.0,0.0,0.0,0.0,0.0,0.0
306159,0.00512,0.028445,-0.000561,0.0,0.0,0.0,0.0,0.0,0.0,3.0,0.3333,0.31607,0.317707,0.334475,-1e-06,-0.044886,-0.0,5.3e-05,0.008494,0.0,0.0,0.0,0.0,0.0,0.0,0.0
306179,0.004996,0.028689,-0.000682,0.0,0.0,0.0,0.0,0.0,0.0,3.0,0.332178,0.320477,0.314676,0.334277,-0.0,-0.04471,-0.0,5.3e-05,0.009367,0.0,0.0,0.0,0.0,0.0,0.0,0.0
306199,0.004996,0.028445,-0.000682,0.0,0.0,0.0,0.0,0.0,0.0,3.0,0.32894,0.322663,0.316252,0.333935,1e-06,-0.044516,-0.0,5.3e-05,0.010233,0.0,0.0,0.0,0.0,0.0,0.0,0.0
306219,0.00524,0.028567,-0.000686,0.0,0.0,0.0,0.0,0.0,0.0,3.0,0.326937,0.316234,0.318501,0.339776,2e-06,-0.044305,-0.0,5.3e-05,0.011092,0.0,0.0,0.0,0.0,0.0,0.0,0.0
306239,0.005484,0.028445,-0.000689,0.0,0.0,0.0,0.0,0.0,0.0,3.0,0.329382,0.319356,0.315681,0.337146,3e-06,-0.044077,-0.0,5.2e-05,0.011944,0.0,0.0,0.0,0.0,0.0,0.0,0.0
306259,0.005606,0.028567,-0.000691,0.0,0.0,0.0,0.0,0.0,0.0,3.0,0.325905,0.320565,0.319606,0.335741,4e-06,-0.043831,-0.0,5.2e-05,0.012789,0.0,0.0,0.0,0.0,0.0,0.0,0.0
306279,0.005726,0.028446,-0.000814,0.0,0.0,0.0,0.0,0.0,0.0,3.0,0.328274,0.323167,0.316908,0.333495,5e-06,-0.043569,-0.0,5.2e-05,0.013625,0.0,0.0,0.0,0.0,0.0,0.0,0.0
306299,0.005484,0.028445,-0.000689,0.0,0.0,0.0,0.0,0.0,0.0,3.0,0.326174,0.320814,0.313732,0.340627,6e-06,-0.043291,-0.0,5.2e-05,0.014453,0.0,0.0,0.0,0.0,0.0,0.0,0.0
306319,0.005362,0.028445,-0.000687,0.0,0.0,0.0,0.0,0.0,0.0,3.0,0.327184,0.324079,0.314068,0.336303,7e-06,-0.042995,-0.0,5.1e-05,0.015273,0.0,0.0,0.0,0.0,0.0,0.0,0.0
306339,0.004996,0.028445,-0.000682,0.0,0.0,0.0,0.0,0.0,0.0,3.0,0.328496,0.32329,0.31268,0.337044,8e-06,-0.042684,-0.0,5.1e-05,0.016084,0.0,0.0,0.0,0.0,0.0,0.0,0.0
306359,0.004996,0.028445,-0.000682,0.0,0.0,0.0,0.0,0.0,0.0,3.0,0.321563,0.321514,0.316816,0.341508,9e-06,-0.042356,-0.0,5.1e-05,0.016885,0.0,0.0,0.0,0.0,0.0,0.0,0.0
306379,0.004996,0.028445,-0.000682,0.0,0.0,0.0,0.0,0.0,0.0,3.0,0.332279,0.316463,0.319661,0.333292,1e-05,-0.042012,-0.0,5e-05,0.017677,0.0,0.0,0.0,0.0,0.0,0.0,0.0
306399,0.00524,0.028323,-0.000685,0.0,0.0,0.0,0.0,0.0,0.0,3.0,0.334822,0.316871,0.323157,0.326956,1.1e-05,-0.041653,-0.0,5e-05,0.01846,0.0,0.0,0.0,0.0,0.0,0.0,0.0
306419,0.005482,0.028202,-0.00081,0.0,0.0,0.0,0.0,0.0,0.0,3.0,0.33061,0.313043,0.328312,0.329762,1.2e-05,-0.041278,-0.0,4.9e-05,0.019232,0.0,0.0,0.0,0.0,0.0,0.0,0.0
306439,0.005727,0.02808,-0.000813,0.0,0.0,0.0,0.0,0.0,0.0,3.0,0.331172,0.309396,0.326006,0.334797,1.3e-05,-0.040888,-0.0,4.9e-05,0.019994,0.0,0.0,0.0,0.0,0.0,0.0,0.0
306459,0.005971,0.028446,-0.000818,0.0,0.0,0.0,0.0,0.0,0.0,3.0,0.332838,0.31373,0.323982,0.331137,1.4e-05,-0.040482,-0.0,4.9e-05,0.020745,0.0,0.0,0.0,0.0,0.0,0.0,0.0
306479,0.005604,0.028812,-0.000814,0.0,0.0,0.0,0.0,0.0,0.0,3.0,0.331516,0.320719,0.310305,0.338653,1.5e-05,-0.040062,-0.0,4.8e-05,0.021486,0.0,0.0,0.0,0.0,0.0,0.0,0.0
306499,0.005362,0.028567,-0.000687,0.0,0.0,0.0,0.0,0.0,0.0,3.0,0.328,0.320232,0.31537,0.337949,1.6e-05,-0.039626,-0.0,4.8e-05,0.022216,0.0,0.0,0.0,0.0,0.0,0.0,0.0
306519,0.004996,0.028323,-0.000681,0.0,0.0,0.0,0.0,0.0,0.0,3.0,0.331884,0.318393,0.312855,0.338168,1.7e-05,-0.039177,-0.0,4.7e-05,0.022934,0.0,0.0,0.0,0.0,0.0,0.0,0.0
306539,0.004752,0.028323,-0.000678,0.0,0.0,0.0,0.0,0.0,0.0,3.0,0.328147,0.319282,0.317291,0.33693,1.8e-05,-0.038713,-0.0,4.7e-05,0.02364,-0.0,0.0,0.0,0.0,0.0,0.0,0.0
306559,0.004631,0.028079,-0.000554,0.0,0.0,0.0,0.0,0.0,0.0,3.0,0.320197,0.329166,0.310847,0.340918,1.9e-05,-0.038235,0.0,4.6e-05,0.024335,-0.0,0.0,0.0,0.0,0.0,0.0,0.0
306579,0.004754,0.027835,-0.000555,0.0,0.0,0.0,0.0,0.0,0.0,3.0,0.328513,0.321892,0.315727,0.33557,2e-05,-0.037743,0.0,4.6e-05,0.025018,-0.0,0.0,0.0,0.0,0.0,0.0,0.0
306599,0.004876,0.027713,-0.000556,0.0,0.0,0.0,0.0,0.0,0.0,3.0,0.329584,0.321722,0.315393,0.334995,2e-05,-0.037237,0.0,4.5e-05,0.025688,-0.0,0.0,0.0,0.0,0.0,0.0,0.0
306619,0.004876,0.027713,-0.000556,0.0,0.0,0.0,0.0,0.0,0.0,3.0,0.326369,0.319262,0.31913,0.336957,2.1e-05,-0.036719,0.0,4.4e-05,0.026346,-0.0,0.0,0.0,0.0,0.0,0.0,0.0
306639,0.004998,0.027713,-0.000558,0.0,0.0,0.0,0.0,0.0,0.0,3.0,0.325283,0.314459,0.32042,0.341176,2.2e-05,-0.036187,0.0,4.4e-05,0.02699,-0.0,0.0,0.0,0.0,0.0,0.0,0.0
306659,0.004876,0.027957,-0.000557,0.0,0.0,0.0,0.0,0.0,0.0,3.0,0.327567,0.314432,0.317882,0.341367,2.3e-05,-0.035642,0.0,4.3e-05,0.027622,-0.0,0.0,0.0,0.0,0.0,0.0,0.0
306679,0.004876,0.028201,-0.000557,0.0,0.0,0.0,0.0,0.0,0.0,3.0,0.329998,0.319826,0.315041,0.336695,2.4e-05,-0.035085,0.0,4.3e-05,0.028241,-0.0,0.0,0.0,0.0,0.0,0.0,0.0
306699,0.004631,0.027957,-0.000553,0.0,0.0,0.0,0.0,0.0,0.0,3.0,0.329309,0.324399,0.315781,0.332343,2.5e-05,-0.034516,0.0,4.2e-05,0.028846,-0.0,0.0,0.0,0.0,0.0,0.0,0.0
306719,0.004387,0.027713,-0.000549,0.0,0.0,0.0,0.0,0.0,0.0,3.0,0.331065,0.320608,0.313819,0.336037,2.6e-05,-0.033935,0.0,4.1e-05,0.029438,-0.0,0.0,0.0,0.0,0.0,0.0,0.0
306739,0.004265,0.027468,-0.000547,0.0,0.0,0.0,0.0,0.0,0.0,3.0,0.331902,0.318327,0.323998,0.327724,2.7e-05,-0.033191,0.0,4.1e-05,0.030158,-0.0,0.0,0.0,0.0,0.0,0.0,0.0
306759,0.004143,0.027346,-0.000545,0.0,0.0,0.0,0.0,0.0,0.0,3.0,0.325038,0.321469,0.314402,0.34049,2.7e-05,-0.032737,0.0,4e-05,0.03058,-0.0,0.0,0.0,0.0,0.0,0.0,0.0
306779,0.004143,0.027224,-0.000545,0.0,0.0,0.0,0.0,0.0,0.0,3.0,0.32613,0.322917,0.313241,0.339154,2.8e-05,-0.032121,0.0,3.9e-05,0.03113,-1e-06,0.0,0.0,0.0,0.0,0.0,0.0
306799,0.004267,0.027224,-0.000425,0.0,0.0,0.0,0.0,0.0,0.0,3.0,0.332936,0.315902,0.313252,0.339065,2.9e-05,-0.031494,0.0,3.9e-05,0.031665,-1e-06,0.0,0.0,0.0,0.0,0.0,0.0
306819,0.004267,0.027224,-0.000425,0.0,0.0,0.0,0.0,0.0,0.0,3.0,0.326283,0.320823,0.313592,0.340641,3e-05,-0.030857,0.0,3.8e-05,0.032186,-1e-06,0.0,0.0,0.0,0.0,0.0,0.0
306839,0.004145,0.027346,-0.000423,0.0,0.0,0.0,0.0,0.0,0.0,3.0,0.331443,0.313953,0.313141,0.342358,3.1e-05,-0.030046,0.0,3.7e-05,0.032817,-1e-06,0.0,0.0,0.0,0.0,0.0,0.0
306859,0.004267,0.027346,-0.000425,0.0,0.0,0.0,0.0,0.0,0.0,3.0,0.325466,0.316738,0.320052,0.339284,3.1e-05,-0.029552,0.0,3.6e-05,0.033184,-1e-06,0.0,0.0,0.0,0.0,0.0,0.0
306879,0.004267,0.027346,-0.000425,0.0,0.0,0.0,0.0,0.0,0.0,3.0,0.326585,0.316113,0.318847,0.339903,3.2e-05,-0.028717,0.0,3.5e-05,0.033777,-1e-06,0.0,0.0,0.0,0.0,0.0,0.0
306899,0.004023,0.027346,-0.000421,0.0,0.0,0.0,0.0,0.0,0.0,3.0,0.328984,0.320794,0.316088,0.335814,3.3e-05,-0.028208,0.0,3.5e-05,0.034122,-1e-06,0.0,0.0,0.0,0.0,0.0,0.0
306919,0.004023,0.02698,-0.000421,0.0,0.0,0.0,0.0,0.0,0.0,3.0,0.329163,0.322362,0.315875,0.334354,3.3e-05,-0.02735,0.0,3.4e-05,0.034677,-1e-06,0.0,0.0,0.0,0.0,0.0,0.0
306939,0.004025,0.026858,-0.000298,0.0,0.0,0.0,0.0,0.0,0.0,3.0,0.328709,0.315749,0.320181,0.336967,3.4e-05,-0.026828,0.0,3.3e-05,0.034998,-1e-06,0.0,0.0,0.0,0.0,0.0,0.0
306959,0.004269,0.026735,-0.000301,0.0,0.0,0.0,0.0,0.0,0.0,3.0,0.333378,0.314631,0.324302,0.329436,3.5e-05,-0.026125,0.0,3.3e-05,0.035414,-1e-06,0.0,0.0,0.0,0.0,0.0,0.0
306979,0.004269,0.026613,-0.000301,0.0,0.0,0.0,0.0,0.0,0.0,3.0,0.329938,0.321265,0.313764,0.336571,3.5e-05,-0.025413,0.0,3.2e-05,0.035813,-1e-06,0.0,0.0,0.0,0.0,0.0,0.0
306999,0.004389,0.02637,-0.000424,0.0,0.0,0.0,0.0,0.0,0.0,3.0,0.329677,0.320047,0.315063,0.336781,3.6e-05,-0.024694,0.0,3.1e-05,0.036197,-1e-06,0.0,0.0,0.0,0.0,0.0,0.0
307019,0.004147,0.026491,-0.000299,0.0,0.0,0.0,0.0,0.0,0.0,3.0,0.329401,0.315362,0.313624,0.34262,3.6e-05,-0.023967,0.0,3e-05,0.036565,-1e-06,0.0,0.0,0.0,0.0,0.0,0.0
307039,0.004025,0.026369,-0.000297,0.0,0.0,0.0,0.0,0.0,0.0,3.0,0.33104,0.31923,0.313519,0.337618,3.7e-05,-0.023049,0.0,2.9e-05,0.037003,-1e-06,0.0,0.0,0.0,0.0,0.0,0.0
307059,0.004147,0.026369,-0.000299,0.0,0.0,0.0,0.0,0.0,0.0,3.0,0.328857,0.316695,0.320159,0.339404,3.8e-05,-0.022493,0.0,2.8e-05,0.037253,-1e-06,0.0,0.0,0.0,0.0,0.0,0.0
307079,0.004025,0.026247,-0.000297,0.0,0.0,0.0,0.0,0.0,0.0,3.0,0.329028,0.317115,0.315928,0.339326,3.8e-05,-0.021557,0.0,2.7e-05,0.037651,-1e-06,0.0,0.0,0.0,0.0,0.0,0.0
307099,0.004149,0.026003,-0.000176,0.0,0.0,0.0,0.0,0.0,0.0,3.0,0.320778,0.328025,0.309789,0.342397,3.9e-05,-0.020991,0.0,2.7e-05,0.037877,-1e-06,0.0,0.0,0.0,0.0,0.0,0.0
307119,0.004027,0.025881,-0.000174,0.0,0.0,0.0,0.0,0.0,0.0,3.0,0.326079,0.319333,0.318089,0.33813,3.9e-05,-0.020232,0.0,2.6e-05,0.038165,-1e-06,0.0,0.0,0.0,0.0,0.0,0.0
307139,0.004149,0.025393,-0.000175,0.0,0.0,0.0,0.0,0.0,0.0,3.0,0.324012,0.317672,0.321246,0.338696,4e-05,-0.019466,0.0,2.5e-05,0.038436,-1e-06,0.0,0.0,0.0,0.0,0.0,0.0
307159,0.004147,0.025393,-0.000297,0.0,0.0,0.0,0.0,0.0,0.0,3.0,0.329814,0.31742,0.318756,0.335683,4e-05,-0.018696,0.0,2.4e-05,0.038691,-1e-06,0.0,0.0,0.0,0.0,0.0,0.0
307179,0.003903,0.025271,-0.000294,0.0,0.0,0.0,0.0,0.0,0.0,3.0,0.331676,0.31831,0.313126,0.338203,4.1e-05,-0.01792,0.0,2.3e-05,0.03893,-1e-06,0.0,0.0,0.0,0.0,0.0,0.0
307199,0.003905,0.025026,-0.000171,0.0,0.0,0.0,0.0,0.0,0.0,3.0,0.321177,0.321651,0.313259,0.344904,4.1e-05,-0.01714,0.0,2.2e-05,0.039152,-2e-06,0.0,0.0,0.0,0.0,0.0,0.0
307219,0.00366,0.024904,-0.000168,0.0,0.0,0.0,0.0,0.0,0.0,3.0,0.330808,0.313062,0.313045,0.343837,4.2e-05,-0.016355,0.0,2.1e-05,0.039358,-2e-06,0.0,0.0,0.0,0.0,0.0,0.0
307239,0.00366,0.024782,-0.000168,0.0,0.0,0.0,0.0,0.0,0.0,3.0,0.328083,0.316957,0.316797,0.339585,4.2e-05,-0.015369,0.0,2e-05,0.039592,-2e-06,0.0,0.0,0.0,0.0,0.0,0.0
307259,0.003537,0.024538,-0.000288,0.0,0.0,0.0,0.0,0.0,0.0,3.0,0.33635,0.308388,0.322459,0.333937,4.3e-05,-0.014576,0.0,1.9e-05,0.03976,-2e-06,0.0,0.0,0.0,0.0,0.0,0.0
307279,0.003659,0.023928,-0.000288,0.0,0.0,0.0,0.0,0.0,0.0,3.0,0.324084,0.324353,0.315625,0.337583,4.3e-05,-0.013979,0.0,1.9e-05,0.039875,-2e-06,0.0,0.0,0.0,0.0,0.0,0.0
307299,0.003539,0.023806,-0.000164,0.0,0.0,0.0,0.0,0.0,0.0,3.0,0.326615,0.322179,0.312456,0.340084,4.3e-05,-0.01318,0.0,1.8e-05,0.040015,-2e-06,0.0,0.0,0.0,0.0,0.0,0.0
307319,0.003416,0.023439,-0.000162,0.0,0.0,0.0,0.0,0.0,0.0,3.0,0.328536,0.323487,0.3142,0.335435,4.4e-05,-0.012178,0.0,1.6e-05,0.040166,-2e-06,0.0,0.0,0.0,0.0,0.0,0.0
307339,0.003417,0.023195,-0.000162,0.0,0.0,0.0,0.0,0.0,0.0,3.0,0.320141,0.321575,0.314139,0.345138,4.4e-05,-0.011575,0.0,1.6e-05,0.040244,-2e-06,0.0,0.0,0.0,0.0,0.0,0.0
307359,0.003417,0.023073,-0.000162,0.0,0.0,0.0,0.0,0.0,0.0,3.0,0.321464,0.32518,0.310646,0.343685,4.4e-05,-0.010568,0.0,1.5e-05,0.040354,-2e-06,0.0,0.0,0.0,0.0,0.0,0.0
307379,0.003415,0.022829,-0.000283,0.0,0.0,0.0,0.0,0.0,0.0,3.0,0.330487,0.320395,0.316356,0.334473,4.4e-05,-0.009962,0.0,1.4e-05,0.040408,-2e-06,0.0,0.0,0.0,0.0,0.0,0.0
307399,0.003414,0.022585,-0.000405,0.0,0.0,0.0,0.0,0.0,0.0,3.0,0.3306,0.311987,0.321969,0.336872,4.5e-05,-0.009154,0.0,1.3e-05,0.040464,-2e-06,0.0,0.0,0.0,0.0,0.0,0.0
307419,0.00317,0.022341,-0.000402,0.0,0.0,0.0,0.0,0.0,0.0,3.0,0.332887,0.319416,0.313898,0.335286,4.5e-05,-0.008142,0.0,1.2e-05,0.040512,-2e-06,0.0,0.0,0.0,0.0,0.0,0.0
307439,0.003414,0.022341,-0.000405,0.0,0.0,0.0,0.0,0.0,0.0,3.0,0.328492,0.312239,0.320801,0.339771,4.5e-05,-0.007534,0.0,1.1e-05,0.040529,-2e-06,0.0,0.0,0.0,0.0,0.0,0.0
307459,0.00317,0.022219,-0.000402,0.0,0.0,0.0,0.0,0.0,0.0,3.0,0.330687,0.314728,0.3145,0.341181,4.5e-05,-0.00652,0.0,1e-05,0.040536,-2e-06,0.0,0.0,0.0,0.0,0.0,0.0
307479,0.003168,0.021853,-0.000523,0.0,0.0,0.0,0.0,0.0,0.0,3.0,0.33496,0.310317,0.32448,0.331653,4.6e-05,-0.00571,0.0,9e-06,0.040523,-2e-06,0.0,0.0,0.0,0.0,0.0,0.0
307499,0.00329,0.02173,-0.000524,0.0,0.0,0.0,0.0,0.0,0.0,3.0,0.330024,0.316108,0.317195,0.338128,4.6e-05,-0.005102,0.0,8e-06,0.040502,-2e-06,0.0,0.0,0.0,0.0,0.0,0.0
307519,0.003289,0.021608,-0.000646,0.0,0.0,0.0,0.0,0.0,0.0,3.0,0.328382,0.31924,0.317285,0.336748,4.6e-05,-0.004292,0.0,7e-06,0.040461,-2e-06,0.0,0.0,0.0,0.0,0.0,0.0
307539,0.003167,0.021242,-0.000644,0.0,0.0,0.0,0.0,0.0,0.0,3.0,0.329513,0.318903,0.317061,0.336171,4.6e-05,-0.003281,0.0,6e-06,0.040387,-2e-06,0.0,0.0,0.0,0.0,0.0,0.0
307559,0.003166,0.020998,-0.000766,0.0,0.0,0.0,0.0,0.0,0.0,3.0,0.32883,0.315641,0.317055,0.33983,4.6e-05,-0.002676,0.0,5e-06,0.04033,-2e-06,0.0,0.0,0.0,0.0,0.0,0.0
307579,0.003288,0.020998,-0.000767,0.0,0.0,0.0,0.0,0.0,0.0,3.0,0.325635,0.315751,0.321589,0.338596,4.6e-05,-0.001669,0.0,4e-06,0.040216,-2e-06,0.0,0.0,0.0,0.0,0.0,0.0
307599,0.003166,0.020754,-0.000765,0.0,0.0,0.0,0.0,0.0,0.0,3.0,0.336464,0.312889,0.319948,0.33212,4.6e-05,-0.001066,0.0,3e-06,0.040135,-2e-06,0.0,0.0,0.0,0.0,0.0,0.0
307619,0.002921,0.020632,-0.000885,0.0,0.0,0.0,0.0,0.0,0.0,3.0,0.327273,0.310122,0.321687,0.34198,4.6e-05,-0.000264,0.0,2e-06,0.040014,-2e-06,0.0,0.0,0.0,0.0,0.0,0.0
307639,0.002921,0.020387,-0.000885,0.0,0.0,0.0,0.0,0.0,0.0,3.0,0.330873,0.313582,0.315312,0.341298,4.6e-05,0.000535,0.0,2e-06,0.039877,-2e-06,0.0,0.0,0.0,0.0,0.0,0.0
307659,0.00292,0.020388,-0.001007,0.0,0.0,0.0,0.0,0.0,0.0,3.0,0.334162,0.311774,0.32628,0.329361,4.7e-05,0.001332,0.0,1e-06,0.039725,-2e-06,0.0,0.0,0.0,0.0,0.0,0.0
307679,0.002675,0.019777,-0.001125,0.0,0.0,0.0,0.0,0.0,0.0,3.0,0.336222,0.312028,0.324675,0.328594,4.7e-05,0.002323,0.0,-1e-06,0.039512,-2e-06,0.0,0.0,0.0,0.0,0.0,0.0
307699,0.002675,0.019411,-0.001125,0.0,0.0,0.0,0.0,0.0,0.0,3.0,0.329487,0.316232,0.322699,0.333384,4.6e-05,0.002915,0.0,-1e-06,0.039373,-2e-06,0.0,0.0,0.0,0.0,0.0,0.0
307719,0.00243,0.018923,-0.001244,0.0,0.0,0.0,0.0,0.0,0.0,3.0,0.331573,0.321454,0.315174,0.333492,4.6e-05,0.003701,0.0,-2e-06,0.039175,-2e-06,0.0,0.0,0.0,0.0,0.0,0.0
307739,0.002308,0.018679,-0.001243,0.0,0.0,0.0,0.0,0.0,0.0,3.0,0.329215,0.316889,0.319588,0.335982,4.6e-05,0.004483,0.0,-3e-06,0.038961,-2e-06,0.0,0.0,0.0,0.0,0.0,0.0
307759,0.002307,0.018191,-0.001364,0.0,0.0,0.0,0.0,0.0,0.0,3.0,0.330278,0.319866,0.320498,0.331282,4.6e-05,0.005454,0.0,-4e-06,0.038673,-2e-06,0.0,0.0,0.0,0.0,0.0,0.0
307779,0.002185,0.018068,-0.001363,0.0,0.0,0.0,0.0,0.0,0.0,3.0,0.331991,0.31517,0.315385,0.338724,4.6e-05,0.006033,0.0,-5e-06,0.038489,-2e-06,0.0,0.0,0.0,0.0,0.0,0.0
307799,0.002185,0.017824,-0.001363,0.0,0.0,0.0,0.0,0.0,0.0,3.0,0.333796,0.3181,0.312902,0.336518,4.6e-05,0.006801,0.0,-6e-06,0.038231,-2e-06,0.0,0.0,0.0,0.0,0.0,0.0
307819,0.002184,0.017702,-0.001485,0.0,0.0,0.0,0.0,0.0,0.0,3.0,0.331607,0.313328,0.319314,0.33716,4.6e-05,0.007563,0.0,-7e-06,0.037958,-2e-06,0.0,0.0,0.0,0.0,0.0,0.0
307839,0.001818,0.01758,-0.001481,0.0,0.0,0.0,0.0,0.0,0.0,3.0,0.329802,0.314807,0.317905,0.338874,4.6e-05,0.00832,0.0,-8e-06,0.037671,-2e-06,0.0,0.0,0.0,0.0,0.0,0.0
307859,0.001939,0.017336,-0.001604,0.0,0.0,0.0,0.0,0.0,0.0,3.0,0.330068,0.31605,0.319463,0.336041,4.6e-05,0.009258,0.0,-9e-06,0.037292,-2e-06,0.0,0.0,0.0,0.0,0.0,0.0
307879,0.002061,0.017336,-0.001605,0.0,0.0,0.0,0.0,0.0,0.0,3.0,0.328651,0.312146,0.31936,0.341028,4.5e-05,0.010002,0.0,-1e-05,0.036973,-2e-06,0.0,0.0,0.0,0.0,0.0,0.0
307899,0.001938,0.017336,-0.001726,0.0,0.0,0.0,0.0,0.0,0.0,3.0,0.336576,0.308215,0.325223,0.331199,4.5e-05,0.010555,0.0,-1e-05,0.036725,-2e-06,0.0,0.0,0.0,0.0,0.0,0.0
307919,0.001939,0.01697,-0.001726,0.0,0.0,0.0,0.0,0.0,0.0,3.0,0.329721,0.318015,0.322843,0.33134,4.5e-05,0.011287,0.0,-1.1e-05,0.036382,-2e-06,0.0,0.0,0.0,0.0,0.0,0.0
307939,0.002061,0.016848,-0.001727,0.0,0.0,0.0,0.0,0.0,0.0,3.0,0.327546,0.316218,0.320883,0.337003,4.5e-05,0.012192,0.0,-1.2e-05,0.035934,-2e-06,0.0,0.0,0.0,0.0,0.0,0.0
307959,0.001938,0.016726,-0.001848,0.0,0.0,0.0,0.0,0.0,0.0,3.0,0.330143,0.313196,0.323608,0.334669,4.5e-05,0.012908,0.0,-1.3e-05,0.035561,-2e-06,0.0,0.0,0.0,0.0,0.0,0.0
307979,0.001694,0.016604,-0.001846,0.0,0.0,0.0,0.0,0.0,0.0,3.0,0.331358,0.313511,0.317546,0.338868,4.4e-05,0.01344,0.0,-1.4e-05,0.035273,-2e-06,0.0,0.0,0.0,0.0,0.0,0.0
307999,0.001694,0.016238,-0.001845,0.0,0.0,0.0,0.0,0.0,0.0,3.0,0.331907,0.319475,0.31629,0.333998,4.4e-05,0.014317,0.0,-1.5e-05,0.034776,-2e-06,0.0,0.0,0.0,0.0,0.0,0.0
308019,0.001572,0.016237,-0.001844,0.0,0.0,0.0,0.0,0.0,0.0,3.0,0.334547,0.313671,0.313347,0.339419,4.4e-05,0.014837,0.0,-1.6e-05,0.034468,-2e-06,0.0,0.0,0.0,0.0,0.0,0.0
308039,0.001694,0.016115,-0.001845,0.0,0.0,0.0,0.0,0.0,0.0,3.0,0.329577,0.313239,0.318968,0.339528,4.3e-05,0.015694,0.0,-1.7e-05,0.03394,-2e-06,0.0,0.0,0.0,0.0,0.0,0.0
308059,0.00145,0.015627,-0.001965,0.0,0.0,0.0,0.0,0.0,0.0,3.0,0.337397,0.314643,0.319633,0.329834,4.3e-05,0.016369,0.0,-1.7e-05,0.033503,-2e-06,0.0,0.0,0.0,0.0,0.0,0.0
308079,0.001206,0.015383,-0.001963,0.0,0.0,0.0,0.0,0.0,0.0,3.0,0.331307,0.313496,0.31849,0.338063,4.3e-05,0.01687,0.0,-1.8e-05,0.033168,-2e-06,0.0,0.0,0.0,0.0,0.0,0.0
308099,0.001328,0.015139,-0.001964,0.0,0.0,0.0,0.0,0.0,0.0,3.0,0.33044,0.31382,0.318397,0.338698,4.2e-05,0.017694,0.0,-1.9e-05,0.032594,-2e-06,0.0,0.0,0.0,0.0,0.0,0.0
308119,0.001084,0.014772,-0.001962,0.0,0.0,0.0,0.0,0.0,0.0,3.0,0.325939,0.319452,0.312252,0.343405,4.2e-05,0.018342,0.0,-2e-05,0.032122,-2e-06,0.0,0.0,0.0,0.0,0.0,0.0
308139,0.000718,0.014284,-0.002081,0.0,0.0,0.0,0.0,0.0,0.0,3.0,0.333876,0.3148,0.317836,0.334953,4.2e-05,0.018981,0.0,-2.1e-05,0.031639,-2e-06,0.0,0.0,0.0,0.0,0.0,0.0
308159,0.000596,0.013917,-0.00208,0.0,0.0,0.0,0.0,0.0,0.0,3.0,0.330682,0.316614,0.318629,0.335698,4.1e-05,0.01961,0.0,-2.1e-05,0.031144,-2e-06,0.0,0.0,0.0,0.0,0.0,0.0
308179,0.000229,0.013551,-0.002199,0.0,0.0,0.0,0.0,0.0,0.0,3.0,0.333789,0.31397,0.322555,0.331335,4.1e-05,0.020229,0.0,-2.2e-05,0.030639,-2e-06,0.0,0.0,0.0,0.0,0.0,0.0
308199,-1.4e-05,0.013184,-0.002198,0.0,0.0,0.0,0.0,0.0,0.0,3.0,0.33155,0.317791,0.318263,0.334092,4e-05,0.020838,-0.0,-2.3e-05,0.030122,-2e-06,0.0,0.0,0.0,0.0,0.0,0.0
308219,-0.000259,0.012818,-0.002318,0.0,0.0,0.0,0.0,0.0,0.0,3.0,0.331819,0.314484,0.317608,0.337482,4e-05,0.021288,-0.0,-2.3e-05,0.029729,-1e-06,0.0,0.0,0.0,0.0,0.0,0.0
308239,-0.000381,0.012695,-0.002317,0.0,0.0,0.0,0.0,0.0,0.0,3.0,0.332776,0.315647,0.31769,0.335402,3.9e-05,0.022024,-0.0,-2.4e-05,0.029059,-1e-06,0.0,0.0,0.0,0.0,0.0,0.0
308259,-0.000381,0.012573,-0.002317,0.0,0.0,0.0,0.0,0.0,0.0,3.0,0.329692,0.313562,0.320255,0.337936,3.9e-05,0.022601,-0.0,-2.5e-05,0.028512,-1e-06,0.0,0.0,0.0,0.0,0.0,0.0
308279,-0.000503,0.012451,-0.002439,0.0,0.0,0.0,0.0,0.0,0.0,3.0,0.334001,0.312444,0.317567,0.337222,3.8e-05,0.023167,-0.0,-2.6e-05,0.027956,-1e-06,0.0,0.0,0.0,0.0,0.0,0.0
308299,-0.000747,0.012329,-0.002437,0.0,0.0,0.0,0.0,0.0,0.0,3.0,0.335244,0.312327,0.314505,0.338896,3.8e-05,0.023722,-0.0,-2.6e-05,0.02739,-1e-06,0.0,0.0,0.0,0.0,0.0,0.0
308319,-0.00087,0.012084,-0.002559,0.0,0.0,0.0,0.0,0.0,0.0,3.0,0.334265,0.314489,0.319431,0.333354,3.7e-05,0.024266,-0.0,-2.7e-05,0.026815,-1e-06,0.0,0.0,0.0,0.0,0.0,0.0
308339,-0.00087,0.012207,-0.002559,0.0,0.0,0.0,0.0,0.0,0.0,3.0,0.331082,0.308898,0.319551,0.341388,3.7e-05,0.024798,-0.0,-2.8e-05,0.026232,-1e-06,0.0,0.0,0.0,0.0,0.0,0.0
308359,-0.001236,0.01184,-0.002557,0.0,0.0,0.0,0.0,0.0,0.0,3.0,0.332471,0.314747,0.317896,0.336337,3.6e-05,0.025318,-0.0,-2.8e-05,0.025639,-1e-06,0.0,0.0,0.0,0.0,0.0,0.0
308379,-0.001358,0.011596,-0.002556,0.0,0.0,0.0,0.0,0.0,0.0,3.0,0.332325,0.313816,0.318104,0.337136,3.6e-05,0.025826,-0.0,-2.9e-05,0.025038,-1e-06,0.0,0.0,0.0,0.0,0.0,0.0
308399,-0.001357,0.011229,-0.002556,0.0,0.0,0.0,0.0,0.0,0.0,3.0,0.330002,0.313742,0.320684,0.337072,3.5e-05,0.026323,-0.0,-2.9e-05,0.024429,-1e-06,0.0,0.0,0.0,0.0,0.0,0.0
308419,-0.001723,0.010985,-0.002555,0.0,0.0,0.0,0.0,0.0,0.0,3.0,0.333497,0.315073,0.316944,0.335906,3.4e-05,0.026807,-0.0,-3e-05,0.023813,-1e-06,0.0,0.0,0.0,0.0,0.0,0.0
308439,-0.001845,0.010496,-0.002554,0.0,0.0,0.0,0.0,0.0,0.0,3.0,0.333782,0.321488,0.316727,0.329787,3.4e-05,0.027278,-0.0,-3.1e-05,0.023188,-1e-06,0.0,0.0,0.0,0.0,0.0,0.0
308459,-0.001967,0.010496,-0.002554,0.0,0.0,0.0,0.0,0.0,0.0,3.0,0.332402,0.315205,0.318276,0.335632,3.3e-05,0.027737,-0.0,-3.1e-05,0.022557,-1e-06,0.0,0.0,0.0,0.0,0.0,0.0
308479,-0.002088,0.010252,-0.002431,0.0,0.0,0.0,0.0,0.0,0.0,3.0,0.331177,0.318302,0.315828,0.336241,3.3e-05,0.028183,-0.0,-3.2e-05,0.021918,-1e-06,0.0,0.0,0.0,0.0,0.0,0.0
308499,-0.002088,0.01013,-0.002431,0.0,0.0,0.0,0.0,0.0,0.0,3.0,0.335143,0.314202,0.31468,0.337147,3.2e-05,0.02851,-0.0,-3.2e-05,0.021435,-1e-06,0.0,0.0,0.0,0.0,0.0,0.0
308519,-0.001965,0.009886,-0.00231,0.0,0.0,0.0,0.0,0.0,0.0,3.0,0.322249,0.320734,0.314309,0.343835,3.1e-05,0.029038,-0.0,-3.3e-05,0.020621,-1e-06,0.0,0.0,0.0,0.0,0.0,0.0
308539,-0.002209,0.009764,-0.002309,0.0,0.0,0.0,0.0,0.0,0.0,3.0,0.331215,0.316447,0.312968,0.340494,3.1e-05,0.029445,-0.0,-3.3e-05,0.019963,-1e-06,0.0,0.0,0.0,0.0,0.0,0.0
308559,-0.00233,0.009519,-0.002309,0.0,0.0,0.0,0.0,0.0,0.0,3.0,0.329274,0.314537,0.320723,0.33702,3e-05,0.029742,-0.0,-3.4e-05,0.019466,-1e-06,0.0,0.0,0.0,0.0,0.0,0.0
308579,-0.002452,0.009397,-0.002186,0.0,0.0,0.0,0.0,0.0,0.0,3.0,0.333447,0.316013,0.315008,0.336872,2.9e-05,0.03022,-0.0,-3.4e-05,0.01863,-1e-06,0.0,0.0,0.0,0.0,0.0,0.0
308599,-0.002451,0.009275,-0.002064,0.0,0.0,0.0,0.0,0.0,0.0,3.0,0.323695,0.321013,0.312462,0.34388,2.9e-05,0.030588,-0.0,-3.5e-05,0.017955,-1e-06,0.0,0.0,0.0,0.0,0.0,0.0
308619,-0.002695,0.009031,-0.002063,0.0,0.0,0.0,0.0,0.0,0.0,3.0,0.332453,0.313548,0.316925,0.338338,2.8e-05,0.030942,-0.0,-3.5e-05,0.017276,-1e-06,0.0,0.0,0.0,0.0,0.0,0.0
308639,-0.002816,0.008665,-0.001941,0.0,0.0,0.0,0.0,0.0,0.0,3.0,0.332122,0.318241,0.316201,0.335025,2.7e-05,0.031282,-0.0,-3.6e-05,0.016592,-1e-06,0.0,0.0,0.0,0.0,0.0,0.0
308659,-0.00306,0.00842,-0.001819,0.0,0.0,0.0,0.0,0.0,0.0,3.0,0.334149,0.318663,0.313742,0.334879,2.6e-05,0.031609,-0.0,-3.6e-05,0.015903,-1e-06,0.0,0.0,0.0,0.0,0.0,0.0
308679,-0.003059,0.008054,-0.001697,0.0,0.0,0.0,0.0,0.0,0.0,3.0,0.326643,0.321734,0.316271,0.337024,2.6e-05,0.031922,-0.0,-3.7e-05,0.01521,-1e-06,0.0,0.0,0.0,0.0,0.0,0.0
308699,-0.003425,0.007688,-0.001696,0.0,0.0,0.0,0.0,0.0,0.0,3.0,0.327778,0.325503,0.306559,0.341055,2.5e-05,0.032147,-0.0,-3.7e-05,0.014688,-0.0,0.0,0.0,0.0,0.0,0.0,0.0
308719,-0.003546,0.007444,-0.001574,0.0,0.0,0.0,0.0,0.0,0.0,3.0,0.331728,0.319305,0.314855,0.335659,2.4e-05,0.032506,-0.0,-3.7e-05,0.013813,-0.0,0.0,0.0,0.0,0.0,0.0,0.0
308739,-0.003667,0.007078,-0.00133,0.0,0.0,0.0,0.0,0.0,0.0,3.0,0.324249,0.32532,0.307082,0.344077,2.4e-05,0.032777,-0.0,-3.8e-05,0.01311,-0.0,0.0,0.0,0.0,0.0,0.0,0.0
308759,-0.004033,0.006834,-0.001329,0.0,0.0,0.0,0.0,0.0,0.0,3.0,0.3363,0.317537,0.311514,0.335804,2.3e-05,0.033034,-0.0,-3.8e-05,0.012403,-0.0,0.0,0.0,0.0,0.0,0.0,0.0
308779,-0.004154,0.006345,-0.001208,0.0,0.0,0.0,0.0,0.0,0.0,3.0,0.326028,0.322292,0.308807,0.343735,2.2e-05,0.033217,-0.0,-3.8e-05,0.011872,-0.0,0.0,0.0,0.0,0.0,0.0,0.0
308799,-0.004276,0.006101,-0.001208,0.0,0.0,0.0,0.0,0.0,0.0,3.0,0.33414,0.316012,0.314483,0.336667,2.1e-05,0.033505,-0.0,-3.9e-05,0.010983,-0.0,0.0,0.0,0.0,0.0,0.0,0.0
308819,-0.00452,0.005613,-0.001086,0.0,0.0,0.0,0.0,0.0,0.0,3.0,0.329888,0.324985,0.312077,0.334619,2.1e-05,0.033667,-0.0,-3.9e-05,0.010448,-0.0,0.0,0.0,0.0,0.0,0.0,0.0
308839,-0.004763,0.005125,-0.000965,0.0,0.0,0.0,0.0,0.0,0.0,3.0,0.333157,0.322048,0.313682,0.332725,2e-05,0.033919,-0.0,-3.9e-05,0.009554,-0.0,0.0,0.0,0.0,0.0,0.0,0.0
308859,-0.004641,0.004759,-0.000844,0.0,0.0,0.0,0.0,0.0,0.0,3.0,0.328612,0.322007,0.318508,0.332775,1.9e-05,0.034105,-0.0,-3.9e-05,0.008837,-0.0,0.0,0.0,0.0,0.0,0.0,0.0
308879,-0.005129,0.004271,-0.000722,0.0,0.0,0.0,0.0,0.0,0.0,3.0,0.333465,0.321896,0.311224,0.33481,1.8e-05,0.034276,-0.0,-4e-05,0.008119,-0.0,0.0,0.0,0.0,0.0,0.0,0.0
308899,-0.00525,0.003905,-0.000478,0.0,0.0,0.0,0.0,0.0,0.0,3.0,0.329025,0.325367,0.310038,0.336932,1.7e-05,0.034433,-0.0,-4e-05,0.0074,-0.0,0.0,0.0,0.0,0.0,0.0,0.0
308919,-0.005494,0.003417,-0.000357,0.0,0.0,0.0,0.0,0.0,0.0,3.0,0.330212,0.325818,0.310069,0.335316,1.6e-05,0.034576,-0.0,-4e-05,0.006681,-0.0,0.0,0.0,0.0,0.0,0.0,0.0
308939,-0.00586,0.003173,-0.000235,0.0,0.0,0.0,0.0,0.0,0.0,3.0,0.333166,0.320262,0.310364,0.337414,1.6e-05,0.034704,-0.0,-4e-05,0.005961,-0.0,0.0,0.0,0.0,0.0,0.0,0.0
308959,-0.006104,0.002685,-0.000114,0.0,0.0,0.0,0.0,0.0,0.0,3.0,0.333072,0.322274,0.310548,0.335452,1.5e-05,0.034818,-0.0,-4e-05,0.005242,-0.0,0.0,0.0,0.0,0.0,0.0,0.0
308979,-0.006348,0.002319,7e-06,0.0,0.0,0.0,0.0,0.0,0.0,3.0,0.33319,0.320374,0.306146,0.340988,1.4e-05,0.034894,-0.0,-4.1e-05,0.004702,-0.0,0.0,0.0,0.0,0.0,0.0,0.0
308999,-0.006714,0.001954,0.000251,0.0,0.0,0.0,0.0,0.0,0.0,3.0,0.328948,0.32313,0.310699,0.338534,1.3e-05,0.034983,-0.0,-4.1e-05,0.003983,-0.0,0.0,0.0,0.0,0.0,0.0,0.0
309019,-0.006592,0.001588,0.000372,0.0,0.0,0.0,0.0,0.0,0.0,3.0,0.325845,0.324751,0.311783,0.339006,1.3e-05,0.035057,-0.0,-4.1e-05,0.003265,0.0,0.0,0.0,0.0,0.0,0.0,0.0
309039,-0.006592,0.001223,0.000614,0.0,0.0,0.0,0.0,0.0,0.0,3.0,0.322398,0.328178,0.305867,0.344151,1.2e-05,0.03513,-0.0,-4.1e-05,0.002368,0.0,0.0,0.0,0.0,0.0,0.0,0.0
309059,-0.006836,0.00049,0.000612,0.0,0.0,0.0,0.0,0.0,0.0,3.0,0.332195,0.32356,0.309354,0.336168,1.1e-05,0.035172,-0.0,-4.1e-05,0.001653,0.0,0.0,0.0,0.0,0.0,0.0,0.0
309079,-0.006714,-0.000242,0.000732,0.0,0.0,0.0,0.0,0.0,0.0,3.0,0.332646,0.320584,0.316762,0.331769,1e-05,0.035194,-0.0,-4.1e-05,0.001117,0.0,0.0,0.0,0.0,0.0,0.0,0.0
309099,-0.006715,-0.000608,0.000853,0.0,0.0,0.0,0.0,0.0,0.0,3.0,0.32124,0.329989,0.309909,0.339995,9e-06,0.035213,-0.0,-4.1e-05,0.000405,0.0,0.0,0.0,0.0,0.0,0.0,0.0
309119,-0.006837,-0.001217,0.000973,0.0,0.0,0.0,0.0,0.0,0.0,3.0,0.324662,0.330486,0.305889,0.339837,8e-06,0.035212,-0.0,-4.1e-05,-0.000482,0.0,0.0,0.0,0.0,0.0,0.0,0.0
309139,-0.007081,-0.001705,0.001093,0.0,0.0,0.0,0.0,0.0,0.0,3.0,0.323965,0.332215,0.306436,0.338341,8e-06,0.035197,-0.0,-4.1e-05,-0.001189,0.0,0.0,0.0,0.0,0.0,0.0,0.0
309159,-0.007082,-0.002316,0.001091,0.0,0.0,0.0,0.0,0.0,0.0,3.0,0.333526,0.321021,0.321768,0.325639,7e-06,0.035168,-0.0,-4.1e-05,-0.001893,0.0,0.0,0.0,0.0,0.0,0.0,0.0
309179,-0.007326,-0.002681,0.001211,0.0,0.0,0.0,0.0,0.0,0.0,3.0,0.333506,0.32268,0.310447,0.334726,6e-06,0.035125,-0.0,-4.1e-05,-0.002594,0.0,0.0,0.0,0.0,0.0,0.0,0.0
309199,-0.007571,-0.003169,0.001209,0.0,0.0,0.0,0.0,0.0,0.0,3.0,0.335042,0.324178,0.309923,0.332222,5e-06,0.035068,-0.0,-4.1e-05,-0.003292,0.0,0.0,0.0,0.0,0.0,0.0,0.0
309219,-0.007571,-0.003413,0.00133,0.0,0.0,0.0,0.0,0.0,0.0,3.0,0.33243,0.320719,0.308802,0.339092,4e-06,0.034997,-0.0,-4.1e-05,-0.003986,0.0,0.0,0.0,0.0,0.0,0.0,0.0
309239,-0.007572,-0.003779,0.001451,0.0,0.0,0.0,0.0,0.0,0.0,3.0,0.330502,0.322789,0.306716,0.340856,3e-06,0.034912,-0.0,-4.1e-05,-0.004676,0.0,0.0,0.0,0.0,0.0,0.0,0.0
309259,-0.00745,-0.004267,0.001449,0.0,0.0,0.0,0.0,0.0,0.0,3.0,0.327947,0.326158,0.311142,0.336229,3e-06,0.034813,-0.0,-4.1e-05,-0.005362,0.0,0.0,0.0,0.0,0.0,0.0,0.0
309279,-0.00745,-0.004756,0.001447,0.0,0.0,0.0,0.0,0.0,0.0,3.0,0.331859,0.323301,0.312521,0.333886,2e-06,0.034701,-0.0,-4.1e-05,-0.006044,0.0,0.0,0.0,0.0,0.0,0.0,0.0
309299,-0.007573,-0.005244,0.001445,0.0,0.0,0.0,0.0,0.0,0.0,3.0,0.332187,0.326607,0.312562,0.33031,1e-06,0.034575,-0.0,-4.1e-05,-0.00672,0.0,0.0,0.0,0.0,0.0,0.0,0.0
309319,-0.007817,-0.005731,0.001565,0.0,0.0,0.0,0.0,0.0,0.0,3.0,0.327333,0.331636,0.308358,0.333984,0.0,0.034435,-0.0,-4.1e-05,-0.007392,0.0,0.0,0.0,0.0,0.0,0.0,0.0
309339,-0.00794,-0.00622,0.001562,0.0,0.0,0.0,0.0,0.0,0.0,3.0,0.333191,0.327609,0.310107,0.330572,-0.0,0.034322,-0.0,-4.1e-05,-0.007893,0.0,0.0,0.0,0.0,0.0,0.0,0.0
309359,-0.008184,-0.006708,0.00156,0.0,0.0,0.0,0.0,0.0,0.0,3.0,0.332013,0.325873,0.312411,0.331346,-1e-06,0.034116,-0.0,-4e-05,-0.00872,0.0,0.0,0.0,0.0,0.0,0.0,0.0
309379,-0.008307,-0.00744,0.001556,0.0,0.0,0.0,0.0,0.0,0.0,3.0,0.336299,0.327824,0.307818,0.329281,-2e-06,0.033983,-0.0,-4e-05,-0.009212,0.0,0.0,0.0,0.0,0.0,0.0,0.0
309399,-0.008796,-0.007928,0.001552,0.0,0.0,0.0,0.0,0.0,0.0,3.0,0.33807,0.324713,0.305738,0.332394,-3e-06,0.033745,-0.0,-4e-05,-0.010025,0.0,0.0,0.0,0.0,0.0,0.0,0.0
309419,-0.00904,-0.008782,0.001547,0.0,0.0,0.0,0.0,0.0,0.0,3.0,0.338357,0.331702,0.305588,0.32526,-4e-06,0.033539,-0.0,-4e-05,-0.010669,0.0,0.0,0.0,0.0,0.0,0.0,0.0
309439,-0.009041,-0.00927,0.001667,0.0,0.0,0.0,0.0,0.0,0.0,3.0,0.327424,0.330541,0.307809,0.335464,-5e-06,0.033321,-0.0,-4e-05,-0.011147,0.0,0.0,0.0,0.0,0.0,0.0,0.0
309459,-0.009286,-0.00988,0.001663,0.0,0.0,0.0,0.0,0.0,0.0,3.0,0.332543,0.322439,0.310828,0.335566,-5e-06,0.033149,-0.0,-3.9e-05,-0.011779,0.0,0.0,0.0,0.0,0.0,0.0,0.0
309479,-0.009531,-0.010734,0.001658,0.0,0.0,0.0,0.0,0.0,0.0,3.0,0.330231,0.330152,0.306572,0.334207,-6e-06,0.032847,-0.0,-3.9e-05,-0.012559,0.0,0.0,0.0,0.0,0.0,0.0,0.0
309499,-0.009775,-0.011467,0.001531,0.0,0.0,0.0,0.0,0.0,0.0,3.0,0.335239,0.327289,0.311572,0.327443,-7e-06,0.032656,-0.0,-3.9e-05,-0.013022,0.0,0.0,0.0,0.0,0.0,0.0,0.0
309519,-0.01002,-0.012199,0.001526,0.0,0.0,0.0,0.0,0.0,0.0,3.0,0.3337,0.33155,0.310631,0.325601,-8e-06,0.032323,-0.0,-3.9e-05,-0.013784,0.0,0.0,0.0,0.0,0.0,0.0,0.0
309539,-0.010142,-0.012565,0.001523,0.0,0.0,0.0,0.0,0.0,0.0,3.0,0.339773,0.322406,0.311091,0.327997,-8e-06,0.032114,-0.0,-3.8e-05,-0.014236,0.0,0.0,0.0,0.0,0.0,0.0,0.0
309559,-0.010265,-0.013298,0.001519,0.0,0.0,0.0,0.0,0.0,0.0,3.0,0.330957,0.329466,0.317133,0.324359,-9e-06,0.031751,-0.0,-3.8e-05,-0.014979,0.0,0.0,0.0,0.0,0.0,0.0,0.0
309579,-0.010753,-0.013419,0.001515,0.0,0.0,0.0,0.0,0.0,0.0,3.0,0.33322,0.325466,0.311257,0.331591,-1e-05,0.031524,-0.0,-3.8e-05,-0.015419,0.0,0.0,0.0,0.0,0.0,0.0,0.0
309599,-0.010875,-0.013908,0.001512,0.0,0.0,0.0,0.0,0.0,0.0,3.0,0.337692,0.325344,0.31332,0.325183,-1.1e-05,0.031131,-0.0,-3.7e-05,-0.016142,0.0,0.0,0.0,0.0,0.0,0.0,0.0
309619,-0.01112,-0.014029,0.001631,0.0,0.0,0.0,0.0,0.0,0.0,3.0,0.327983,0.330842,0.301667,0.339973,-1.2e-05,0.030804,-0.0,-3.7e-05,-0.016711,0.0,0.0,0.0,0.0,0.0,0.0,0.0
309639,-0.011121,-0.014395,0.001629,0.0,0.0,0.0,0.0,0.0,0.0,3.0,0.326144,0.333746,0.304196,0.33672,-1.2e-05,0.030465,-0.0,-3.7e-05,-0.017272,0.0,0.0,0.0,0.0,0.0,0.0,0.0
309659,-0.011242,-0.014884,0.001503,0.0,0.0,0.0,0.0,0.0,0.0,3.0,0.335066,0.323738,0.314218,0.328653,-1.3e-05,0.030204,-0.0,-3.6e-05,-0.017686,0.0,0.0,0.0,0.0,0.0,0.0,0.0
309679,-0.011365,-0.01525,0.0015,0.0,0.0,0.0,0.0,0.0,0.0,3.0,0.331799,0.326416,0.312444,0.330997,-1.4e-05,0.029846,-0.0,-3.6e-05,-0.018231,-0.0,0.0,0.0,0.0,0.0,0.0,0.0
309699,-0.01112,-0.015617,0.001378,0.0,0.0,0.0,0.0,0.0,0.0,3.0,0.337939,0.320397,0.320084,0.323291,-1.4e-05,0.029384,-0.0,-3.5e-05,-0.018899,-0.0,0.0,0.0,0.0,0.0,0.0,0.0
309719,-0.011242,-0.015861,0.001376,0.0,0.0,0.0,0.0,0.0,0.0,3.0,0.336454,0.328815,0.305286,0.330427,-1.5e-05,0.029098,-0.0,-3.5e-05,-0.019293,-0.0,0.0,0.0,0.0,0.0,0.0,0.0
309739,-0.011242,-0.016105,0.001375,0.0,0.0,0.0,0.0,0.087266,0.0,3.0,0.338387,0.499664,0.31681,0.15,-2.3e-05,0.033037,-0.000249,0.000172,0.667622,-0.0359,0.0,0.0,0.0,0.0,0.0,0.0
309759,-0.011243,-0.016349,0.001495,0.0,0.0,0.0,0.0,0.087266,0.0,3.0,0.323092,0.368841,0.307127,0.296737,-3.9e-05,0.047378,-0.000955,0.001265,0.682949,-0.032733,0.0,0.0,0.0,0.0,0.0,0.0
309779,-0.01125,-0.015856,0.002353,0.0,0.0,0.0,0.0,0.087266,0.0,3.0,0.307139,0.368796,0.27918,0.337644,-4e-05,0.059716,-0.001587,0.002023,0.507811,-0.029527,0.0,0.0,0.0,0.0,0.0,0.0
309799,-0.011859,-0.013534,0.002606,0.0,0.0,0.0,0.0,0.087266,0.0,3.0,0.3289,0.333973,0.299457,0.337918,-3.2e-05,0.068678,-0.002149,0.002346,0.355751,-0.025328,0.0,0.0,0.0,0.0,0.0,0.0
309819,-0.012097,-0.009996,0.002259,0.0,0.0,0.0,0.0,0.087266,0.0,3.0,0.349001,0.294706,0.325432,0.329849,-1.8e-05,0.074928,-0.002624,0.002359,0.250805,-0.021021,0.0,0.0,0.0,0.0,0.0,0.0
309839,-0.012212,-0.004995,0.001679,0.0,0.0,0.0,0.0,0.087266,0.0,3.0,0.346611,0.28356,0.322689,0.34397,-6e-06,0.078415,-0.002926,0.002247,0.199975,-0.018143,0.0,0.0,0.0,0.0,0.0,0.0
309859,-0.01294,0.000741,0.001348,0.0,0.0,0.0,0.0,0.087266,0.0,3.0,0.347034,0.275826,0.308214,0.361622,1.4e-05,0.082836,-0.003337,0.001954,0.148776,-0.013954,0.0,0.0,0.0,0.0,0.0,0.0
309879,-0.013302,0.006722,0.001265,0.0,0.0,0.0,0.0,0.087266,0.0,3.0,0.337937,0.280717,0.305529,0.368735,3e-05,0.085623,-0.003595,0.001688,0.12603,-0.011085,0.0,0.0,0.0,0.0,0.0,0.0
309899,-0.013786,0.012338,0.001428,0.0,0.0,0.0,0.0,0.087266,0.0,3.0,0.333094,0.283421,0.304363,0.372018,4.1e-05,0.087455,-0.003752,0.001488,0.1152,-0.00918,0.0,0.0,0.0,0.0,0.0,0.0
309919,-0.013905,0.016854,0.001338,0.0,0.0,0.0,0.0,0.087266,0.0,3.0,0.345117,0.292772,0.309499,0.349952,5.7e-05,0.090211,-0.003954,0.00117,0.10419,-0.006418,0.0,0.0,0.0,0.0,0.0,0.0
309939,-0.014149,0.020272,0.001242,0.0,0.0,0.0,0.0,0.087266,0.0,3.0,0.347028,0.305094,0.308792,0.338476,6.8e-05,0.092253,-0.004068,0.000937,0.099138,-0.004535,0.0,0.0,0.0,0.0,0.0,0.0
309959,-0.014393,0.022835,0.001141,0.0,0.0,0.0,0.0,0.087266,0.0,3.0,0.342505,0.313815,0.307047,0.336921,7.8e-05,0.09421,-0.004146,0.000724,0.095948,-0.002902,0.0,0.0,0.0,0.0,0.0,0.0
309979,-0.014271,0.024299,0.001028,0.0,0.0,0.0,0.0,0.087266,0.0,3.0,0.342753,0.322166,0.314606,0.321713,8.6e-05,0.096112,-0.004193,0.000531,0.093845,-0.00149,0.0,0.0,0.0,0.0,0.0,0.0
309999,-0.014027,0.024543,0.001027,0.0,0.0,0.0,0.0,0.087266,0.0,3.0,0.339952,0.335711,0.315144,0.309972,9.4e-05,0.097977,-0.004214,0.000357,0.09237,-0.00027,0.0,0.0,0.0,0.0,0.0,0.0
310019,-0.014151,0.024176,0.000904,0.0,0.0,0.0,0.0,0.087266,0.0,3.0,0.334401,0.344107,0.311056,0.310823,9.8e-05,0.099358,-0.004214,0.000238,0.091508,0.000532,0.0,0.0,0.0,0.0,0.0,0.0
310039,-0.014153,0.023198,0.000775,0.0,0.0,0.0,0.0,0.087266,0.0,3.0,0.343438,0.342528,0.315521,0.297558,0.000105,0.101633,-0.004188,6e-05,0.090332,0.001682,0.0,0.0,0.0,0.0,0.0,0.0
310059,-0.014153,0.02271,0.000771,0.0,0.0,0.0,0.0,0.087266,0.0,3.0,0.335706,0.345906,0.309414,0.308935,0.000109,0.103434,-0.004148,-6.5e-05,0.089514,0.002453,0.0,0.0,0.0,0.0,0.0,0.0
310079,-0.014276,0.022709,0.000651,0.0,0.0,0.0,0.0,0.087266,0.0,3.0,0.336424,0.341851,0.309534,0.312668,0.000113,0.105218,-0.004093,-0.000177,0.088743,0.003111,0.0,0.0,0.0,0.0,0.0,0.0
310099,-0.014644,0.022952,0.000534,0.0,0.0,0.0,0.0,0.087266,0.0,3.0,0.343306,0.337677,0.311056,0.30808,0.000116,0.106987,-0.004026,-0.000277,0.087986,0.003669,0.0,0.0,0.0,0.0,0.0,0.0
310119,-0.014889,0.023806,0.000422,0.0,0.0,0.0,0.0,0.087266,0.0,3.0,0.341826,0.32889,0.317067,0.313338,0.000118,0.108741,-0.003948,-0.000366,0.087224,0.00414,0.0,0.0,0.0,0.0,0.0,0.0
310139,-0.014889,0.025393,0.000433,0.0,0.0,0.0,0.0,0.087266,0.0,3.0,0.339626,0.326383,0.313148,0.322243,0.000119,0.110047,-0.003884,-0.000426,0.086642,0.004443,0.0,0.0,0.0,0.0,0.0,0.0
310159,-0.015012,0.027223,0.000327,0.0,0.0,0.0,0.0,0.087266,0.0,3.0,0.333379,0.324868,0.311282,0.33199,0.00012,0.111774,-0.003792,-0.000499,0.085848,0.004786,0.0,0.0,0.0,0.0,0.0,0.0
310179,-0.015012,0.029544,0.000344,0.0,0.0,0.0,0.0,0.087266,0.0,3.0,0.332824,0.324055,0.301474,0.341923,0.000121,0.113485,-0.003693,-0.000562,0.085028,0.005068,0.0,0.0,0.0,0.0,0.0,0.0
310199,-0.015015,0.031983,0.000118,0.0,0.0,0.0,0.0,0.087266,0.0,3.0,0.3361,0.313337,0.313094,0.338416,0.000121,0.1156,-0.003562,-0.000631,0.083963,0.005348,0.0,0.0,0.0,0.0,0.0,0.0
310219,-0.014773,0.034423,1e-05,0.0,0.0,0.0,0.0,0.087266,0.0,3.0,0.334651,0.313791,0.313794,0.338807,0.000121,0.117272,-0.003453,-0.000679,0.083078,0.005521,0.0,0.0,0.0,0.0,0.0,0.0
310239,-0.014776,0.036743,-9.5e-05,0.0,0.0,0.0,0.0,0.087266,0.0,3.0,0.338951,0.315986,0.312739,0.333445,0.00012,0.118927,-0.003341,-0.000721,0.082164,0.005655,0.0,0.0,0.0,0.0,0.0,0.0
310259,-0.0149,0.039427,-0.000195,0.0,0.0,0.0,0.0,0.087266,0.0,3.0,0.344165,0.30686,0.31415,0.335072,0.000119,0.120563,-0.003226,-0.000757,0.081221,0.005754,0.0,0.0,0.0,0.0,0.0,0.0
310279,-0.014901,0.041627,-0.000178,0.0,0.0,0.0,0.0,0.087266,0.0,3.0,0.341618,0.31529,0.30828,0.335389,0.000118,0.122181,-0.003109,-0.000788,0.080248,0.005824,0.0,0.0,0.0,0.0,0.0,0.0
310299,-0.014781,0.043457,-0.00029,0.0,0.0,0.0,0.0,0.087266,0.0,3.0,0.344397,0.316433,0.314421,0.325736,0.000116,0.123778,-0.002991,-0.000815,0.079246,0.005868,0.0,0.0,0.0,0.0,0.0,0.0
310319,-0.014662,0.045286,-0.000401,0.0,0.0,0.0,0.0,0.087266,0.0,3.0,0.33797,0.321628,0.308441,0.333039,0.000115,0.124963,-0.002902,-0.000833,0.078475,0.005886,0.0,0.0,0.0,0.0,0.0,0.0
310339,-0.014662,0.046507,-0.000392,0.0,0.0,0.0,0.0,0.087266,0.0,3.0,0.336481,0.323635,0.309679,0.331508,0.000112,0.126912,-0.002754,-0.000857,0.077156,0.005891,0.0,0.0,0.0,0.0,0.0,0.0
310359,-0.014666,0.047607,-0.000506,0.0,0.0,0.0,0.0,0.087266,0.0,3.0,0.336786,0.324616,0.310607,0.32939,0.00011,0.128447,-0.002635,-0.000873,0.076069,0.005875,0.0,0.0,0.0,0.0,0.0,0.0
310379,-0.014788,0.048583,-0.000496,0.0,0.0,0.0,0.0,0.087266,0.0,3.0,0.337952,0.326817,0.307219,0.32912,0.000108,0.12996,-0.002516,-0.000886,0.074955,0.005845,0.0,0.0,0.0,0.0,0.0,0.0
310399,-0.014791,0.04907,-0.000615,0.0,0.0,0.0,0.0,0.087266,0.0,3.0,0.336231,0.33036,0.313819,0.321135,0.000106,0.13108,-0.002428,-0.000894,0.074102,0.005814,0.0,0.0,0.0,0.0,0.0,0.0
310419,-0.015038,0.04968,-0.000726,0.0,0.0,0.0,0.0,0.087266,0.0,3.0,0.339414,0.332357,0.310874,0.321244,0.000103,0.132553,-0.002311,-0.000902,0.072942,0.005762,0.0,0.0,0.0,0.0,0.0,0.0
310439,-0.0148,0.05041,-0.000971,0.0,0.0,0.0,0.0,0.087266,0.0,3.0,0.342207,0.323168,0.322702,0.313155,0.0001,0.134362,-0.002166,-0.000909,0.071456,0.005684,0.0,0.0,0.0,0.0,0.0,0.0
310459,-0.014926,0.051385,-0.001083,0.0,0.0,0.0,0.0,0.087266,0.0,3.0,0.344544,0.321416,0.316949,0.318196,9.7e-05,0.135782,-0.002052,-0.000913,0.070239,0.005613,0.0,0.0,0.0,0.0,0.0,0.0
310479,-0.014927,0.052365,-0.001076,0.0,0.0,0.0,0.0,0.087266,0.0,3.0,0.336016,0.327626,0.312033,0.325865,9.4e-05,0.137177,-0.001939,-0.000914,0.068998,0.005534,0.0,0.0,0.0,0.0,0.0,0.0
310499,-0.014931,0.053828,-0.001187,0.0,0.0,0.0,0.0,0.087266,0.0,3.0,0.34125,0.322068,0.310262,0.327544,9.1e-05,0.138548,-0.001828,-0.000914,0.067733,0.00545,0.0,0.0,0.0,0.0,0.0,0.0
310519,-0.014812,0.05517,-0.001303,0.0,0.0,0.0,0.0,0.087266,0.0,3.0,0.338161,0.322067,0.310826,0.330251,8.8e-05,0.139893,-0.001718,-0.000913,0.066444,0.00536,0.0,0.0,0.0,0.0,0.0,0.0
310539,-0.014577,0.056758,-0.001543,0.0,0.0,0.0,0.0,0.087266,0.0,3.0,0.341537,0.31559,0.316669,0.327452,8.6e-05,0.140885,-0.001637,-0.00091,0.065463,0.00529,0.0,0.0,0.0,0.0,0.0,0.0
310559,-0.014581,0.058465,-0.001653,0.0,0.0,0.0,0.0,0.087266,0.0,3.0,0.342541,0.315823,0.31205,0.330513,8.3e-05,0.142184,-0.001531,-0.000906,0.064136,0.005194,0.0,0.0,0.0,0.0,0.0,0.0
310579,-0.014468,0.060172,-0.001888,0.0,0.0,0.0,0.0,0.087266,0.0,3.0,0.343208,0.305662,0.32281,0.328964,7.9e-05,0.143771,-0.001401,-0.0009,0.062447,0.005069,0.0,0.0,0.0,0.0,0.0,0.0
310599,-0.014352,0.061883,-0.002002,0.0,0.0,0.0,0.0,0.087266,0.0,3.0,0.343714,0.310353,0.321677,0.325214,7.5e-05,0.145009,-0.001299,-0.000893,0.061072,0.004967,0.0,0.0,0.0,0.0,0.0,0.0
310619,-0.014479,0.063712,-0.002108,0.0,0.0,0.0,0.0,0.087266,0.0,3.0,0.34539,0.309743,0.310669,0.336075,7.3e-05,0.14592,-0.001224,-0.000888,0.060028,0.004889,0.0,0.0,0.0,0.0,0.0,0.0
310639,-0.014485,0.065545,-0.002217,0.0,0.0,0.0,0.0,0.087266,0.0,3.0,0.347666,0.308428,0.314638,0.329514,6.8e-05,0.14711,-0.001126,-0.00088,0.058619,0.004784,0.0,0.0,0.0,0.0,0.0,0.0
310659,-0.014125,0.067253,-0.002339,0.0,0.0,0.0,0.0,0.087266,0.0,3.0,0.339962,0.317084,0.313494,0.330679,6.5e-05,0.148558,-0.001006,-0.000869,0.056831,0.00465,0.0,0.0,0.0,0.0,0.0,0.0
310679,-0.013766,0.069209,-0.002461,0.0,0.0,0.0,0.0,0.087266,0.0,3.0,0.336775,0.309794,0.314991,0.339198,6.2e-05,0.149683,-0.000913,-0.000859,0.05538,0.004543,0.0,0.0,0.0,0.0,0.0,0.0
310699,-0.013528,0.070795,-0.002581,0.0,0.0,0.0,0.0,0.087266,0.0,3.0,0.336464,0.312032,0.31564,0.336919,5.8e-05,0.15078,-0.000822,-0.000848,0.053912,0.004435,0.0,0.0,0.0,0.0,0.0,0.0
310719,-0.013412,0.072141,-0.002699,0.0,0.0,0.0,0.0,0.087266,0.0,3.0,0.338292,0.31332,0.315695,0.333854,5.5e-05,0.151583,-0.000755,-0.00084,0.0528,0.004355,0.0,0.0,0.0,0.0,0.0,0.0
310739,-0.013174,0.073604,-0.002821,0.0,0.0,0.0,0.0,0.087266,0.0,3.0,0.343454,0.309645,0.321456,0.326371,5.2e-05,0.152628,-0.000668,-0.000829,0.051304,0.004247,0.0,0.0,0.0,0.0,0.0,0.0
310759,-0.012937,0.074946,-0.002943,0.0,0.0,0.0,0.0,0.087266,0.0,3.0,0.338774,0.310959,0.320065,0.331418,4.8e-05,0.153892,-0.000561,-0.000814,0.049411,0.004112,0.0,0.0,0.0,0.0,0.0,0.0
310779,-0.013066,0.076169,-0.003054,0.0,0.0,0.0,0.0,0.087266,0.0,3.0,0.341548,0.312503,0.316719,0.33029,4.4e-05,0.154869,-0.000479,-0.000801,0.04788,0.004005,0.0,0.0,0.0,0.0,0.0,0.0
310799,-0.013072,0.077388,-0.003168,0.0,0.0,0.0,0.0,0.087266,0.0,3.0,0.347657,0.309831,0.316653,0.326317,4.1e-05,0.155815,-0.000399,-0.000788,0.046335,0.003898,0.0,0.0,0.0,0.0,0.0,0.0
310819,-0.012957,0.07849,-0.003289,0.0,0.0,0.0,0.0,0.087266,0.0,3.0,0.340032,0.317714,0.31268,0.330765,3.8e-05,0.156504,-0.00034,-0.000779,0.045168,0.003819,0.0,0.0,0.0,0.0,0.0,0.0
310839,-0.012963,0.079709,-0.003403,0.0,0.0,0.0,0.0,0.087266,0.0,3.0,0.340539,0.31692,0.31235,0.331294,3.4e-05,0.157395,-0.000263,-0.000765,0.0436,0.003713,0.0,0.0,0.0,0.0,0.0,0.0
310859,-0.012844,0.081173,-0.003399,0.0,0.0,0.0,0.0,0.087266,0.0,3.0,0.340154,0.313842,0.31311,0.333855,3.1e-05,0.158256,-0.000189,-0.000751,0.04202,0.003609,0.0,0.0,0.0,0.0,0.0,0.0
310879,-0.012851,0.082519,-0.003513,0.0,0.0,0.0,0.0,0.087266,0.0,3.0,0.342197,0.313952,0.312697,0.332023,2.7e-05,0.159084,-0.000117,-0.000737,0.040429,0.003505,0.0,0.0,0.0,0.0,0.0,0.0
310899,-0.012859,0.083982,-0.003626,0.0,0.0,0.0,0.0,0.087266,0.0,3.0,0.341247,0.311898,0.314328,0.333393,2.3e-05,0.160075,-2.9e-05,-0.000719,0.038425,0.003378,0.0,0.0,0.0,0.0,0.0,0.0
310919,-0.012623,0.08545,-0.003751,0.0,0.0,0.0,0.0,0.087266,0.0,3.0,0.340233,0.309759,0.320623,0.33243,2e-05,0.160645,2.2e-05,-0.000709,0.037216,0.003302,0.0,0.0,0.0,0.0,0.0,0.0
310939,-0.012382,0.087036,-0.003751,0.0,0.0,0.0,0.0,0.087266,0.0,3.0,0.347999,0.307193,0.318179,0.326917,1.7e-05,0.161377,8.8e-05,-0.000694,0.035594,0.003202,0.0,0.0,0.0,0.0,0.0,0.0
310959,-0.012396,0.088626,-0.003987,0.0,0.0,0.0,0.0,0.087266,0.0,3.0,0.342479,0.301732,0.318995,0.336817,1.3e-05,0.162247,0.000168,-0.000675,0.033556,0.003078,0.0,0.0,0.0,0.0,0.0,0.0
310979,-0.012154,0.09009,-0.003989,0.0,0.0,0.0,0.0,0.087266,0.0,3.0,0.34162,0.308006,0.315389,0.33554,9e-06,0.162906,0.00023,-0.000661,0.031916,0.002981,0.0,0.0,0.0,0.0,0.0,0.0
310999,-0.01192,0.091802,-0.004113,0.0,0.0,0.0,0.0,0.087266,0.0,3.0,0.341231,0.30762,0.311749,0.339568,7e-06,0.163378,0.000275,-0.000649,0.030682,0.002909,0.0,0.0,0.0,0.0,0.0,0.0
311019,-0.011807,0.093393,-0.004233,0.0,0.0,0.0,0.0,0.087266,0.0,3.0,0.346297,0.299679,0.322223,0.331567,3e-06,0.163979,0.000333,-0.000634,0.029031,0.002814,0.0,0.0,0.0,0.0,0.0,0.0
311039,-0.011572,0.094978,-0.004358,0.0,0.0,0.0,0.0,0.087266,0.0,3.0,0.345698,0.298238,0.323426,0.33229,-1e-06,0.164684,0.000403,-0.000615,0.026958,0.002697,0.0,0.0,0.0,0.0,0.0,0.0
311059,-0.011454,0.096569,-0.004356,0.0,0.0,0.0,0.0,0.087266,0.0,3.0,0.341119,0.30376,0.314671,0.340406,-3e-06,0.165083,0.000444,-0.000604,0.025711,0.002628,0.0,0.0,0.0,0.0,0.0,0.0
311079,-0.011456,0.097789,-0.004349,0.0,0.0,0.0,0.0,0.087266,0.0,3.0,0.339633,0.308731,0.31498,0.337291,-7e-06,0.165584,0.000496,-0.000589,0.024045,0.002537,0.0,0.0,0.0,0.0,0.0,0.0
311099,-0.011587,0.099013,-0.004459,0.0,0.0,0.0,0.0,0.087266,0.0,3.0,0.340141,0.303675,0.31864,0.337846,-1e-05,0.166053,0.000547,-0.000573,0.022374,0.002448,0.0,0.0,0.0,0.0,0.0,0.0
311119,-0.011595,0.099987,-0.004576,0.0,0.0,0.0,0.0,0.087266,0.0,3.0,0.345193,0.313994,0.311969,0.329502,-1.4e-05,0.166591,0.000608,-0.000554,0.020282,0.002338,0.0,0.0,0.0,0.0,0.0,0.0
311139,-0.011482,0.101212,-0.004699,0.0,0.0,0.0,0.0,0.087266,0.0,3.0,0.345283,0.308076,0.316534,0.330595,-1.7e-05,0.166984,0.000655,-0.000539,0.018606,0.002252,0.0,0.0,0.0,0.0,0.0,0.0
311159,-0.011369,0.102309,-0.004821,0.0,0.0,0.0,0.0,0.087266,0.0,3.0,0.343921,0.301648,0.319016,0.335387,-2e-05,0.167344,0.0007,-0.000524,0.016928,0.002167,0.0,0.0,0.0,0.0,0.0,0.0
311179,-0.011493,0.103168,-0.004811,0.0,0.0,0.0,0.0,0.087266,0.0,3.0,0.344783,0.312368,0.310185,0.333078,-2.3e-05,0.167591,0.000732,-0.000513,0.01567,0.002105,0.0,0.0,0.0,0.0,0.0,0.0
311199,-0.011373,0.104022,-0.004813,0.0,0.0,0.0,0.0,0.087266,0.0,3.0,0.341513,0.310457,0.314078,0.334658,-2.6e-05,0.167892,0.000774,-0.000498,0.013991,0.002023,0.0,0.0,0.0,0.0,0.0,0.0
311219,-0.011381,0.104875,-0.00493,0.0,0.0,0.0,0.0,0.087266,0.0,3.0,0.343323,0.308685,0.313817,0.334623,-3e-05,0.168221,0.000825,-0.000479,0.011894,0.001922,0.0,0.0,0.0,0.0,0.0,0.0
311239,-0.011269,0.105856,-0.005055,0.0,0.0,0.0,0.0,0.087266,0.0,3.0,0.341887,0.307047,0.316534,0.335062,-3.3e-05,0.168393,0.000854,-0.000468,0.010636,0.001863,0.0,0.0,0.0,0.0,0.0,0.0
311259,-0.011155,0.106831,-0.005179,0.0,0.0,0.0,0.0,0.087266,0.0,3.0,0.341767,0.307338,0.319392,0.332249,-3.5e-05,0.168593,0.000891,-0.000453,0.008961,0.001786,0.0,0.0,0.0,0.0,0.0,0.0
311279,-0.011043,0.107812,-0.005303,0.0,0.0,0.0,0.0,0.087266,0.0,3.0,0.3419,0.305658,0.317362,0.33551,-3.9e-05,0.168796,0.000935,-0.000435,0.006871,0.001691,0.0,0.0,0.0,0.0,0.0,0.0
311299,-0.011045,0.108666,-0.005299,0.0,0.0,0.0,0.0,0.087266,0.0,3.0,0.339824,0.308709,0.318645,0.333726,-4.1e-05,0.168893,0.00096,-0.000424,0.005619,0.001635,0.0,0.0,0.0,0.0,0.0,0.0
311319,-0.011053,0.109274,-0.005418,0.0,0.0,0.0,0.0,0.087266,0.0,3.0,0.343465,0.300759,0.321686,0.334114,-4.4e-05,0.168993,0.000993,-0.000409,0.003954,0.001561,0.0,0.0,0.0,0.0,0.0,0.0
311339,-0.010941,0.110134,-0.005544,0.0,0.0,0.0,0.0,0.087266,0.0,3.0,0.346014,0.309628,0.314483,0.330328,-4.7e-05,0.169071,0.001032,-0.000391,0.001878,0.001472,0.0,0.0,0.0,0.0,0.0,0.0
311359,-0.010699,0.110988,-0.005553,0.0,0.0,0.0,0.0,0.087266,0.0,3.0,0.341286,0.306797,0.317458,0.335044,-5e-05,0.169096,0.001061,-0.000377,0.000223,0.001402,0.0,0.0,0.0,0.0,0.0,0.0
311379,-0.010709,0.111969,-0.005672,0.0,0.0,0.0,0.0,0.087266,0.0,3.0,0.349939,0.299314,0.321568,0.328608,-5.3e-05,0.169088,0.001089,-0.000363,-0.001426,0.001333,0.0,0.0,0.0,0.0,0.0,0.0
311399,-0.010711,0.112944,-0.005666,0.0,0.0,0.0,0.0,0.087266,0.0,3.0,0.350151,0.302031,0.315875,0.331418,-5.6e-05,0.169048,0.001116,-0.00035,-0.003068,0.001266,0.0,0.0,0.0,0.0,0.0,0.0
311419,-0.010477,0.113798,-0.005799,0.0,0.0,0.0,0.0,0.087266,0.0,3.0,0.337629,0.302704,0.316111,0.343467,-5.8e-05,0.168995,0.001135,-0.000339,-0.004295,0.001217,0.0,0.0,0.0,0.0,0.0,0.0
311439,-0.010115,0.115025,-0.005815,0.0,0.0,0.0,0.0,0.087266,0.0,3.0,0.342498,0.300177,0.318096,0.338956,-6e-05,0.168897,0.001159,-0.000326,-0.005924,0.001152,0.0,0.0,0.0,0.0,0.0,0.0
311459,-0.010002,0.115878,-0.00594,0.0,0.0,0.0,0.0,0.087266,0.0,3.0,0.349328,0.295793,0.323546,0.330408,-6.3e-05,0.168729,0.001187,-0.000309,-0.007949,0.001073,0.0,0.0,0.0,0.0,0.0,0.0
311479,-0.009762,0.116861,-0.005951,0.0,0.0,0.0,0.0,0.087266,0.0,3.0,0.342849,0.300954,0.317641,0.338356,-6.6e-05,0.168558,0.001208,-0.000296,-0.009558,0.001012,0.0,0.0,0.0,0.0,0.0,0.0
311499,-0.00952,0.117593,-0.005962,0.0,0.0,0.0,0.0,0.087266,0.0,3.0,0.340828,0.302502,0.319954,0.336944,-6.8e-05,0.168355,0.001229,-0.000283,-0.011158,0.000951,0.0,0.0,0.0,0.0,0.0,0.0
311519,-0.009279,0.118447,-0.005973,0.0,0.0,0.0,0.0,0.087266,0.0,3.0,0.342389,0.300541,0.317616,0.339197,-7.1e-05,0.168181,0.001243,-0.000274,-0.012351,0.000907,0.0,0.0,0.0,0.0,0.0,0.0
311539,-0.009044,0.118942,-0.006109,0.0,0.0,0.0,0.0,0.087266,0.0,3.0,0.348691,0.296371,0.325535,0.328649,-7.2e-05,0.167922,0.001261,-0.000261,-0.013932,0.000849,0.0,0.0,0.0,0.0,0.0,0.0
311559,-0.008803,0.119796,-0.00612,0.0,0.0,0.0,0.0,0.087266,0.0,3.0,0.345222,0.303236,0.314913,0.336458,-7.5e-05,0.167632,0.001278,-0.000249,-0.015502,0.000793,0.0,0.0,0.0,0.0,0.0,0.0
311579,-0.008562,0.120535,-0.006133,0.0,0.0,0.0,0.0,0.087266,0.0,3.0,0.344834,0.306132,0.314762,0.33446,-7.7e-05,0.16731,0.001293,-0.000236,-0.01706,0.000737,0.0,0.0,0.0,0.0,0.0,0.0
311599,-0.008564,0.121266,-0.00613,0.0,0.0,0.0,0.0,0.087266,0.0,3.0,0.344166,0.300368,0.320322,0.335014,-8e-05,0.166864,0.001311,-0.000222,-0.01899,0.00067,0.0,0.0,0.0,0.0,0.0,0.0
311619,-0.008565,0.121875,-0.006127,0.0,0.0,0.0,0.0,0.087266,0.0,3.0,0.34866,0.301299,0.318057,0.331609,-8.2e-05,0.166473,0.001325,-0.00021,-0.020519,0.000618,0.0,0.0,0.0,0.0,0.0,0.0
311639,-0.008324,0.122615,-0.00614,0.0,0.0,0.0,0.0,0.087266,0.0,3.0,0.33778,0.304879,0.309502,0.347273,-8.4e-05,0.16616,0.001334,-0.000201,-0.021657,0.00058,0.0,0.0,0.0,0.0,0.0,0.0
