time_ms,roll,pitch,yaw,x,y,z,reference_roll,reference_pitch,reference_yaw,reference_throttle,throttle_1,throttle_2,throttle_3,throttle_4,roll_predicted,pitch_predicted,yaw_predicted,roll_rate_predicted,pitch_rate_predicted,yaw_rate_predicted,value1,value2,value3,value4,value5,value6
230059,-0.008784,-0.024051,-0.000472,0.0,0.0,0.0,0.0,0.0,0.0,3.0,0.339712,0.328537,0.318746,0.31437,-0.002921,0.055767,1e-05,-0.000474,-0.024921,-5.1e-05,0.0,0.0,0.0,0.0,0.0,0.0
230079,-0.008662,-0.024051,-0.000471,0.0,0.0,0.0,0.0,0.0,0.0,3.0,0.339875,0.334563,0.311772,0.314711,-0.00293,0.055261,1.1e-05,-0.000414,-0.025954,-5.6e-05,0.0,0.0,0.0,0.0,0.0,0.0
230099,-0.008785,-0.023685,-0.00047,0.0,0.0,0.0,0.0,0.0,0.0,3.0,0.342461,0.330234,0.317452,0.310777,-0.002938,0.054735,1.1e-05,-0.000353,-0.026973,-6e-05,0.0,0.0,0.0,0.0,0.0,0.0
230119,-0.008664,-0.023684,-0.000347,0.0,0.0,0.0,0.0,0.0,0.0,3.0,0.32952,0.338474,0.309805,0.323453,-0.002944,0.054188,1.2e-05,-0.000293,-0.027978,-6.4e-05,0.0,0.0,0.0,0.0,0.0,0.0
230139,-0.008909,-0.023561,-0.000227,0.0,0.0,0.0,0.0,0.0,0.0,3.0,0.341208,0.331561,0.310687,0.317521,-0.00295,0.053621,1.2e-05,-0.000233,-0.028968,-6.8e-05,0.0,0.0,0.0,0.0,0.0,0.0
230159,-0.008787,-0.023317,-0.000225,0.0,0.0,0.0,0.0,0.0,0.0,3.0,0.338851,0.333527,0.308397,0.320208,-0.002954,0.053034,1.2e-05,-0.000173,-0.029943,-7.2e-05,0.0,0.0,0.0,0.0,0.0,0.0
230179,-0.008789,-0.023195,-0.000102,0.0,0.0,0.0,0.0,0.0,0.0,3.0,0.337594,0.332166,0.31481,0.316795,-0.002957,0.052428,1.3e-05,-0.000113,-0.030903,-7.6e-05,0.0,0.0,0.0,0.0,0.0,0.0
230199,-0.008789,-0.022829,-0.0001,0.0,0.0,0.0,0.0,0.0,0.0,3.0,0.342906,0.330451,0.307454,0.319921,-0.002959,0.051803,1.3e-05,-5.3e-05,-0.031847,-8e-05,0.0,0.0,0.0,0.0,0.0,0.0
230219,-0.009155,-0.022584,-0.000103,0.0,0.0,0.0,0.0,0.0,0.0,3.0,0.338369,0.33307,0.306574,0.32292,-0.002959,0.051159,1.3e-05,7e-06,-0.032776,-8.4e-05,0.0,0.0,0.0,0.0,0.0,0.0
230239,-0.009157,-0.02234,2e-05,0.0,0.0,0.0,0.0,0.0,0.0,3.0,0.331116,0.336409,0.304503,0.328874,-0.002959,0.050496,1.3e-05,6.6e-05,-0.033688,-8.8e-05,0.0,0.0,0.0,0.0,0.0,0.0
230259,-0.009402,-0.021973,0.000141,0.0,0.0,0.0,0.0,0.0,0.0,3.0,0.339367,0.330581,0.306099,0.32487,-0.002957,0.049816,1.4e-05,0.000126,-0.034583,-9.2e-05,0.0,0.0,0.0,0.0,0.0,0.0
230279,-0.009403,-0.021484,0.000265,0.0,0.0,0.0,0.0,0.0,0.0,3.0,0.332072,0.33642,0.305192,0.32727,-0.002954,0.049117,1.4e-05,0.000185,-0.035462,-9.5e-05,0.0,0.0,0.0,0.0,0.0,0.0
230299,-0.009527,-0.021239,0.000387,0.0,0.0,0.0,0.0,0.0,0.0,3.0,0.33896,0.332115,0.311965,0.318156,-0.00295,0.048402,1.4e-05,0.000243,-0.036323,-9.9e-05,0.0,0.0,0.0,0.0,0.0,0.0
230319,-0.009527,-0.020751,0.00039,0.0,0.0,0.0,0.0,0.0,0.0,3.0,0.342708,0.330849,0.306734,0.320402,-0.002944,0.047669,1.4e-05,0.000302,-0.037167,-0.000102,0.0,0.0,0.0,0.0,0.0,0.0
230339,-0.009772,-0.020262,0.000512,0.0,0.0,0.0,0.0,0.0,0.0,3.0,0.339485,0.337027,0.30828,0.31587,-0.002938,0.046919,1.4e-05,0.00036,-0.037994,-0.000106,0.0,0.0,0.0,0.0,0.0,0.0
230359,-0.009773,-0.020017,0.000635,0.0,0.0,0.0,0.0,0.0,0.0,3.0,0.333947,0.337486,0.310142,0.31957,-0.00293,0.046153,1.4e-05,0.000417,-0.038802,-0.000109,0.0,0.0,0.0,0.0,0.0,0.0
230379,-0.009896,-0.019527,0.000758,0.0,0.0,0.0,0.0,0.0,0.0,3.0,0.337744,0.335124,0.305576,0.322361,-0.002922,0.045371,1.4e-05,0.000475,-0.039592,-0.000112,0.0,0.0,0.0,0.0,0.0,0.0
230399,-0.009773,-0.019283,0.00076,0.0,0.0,0.0,0.0,0.0,0.0,3.0,0.329677,0.337338,0.306514,0.327541,-0.002912,0.044574,1.5e-05,0.000532,-0.040363,-0.000115,0.0,0.0,0.0,0.0,0.0,0.0
230419,-0.009775,-0.018916,0.000884,0.0,0.0,0.0,0.0,0.0,0.0,3.0,0.338043,0.328511,0.309861,0.324886,-0.002901,0.043761,1.5e-05,0.000588,-0.041116,-0.000118,0.0,0.0,0.0,0.0,0.0,0.0
230439,-0.009775,-0.018549,0.001008,0.0,0.0,0.0,0.0,0.0,0.0,3.0,0.332778,0.338663,0.303329,0.325891,-0.002888,0.042933,1.5e-05,0.000645,-0.04185,-0.000121,0.0,0.0,0.0,0.0,0.0,0.0
230459,-0.009897,-0.018305,0.001008,0.0,0.0,0.0,0.0,0.0,0.0,3.0,0.338837,0.334108,0.310773,0.317323,-0.002875,0.042091,1.5e-05,0.0007,-0.042564,-0.000124,0.0,0.0,0.0,0.0,0.0,0.0
230479,-0.009654,-0.018061,0.001134,0.0,0.0,0.0,0.0,0.0,0.0,3.0,0.338949,0.333211,0.307578,0.321212,-0.002861,0.041234,1.5e-05,0.000755,-0.043259,-0.000126,0.0,0.0,0.0,0.0,0.0,0.0
230499,-0.010021,-0.017816,0.001254,0.0,0.0,0.0,0.0,0.0,0.0,3.0,0.339082,0.338652,0.303434,0.319145,-0.002845,0.040364,1.4e-05,0.00081,-0.043934,-0.000128,0.0,0.0,0.0,0.0,0.0,0.0
230519,-0.010023,-0.017815,0.001376,0.0,0.0,0.0,0.0,0.0,0.0,3.0,0.331804,0.340505,0.303361,0.324913,-0.002829,0.03948,1.4e-05,0.000864,-0.044589,-0.000131,0.0,0.0,0.0,0.0,0.0,0.0
230539,-0.009778,-0.017693,0.001379,0.0,0.0,0.0,0.0,0.0,0.0,3.0,0.33703,0.330833,0.311828,0.321712,-0.002811,0.038584,1.4e-05,0.000918,-0.045225,-0.000133,0.0,0.0,0.0,0.0,0.0,0.0
230559,-0.009656,-0.017571,0.00138,0.0,0.0,0.0,0.0,0.0,0.0,3.0,0.337384,0.332936,0.312362,0.318608,-0.002792,0.037674,1.4e-05,0.000971,-0.045839,-0.000135,0.0,0.0,0.0,0.0,0.0,0.0
230579,-0.009778,-0.017449,0.00138,0.0,0.0,0.0,0.0,0.0,0.0,3.0,0.335298,0.335557,0.307327,0.322862,-0.002772,0.036753,1.4e-05,0.001024,-0.046434,-0.000137,0.0,0.0,0.0,0.0,0.0,0.0
230599,-0.009534,-0.017327,0.001383,0.0,0.0,0.0,0.0,0.0,0.0,3.0,0.340038,0.334738,0.309107,0.316943,-0.002751,0.03582,1.4e-05,0.001076,-0.047008,-0.000138,0.0,0.0,0.0,0.0,0.0,0.0
230619,-0.009534,-0.016961,0.001384,0.0,0.0,0.0,0.0,0.0,0.0,3.0,0.342678,0.33344,0.313911,0.310642,-0.00273,0.034876,1.4e-05,0.001127,-0.047561,-0.00014,0.0,0.0,0.0,0.0,0.0,0.0
230639,-0.009413,-0.016838,0.001508,0.0,0.0,0.0,0.0,0.0,0.0,3.0,0.333165,0.338458,0.309823,0.319657,-0.002707,0.033921,1.3e-05,0.001178,-0.048093,-0.000141,0.0,0.0,0.0,0.0,0.0,0.0
230659,-0.009535,-0.016594,0.001508,0.0,0.0,0.0,0.0,0.0,0.0,3.0,0.341289,0.333274,0.307399,0.318772,-0.002683,0.032955,1.3e-05,0.001228,-0.048604,-0.000142,0.0,0.0,0.0,0.0,0.0,0.0
230679,-0.009534,-0.016228,0.00151,0.0,0.0,0.0,0.0,0.0,0.0,3.0,0.337913,0.330978,0.311348,0.321078,-0.002658,0.031979,1.3e-05,0.001278,-0.049094,-0.000143,0.0,0.0,0.0,0.0,0.0,0.0
230699,-0.009289,-0.015985,0.001391,0.0,0.0,0.0,0.0,0.0,0.0,3.0,0.336748,0.330853,0.316378,0.31755,-0.002632,0.030994,1.3e-05,0.001326,-0.049562,-0.000144,0.0,0.0,0.0,0.0,0.0,0.0
230719,-0.00929,-0.01574,0.001514,0.0,0.0,0.0,0.0,0.0,0.0,3.0,0.337479,0.333324,0.308383,0.321908,-0.002605,0.029999,1.2e-05,0.001374,-0.050009,-0.000145,0.0,0.0,0.0,0.0,0.0,0.0
230739,-0.009167,-0.01513,0.001518,0.0,0.0,0.0,0.0,0.0,0.0,3.0,0.335864,0.33217,0.313257,0.320181,-0.002577,0.028996,1.2e-05,0.001422,-0.050435,-0.000146,0.0,0.0,0.0,0.0,0.0,0.0
230759,-0.008923,-0.015008,0.00152,0.0,0.0,0.0,0.0,0.0,0.0,3.0,0.336657,0.33293,0.312605,0.319162,-0.002548,0.027984,1.2e-05,0.001468,-0.050839,-0.000146,0.0,0.0,0.0,0.0,0.0,0.0
230779,-0.008801,-0.01452,0.001523,0.0,0.0,0.0,0.0,0.0,0.0,3.0,0.330683,0.334479,0.307911,0.3282,-0.002519,0.026964,1.1e-05,0.001514,-0.051221,-0.000146,0.0,0.0,0.0,0.0,0.0,0.0
230799,-0.0088,-0.014154,0.001525,0.0,0.0,0.0,0.0,0.0,0.0,3.0,0.333079,0.336262,0.304659,0.326887,-0.002488,0.025937,1.1e-05,0.001559,-0.051581,-0.000146,0.0,0.0,0.0,0.0,0.0,0.0
230819,-0.008678,-0.013787,0.001527,0.0,0.0,0.0,0.0,0.0,0.0,3.0,0.334441,0.336034,0.303082,0.32715,-0.002457,0.024903,1.1e-05,0.001604,-0.051919,-0.000146,0.0,0.0,0.0,0.0,0.0,0.0
230839,-0.008556,-0.013543,0.001529,0.0,0.0,0.0,0.0,0.0,0.0,3.0,0.344901,0.330405,0.310253,0.315051,-0.002424,0.023862,1e-05,0.001647,-0.052235,-0.000146,0.0,0.0,0.0,0.0,0.0,0.0
230859,-0.008189,-0.013422,0.001532,0.0,0.0,0.0,0.0,0.0,0.0,3.0,0.342994,0.330041,0.318824,0.308954,-0.002391,0.022815,1e-05,0.00169,-0.052529,-0.000146,0.0,0.0,0.0,0.0,0.0,0.0
230879,-0.008189,-0.013544,0.00141,0.0,0.0,0.0,0.0,0.0,0.0,3.0,0.334318,0.333096,0.313882,0.320241,-0.002357,0.021762,1e-05,0.001732,-0.052801,-0.000145,0.0,0.0,0.0,0.0,0.0,0.0
230899,-0.008311,-0.013422,0.001409,0.0,0.0,0.0,0.0,0.0,0.0,3.0,0.342515,0.324859,0.318675,0.315187,-0.002322,0.020704,9e-06,0.001773,-0.053051,-0.000145,0.0,0.0,0.0,0.0,0.0,0.0
230919,-0.007945,-0.013544,0.001411,0.0,0.0,0.0,0.0,0.0,0.0,3.0,0.333983,0.331673,0.3161,0.319924,-0.002286,0.019642,9e-06,0.001813,-0.053279,-0.000144,0.0,0.0,0.0,0.0,0.0,0.0
230939,-0.007822,-0.013178,0.001414,0.0,0.0,0.0,0.0,0.0,0.0,3.0,0.336299,0.335781,0.309333,0.319666,-0.002249,0.018574,8e-06,0.001853,-0.053485,-0.000143,0.0,0.0,0.0,0.0,0.0,0.0
230959,-0.007821,-0.013057,0.001292,0.0,0.0,0.0,0.0,0.0,0.0,3.0,0.340151,0.334111,0.312371,0.314303,-0.002212,0.017503,8e-06,0.001891,-0.053668,-0.000142,0.0,0.0,0.0,0.0,0.0,0.0
230979,-0.007699,-0.012813,0.001294,0.0,0.0,0.0,0.0,0.0,0.0,3.0,0.338162,0.334819,0.311285,0.316797,-0.002174,0.016429,7e-06,0.001929,-0.05383,-0.00014,0.0,0.0,0.0,0.0,0.0,0.0
230999,-0.007699,-0.012691,0.001294,0.0,0.0,0.0,0.0,0.0,0.0,3.0,0.340107,0.334823,0.308932,0.316945,-0.002135,0.015351,7e-06,0.001966,-0.053969,-0.000139,0.0,0.0,0.0,0.0,0.0,0.0
231019,-0.007698,-0.012447,0.001173,0.0,0.0,0.0,0.0,0.0,0.0,3.0,0.338945,0.330431,0.313914,0.318046,-0.002096,0.014271,6e-06,0.002002,-0.054086,-0.000138,0.0,0.0,0.0,0.0,0.0,0.0
231039,-0.007454,-0.012325,0.001175,0.0,0.0,0.0,0.0,0.0,0.0,3.0,0.336024,0.332167,0.313636,0.319643,-0.002055,0.013188,6e-06,0.002037,-0.054181,-0.000136,0.0,0.0,0.0,0.0,0.0,0.0
231059,-0.00721,-0.012081,0.001177,0.0,0.0,0.0,0.0,0.0,0.0,3.0,0.332724,0.333582,0.309611,0.325471,-0.002014,0.012104,5e-06,0.002071,-0.054253,-0.000134,0.0,0.0,0.0,0.0,0.0,0.0
231079,-0.006965,-0.011837,0.001058,0.0,0.0,0.0,0.0,0.0,0.0,3.0,0.339826,0.326752,0.316171,0.318702,-0.001973,0.011019,5e-06,0.002104,-0.054304,-0.000132,0.0,0.0,0.0,0.0,0.0,0.0
231099,-0.00672,-0.011349,0.001061,0.0,0.0,0.0,0.0,0.0,0.0,3.0,0.336702,0.333935,0.313278,0.317385,-0.00193,0.009932,4e-06,0.002136,-0.054333,-0.00013,0.0,0.0,0.0,0.0,0.0,0.0
231119,-0.006597,-0.011228,0.00094,0.0,0.0,0.0,0.0,0.0,0.0,3.0,0.337931,0.334307,0.311539,0.317353,-0.001887,0.008846,4e-06,0.002167,-0.054339,-0.000128,0.0,0.0,0.0,0.0,0.0,0.0
231139,-0.006597,-0.011106,0.00094,0.0,0.0,0.0,0.0,0.0,0.0,3.0,0.341852,0.330638,0.316454,0.312054,-0.001844,0.007759,3e-06,0.002197,-0.054324,-0.000126,0.0,0.0,0.0,0.0,0.0,0.0
231159,-0.006353,-0.010984,0.000942,0.0,0.0,0.0,0.0,0.0,0.0,3.0,0.338592,0.332852,0.311496,0.318229,-0.0018,0.006673,3e-06,0.002226,-0.054287,-0.000123,0.0,0.0,0.0,0.0,0.0,0.0
231179,-0.006108,-0.01074,0.000822,0.0,0.0,0.0,0.0,0.0,0.0,3.0,0.342288,0.327395,0.314308,0.317166,-0.001755,0.005587,2e-06,0.002254,-0.054229,-0.000121,0.0,0.0,0.0,0.0,0.0,0.0
231199,-0.006108,-0.010374,0.000823,0.0,0.0,0.0,0.0,0.0,0.0,3.0,0.338319,0.329853,0.311786,0.321391,-0.00171,0.004503,2e-06,0.002281,-0.054148,-0.000118,0.0,0.0,0.0,0.0,0.0,0.0
231219,-0.005985,-0.010252,0.000702,0.0,0.0,0.0,0.0,0.0,0.0,3.0,0.341472,0.328927,0.315378,0.315399,-0.001664,0.003421,1e-06,0.002308,-0.054046,-0.000115,0.0,0.0,0.0,0.0,0.0,0.0
231239,-0.005985,-0.010008,0.000581,0.0,0.0,0.0,0.0,0.0,0.0,3.0,0.337442,0.330166,0.312909,0.320926,-0.001618,0.002341,1e-06,0.002333,-0.053923,-0.000113,0.0,0.0,0.0,0.0,0.0,0.0
231259,-0.005741,-0.009886,0.000582,0.0,0.0,0.0,0.0,0.0,0.0,3.0,0.336904,0.331991,0.315094,0.31745,-0.001571,0.001264,0.0,0.002357,-0.053779,-0.00011,0.0,0.0,0.0,0.0,0.0,0.0
231279,-0.005252,-0.009643,0.000463,0.0,0.0,0.0,0.0,0.0,0.0,3.0,0.336535,0.328192,0.317494,0.31946,-0.001523,0.000189,-0.0,0.00238,-0.053613,-0.000107,0.0,0.0,0.0,0.0,0.0,0.0
231299,-0.005129,-0.009277,0.000465,0.0,0.0,0.0,0.0,0.0,0.0,3.0,0.337191,0.333188,0.313382,0.317552,-0.001476,-0.000882,-1e-06,0.002402,-0.053426,-0.000104,0.0,0.0,0.0,0.0,0.0,0.0
231319,-0.004885,-0.009033,0.000344,0.0,0.0,0.0,0.0,0.0,0.0,3.0,0.340867,0.327569,0.316539,0.316341,-0.001427,-0.001949,-1e-06,0.002423,-0.053219,-0.000101,0.0,0.0,0.0,0.0,0.0,0.0
231339,-0.004518,-0.008667,0.000225,0.0,0.0,0.0,0.0,0.0,0.0,3.0,0.34525,0.327581,0.31956,0.308251,-0.001379,-0.003011,-2e-06,0.002443,-0.05299,-9.7e-05,0.0,0.0,0.0,0.0,0.0,0.0
231359,-0.004639,-0.008545,0.000102,0.0,0.0,0.0,0.0,0.0,0.0,3.0,0.341363,0.32921,0.320876,0.309583,-0.00133,-0.004069,-2e-06,0.002462,-0.052741,-9.4e-05,0.0,0.0,0.0,0.0,0.0,0.0
231379,-0.004273,-0.008179,-1.7e-05,0.0,0.0,0.0,0.0,0.0,0.0,3.0,0.331247,0.330883,0.313506,0.326093,-0.00128,-0.005122,-3e-06,0.00248,-0.052472,-9.1e-05,0.0,0.0,0.0,0.0,0.0,0.0
231399,-0.003906,-0.007813,-1.5e-05,0.0,0.0,0.0,0.0,0.0,0.0,3.0,0.33752,0.327084,0.314917,0.322073,-0.001231,-0.00617,-3e-06,0.002497,-0.052183,-8.7e-05,0.0,0.0,0.0,0.0,0.0,0.0
231419,-0.003662,-0.007447,-0.000136,0.0,0.0,0.0,0.0,0.0,0.0,3.0,0.337906,0.327974,0.317014,0.318684,-0.001181,-0.007211,-4e-06,0.002513,-0.051873,-8.4e-05,0.0,0.0,0.0,0.0,0.0,0.0
231439,-0.003539,-0.007203,-0.000257,0.0,0.0,0.0,0.0,0.0,0.0,3.0,0.340816,0.32767,0.317817,0.315004,-0.00113,-0.008246,-4e-06,0.002527,-0.051543,-8.1e-05,0.0,0.0,0.0,0.0,0.0,0.0
231459,-0.003051,-0.006715,-0.000377,0.0,0.0,0.0,0.0,0.0,0.0,3.0,0.337033,0.328623,0.314954,0.320976,-0.00108,-0.009274,-4e-06,0.002541,-0.051194,-7.7e-05,0.0,0.0,0.0,0.0,0.0,0.0
231479,-0.002928,-0.006593,-0.000498,0.0,0.0,0.0,0.0,0.0,0.0,3.0,0.334375,0.330408,0.319359,0.317593,-0.001029,-0.010295,-5e-06,0.002554,-0.050826,-7.4e-05,0.0,0.0,0.0,0.0,0.0,0.0
231499,-0.002562,-0.006349,-0.000619,0.0,0.0,0.0,0.0,0.0,0.0,3.0,0.336937,0.328268,0.316937,0.3195,-0.000978,-0.011309,-5e-06,0.002565,-0.050438,-7e-05,0.0,0.0,0.0,0.0,0.0,0.0
231519,-0.002196,-0.005738,-0.000617,0.0,0.0,0.0,0.0,0.0,0.0,3.0,0.340623,0.32548,0.313145,0.322091,-0.000926,-0.012315,-6e-06,0.002576,-0.050031,-6.7e-05,0.0,0.0,0.0,0.0,0.0,0.0
231539,-0.001707,-0.005372,-0.000859,0.0,0.0,0.0,0.0,0.0,0.0,3.0,0.343353,0.323705,0.32654,0.307187,-0.000875,-0.013312,-6e-06,0.002585,-0.049605,-6.3e-05,0.0,0.0,0.0,0.0,0.0,0.0
231559,-0.00134,-0.005006,-0.00098,0.0,0.0,0.0,0.0,0.0,0.0,3.0,0.344196,0.322044,0.323366,0.311373,-0.000823,-0.014301,-6e-06,0.002593,-0.049161,-5.9e-05,0.0,0.0,0.0,0.0,0.0,0.0
231579,-0.000974,-0.004639,-0.001101,0.0,0.0,0.0,0.0,0.0,0.0,3.0,0.335851,0.322944,0.318043,0.324968,-0.000771,-0.015281,-7e-06,0.0026,-0.048698,-5.6e-05,0.0,0.0,0.0,0.0,0.0,0.0
231599,-0.00073,-0.004029,-0.001222,0.0,0.0,0.0,0.0,0.0,0.0,3.0,0.333456,0.320323,0.321672,0.326489,-0.000719,-0.016251,-7e-06,0.002607,-0.048218,-5.2e-05,0.0,0.0,0.0,0.0,0.0,0.0
231619,-0.000242,-0.003662,-0.001221,0.0,0.0,0.0,0.0,0.0,0.0,3.0,0.335427,0.32675,0.319911,0.319727,-0.000667,-0.017212,-8e-06,0.002612,-0.047719,-4.9e-05,0.0,0.0,0.0,0.0,0.0,0.0
231639,0.00049,-0.003052,-0.001342,0.0,0.0,0.0,0.0,0.0,0.0,3.0,0.336361,0.323916,0.320933,0.320604,-0.000614,-0.018162,-8e-06,0.002616,-0.047203,-4.5e-05,0.0,0.0,0.0,0.0,0.0,0.0
231659,0.000979,-0.002685,-0.001464,0.0,0.0,0.0,0.0,0.0,0.0,3.0,0.333386,0.327551,0.324381,0.316533,-0.000562,-0.019102,-8e-06,0.002619,-0.04667,-4.2e-05,0.0,0.0,0.0,0.0,0.0,0.0
231679,0.001589,-0.002318,-0.001707,0.0,0.0,0.0,0.0,0.0,0.0,3.0,0.3427,0.315183,0.332314,0.31056,-0.00051,-0.020032,-9e-06,0.002621,-0.046119,-3.8e-05,0.0,0.0,0.0,0.0,0.0,0.0
231699,0.002199,-0.001707,-0.00183,0.0,0.0,0.0,0.0,0.0,0.0,3.0,0.343177,0.318702,0.326302,0.312898,-0.000457,-0.02095,-9e-06,0.002622,-0.045552,-3.5e-05,0.0,0.0,0.0,0.0,0.0,0.0
231719,0.002565,-0.00134,-0.001952,0.0,0.0,0.0,0.0,0.0,0.0,3.0,0.338607,0.323906,0.327529,0.311325,-0.000405,-0.021857,-9e-06,0.002621,-0.044968,-3.1e-05,0.0,0.0,0.0,0.0,0.0,0.0
231739,0.002809,-0.001096,-0.002074,0.0,0.0,0.0,0.0,0.0,0.0,3.0,0.335347,0.328094,0.320305,0.318024,-0.000352,-0.022751,-9e-06,0.00262,-0.044368,-2.8e-05,0.0,0.0,0.0,0.0,0.0,0.0
231759,0.003175,-0.000851,-0.002196,0.0,0.0,0.0,0.0,0.0,0.0,3.0,0.336018,0.321366,0.32099,0.323468,-0.0003,-0.023634,-1e-05,0.002618,-0.043752,-2.4e-05,0.0,0.0,0.0,0.0,0.0,0.0
231779,0.003419,-0.000362,-0.002319,0.0,0.0,0.0,0.0,0.0,0.0,3.0,0.337145,0.31863,0.327298,0.318599,-0.000248,-0.024505,-1e-05,0.002614,-0.043121,-2.1e-05,0.0,0.0,0.0,0.0,0.0,0.0
231799,0.003785,-0.000117,-0.002442,0.0,0.0,0.0,0.0,0.0,0.0,3.0,0.343464,0.322263,0.326434,0.308714,-0.000195,-0.025362,-1e-05,0.00261,-0.042474,-1.8e-05,0.0,0.0,0.0,0.0,0.0,0.0
231819,0.004028,0.000371,-0.002443,0.0,0.0,0.0,0.0,0.0,0.0,3.0,0.338699,0.325625,0.317943,0.31933,-0.000143,-0.026207,-1e-05,0.002605,-0.041813,-1.5e-05,0.0,0.0,0.0,0.0,0.0,0.0
231839,0.00415,0.000372,-0.002565,0.0,0.0,0.0,0.0,0.0,0.0,3.0,0.337934,0.324649,0.325202,0.313762,-9.1e-05,-0.027038,-1e-05,0.002598,-0.041136,-1.1e-05,0.0,0.0,0.0,0.0,0.0,0.0
231859,0.004638,0.000739,-0.002688,0.0,0.0,0.0,0.0,0.0,0.0,3.0,0.333545,0.326206,0.31621,0.325882,-3.9e-05,-0.027855,-1e-05,0.002591,-0.040446,-8e-06,0.0,0.0,0.0,0.0,0.0,0.0
231879,0.004882,0.000983,-0.002688,0.0,0.0,0.0,0.0,0.0,0.0,3.0,0.343124,0.32498,0.321416,0.31155,1.3e-05,-0.028659,-1.1e-05,0.002582,-0.039741,-5e-06,0.0,0.0,0.0,0.0,0.0,0.0
231899,0.004881,0.001228,-0.002933,0.0,0.0,0.0,0.0,0.0,0.0,3.0,0.345545,0.321582,0.326958,0.306441,6.4e-05,-0.029449,-1.1e-05,0.002573,-0.039023,-2e-06,0.0,0.0,0.0,0.0,0.0,0.0
231919,0.005126,0.001107,-0.003055,0.0,0.0,0.0,0.0,0.0,0.0,3.0,0.339476,0.321765,0.321918,0.318433,0.000116,-0.030224,-1.1e-05,0.002562,-0.038291,0.0,0.0,0.0,0.0,0.0,0.0,0.0
231939,0.005125,0.001473,-0.003056,0.0,0.0,0.0,0.0,0.0,0.0,3.0,0.338505,0.31848,0.324288,0.320373,0.000167,-0.030984,-1.1e-05,0.002551,-0.037546,3e-06,0.0,0.0,0.0,0.0,0.0,0.0
231959,0.005125,0.001717,-0.003057,0.0,0.0,0.0,0.0,0.0,0.0,3.0,0.339156,0.324931,0.318349,0.319143,0.000218,-0.031729,-1.1e-05,0.002538,-0.036789,6e-06,0.0,0.0,0.0,0.0,0.0,0.0
231979,0.00549,0.001962,-0.003058,0.0,0.0,0.0,0.0,0.0,0.0,3.0,0.335479,0.3248,0.31853,0.323027,0.000268,-0.032459,-1.1e-05,0.002525,-0.036019,8e-06,0.0,0.0,0.0,0.0,0.0,0.0
231999,0.005734,0.002329,-0.003181,0.0,0.0,0.0,0.0,0.0,0.0,3.0,0.337717,0.324175,0.32322,0.316555,0.000319,-0.033174,-1.1e-05,0.00251,-0.035237,1.1e-05,0.0,0.0,0.0,0.0,0.0,0.0
232019,0.005856,0.002451,-0.003181,0.0,0.0,0.0,0.0,0.0,0.0,3.0,0.334969,0.326758,0.323101,0.316977,0.000369,-0.033872,-1.1e-05,0.002495,-0.034444,1.3e-05,0.0,0.0,0.0,0.0,0.0,0.0
232039,0.006099,0.002696,-0.003305,0.0,0.0,0.0,0.0,0.0,0.0,3.0,0.345197,0.318091,0.326235,0.311289,0.000418,-0.034555,-1.1e-05,0.002478,-0.033639,1.5e-05,0.0,0.0,0.0,0.0,0.0,0.0
232059,0.006221,0.00294,-0.003306,0.0,0.0,0.0,0.0,0.0,0.0,3.0,0.341945,0.327559,0.323605,0.307818,0.000468,-0.035222,-1.1e-05,0.002461,-0.032824,1.8e-05,0.0,0.0,0.0,0.0,0.0,0.0
232079,0.005855,0.003062,-0.003305,0.0,0.0,0.0,0.0,0.0,0.0,3.0,0.340299,0.324692,0.318095,0.318395,0.000517,-0.035872,-1.1e-05,0.002443,-0.031998,2e-05,0.0,0.0,0.0,0.0,0.0,0.0
232099,0.006099,0.003062,-0.003306,0.0,0.0,0.0,0.0,0.0,0.0,3.0,0.33436,0.324093,0.324121,0.319334,0.000566,-0.036506,-1.1e-05,0.002423,-0.031162,2.2e-05,0.0,0.0,0.0,0.0,0.0,0.0
232119,0.005976,0.003428,-0.003307,0.0,0.0,0.0,0.0,0.0,0.0,3.0,0.339835,0.323013,0.318291,0.320417,0.000614,-0.037123,-1.1e-05,0.002403,-0.030316,2.3e-05,0.0,0.0,0.0,0.0,0.0,0.0
232139,0.00622,0.003794,-0.003186,0.0,0.0,0.0,0.0,0.0,0.0,3.0,0.337875,0.324092,0.320491,0.319244,0.000662,-0.037723,-1.1e-05,0.002382,-0.029461,2.5e-05,0.0,0.0,0.0,0.0,0.0,0.0
232159,0.006219,0.00416,-0.003187,0.0,0.0,0.0,0.0,0.0,0.0,3.0,0.337985,0.323096,0.318491,0.322124,0.000709,-0.038306,-1e-05,0.00236,-0.028596,2.7e-05,0.0,0.0,0.0,0.0,0.0,0.0
232179,0.006219,0.00416,-0.003187,0.0,0.0,0.0,0.0,0.0,0.0,3.0,0.335586,0.326065,0.322764,0.317378,0.000756,-0.038871,-1e-05,0.002338,-0.027723,2.8e-05,0.0,0.0,0.0,0.0,0.0,0.0
232199,0.006341,0.004649,-0.003189,0.0,0.0,0.0,0.0,0.0,0.0,3.0,0.337517,0.322093,0.320937,0.321205,0.000803,-0.039419,-1e-05,0.002314,-0.026842,3e-05,0.0,0.0,0.0,0.0,0.0,0.0
232219,0.006707,0.005015,-0.003069,0.0,0.0,0.0,0.0,0.0,0.0,3.0,0.339005,0.326414,0.319313,0.316807,0.000849,-0.039949,-1e-05,0.00229,-0.025953,3.1e-05,0.0,0.0,0.0,0.0,0.0,0.0
232239,0.006584,0.005259,-0.002947,0.0,0.0,0.0,0.0,0.0,0.0,3.0,0.338715,0.329387,0.317663,0.315669,0.000895,-0.040461,-1e-05,0.002264,-0.025056,3.2e-05,0.0,0.0,0.0,0.0,0.0,0.0
232259,0.006829,0.005137,-0.002948,0.0,0.0,0.0,0.0,0.0,0.0,3.0,0.336337,0.32429,0.320127,0.321056,0.00094,-0.040956,-1e-05,0.002238,-0.024152,3.3e-05,0.0,0.0,0.0,0.0,0.0,0.0
232279,0.007072,0.005504,-0.00295,0.0,0.0,0.0,0.0,0.0,0.0,3.0,0.337827,0.323597,0.320355,0.319936,0.000984,-0.041432,-9e-06,0.002211,-0.023242,3.4e-05,0.0,0.0,0.0,0.0,0.0,0.0
232299,0.006829,0.005503,-0.002827,0.0,0.0,0.0,0.0,0.0,0.0,3.0,0.339143,0.328653,0.311542,0.32198,0.001028,-0.04189,-9e-06,0.002183,-0.022325,3.5e-05,0.0,0.0,0.0,0.0,0.0,0.0
232319,0.006706,0.005503,-0.002827,0.0,0.0,0.0,0.0,0.0,0.0,3.0,0.330247,0.330522,0.313502,0.327481,0.001072,-0.042329,-9e-06,0.002155,-0.021402,3.5e-05,0.0,0.0,0.0,0.0,0.0,0.0
232339,0.006707,0.005625,-0.002705,0.0,0.0,0.0,0.0,0.0,0.0,3.0,0.334552,0.32534,0.317541,0.32442,0.001115,-0.042751,-9e-06,0.002125,-0.020473,3.6e-05,0.0,0.0,0.0,0.0,0.0,0.0
232359,0.006829,0.005746,-0.002583,0.0,0.0,0.0,0.0,0.0,0.0,3.0,0.338155,0.324826,0.319559,0.319125,0.001157,-0.043153,-8e-06,0.002095,-0.01954,3.6e-05,0.0,0.0,0.0,0.0,0.0,0.0
232379,0.006951,0.005869,-0.002584,0.0,0.0,0.0,0.0,0.0,0.0,3.0,0.339955,0.322416,0.323356,0.315769,0.001199,-0.043537,-8e-06,0.002064,-0.018601,3.7e-05,0.0,0.0,0.0,0.0,0.0,0.0
232399,0.006951,0.005991,-0.002585,0.0,0.0,0.0,0.0,0.0,0.0,3.0,0.338416,0.327937,0.318072,0.317112,0.00124,-0.043902,-8e-06,0.002033,-0.017659,3.7e-05,0.0,0.0,0.0,0.0,0.0,0.0
232419,0.007073,0.00599,-0.002463,0.0,0.0,0.0,0.0,0.0,0.0,3.0,0.334158,0.32854,0.320359,0.318777,0.00128,-0.044248,-8e-06,0.002001,-0.016712,3.7e-05,0.0,0.0,0.0,0.0,0.0,0.0
232439,0.007073,0.00599,-0.002463,0.0,0.0,0.0,0.0,0.0,0.0,3.0,0.332401,0.328447,0.318415,0.322656,0.00132,-0.044575,-7e-06,0.001968,-0.015762,3.7e-05,0.0,0.0,0.0,0.0,0.0,0.0
232459,0.007073,0.00599,-0.002341,0.0,0.0,0.0,0.0,0.0,0.0,3.0,0.334558,0.323255,0.321355,0.322759,0.001359,-0.044883,-7e-06,0.001934,-0.014808,3.6e-05,0.0,0.0,0.0,0.0,0.0,0.0
232479,0.007073,0.006356,-0.00222,0.0,0.0,0.0,0.0,0.0,0.0,3.0,0.330452,0.32843,0.313303,0.32956,0.001397,-0.045172,-7e-06,0.0019,-0.013852,3.6e-05,0.0,0.0,0.0,0.0,0.0,0.0
232499,0.007195,0.006478,-0.002221,0.0,0.0,0.0,0.0,0.0,0.0,3.0,0.333674,0.331242,0.312621,0.324065,0.001435,-0.045442,-6e-06,0.001865,-0.012893,3.6e-05,0.0,0.0,0.0,0.0,0.0,0.0
232519,0.007195,0.006844,-0.002222,0.0,0.0,0.0,0.0,0.0,0.0,3.0,0.335038,0.323952,0.322287,0.320616,0.001472,-0.045693,-6e-06,0.001829,-0.011932,3.5e-05,0.0,0.0,0.0,0.0,0.0,0.0
232539,0.007196,0.006722,-0.0021,0.0,0.0,0.0,0.0,0.0,0.0,3.0,0.337735,0.328096,0.316215,0.319533,0.001508,-0.045924,-6e-06,0.001793,-0.01097,3.4e-05,0.0,0.0,0.0,0.0,0.0,0.0
232559,0.007196,0.006843,-0.001978,0.0,0.0,0.0,0.0,0.0,0.0,3.0,0.337829,0.323745,0.319654,0.320483,0.001544,-0.046136,-5e-06,0.001756,-0.010006,3.4e-05,0.0,0.0,0.0,0.0,0.0,0.0
232579,0.007318,0.006843,-0.001978,0.0,0.0,0.0,0.0,0.0,0.0,3.0,0.338893,0.326883,0.316677,0.31908,0.001579,-0.046329,-5e-06,0.001718,-0.009042,3.3e-05,0.0,0.0,0.0,0.0,0.0,0.0
232599,0.00744,0.006965,-0.001857,0.0,0.0,0.0,0.0,0.0,0.0,3.0,0.333122,0.329664,0.317328,0.321718,0.001613,-0.046503,-4e-06,0.001681,-0.008077,3.2e-05,0.0,0.0,0.0,0.0,0.0,0.0
232619,0.007196,0.007087,-0.001857,0.0,0.0,0.0,0.0,0.0,0.0,3.0,0.335235,0.324142,0.321979,0.320525,0.001646,-0.046657,-4e-06,0.001642,-0.007112,3.1e-05,0.0,0.0,0.0,0.0,0.0,0.0
232639,0.00744,0.007087,-0.001858,0.0,0.0,0.0,0.0,0.0,0.0,3.0,0.337355,0.318104,0.323792,0.322476,0.001679,-0.046792,-4e-06,0.001603,-0.006148,3e-05,0.0,0.0,0.0,0.0,0.0,0.0
232659,0.007684,0.007331,-0.001737,0.0,0.0,0.0,0.0,0.0,0.0,3.0,0.33572,0.327895,0.318375,0.319765,0.00171,-0.046908,-3e-06,0.001563,-0.005184,2.8e-05,0.0,0.0,0.0,0.0,0.0,0.0
232679,0.007806,0.007819,-0.00174,0.0,0.0,0.0,0.0,0.0,0.0,3.0,0.343395,0.322884,0.320272,0.314622,0.001741,-0.047004,-3e-06,0.001523,-0.004222,2.7e-05,0.0,0.0,0.0,0.0,0.0,0.0
232699,0.007807,0.007697,-0.001617,0.0,0.0,0.0,0.0,0.0,0.0,3.0,0.333375,0.330693,0.31738,0.320332,0.001771,-0.047081,-3e-06,0.001483,-0.00326,2.5e-05,0.0,0.0,0.0,0.0,0.0,0.0
232719,0.007929,0.008063,-0.001497,0.0,0.0,0.0,0.0,0.0,0.0,3.0,0.326838,0.33027,0.316225,0.328576,0.001801,-0.047139,-2e-06,0.001442,-0.002301,2.4e-05,0.0,0.0,0.0,0.0,0.0,0.0
232739,0.008295,0.008185,-0.001499,0.0,0.0,0.0,0.0,0.0,0.0,3.0,0.333603,0.323084,0.319409,0.325836,0.001829,-0.047178,-2e-06,0.0014,-0.001344,2.2e-05,0.0,0.0,0.0,0.0,0.0,0.0
232759,0.008296,0.008307,-0.001377,0.0,0.0,0.0,0.0,0.0,0.0,3.0,0.336176,0.325188,0.320783,0.319656,0.001857,-0.047198,-1e-06,0.001358,-0.00039,2e-05,0.0,0.0,0.0,0.0,0.0,0.0
232779,0.008295,0.008551,-0.001378,0.0,0.0,0.0,0.0,0.0,0.0,3.0,0.336829,0.320353,0.325743,0.318818,0.001884,-0.047199,-1e-06,0.001316,0.000561,1.9e-05,0.0,0.0,0.0,0.0,0.0,0.0
232799,0.008417,0.008673,-0.001379,0.0,0.0,0.0,0.0,0.0,0.0,3.0,0.342948,0.319006,0.326451,0.312687,0.00191,-0.04718,-1e-06,0.001273,0.001509,1.7e-05,0.0,0.0,0.0,0.0,0.0,0.0
232819,0.008417,0.008795,-0.00138,0.0,0.0,0.0,0.0,0.0,0.0,3.0,0.338652,0.326899,0.317196,0.31881,0.001935,-0.047143,-0.0,0.00123,0.002454,1.5e-05,0.0,0.0,0.0,0.0,0.0,0.0
232839,0.008296,0.008794,-0.001257,0.0,0.0,0.0,0.0,0.0,0.0,3.0,0.338159,0.326652,0.311234,0.325354,0.001959,-0.047087,0.0,0.001187,0.003394,1.3e-05,0.0,0.0,0.0,0.0,0.0,0.0
232859,0.008418,0.008917,-0.001258,0.0,0.0,0.0,0.0,0.0,0.0,3.0,0.336785,0.325203,0.319702,0.320071,0.001983,-0.047012,1e-06,0.001143,0.004329,1.1e-05,0.0,0.0,0.0,0.0,0.0,0.0
232879,0.008418,0.008916,-0.001136,0.0,0.0,0.0,0.0,0.0,0.0,3.0,0.331022,0.329937,0.311717,0.328957,0.002005,-0.046918,1e-06,0.001099,0.00526,9e-06,0.0,0.0,0.0,0.0,0.0,0.0
232899,0.008296,0.009038,-0.001136,0.0,0.0,0.0,0.0,0.0,0.0,3.0,0.33475,0.325081,0.321339,0.320726,0.002027,-0.046806,1e-06,0.001055,0.006185,6e-06,0.0,0.0,0.0,0.0,0.0,0.0
232919,0.008418,0.008916,-0.001136,0.0,0.0,0.0,0.0,0.0,0.0,3.0,0.333433,0.318771,0.327237,0.322468,0.002047,-0.046676,2e-06,0.00101,0.007105,4e-06,0.0,0.0,0.0,0.0,0.0,0.0
232939,0.008419,0.009282,-0.001016,0.0,0.0,0.0,0.0,0.0,0.0,3.0,0.344936,0.318364,0.321996,0.315745,0.002067,-0.046527,2e-06,0.000966,0.008019,2e-06,0.0,0.0,0.0,0.0,0.0,0.0
232959,0.008785,0.009281,-0.000895,0.0,0.0,0.0,0.0,0.0,0.0,3.0,0.340432,0.33004,0.321727,0.308844,0.002086,-0.046359,2e-06,0.00092,0.008927,-1e-06,0.0,0.0,0.0,0.0,0.0,0.0
232979,0.008419,0.009647,-0.000895,0.0,0.0,0.0,0.0,0.0,0.0,3.0,0.339153,0.323732,0.315669,0.322995,0.002104,-0.046174,3e-06,0.000875,0.009828,-3e-06,0.0,0.0,0.0,0.0,0.0,0.0
232999,0.008664,0.009403,-0.000773,0.0,0.0,0.0,0.0,0.0,0.0,3.0,0.329672,0.329273,0.319921,0.323152,0.002121,-0.045971,3e-06,0.00083,0.010722,-5e-06,0.0,0.0,0.0,0.0,0.0,0.0
233019,0.008786,0.009647,-0.000653,0.0,0.0,0.0,0.0,0.0,0.0,3.0,0.337135,0.322397,0.318761,0.32346,0.002138,-0.04575,4e-06,0.000784,0.011609,-8e-06,0.0,0.0,0.0,0.0,0.0,0.0
233039,0.008664,0.009647,-0.000652,0.0,0.0,0.0,0.0,0.0,0.0,3.0,0.335147,0.327853,0.319265,0.319533,0.002153,-0.045511,4e-06,0.000738,0.012488,-1e-05,0.0,0.0,0.0,0.0,0.0,0.0
233059,0.008664,0.009647,-0.000652,0.0,0.0,0.0,0.0,0.0,0.0,3.0,0.335577,0.325086,0.320574,0.32061,0.002167,-0.045255,4e-06,0.000692,0.013359,-1.3e-05,0.0,0.0,0.0,0.0,0.0,0.0
233079,0.008665,0.009646,-0.00053,0.0,0.0,0.0,0.0,0.0,0.0,3.0,0.336665,0.323423,0.323079,0.318611,0.002181,-0.044981,4e-06,0.000646,0.014222,-1.5e-05,0.0,0.0,0.0,0.0,0.0,0.0
233099,0.008421,0.009524,-0.000528,0.0,0.0,0.0,0.0,0.0,0.0,3.0,0.334743,0.324113,0.31989,0.323154,0.002193,-0.04469,5e-06,0.0006,0.015077,-1.8e-05,0.0,0.0,0.0,0.0,0.0,0.0
233119,0.008421,0.00989,-0.000408,0.0,0.0,0.0,0.0,0.0,0.0,3.0,0.333036,0.33092,0.308311,0.329069,0.002205,-0.044382,5e-06,0.000554,0.015922,-2e-05,0.0,0.0,0.0,0.0,0.0,0.0
233139,0.008421,0.009768,-0.000407,0.0,0.0,0.0,0.0,0.0,0.0,3.0,0.336786,0.327661,0.314413,0.322752,0.002216,-0.044058,5e-06,0.000507,0.016759,-2.3e-05,0.0,0.0,0.0,0.0,0.0,0.0
233159,0.008299,0.00989,-0.000407,0.0,0.0,0.0,0.0,0.0,0.0,3.0,0.334271,0.322791,0.32154,0.323339,0.002226,-0.043716,6e-06,0.000461,0.017585,-2.5e-05,0.0,0.0,0.0,0.0,0.0,0.0
233179,0.0083,0.009889,-0.000285,0.0,0.0,0.0,0.0,0.0,0.0,3.0,0.330157,0.324643,0.315282,0.331732,0.002234,-0.043358,6e-06,0.000414,0.018402,-2.8e-05,0.0,0.0,0.0,0.0,0.0,0.0
233199,0.008422,0.009767,-0.000285,0.0,0.0,0.0,0.0,0.0,0.0,3.0,0.335748,0.325132,0.319292,0.321657,0.002242,-0.042984,6e-06,0.000368,0.019209,-3e-05,0.0,0.0,0.0,0.0,0.0,0.0
233219,0.0083,0.010011,-0.000286,0.0,0.0,0.0,0.0,0.0,0.0,3.0,0.341378,0.322578,0.320862,0.316586,0.002249,-0.042594,6e-06,0.000322,0.020005,-3.3e-05,0.0,0.0,0.0,0.0,0.0,0.0
233239,0.008423,0.009766,-0.000163,0.0,0.0,0.0,0.0,0.0,0.0,3.0,0.334371,0.33369,0.314313,0.319135,0.002255,-0.042188,7e-06,0.000275,0.020791,-3.5e-05,0.0,0.0,0.0,0.0,0.0,0.0
233259,0.008178,0.010011,-0.000163,0.0,0.0,0.0,0.0,0.0,0.0,3.0,0.336553,0.325903,0.314832,0.324376,0.002261,-0.041766,7e-06,0.000229,0.021566,-3.8e-05,0.0,0.0,0.0,0.0,0.0,0.0
233279,0.008179,0.009888,-4e-05,0.0,0.0,0.0,0.0,0.0,0.0,3.0,0.335138,0.325437,0.320188,0.321104,0.002265,-0.041329,7e-06,0.000182,0.022329,-4e-05,0.0,0.0,0.0,0.0,0.0,0.0
233299,0.008301,0.01001,-4.2e-05,0.0,0.0,0.0,0.0,0.0,0.0,3.0,0.330178,0.32874,0.312939,0.329866,0.002268,-0.040877,7e-06,0.000136,0.023081,-4.3e-05,0.0,0.0,0.0,0.0,0.0,0.0
233319,0.008301,0.010132,-4.2e-05,0.0,0.0,0.0,0.0,0.0,0.0,3.0,0.334609,0.324637,0.320054,0.322605,0.00227,-0.04041,8e-06,9e-05,0.023822,-4.5e-05,0.0,0.0,0.0,0.0,0.0,0.0
233339,0.008423,0.01001,-4.2e-05,0.0,0.0,0.0,0.0,0.0,0.0,3.0,0.340029,0.323509,0.325453,0.31236,0.002272,-0.039928,8e-06,4.4e-05,0.02455,-4.8e-05,0.0,0.0,0.0,0.0,0.0,0.0
233359,0.008423,0.01001,-4.2e-05,0.0,0.0,0.0,0.0,0.0,0.0,3.0,0.339229,0.317958,0.327143,0.317167,0.002272,-0.039432,8e-06,-2e-06,0.025266,-5e-05,0.0,0.0,0.0,0.0,0.0,0.0
233379,0.008424,0.009765,8.1e-05,0.0,0.0,0.0,0.0,0.0,0.0,3.0,0.334391,0.327318,0.317938,0.322198,0.002272,-0.038921,8e-06,-4.7e-05,0.025969,-5.2e-05,0.0,0.0,0.0,0.0,0.0,0.0
233399,0.008424,0.01001,8e-05,0.0,0.0,0.0,0.0,0.0,0.0,3.0,0.33869,0.323653,0.315938,0.323307,0.002271,-0.038396,8e-06,-9.3e-05,0.026659,-5.4e-05,0.0,0.0,0.0,0.0,0.0,0.0
233419,0.008302,0.010132,8e-05,0.0,0.0,0.0,0.0,0.0,0.0,3.0,0.3366,0.323663,0.318443,0.323073,0.002269,-0.037858,8e-06,-0.000138,0.027337,-5.6e-05,0.0,0.0,0.0,0.0,0.0,0.0
233439,0.00818,0.01001,8.1e-05,0.0,0.0,0.0,0.0,0.0,0.0,3.0,0.330747,0.327344,0.317598,0.326274,0.002265,-0.037306,8e-06,-0.000183,0.028001,-5.9e-05,0.0,0.0,0.0,0.0,0.0,0.0
233459,0.008058,0.010132,8.1e-05,0.0,0.0,0.0,0.0,0.0,0.0,3.0,0.328315,0.32124,0.319915,0.332468,0.002261,-0.036741,8e-06,-0.000228,0.028652,-6.1e-05,0.0,0.0,0.0,0.0,0.0,0.0
233479,0.008302,0.01001,8.1e-05,0.0,0.0,0.0,0.0,0.0,0.0,3.0,0.334408,0.32521,0.320343,0.321952,0.002257,-0.036164,9e-06,-0.000273,0.029289,-6.3e-05,0.0,0.0,0.0,0.0,0.0,0.0
233499,0.008546,0.010376,7.8e-05,0.0,0.0,0.0,0.0,0.0,0.0,3.0,0.335559,0.327611,0.319462,0.319146,0.002251,-0.035573,9e-06,-0.000317,0.029913,-6.5e-05,0.0,0.0,0.0,0.0,0.0,0.0
233519,0.008546,0.010132,7.9e-05,0.0,0.0,0.0,0.0,0.0,0.0,3.0,0.335314,0.327717,0.319754,0.319007,0.002244,-0.03497,9e-06,-0.000361,0.030522,-6.6e-05,0.0,0.0,0.0,0.0,0.0,0.0
233539,0.008546,0.010132,7.9e-05,0.0,0.0,0.0,0.0,0.0,0.0,3.0,0.334678,0.325803,0.320494,0.320913,0.002237,-0.034355,9e-06,-0.000405,0.031117,-6.8e-05,0.0,0.0,0.0,0.0,0.0,0.0
233559,0.00879,0.01001,7.8e-05,0.0,0.0,0.0,0.0,0.0,0.0,3.0,0.332036,0.325831,0.3198,0.324332,0.002228,-0.033729,9e-06,-0.000449,0.031697,-7e-05,0.0,0.0,0.0,0.0,0.0,0.0
233579,0.008546,0.01001,7.9e-05,0.0,0.0,0.0,0.0,0.0,0.0,3.0,0.336128,0.324401,0.318707,0.322571,0.002219,-0.03309,9e-06,-0.000492,0.032263,-7.2e-05,0.0,0.0,0.0,0.0,0.0,0.0
233599,0.008546,0.010132,7.9e-05,0.0,0.0,0.0,0.0,0.0,0.0,3.0,0.33291,0.324222,0.322423,0.322447,0.002209,-0.032441,9e-06,-0.000535,0.032814,-7.3e-05,0.0,0.0,0.0,0.0,0.0,0.0
233619,0.008302,0.010132,8e-05,0.0,0.0,0.0,0.0,0.0,0.0,3.0,0.336518,0.322642,0.318532,0.324091,0.002198,-0.031781,9e-06,-0.000577,0.033349,-7.5e-05,0.0,0.0,0.0,0.0,0.0,0.0
233639,0.008179,0.010132,-4.1e-05,0.0,0.0,0.0,0.0,0.0,0.0,3.0,0.335545,0.32655,0.31951,0.320209,0.002186,-0.03111,9e-06,-0.000619,0.03387,-7.6e-05,0.0,0.0,0.0,0.0,0.0,0.0
233659,0.00818,0.010132,8.1e-05,0.0,0.0,0.0,0.0,0.0,0.0,3.0,0.333547,0.326596,0.316314,0.32539,0.002173,-0.030429,9e-06,-0.000661,0.034375,-7.7e-05,0.0,0.0,0.0,0.0,0.0,0.0
233679,0.008424,0.01001,8e-05,0.0,0.0,0.0,0.0,0.0,0.0,3.0,0.335877,0.326454,0.318804,0.320655,0.00216,-0.029737,9e-06,-0.000702,0.034865,-7.9e-05,0.0,0.0,0.0,0.0,0.0,0.0
233699,0.008546,0.010132,7.9e-05,0.0,0.0,0.0,0.0,0.0,0.0,3.0,0.334771,0.326424,0.320328,0.320344,0.002145,-0.029036,8e-06,-0.000743,0.035339,-8e-05,0.0,0.0,0.0,0.0,0.0,0.0
233719,0.008423,0.01001,-4.2e-05,0.0,0.0,0.0,0.0,0.0,0.0,3.0,0.327466,0.323524,0.321161,0.329913,0.00213,-0.028326,8e-06,-0.000784,0.035798,-8.1e-05,0.0,0.0,0.0,0.0,0.0,0.0
233739,0.008423,0.009766,-4.1e-05,0.0,0.0,0.0,0.0,0.0,0.0,3.0,0.333955,0.322646,0.319098,0.326207,0.002114,-0.027607,8e-06,-0.000823,0.03624,-8.2e-05,0.0,0.0,0.0,0.0,0.0,0.0
233759,0.008302,0.009888,8.1e-05,0.0,0.0,0.0,0.0,0.0,0.0,3.0,0.336368,0.326062,0.316654,0.322649,0.002097,-0.026879,8e-06,-0.000863,0.036667,-8.3e-05,0.0,0.0,0.0,0.0,0.0,0.0
233779,0.00818,0.009643,8.3e-05,0.0,0.0,0.0,0.0,0.0,0.0,3.0,0.337008,0.330046,0.317663,0.316838,0.00208,-0.026142,8e-06,-0.000902,0.037077,-8.4e-05,0.0,0.0,0.0,0.0,0.0,0.0
233799,0.007813,0.009521,8.5e-05,0.0,0.0,0.0,0.0,0.0,0.0,3.0,0.334317,0.326777,0.317235,0.323513,0.002061,-0.025398,8e-06,-0.000941,0.037471,-8.4e-05,0.0,0.0,0.0,0.0,0.0,0.0
233819,0.007814,0.009399,0.000207,0.0,0.0,0.0,0.0,0.0,0.0,3.0,0.33315,0.327597,0.321839,0.319335,0.002042,-0.024646,8e-06,-0.000979,0.037849,-8.5e-05,0.0,0.0,0.0,0.0,0.0,0.0
233839,0.007936,0.009277,0.000207,0.0,0.0,0.0,0.0,0.0,0.0,3.0,0.335084,0.326491,0.321746,0.318513,0.002022,-0.023886,8e-06,-0.001016,0.03821,-8.6e-05,0.0,0.0,0.0,0.0,0.0,0.0
233859,0.008058,0.009033,0.000208,0.0,0.0,0.0,0.0,0.0,0.0,3.0,0.330958,0.331276,0.322452,0.317178,0.002002,-0.023119,7e-06,-0.001053,0.038555,-8.6e-05,0.0,0.0,0.0,0.0,0.0,0.0
233879,0.00818,0.00891,0.000208,0.0,0.0,0.0,0.0,0.0,0.0,3.0,0.334027,0.324162,0.327862,0.315743,0.001981,-0.022346,7e-06,-0.00109,0.038883,-8.6e-05,0.0,0.0,0.0,0.0,0.0,0.0
233899,0.008424,0.008666,0.000208,0.0,0.0,0.0,0.0,0.0,0.0,3.0,0.333724,0.325044,0.321712,0.321474,0.001958,-0.021566,7e-06,-0.001126,0.039194,-8.7e-05,0.0,0.0,0.0,0.0,0.0,0.0
233919,0.00818,0.008544,0.000209,0.0,0.0,0.0,0.0,0.0,0.0,3.0,0.337441,0.327032,0.317173,0.320004,0.001936,-0.020779,7e-06,-0.001161,0.039488,-8.7e-05,0.0,0.0,0.0,0.0,0.0,0.0
233939,0.008058,0.008666,0.000209,0.0,0.0,0.0,0.0,0.0,0.0,3.0,0.336916,0.327974,0.314082,0.322613,0.001912,-0.019988,7e-06,-0.001196,0.039766,-8.7e-05,0.0,0.0,0.0,0.0,0.0,0.0
233959,0.007692,0.008544,0.000333,0.0,0.0,0.0,0.0,0.0,0.0,3.0,0.337131,0.323784,0.317332,0.323475,0.001888,-0.01919,6e-06,-0.00123,0.040027,-8.7e-05,0.0,0.0,0.0,0.0,0.0,0.0
233979,0.007448,0.0083,0.000213,0.0,0.0,0.0,0.0,0.0,0.0,3.0,0.333269,0.319187,0.327093,0.322376,0.001863,-0.018388,6e-06,-0.001263,0.04027,-8.7e-05,0.0,0.0,0.0,0.0,0.0,0.0
233999,0.007448,0.008422,0.000335,0.0,0.0,0.0,0.0,0.0,0.0,3.0,0.32647,0.322532,0.318501,0.33437,0.001838,-0.017581,6e-06,-0.001296,0.040497,-8.6e-05,0.0,0.0,0.0,0.0,0.0,0.0
234019,0.007693,0.008177,0.000457,0.0,0.0,0.0,0.0,0.0,0.0,3.0,0.334869,0.329366,0.319049,0.318471,0.001812,-0.016769,6e-06,-0.001328,0.040707,-8.6e-05,0.0,0.0,0.0,0.0,0.0,0.0
234039,0.007937,0.008055,0.000456,0.0,0.0,0.0,0.0,0.0,0.0,3.0,0.329364,0.327643,0.323601,0.321469,0.001785,-0.015954,5e-06,-0.00136,0.0409,-8.6e-05,0.0,0.0,0.0,0.0,0.0,0.0
234059,0.008059,0.007811,0.000457,0.0,0.0,0.0,0.0,0.0,0.0,3.0,0.330654,0.327942,0.323902,0.319514,0.001757,-0.015134,5e-06,-0.001391,0.041075,-8.5e-05,0.0,0.0,0.0,0.0,0.0,0.0
234079,0.008303,0.007811,0.000456,0.0,0.0,0.0,0.0,0.0,0.0,3.0,0.333377,0.324891,0.32117,0.322533,0.001729,-0.014311,5e-06,-0.001421,0.041234,-8.5e-05,0.0,0.0,0.0,0.0,0.0,0.0
234099,0.008181,0.007689,0.000457,0.0,0.0,0.0,0.0,0.0,0.0,3.0,0.332989,0.327074,0.317974,0.323877,0.001701,-0.013486,5e-06,-0.001451,0.041375,-8.4e-05,0.0,0.0,0.0,0.0,0.0,0.0
234119,0.007693,0.007689,0.000459,0.0,0.0,0.0,0.0,0.0,0.0,3.0,0.331592,0.329515,0.3156,0.325137,0.001671,-0.012657,4e-06,-0.00148,0.041499,-8.3e-05,0.0,0.0,0.0,0.0,0.0,0.0
234139,0.007448,0.007567,0.00046,0.0,0.0,0.0,0.0,0.0,0.0,3.0,0.334368,0.324962,0.319613,0.322966,0.001642,-0.011826,4e-06,-0.001508,0.041606,-8.2e-05,0.0,0.0,0.0,0.0,0.0,0.0
234159,0.007204,0.007567,0.000461,0.0,0.0,0.0,0.0,0.0,0.0,3.0,0.336027,0.326855,0.318178,0.320703,0.001611,-0.010994,4e-06,-0.001536,0.041697,-8.2e-05,0.0,0.0,0.0,0.0,0.0,0.0
234179,0.007204,0.007445,0.000462,0.0,0.0,0.0,0.0,0.0,0.0,3.0,0.334086,0.324773,0.320356,0.322719,0.00158,-0.010159,4e-06,-0.001563,0.04177,-8.1e-05,0.0,0.0,0.0,0.0,0.0,0.0
234199,0.007204,0.007323,0.000462,0.0,0.0,0.0,0.0,0.0,0.0,3.0,0.336282,0.324988,0.317944,0.322565,0.001549,-0.009323,3e-06,-0.001589,0.041825,-8e-05,0.0,0.0,0.0,0.0,0.0,0.0
234219,0.007571,0.007078,0.000584,0.0,0.0,0.0,0.0,0.0,0.0,3.0,0.32556,0.334985,0.314701,0.326481,0.001517,-0.008486,3e-06,-0.001614,0.041864,-7.8e-05,0.0,0.0,0.0,0.0,0.0,0.0
234239,0.007693,0.006834,0.000584,0.0,0.0,0.0,0.0,0.0,0.0,3.0,0.331332,0.328561,0.322099,0.31999,0.001484,-0.007649,3e-06,-0.001639,0.041886,-7.7e-05,0.0,0.0,0.0,0.0,0.0,0.0
234259,0.007693,0.006834,0.000584,0.0,0.0,0.0,0.0,0.0,0.0,3.0,0.331698,0.321294,0.322682,0.326351,0.001451,-0.006811,2e-06,-0.001663,0.041891,-7.6e-05,0.0,0.0,0.0,0.0,0.0,0.0
234279,0.007692,0.006712,0.000463,0.0,0.0,0.0,0.0,0.0,0.0,3.0,0.339863,0.317098,0.328199,0.316227,0.001418,-0.005973,2e-06,-0.001686,0.04188,-7.5e-05,0.0,0.0,0.0,0.0,0.0,0.0
234299,0.007448,0.007079,0.000462,0.0,0.0,0.0,0.0,0.0,0.0,3.0,0.342758,0.317987,0.322416,0.318127,0.001384,-0.005136,2e-06,-0.001709,0.041851,-7.3e-05,0.0,0.0,0.0,0.0,0.0,0.0
234319,0.007449,0.007078,0.000584,0.0,0.0,0.0,0.0,0.0,0.0,3.0,0.334261,0.331809,0.313239,0.322271,0.00135,-0.004299,1e-06,-0.00173,0.041806,-7.2e-05,0.0,0.0,0.0,0.0,0.0,0.0
234339,0.007083,0.007078,0.000585,0.0,0.0,0.0,0.0,0.0,0.0,3.0,0.332813,0.327529,0.317397,0.324159,0.001315,-0.003464,1e-06,-0.001751,0.041744,-7e-05,0.0,0.0,0.0,0.0,0.0,0.0
234359,0.007082,0.006712,0.000587,0.0,0.0,0.0,0.0,0.0,0.0,3.0,0.330845,0.32643,0.323213,0.321567,0.00128,-0.002629,1e-06,-0.001771,0.041665,-6.8e-05,0.0,0.0,0.0,0.0,0.0,0.0
234379,0.007204,0.00659,0.000587,0.0,0.0,0.0,0.0,0.0,0.0,3.0,0.331268,0.323914,0.323031,0.323853,0.001244,-0.001797,1e-06,-0.001791,0.04157,-6.7e-05,0.0,0.0,0.0,0.0,0.0,0.0
234399,0.007571,0.006223,0.000709,0.0,0.0,0.0,0.0,0.0,0.0,3.0,0.331798,0.329363,0.322355,0.318404,0.001208,-0.000966,0.0,-0.001809,0.041458,-6.5e-05,0.0,0.0,0.0,0.0,0.0,0.0
234419,0.007815,0.006223,0.000586,0.0,0.0,0.0,0.0,0.0,0.0,3.0,0.337287,0.321818,0.328832,0.313585,0.001172,-0.000138,-0.0,-0.001827,0.04133,-6.3e-05,0.0,0.0,0.0,0.0,0.0,0.0
234439,0.007693,0.006101,0.000587,0.0,0.0,0.0,0.0,0.0,0.0,3.0,0.330223,0.32739,0.321078,0.323364,0.001135,0.000688,-0.0,-0.001844,0.041186,-6.2e-05,0.0,0.0,0.0,0.0,0.0,0.0
234459,0.007815,0.006223,0.000586,0.0,0.0,0.0,0.0,0.0,0.0,3.0,0.334173,0.322515,0.321512,0.323745,0.001098,0.00151,-1e-06,-0.00186,0.041026,-6e-05,0.0,0.0,0.0,0.0,0.0,0.0
234479,0.007815,0.006468,0.000585,0.0,0.0,0.0,0.0,0.0,0.0,3.0,0.33562,0.321813,0.318444,0.325936,0.001061,0.002329,-1e-06,-0.001876,0.04085,-5.8e-05,0.0,0.0,0.0,0.0,0.0,0.0
234499,0.007571,0.00659,0.000585,0.0,0.0,0.0,0.0,0.0,0.0,3.0,0.333108,0.32502,0.31742,0.326353,0.001023,0.003145,-1e-06,-0.00189,0.040658,-5.6e-05,0.0,0.0,0.0,0.0,0.0,0.0
234519,0.007326,0.006346,0.000465,0.0,0.0,0.0,0.0,0.0,0.0,3.0,0.334053,0.323479,0.323481,0.320933,0.000985,0.003957,-2e-06,-0.001904,0.04045,-5.4e-05,0.0,0.0,0.0,0.0,0.0,0.0
234539,0.007448,0.006224,0.000465,0.0,0.0,0.0,0.0,0.0,0.0,3.0,0.331443,0.322444,0.326653,0.32149,0.000947,0.004764,-2e-06,-0.001917,0.040227,-5.2e-05,0.0,0.0,0.0,0.0,0.0,0.0
234559,0.00757,0.00598,0.000466,0.0,0.0,0.0,0.0,0.0,0.0,3.0,0.335105,0.329173,0.319127,0.318343,0.000909,0.005567,-2e-06,-0.001929,0.039988,-5e-05,0.0,0.0,0.0,0.0,0.0,0.0
234579,0.007692,0.00598,0.000465,0.0,0.0,0.0,0.0,0.0,0.0,3.0,0.332922,0.330552,0.321215,0.317117,0.00087,0.006365,-2e-06,-0.001941,0.039734,-4.8e-05,0.0,0.0,0.0,0.0,0.0,0.0
234599,0.007692,0.005614,0.000467,0.0,0.0,0.0,0.0,0.0,0.0,3.0,0.33156,0.329094,0.322665,0.318622,0.000831,0.007157,-3e-06,-0.001951,0.039464,-4.6e-05,0.0,0.0,0.0,0.0,0.0,0.0
234619,0.007692,0.005614,0.000467,0.0,0.0,0.0,0.0,0.0,0.0,3.0,0.329344,0.324989,0.325056,0.322722,0.000792,0.007944,-3e-06,-0.001961,0.03918,-4.4e-05,0.0,0.0,0.0,0.0,0.0,0.0
234639,0.007692,0.005858,0.000466,0.0,0.0,0.0,0.0,0.0,0.0,3.0,0.328219,0.323166,0.319238,0.331356,0.000753,0.008726,-3e-06,-0.00197,0.038881,-4.2e-05,0.0,0.0,0.0,0.0,0.0,0.0
234659,0.007692,0.00598,0.000465,0.0,0.0,0.0,0.0,0.0,0.0,3.0,0.337605,0.321222,0.323119,0.319789,0.000713,0.009501,-3e-06,-0.001978,0.038567,-4e-05,0.0,0.0,0.0,0.0,0.0,0.0
234679,0.00757,0.006224,0.000465,0.0,0.0,0.0,0.0,0.0,0.0,3.0,0.339492,0.315458,0.327248,0.319254,0.000674,0.01027,-4e-06,-0.001985,0.038239,-3.7e-05,0.0,0.0,0.0,0.0,0.0,0.0
234699,0.007448,0.006102,0.000344,0.0,0.0,0.0,0.0,0.0,0.0,3.0,0.337219,0.326124,0.319356,0.319006,0.000634,0.011032,-4e-06,-0.001992,0.037896,-3.5e-05,0.0,0.0,0.0,0.0,0.0,0.0
234719,0.00757,0.00598,0.000344,0.0,0.0,0.0,0.0,0.0,0.0,3.0,0.331192,0.326383,0.323406,0.321059,0.000594,0.011788,-4e-06,-0.001997,0.037539,-3.3e-05,0.0,0.0,0.0,0.0,0.0,0.0
234739,0.007814,0.005736,0.000344,0.0,0.0,0.0,0.0,0.0,0.0,3.0,0.333408,0.325205,0.320922,0.32243,0.000554,0.012536,-4e-06,-0.002002,0.037169,-3.1e-05,0.0,0.0,0.0,0.0,0.0,0.0
234759,0.007814,0.005614,0.000344,0.0,0.0,0.0,0.0,0.0,0.0,3.0,0.331403,0.324235,0.323053,0.32337,0.000514,0.013276,-4e-06,-0.002006,0.036784,-2.9e-05,0.0,0.0,0.0,0.0,0.0,0.0
234779,0.007814,0.005492,0.000345,0.0,0.0,0.0,0.0,0.0,0.0,3.0,0.330021,0.325107,0.324468,0.3225,0.000474,0.014009,-5e-06,-0.002009,0.036386,-2.7e-05,0.0,0.0,0.0,0.0,0.0,0.0
234799,0.007936,0.005492,0.000344,0.0,0.0,0.0,0.0,0.0,0.0,3.0,0.332528,0.319604,0.325438,0.324412,0.000434,0.014733,-5e-06,-0.002011,0.035975,-2.5e-05,0.0,0.0,0.0,0.0,0.0,0.0
234819,0.007814,0.005737,0.000222,0.0,0.0,0.0,0.0,0.0,0.0,3.0,0.343199,0.319877,0.324819,0.313229,0.000394,0.01545,-5e-06,-0.002013,0.03555,-2.3e-05,0.0,0.0,0.0,0.0,0.0,0.0
234839,0.007569,0.005981,0.000222,0.0,0.0,0.0,0.0,0.0,0.0,3.0,0.340627,0.323069,0.321235,0.316532,0.000353,0.016158,-5e-06,-0.002014,0.035113,-2.1e-05,0.0,0.0,0.0,0.0,0.0,0.0
234859,0.007325,0.005737,0.000223,0.0,0.0,0.0,0.0,0.0,0.0,3.0,0.333092,0.324477,0.321909,0.322512,0.000313,0.016856,-5e-06,-0.002013,0.034663,-1.9e-05,0.0,0.0,0.0,0.0,0.0,0.0
234879,0.007203,0.005615,0.000224,0.0,0.0,0.0,0.0,0.0,0.0,3.0,0.333783,0.325212,0.320684,0.322267,0.000273,0.017546,-5e-06,-0.002012,0.034201,-1.6e-05,0.0,0.0,0.0,0.0,0.0,0.0
234899,0.007447,0.005493,0.000224,0.0,0.0,0.0,0.0,0.0,0.0,3.0,0.330242,0.324006,0.324416,0.323433,0.000233,0.018227,-6e-06,-0.002011,0.033726,-1.5e-05,0.0,0.0,0.0,0.0,0.0,0.0
234919,0.007691,0.005248,0.000224,0.0,0.0,0.0,0.0,0.0,0.0,3.0,0.333708,0.322896,0.327927,0.317322,0.000192,0.018898,-6e-06,-0.002008,0.033239,-1.3e-05,0.0,0.0,0.0,0.0,0.0,0.0
234939,0.007691,0.005127,0.000102,0.0,0.0,0.0,0.0,0.0,0.0,3.0,0.332685,0.324029,0.327671,0.317519,0.000152,0.019559,-6e-06,-0.002005,0.03274,-1.1e-05,0.0,0.0,0.0,0.0,0.0,0.0
234959,0.007691,0.005127,0.000102,0.0,0.0,0.0,0.0,0.0,0.0,3.0,0.336468,0.32375,0.32186,0.319727,0.000112,0.02021,-6e-06,-0.002001,0.03223,-9e-06,0.0,0.0,0.0,0.0,0.0,0.0
234979,0.007569,0.005371,0.000102,0.0,0.0,0.0,0.0,0.0,0.0,3.0,0.336552,0.322301,0.318136,0.324779,7.2e-05,0.02085,-6e-06,-0.001996,0.031709,-7e-06,0.0,0.0,0.0,0.0,0.0,0.0
234999,0.007325,0.005615,0.000102,0.0,0.0,0.0,0.0,0.0,0.0,3.0,0.333947,0.318289,0.320811,0.328786,3.2e-05,0.021481,-6e-06,-0.00199,0.031176,-5e-06,0.0,0.0,0.0,0.0,0.0,0.0
235019,0.006959,0.005737,0.000102,0.0,0.0,0.0,0.0,0.0,0.0,3.0,0.336169,0.318962,0.318366,0.328213,-8e-06,0.0221,-6e-06,-0.001984,0.030633,-3e-06,0.0,0.0,0.0,0.0,0.0,0.0
235039,0.006715,0.005615,0.000103,0.0,0.0,0.0,0.0,0.0,0.0,3.0,0.335707,0.324679,0.318749,0.322693,-4.7e-05,0.022709,-6e-06,-0.001976,0.030079,-2e-06,0.0,0.0,0.0,0.0,0.0,0.0
235059,0.006715,0.005493,0.000104,0.0,0.0,0.0,0.0,0.0,0.0,3.0,0.328149,0.327554,0.319665,0.326695,-8.7e-05,0.023306,-6e-06,-0.001968,0.029515,0.0,0.0,0.0,0.0,0.0,0.0,0.0
235079,0.006837,0.005127,0.000105,0.0,0.0,0.0,0.0,0.087266,0.0,3.0,0.332259,0.613473,0.321979,0.15,-0.000128,0.025511,-0.0001,-0.001907,0.589267,-0.031184,0.0,0.0,0.0,0.0,0.0,0.0
235099,0.006959,0.005126,0.000226,0.0,0.0,0.0,0.0,0.087266,0.0,3.0,0.330088,0.373498,0.32466,0.260149,-0.000181,0.039897,-0.000794,-0.000902,0.77022,-0.033927,0.0,0.0,0.0,0.0,0.0,0.0
235119,0.007328,0.005733,0.0012,0.0,0.0,0.0,0.0,0.087266,0.0,3.0,0.296931,0.370237,0.299778,0.327941,-0.000221,0.054041,-0.001446,-1.5e-05,0.597589,-0.030313,0.0,0.0,0.0,0.0,0.0,0.0
235139,0.007087,0.008418,0.001557,0.0,0.0,0.0,0.0,0.087266,0.0,3.0,0.323468,0.335918,0.311995,0.330118,-0.000251,0.064743,-0.002029,0.000417,0.437084,-0.026382,0.0,0.0,0.0,0.0,0.0,0.0
235159,0.00721,0.012569,0.001176,0.0,0.0,0.0,0.0,0.087266,0.0,3.0,0.337846,0.300539,0.333427,0.328578,-0.000276,0.072521,-0.002526,0.000514,0.319718,-0.02194,0.0,0.0,0.0,0.0,0.0,0.0
235179,0.007331,0.018552,0.000665,0.0,0.0,0.0,0.0,0.087266,0.0,3.0,0.340466,0.273567,0.337223,0.343821,-0.000297,0.078316,-0.002937,0.000407,0.247497,-0.018036,0.0,0.0,0.0,0.0,0.0,0.0
235199,0.006964,0.02539,0.0004,0.0,0.0,0.0,0.0,0.087266,0.0,3.0,0.347761,0.259154,0.328772,0.354478,-0.000317,0.082907,-0.003274,0.000201,0.204184,-0.014631,0.0,0.0,0.0,0.0,0.0,0.0
235219,0.006723,0.032838,0.0005,0.0,0.0,0.0,0.0,0.087266,0.0,3.0,0.335131,0.261281,0.321576,0.371017,-0.000338,0.086775,-0.003546,-4.3e-05,0.178281,-0.011664,0.0,0.0,0.0,0.0,0.0,0.0
235239,0.006483,0.039552,0.000605,0.0,0.0,0.0,0.0,0.087266,0.0,3.0,0.329278,0.26272,0.32092,0.375687,-0.000359,0.090212,-0.003761,-0.000293,0.162702,-0.009082,0.0,0.0,0.0,0.0,0.0,0.0
235259,0.006366,0.045779,0.00071,0.0,0.0,0.0,0.0,0.087266,0.0,3.0,0.321354,0.278064,0.315781,0.376586,-0.000382,0.093388,-0.003927,-0.000534,0.153214,-0.006837,0.0,0.0,0.0,0.0,0.0,0.0
235279,0.006493,0.051151,0.000812,0.0,0.0,0.0,0.0,0.087266,0.0,3.0,0.325436,0.287887,0.31569,0.366488,-0.000406,0.096403,-0.004051,-0.000759,0.147305,-0.004888,0.0,0.0,0.0,0.0,0.0,0.0
235299,0.006495,0.055304,0.000799,0.0,0.0,0.0,0.0,0.087266,0.0,3.0,0.339546,0.287165,0.32745,0.343812,-0.000431,0.099318,-0.004137,-0.000966,0.143492,-0.003197,0.0,0.0,0.0,0.0,0.0,0.0
235319,0.00674,0.058358,0.000782,0.0,0.0,0.0,0.0,0.087266,0.0,3.0,0.329027,0.307202,0.324604,0.340152,-0.000457,0.102167,-0.004191,-0.001155,0.140896,-0.001734,0.0,0.0,0.0,0.0,0.0,0.0
235339,0.006984,0.060066,0.000769,0.0,0.0,0.0,0.0,0.087266,0.0,3.0,0.327919,0.319147,0.326648,0.32833,-0.000485,0.10497,-0.004218,-0.001325,0.138998,-0.000469,0.0,0.0,0.0,0.0,0.0,0.0
235359,0.007229,0.060798,0.000759,0.0,0.0,0.0,0.0,0.087266,0.0,3.0,0.321958,0.333593,0.318062,0.328252,-0.000512,0.107738,-0.00422,-0.001478,0.137491,0.000621,0.0,0.0,0.0,0.0,0.0,0.0
235379,0.007229,0.060798,0.000759,0.0,0.0,0.0,0.0,0.087266,0.0,3.0,0.335025,0.331764,0.322469,0.312244,-0.000541,0.110478,-0.004202,-0.001614,0.136194,0.001558,0.0,0.0,0.0,0.0,0.0,0.0
235399,0.007347,0.060798,0.000633,0.0,0.0,0.0,0.0,0.087266,0.0,3.0,0.331276,0.337721,0.322489,0.309755,-0.00057,0.113193,-0.004166,-0.001735,0.135001,0.002361,0.0,0.0,0.0,0.0,0.0,0.0
235419,0.007099,0.060799,0.000518,0.0,0.0,0.0,0.0,0.087266,0.0,3.0,0.333055,0.336189,0.322149,0.309876,-0.0006,0.115884,-0.004114,-0.001842,0.133847,0.003047,0.0,0.0,0.0,0.0,0.0,0.0
235439,0.006855,0.061165,0.000524,0.0,0.0,0.0,0.0,0.087266,0.0,3.0,0.33443,0.331956,0.320826,0.31439,-0.00063,0.118553,-0.00405,-0.001936,0.132696,0.00363,0.0,0.0,0.0,0.0,0.0,0.0
235459,0.006611,0.061775,0.00053,0.0,0.0,0.0,0.0,0.087266,0.0,3.0,0.338511,0.328581,0.321694,0.312623,-0.00066,0.121198,-0.003975,-0.002018,0.131528,0.004123,0.0,0.0,0.0,0.0,0.0,0.0
235479,0.006608,0.063121,0.000403,0.0,0.0,0.0,0.0,0.087266,0.0,3.0,0.335035,0.320652,0.324661,0.321539,-0.000691,0.12382,-0.00389,-0.002089,0.130328,0.004537,0.0,0.0,0.0,0.0,0.0,0.0
235499,0.006364,0.065196,0.000404,0.0,0.0,0.0,0.0,0.087266,0.0,3.0,0.330148,0.311644,0.325083,0.334663,-0.000722,0.126417,-0.003798,-0.002149,0.12909,0.004882,0.0,0.0,0.0,0.0,0.0,0.0
235519,0.006117,0.067762,0.000282,0.0,0.0,0.0,0.0,0.087266,0.0,3.0,0.343391,0.300501,0.323598,0.332586,-0.000753,0.128989,-0.003699,-0.002201,0.127809,0.005166,0.0,0.0,0.0,0.0,0.0,0.0
235539,0.006117,0.071061,0.000272,0.0,0.0,0.0,0.0,0.087266,0.0,3.0,0.339677,0.302312,0.325426,0.333084,-0.000783,0.131536,-0.003595,-0.002243,0.126485,0.005397,0.0,0.0,0.0,0.0,0.0,0.0
235559,0.005996,0.074603,0.000266,0.0,0.0,0.0,0.0,0.087266,0.0,3.0,0.337543,0.29576,0.32423,0.341912,-0.000814,0.134055,-0.003487,-0.002277,0.125116,0.005582,0.0,0.0,0.0,0.0,0.0,0.0
235579,0.005869,0.078145,0.000137,0.0,0.0,0.0,0.0,0.087266,0.0,3.0,0.332615,0.296814,0.318569,0.350893,-0.000845,0.136547,-0.003375,-0.002305,0.123702,0.005727,0.0,0.0,0.0,0.0,0.0,0.0
235599,0.005626,0.081932,0.000136,0.0,0.0,0.0,0.0,0.087266,0.0,3.0,0.333919,0.292561,0.322305,0.349718,-0.000876,0.139011,-0.003261,-0.002325,0.122243,0.005836,0.0,0.0,0.0,0.0,0.0,0.0
235619,0.005504,0.085601,0.000131,0.0,0.0,0.0,0.0,0.087266,0.0,3.0,0.331861,0.289449,0.323384,0.353073,-0.000906,0.141444,-0.003144,-0.002339,0.120739,0.005915,0.0,0.0,0.0,0.0,0.0,0.0
235639,0.005626,0.089143,0.000116,0.0,0.0,0.0,0.0,0.087266,0.0,3.0,0.325538,0.29593,0.323498,0.353701,-0.000936,0.143848,-0.003026,-0.002348,0.119191,0.005966,0.0,0.0,0.0,0.0,0.0,0.0
235659,0.005621,0.09232,-1.5e-05,0.0,0.0,0.0,0.0,0.087266,0.0,3.0,0.333085,0.293221,0.325292,0.347278,-0.000966,0.14622,-0.002908,-0.002351,0.1176,0.005994,0.0,0.0,0.0,0.0,0.0,0.0
235679,0.005505,0.095008,0.000105,0.0,0.0,0.0,0.0,0.087266,0.0,3.0,0.332073,0.297811,0.323289,0.346377,-0.000996,0.14856,-0.002789,-0.00235,0.115966,0.006002,0.0,0.0,0.0,0.0,0.0,0.0
235699,0.005505,0.097452,9.9e-05,0.0,0.0,0.0,0.0,0.087266,0.0,3.0,0.332045,0.303751,0.32074,0.3438,-0.001025,0.150867,-0.00267,-0.002344,0.11429,0.005992,0.0,0.0,0.0,0.0,0.0,0.0
235719,0.005505,0.099531,9.3e-05,0.0,0.0,0.0,0.0,0.087266,0.0,3.0,0.340006,0.295881,0.328098,0.335674,-0.001054,0.15314,-0.002551,-0.002334,0.112574,0.005966,0.0,0.0,0.0,0.0,0.0,0.0
235739,0.005255,0.101244,-2.2e-05,0.0,0.0,0.0,0.0,0.087266,0.0,3.0,0.33709,0.306722,0.318898,0.338016,-0.001082,0.155378,-0.002433,-0.00232,0.110817,0.005927,0.0,0.0,0.0,0.0,0.0,0.0
235759,0.004761,0.102464,-0.000123,0.0,0.0,0.0,0.0,0.087266,0.0,3.0,0.333035,0.309262,0.32168,0.337198,-0.00111,0.157581,-0.002316,-0.002303,0.109021,0.005877,0.0,0.0,0.0,0.0,0.0,0.0
235779,0.004883,0.103568,-0.000132,0.0,0.0,0.0,0.0,0.087266,0.0,3.0,0.330105,0.312247,0.323464,0.335706,-0.001138,0.159748,-0.0022,-0.002282,0.107187,0.005816,0.0,0.0,0.0,0.0,0.0,0.0
235799,0.005005,0.104909,-0.000141,0.0,0.0,0.0,0.0,0.087266,0.0,3.0,0.337037,0.311433,0.317865,0.334831,-0.001165,0.161878,-0.002085,-0.002259,0.105315,0.005747,0.0,0.0,0.0,0.0,0.0,0.0
235819,0.004639,0.106378,-0.000125,0.0,0.0,0.0,0.0,0.087266,0.0,3.0,0.342176,0.308085,0.325429,0.325256,-0.001192,0.16397,-0.001972,-0.002233,0.103407,0.005671,0.0,0.0,0.0,0.0,0.0,0.0
235839,0.00451,0.107719,-0.000245,0.0,0.0,0.0,0.0,0.087266,0.0,3.0,0.331826,0.310989,0.322323,0.336237,-0.001218,0.166024,-0.00186,-0.002204,0.101463,0.005588,0.0,0.0,0.0,0.0,0.0,0.0
235859,0.004632,0.108945,-0.000254,0.0,0.0,0.0,0.0,0.087266,0.0,3.0,0.330718,0.306183,0.327202,0.336942,-0.001243,0.168038,-0.00175,-0.002173,0.099484,0.0055,0.0,0.0,0.0,0.0,0.0,0.0
235879,0.004503,0.11078,-0.000374,0.0,0.0,0.0,0.0,0.087266,0.0,3.0,0.333114,0.30311,0.326386,0.338052,-0.001268,0.170013,-0.001641,-0.00214,0.097472,0.005407,0.0,0.0,0.0,0.0,0.0,0.0
235899,0.004374,0.112615,-0.000494,0.0,0.0,0.0,0.0,0.087266,0.0,3.0,0.329872,0.304212,0.318585,0.347405,-0.001293,0.171948,-0.001535,-0.002105,0.095427,0.00531,0.0,0.0,0.0,0.0,0.0,0.0
235919,0.004374,0.114816,-0.000499,0.0,0.0,0.0,0.0,0.087266,0.0,3.0,0.333871,0.297143,0.322908,0.34556,-0.001317,0.173841,-0.00143,-0.002068,0.09335,0.005211,0.0,0.0,0.0,0.0,0.0,0.0
235939,0.004366,0.117139,-0.000627,0.0,0.0,0.0,0.0,0.087266,0.0,3.0,0.332337,0.293801,0.32809,0.344934,-0.00134,0.175692,-0.001328,-0.00203,0.091242,0.005109,0.0,0.0,0.0,0.0,0.0,0.0
235959,0.004236,0.119218,-0.000747,0.0,0.0,0.0,0.0,0.087266,0.0,3.0,0.33701,0.294869,0.321671,0.345509,-0.001362,0.177501,-0.001227,-0.00199,0.089105,0.005004,0.0,0.0,0.0,0.0,0.0,0.0
235979,0.004106,0.121297,-0.000867,0.0,0.0,0.0,0.0,0.087266,0.0,3.0,0.337646,0.297328,0.320913,0.343582,-0.001385,0.179267,-0.001129,-0.001948,0.086938,0.004898,0.0,0.0,0.0,0.0,0.0,0.0
235999,0.004105,0.123376,-0.000872,0.0,0.0,0.0,0.0,0.087266,0.0,3.0,0.340715,0.284493,0.32936,0.342935,-0.001406,0.18099,-0.001032,-0.001905,0.084744,0.004791,0.0,0.0,0.0,0.0,0.0,0.0
236019,0.003853,0.125334,-0.000983,0.0,0.0,0.0,0.0,0.087266,0.0,3.0,0.335726,0.287259,0.327111,0.347755,-0.001427,0.182668,-0.000938,-0.001861,0.082524,0.004683,0.0,0.0,0.0,0.0,0.0,0.0
236039,0.003601,0.127047,-0.001094,0.0,0.0,0.0,0.0,0.087266,0.0,3.0,0.335041,0.289882,0.325361,0.347983,-0.001447,0.184302,-0.000846,-0.001816,0.080277,0.004574,0.0,0.0,0.0,0.0,0.0,0.0
236059,0.003356,0.128509,-0.001081,0.0,0.0,0.0,0.0,0.087266,0.0,3.0,0.337362,0.299226,0.31961,0.34348,-0.001466,0.18589,-0.000756,-0.001769,0.078006,0.004464,0.0,0.0,0.0,0.0,0.0,0.0
236079,0.003469,0.129979,-0.001215,0.0,0.0,0.0,0.0,0.087266,0.0,3.0,0.342071,0.297039,0.323249,0.337239,-0.001485,0.187434,-0.000669,-0.001722,0.075711,0.004355,0.0,0.0,0.0,0.0,0.0,0.0
236099,0.003217,0.131327,-0.001324,0.0,0.0,0.0,0.0,0.087266,0.0,3.0,0.343875,0.295485,0.325665,0.334385,-0.001503,0.188931,-0.000583,-0.001674,0.073394,0.004246,0.0,0.0,0.0,0.0,0.0,0.0
236119,0.003094,0.132423,-0.001318,0.0,0.0,0.0,0.0,0.087266,0.0,3.0,0.33538,0.303649,0.321808,0.339675,-0.001521,0.190381,-0.0005,-0.001625,0.071055,0.004136,0.0,0.0,0.0,0.0,0.0,0.0
236139,0.002964,0.133406,-0.001434,0.0,0.0,0.0,0.0,0.087266,0.0,3.0,0.33391,0.299553,0.323078,0.343386,-0.001537,0.191785,-0.000418,-0.001576,0.068696,0.004028,0.0,0.0,0.0,0.0,0.0,0.0
236159,0.002955,0.134015,-0.001558,0.0,0.0,0.0,0.0,0.087266,0.0,3.0,0.33356,0.305013,0.325927,0.336399,-0.001553,0.193141,-0.000339,-0.001526,0.066318,0.003919,0.0,0.0,0.0,0.0,0.0,0.0
236179,0.002946,0.134876,-0.001683,0.0,0.0,0.0,0.0,0.087266,0.0,3.0,0.334597,0.302979,0.324784,0.338229,-0.001569,0.194449,-0.000262,-0.001475,0.063921,0.003811,0.0,0.0,0.0,0.0,0.0,0.0
236199,0.002815,0.135729,-0.001799,0.0,0.0,0.0,0.0,0.087266,0.0,3.0,0.33573,0.30125,0.323327,0.33996,-0.001583,0.19571,-0.000187,-0.001423,0.061507,0.003705,0.0,0.0,0.0,0.0,0.0,0.0
236219,0.002936,0.13659,-0.001809,0.0,0.0,0.0,0.0,0.087266,0.0,3.0,0.326732,0.302577,0.324026,0.346776,-0.001597,0.196922,-0.000115,-0.001372,0.059076,0.003598,0.0,0.0,0.0,0.0,0.0,0.0
236239,0.002936,0.137564,-0.00181,0.0,0.0,0.0,0.0,0.087266,0.0,3.0,0.335382,0.299839,0.323388,0.341434,-0.00161,0.198085,-4.4e-05,-0.001319,0.056631,0.003493,0.0,0.0,0.0,0.0,0.0,0.0
236259,0.002926,0.138425,-0.001935,0.0,0.0,0.0,0.0,0.087266,0.0,3.0,0.343229,0.291835,0.33195,0.331951,-0.001623,0.1992,2.5e-05,-0.001267,0.054172,0.003389,0.0,0.0,0.0,0.0,0.0,0.0
236279,0.002917,0.139399,-0.002059,0.0,0.0,0.0,0.0,0.087266,0.0,3.0,0.335877,0.298117,0.32527,0.340628,-0.001634,0.200265,9.1e-05,-0.001214,0.0517,0.003286,0.0,0.0,0.0,0.0,0.0,0.0
236299,0.002794,0.14026,-0.002052,0.0,0.0,0.0,0.0,0.087266,0.0,3.0,0.335548,0.296952,0.322538,0.344443,-0.001645,0.20128,0.000156,-0.001161,0.049216,0.003184,0.0,0.0,0.0,0.0,0.0,0.0
236319,0.002906,0.141487,-0.002186,0.0,0.0,0.0,0.0,0.087266,0.0,3.0,0.336717,0.288388,0.329577,0.343621,-0.001656,0.202246,0.000218,-0.001108,0.046721,0.003083,0.0,0.0,0.0,0.0,0.0,0.0
236339,0.002783,0.142461,-0.002179,0.0,0.0,0.0,0.0,0.087266,0.0,3.0,0.3357,0.294922,0.322947,0.345568,-0.001665,0.203161,0.000279,-0.001054,0.044217,0.002983,0.0,0.0,0.0,0.0,0.0,0.0
236359,0.00253,0.143322,-0.002286,0.0,0.0,0.0,0.0,0.087266,0.0,3.0,0.343913,0.289886,0.327201,0.337499,-0.001674,0.204027,0.000338,-0.001001,0.041704,0.002885,0.0,0.0,0.0,0.0,0.0,0.0
236379,0.002286,0.144296,-0.00227,0.0,0.0,0.0,0.0,0.087266,0.0,3.0,0.337245,0.298351,0.321331,0.342749,-0.001682,0.204842,0.000394,-0.000947,0.039183,0.002787,0.0,0.0,0.0,0.0,0.0,0.0
236399,0.002154,0.145279,-0.002385,0.0,0.0,0.0,0.0,0.087266,0.0,3.0,0.336657,0.295624,0.321354,0.345529,-0.00169,0.205607,0.000449,-0.000893,0.036656,0.002692,0.0,0.0,0.0,0.0,0.0,0.0
236419,0.001909,0.146131,-0.002368,0.0,0.0,0.0,0.0,0.087266,0.0,3.0,0.338056,0.297682,0.321485,0.342365,-0.001696,0.206321,0.000502,-0.00084,0.034124,0.002597,0.0,0.0,0.0,0.0,0.0,0.0
236439,0.001665,0.14687,-0.002351,0.0,0.0,0.0,0.0,0.087266,0.0,3.0,0.33873,0.300828,0.318255,0.342031,-0.001702,0.206985,0.000554,-0.000786,0.031588,0.002504,0.0,0.0,0.0,0.0,0.0,0.0
236459,0.001421,0.147357,-0.002334,0.0,0.0,0.0,0.0,0.087266,0.0,3.0,0.336767,0.297076,0.321448,0.344157,-0.001707,0.207598,0.000603,-0.000733,0.029048,0.002412,0.0,0.0,0.0,0.0,0.0,0.0
236479,0.001046,0.147843,-0.00243,0.0,0.0,0.0,0.0,0.087266,0.0,3.0,0.329368,0.302677,0.319795,0.34807,-0.001712,0.20816,0.000651,-0.000679,0.026506,0.002321,0.0,0.0,0.0,0.0,0.0,0.0
236499,0.001045,0.148704,-0.002431,0.0,0.0,0.0,0.0,0.087266,0.0,3.0,0.335656,0.293923,0.325047,0.344485,-0.001715,0.208671,0.000697,-0.000626,0.023963,0.002232,0.0,0.0,0.0,0.0,0.0,0.0
236519,0.000923,0.149313,-0.002422,0.0,0.0,0.0,0.0,0.087266,0.0,3.0,0.337538,0.297517,0.320672,0.343752,-0.001718,0.209131,0.000741,-0.000573,0.02142,0.002145,0.0,0.0,0.0,0.0,0.0,0.0
236539,0.0008,0.150052,-0.002414,0.0,0.0,0.0,0.0,0.087266,0.0,3.0,0.335552,0.296072,0.319424,0.347963,-0.001721,0.209541,0.000783,-0.00052,0.018878,0.002059,0.0,0.0,0.0,0.0,0.0,0.0
236559,0.000547,0.150661,-0.002518,0.0,0.0,0.0,0.0,0.087266,0.0,3.0,0.337589,0.291835,0.325154,0.344182,-0.001722,0.209899,0.000824,-0.000468,0.016338,0.001974,0.0,0.0,0.0,0.0,0.0,0.0
236579,0.000303,0.151147,-0.0025,0.0,0.0,0.0,0.0,0.087266,0.0,3.0,0.337452,0.295044,0.321443,0.345147,-0.001723,0.210207,0.000863,-0.000416,0.013801,0.00189,0.0,0.0,0.0,0.0,0.0,0.0
236599,5.8e-05,0.151887,-0.002482,0.0,0.0,0.0,0.0,0.087266,0.0,3.0,0.336366,0.293554,0.323091,0.345893,-0.001723,0.210464,0.000901,-0.000364,0.011269,0.001808,0.0,0.0,0.0,0.0,0.0,0.0
236619,-0.000195,0.152251,-0.002586,0.0,0.0,0.0,0.0,0.087266,0.0,3.0,0.345678,0.290383,0.325939,0.336484,-0.001722,0.21067,0.000937,-0.000312,0.008741,0.001728,0.0,0.0,0.0,0.0,0.0,0.0
236639,-0.000439,0.152616,-0.002567,0.0,0.0,0.0,0.0,0.087266,0.0,3.0,0.336206,0.291024,0.324831,0.346461,-0.001721,0.210826,0.000971,-0.000261,0.00622,0.001649,0.0,0.0,0.0,0.0,0.0,0.0
236659,-0.000692,0.153103,-0.002672,0.0,0.0,0.0,0.0,0.087266,0.0,3.0,0.337633,0.282584,0.330815,0.346037,-0.001719,0.210932,0.001004,-0.00021,0.003705,0.001571,0.0,0.0,0.0,0.0,0.0,0.0
236679,-0.000814,0.153355,-0.002663,0.0,0.0,0.0,0.0,0.087266,0.0,3.0,0.338081,0.291944,0.326132,0.342704,-0.001716,0.210987,0.001036,-0.00016,0.001199,0.001495,0.0,0.0,0.0,0.0,0.0,0.0
236699,-0.000946,0.153842,-0.002776,0.0,0.0,0.0,0.0,0.087266,0.0,3.0,0.347955,0.2868,0.323139,0.339657,-0.001713,0.210993,0.001066,-0.00011,-0.001298,0.00142,0.0,0.0,0.0,0.0,0.0,0.0
236719,-0.001069,0.15445,-0.002766,0.0,0.0,0.0,0.0,0.087266,0.0,3.0,0.338365,0.29475,0.322089,0.343906,-0.001709,0.210948,0.001094,-6e-05,-0.003785,0.001347,0.0,0.0,0.0,0.0,0.0,0.0
236739,-0.001069,0.154947,-0.002767,0.0,0.0,0.0,0.0,0.087266,0.0,3.0,0.337614,0.291598,0.322403,0.346867,-0.001704,0.210854,0.001121,-1.1e-05,-0.006261,0.001275,0.0,0.0,0.0,0.0,0.0,0.0
236759,-0.001201,0.155433,-0.00288,0.0,0.0,0.0,0.0,0.087266,0.0,3.0,0.337343,0.292158,0.322801,0.346325,-0.001698,0.21071,0.001147,3.7e-05,-0.008725,0.001205,0.0,0.0,0.0,0.0,0.0,0.0
236779,-0.001192,0.155798,-0.002757,0.0,0.0,0.0,0.0,0.087266,0.0,3.0,0.33361,0.293648,0.322186,0.34926,-0.001692,0.210517,0.001172,8.5e-05,-0.011176,0.001136,0.0,0.0,0.0,0.0,0.0,0.0
