time_ms,roll,pitch,yaw,x,y,z,reference_roll,reference_pitch,reference_yaw,reference_throttle,throttle_1,throttle_2,throttle_3,throttle_4,roll_predicted,pitch_predicted,yaw_predicted,roll_rate_predicted,pitch_rate_predicted,yaw_rate_predicted,value1,value2,value3,value4,value5,value6
84519,0.000244,-0.000488,0.000733,0.0,0.0,0.0,0.0,0.0,0.0,3.0,0.328311,0.329312,0.315892,0.328388,-0.0,0.0,0.0,-0.0,-0.0,0.0,0.0,0.0,0.0,0.0,0.0,0.0
84539,0.000122,-0.000488,0.000733,0.0,0.0,0.0,0.0,0.0,0.0,3.0,0.334878,0.324689,0.31973,0.32259,-0.0,0.0,0.0,-0.0,-0.0,0.0,0.0,0.0,0.0,0.0,0.0,0.0
84559,0.000122,-0.00061,0.000855,0.0,0.0,0.0,0.0,0.0,0.0,3.0,0.326385,0.334872,0.311116,0.329142,-0.0,0.0,0.0,-0.0,-0.0,0.0,0.0,0.0,0.0,0.0,0.0,0.0
84579,-0.000122,-0.000366,0.000855,0.0,0.0,0.0,0.0,0.0,0.0,3.0,0.322986,0.335005,0.308025,0.335112,-0.0,0.0,0.0,-0.0,-0.0,0.0,0.0,0.0,0.0,0.0,0.0,0.0
84599,0.000122,-0.000366,0.000855,0.0,0.0,0.0,0.0,0.0,0.0,3.0,0.32179,0.331759,0.319779,0.328632,-0.0,0.0,0.0,-0.0,-0.0,0.0,0.0,0.0,0.0,0.0,0.0,0.0
84619,-0.000122,0.0,0.000855,0.0,0.0,0.0,0.0,0.0,0.0,3.0,0.328449,0.32518,0.315331,0.332853,-0.0,0.0,0.0,-0.0,-0.0,0.0,0.0,0.0,0.0,0.0,0.0,0.0
84639,-0.0,-0.000244,0.000977,0.0,0.0,0.0,0.0,0.0,0.0,3.0,0.318648,0.339126,0.310859,0.332491,-0.0,0.0,0.0,-0.0,-0.0,0.0,0.0,0.0,0.0,0.0,0.0,0.0
84659,0.000122,-0.000122,0.000977,0.0,0.0,0.0,0.0,0.0,0.0,3.0,0.320921,0.334303,0.31492,0.331501,-0.0,0.0,0.0,-0.0,-0.0,0.0,0.0,0.0,0.0,0.0,0.0,0.0
84679,0.000244,-0.000244,0.000977,0.0,0.0,0.0,0.0,0.0,0.0,3.0,0.324839,0.332747,0.318481,0.325879,-0.0,0.0,0.0,-0.0,-0.0,0.0,0.0,0.0,0.0,0.0,0.0,0.0
84699,0.000244,-0.000244,0.000977,0.0,0.0,0.0,0.0,0.0,0.0,3.0,0.327805,0.329678,0.315853,0.328563,-0.0,0.0,0.0,-0.0,-0.0,0.0,0.0,0.0,0.0,0.0,0.0,0.0
84719,0.000366,-0.000244,0.001099,0.0,0.0,0.0,0.0,0.0,0.0,3.0,0.31962,0.335747,0.309557,0.336177,-0.0,-0.0,0.0,-0.0,-0.0,0.0,0.0,0.0,0.0,0.0,0.0,0.0
84739,0.000122,-0.000244,0.001099,0.0,0.0,0.0,0.0,0.0,0.0,3.0,0.329814,0.327271,0.312586,0.332006,-0.0,-0.0,0.0,-0.0,-0.0,0.0,0.0,0.0,0.0,0.0,0.0,0.0
84759,-0.000122,-0.000122,0.001221,0.0,0.0,0.0,0.0,0.0,0.0,3.0,0.326358,0.33321,0.309539,0.332299,-0.0,-0.0,0.0,-0.0,-0.0,0.0,0.0,0.0,0.0,0.0,0.0,0.0
84779,-0.000122,-0.000122,0.001221,0.0,0.0,0.0,0.0,0.0,0.0,3.0,0.328368,0.332287,0.314319,0.326808,-0.0,-0.0,0.0,-0.0,-0.0,0.0,0.0,0.0,0.0,0.0,0.0,0.0
84799,-0.000244,0.000122,0.001221,0.0,0.0,0.0,0.0,0.0,0.0,3.0,0.324263,0.329794,0.318994,0.328954,-0.0,-0.0,0.0,-0.0,-0.0,0.0,0.0,0.0,0.0,0.0,0.0,0.0
84819,-0.000366,0.000122,0.001343,0.0,0.0,0.0,0.0,0.0,0.0,3.0,0.319247,0.33423,0.313076,0.334861,-0.0,-0.0,0.0,-0.0,-0.0,0.0,0.0,0.0,0.0,0.0,0.0,0.0
84839,-0.000488,-0.000122,0.001343,0.0,0.0,0.0,0.0,0.0,0.0,3.0,0.326697,0.333663,0.315568,0.325883,-0.0,-0.0,0.0,-0.0,-0.0,-0.0,0.0,0.0,0.0,0.0,0.0,0.0
84859,-0.00061,0.0,0.001343,0.0,0.0,0.0,0.0,0.0,0.0,3.0,0.332972,0.327819,0.316749,0.324329,-0.0,-0.0,0.0,-0.0,-0.0,-0.0,0.0,0.0,0.0,0.0,0.0,0.0
84879,-0.000488,0.0,0.001465,0.0,0.0,0.0,0.0,0.0,0.0,3.0,0.327465,0.330641,0.313798,0.329867,-0.0,-0.0,0.0,-0.0,-0.0,-0.0,0.0,0.0,0.0,0.0,0.0,0.0
84899,-0.000366,0.000122,0.001587,0.0,0.0,0.0,0.0,0.0,0.0,3.0,0.322837,0.331054,0.312391,0.335242,-0.0,-0.0,0.0,-0.0,-0.0,-0.0,0.0,0.0,0.0,0.0,0.0,0.0
84919,-0.000244,0.000244,0.001709,0.0,0.0,0.0,0.0,0.0,0.0,3.0,0.316971,0.335111,0.310474,0.338439,-0.0,-0.0,0.0,-0.0,-0.0,-0.0,0.0,0.0,0.0,0.0,0.0,0.0
84939,-0.000366,0.000244,0.001709,0.0,0.0,0.0,0.0,0.0,0.0,3.0,0.325874,0.331599,0.31538,0.328988,-0.0,-0.0,0.0,-0.0,-0.0,-0.0,0.0,0.0,0.0,0.0,0.0,0.0
84959,-0.00061,0.000123,0.001831,0.0,0.0,0.0,0.0,0.0,0.0,3.0,0.325292,0.334345,0.311141,0.330731,-0.0,-0.0,0.0,-0.0,-0.0,-0.0,0.0,0.0,0.0,0.0,0.0,0.0
84979,-0.000854,0.000245,0.001954,0.0,0.0,0.0,0.0,0.0,0.0,3.0,0.322678,0.337287,0.304007,0.336658,-0.0,-0.0,0.0,-0.0,-0.0,-0.0,0.0,0.0,0.0,0.0,0.0,0.0
84999,-0.000854,0.000123,0.001954,0.0,0.0,0.0,0.0,0.0,0.0,3.0,0.324805,0.330906,0.319557,0.326753,-0.0,-0.0,0.0,-0.0,-0.0,-0.0,0.0,0.0,0.0,0.0,0.0,0.0
85019,-0.001343,0.000123,0.002076,0.0,0.0,0.0,0.0,0.0,0.0,3.0,0.330825,0.331963,0.308546,0.330036,-0.0,-0.0,0.0,-0.0,-0.0,-0.0,0.0,0.0,0.0,0.0,0.0,0.0
85039,-0.001587,0.000124,0.002198,0.0,0.0,0.0,0.0,0.0,0.0,3.0,0.328505,0.33504,0.308684,0.329104,-0.0,-0.0,0.0,-0.0,-0.0,-0.0,0.0,0.0,0.0,0.0,0.0,0.0
85059,-0.001465,0.000368,0.00232,0.0,0.0,0.0,0.0,0.0,0.0,3.0,0.323105,0.330173,0.31033,0.337702,-0.0,-0.0,0.0,-0.0,-0.0,-0.0,0.0,0.0,0.0,0.0,0.0,0.0
85079,-0.001709,0.000368,0.002442,0.0,0.0,0.0,0.0,0.0,0.0,3.0,0.32722,0.33126,0.309151,0.333753,-0.0,-0.0,0.0,-0.0,-0.0,-0.0,0.0,0.0,0.0,0.0,0.0,0.0
85099,-0.001709,0.000246,0.002564,0.0,0.0,0.0,0.0,0.0,0.0,3.0,0.32442,0.335801,0.308396,0.332603,-0.0,-0.0,0.0,-0.0,-0.0,0.0,0.0,0.0,0.0,0.0,0.0,0.0
85119,-0.001831,0.000369,0.002686,0.0,0.0,0.0,0.0,0.0,0.0,3.0,0.319446,0.340282,0.303782,0.336864,-0.0,-0.0,0.0,-0.0,-0.0,0.0,0.0,0.0,0.0,0.0,0.0,0.0
85139,-0.001709,0.000369,0.002686,0.0,0.0,0.0,0.0,0.0,0.0,3.0,0.323709,0.333626,0.311714,0.332469,-0.0,-0.0,0.0,-0.0,-0.0,0.0,0.0,0.0,0.0,0.0,0.0,0.0
85159,-0.001709,0.000247,0.002808,0.0,0.0,0.0,0.0,0.0,0.0,3.0,0.31667,0.340936,0.30845,0.334662,-0.0,-0.0,0.0,-0.0,-0.0,0.0,0.0,0.0,0.0,0.0,0.0,0.0
85179,-0.001709,0.000247,0.002808,0.0,0.0,0.0,0.0,0.0,0.0,3.0,0.321773,0.333047,0.317159,0.329848,-0.0,-0.0,0.0,-0.0,-0.0,0.0,0.0,0.0,0.0,0.0,0.0,0.0
85199,-0.001831,0.000369,0.002931,0.0,0.0,0.0,0.0,0.0,0.0,3.0,0.316737,0.336977,0.308252,0.33877,-0.0,-0.0,0.0,-0.0,-0.0,0.0,0.0,0.0,0.0,0.0,0.0,0.0
85219,-0.001831,0.000369,0.002931,0.0,0.0,0.0,0.0,0.0,0.0,3.0,0.325344,0.330236,0.313113,0.332982,-0.0,-0.0,0.0,-0.0,-0.0,0.0,0.0,0.0,0.0,0.0,0.0,0.0
85239,-0.001953,0.000369,0.003053,0.0,0.0,0.0,0.0,0.0,0.0,3.0,0.328562,0.333444,0.308414,0.330918,-0.0,-0.0,0.0,-0.0,-0.0,0.0,0.0,0.0,0.0,0.0,0.0,0.0
85259,-0.001953,0.000369,0.003175,0.0,0.0,0.0,0.0,0.0,0.0,3.0,0.326274,0.335186,0.308685,0.33116,-0.0,-0.0,0.0,-0.0,-0.0,0.0,0.0,0.0,0.0,0.0,0.0,0.0
85279,-0.00183,0.000491,0.003175,0.0,0.0,0.0,0.0,0.0,0.0,3.0,0.325066,0.332437,0.313468,0.330729,-0.0,-0.0,0.0,-0.0,-0.0,0.0,0.0,0.0,0.0,0.0,0.0,0.0
85299,-0.00183,0.000491,0.003297,0.0,0.0,0.0,0.0,0.0,0.0,3.0,0.320114,0.335454,0.311232,0.334498,-0.0,-0.0,0.0,-0.0,-0.0,0.0,0.0,0.0,0.0,0.0,0.0,0.0
85319,-0.001952,0.000492,0.003297,0.0,0.0,0.0,0.0,0.0,0.0,3.0,0.32304,0.33261,0.315002,0.331094,-0.0,-0.0,0.0,-0.0,-0.0,0.0,0.0,0.0,0.0,0.0,0.0,0.0
85339,-0.001953,0.00037,0.003419,0.0,0.0,0.0,0.0,0.0,0.0,3.0,0.321118,0.336812,0.309806,0.333469,-0.0,-0.0,0.0,-0.0,-0.0,0.0,0.0,0.0,0.0,0.0,0.0,0.0
85359,-0.002075,0.00037,0.003419,0.0,0.0,0.0,0.0,0.0,0.0,3.0,0.326649,0.332584,0.31083,0.331466,-0.0,-0.0,0.0,-0.0,-0.0,0.0,0.0,0.0,0.0,0.0,0.0,0.0
85379,-0.001953,0.000125,0.003419,0.0,0.0,0.0,0.0,0.0,0.0,3.0,0.325686,0.335982,0.314066,0.325923,-0.0,-0.0,0.0,-0.0,-0.0,0.0,0.0,0.0,0.0,0.0,0.0,0.0
85399,-0.001831,0.000369,0.003541,0.0,0.0,0.0,0.0,0.0,0.0,3.0,0.323693,0.331764,0.312314,0.333793,-0.0,-0.0,0.0,-0.0,-0.0,0.0,0.0,0.0,0.0,0.0,0.0,0.0
85419,-0.00183,0.000492,0.003541,0.0,0.0,0.0,0.0,0.0,0.0,3.0,0.323185,0.32916,0.31436,0.334969,-0.0,-0.0,0.0,-0.0,-0.0,0.0,0.0,0.0,0.0,0.0,0.0,0.0
85439,-0.001953,0.00037,0.003541,0.0,0.0,0.0,0.0,0.0,0.0,3.0,0.325623,0.332927,0.311836,0.331201,-0.0,-0.0,0.0,-0.0,-0.0,0.0,0.0,0.0,0.0,0.0,0.0,0.0
85459,-0.001952,0.000492,0.003541,0.0,0.0,0.0,0.0,0.0,0.0,3.0,0.324825,0.332572,0.3126,0.331632,-0.0,-0.0,0.0,-0.0,-0.0,0.0,0.0,0.0,0.0,0.0,0.0,0.0
85479,-0.001953,0.00037,0.003663,0.0,0.0,0.0,0.0,0.0,0.0,3.0,0.324133,0.336145,0.30935,0.331667,-0.0,-0.0,0.0,-0.0,-0.0,0.0,0.0,0.0,0.0,0.0,0.0,0.0
85499,-0.001953,0.00037,0.003663,0.0,0.0,0.0,0.0,0.0,0.0,3.0,0.321942,0.334311,0.309476,0.335497,-0.0,-0.0,0.0,-0.0,-0.0,0.0,0.0,0.0,0.0,0.0,0.0,0.0
85519,-0.001831,0.000125,0.003663,0.0,0.0,0.0,0.0,0.0,0.0,3.0,0.321922,0.334722,0.314816,0.330211,-0.0,-0.0,0.0,-0.0,-0.0,0.0,0.0,0.0,0.0,0.0,0.0,0.0
85539,-0.001831,3e-06,0.003663,0.0,0.0,0.0,0.0,0.0,0.0,3.0,0.324359,0.336268,0.312533,0.328386,-0.0,-0.0,0.0,-0.0,-0.0,-0.0,0.0,0.0,0.0,0.0,0.0,0.0
85559,-0.001831,0.000125,0.003663,0.0,0.0,0.0,0.0,0.0,0.0,3.0,0.325992,0.334027,0.31072,0.330754,-0.0,-0.0,0.0,-0.0,-0.0,-0.0,0.0,0.0,0.0,0.0,0.0,0.0
85579,-0.001708,0.000491,0.003663,0.0,0.0,0.0,0.0,0.0,0.0,3.0,0.319222,0.32909,0.317632,0.335757,-0.0,-0.0,0.0,-0.0,-0.0,-0.0,0.0,0.0,0.0,0.0,0.0,0.0
85599,-0.00183,0.000614,0.003663,0.0,0.0,0.0,0.0,0.0,0.0,3.0,0.326406,0.325547,0.313744,0.335945,-0.0,-0.0,0.0,-0.0,-0.0,-0.0,0.0,0.0,0.0,0.0,0.0,0.0
85619,-0.001953,0.00037,0.003663,0.0,0.0,0.0,0.0,0.0,0.0,3.0,0.329809,0.332705,0.313968,0.325253,-0.0,-0.0,0.0,-0.0,-0.0,-0.0,0.0,0.0,0.0,0.0,0.0,0.0
85639,-0.002075,0.00037,0.003785,0.0,0.0,0.0,0.0,0.0,0.0,3.0,0.32484,0.339045,0.304374,0.332483,-0.0,-0.0,0.0,-0.0,-0.0,-0.0,0.0,0.0,0.0,0.0,0.0,0.0
85659,-0.002075,0.000248,0.003785,0.0,0.0,0.0,0.0,0.0,0.0,3.0,0.322874,0.338146,0.309248,0.330931,-0.0,-0.0,0.0,-0.0,-0.0,-0.0,0.0,0.0,0.0,0.0,0.0,0.0
85679,-0.001831,0.000126,0.003785,0.0,0.0,0.0,0.0,0.0,0.0,3.0,0.319752,0.334469,0.316228,0.331226,-0.0,-0.0,0.0,-0.0,-0.0,-0.0,0.0,0.0,0.0,0.0,0.0,0.0
85699,-0.001953,4e-06,0.003663,0.0,0.0,0.0,0.0,0.0,0.0,3.0,0.323954,0.334541,0.314076,0.329112,-0.0,-0.0,0.0,-0.0,-0.0,-0.0,0.0,0.0,0.0,0.0,0.0,0.0
85719,-0.002075,4e-06,0.003663,0.0,0.0,0.0,0.0,0.0,0.0,3.0,0.325164,0.333662,0.310998,0.331679,-0.0,-0.0,0.0,-0.0,-0.0,-0.0,0.0,0.0,0.0,0.0,0.0,0.0
85739,-0.001953,0.00037,0.003663,0.0,0.0,0.0,0.0,0.0,0.0,3.0,0.325457,0.329692,0.310463,0.335816,-0.0,-0.0,0.0,-0.0,-0.0,-0.0,0.0,0.0,0.0,0.0,0.0,0.0
85759,-0.001952,0.000614,0.003663,0.0,0.0,0.0,0.0,0.0,0.0,3.0,0.323921,0.330316,0.312001,0.335288,-0.0,-0.0,0.0,-0.0,-0.0,-0.0,0.0,0.0,0.0,0.0,0.0,0.0
85779,-0.001953,0.00037,0.003541,0.0,0.0,0.0,0.0,0.0,0.0,3.0,0.329612,0.328019,0.320644,0.323782,-0.0,-0.0,0.0,-0.0,-0.0,-0.0,0.0,0.0,0.0,0.0,0.0,0.0
85799,-0.001953,0.00037,0.003541,0.0,0.0,0.0,0.0,0.0,0.0,3.0,0.325323,0.332763,0.316973,0.326835,-0.0,-0.0,0.0,-0.0,-0.0,-0.0,0.0,0.0,0.0,0.0,0.0,0.0
85819,-0.001953,0.000126,0.003541,0.0,0.0,0.0,0.0,0.0,0.0,3.0,0.322403,0.336833,0.313974,0.328367,-0.0,-0.0,0.0,-0.0,-0.0,-0.0,0.0,0.0,0.0,0.0,0.0,0.0
85839,-0.001953,0.000248,0.003541,0.0,0.0,0.0,0.0,0.0,0.0,3.0,0.321232,0.331516,0.314691,0.334205,-0.0,-0.0,0.0,-0.0,-0.0,-0.0,0.0,0.0,0.0,0.0,0.0,0.0
85859,-0.002075,0.000126,0.003541,0.0,0.0,0.0,0.0,0.0,0.0,3.0,0.323036,0.335077,0.312733,0.330712,-0.0,-0.0,0.0,0.0,-0.0,-0.0,0.0,0.0,0.0,0.0,0.0,0.0
85879,-0.002197,0.000248,0.003541,0.0,0.0,0.0,0.0,0.0,0.0,3.0,0.327098,0.331172,0.308293,0.334729,-0.0,-0.0,0.0,0.0,-0.0,-0.0,0.0,0.0,0.0,0.0,0.0,0.0
85899,-0.002319,0.000248,0.003419,0.0,0.0,0.0,0.0,0.0,0.0,3.0,0.327717,0.332393,0.309626,0.331707,-0.0,-0.0,0.0,0.0,-0.0,-0.0,0.0,0.0,0.0,0.0,0.0,0.0
85919,-0.002319,0.000492,0.003419,0.0,0.0,0.0,0.0,0.0,0.0,3.0,0.327092,0.327975,0.310301,0.336058,-0.0,-0.0,0.0,-0.0,-0.0,-0.0,0.0,0.0,0.0,0.0,0.0,0.0
85939,-0.002441,0.000492,0.003419,0.0,0.0,0.0,0.0,0.0,0.0,3.0,0.329402,0.330812,0.311465,0.329938,-0.0,-0.0,0.0,0.0,-0.0,-0.0,0.0,0.0,0.0,0.0,0.0,0.0
85959,-0.002075,0.000248,0.003419,0.0,0.0,0.0,0.0,0.0,0.0,3.0,0.319464,0.335386,0.316553,0.330262,-0.0,-0.0,0.0,0.0,-0.0,-0.0,0.0,0.0,0.0,0.0,0.0,0.0
85979,-0.002075,0.000248,0.003419,0.0,0.0,0.0,0.0,0.0,0.0,3.0,0.321605,0.33482,0.313948,0.331227,-0.0,-0.0,0.0,0.0,-0.0,-0.0,0.0,0.0,0.0,0.0,0.0,0.0
85999,-0.001587,3e-06,0.003419,0.0,0.0,0.0,0.0,0.0,0.0,3.0,0.320639,0.33518,0.31484,0.330957,-0.0,-0.0,0.0,0.0,-0.0,-0.0,0.0,0.0,0.0,0.0,0.0,0.0
86019,-0.001709,3e-06,0.003419,0.0,0.0,0.0,0.0,0.0,0.0,3.0,0.326427,0.334639,0.308662,0.331587,-0.0,-0.0,0.0,-0.0,-0.0,-0.0,0.0,0.0,0.0,0.0,0.0,0.0
86039,-0.001587,-0.000119,0.003418,0.0,0.0,0.0,0.0,0.0,0.0,3.0,0.323977,0.335555,0.3112,0.330728,-0.0,-0.0,0.0,0.0,-0.0,-0.0,0.0,0.0,0.0,0.0,0.0,0.0
86059,-0.001587,3e-06,0.003419,0.0,0.0,0.0,0.0,0.0,0.0,3.0,0.325931,0.335317,0.309031,0.331048,-0.0,-0.0,0.0,0.0,-0.0,-0.0,0.0,0.0,0.0,0.0,0.0,0.0
86079,-0.001587,0.000247,0.003297,0.0,0.0,0.0,0.0,0.0,0.0,3.0,0.324702,0.327944,0.317748,0.33155,-0.0,-0.0,0.0,0.0,-0.0,-0.0,0.0,0.0,0.0,0.0,0.0,0.0
86099,-0.001831,0.000125,0.003419,0.0,0.0,0.0,0.0,0.0,0.0,3.0,0.325148,0.334516,0.306416,0.334963,-0.0,-0.0,0.0,0.0,-0.0,-0.0,0.0,0.0,0.0,0.0,0.0,0.0
86119,-0.001587,3e-06,0.003419,0.0,0.0,0.0,0.0,0.0,0.0,3.0,0.319259,0.336985,0.310056,0.334824,-0.0,-0.0,0.0,0.0,-0.0,-0.0,0.0,0.0,0.0,0.0,0.0,0.0
86139,-0.001343,-0.00012,0.003296,0.0,0.0,0.0,0.0,0.0,0.0,3.0,0.321461,0.333234,0.3169,0.330205,-0.0,-0.0,0.0,0.0,-0.0,-0.0,0.0,0.0,0.0,0.0,0.0,0.0
86159,-0.001222,-0.000486,0.003296,0.0,0.0,0.0,0.0,0.0,0.0,3.0,0.321636,0.338011,0.313582,0.32826,-0.0,-0.0,0.0,0.0,-0.0,-0.0,0.0,0.0,0.0,0.0,0.0,0.0
86179,-0.000855,-0.000365,0.003296,0.0,0.0,0.0,0.0,0.0,0.0,3.0,0.320564,0.333936,0.314397,0.332697,-0.0,-0.0,0.0,0.0,-0.0,-0.0,0.0,0.0,0.0,0.0,0.0,0.0
86199,-0.000611,-0.000365,0.003296,0.0,0.0,0.0,0.0,0.0,0.0,3.0,0.320403,0.334304,0.314473,0.33241,-0.0,-0.0,0.0,0.0,-0.0,-0.0,0.0,0.0,0.0,0.0,0.0,0.0
86219,-0.000611,-0.000121,0.003296,0.0,0.0,0.0,0.0,0.0,0.0,3.0,0.32376,0.331928,0.310896,0.334855,-0.0,-0.0,0.0,0.0,-0.0,-0.0,0.0,0.0,0.0,0.0,0.0,0.0
86239,-0.000733,-0.000121,0.003174,0.0,0.0,0.0,0.0,0.0,0.0,3.0,0.331261,0.327286,0.317668,0.325741,-0.0,-0.0,0.0,0.0,-0.0,-0.0,0.0,0.0,0.0,0.0,0.0,0.0
86259,-0.00061,1e-06,0.003296,0.0,0.0,0.0,0.0,0.0,0.0,3.0,0.316016,0.337064,0.304836,0.342297,-0.0,-0.0,0.0,0.0,0.0,-0.0,0.0,0.0,0.0,0.0,0.0,0.0
86279,-0.000733,-0.000243,0.003174,0.0,0.0,0.0,0.0,0.0,0.0,3.0,0.325326,0.333669,0.310195,0.332247,-0.0,-0.0,0.0,0.0,-0.0,-0.0,0.0,0.0,0.0,0.0,0.0,0.0
86299,-0.000612,-0.000731,0.003174,0.0,0.0,0.0,0.0,0.0,0.0,3.0,0.322458,0.33714,0.314061,0.327913,-0.0,-0.0,0.0,0.0,0.0,-0.0,0.0,0.0,0.0,0.0,0.0,0.0
86319,-0.00049,-0.000854,0.003174,0.0,0.0,0.0,0.0,0.0,0.0,3.0,0.322258,0.33766,0.312419,0.329108,-0.0,-0.0,0.0,0.0,0.0,-0.0,0.0,0.0,0.0,0.0,0.0,0.0
86339,-0.000124,-0.000976,0.003174,0.0,0.0,0.0,0.0,0.0,0.0,3.0,0.316148,0.336031,0.318423,0.330976,-0.0,-0.0,0.0,0.0,0.0,-0.0,0.0,0.0,0.0,0.0,0.0,0.0
86359,-0.000245,-0.000854,0.003052,0.0,0.0,0.0,0.0,0.0,0.0,3.0,0.321161,0.332042,0.315304,0.333184,-0.0,-0.0,0.0,0.0,0.0,-0.0,0.0,0.0,0.0,0.0,0.0,0.0
86379,-0.000367,-0.000854,0.00293,0.0,0.0,0.0,0.0,0.0,0.0,3.0,0.332458,0.326639,0.316394,0.32639,-0.0,-0.0,0.0,0.0,0.0,-0.0,0.0,0.0,0.0,0.0,0.0,0.0
86399,-0.000245,-0.00061,0.00293,0.0,0.0,0.0,0.0,0.0,0.0,3.0,0.329592,0.327396,0.316553,0.328392,-0.0,-0.0,0.0,0.0,0.0,-0.0,0.0,0.0,0.0,0.0,0.0,0.0
86419,-0.000245,-0.000488,0.00293,0.0,0.0,0.0,0.0,0.0,0.0,3.0,0.32573,0.332853,0.309421,0.333372,-0.0,-0.0,0.0,0.0,0.0,-0.0,0.0,0.0,0.0,0.0,0.0,0.0
86439,-0.000123,-0.00061,0.00293,0.0,0.0,0.0,0.0,0.0,0.0,3.0,0.318591,0.3397,0.304972,0.337211,-0.0,-0.0,0.0,0.0,0.0,-0.0,0.0,0.0,0.0,0.0,0.0,0.0
86459,0.000121,-0.000855,0.002808,0.0,0.0,0.0,0.0,0.0,0.0,3.0,0.326746,0.331099,0.321502,0.322693,-0.0,-0.0,0.0,0.0,0.0,-0.0,0.0,0.0,0.0,0.0,0.0,0.0
86479,-2e-06,-0.001099,0.002808,0.0,0.0,0.0,0.0,0.0,0.0,3.0,0.323659,0.337644,0.311749,0.328381,-0.0,-0.0,0.0,0.0,0.0,-0.0,0.0,0.0,0.0,0.0,0.0,0.0
86499,-2e-06,-0.001099,0.002808,0.0,0.0,0.0,0.0,0.0,0.0,3.0,0.315583,0.340988,0.308125,0.335901,-0.0,-0.0,0.0,0.0,0.0,-0.0,0.0,0.0,0.0,0.0,0.0,0.0
86519,0.000121,-0.001099,0.002686,0.0,0.0,0.0,0.0,0.0,0.0,3.0,0.322463,0.331074,0.31876,0.329648,-0.0,-0.0,0.0,0.0,0.0,-0.0,0.0,0.0,0.0,0.0,0.0,0.0
86539,-0.000124,-0.001099,0.002686,0.0,0.0,0.0,0.0,0.0,0.0,3.0,0.327251,0.331611,0.313013,0.329835,-0.0,-0.0,0.0,0.0,0.0,-0.0,0.0,0.0,0.0,0.0,0.0,0.0
86559,-0.000246,-0.00122,0.002564,0.0,0.0,0.0,0.0,0.0,0.0,3.0,0.334284,0.331236,0.314693,0.321439,-0.0,-0.0,0.0,0.0,0.0,-0.0,0.0,0.0,0.0,0.0,0.0,0.0
86579,-1e-06,-0.000977,0.002564,0.0,0.0,0.0,0.0,0.0,0.0,3.0,0.324428,0.332069,0.312929,0.332217,-0.0,-0.0,0.0,0.0,0.0,-0.0,0.0,0.0,0.0,0.0,0.0,0.0
86599,0.000121,-0.000977,0.002564,0.0,0.0,0.0,0.0,0.0,0.0,3.0,0.323483,0.335351,0.311253,0.331366,-0.0,-0.0,0.0,0.0,0.0,-0.0,0.0,0.0,0.0,0.0,0.0,0.0
86619,0.000121,-0.000977,0.002564,0.0,0.0,0.0,0.0,0.0,0.0,3.0,0.326012,0.333366,0.313872,0.328479,-0.0,-0.0,0.0,0.0,0.0,-0.0,0.0,0.0,0.0,0.0,0.0,0.0
86639,0.000121,-0.001099,0.002564,0.0,0.0,0.0,0.0,0.0,0.0,3.0,0.319279,0.337481,0.311993,0.332542,-0.0,-0.0,0.0,0.0,0.0,-0.0,0.0,0.0,0.0,0.0,0.0,0.0
86659,0.000121,-0.001221,0.002442,0.0,0.0,0.0,0.0,0.0,0.0,3.0,0.325538,0.332302,0.31241,0.331383,-0.0,-0.0,0.0,0.0,0.0,-0.0,0.0,0.0,0.0,0.0,0.0,0.0
86679,-2e-06,-0.001343,0.002442,0.0,0.0,0.0,0.0,0.0,0.0,3.0,0.323264,0.334318,0.311491,0.332405,-0.0,-0.0,0.0,0.0,0.0,0.0,0.0,0.0,0.0,0.0,0.0,0.0
86699,0.00012,-0.001465,0.00232,0.0,0.0,0.0,0.0,0.0,0.0,3.0,0.322752,0.333328,0.315616,0.330073,-0.0,-0.0,0.0,0.0,0.0,0.0,0.0,0.0,0.0,0.0,0.0,0.0
86719,0.000243,-0.001343,0.00232,0.0,0.0,0.0,0.0,0.0,0.0,3.0,0.319015,0.333477,0.315967,0.333168,-0.0,-0.0,0.0,0.0,0.0,0.0,0.0,0.0,0.0,0.0,0.0,0.0
86739,0.000243,-0.001343,0.00232,0.0,0.0,0.0,0.0,0.0,0.0,3.0,0.326036,0.333638,0.31391,0.328142,-0.0,-0.0,0.0,0.0,0.0,0.0,0.0,0.0,0.0,0.0,0.0,0.0
86759,0.000243,-0.001343,0.00232,0.0,0.0,0.0,0.0,0.0,0.0,3.0,0.329323,0.330248,0.316165,0.326163,-0.0,-0.0,0.0,0.0,0.0,0.0,0.0,0.0,0.0,0.0,0.0,0.0
86779,0.000487,-0.001221,0.00232,0.0,0.0,0.0,0.0,0.0,0.0,3.0,0.322403,0.333037,0.312807,0.333311,-0.0,-0.0,0.0,0.0,0.0,0.0,0.0,0.0,0.0,0.0,0.0,0.0
86799,0.000487,-0.001343,0.00232,0.0,0.0,0.0,0.0,0.0,0.0,3.0,0.324102,0.335327,0.3103,0.331663,-0.0,-0.0,0.0,0.0,0.0,0.0,0.0,0.0,0.0,0.0,0.0,0.0
86819,0.000487,-0.001465,0.002198,0.0,0.0,0.0,0.0,0.0,0.0,3.0,0.327234,0.333757,0.310779,0.32975,-0.0,-0.0,0.0,0.0,0.0,0.0,0.0,0.0,0.0,0.0,0.0,0.0
86839,0.000364,-0.001587,0.002198,0.0,0.0,0.0,0.0,0.0,0.0,3.0,0.323866,0.337154,0.310833,0.329534,-0.0,-0.0,0.0,0.0,0.0,0.0,0.0,0.0,0.0,0.0,0.0,0.0
86859,0.000364,-0.001709,0.002198,0.0,0.0,0.0,0.0,0.0,0.0,3.0,0.323319,0.337424,0.311139,0.329507,-0.0,-0.0,0.0,0.0,0.0,0.0,0.0,0.0,0.0,0.0,0.0,0.0
86879,0.000364,-0.001832,0.002198,0.0,0.0,0.0,0.0,0.0,0.0,3.0,0.322952,0.338948,0.311455,0.327988,-0.0,-0.0,0.0,0.0,0.0,0.0,0.0,0.0,0.0,0.0,0.0,0.0
86899,0.000243,-0.001587,0.002076,0.0,0.0,0.0,0.0,0.0,0.0,3.0,0.329951,0.326848,0.318791,0.326429,-0.0,-0.0,0.0,0.0,0.0,0.0,0.0,0.0,0.0,0.0,0.0,0.0
86919,0.000243,-0.001343,0.002198,0.0,0.0,0.0,0.0,0.0,0.0,3.0,0.322206,0.331991,0.309366,0.337636,-0.0,-0.0,0.0,0.0,0.0,0.0,0.0,0.0,0.0,0.0,0.0,0.0
86939,0.000243,-0.001465,0.002076,0.0,0.0,0.0,0.0,0.0,0.0,3.0,0.328495,0.329306,0.314652,0.32938,-0.0,-0.0,0.0,0.0,0.0,0.0,0.0,0.0,0.0,0.0,0.0,0.0
86959,0.000121,-0.001465,0.002076,0.0,0.0,0.0,0.0,0.0,0.0,3.0,0.332085,0.329855,0.315136,0.324727,-0.0,-0.0,0.0,0.0,0.0,0.0,0.0,0.0,0.0,0.0,0.0,0.0
86979,0.000243,-0.001587,0.002076,0.0,0.0,0.0,0.0,0.0,0.0,3.0,0.327291,0.334273,0.314998,0.325199,-0.0,-0.0,0.0,0.0,0.0,-0.0,0.0,0.0,0.0,0.0,0.0,0.0
86999,0.000243,-0.001465,0.002198,0.0,0.0,0.0,0.0,0.0,0.0,3.0,0.31786,0.341917,0.302007,0.338203,-0.0,-0.0,0.0,0.0,0.0,0.0,0.0,0.0,0.0,0.0,0.0,0.0
87019,0.000365,-0.001587,0.002076,0.0,0.0,0.0,0.0,0.0,0.0,3.0,0.319377,0.334959,0.315925,0.33137,-0.0,-0.0,0.0,0.0,0.0,0.0,0.0,0.0,0.0,0.0,0.0,0.0
87039,0.00012,-0.001587,0.002076,0.0,0.0,0.0,0.0,0.0,0.0,3.0,0.320697,0.336359,0.306241,0.337494,-0.0,-0.0,0.0,0.0,0.0,-0.0,0.0,0.0,0.0,0.0,0.0,0.0
87059,-2e-06,-0.001709,0.002076,0.0,0.0,0.0,0.0,0.0,0.0,3.0,0.324614,0.337553,0.308991,0.330085,-0.0,-0.0,0.0,0.0,0.0,-0.0,0.0,0.0,0.0,0.0,0.0,0.0
87079,0.00012,-0.001709,0.002076,0.0,0.0,0.0,0.0,0.0,0.0,3.0,0.32418,0.333559,0.309835,0.333791,-0.0,-0.0,0.0,0.0,0.0,0.0,0.0,0.0,0.0,0.0,0.0,0.0
87099,-0.000124,-0.001587,0.002075,0.0,0.0,0.0,0.0,0.0,0.0,3.0,0.32776,0.32952,0.309697,0.33445,-0.0,-0.0,0.0,0.0,0.0,0.0,0.0,0.0,0.0,0.0,0.0,0.0
87119,-2e-06,-0.001709,0.002076,0.0,0.0,0.0,0.0,0.0,0.0,3.0,0.330098,0.331057,0.316522,0.324202,-0.0,-0.0,0.0,0.0,0.0,-0.0,0.0,0.0,0.0,0.0,0.0,0.0
87139,-2e-06,-0.001709,0.002076,0.0,0.0,0.0,0.0,0.0,0.0,3.0,0.323576,0.338498,0.311168,0.328114,-0.0,-0.0,0.0,0.0,0.0,-0.0,0.0,0.0,0.0,0.0,0.0,0.0
87159,0.000242,-0.001709,0.002076,0.0,0.0,0.0,0.0,0.0,0.0,3.0,0.320586,0.337253,0.313456,0.330177,-0.0,-0.0,0.0,0.0,0.0,-0.0,0.0,0.0,0.0,0.0,0.0,0.0
87179,0.000243,-0.001587,0.002076,0.0,0.0,0.0,0.0,0.0,0.0,3.0,0.318812,0.335131,0.315169,0.332438,-0.0,-0.0,0.0,0.0,0.0,0.0,0.0,0.0,0.0,0.0,0.0,0.0
87199,0.000242,-0.001709,0.002076,0.0,0.0,0.0,0.0,0.0,0.0,3.0,0.320867,0.334173,0.313019,0.333442,-0.0,-0.0,0.0,0.0,0.0,0.0,0.0,0.0,0.0,0.0,0.0,0.0
87219,-0.000124,-0.001953,0.002075,0.0,0.0,0.0,0.0,0.0,0.0,3.0,0.328135,0.338264,0.305239,0.32928,-0.0,-0.0,0.0,0.0,0.0,0.0,0.0,0.0,0.0,0.0,0.0,0.0
87239,0.00012,-0.001831,0.002076,0.0,0.0,0.0,0.0,0.0,0.0,3.0,0.322985,0.332975,0.310718,0.334719,-0.0,-0.0,0.0,0.0,0.0,0.0,0.0,0.0,0.0,0.0,0.0,0.0
87259,-2e-06,-0.001831,0.002076,0.0,0.0,0.0,0.0,0.0,0.0,3.0,0.323294,0.33326,0.310342,0.33448,-0.0,-0.0,0.0,0.0,0.0,0.0,0.0,0.0,0.0,0.0,0.0,0.0
87279,0.00012,-0.001953,0.002076,0.0,0.0,0.0,0.0,0.0,0.0,3.0,0.319836,0.333942,0.313874,0.333863,-0.0,-0.0,0.0,0.0,0.0,0.0,0.0,0.0,0.0,0.0,0.0,0.0
87299,-0.000124,-0.001953,0.002075,0.0,0.0,0.0,0.0,0.0,0.0,3.0,0.324017,0.33663,0.309479,0.331169,-0.0,-0.0,0.0,0.0,0.0,0.0,0.0,0.0,0.0,0.0,0.0,0.0
87319,-2e-06,-0.002075,0.001953,0.0,0.0,0.0,0.0,0.0,0.0,3.0,0.327282,0.331247,0.320721,0.322771,-0.0,-0.0,0.0,0.0,0.0,0.0,0.0,0.0,0.0,0.0,0.0,0.0
87339,-0.000124,-0.001953,0.001953,0.0,0.0,0.0,0.0,0.0,0.0,3.0,0.322987,0.335559,0.311595,0.33132,-0.0,-0.0,0.0,0.0,0.0,0.0,0.0,0.0,0.0,0.0,0.0,0.0
87359,-2e-06,-0.002075,0.001953,0.0,0.0,0.0,0.0,0.0,0.0,3.0,0.320171,0.336481,0.3136,0.331232,-0.0,-0.0,0.0,0.0,0.0,0.0,0.0,0.0,0.0,0.0,0.0,0.0
87379,-0.000246,-0.002197,0.001953,0.0,0.0,0.0,0.0,0.0,0.0,3.0,0.325608,0.334822,0.307801,0.332976,0.0,-0.0,0.0,0.0,0.0,0.0,0.0,0.0,0.0,0.0,0.0,0.0
87399,-0.000246,-0.002319,0.001831,0.0,0.0,0.0,0.0,0.0,0.0,3.0,0.326835,0.334187,0.310366,0.330088,0.0,-0.0,0.0,0.0,0.0,0.0,0.0,0.0,0.0,0.0,0.0,0.0
87419,-2e-06,-0.002197,0.001831,0.0,0.0,0.0,0.0,0.0,0.0,3.0,0.320443,0.333191,0.313559,0.334329,0.0,-0.0,0.0,0.0,0.0,0.0,0.0,0.0,0.0,0.0,0.0,0.0
87439,0.000242,-0.00232,0.001832,0.0,0.0,0.0,0.0,0.0,0.0,3.0,0.317123,0.338172,0.316655,0.329531,0.0,-0.0,0.0,0.0,0.0,0.0,0.0,0.0,0.0,0.0,0.0,0.0
87459,0.000242,-0.002076,0.00171,0.0,0.0,0.0,0.0,0.0,0.0,3.0,0.324285,0.330874,0.316753,0.329983,0.0,-0.0,0.0,0.0,0.0,0.0,0.0,0.0,0.0,0.0,0.0,0.0
87479,0.000242,-0.002076,0.00171,0.0,0.0,0.0,0.0,0.0,0.0,3.0,0.322433,0.335583,0.311812,0.33163,0.0,-0.0,0.0,0.0,0.0,0.0,0.0,0.0,0.0,0.0,0.0,0.0
87499,0.000364,-0.002076,0.00171,0.0,0.0,0.0,0.0,0.0,0.0,3.0,0.322263,0.336192,0.311517,0.331446,0.0,-0.0,0.0,0.0,0.0,0.0,0.0,0.0,0.0,0.0,0.0,0.0
87519,0.000242,-0.002198,0.001587,0.0,0.0,0.0,0.0,0.0,0.0,3.0,0.326313,0.335642,0.30923,0.33016,0.0,-0.0,0.0,0.0,0.0,0.0,0.0,0.0,0.0,0.0,0.0,0.0
87539,0.000242,-0.002198,0.001587,0.0,0.0,0.0,0.0,0.0,0.0,3.0,0.325366,0.33676,0.308458,0.33065,0.0,-0.0,0.0,0.0,0.0,0.0,0.0,0.0,0.0,0.0,0.0,0.0
87559,0.000242,-0.002198,0.001587,0.0,0.0,0.0,0.0,0.0,0.0,3.0,0.323136,0.335109,0.310674,0.332476,0.0,-0.0,0.0,0.0,0.0,0.0,0.0,0.0,0.0,0.0,0.0,0.0
87579,0.000243,-0.002075,0.001465,0.0,0.0,0.0,0.0,0.0,0.0,3.0,0.324259,0.331697,0.311503,0.334055,0.0,-0.0,0.0,0.0,0.0,0.0,0.0,0.0,0.0,0.0,0.0,0.0
87599,0.000365,-0.00232,0.001466,0.0,0.0,0.0,0.0,0.0,0.0,3.0,0.319982,0.336262,0.314174,0.331103,0.0,-0.0,0.0,0.0,0.0,0.0,0.0,0.0,0.0,0.0,0.0,0.0
87619,0.000365,-0.002198,0.001343,0.0,0.0,0.0,0.0,0.0,0.0,3.0,0.323944,0.331905,0.317414,0.328649,0.0,-0.0,0.0,0.0,0.0,0.0,0.0,0.0,0.0,0.0,0.0,0.0
87639,0.000487,-0.002198,0.001344,0.0,0.0,0.0,0.0,0.0,0.0,3.0,0.320615,0.335609,0.314008,0.331318,0.0,-0.0,0.0,0.0,0.0,-0.0,0.0,0.0,0.0,0.0,0.0,0.0
87659,0.000731,-0.002198,0.001344,0.0,0.0,0.0,0.0,0.0,0.0,3.0,0.318753,0.334988,0.315443,0.332383,0.0,-0.0,0.0,0.0,0.0,-0.0,0.0,0.0,0.0,0.0,0.0,0.0
87679,0.000609,-0.00232,0.001222,0.0,0.0,0.0,0.0,0.0,0.0,3.0,0.325383,0.333016,0.316034,0.327413,0.0,-0.0,0.0,0.0,0.0,-0.0,0.0,0.0,0.0,0.0,0.0,0.0
87699,0.000609,-0.002442,0.001222,0.0,0.0,0.0,0.0,0.0,0.0,3.0,0.329006,0.333921,0.316279,0.322585,0.0,-0.0,0.0,0.0,0.0,-0.0,0.0,0.0,0.0,0.0,0.0,0.0
87719,0.000731,-0.002564,0.001222,0.0,0.0,0.0,0.0,0.0,0.0,3.0,0.326248,0.336,0.315773,0.323703,0.0,-0.0,0.0,0.0,0.0,-0.0,0.0,0.0,0.0,0.0,0.0,0.0
87739,0.000487,-0.00232,0.001221,0.0,0.0,0.0,0.0,0.0,0.0,3.0,0.323878,0.330879,0.310727,0.335927,0.0,-0.0,0.0,0.0,0.0,-0.0,0.0,0.0,0.0,0.0,0.0,0.0
87759,0.000487,-0.00232,0.001221,0.0,0.0,0.0,0.0,0.0,0.0,3.0,0.322784,0.334143,0.311365,0.333157,0.0,-0.0,0.0,0.0,0.0,-0.0,0.0,0.0,0.0,0.0,0.0,0.0
87779,0.000365,-0.00232,0.001221,0.0,0.0,0.0,0.0,0.0,0.0,3.0,0.324019,0.336656,0.308149,0.332346,0.0,-0.0,0.0,0.0,0.0,-0.0,0.0,0.0,0.0,0.0,0.0,0.0
87799,0.000487,-0.00232,0.001099,0.0,0.0,0.0,0.0,0.0,0.0,3.0,0.324044,0.336251,0.311884,0.329317,0.0,-0.0,0.0,0.0,0.0,-0.0,0.0,0.0,0.0,0.0,0.0,0.0
87819,0.000731,-0.00232,0.0011,0.0,0.0,0.0,0.0,0.0,0.0,3.0,0.320599,0.335631,0.313819,0.331486,0.0,-0.0,0.0,0.0,0.0,-0.0,0.0,0.0,0.0,0.0,0.0,0.0
87839,0.000853,-0.002198,0.0011,0.0,0.0,0.0,0.0,0.0,0.0,3.0,0.320338,0.333816,0.313965,0.333432,0.0,-0.0,0.0,0.0,0.0,-0.0,0.0,0.0,0.0,0.0,0.0,0.0
87859,0.000975,-0.002442,0.0011,0.0,0.0,0.0,0.0,0.0,0.0,3.0,0.322137,0.339326,0.312064,0.327822,0.0,-0.0,0.0,0.0,0.0,-0.0,0.0,0.0,0.0,0.0,0.0,0.0
87879,0.000853,-0.002564,0.000978,0.0,0.0,0.0,0.0,0.0,0.0,3.0,0.329101,0.333762,0.315885,0.323036,0.0,-0.0,0.0,0.0,0.0,-0.0,0.0,0.0,0.0,0.0,0.0,0.0
87899,0.000731,-0.00232,0.000978,0.0,0.0,0.0,0.0,0.0,0.0,3.0,0.325289,0.332202,0.309621,0.334266,0.0,-0.0,0.0,0.0,0.0,-0.0,0.0,0.0,0.0,0.0,0.0,0.0
87919,0.000731,-0.00232,0.000978,0.0,0.0,0.0,0.0,0.0,0.0,3.0,0.322569,0.33273,0.311808,0.334369,0.0,-0.0,-0.0,0.0,0.0,-0.0,0.0,0.0,0.0,0.0,0.0,0.0
87939,0.000487,-0.002198,0.000977,0.0,0.0,0.0,0.0,0.0,0.0,3.0,0.327261,0.329851,0.310481,0.333902,0.0,-0.0,-0.0,0.0,0.0,-0.0,0.0,0.0,0.0,0.0,0.0,0.0
87959,0.000365,-0.00232,0.000977,0.0,0.0,0.0,0.0,0.0,0.0,3.0,0.326145,0.335556,0.308161,0.331385,0.0,-0.0,-0.0,0.0,0.0,-0.0,0.0,0.0,0.0,0.0,0.0,0.0
87979,0.000609,-0.002198,0.000855,0.0,0.0,0.0,0.0,0.0,0.0,3.0,0.325282,0.33157,0.316368,0.328667,0.0,0.0,-0.0,0.0,0.0,-0.0,0.0,0.0,0.0,0.0,0.0,0.0
87999,0.000853,-0.002442,0.000856,0.0,0.0,0.0,0.0,0.0,0.0,3.0,0.319302,0.336395,0.32102,0.325072,0.0,0.0,-0.0,0.0,0.0,-0.0,0.0,0.0,0.0,0.0,0.0,0.0
88019,0.000976,-0.002564,0.000856,0.0,0.0,0.0,0.0,0.0,0.0,3.0,0.320599,0.336007,0.31425,0.330702,0.0,0.0,-0.0,0.0,0.0,-0.0,0.0,0.0,0.0,0.0,0.0,0.0
88039,0.000853,-0.002686,0.000856,0.0,0.0,0.0,0.0,0.0,0.0,3.0,0.324726,0.338054,0.309583,0.328913,0.0,0.0,-0.0,0.0,0.0,-0.0,0.0,0.0,0.0,0.0,0.0,0.0
88059,0.000854,-0.002442,0.000734,0.0,0.0,0.0,0.0,0.0,0.0,3.0,0.332225,0.326533,0.316413,0.326716,0.0,0.0,-0.0,0.0,0.0,-0.0,0.0,0.0,0.0,0.0,0.0,0.0
88079,0.000731,-0.00232,0.000855,0.0,0.0,0.0,0.0,0.0,0.0,3.0,0.32617,0.334987,0.305169,0.334609,0.0,0.0,-0.0,0.0,0.0,-0.0,0.0,0.0,0.0,0.0,0.0,0.0
88099,0.000609,-0.002442,0.000855,0.0,0.0,0.0,0.0,0.0,0.0,3.0,0.322789,0.336975,0.305786,0.335308,0.0,0.0,-0.0,0.0,0.0,-0.0,0.0,0.0,0.0,0.0,0.0,0.0
88119,0.000365,-0.002442,0.000733,0.0,0.0,0.0,0.0,0.0,0.0,3.0,0.326828,0.334564,0.308952,0.331005,0.0,0.0,-0.0,0.0,0.0,-0.0,0.0,0.0,0.0,0.0,0.0,0.0
88139,0.000487,-0.002686,0.000855,0.0,0.0,0.0,0.0,0.0,0.0,3.0,0.313625,0.344871,0.306198,0.335406,0.0,0.0,-0.0,0.0,0.0,-0.0,0.0,0.0,0.0,0.0,0.0,0.0
88159,0.000365,-0.002686,0.000855,0.0,0.0,0.0,0.0,0.0,0.0,3.0,0.318873,0.339502,0.310943,0.331815,0.0,0.0,-0.0,0.0,0.0,-0.0,0.0,0.0,0.0,0.0,0.0,0.0
88179,0.000609,-0.002808,0.000856,0.0,0.0,0.0,0.0,0.0,0.0,3.0,0.312198,0.339723,0.314595,0.334437,0.0,0.0,-0.0,0.0,0.0,-0.0,0.0,0.0,0.0,0.0,0.0,0.0
88199,0.000487,-0.002808,0.000733,0.0,0.0,0.0,0.0,0.0,0.0,3.0,0.326578,0.332687,0.314526,0.327994,0.0,0.0,-0.0,0.0,0.0,-0.0,0.0,0.0,0.0,0.0,0.0,0.0
88219,0.000731,-0.002808,0.000734,0.0,0.0,0.0,0.0,0.0,0.0,3.0,0.326299,0.329734,0.321039,0.325007,0.0,0.0,-0.0,0.0,0.0,-0.0,0.0,0.0,0.0,0.0,0.0,0.0
88239,0.000609,-0.002686,0.000733,0.0,0.0,0.0,0.0,0.0,0.0,3.0,0.327874,0.333053,0.307053,0.333214,0.0,0.0,-0.0,0.0,0.0,-0.0,0.0,0.0,0.0,0.0,0.0,0.0
88259,0.000609,-0.002686,0.000855,0.0,0.0,0.0,0.0,0.0,0.0,3.0,0.320681,0.33905,0.306218,0.334822,0.0,0.0,-0.0,0.0,0.0,-0.0,0.0,0.0,0.0,0.0,0.0,0.0
88279,0.000609,-0.002564,0.000855,0.0,0.0,0.0,0.0,0.0,0.0,3.0,0.323126,0.334926,0.310564,0.332771,0.0,0.0,-0.0,0.0,0.0,-0.0,0.0,0.0,0.0,0.0,0.0,0.0
88299,0.000609,-0.002808,0.000856,0.0,0.0,0.0,0.0,0.0,0.0,3.0,0.321404,0.339415,0.312751,0.3278,0.0,0.0,-0.0,0.0,0.0,-0.0,0.0,0.0,0.0,0.0,0.0,0.0
88319,0.000609,-0.003052,0.000856,0.0,0.0,0.0,0.0,0.0,0.0,3.0,0.318567,0.34141,0.312004,0.329141,0.0,0.0,-0.0,0.0,0.0,-0.0,0.0,0.0,0.0,0.0,0.0,0.0
88339,0.000487,-0.003052,0.000855,0.0,0.0,0.0,0.0,0.0,0.0,3.0,0.316619,0.340602,0.310068,0.333597,0.0,0.0,-0.0,0.0,0.0,-0.0,0.0,0.0,0.0,0.0,0.0,0.0
88359,0.000487,-0.003052,0.000733,0.0,0.0,0.0,0.0,0.0,0.0,3.0,0.325836,0.332958,0.315147,0.327866,0.0,0.0,-0.0,0.0,0.0,-0.0,0.0,0.0,0.0,0.0,0.0,0.0
88379,0.000609,-0.00293,0.000856,0.0,0.0,0.0,0.0,0.0,0.0,3.0,0.320692,0.33699,0.310198,0.333338,0.0,0.0,-0.0,0.0,0.0,-0.0,0.0,0.0,0.0,0.0,0.0,0.0
88399,0.000731,-0.00293,0.000734,0.0,0.0,0.0,0.0,0.0,0.0,3.0,0.325485,0.332934,0.312109,0.331077,0.0,0.0,-0.0,0.0,0.0,-0.0,0.0,0.0,0.0,0.0,0.0,0.0
88419,0.000731,-0.002808,0.000734,0.0,0.0,0.0,0.0,0.0,0.0,3.0,0.330362,0.329318,0.31645,0.325779,0.0,0.0,-0.0,0.0,0.0,0.0,0.0,0.0,0.0,0.0,0.0,0.0
88439,0.000854,-0.002808,0.000734,0.0,0.0,0.0,0.0,0.0,0.0,3.0,0.326229,0.33551,0.315925,0.32409,0.0,0.0,-0.0,0.0,0.0,0.0,0.0,0.0,0.0,0.0,0.0,0.0
88459,0.000853,-0.002808,0.000856,0.0,0.0,0.0,0.0,0.0,0.0,3.0,0.316185,0.344381,0.30365,0.335801,0.0,0.0,-0.0,0.0,0.0,0.0,0.0,0.0,0.0,0.0,0.0,0.0
88479,0.000731,-0.00293,0.000734,0.0,0.0,0.0,0.0,0.0,0.0,3.0,0.320578,0.336391,0.314603,0.329999,0.0,0.0,-0.0,0.0,0.0,0.0,0.0,0.0,0.0,0.0,0.0,0.0
88499,0.000731,-0.003174,0.000734,0.0,0.0,0.0,0.0,0.0,0.0,3.0,0.320881,0.337671,0.313392,0.329522,0.0,0.0,-0.0,0.0,0.0,0.0,0.0,0.0,0.0,0.0,0.0,0.0
88519,0.000365,-0.003296,0.000733,0.0,0.0,0.0,0.0,0.0,0.0,3.0,0.327155,0.338058,0.306714,0.329133,0.0,0.0,-0.0,0.0,0.0,0.0,0.0,0.0,0.0,0.0,0.0,0.0
88539,0.000609,-0.003174,0.000734,0.0,0.0,0.0,0.0,0.0,0.0,3.0,0.318956,0.337962,0.309773,0.334374,0.0,0.0,-0.0,0.0,0.0,0.0,0.0,0.0,0.0,0.0,0.0,0.0
88559,0.000487,-0.00293,0.000611,0.0,0.0,0.0,0.0,0.0,0.0,3.0,0.330608,0.324603,0.317522,0.329208,0.0,0.0,-0.0,0.0,0.0,0.0,0.0,0.0,0.0,0.0,0.0,0.0
88579,0.000609,-0.003052,0.000733,0.0,0.0,0.0,0.0,0.0,0.0,3.0,0.320933,0.337246,0.312279,0.330943,0.0,0.0,-0.0,0.0,0.0,0.0,0.0,0.0,0.0,0.0,0.0,0.0
88599,0.000731,-0.003174,0.000734,0.0,0.0,0.0,0.0,0.0,0.0,3.0,0.321472,0.34127,0.312573,0.325942,0.0,0.0,-0.0,0.0,0.0,0.0,0.0,0.0,0.0,0.0,0.0,0.0
88619,0.000853,-0.003418,0.000734,0.0,0.0,0.0,0.0,0.0,0.0,3.0,0.322083,0.341312,0.311978,0.325859,0.0,0.0,-0.0,0.0,0.0,0.0,0.0,0.0,0.0,0.0,0.0,0.0
88639,0.000853,-0.003419,0.000856,0.0,0.0,0.0,0.0,0.0,0.0,3.0,0.320196,0.337925,0.31188,0.33132,0.0,0.0,-0.0,0.0,0.0,0.0,0.0,0.0,0.0,0.0,0.0,0.0
88659,0.000853,-0.003541,0.000978,0.0,0.0,0.0,0.0,0.0,0.0,3.0,0.312375,0.344425,0.306542,0.336698,0.0,0.0,-0.0,0.0,0.0,0.0,0.0,0.0,0.0,0.0,0.0,0.0
88679,0.000609,-0.003418,0.000856,0.0,0.0,0.0,0.0,0.0,0.0,3.0,0.328436,0.335927,0.307765,0.329104,0.0,0.0,-0.0,0.0,0.0,0.0,0.0,0.0,0.0,0.0,0.0,0.0
88699,0.000609,-0.003418,0.000978,0.0,0.0,0.0,0.0,0.0,0.0,3.0,0.321886,0.340521,0.306304,0.332091,0.0,0.0,-0.0,0.0,0.0,0.0,0.0,0.0,0.0,0.0,0.0,0.0
88719,0.000609,-0.00293,0.000978,0.0,0.0,0.0,0.0,0.0,0.0,3.0,0.322864,0.332671,0.310335,0.335479,0.0,0.0,-0.0,-0.0,0.0,0.0,0.0,0.0,0.0,0.0,0.0,0.0
88739,0.000609,-0.00293,0.000978,0.0,0.0,0.0,0.0,0.0,0.0,3.0,0.316531,0.338192,0.309776,0.336393,0.0,0.0,-0.0,0.0,0.0,-0.0,0.0,0.0,0.0,0.0,0.0,0.0
88759,0.000609,-0.002686,0.000855,0.0,0.0,0.0,0.0,0.0,0.0,3.0,0.323743,0.33339,0.313119,0.33138,0.0,0.0,-0.0,-0.0,0.0,-0.0,0.0,0.0,0.0,0.0,0.0,0.0
88779,0.000731,-0.003052,0.000978,0.0,0.0,0.0,0.0,0.0,0.0,3.0,0.31747,0.345169,0.308979,0.329005,0.0,0.0,-0.0,-0.0,0.0,-0.0,0.0,0.0,0.0,0.0,0.0,0.0
88799,0.000853,-0.003052,0.000978,0.0,0.0,0.0,0.0,0.0,0.0,3.0,0.319352,0.338374,0.313743,0.329936,0.0,0.0,-0.0,-0.0,0.0,-0.0,0.0,0.0,0.0,0.0,0.0,0.0
88819,0.000731,-0.003296,0.000978,0.0,0.0,0.0,0.0,0.0,0.0,3.0,0.321368,0.338311,0.31207,0.32962,0.0,0.0,-0.0,-0.0,0.0,-0.0,0.0,0.0,0.0,0.0,0.0,0.0
88839,0.000731,-0.003174,0.000978,0.0,0.0,0.0,0.0,0.0,0.0,3.0,0.319498,0.338396,0.30661,0.336247,0.0,0.0,-0.0,-0.0,0.0,-0.0,0.0,0.0,0.0,0.0,0.0,0.0
88859,0.000487,-0.003052,0.000855,0.0,0.0,0.0,0.0,0.0,0.0,3.0,0.326044,0.333888,0.310593,0.330962,0.0,0.0,-0.0,-0.0,0.0,-0.0,0.0,0.0,0.0,0.0,0.0,0.0
88879,0.000487,-0.00293,0.000855,0.0,0.0,0.0,0.0,0.0,0.0,3.0,0.324383,0.333214,0.3093,0.334422,0.0,0.0,-0.0,-0.0,0.0,-0.0,0.0,0.0,0.0,0.0,0.0,0.0
88899,0.000487,-0.002686,0.000977,0.0,0.0,0.0,0.0,0.0,0.0,3.0,0.314745,0.339393,0.30774,0.33862,0.0,0.0,-0.0,-0.0,0.0,-0.0,0.0,0.0,0.0,0.0,0.0,0.0
88919,0.000731,-0.002686,0.000856,0.0,0.0,0.0,0.0,0.0,0.0,3.0,0.320291,0.335507,0.31982,0.326208,0.0,0.0,-0.0,-0.0,0.0,-0.0,0.0,0.0,0.0,0.0,0.0,0.0
88939,0.000609,-0.002808,0.000856,0.0,0.0,0.0,0.0,0.0,0.0,3.0,0.32334,0.339764,0.310537,0.327607,0.0,0.0,-0.0,-0.0,0.0,-0.0,0.0,0.0,0.0,0.0,0.0,0.0
88959,0.000853,-0.002808,0.000856,0.0,0.0,0.0,0.0,0.0,0.0,3.0,0.317508,0.339204,0.316097,0.32862,0.0,0.0,-0.0,-0.0,0.0,-0.0,0.0,0.0,0.0,0.0,0.0,0.0
88979,0.000731,-0.002808,0.000856,0.0,0.0,0.0,0.0,0.0,0.0,3.0,0.323116,0.334797,0.310326,0.333127,0.0,0.0,-0.0,-0.0,0.0,-0.0,0.0,0.0,0.0,0.0,0.0,0.0
88999,0.000609,-0.003052,0.000856,0.0,0.0,0.0,0.0,0.0,0.0,3.0,0.324711,0.338969,0.30861,0.328871,0.0,0.0,-0.0,-0.0,0.0,-0.0,0.0,0.0,0.0,0.0,0.0,0.0
89019,0.000731,-0.003052,0.000856,0.0,0.0,0.0,0.0,0.0,0.0,3.0,0.322605,0.336933,0.310812,0.331005,0.0,0.0,-0.0,-0.0,0.0,-0.0,0.0,0.0,0.0,0.0,0.0,0.0
89039,0.000365,-0.002808,0.000855,0.0,0.0,0.0,0.0,0.0,0.0,3.0,0.326257,0.333813,0.306921,0.334146,0.0,0.0,-0.0,-0.0,0.0,-0.0,0.0,0.0,0.0,0.0,0.0,0.0
89059,0.000487,-0.002808,0.000733,0.0,0.0,0.0,0.0,0.0,0.0,3.0,0.323412,0.335664,0.311976,0.33045,0.0,0.0,-0.0,-0.0,0.0,-0.0,0.0,0.0,0.0,0.0,0.0,0.0
89079,0.000487,-0.002686,0.000733,0.0,0.0,0.0,0.0,0.0,0.0,3.0,0.32445,0.338094,0.31098,0.32785,0.0,0.0,-0.0,-0.0,0.0,-0.0,0.0,0.0,0.0,0.0,0.0,0.0
89099,0.000731,-0.002686,0.000734,0.0,0.0,0.0,0.0,0.0,0.0,3.0,0.317894,0.336254,0.317674,0.329808,0.0,0.0,-0.0,-0.0,0.0,-0.0,0.0,0.0,0.0,0.0,0.0,0.0
89119,0.000609,-0.002686,0.000733,0.0,0.0,0.0,0.0,0.0,0.0,3.0,0.321014,0.336969,0.312695,0.330764,0.0,0.0,-0.0,-0.0,0.0,-0.0,0.0,0.0,0.0,0.0,0.0,0.0
89139,0.000854,-0.002686,0.000734,0.0,0.0,0.0,0.0,0.0,0.0,3.0,0.320138,0.334744,0.315279,0.331468,0.0,0.0,-0.0,-0.0,0.0,-0.0,0.0,0.0,0.0,0.0,0.0,0.0
89159,0.000732,-0.002808,0.000611,0.0,0.0,0.0,0.0,0.0,0.0,3.0,0.331769,0.330708,0.316137,0.323213,0.0,0.0,-0.0,-0.0,0.0,-0.0,0.0,0.0,0.0,0.0,0.0,0.0
89179,0.000732,-0.002808,0.000611,0.0,0.0,0.0,0.0,0.0,0.0,3.0,0.331318,0.329232,0.315596,0.325709,0.0,0.0,-0.0,-0.0,0.0,0.0,0.0,0.0,0.0,0.0,0.0,0.0
89199,0.00061,-0.002686,0.000611,0.0,0.0,0.0,0.0,0.0,0.0,3.0,0.324389,0.33239,0.310065,0.334546,0.0,0.0,-0.0,-0.0,0.0,0.0,0.0,0.0,0.0,0.0,0.0,0.0
89219,0.00061,-0.002686,0.000611,0.0,0.0,0.0,0.0,0.0,0.0,3.0,0.320837,0.334094,0.312937,0.333625,0.0,0.0,-0.0,-0.0,0.0,0.0,0.0,0.0,0.0,0.0,0.0,0.0
89239,0.000487,-0.002808,0.000611,0.0,0.0,0.0,0.0,0.0,0.0,3.0,0.322504,0.338906,0.311139,0.328764,0.0,0.0,-0.0,-0.0,0.0,-0.0,0.0,0.0,0.0,0.0,0.0,0.0
89259,0.000366,-0.002686,0.000489,0.0,0.0,0.0,0.0,0.0,0.0,3.0,0.323867,0.334524,0.313576,0.329684,0.0,0.0,-0.0,-0.0,0.0,0.0,0.0,0.0,0.0,0.0,0.0,0.0
89279,0.000488,-0.002564,0.000489,0.0,0.0,0.0,0.0,0.0,0.0,3.0,0.318396,0.334749,0.315751,0.332673,0.0,0.0,-0.0,-0.0,0.0,-0.0,0.0,0.0,0.0,0.0,0.0,0.0
89299,0.000488,-0.002564,0.000489,0.0,0.0,0.0,0.0,0.0,0.0,3.0,0.320557,0.335357,0.313335,0.332252,0.0,0.0,-0.0,-0.0,-0.0,-0.0,0.0,0.0,0.0,0.0,0.0,0.0
89319,0.000488,-0.002686,0.000489,0.0,0.0,0.0,0.0,0.0,0.0,3.0,0.3244,0.33805,0.309303,0.329494,0.0,0.0,-0.0,-0.0,0.0,-0.0,0.0,0.0,0.0,0.0,0.0,0.0
89339,0.000488,-0.002564,0.000367,0.0,0.0,0.0,0.0,0.0,0.0,3.0,0.325905,0.334646,0.30976,0.331091,0.0,0.0,-0.0,-0.0,-0.0,-0.0,0.0,0.0,0.0,0.0,0.0,0.0
89359,0.000488,-0.002442,0.000367,0.0,0.0,0.0,0.0,0.0,0.0,3.0,0.324199,0.334085,0.309826,0.333255,0.0,0.0,-0.0,-0.0,0.0,-0.0,0.0,0.0,0.0,0.0,0.0,0.0
89379,0.000488,-0.002442,0.000245,0.0,0.0,0.0,0.0,0.0,0.0,3.0,0.324084,0.334654,0.313706,0.329218,0.0,0.0,-0.0,-0.0,0.0,-0.0,0.0,0.0,0.0,0.0,0.0,0.0
89399,0.000366,-0.002564,0.000245,0.0,0.0,0.0,0.0,0.0,0.0,3.0,0.321416,0.338154,0.313031,0.328842,0.0,0.0,-0.0,-0.0,-0.0,-0.0,0.0,0.0,0.0,0.0,0.0,0.0
89419,0.000122,-0.002442,0.000122,0.0,0.0,0.0,0.0,0.0,0.0,3.0,0.325018,0.334839,0.312932,0.328835,0.0,0.0,-0.0,-0.0,-0.0,-0.0,0.0,0.0,0.0,0.0,0.0,0.0
89439,0.000244,-0.002197,0.000122,0.0,0.0,0.0,0.0,0.0,0.0,3.0,0.320608,0.332485,0.315871,0.33274,0.0,0.0,-0.0,-0.0,-0.0,-0.0,0.0,0.0,0.0,0.0,0.0,0.0
89459,0.000122,-0.002442,0.000122,0.0,0.0,0.0,0.0,0.0,0.0,3.0,0.318106,0.340355,0.309174,0.333268,0.0,0.0,-0.0,-0.0,-0.0,0.0,0.0,0.0,0.0,0.0,0.0,0.0
89479,-0.000122,-0.002442,-0.0,0.0,0.0,0.0,0.0,0.0,0.0,3.0,0.327612,0.330869,0.31359,0.329686,0.0,0.0,-0.0,-0.0,-0.0,-0.0,0.0,0.0,0.0,0.0,0.0,0.0
89499,0.0,-0.002442,-0.000122,0.0,0.0,0.0,0.0,0.0,0.0,3.0,0.331356,0.331557,0.317935,0.321001,0.0,0.0,-0.0,-0.0,-0.0,-0.0,0.0,0.0,0.0,0.0,0.0,0.0
89519,0.000122,-0.002197,-0.000122,0.0,0.0,0.0,0.0,0.0,0.0,3.0,0.328298,0.328518,0.319836,0.325405,0.0,0.0,-0.0,-0.0,-0.0,0.0,0.0,0.0,0.0,0.0,0.0,0.0
89539,0.0,-0.002197,-0.000122,0.0,0.0,0.0,0.0,0.0,0.0,3.0,0.324217,0.334561,0.311358,0.331359,0.0,0.0,-0.0,-0.0,-0.0,-0.0,0.0,0.0,0.0,0.0,0.0,0.0
89559,0.0,-0.002075,-0.000244,0.0,0.0,0.0,0.087266,0.0,0.0,3.0,0.503907,0.331196,0.15,0.326781,0.004556,-0.0,0.000249,0.707093,0.000191,0.036114,0.0,0.0,0.0,0.0,0.0,0.0
89579,0.000123,-0.001831,-0.000855,0.0,0.0,0.0,0.087266,0.0,0.0,3.0,0.366948,0.320608,0.291754,0.316675,0.019672,3e-06,0.00096,0.715636,0.001019,0.032956,0.0,0.0,0.0,0.0,0.0,0.0
89599,0.0011,-0.001953,-0.001342,0.0,0.0,0.0,0.087266,0.0,0.0,3.0,0.34564,0.325857,0.311035,0.318234,0.032545,1.2e-05,0.001593,0.525251,0.001542,0.029459,0.0,0.0,0.0,0.0,0.0,0.0
89619,0.003297,-0.001829,-0.001462,0.0,0.0,0.0,0.087266,0.0,0.0,3.0,0.319746,0.335297,0.313216,0.333193,0.041767,2.5e-05,0.002151,0.364257,0.00174,0.024999,0.0,0.0,0.0,0.0,0.0,0.0
89639,0.007204,-0.001583,-0.001215,0.0,0.0,0.0,0.087266,0.0,0.0,3.0,0.295565,0.338588,0.321832,0.343261,0.048187,3.9e-05,0.002619,0.260125,0.001723,0.020738,0.0,0.0,0.0,0.0,0.0,0.0
89659,0.012086,-0.000849,-0.000972,0.0,0.0,0.0,0.087266,0.0,0.0,3.0,0.281841,0.335774,0.332359,0.346931,0.05288,5.3e-05,0.003007,0.199091,0.001595,0.017007,0.0,0.0,0.0,0.0,0.0,0.0
89679,0.016968,-0.000114,-0.000976,0.0,0.0,0.0,0.087266,0.0,0.0,3.0,0.296188,0.325669,0.340827,0.33692,0.056568,6.7e-05,0.003323,0.164007,0.001421,0.013752,0.0,0.0,0.0,0.0,0.0,0.0
89699,0.021973,0.000621,-0.000983,0.0,0.0,0.0,0.087266,0.0,0.0,3.0,0.295023,0.327077,0.339942,0.337441,0.059681,7.9e-05,0.003577,0.143949,0.001235,0.010915,0.0,0.0,0.0,0.0,0.0,0.0
89719,0.02649,0.00172,-0.000877,0.0,0.0,0.0,0.087266,0.0,0.0,3.0,0.293516,0.327509,0.328142,0.349621,0.062464,9e-05,0.003777,0.132495,0.00105,0.008446,0.0,0.0,0.0,0.0,0.0,0.0
89739,0.030518,0.002698,-0.000895,0.0,0.0,0.0,0.087266,0.0,0.0,3.0,0.302506,0.325715,0.329726,0.34247,0.065059,0.0001,0.003931,0.125945,0.000874,0.006299,0.0,0.0,0.0,0.0,0.0,0.0
89759,0.033449,0.003554,-0.000914,0.0,0.0,0.0,0.087266,0.0,0.0,3.0,0.318865,0.323649,0.326907,0.332532,0.067546,0.000109,0.004043,0.122178,0.000709,0.004435,0.0,0.0,0.0,0.0,0.0,0.0
89779,0.035157,0.004649,-0.000692,0.0,0.0,0.0,0.087266,0.0,0.0,3.0,0.322898,0.327664,0.305587,0.344413,0.069972,0.000117,0.00412,0.119983,0.000556,0.002819,0.0,0.0,0.0,0.0,0.0,0.0
89799,0.036378,0.005381,-0.000708,0.0,0.0,0.0,0.087266,0.0,0.0,3.0,0.328547,0.32522,0.30767,0.339623,0.07236,0.000124,0.004166,0.118667,0.000414,0.001421,0.0,0.0,0.0,0.0,0.0,0.0
89819,0.036744,0.005989,-0.000598,0.0,0.0,0.0,0.087266,0.0,0.0,3.0,0.331591,0.332249,0.288666,0.34579,0.074727,0.00013,0.004186,0.117832,0.000284,0.000214,0.0,0.0,0.0,0.0,0.0,0.0
89839,0.0365,0.006111,-0.0006,0.0,0.0,0.0,0.087266,0.0,0.0,3.0,0.34294,0.332726,0.289104,0.333739,0.077079,0.000135,0.004182,0.117253,0.000164,-0.000825,0.0,0.0,0.0,0.0,0.0,0.0
89859,0.036378,0.005987,-0.000475,0.0,0.0,0.0,0.087266,0.0,0.0,3.0,0.34028,0.337605,0.288705,0.331898,0.07942,0.000139,0.004159,0.1168,5.4e-05,-0.001718,0.0,0.0,0.0,0.0,0.0,0.0
89879,0.036378,0.005987,-0.000475,0.0,0.0,0.0,0.087266,0.0,0.0,3.0,0.338276,0.33525,0.295192,0.330925,0.081753,0.000143,0.004119,0.116399,-4.6e-05,-0.002481,0.0,0.0,0.0,0.0,0.0,0.0
89899,0.036866,0.005867,-0.000596,0.0,0.0,0.0,0.087266,0.0,0.0,3.0,0.340546,0.329423,0.301067,0.329342,0.084078,0.000145,0.004064,0.116008,-0.000115,-0.002979,0.0,0.0,0.0,0.0,0.0,0.0
89919,0.037598,0.005745,-0.000596,0.0,0.0,0.0,0.087266,0.0,0.0,3.0,0.338543,0.3292,0.300281,0.332328,0.086396,0.000148,0.003997,0.115604,-0.000221,-0.003684,0.0,0.0,0.0,0.0,0.0,0.0
89939,0.038577,0.005868,-0.000601,0.0,0.0,0.0,0.087266,0.0,0.0,3.0,0.339101,0.324979,0.307231,0.329728,0.088704,0.000149,0.00392,0.115172,-0.000297,-0.00415,0.0,0.0,0.0,0.0,0.0,0.0
89959,0.04053,0.00599,-0.000609,0.0,0.0,0.0,0.087266,0.0,0.0,3.0,0.323616,0.331337,0.313545,0.333162,0.091004,0.000151,0.003834,0.114705,-0.000366,-0.004539,0.0,0.0,0.0,0.0,0.0,0.0
89979,0.042361,0.006598,-0.000506,0.0,0.0,0.0,0.087266,0.0,0.0,3.0,0.319867,0.330928,0.309785,0.340469,0.093295,0.000152,0.00374,0.114199,-0.000428,-0.004863,0.0,0.0,0.0,0.0,0.0,0.0
89999,0.044438,0.007209,-0.000526,0.0,0.0,0.0,0.087266,0.0,0.0,3.0,0.319452,0.326856,0.31728,0.338023,0.095575,0.000152,0.00364,0.113652,-0.000484,-0.005128,0.0,0.0,0.0,0.0,0.0,0.0
90019,0.046879,0.007941,-0.000552,0.0,0.0,0.0,0.087266,0.0,0.0,3.0,0.314321,0.326271,0.322997,0.33797,0.097843,0.000152,0.003536,0.113062,-0.000535,-0.005342,0.0,0.0,0.0,0.0,0.0,0.0
90039,0.0492,0.008915,-0.000463,0.0,0.0,0.0,0.087266,0.0,0.0,3.0,0.310469,0.329712,0.312762,0.347371,0.1001,0.000152,0.003427,0.112429,-0.000581,-0.005512,0.0,0.0,0.0,0.0,0.0,0.0
90059,0.051519,0.009525,-0.000489,0.0,0.0,0.0,0.087266,0.0,0.0,3.0,0.314041,0.32691,0.322405,0.33817,0.102344,0.000151,0.003315,0.111754,-0.000622,-0.005642,0.0,0.0,0.0,0.0,0.0,0.0
90079,0.053718,0.010135,-0.000516,0.0,0.0,0.0,0.087266,0.0,0.0,3.0,0.31542,0.325828,0.322059,0.338275,0.104573,0.00015,0.003201,0.111035,-0.000659,-0.005739,0.0,0.0,0.0,0.0,0.0,0.0
90099,0.055671,0.010745,-0.000543,0.0,0.0,0.0,0.087266,0.0,0.0,3.0,0.318083,0.324904,0.319627,0.338979,0.106788,0.000149,0.003085,0.110274,-0.000692,-0.005807,0.0,0.0,0.0,0.0,0.0,0.0
90119,0.057505,0.01123,-0.000445,0.0,0.0,0.0,0.087266,0.0,0.0,3.0,0.316052,0.329105,0.312475,0.343299,0.108988,0.000147,0.002967,0.109471,-0.000721,-0.005848,0.0,0.0,0.0,0.0,0.0,0.0
90139,0.059213,0.011596,-0.000465,0.0,0.0,0.0,0.087266,0.0,0.0,3.0,0.322595,0.325216,0.314278,0.339388,0.111171,0.000146,0.002849,0.108625,-0.000746,-0.005867,0.0,0.0,0.0,0.0,0.0,0.0
90159,0.060554,0.011599,-0.000595,0.0,0.0,0.0,0.087266,0.0,0.0,3.0,0.333276,0.322136,0.317441,0.328996,0.113337,0.000144,0.002731,0.107739,-0.000769,-0.005867,0.0,0.0,0.0,0.0,0.0,0.0
90179,0.061901,0.011596,-0.000481,0.0,0.0,0.0,0.087266,0.0,0.0,3.0,0.32563,0.333955,0.307436,0.334151,0.115485,0.000142,0.002613,0.106811,-0.000789,-0.005849,0.0,0.0,0.0,0.0,0.0,0.0
90199,0.063244,0.011957,-0.000378,0.0,0.0,0.0,0.087266,0.0,0.0,3.0,0.326597,0.326146,0.310073,0.33849,0.117083,0.00014,0.002524,0.106089,-0.000802,-0.005827,0.0,0.0,0.0,0.0,0.0,0.0
90219,0.064342,0.011957,-0.000385,0.0,0.0,0.0,0.087266,0.0,0.0,3.0,0.323784,0.33088,0.309861,0.336791,0.119723,0.000137,0.002378,0.104836,-0.00082,-0.005772,0.0,0.0,0.0,0.0,0.0,0.0
90239,0.065078,0.012201,-0.000397,0.0,0.0,0.0,0.087266,0.0,0.0,3.0,0.330453,0.32704,0.305577,0.337885,0.121812,0.000134,0.002262,0.103789,-0.000832,-0.005717,0.0,0.0,0.0,0.0,0.0,0.0
90259,0.066298,0.012323,-0.000409,0.0,0.0,0.0,0.087266,0.0,0.0,3.0,0.32545,0.331677,0.30702,0.336946,0.12388,0.000132,0.002146,0.102703,-0.000842,-0.005651,0.0,0.0,0.0,0.0,0.0,0.0
90279,0.06764,0.012566,-0.000425,0.0,0.0,0.0,0.087266,0.0,0.0,3.0,0.324968,0.328444,0.311439,0.336619,0.125925,0.000129,0.002033,0.101579,-0.00085,-0.005578,0.0,0.0,0.0,0.0,0.0,0.0
90299,0.068864,0.012811,-0.000441,0.0,0.0,0.0,0.087266,0.0,0.0,3.0,0.323282,0.326399,0.313886,0.337974,0.127948,0.000126,0.001921,0.100418,-0.000857,-0.005498,0.0,0.0,0.0,0.0,0.0,0.0
90319,0.07045,0.013176,-0.000464,0.0,0.0,0.0,0.087266,0.0,0.0,3.0,0.319002,0.325705,0.318577,0.338343,0.129948,0.000123,0.00181,0.09922,-0.000861,-0.005412,0.0,0.0,0.0,0.0,0.0,0.0
90339,0.07204,0.013298,-0.000479,0.0,0.0,0.0,0.087266,0.0,0.0,3.0,0.318543,0.329536,0.31834,0.335297,0.131923,0.00012,0.001701,0.097985,-0.000864,-0.005321,0.0,0.0,0.0,0.0,0.0,0.0
90359,0.073626,0.013663,-0.000503,0.0,0.0,0.0,0.087266,0.0,0.0,3.0,0.319507,0.326307,0.317997,0.337837,0.133873,0.000117,0.001594,0.096715,-0.000866,-0.005226,0.0,0.0,0.0,0.0,0.0,0.0
90379,0.07546,0.013907,-0.000525,0.0,0.0,0.0,0.087266,0.0,0.0,3.0,0.321365,0.322384,0.328176,0.330119,0.135798,0.000114,0.001489,0.095409,-0.000866,-0.005127,0.0,0.0,0.0,0.0,0.0,0.0
90399,0.077168,0.014267,-0.000429,0.0,0.0,0.0,0.087266,0.0,0.0,3.0,0.31406,0.328657,0.320421,0.338331,0.137696,0.00011,0.001386,0.094069,-0.000866,-0.005026,0.0,0.0,0.0,0.0,0.0,0.0
90419,0.07888,0.014638,-0.000578,0.0,0.0,0.0,0.087266,0.0,0.0,3.0,0.322884,0.320831,0.326831,0.331475,0.139567,0.000107,0.001284,0.092696,-0.000863,-0.004922,0.0,0.0,0.0,0.0,0.0,0.0
90439,0.080588,0.014998,-0.000483,0.0,0.0,0.0,0.087266,0.0,0.0,3.0,0.319068,0.32606,0.317507,0.338928,0.14141,0.000103,0.001185,0.091289,-0.00086,-0.004817,0.0,0.0,0.0,0.0,0.0,0.0
90459,0.082178,0.015242,-0.000505,0.0,0.0,0.0,0.087266,0.0,0.0,3.0,0.321806,0.32505,0.315739,0.338958,0.143225,0.0001,0.001088,0.089851,-0.000856,-0.00471,0.0,0.0,0.0,0.0,0.0,0.0
90479,0.084136,0.015358,-0.000403,0.0,0.0,0.0,0.087266,0.0,0.0,3.0,0.306506,0.334406,0.316112,0.343367,0.145011,9.6e-05,0.000993,0.08838,-0.000851,-0.004602,0.0,0.0,0.0,0.0,0.0,0.0
90499,0.085721,0.015723,-0.000431,0.0,0.0,0.0,0.087266,0.0,0.0,3.0,0.307509,0.330996,0.316756,0.345192,0.146768,9.3e-05,0.000901,0.086879,-0.000845,-0.004494,0.0,0.0,0.0,0.0,0.0,0.0
90519,0.087312,0.015844,-0.000449,0.0,0.0,0.0,0.087266,0.0,0.0,3.0,0.306899,0.333434,0.318485,0.341828,0.148494,8.9e-05,0.00081,0.085347,-0.000839,-0.004385,0.0,0.0,0.0,0.0,0.0,0.0
90539,0.08853,0.015971,-0.000586,0.0,0.0,0.0,0.087266,0.0,0.0,3.0,0.321814,0.324855,0.321717,0.333579,0.150189,8.6e-05,0.000722,0.083787,-0.000831,-0.004276,0.0,0.0,0.0,0.0,0.0,0.0
90559,0.089999,0.016214,-0.000609,0.0,0.0,0.0,0.087266,0.0,0.0,3.0,0.314787,0.326539,0.323173,0.337126,0.151853,8.2e-05,0.000635,0.082197,-0.000823,-0.004168,0.0,0.0,0.0,0.0,0.0,0.0
90579,0.091218,0.016457,-0.00063,0.0,0.0,0.0,0.087266,0.0,0.0,3.0,0.317317,0.325901,0.320422,0.337999,0.153485,7.8e-05,0.000551,0.08058,-0.000815,-0.004059,0.0,0.0,0.0,0.0,0.0,0.0
90599,0.092565,0.016701,-0.000652,0.0,0.0,0.0,0.087266,0.0,0.0,3.0,0.322725,0.318705,0.32758,0.332913,0.155084,7.5e-05,0.000469,0.078935,-0.000805,-0.003951,0.0,0.0,0.0,0.0,0.0,0.0
90619,0.093542,0.016817,-0.000544,0.0,0.0,0.0,0.087266,0.0,0.0,3.0,0.317248,0.32876,0.31709,0.338403,0.15665,7.1e-05,0.00039,0.077265,-0.000795,-0.003844,0.0,0.0,0.0,0.0,0.0,0.0
90639,0.094766,0.017182,-0.000572,0.0,0.0,0.0,0.087266,0.0,0.0,3.0,0.315767,0.325904,0.316886,0.342638,0.158183,6.7e-05,0.000312,0.075568,-0.000785,-0.003737,0.0,0.0,0.0,0.0,0.0,0.0
90659,0.095863,0.017309,-0.000709,0.0,0.0,0.0,0.087266,0.0,0.0,3.0,0.321038,0.323219,0.320112,0.337382,0.159681,6.4e-05,0.000237,0.073847,-0.000774,-0.003631,0.0,0.0,0.0,0.0,0.0,0.0
90679,0.097083,0.017302,-0.000597,0.0,0.0,0.0,0.087266,0.0,0.0,3.0,0.317496,0.329162,0.317817,0.337118,0.161145,6e-05,0.000163,0.072102,-0.000763,-0.003526,0.0,0.0,0.0,0.0,0.0,0.0
90699,0.098308,0.017668,-0.000626,0.0,0.0,0.0,0.087266,0.0,0.0,3.0,0.317872,0.325689,0.319658,0.338401,0.162574,5.6e-05,9.2e-05,0.070334,-0.000751,-0.003423,0.0,0.0,0.0,0.0,0.0,0.0
90719,0.099777,0.017911,-0.000651,0.0,0.0,0.0,0.087266,0.0,0.0,3.0,0.314925,0.320286,0.32414,0.34195,0.163967,5.2e-05,2.3e-05,0.068544,-0.000739,-0.00332,0.0,0.0,0.0,0.0,0.0,0.0
90739,0.100996,0.01791,-0.000662,0.0,0.0,0.0,0.087266,0.0,0.0,3.0,0.323861,0.320429,0.325847,0.331877,0.165325,4.9e-05,-4.4e-05,0.066732,-0.000727,-0.003218,0.0,0.0,0.0,0.0,0.0,0.0
90759,0.102588,0.018025,-0.000561,0.0,0.0,0.0,0.087266,0.0,0.0,3.0,0.313781,0.330538,0.321576,0.335677,0.166646,4.5e-05,-0.00011,0.0649,-0.000714,-0.003118,0.0,0.0,0.0,0.0,0.0,0.0
90779,0.104174,0.018383,-0.000472,0.0,0.0,0.0,0.087266,0.0,0.0,3.0,0.302976,0.333937,0.319402,0.343856,0.16793,4.1e-05,-0.000173,0.063047,-0.000701,-0.003019,0.0,0.0,0.0,0.0,0.0,0.0
90799,0.105764,0.018747,-0.000506,0.0,0.0,0.0,0.087266,0.0,0.0,3.0,0.308301,0.320988,0.329421,0.342177,0.169177,3.7e-05,-0.000234,0.061176,-0.000688,-0.002922,0.0,0.0,0.0,0.0,0.0,0.0
90819,0.107112,0.018869,-0.000525,0.0,0.0,0.0,0.087266,0.0,0.0,3.0,0.311453,0.322588,0.326628,0.340583,0.170087,3.4e-05,-0.000278,0.059761,-0.000678,-0.002849,0.0,0.0,0.0,0.0,0.0,0.0
90839,0.108576,0.01886,-0.000417,0.0,0.0,0.0,0.087266,0.0,0.0,3.0,0.310218,0.326922,0.325049,0.339092,0.171558,3e-05,-0.00035,0.057381,-0.000661,-0.002731,0.0,0.0,0.0,0.0,0.0,0.0
90859,0.110045,0.019103,-0.000445,0.0,0.0,0.0,0.087266,0.0,0.0,3.0,0.310142,0.32493,0.327104,0.339099,0.172691,2.6e-05,-0.000406,0.055458,-0.000648,-0.002637,0.0,0.0,0.0,0.0,0.0,0.0
90879,0.111515,0.019096,-0.000337,0.0,0.0,0.0,0.087266,0.0,0.0,3.0,0.299764,0.330308,0.326274,0.343692,0.173785,2.2e-05,-0.000459,0.053519,-0.000634,-0.002545,0.0,0.0,0.0,0.0,0.0,0.0
90899,0.112734,0.019338,-0.000362,0.0,0.0,0.0,0.087266,0.0,0.0,3.0,0.308047,0.321759,0.329348,0.341758,0.174841,1.9e-05,-0.000511,0.051566,-0.00062,-0.002455,0.0,0.0,0.0,0.0,0.0,0.0
90919,0.113716,0.019215,-0.000365,0.0,0.0,0.0,0.087266,0.0,0.0,3.0,0.312071,0.326611,0.32458,0.338181,0.175858,1.5e-05,-0.000561,0.049599,-0.000605,-0.002366,0.0,0.0,0.0,0.0,0.0,0.0
90939,0.114814,0.018963,-0.00024,0.0,0.0,0.0,0.087266,0.0,0.0,3.0,0.31193,0.333832,0.320874,0.33477,0.176835,1.1e-05,-0.000609,0.04762,-0.000591,-0.002279,0.0,0.0,0.0,0.0,0.0,0.0
90959,0.115796,0.019207,-0.000263,0.0,0.0,0.0,0.087266,0.0,0.0,3.0,0.31351,0.32629,0.322958,0.338721,0.177772,8e-06,-0.000655,0.045628,-0.000577,-0.002193,0.0,0.0,0.0,0.0,0.0,0.0
90979,0.117015,0.019319,-0.00016,0.0,0.0,0.0,0.087266,0.0,0.0,3.0,0.306433,0.327827,0.323279,0.343187,0.17867,4e-06,-0.000699,0.043625,-0.000562,-0.002108,0.0,0.0,0.0,0.0,0.0,0.0
90999,0.117876,0.019197,-0.000161,0.0,0.0,0.0,0.087266,0.0,0.0,3.0,0.312664,0.328525,0.322169,0.33939,0.179317,2e-06,-0.000732,0.042116,-0.000551,-0.002046,0.0,0.0,0.0,0.0,0.0,0.0
91019,0.118851,0.019074,-0.000163,0.0,0.0,0.0,0.087266,0.0,0.0,3.0,0.313297,0.327652,0.322495,0.338048,0.180344,-3e-06,-0.000784,0.039588,-0.000533,-0.001944,0.0,0.0,0.0,0.0,0.0,0.0
91039,0.119956,0.019188,-5.9e-05,0.0,0.0,0.0,0.087266,0.0,0.0,3.0,0.305037,0.331174,0.318749,0.345342,0.181121,-6e-06,-0.000823,0.037557,-0.000519,-0.001865,0.0,0.0,0.0,0.0,0.0,0.0
91059,0.120931,0.018942,-5.4e-05,0.0,0.0,0.0,0.087266,0.0,0.0,3.0,0.308726,0.329838,0.325576,0.337112,0.181857,-1e-05,-0.000861,0.035518,-0.000504,-0.001786,0.0,0.0,0.0,0.0,0.0,0.0
91079,0.122036,0.019056,5e-05,0.0,0.0,0.0,0.087266,0.0,0.0,3.0,0.304679,0.326466,0.327903,0.341649,0.182552,-1.3e-05,-0.000897,0.033472,-0.00049,-0.001709,0.0,0.0,0.0,0.0,0.0,0.0
91099,0.122889,0.019055,4.2e-05,0.0,0.0,0.0,0.087266,0.0,0.0,3.0,0.309174,0.32485,0.326895,0.340227,0.183206,-1.7e-05,-0.000932,0.03142,-0.000475,-0.001634,0.0,0.0,0.0,0.0,0.0,0.0
91119,0.123749,0.018932,4.1e-05,0.0,0.0,0.0,0.087266,0.0,0.0,3.0,0.309248,0.32899,0.325694,0.337357,0.183819,-2e-05,-0.000966,0.029363,-0.000461,-0.001561,0.0,0.0,0.0,0.0,0.0,0.0
91139,0.124847,0.019045,0.000145,0.0,0.0,0.0,0.087266,0.0,0.0,3.0,0.304595,0.328265,0.328707,0.339249,0.184391,-2.3e-05,-0.000997,0.027302,-0.00045,-0.001506,0.0,0.0,0.0,0.0,0.0,0.0
91159,0.12583,0.019036,0.000257,0.0,0.0,0.0,0.087266,0.0,0.0,3.0,0.298281,0.331494,0.325852,0.344183,0.184921,-2.7e-05,-0.001028,0.025237,-0.000432,-0.001418,0.0,0.0,0.0,0.0,0.0,0.0
91179,0.126561,0.019278,0.000235,0.0,0.0,0.0,0.087266,0.0,0.0,3.0,0.310843,0.318823,0.329253,0.342095,0.185411,-3e-05,-0.001057,0.02317,-0.000418,-0.001348,0.0,0.0,0.0,0.0,0.0,0.0
91199,0.127423,0.019148,0.000356,0.0,0.0,0.0,0.087266,0.0,0.0,3.0,0.31033,0.327375,0.323137,0.340358,0.185858,-3.3e-05,-0.001084,0.021102,-0.000404,-0.001281,0.0,0.0,0.0,0.0,0.0,0.0
91219,0.128398,0.019139,0.000468,0.0,0.0,0.0,0.087266,0.0,0.0,3.0,0.305127,0.332263,0.321672,0.341566,0.186265,-3.6e-05,-0.00111,0.019032,-0.00039,-0.001214,0.0,0.0,0.0,0.0,0.0,0.0
91239,0.129504,0.019008,0.000587,0.0,0.0,0.0,0.087266,0.0,0.0,3.0,0.296565,0.335599,0.322134,0.345078,0.18663,-4e-05,-0.001135,0.016963,-0.000376,-0.001149,0.0,0.0,0.0,0.0,0.0,0.0
91259,0.130357,0.019006,0.000579,0.0,0.0,0.0,0.087266,0.0,0.0,3.0,0.303694,0.328146,0.329403,0.339471,0.186954,-4.3e-05,-0.001159,0.014894,-0.000362,-0.001086,0.0,0.0,0.0,0.0,0.0,0.0
91279,0.130967,0.01924,0.000679,0.0,0.0,0.0,0.087266,0.0,0.0,3.0,0.30661,0.325896,0.324897,0.343346,0.187236,-4.6e-05,-0.001181,0.012827,-0.000349,-0.001024,0.0,0.0,0.0,0.0,0.0,0.0
91299,0.131585,0.019232,0.000795,0.0,0.0,0.0,0.087266,0.0,0.0,3.0,0.307692,0.327264,0.320009,0.345618,0.187477,-4.9e-05,-0.001202,0.010763,-0.000335,-0.000963,0.0,0.0,0.0,0.0,0.0,0.0
91319,0.132195,0.019222,0.000911,0.0,0.0,0.0,0.087266,0.0,0.0,3.0,0.301845,0.332952,0.317296,0.347621,0.187677,-5.2e-05,-0.001222,0.008702,-0.000322,-0.000904,0.0,0.0,0.0,0.0,0.0,0.0
91339,0.132683,0.019091,0.001036,0.0,0.0,0.0,0.087266,0.0,0.0,3.0,0.299461,0.336478,0.317759,0.345809,0.187836,-5.5e-05,-0.00124,0.006646,-0.000309,-0.000846,0.0,0.0,0.0,0.0,0.0,0.0
91359,0.133058,0.019084,0.001154,0.0,0.0,0.0,0.087266,0.0,0.0,3.0,0.298302,0.335309,0.319001,0.346771,0.187953,-5.8e-05,-0.001257,0.004594,-0.000296,-0.00079,0.0,0.0,0.0,0.0,0.0,0.0
91379,0.133058,0.019205,0.001146,0.0,0.0,0.0,0.087266,0.0,0.0,3.0,0.309859,0.328868,0.317472,0.344536,0.18803,-6e-05,-0.001274,0.002548,-0.000283,-0.000735,0.0,0.0,0.0,0.0,0.0,0.0
91399,0.133424,0.019083,0.001151,0.0,0.0,0.0,0.087266,0.0,0.0,3.0,0.311295,0.326843,0.321703,0.34134,0.188065,-6.3e-05,-0.001289,0.000509,-0.00027,-0.000681,0.0,0.0,0.0,0.0,0.0,0.0
91419,0.133791,0.018822,0.001407,0.0,0.0,0.0,0.087266,0.0,0.0,3.0,0.299151,0.337801,0.316063,0.346292,0.18806,-6.6e-05,-0.001303,-0.001522,-0.000258,-0.000629,0.0,0.0,0.0,0.0,0.0,0.0
91439,0.134157,0.018943,0.001395,0.0,0.0,0.0,0.087266,0.0,0.0,3.0,0.300191,0.331229,0.321051,0.347254,0.188015,-6.9e-05,-0.001316,-0.003546,-0.000245,-0.000578,0.0,0.0,0.0,0.0,0.0,0.0
91459,0.134522,0.018942,0.001392,0.0,0.0,0.0,0.087266,0.0,0.0,3.0,0.302984,0.327962,0.328597,0.341023,0.187929,-7.1e-05,-0.001327,-0.00556,-0.000233,-0.000528,0.0,0.0,0.0,0.0,0.0,0.0
91479,0.134897,0.018812,0.001518,0.0,0.0,0.0,0.087266,0.0,0.0,3.0,0.302221,0.328721,0.327896,0.341615,0.187802,-7.4e-05,-0.001338,-0.007564,-0.000221,-0.00048,0.0,0.0,0.0,0.0,0.0,0.0
91499,0.135507,0.01868,0.001643,0.0,0.0,0.0,0.087266,0.0,0.0,3.0,0.296245,0.331758,0.324796,0.346566,0.187636,-7.6e-05,-0.001348,-0.009558,-0.00021,-0.000433,0.0,0.0,0.0,0.0,0.0,0.0
91519,0.135872,0.018801,0.001631,0.0,0.0,0.0,0.087266,0.0,0.0,3.0,0.305402,0.32451,0.326968,0.343736,0.18743,-7.9e-05,-0.001357,-0.011541,-0.000198,-0.000387,0.0,0.0,0.0,0.0,0.0,0.0
91539,0.136733,0.018678,0.001631,0.0,0.0,0.0,0.087266,0.0,0.0,3.0,0.298138,0.327139,0.333254,0.341407,0.187185,-8.1e-05,-0.001365,-0.013511,-0.000187,-0.000342,0.0,0.0,0.0,0.0,0.0,0.0
91559,0.13722,0.018311,0.001651,0.0,0.0,0.0,0.087266,0.0,0.0,3.0,0.30927,0.325674,0.33347,0.332947,0.1869,-8.4e-05,-0.001372,-0.015469,-0.000176,-0.000298,0.0,0.0,0.0,0.0,0.0,0.0
91579,0.137952,0.018301,0.001766,0.0,0.0,0.0,0.087266,0.0,0.0,3.0,0.301378,0.327951,0.32898,0.342028,0.186576,-8.6e-05,-0.001378,-0.017413,-0.000165,-0.000256,0.0,0.0,0.0,0.0,0.0,0.0
91599,0.138934,0.018056,0.001774,0.0,0.0,0.0,0.087266,0.0,0.0,3.0,0.298744,0.328265,0.331969,0.341078,0.186213,-8.8e-05,-0.001384,-0.019342,-0.000154,-0.000215,0.0,0.0,0.0,0.0,0.0,0.0
91619,0.139544,0.017802,0.001907,0.0,0.0,0.0,0.087266,0.0,0.0,3.0,0.29851,0.331988,0.324915,0.344393,0.185812,-9.1e-05,-0.001388,-0.021257,-0.000144,-0.000175,0.0,0.0,0.0,0.0,0.0,0.0
91639,0.140405,0.017557,0.001917,0.0,0.0,0.0,0.087266,0.0,0.0,3.0,0.29769,0.328672,0.332134,0.341408,0.185372,-9.3e-05,-0.001392,-0.023156,-0.000133,-0.000136,0.0,0.0,0.0,0.0,0.0,0.0
91659,0.141257,0.017189,0.001935,0.0,0.0,0.0,0.087266,0.0,0.0,3.0,0.297304,0.332135,0.331597,0.338919,0.184895,-9.5e-05,-0.001395,-0.025038,-0.000123,-9.8e-05,0.0,0.0,0.0,0.0,0.0,0.0
91679,0.141988,0.017065,0.001937,0.0,0.0,0.0,0.087266,0.0,0.0,3.0,0.298836,0.328789,0.331304,0.341143,0.18438,-9.7e-05,-0.001397,-0.026904,-0.000113,-6.2e-05,0.0,0.0,0.0,0.0,0.0,0.0
91699,0.142728,0.01669,0.002078,0.0,0.0,0.0,0.087266,0.0,0.0,3.0,0.293514,0.330804,0.332265,0.342672,0.183828,-9.9e-05,-0.001398,-0.028751,-0.000104,-2.6e-05,0.0,0.0,0.0,0.0,0.0,0.0
91719,0.143337,0.016689,0.002073,0.0,0.0,0.0,0.087266,0.0,0.0,3.0,0.296535,0.323677,0.334599,0.344653,0.183239,-0.000101,-0.001399,-0.030581,-9.5e-05,8e-06,0.0,0.0,0.0,0.0,0.0,0.0
91739,0.143824,0.0162,0.002104,0.0,0.0,0.0,0.087266,0.0,0.0,3.0,0.297409,0.333184,0.330665,0.338711,0.182614,-0.000103,-0.001399,-0.032391,-8.5e-05,4.1e-05,0.0,0.0,0.0,0.0,0.0,0.0
91759,0.144198,0.015713,0.002136,0.0,0.0,0.0,0.087266,0.0,0.0,3.0,0.298896,0.334627,0.328728,0.337914,0.181953,-0.000104,-0.001398,-0.034181,-7.6e-05,7.4e-05,0.0,0.0,0.0,0.0,0.0,0.0
91779,0.144442,0.015704,0.002256,0.0,0.0,0.0,0.087266,0.0,0.0,3.0,0.296014,0.334673,0.325313,0.343494,0.181256,-0.000106,-0.001397,-0.035951,-6.8e-05,0.000105,0.0,0.0,0.0,0.0,0.0,0.0
91799,0.144807,0.015703,0.002253,0.0,0.0,0.0,0.087266,0.0,0.0,3.0,0.292131,0.335422,0.323734,0.347342,0.180524,-0.000108,-0.001395,-0.0377,-5.9e-05,0.000135,0.0,0.0,0.0,0.0,0.0,0.0
91819,0.14505,0.015467,0.002147,0.0,0.0,0.0,0.087266,0.0,0.0,3.0,0.300874,0.327626,0.33137,0.340474,0.179757,-0.000109,-0.001392,-0.039427,-5.1e-05,0.000164,0.0,0.0,0.0,0.0,0.0,0.0
91839,0.145171,0.015345,0.002155,0.0,0.0,0.0,0.087266,0.0,0.0,3.0,0.301983,0.324212,0.332233,0.341916,0.178956,-0.000111,-0.001389,-0.041132,-4.3e-05,0.000193,0.0,0.0,0.0,0.0,0.0,0.0
91859,0.145537,0.015214,0.002282,0.0,0.0,0.0,0.087266,0.0,0.0,3.0,0.293504,0.329754,0.32604,0.344772,0.178332,-0.000112,-0.001386,-0.042396,-3.7e-05,0.000213,0.0,0.0,0.0,0.0,0.0,0.0
91879,0.145659,0.015092,0.00229,0.0,0.0,0.0,0.087266,0.0,0.0,3.0,0.294507,0.329405,0.330884,0.344513,0.177251,-0.000114,-0.00138,-0.044473,-2.8e-05,0.000246,0.0,0.0,0.0,0.0,0.0,0.0
91899,0.145789,0.014979,0.002177,0.0,0.0,0.0,0.087266,0.0,0.0,3.0,0.301653,0.324388,0.334714,0.339623,0.17635,-0.000115,-0.001375,-0.046108,-2e-05,0.000272,0.0,0.0,0.0,0.0,0.0,0.0
91919,0.145789,0.014979,0.002177,0.0,0.0,0.0,0.087266,0.0,0.0,3.0,0.309497,0.322555,0.332813,0.336383,0.175415,-0.000117,-0.00137,-0.047718,-1.3e-05,0.000296,0.0,0.0,0.0,0.0,0.0,0.0
91939,0.145911,0.014848,0.002306,0.0,0.0,0.0,0.087266,0.0,0.0,3.0,0.301105,0.33015,0.325217,0.343709,0.174449,-0.000118,-0.001364,-0.049304,-6e-06,0.00032,0.0,0.0,0.0,0.0,0.0,0.0
91959,0.146277,0.014726,0.002312,0.0,0.0,0.0,0.087266,0.0,0.0,3.0,0.295965,0.329488,0.332136,0.342053,0.173451,-0.000119,-0.001358,-0.050863,1e-06,0.000343,0.0,0.0,0.0,0.0,0.0,0.0
91979,0.146398,0.014725,0.002311,0.0,0.0,0.0,0.087266,0.0,0.0,3.0,0.296778,0.327253,0.332244,0.343393,0.172422,-0.00012,-0.001351,-0.052397,6e-06,0.000359,0.0,0.0,0.0,0.0,0.0,0.0
91999,0.146276,0.014482,0.00233,0.0,0.0,0.0,0.087266,0.0,0.0,3.0,0.300214,0.330863,0.327805,0.341348,0.171363,-0.000121,-0.001343,-0.053904,1.4e-05,0.000385,0.0,0.0,0.0,0.0,0.0,0.0
