time_ms,roll,pitch,yaw,x,y,z,reference_roll,reference_pitch,reference_yaw,reference_throttle,throttle_1,throttle_2,throttle_3,throttle_4,roll_predicted,pitch_predicted,yaw_predicted,roll_rate_predicted,pitch_rate_predicted,yaw_rate_predicted,value1,value2,value3,value4,value5,value6
123899,-0.017092,0.001574,-0.001451,0.0,0.0,0.0,0.0,0.0,0.0,3.0,0.33889,0.325603,0.309846,0.32693,0.057284,-1.4e-05,0.0,-0.020584,-6.6e-05,4e-06,0.0,0.0,0.0,0.0,0.0,0.0
123919,-0.016359,0.001453,-0.001453,0.0,0.0,0.0,0.0,0.0,0.0,3.0,0.340548,0.326127,0.309361,0.325107,0.056864,-1.6e-05,0.0,-0.021662,-6.5e-05,4e-06,0.0,0.0,0.0,0.0,0.0,0.0
123939,-0.015749,0.001454,-0.001331,0.0,0.0,0.0,0.0,0.0,0.0,3.0,0.346381,0.322701,0.310189,0.321439,0.056423,-1.7e-05,0.0,-0.022728,-6.5e-05,4e-06,0.0,0.0,0.0,0.0,0.0,0.0
123959,-0.01526,0.001455,-0.001332,0.0,0.0,0.0,0.0,0.0,0.0,3.0,0.344025,0.32842,0.303906,0.324097,0.055961,-1.8e-05,0.0,-0.02378,-6.4e-05,4e-06,0.0,0.0,0.0,0.0,0.0,0.0
123979,-0.014772,0.001333,-0.001333,0.0,0.0,0.0,0.0,0.0,0.0,3.0,0.344619,0.32881,0.304619,0.322395,0.055477,-1.9e-05,0.0,-0.02482,-6.3e-05,4e-06,0.0,0.0,0.0,0.0,0.0,0.0
123999,-0.01404,0.001211,-0.001334,0.0,0.0,0.0,0.0,0.0,0.0,3.0,0.342498,0.324021,0.307004,0.327308,0.054973,-2.1e-05,0.0,-0.025846,-6.3e-05,4e-06,0.0,0.0,0.0,0.0,0.0,0.0
124019,-0.013429,0.00109,-0.001336,0.0,0.0,0.0,0.0,0.0,0.0,3.0,0.347937,0.317747,0.315799,0.319221,0.054449,-2.2e-05,0.0,-0.026858,-6.2e-05,4e-06,0.0,0.0,0.0,0.0,0.0,0.0
124039,-0.013063,0.000968,-0.001337,0.0,0.0,0.0,0.0,0.0,0.0,3.0,0.334884,0.32736,0.307307,0.331648,0.053904,-2.3e-05,0.0,-0.027856,-6.2e-05,4e-06,0.0,0.0,0.0,0.0,0.0,0.0
124059,-0.01233,0.000968,-0.001337,0.0,0.0,0.0,0.0,0.0,0.0,3.0,0.33839,0.320524,0.311143,0.331206,0.053339,-2.4e-05,0.0,-0.02884,-6.1e-05,4e-06,0.0,0.0,0.0,0.0,0.0,0.0
124079,-0.01172,0.001091,-0.001336,0.0,0.0,0.0,0.0,0.0,0.0,3.0,0.340273,0.322244,0.309611,0.329001,0.052755,-2.6e-05,0.0,-0.029809,-6e-05,4e-06,0.0,0.0,0.0,0.0,0.0,0.0
124099,-0.011232,0.000969,-0.001337,0.0,0.0,0.0,0.0,0.0,0.0,3.0,0.339174,0.324142,0.310994,0.327012,0.052152,-2.7e-05,0.0,-0.030762,-5.9e-05,4e-06,0.0,0.0,0.0,0.0,0.0,0.0
124119,-0.010499,0.00097,-0.001216,0.0,0.0,0.0,0.0,0.0,0.0,3.0,0.336934,0.323366,0.309542,0.33143,0.05153,-2.8e-05,0.0,-0.0317,-5.9e-05,4e-06,0.0,0.0,0.0,0.0,0.0,0.0
124139,-0.009767,0.001215,-0.001215,0.0,0.0,0.0,0.0,0.0,0.0,3.0,0.340005,0.330532,0.306063,0.324276,0.050889,-2.9e-05,0.0,-0.032622,-5.8e-05,4e-06,0.0,0.0,0.0,0.0,0.0,0.0
124159,-0.009156,0.001093,-0.001216,0.0,0.0,0.0,0.0,0.0,0.0,3.0,0.343813,0.325217,0.316772,0.315281,0.05023,-3e-05,0.0,-0.033527,-5.7e-05,3e-06,0.0,0.0,0.0,0.0,0.0,0.0
124179,-0.00879,0.000849,-0.001217,0.0,0.0,0.0,0.0,0.0,0.0,3.0,0.33907,0.328513,0.306156,0.32723,0.049552,-3.2e-05,0.0,-0.034416,-5.6e-05,3e-06,0.0,0.0,0.0,0.0,0.0,0.0
124199,-0.008302,0.000727,-0.001218,0.0,0.0,0.0,0.0,0.0,0.0,3.0,0.338561,0.32521,0.311348,0.326266,0.048857,-3.3e-05,0.0,-0.035289,-5.5e-05,3e-06,0.0,0.0,0.0,0.0,0.0,0.0
124219,-0.007691,0.00085,-0.001218,0.0,0.0,0.0,0.0,0.0,0.0,3.0,0.340745,0.324688,0.309177,0.326505,0.048145,-3.4e-05,0.0,-0.036144,-5.5e-05,3e-06,0.0,0.0,0.0,0.0,0.0,0.0
124239,-0.007081,0.000851,-0.001096,0.0,0.0,0.0,0.0,0.0,0.0,3.0,0.339929,0.326173,0.306186,0.328637,0.047416,-3.5e-05,0.0,-0.036982,-5.4e-05,3e-06,0.0,0.0,0.0,0.0,0.0,0.0
124259,-0.006715,0.000973,-0.001096,0.0,0.0,0.0,0.0,0.0,0.0,3.0,0.335838,0.322602,0.314268,0.328924,0.04667,-3.6e-05,0.0,-0.037802,-5.3e-05,3e-06,0.0,0.0,0.0,0.0,0.0,0.0
124279,-0.006104,0.000851,-0.001096,0.0,0.0,0.0,0.0,0.0,0.0,3.0,0.337239,0.321448,0.312945,0.329838,0.045908,-3.7e-05,0.0,-0.038604,-5.2e-05,3e-06,0.0,0.0,0.0,0.0,0.0,0.0
124299,-0.005128,0.001218,-0.000974,0.0,0.0,0.0,0.0,0.0,0.0,3.0,0.338082,0.322279,0.312066,0.328978,0.04513,-3.8e-05,0.0,-0.039388,-5.1e-05,3e-06,0.0,0.0,0.0,0.0,0.0,0.0
124319,-0.00464,0.001463,-0.000851,0.0,0.0,0.0,0.0,0.0,0.0,3.0,0.339149,0.328431,0.308906,0.32469,0.044337,-3.9e-05,0.0,-0.040153,-5e-05,3e-06,0.0,0.0,0.0,0.0,0.0,0.0
124339,-0.003907,0.001463,-0.000852,0.0,0.0,0.0,0.0,0.0,0.0,3.0,0.336938,0.327653,0.311085,0.325768,0.043528,-4e-05,0.0,-0.0409,-4.9e-05,3e-06,0.0,0.0,0.0,0.0,0.0,0.0
124359,-0.003297,0.001464,-0.000852,0.0,0.0,0.0,0.0,0.0,0.0,3.0,0.339224,0.32393,0.310345,0.327772,0.042704,-4.1e-05,0.0,-0.041628,-4.8e-05,3e-06,0.0,0.0,0.0,0.0,0.0,0.0
124379,-0.002442,0.001464,-0.000853,0.0,0.0,0.0,0.0,0.0,0.0,3.0,0.336313,0.324286,0.313742,0.327276,0.041867,-4.2e-05,0.0,-0.042337,-4.7e-05,2e-06,0.0,0.0,0.0,0.0,0.0,0.0
124399,-0.001954,0.00122,-0.000731,0.0,0.0,0.0,0.0,0.0,0.0,3.0,0.336246,0.326775,0.309948,0.328423,0.041015,-4.3e-05,0.0,-0.043026,-4.6e-05,2e-06,0.0,0.0,0.0,0.0,0.0,0.0
124419,-0.001465,0.000976,-0.00061,0.0,0.0,0.0,0.0,0.0,0.0,3.0,0.333758,0.329094,0.308572,0.329927,0.040149,-4.4e-05,0.0,-0.043696,-4.5e-05,2e-06,0.0,0.0,0.0,0.0,0.0,0.0
124439,-0.000733,0.000976,-0.00061,0.0,0.0,0.0,0.0,0.0,0.0,3.0,0.332336,0.322707,0.317229,0.329597,0.03927,-4.5e-05,0.0,-0.044346,-4.4e-05,2e-06,0.0,0.0,0.0,0.0,0.0,0.0
124459,0.000244,0.000855,-0.000488,0.0,0.0,0.0,0.0,0.0,0.0,3.0,0.331766,0.32418,0.314466,0.331337,0.038379,-4.6e-05,0.0,-0.044975,-4.3e-05,2e-06,0.0,0.0,0.0,0.0,0.0,0.0
124479,0.000976,0.000977,-0.000489,0.0,0.0,0.0,0.0,0.0,0.0,3.0,0.3362,0.327467,0.313086,0.324837,0.037474,-4.6e-05,0.0,-0.045585,-4.2e-05,2e-06,0.0,0.0,0.0,0.0,0.0,0.0
124499,0.001587,0.001099,-0.000489,0.0,0.0,0.0,0.0,0.0,0.0,3.0,0.341061,0.323882,0.319014,0.31747,0.036558,-4.7e-05,0.0,-0.046175,-4.1e-05,2e-06,0.0,0.0,0.0,0.0,0.0,0.0
124519,0.002197,0.000855,-0.000489,0.0,0.0,0.0,0.0,0.0,0.0,3.0,0.332367,0.328293,0.316359,0.32485,0.03563,-4.8e-05,0.0,-0.046743,-4e-05,2e-06,0.0,0.0,0.0,0.0,0.0,0.0
124539,0.002686,0.000855,-0.000367,0.0,0.0,0.0,0.0,0.0,0.0,3.0,0.330646,0.328043,0.308104,0.334497,0.034691,-4.9e-05,0.0,-0.047292,-3.9e-05,2e-06,0.0,0.0,0.0,0.0,0.0,0.0
124559,0.003296,0.000855,-0.000368,0.0,0.0,0.0,0.0,0.0,0.0,3.0,0.335459,0.325265,0.313288,0.32762,0.033742,-5e-05,0.0,-0.047819,-3.8e-05,2e-06,0.0,0.0,0.0,0.0,0.0,0.0
124579,0.00354,0.000977,-0.000246,0.0,0.0,0.0,0.0,0.0,0.0,3.0,0.339463,0.323826,0.305527,0.33201,0.032781,-5e-05,0.0,-0.048325,-3.6e-05,1e-06,0.0,0.0,0.0,0.0,0.0,0.0
124599,0.004028,0.000855,-0.000246,0.0,0.0,0.0,0.0,0.0,0.0,3.0,0.335393,0.325081,0.313628,0.32755,0.031811,-5.1e-05,0.0,-0.04881,-3.5e-05,1e-06,0.0,0.0,0.0,0.0,0.0,0.0
124619,0.004151,0.001099,-0.000124,0.0,0.0,0.0,0.0,0.0,0.0,3.0,0.3372,0.326246,0.304165,0.333189,0.030832,-5.2e-05,0.0,-0.049274,-3.4e-05,1e-06,0.0,0.0,0.0,0.0,0.0,0.0
124639,0.004517,0.000977,-0.000124,0.0,0.0,0.0,0.0,0.0,0.0,3.0,0.339082,0.325626,0.309072,0.327425,0.029843,-5.2e-05,0.0,-0.049717,-3.3e-05,1e-06,0.0,0.0,0.0,0.0,0.0,0.0
124659,0.004883,0.001099,-0.000125,0.0,0.0,0.0,0.0,0.0,0.0,3.0,0.342852,0.323122,0.309143,0.325844,0.028845,-5.3e-05,0.0,-0.050138,-3.2e-05,1e-06,0.0,0.0,0.0,0.0,0.0,0.0
124679,0.005127,0.000977,-0.000125,0.0,0.0,0.0,0.0,0.0,0.0,3.0,0.337848,0.325985,0.309314,0.328133,0.027839,-5.4e-05,0.0,-0.050538,-3.1e-05,1e-06,0.0,0.0,0.0,0.0,0.0,0.0
124699,0.005127,0.000977,-0.000125,0.0,0.0,0.0,0.0,0.0,0.0,3.0,0.337904,0.320105,0.314506,0.328985,0.026826,-5.4e-05,0.0,-0.050916,-2.9e-05,1e-06,0.0,0.0,0.0,0.0,0.0,0.0
124719,0.005371,0.000732,-2e-06,0.0,0.0,0.0,0.0,0.0,0.0,3.0,0.337086,0.325832,0.308113,0.330172,0.025805,-5.5e-05,0.0,-0.051272,-2.8e-05,1e-06,0.0,0.0,0.0,0.0,0.0,0.0
124739,0.005738,0.000855,-2e-06,0.0,0.0,0.0,0.0,0.0,0.0,3.0,0.337988,0.325701,0.310355,0.327304,0.024777,-5.5e-05,0.0,-0.051607,-2.7e-05,1e-06,0.0,0.0,0.0,0.0,0.0,0.0
124759,0.00586,0.000976,0.000119,0.0,0.0,0.0,0.0,0.0,0.0,3.0,0.336333,0.329201,0.304711,0.330683,0.023742,-5.6e-05,0.0,-0.051919,-2.6e-05,1e-06,0.0,0.0,0.0,0.0,0.0,0.0
124779,0.006104,0.001098,0.000119,0.0,0.0,0.0,0.0,0.0,0.0,3.0,0.338408,0.328945,0.305637,0.32796,0.022702,-5.7e-05,0.0,-0.05221,-2.5e-05,1e-06,0.0,0.0,0.0,0.0,0.0,0.0
124799,0.006104,0.00122,0.00024,0.0,0.0,0.0,0.0,0.0,0.0,3.0,0.332527,0.332253,0.300933,0.334808,0.021655,-5.7e-05,0.0,-0.052479,-2.3e-05,1e-06,0.0,0.0,0.0,0.0,0.0,0.0
124819,0.006348,0.001098,0.000241,0.0,0.0,0.0,0.0,0.0,0.0,3.0,0.336138,0.32529,0.311293,0.328758,0.020604,-5.7e-05,0.0,-0.052726,-2.2e-05,0.0,0.0,0.0,0.0,0.0,0.0,0.0
124839,0.006592,0.001098,0.000241,0.0,0.0,0.0,0.0,0.0,0.0,3.0,0.339771,0.325774,0.308055,0.327491,0.019548,-5.8e-05,0.0,-0.05295,-2.1e-05,0.0,0.0,0.0,0.0,0.0,0.0,0.0
124859,0.00647,0.000976,0.000241,0.0,0.0,0.0,0.0,0.0,0.0,3.0,0.335167,0.331094,0.305779,0.329022,0.018487,-5.8e-05,0.0,-0.053153,-2e-05,0.0,0.0,0.0,0.0,0.0,0.0,0.0
124879,0.006714,0.000976,0.000241,0.0,0.0,0.0,0.0,0.0,0.0,3.0,0.338202,0.324903,0.309443,0.328715,0.017423,-5.9e-05,0.0,-0.053334,-1.8e-05,0.0,0.0,0.0,0.0,0.0,0.0,0.0
124899,0.006714,0.000854,0.000241,0.0,0.0,0.0,0.0,0.0,0.0,3.0,0.337739,0.326085,0.310367,0.327171,0.016355,-5.9e-05,0.0,-0.053492,-1.7e-05,0.0,0.0,0.0,0.0,0.0,0.0,0.0
124919,0.006714,0.000976,0.000241,0.0,0.0,0.0,0.0,0.0,0.0,3.0,0.338554,0.326156,0.309467,0.327084,0.015284,-5.9e-05,0.0,-0.053629,-1.6e-05,0.0,0.0,0.0,0.0,0.0,0.0,0.0
124939,0.006836,0.000976,0.000241,0.0,0.0,0.0,0.0,0.0,0.0,3.0,0.341466,0.323972,0.306162,0.329213,0.01421,-6e-05,0.0,-0.053744,-1.5e-05,0.0,0.0,0.0,0.0,0.0,0.0,0.0
124959,0.006959,0.001342,0.00024,0.0,0.0,0.0,0.0,0.0,0.0,3.0,0.340741,0.322867,0.307021,0.330271,0.013135,-6e-05,0.0,-0.053836,-1.3e-05,-0.0,0.0,0.0,0.0,0.0,0.0,0.0
124979,0.007081,0.00122,0.00024,0.0,0.0,0.0,0.0,0.0,0.0,3.0,0.338278,0.325887,0.309768,0.327361,0.012057,-6e-05,0.0,-0.053907,-1.2e-05,-0.0,0.0,0.0,0.0,0.0,0.0,0.0
124999,0.007203,0.001586,0.000361,0.0,0.0,0.0,0.0,0.0,0.0,3.0,0.340743,0.320098,0.307067,0.332883,0.010979,-6e-05,0.0,-0.053956,-1.1e-05,-0.0,0.0,0.0,0.0,0.0,0.0,0.0
125019,0.007569,0.001341,0.000361,0.0,0.0,0.0,0.0,0.0,0.0,3.0,0.336017,0.325423,0.314114,0.326103,0.0099,-6.1e-05,0.0,-0.053983,-1e-05,-0.0,0.0,0.0,0.0,0.0,0.0,0.0
125039,0.007813,0.001464,0.000238,0.0,0.0,0.0,0.0,0.0,0.0,3.0,0.338214,0.31864,0.315554,0.329083,0.00882,-6.1e-05,0.0,-0.053988,-8e-06,-0.0,0.0,0.0,0.0,0.0,0.0,0.0
125059,0.008179,0.001342,0.000239,0.0,0.0,0.0,0.0,0.0,0.0,3.0,0.333371,0.323378,0.315578,0.329455,0.00774,-6.1e-05,0.0,-0.053971,-7e-06,-0.0,0.0,0.0,0.0,0.0,0.0,0.0
125079,0.008179,0.001342,0.000239,0.0,0.0,0.0,0.0,0.0,0.0,3.0,0.339427,0.325265,0.308464,0.32798,0.006661,-6.1e-05,0.0,-0.053933,-6e-06,-0.0,0.0,0.0,0.0,0.0,0.0,0.0
125099,0.008546,0.001342,0.000238,0.0,0.0,0.0,0.0,0.0,0.0,3.0,0.333849,0.327507,0.310765,0.3294,0.005583,-6.1e-05,0.0,-0.053873,-5e-06,-0.0,0.0,0.0,0.0,0.0,0.0,0.0
125119,0.00879,0.001463,0.00036,0.0,0.0,0.0,0.0,0.0,0.0,3.0,0.338361,0.326169,0.307327,0.329238,0.004506,-6.1e-05,0.0,-0.053792,-3e-06,-0.0,0.0,0.0,0.0,0.0,0.0,0.0
125139,0.009034,0.001585,0.000359,0.0,0.0,0.0,0.0,0.0,0.0,3.0,0.335673,0.327829,0.308572,0.329231,0.003431,-6.1e-05,0.0,-0.053689,-2e-06,-0.0,0.0,0.0,0.0,0.0,0.0,0.0
125159,0.009034,0.001464,0.000238,0.0,0.0,0.0,0.0,0.0,0.0,3.0,0.340569,0.324404,0.310575,0.32567,0.002358,-6.1e-05,0.0,-0.053565,-1e-06,-0.0,0.0,0.0,0.0,0.0,0.0,0.0
125179,0.009278,0.001464,0.000237,0.0,0.0,0.0,0.0,0.0,0.0,3.0,0.334824,0.322125,0.313859,0.330804,0.001288,-6.1e-05,0.0,-0.05342,0.0,-0.0,0.0,0.0,0.0,0.0,0.0,0.0
125199,0.009278,0.001341,0.00036,0.0,0.0,0.0,0.0,0.0,0.0,3.0,0.331575,0.329797,0.305806,0.333909,0.000221,-6.1e-05,0.0,-0.053254,2e-06,-0.0,0.0,0.0,0.0,0.0,0.0,0.0
125219,0.009522,0.001585,0.000359,0.0,0.0,0.0,0.0,0.0,0.0,3.0,0.344512,0.31463,0.316752,0.325104,-0.000843,-6.1e-05,0.0,-0.053067,3e-06,-0.0,0.0,0.0,0.0,0.0,0.0,0.0
125239,0.0094,0.001586,0.000237,0.0,0.0,0.0,0.0,0.0,0.0,3.0,0.344611,0.322315,0.316162,0.317988,-0.001903,-6.1e-05,0.0,-0.052859,4e-06,-0.0,0.0,0.0,0.0,0.0,0.0,0.0
125259,0.009522,0.001586,0.000115,0.0,0.0,0.0,0.0,0.0,0.0,3.0,0.338388,0.322893,0.310482,0.329531,-0.002959,-6.1e-05,0.0,-0.052631,5e-06,-0.0,0.0,0.0,0.0,0.0,0.0,0.0
125279,0.009644,0.001586,0.000114,0.0,0.0,0.0,0.0,0.0,0.0,3.0,0.340839,0.322895,0.308926,0.328404,-0.004009,-6.1e-05,0.0,-0.052382,6e-06,-0.0,0.0,0.0,0.0,0.0,0.0,0.0
125299,0.009766,0.002074,0.000234,0.0,0.0,0.0,0.0,0.0,0.0,3.0,0.336157,0.325433,0.304771,0.334496,-0.005055,-6.1e-05,0.0,-0.052113,8e-06,-0.0,0.0,0.0,0.0,0.0,0.0,0.0
125319,0.009766,0.00183,0.000235,0.0,0.0,0.0,0.0,0.0,0.0,3.0,0.337941,0.331261,0.305705,0.326041,-0.006095,-6.1e-05,0.0,-0.051824,9e-06,-0.0,0.0,0.0,0.0,0.0,0.0,0.0
125339,0.009888,0.001831,0.000113,0.0,0.0,0.0,0.0,0.0,0.0,3.0,0.340515,0.318823,0.314553,0.327448,-0.007129,-6.1e-05,0.0,-0.051516,1e-05,-0.0,0.0,0.0,0.0,0.0,0.0,0.0
125359,0.009888,0.001586,0.000114,0.0,0.0,0.0,0.0,0.0,0.0,3.0,0.330335,0.329726,0.311674,0.3299,-0.008157,-6e-05,0.0,-0.051187,1.1e-05,-0.0,0.0,0.0,0.0,0.0,0.0,0.0
125379,0.009888,0.001709,-8e-06,0.0,0.0,0.0,0.0,0.0,0.0,3.0,0.338923,0.316053,0.316426,0.329982,-0.009178,-6e-05,0.0,-0.050839,1.2e-05,-0.0,0.0,0.0,0.0,0.0,0.0,0.0
125399,0.01001,0.001709,-9e-06,0.0,0.0,0.0,0.0,0.0,0.0,3.0,0.340292,0.323972,0.311913,0.325136,-0.010192,-6e-05,0.0,-0.050472,1.4e-05,-0.0,0.0,0.0,0.0,0.0,0.0,0.0
125419,0.009766,0.001954,-0.000132,0.0,0.0,0.0,0.0,0.0,0.0,3.0,0.338737,0.323365,0.309861,0.329281,-0.011199,-6e-05,0.0,-0.050085,1.5e-05,-0.0,0.0,0.0,0.0,0.0,0.0,0.0
125439,0.009888,0.001832,-0.000131,0.0,0.0,0.0,0.0,0.0,0.0,3.0,0.335377,0.327586,0.311439,0.327126,-0.012198,-5.9e-05,0.0,-0.04968,1.6e-05,-0.0,0.0,0.0,0.0,0.0,0.0,0.0
125459,0.01001,0.001954,-0.000132,0.0,0.0,0.0,0.0,0.0,0.0,3.0,0.337636,0.324931,0.305131,0.333165,-0.013188,-5.9e-05,0.0,-0.049256,1.7e-05,-0.0,0.0,0.0,0.0,0.0,0.0,0.0
125479,0.010377,0.002075,-1.1e-05,0.0,0.0,0.0,0.0,0.0,0.0,3.0,0.336326,0.327379,0.313863,0.324053,-0.01417,-5.9e-05,0.0,-0.048813,1.8e-05,-0.0,0.0,0.0,0.0,0.0,0.0,0.0
125499,0.010132,0.001954,-0.000132,0.0,0.0,0.0,0.0,0.0,0.0,3.0,0.337403,0.325064,0.313178,0.3259,-0.015143,-5.8e-05,0.0,-0.048353,1.9e-05,-0.0,0.0,0.0,0.0,0.0,0.0,0.0
125519,0.010376,0.001832,-0.000132,0.0,0.0,0.0,0.0,0.0,0.0,3.0,0.333659,0.322941,0.315586,0.329581,-0.016106,-5.8e-05,0.0,-0.047874,2e-05,-0.0,0.0,0.0,0.0,0.0,0.0,0.0
125539,0.010376,0.00171,-0.000253,0.0,0.0,0.0,0.0,0.0,0.0,3.0,0.342594,0.321735,0.312998,0.323862,-0.01706,-5.8e-05,0.0,-0.047378,2.1e-05,-0.0,0.0,0.0,0.0,0.0,0.0,0.0
125559,0.010376,0.00171,-0.000253,0.0,0.0,0.0,0.0,0.0,0.0,3.0,0.340904,0.323449,0.311685,0.325219,-0.018004,-5.7e-05,0.0,-0.046864,2.3e-05,-0.0,0.0,0.0,0.0,0.0,0.0,0.0
125579,0.010254,0.001711,-0.000375,0.0,0.0,0.0,0.0,0.0,0.0,3.0,0.339147,0.323704,0.309821,0.328559,-0.018937,-5.7e-05,0.0,-0.046333,2.4e-05,-0.0,0.0,0.0,0.0,0.0,0.0,0.0
125599,0.010254,0.001711,-0.000375,0.0,0.0,0.0,0.0,0.0,0.0,3.0,0.337898,0.323042,0.313042,0.327511,-0.01986,-5.6e-05,0.0,-0.045786,2.5e-05,-0.0,0.0,0.0,0.0,0.0,0.0,0.0
125619,0.010254,0.001711,-0.000375,0.0,0.0,0.0,0.0,0.0,0.0,3.0,0.336366,0.321996,0.313074,0.330085,-0.020771,-5.6e-05,0.0,-0.045221,2.6e-05,-0.0,0.0,0.0,0.0,0.0,0.0,0.0
125639,0.01062,0.001833,-0.000376,0.0,0.0,0.0,0.0,0.0,0.0,3.0,0.338241,0.323802,0.310824,0.32848,-0.021671,-5.5e-05,0.0,-0.044641,2.7e-05,-0.0,0.0,0.0,0.0,0.0,0.0,0.0
125659,0.010742,0.001955,-0.000377,0.0,0.0,0.0,0.0,0.0,0.0,3.0,0.337912,0.327986,0.311063,0.324426,-0.02256,-5.5e-05,0.0,-0.044044,2.8e-05,0.0,0.0,0.0,0.0,0.0,0.0,0.0
125679,0.010742,0.001712,-0.000498,0.0,0.0,0.0,0.0,0.0,0.0,3.0,0.339928,0.323582,0.312784,0.325085,-0.023436,-5.4e-05,0.0,-0.043432,2.9e-05,0.0,0.0,0.0,0.0,0.0,0.0,0.0
125699,0.010864,0.001712,-0.000498,0.0,0.0,0.0,0.0,0.0,0.0,3.0,0.336037,0.321609,0.313804,0.330116,-0.0243,-5.3e-05,0.0,-0.042804,3e-05,0.0,0.0,0.0,0.0,0.0,0.0,0.0
125719,0.010864,0.001712,-0.000498,0.0,0.0,0.0,0.0,0.0,0.0,3.0,0.339475,0.327117,0.309573,0.325052,-0.025151,-5.3e-05,0.0,-0.042161,3.1e-05,0.0,0.0,0.0,0.0,0.0,0.0,0.0
125739,0.010742,0.001712,-0.000498,0.0,0.0,0.0,0.0,0.0,0.0,3.0,0.337689,0.321498,0.311769,0.330416,-0.02599,-5.2e-05,-0.0,-0.041503,3.2e-05,0.0,0.0,0.0,0.0,0.0,0.0,0.0
125759,0.010864,0.00159,-0.000619,0.0,0.0,0.0,0.0,0.0,0.0,3.0,0.335212,0.319472,0.31459,0.332269,-0.026815,-5.2e-05,-0.0,-0.040831,3.3e-05,0.0,0.0,0.0,0.0,0.0,0.0,0.0
125779,0.010864,0.00159,-0.000497,0.0,0.0,0.0,0.0,0.0,0.0,3.0,0.337654,0.324387,0.309912,0.329357,-0.027626,-5.1e-05,-0.0,-0.040144,3.4e-05,0.0,0.0,0.0,0.0,0.0,0.0,0.0
125799,0.011108,0.001956,-0.000499,0.0,0.0,0.0,0.0,0.0,0.0,3.0,0.335922,0.323792,0.313581,0.328318,-0.028424,-5e-05,-0.0,-0.039444,3.4e-05,0.0,0.0,0.0,0.0,0.0,0.0,0.0
125819,0.011231,0.001834,-0.000499,0.0,0.0,0.0,0.0,0.0,0.0,3.0,0.335795,0.330128,0.309994,0.325474,-0.029207,-5e-05,-0.0,-0.03873,3.5e-05,0.0,0.0,0.0,0.0,0.0,0.0,0.0
125839,0.011231,0.001834,-0.000499,0.0,0.0,0.0,0.0,0.0,0.0,3.0,0.336557,0.325684,0.312726,0.326594,-0.029976,-4.9e-05,-0.0,-0.038003,3.6e-05,1e-06,0.0,0.0,0.0,0.0,0.0,0.0
125859,0.011231,0.001712,-0.000498,0.0,0.0,0.0,0.0,0.0,0.0,3.0,0.333336,0.324454,0.316513,0.327549,-0.030731,-4.8e-05,-0.0,-0.037262,3.7e-05,1e-06,0.0,0.0,0.0,0.0,0.0,0.0
125879,0.011353,0.001712,-0.00062,0.0,0.0,0.0,0.0,0.0,0.0,3.0,0.344169,0.314884,0.319333,0.322716,-0.031471,-4.7e-05,-0.0,-0.03651,3.8e-05,1e-06,0.0,0.0,0.0,0.0,0.0,0.0
125899,0.01123,0.001835,-0.000621,0.0,0.0,0.0,0.0,0.0,0.0,3.0,0.344359,0.322055,0.312659,0.321949,-0.032195,-4.7e-05,-0.0,-0.035745,3.9e-05,1e-06,0.0,0.0,0.0,0.0,0.0,0.0
125919,0.011231,0.001956,-0.000499,0.0,0.0,0.0,0.0,0.0,0.0,3.0,0.334122,0.324634,0.312617,0.330235,-0.032904,-4.6e-05,-0.0,-0.034968,3.9e-05,1e-06,0.0,0.0,0.0,0.0,0.0,0.0
125939,0.011353,0.001712,-0.000498,0.0,0.0,0.0,0.0,0.0,0.0,3.0,0.335134,0.322052,0.31451,0.329951,-0.033598,-4.5e-05,-0.0,-0.03418,4e-05,1e-06,0.0,0.0,0.0,0.0,0.0,0.0
125959,0.011475,0.002078,-0.0005,0.0,0.0,0.0,0.0,0.0,0.0,3.0,0.339551,0.320949,0.309804,0.330827,-0.034275,-4.4e-05,-0.0,-0.033381,4.1e-05,1e-06,0.0,0.0,0.0,0.0,0.0,0.0
125979,0.011353,0.002078,-0.0005,0.0,0.0,0.0,0.0,0.0,0.0,3.0,0.344592,0.324054,0.315072,0.31731,-0.034937,-4.3e-05,-0.0,-0.032571,4.2e-05,1e-06,0.0,0.0,0.0,0.0,0.0,0.0
125999,0.011353,0.001834,-0.000499,0.0,0.0,0.0,0.0,0.0,0.0,3.0,0.338564,0.325757,0.313499,0.323675,-0.035582,-4.3e-05,-0.0,-0.031751,4.2e-05,1e-06,0.0,0.0,0.0,0.0,0.0,0.0
126019,0.011353,0.001834,-0.000499,0.0,0.0,0.0,0.0,0.0,0.0,3.0,0.337061,0.322408,0.31095,0.330938,-0.036211,-4.2e-05,-0.0,-0.03092,4.3e-05,1e-06,0.0,0.0,0.0,0.0,0.0,0.0
126039,0.011353,0.001834,-0.000499,0.0,0.0,0.0,0.0,0.0,0.0,3.0,0.344376,0.316585,0.319045,0.321117,-0.036823,-4.1e-05,-0.0,-0.03008,4.4e-05,1e-06,0.0,0.0,0.0,0.0,0.0,0.0
126059,0.01123,0.001835,-0.000621,0.0,0.0,0.0,0.0,0.0,0.0,3.0,0.344884,0.315183,0.317744,0.323206,-0.037418,-4e-05,-0.0,-0.02923,4.5e-05,1e-06,0.0,0.0,0.0,0.0,0.0,0.0
126079,0.010986,0.001957,-0.000621,0.0,0.0,0.0,0.0,0.0,0.0,3.0,0.337411,0.322578,0.313303,0.328227,-0.037996,-3.9e-05,-0.0,-0.028372,4.5e-05,1e-06,0.0,0.0,0.0,0.0,0.0,0.0
126099,0.011108,0.001834,-0.000621,0.0,0.0,0.0,0.0,0.0,0.0,3.0,0.329778,0.330655,0.305842,0.334805,-0.038557,-3.8e-05,-0.0,-0.027505,4.6e-05,1e-06,0.0,0.0,0.0,0.0,0.0,0.0
126119,0.011231,0.001834,-0.000499,0.0,0.0,0.0,0.0,0.0,0.0,3.0,0.336086,0.322929,0.311022,0.331365,-0.039101,-3.7e-05,-0.0,-0.02663,4.6e-05,1e-06,0.0,0.0,0.0,0.0,0.0,0.0
126139,0.011475,0.002078,-0.0005,0.0,0.0,0.0,0.0,0.0,0.0,3.0,0.344669,0.319468,0.318625,0.318349,-0.039627,-3.6e-05,-0.0,-0.025747,4.7e-05,2e-06,0.0,0.0,0.0,0.0,0.0,0.0
126159,0.011353,0.001957,-0.000622,0.0,0.0,0.0,0.0,0.0,0.0,3.0,0.337704,0.326024,0.31476,0.323107,-0.040135,-3.5e-05,-0.0,-0.024857,4.8e-05,2e-06,0.0,0.0,0.0,0.0,0.0,0.0
126179,0.011108,0.001591,-0.000741,0.0,0.0,0.0,0.0,0.0,0.0,3.0,0.331388,0.326081,0.311964,0.332178,-0.040626,-3.4e-05,-0.0,-0.02396,4.8e-05,2e-06,0.0,0.0,0.0,0.0,0.0,0.0
126199,0.011231,0.001712,-0.00062,0.0,0.0,0.0,0.0,0.0,0.0,3.0,0.331043,0.323809,0.309993,0.33649,-0.041098,-3.3e-05,-0.0,-0.023056,4.9e-05,2e-06,0.0,0.0,0.0,0.0,0.0,0.0
126219,0.01123,0.001835,-0.000621,0.0,0.0,0.0,0.0,0.0,0.0,3.0,0.337172,0.325545,0.312127,0.326656,-0.041552,-3.2e-05,-0.0,-0.022145,4.9e-05,2e-06,0.0,0.0,0.0,0.0,0.0,0.0
126239,0.010986,0.001957,-0.000621,0.0,0.0,0.0,0.0,0.0,0.0,3.0,0.336683,0.323111,0.313321,0.328444,-0.041988,-3.1e-05,-0.0,-0.021229,5e-05,2e-06,0.0,0.0,0.0,0.0,0.0,0.0
126259,0.010986,0.001835,-0.000743,0.0,0.0,0.0,0.0,0.0,0.0,3.0,0.336095,0.319087,0.31415,0.332147,-0.042406,-3e-05,-0.0,-0.020308,5e-05,2e-06,0.0,0.0,0.0,0.0,0.0,0.0
126279,0.011108,0.001957,-0.000743,0.0,0.0,0.0,0.0,0.0,0.0,3.0,0.335734,0.321348,0.316482,0.328156,-0.042805,-2.9e-05,-0.0,-0.019381,5e-05,2e-06,0.0,0.0,0.0,0.0,0.0,0.0
126299,0.010986,0.002323,-0.000745,0.0,0.0,0.0,0.0,0.0,0.0,3.0,0.336974,0.325372,0.309682,0.329304,-0.043186,-2.8e-05,-0.0,-0.01845,5.1e-05,2e-06,0.0,0.0,0.0,0.0,0.0,0.0
126319,0.011108,0.002201,-0.000745,0.0,0.0,0.0,0.0,0.0,0.0,3.0,0.339224,0.324186,0.314353,0.323734,-0.043548,-2.7e-05,-0.0,-0.017514,5.1e-05,2e-06,0.0,0.0,0.0,0.0,0.0,0.0
126339,0.010986,0.002202,-0.000867,0.0,0.0,0.0,0.0,0.0,0.0,3.0,0.340598,0.321509,0.311535,0.327592,-0.043891,-2.6e-05,-0.0,-0.016575,5.2e-05,2e-06,0.0,0.0,0.0,0.0,0.0,0.0
126359,0.010986,0.00208,-0.000866,0.0,0.0,0.0,0.0,0.0,0.0,3.0,0.338093,0.323142,0.312423,0.32779,-0.044216,-2.5e-05,-0.0,-0.015632,5.2e-05,2e-06,0.0,0.0,0.0,0.0,0.0,0.0
126379,0.011108,0.001959,-0.000988,0.0,0.0,0.0,0.0,0.0,0.0,3.0,0.343372,0.315054,0.321155,0.321613,-0.044521,-2.4e-05,-0.0,-0.014685,5.2e-05,2e-06,0.0,0.0,0.0,0.0,0.0,0.0
126399,0.010986,0.001959,-0.000987,0.0,0.0,0.0,0.0,0.0,0.0,3.0,0.337055,0.327357,0.310634,0.326365,-0.044808,-2.3e-05,-0.0,-0.013736,5.3e-05,2e-06,0.0,0.0,0.0,0.0,0.0,0.0
126419,0.010864,0.001836,-0.000987,0.0,0.0,0.0,0.0,0.0,0.0,3.0,0.335506,0.319644,0.313369,0.332937,-0.045075,-2.2e-05,-0.0,-0.012785,5.3e-05,2e-06,0.0,0.0,0.0,0.0,0.0,0.0
126439,0.010864,0.001714,-0.000986,0.0,0.0,0.0,0.0,0.0,0.0,3.0,0.33202,0.324908,0.309833,0.334624,-0.045324,-2.1e-05,-0.0,-0.011832,5.3e-05,2e-06,0.0,0.0,0.0,0.0,0.0,0.0
126459,0.010864,0.002203,-0.000989,0.0,0.0,0.0,0.0,0.0,0.0,3.0,0.340061,0.324271,0.311598,0.325381,-0.045553,-2e-05,-0.0,-0.010877,5.3e-05,2e-06,0.0,0.0,0.0,0.0,0.0,0.0
126479,0.010986,0.002203,-0.000989,0.0,0.0,0.0,0.0,0.0,0.0,3.0,0.337373,0.324116,0.313477,0.326591,-0.045764,-1.9e-05,-0.0,-0.009921,5.4e-05,2e-06,0.0,0.0,0.0,0.0,0.0,0.0
126499,0.010742,0.002081,-0.000988,0.0,0.0,0.0,0.0,0.0,0.0,3.0,0.340045,0.318839,0.317992,0.324631,-0.045955,-1.8e-05,-0.0,-0.008965,5.4e-05,3e-06,0.0,0.0,0.0,0.0,0.0,0.0
126519,0.010742,0.001958,-0.000987,0.0,0.0,0.0,0.0,0.0,0.0,3.0,0.339652,0.318754,0.317116,0.325977,-0.046127,-1.7e-05,-0.0,-0.008008,5.4e-05,3e-06,0.0,0.0,0.0,0.0,0.0,0.0
126539,0.010864,0.001836,-0.000987,0.0,0.0,0.0,0.0,0.0,0.0,3.0,0.335522,0.328978,0.313927,0.323207,-0.04628,-1.6e-05,-0.0,-0.007051,5.4e-05,3e-06,0.0,0.0,0.0,0.0,0.0,0.0
126559,0.010742,0.001714,-0.000986,0.0,0.0,0.0,0.0,0.0,0.0,3.0,0.33699,0.325647,0.313782,0.325178,-0.046414,-1.5e-05,-0.0,-0.006094,5.4e-05,3e-06,0.0,0.0,0.0,0.0,0.0,0.0
126579,0.010864,0.001593,-0.001107,0.0,0.0,0.0,0.0,0.0,0.0,3.0,0.334463,0.318747,0.316871,0.331582,-0.046529,-1.4e-05,-0.0,-0.005138,5.4e-05,3e-06,0.0,0.0,0.0,0.0,0.0,0.0
126599,0.010864,0.001592,-0.000985,0.0,0.0,0.0,0.0,0.0,0.0,3.0,0.332231,0.327933,0.306323,0.334624,-0.046624,-1.2e-05,-0.0,-0.004183,5.4e-05,3e-06,0.0,0.0,0.0,0.0,0.0,0.0
126619,0.010864,0.001958,-0.000987,0.0,0.0,0.0,0.0,0.0,0.0,3.0,0.334461,0.324481,0.312368,0.330272,-0.046701,-1.1e-05,-0.0,-0.00323,5.4e-05,3e-06,0.0,0.0,0.0,0.0,0.0,0.0
126639,0.010864,0.001836,-0.000865,0.0,0.0,0.0,0.0,0.0,0.0,3.0,0.335941,0.323043,0.31493,0.327761,-0.046758,-1e-05,-0.0,-0.002278,5.4e-05,3e-06,0.0,0.0,0.0,0.0,0.0,0.0
126659,0.01062,0.00208,-0.000866,0.0,0.0,0.0,0.0,0.0,0.0,3.0,0.342002,0.319348,0.313971,0.325913,-0.046797,-9e-06,-0.0,-0.001329,5.4e-05,3e-06,0.0,0.0,0.0,0.0,0.0,0.0
126679,0.01062,0.00208,-0.000988,0.0,0.0,0.0,0.0,0.0,0.0,3.0,0.343308,0.316095,0.320092,0.321727,-0.046816,-8e-06,-0.0,-0.000383,5.4e-05,3e-06,0.0,0.0,0.0,0.0,0.0,0.0
126699,0.010864,0.00208,-0.000866,0.0,0.0,0.0,0.0,0.0,0.0,3.0,0.335326,0.322427,0.312968,0.330831,-0.046817,-7e-06,-0.0,0.00056,5.4e-05,3e-06,0.0,0.0,0.0,0.0,0.0,0.0
126719,0.010742,0.001836,-0.000864,0.0,0.0,0.0,0.0,0.0,0.0,3.0,0.341373,0.322597,0.316073,0.321352,-0.046798,-6e-06,-0.0,0.0015,5.4e-05,3e-06,0.0,0.0,0.0,0.0,0.0,0.0
126739,0.01062,0.001713,-0.000742,0.0,0.0,0.0,0.0,0.0,0.0,3.0,0.333229,0.322948,0.314715,0.330828,-0.046761,-5e-06,-0.0,0.002436,5.4e-05,3e-06,0.0,0.0,0.0,0.0,0.0,0.0
126759,0.010742,0.001468,-0.000618,0.0,0.0,0.0,0.0,0.0,0.0,3.0,0.327453,0.329824,0.309033,0.335047,-0.046706,-4e-06,-0.0,0.003369,5.4e-05,3e-06,0.0,0.0,0.0,0.0,0.0,0.0
126779,0.010864,0.001957,-0.000621,0.0,0.0,0.0,0.0,0.0,0.0,3.0,0.338296,0.323662,0.311179,0.32823,-0.046631,-3e-06,-0.0,0.004296,5.4e-05,3e-06,0.0,0.0,0.0,0.0,0.0,0.0
126799,0.010742,0.001956,-0.000621,0.0,0.0,0.0,0.0,0.0,0.0,3.0,0.344054,0.319535,0.320245,0.317336,-0.046538,-2e-06,-0.0,0.005219,5.4e-05,3e-06,0.0,0.0,0.0,0.0,0.0,0.0
126819,0.010376,0.001834,-0.00062,0.0,0.0,0.0,0.0,0.0,0.0,3.0,0.330374,0.328185,0.312553,0.33058,-0.046427,-1e-06,-0.0,0.006136,5.4e-05,3e-06,0.0,0.0,0.0,0.0,0.0,0.0
126839,0.01062,0.001956,-0.000621,0.0,0.0,0.0,0.0,0.0,0.0,3.0,0.33345,0.321519,0.31703,0.329808,-0.046298,1e-06,-0.0,0.007048,5.4e-05,3e-06,0.0,0.0,0.0,0.0,0.0,0.0
126859,0.010742,0.002079,-0.000622,0.0,0.0,0.0,0.0,0.0,0.0,3.0,0.338248,0.324851,0.312143,0.326205,-0.04615,2e-06,-0.0,0.007954,5.3e-05,3e-06,0.0,0.0,0.0,0.0,0.0,0.0
126879,0.010742,0.002079,-0.000744,0.0,0.0,0.0,0.0,0.0,0.0,3.0,0.334382,0.324685,0.316454,0.326301,-0.045984,3e-06,-0.0,0.008854,5.3e-05,3e-06,0.0,0.0,0.0,0.0,0.0,0.0
126899,0.010864,0.001712,-0.00062,0.0,0.0,0.0,0.0,0.0,0.0,3.0,0.333241,0.325259,0.315902,0.327433,-0.0458,4e-06,-0.0,0.009747,5.3e-05,3e-06,0.0,0.0,0.0,0.0,0.0,0.0
126919,0.011108,0.001712,-0.00062,0.0,0.0,0.0,0.0,0.0,0.0,3.0,0.333347,0.325061,0.317475,0.326013,-0.045599,5e-06,-0.0,0.010634,5.3e-05,3e-06,0.0,0.0,0.0,0.0,0.0,0.0
126939,0.011108,0.001834,-0.000621,0.0,0.0,0.0,0.0,0.0,0.0,3.0,0.338858,0.324774,0.311542,0.326205,-0.045379,6e-06,-0.0,0.011513,5.2e-05,3e-06,0.0,0.0,0.0,0.0,0.0,0.0
126959,0.010986,0.001957,-0.000621,0.0,0.0,0.0,0.0,0.0,0.0,3.0,0.341526,0.320971,0.312507,0.326223,-0.045143,7e-06,-0.0,0.012384,5.2e-05,3e-06,0.0,0.0,0.0,0.0,0.0,0.0
126979,0.010864,0.001957,-0.000743,0.0,0.0,0.0,0.0,0.0,0.0,3.0,0.338523,0.322859,0.314255,0.32589,-0.044888,8e-06,-0.0,0.013247,5.2e-05,3e-06,0.0,0.0,0.0,0.0,0.0,0.0
126999,0.010742,0.002079,-0.000744,0.0,0.0,0.0,0.0,0.0,0.0,3.0,0.334953,0.317406,0.316477,0.332722,-0.044617,9e-06,-0.0,0.014103,5.1e-05,3e-06,0.0,0.0,0.0,0.0,0.0,0.0
127019,0.010742,0.002079,-0.000744,0.0,0.0,0.0,0.0,0.0,0.0,3.0,0.334367,0.319602,0.316945,0.330798,-0.044329,1e-05,-0.0,0.014949,5.1e-05,3e-06,0.0,0.0,0.0,0.0,0.0,0.0
127039,0.01062,0.002201,-0.000744,0.0,0.0,0.0,0.0,0.0,0.0,3.0,0.337232,0.322883,0.313712,0.327731,-0.044023,1.1e-05,-0.0,0.015787,5.1e-05,3e-06,0.0,0.0,0.0,0.0,0.0,0.0
127059,0.010742,0.00208,-0.000866,0.0,0.0,0.0,0.0,0.0,0.0,3.0,0.336422,0.32655,0.31451,0.324171,-0.043701,1.2e-05,-0.0,0.016616,5e-05,3e-06,0.0,0.0,0.0,0.0,0.0,0.0
127079,0.010742,0.001957,-0.000743,0.0,0.0,0.0,0.0,0.0,0.0,3.0,0.331504,0.325304,0.314541,0.330434,-0.043363,1.3e-05,-0.0,0.017435,5e-05,3e-06,0.0,0.0,0.0,0.0,0.0,0.0
127099,0.010864,0.001835,-0.000742,0.0,0.0,0.0,0.0,0.0,0.0,3.0,0.335122,0.325188,0.315675,0.325778,-0.043008,1.4e-05,-0.0,0.018245,4.9e-05,3e-06,0.0,0.0,0.0,0.0,0.0,0.0
127119,0.010742,0.001713,-0.000742,0.0,0.0,0.0,0.0,0.0,0.0,3.0,0.338509,0.329536,0.312127,0.321188,-0.042637,1.5e-05,-0.0,0.019044,4.9e-05,2e-06,0.0,0.0,0.0,0.0,0.0,0.0
127139,0.010376,0.001591,-0.000863,0.0,0.0,0.0,0.0,0.0,0.0,3.0,0.332816,0.327377,0.311283,0.330098,-0.04225,1.6e-05,-0.0,0.019833,4.9e-05,2e-06,0.0,0.0,0.0,0.0,0.0,0.0
127159,0.010254,0.001713,-0.000741,0.0,0.0,0.0,0.0,0.0,0.0,3.0,0.327187,0.321772,0.315291,0.337363,-0.041848,1.7e-05,-0.0,0.020611,4.8e-05,2e-06,0.0,0.0,0.0,0.0,0.0,0.0
127179,0.010376,0.002079,-0.000743,0.0,0.0,0.0,0.0,0.0,0.0,3.0,0.337321,0.318171,0.313284,0.332564,-0.04143,1.8e-05,-0.0,0.021379,4.7e-05,2e-06,0.0,0.0,0.0,0.0,0.0,0.0
127199,0.010498,0.002201,-0.000744,0.0,0.0,0.0,0.0,0.0,0.0,3.0,0.33938,0.321053,0.318645,0.322522,-0.040997,1.9e-05,-0.0,0.022135,4.7e-05,2e-06,0.0,0.0,0.0,0.0,0.0,0.0
127219,0.01062,0.001957,-0.000743,0.0,0.0,0.0,0.0,0.0,0.0,3.0,0.329362,0.328283,0.315318,0.328909,-0.040548,2e-05,-0.0,0.02288,4.6e-05,2e-06,0.0,0.0,0.0,0.0,0.0,0.0
127239,0.010742,0.001956,-0.000621,0.0,0.0,0.0,0.0,0.0,0.0,3.0,0.331968,0.323527,0.313605,0.332565,-0.040085,2.1e-05,-0.0,0.023613,4.6e-05,2e-06,0.0,0.0,0.0,0.0,0.0,0.0
127259,0.010864,0.001834,-0.00062,0.0,0.0,0.0,0.0,0.0,0.0,3.0,0.339165,0.326313,0.314879,0.321136,-0.039607,2.2e-05,-0.0,0.024334,4.5e-05,2e-06,0.0,0.0,0.0,0.0,0.0,0.0
127279,0.01062,0.001712,-0.00062,0.0,0.0,0.0,0.0,0.0,0.0,3.0,0.340886,0.323004,0.311832,0.325541,-0.039115,2.3e-05,-0.0,0.025043,4.5e-05,2e-06,0.0,0.0,0.0,0.0,0.0,0.0
127299,0.010254,0.001469,-0.00074,0.0,0.0,0.0,0.0,0.0,0.0,3.0,0.335153,0.322487,0.318127,0.326065,-0.038609,2.3e-05,-0.0,0.02574,4.4e-05,2e-06,0.0,0.0,0.0,0.0,0.0,0.0
127319,0.009888,0.001713,-0.000741,0.0,0.0,0.0,0.0,0.0,0.0,3.0,0.338753,0.312155,0.316286,0.333903,-0.038089,2.4e-05,0.0,0.026424,4.3e-05,2e-06,0.0,0.0,0.0,0.0,0.0,0.0
127339,0.009888,0.001591,-0.00074,0.0,0.0,0.0,0.0,0.0,0.0,3.0,0.343009,0.316673,0.318679,0.322885,-0.037556,2.5e-05,0.0,0.027095,4.3e-05,2e-06,0.0,0.0,0.0,0.0,0.0,0.0
127359,0.009888,0.001956,-0.00062,0.0,0.0,0.0,0.0,0.0,0.0,3.0,0.336648,0.322546,0.311505,0.330717,-0.037009,2.6e-05,0.0,0.027753,4.2e-05,2e-06,0.0,0.0,0.0,0.0,0.0,0.0
127379,0.010132,0.001834,-0.00062,0.0,0.0,0.0,0.0,0.0,0.0,3.0,0.336095,0.322633,0.321948,0.321166,-0.036449,2.7e-05,0.0,0.028397,4.1e-05,2e-06,0.0,0.0,0.0,0.0,0.0,0.0
127399,0.010376,0.001834,-0.000498,0.0,0.0,0.0,0.0,0.0,0.0,3.0,0.330705,0.325957,0.313875,0.331215,-0.035876,2.8e-05,0.0,0.029028,4.1e-05,2e-06,0.0,0.0,0.0,0.0,0.0,0.0
127419,0.01062,0.001467,-0.000496,0.0,0.0,0.0,0.0,0.0,0.0,3.0,0.33092,0.325515,0.319935,0.325664,-0.035291,2.9e-05,0.0,0.029645,4e-05,2e-06,0.0,0.0,0.0,0.0,0.0,0.0
127439,0.010742,0.001468,-0.000496,0.0,0.0,0.0,0.0,0.0,0.0,3.0,0.333537,0.325205,0.31756,0.325591,-0.034694,2.9e-05,0.0,0.030248,3.9e-05,2e-06,0.0,0.0,0.0,0.0,0.0,0.0
127459,0.01062,0.001467,-0.000496,0.0,0.0,0.0,0.0,0.0,0.0,3.0,0.334874,0.322996,0.316221,0.327682,-0.034084,3e-05,0.0,0.030837,3.9e-05,2e-06,0.0,0.0,0.0,0.0,0.0,0.0
127479,0.010376,0.00159,-0.000497,0.0,0.0,0.0,0.0,0.0,0.0,3.0,0.334157,0.319624,0.317112,0.330832,-0.033463,3.1e-05,0.0,0.031411,3.8e-05,2e-06,0.0,0.0,0.0,0.0,0.0,0.0
127499,0.010132,0.001711,-0.000375,0.0,0.0,0.0,0.0,0.0,0.0,3.0,0.33933,0.316627,0.315115,0.330252,-0.032831,3.2e-05,0.0,0.031971,3.7e-05,2e-06,0.0,0.0,0.0,0.0,0.0,0.0
127519,0.01001,0.002077,-0.000377,0.0,0.0,0.0,0.0,0.0,0.0,3.0,0.346327,0.320794,0.312717,0.320987,-0.032187,3.2e-05,0.0,0.032517,3.6e-05,1e-06,0.0,0.0,0.0,0.0,0.0,0.0
127539,0.009888,0.001955,-0.000376,0.0,0.0,0.0,0.0,0.0,0.0,3.0,0.335806,0.327463,0.31005,0.328098,-0.031533,3.3e-05,0.0,0.033047,3.6e-05,1e-06,0.0,0.0,0.0,0.0,0.0,0.0
127559,0.009888,0.001467,-0.000374,0.0,0.0,0.0,0.0,0.0,0.0,3.0,0.331131,0.322128,0.319807,0.328912,-0.030868,3.4e-05,0.0,0.033562,3.5e-05,1e-06,0.0,0.0,0.0,0.0,0.0,0.0
127579,0.010254,0.001467,-0.000374,0.0,0.0,0.0,0.0,0.0,0.0,3.0,0.324383,0.327042,0.312587,0.337492,-0.030193,3.4e-05,0.0,0.034062,3.4e-05,1e-06,0.0,0.0,0.0,0.0,0.0,0.0
127599,0.010498,0.001344,-0.000251,0.0,0.0,0.0,0.0,0.0,0.0,3.0,0.32373,0.32993,0.314111,0.333923,-0.029508,3.5e-05,0.0,0.034547,3.3e-05,1e-06,0.0,0.0,0.0,0.0,0.0,0.0
127619,0.010743,0.001344,-0.000251,0.0,0.0,0.0,0.0,0.0,0.0,3.0,0.328959,0.326912,0.314138,0.33177,-0.028814,3.6e-05,0.0,0.035016,3.2e-05,1e-06,0.0,0.0,0.0,0.0,0.0,0.0
127639,0.010743,0.001466,-0.000252,0.0,0.0,0.0,0.0,0.0,0.0,3.0,0.332334,0.321973,0.318168,0.329416,-0.02811,3.6e-05,0.0,0.03547,3.2e-05,1e-06,0.0,0.0,0.0,0.0,0.0,0.0
127659,0.01062,0.001711,-0.000375,0.0,0.0,0.0,0.0,0.0,0.0,3.0,0.338644,0.316962,0.31925,0.326706,-0.027397,3.7e-05,0.0,0.035907,3.1e-05,1e-06,0.0,0.0,0.0,0.0,0.0,0.0
127679,0.010254,0.001833,-0.000376,0.0,0.0,0.0,0.0,0.0,0.0,3.0,0.341718,0.320328,0.312644,0.326517,-0.026676,3.8e-05,0.0,0.036329,3e-05,1e-06,0.0,0.0,0.0,0.0,0.0,0.0
127699,0.010254,0.001832,-0.000254,0.0,0.0,0.0,0.0,0.0,0.0,3.0,0.333829,0.327844,0.313576,0.326456,-0.025946,3.8e-05,0.0,0.036735,2.9e-05,1e-06,0.0,0.0,0.0,0.0,0.0,0.0
127719,0.009888,0.001588,-0.000252,0.0,0.0,0.0,0.0,0.0,0.0,3.0,0.33355,0.323463,0.317138,0.327709,-0.025209,3.9e-05,0.0,0.037125,2.8e-05,1e-06,0.0,0.0,0.0,0.0,0.0,0.0
127739,0.01001,0.0011,-0.00025,0.0,0.0,0.0,0.0,0.0,0.0,3.0,0.330827,0.323829,0.320219,0.327155,-0.024463,3.9e-05,0.0,0.037498,2.7e-05,1e-06,0.0,0.0,0.0,0.0,0.0,0.0
127759,0.010376,0.001101,-0.000372,0.0,0.0,0.0,0.0,0.0,0.0,3.0,0.326922,0.3307,0.313476,0.330644,-0.023711,4e-05,0.0,0.037855,2.6e-05,1e-06,0.0,0.0,0.0,0.0,0.0,0.0
127779,0.01062,0.000979,-0.000371,0.0,0.0,0.0,0.0,0.0,0.0,3.0,0.332655,0.324401,0.319589,0.325332,-0.022951,4e-05,0.0,0.038196,2.5e-05,1e-06,0.0,0.0,0.0,0.0,0.0,0.0
127799,0.010743,0.001101,-0.000372,0.0,0.0,0.0,0.0,0.0,0.0,3.0,0.335048,0.324291,0.315997,0.32644,-0.022185,4.1e-05,0.0,0.03852,2.5e-05,1e-06,0.0,0.0,0.0,0.0,0.0,0.0
127819,0.01062,0.001101,-0.000372,0.0,0.0,0.0,0.0,0.0,0.0,3.0,0.336359,0.322332,0.314568,0.328366,-0.021412,4.1e-05,0.0,0.038828,2.4e-05,1e-06,0.0,0.0,0.0,0.0,0.0,0.0
127839,0.010742,0.001345,-0.000373,0.0,0.0,0.0,0.0,0.0,0.0,3.0,0.341083,0.314882,0.32026,0.325135,-0.020633,4.2e-05,0.0,0.039119,2.3e-05,1e-06,0.0,0.0,0.0,0.0,0.0,0.0
127859,0.010376,0.001467,-0.000374,0.0,0.0,0.0,0.0,0.0,0.0,3.0,0.343381,0.315307,0.318379,0.324099,-0.019849,4.2e-05,0.0,0.039394,2.2e-05,1e-06,0.0,0.0,0.0,0.0,0.0,0.0
127879,0.010132,0.001589,-0.000374,0.0,0.0,0.0,0.0,0.0,0.0,3.0,0.336571,0.320361,0.315126,0.329533,-0.019059,4.3e-05,0.0,0.039651,2.1e-05,1e-06,0.0,0.0,0.0,0.0,0.0,0.0
127899,0.010376,0.001467,-0.000374,0.0,0.0,0.0,0.0,0.0,0.0,3.0,0.332551,0.323168,0.318731,0.327491,-0.018264,4.3e-05,0.0,0.039892,2e-05,0.0,0.0,0.0,0.0,0.0,0.0,0.0
127919,0.01062,0.001344,-0.000251,0.0,0.0,0.0,0.0,0.0,0.0,3.0,0.336902,0.326855,0.313868,0.323972,-0.017464,4.4e-05,0.0,0.040116,1.9e-05,0.0,0.0,0.0,0.0,0.0,0.0,0.0
127939,0.010865,0.001222,-0.000251,0.0,0.0,0.0,0.0,0.0,0.0,3.0,0.332627,0.326879,0.320264,0.322199,-0.01666,4.4e-05,0.0,0.040323,1.8e-05,0.0,0.0,0.0,0.0,0.0,0.0,0.0
127959,0.010743,0.000734,-0.00037,0.0,0.0,0.0,0.0,0.0,0.0,3.0,0.332279,0.325397,0.320789,0.323544,-0.015853,4.4e-05,0.0,0.040513,1.7e-05,0.0,0.0,0.0,0.0,0.0,0.0,0.0
127979,0.010987,0.000612,-0.00037,0.0,0.0,0.0,0.0,0.0,0.0,3.0,0.330416,0.318718,0.324673,0.328189,-0.015041,4.5e-05,0.0,0.040686,1.6e-05,0.0,0.0,0.0,0.0,0.0,0.0,0.0
127999,0.010865,0.000857,-0.000371,0.0,0.0,0.0,0.0,0.0,0.0,3.0,0.342975,0.315981,0.318438,0.323829,-0.014226,4.5e-05,0.0,0.040843,1.5e-05,0.0,0.0,0.0,0.0,0.0,0.0,0.0
128019,0.010865,0.001101,-0.000372,0.0,0.0,0.0,0.0,0.0,0.0,3.0,0.338557,0.315721,0.323696,0.323616,-0.013408,4.5e-05,0.0,0.040982,1.4e-05,0.0,0.0,0.0,0.0,0.0,0.0,0.0
128039,0.01062,0.001223,-0.000373,0.0,0.0,0.0,0.0,0.0,0.0,3.0,0.338839,0.314373,0.323468,0.324841,-0.012588,4.6e-05,0.0,0.041104,1.3e-05,0.0,0.0,0.0,0.0,0.0,0.0,0.0
128059,0.01062,0.001223,-0.000373,0.0,0.0,0.0,0.0,0.0,0.0,3.0,0.328181,0.326135,0.309473,0.337517,-0.011765,4.6e-05,0.0,0.04121,1.2e-05,0.0,0.0,0.0,0.0,0.0,0.0,0.0
128079,0.01062,0.001344,-0.000251,0.0,0.0,0.0,0.0,0.0,0.0,3.0,0.335581,0.325632,0.3089,0.331192,-0.01094,4.6e-05,0.0,0.041298,1.1e-05,0.0,0.0,0.0,0.0,0.0,0.0,0.0
128099,0.010621,0.001222,-0.000251,0.0,0.0,0.0,0.0,0.0,0.0,3.0,0.334325,0.323008,0.320012,0.324575,-0.010113,4.6e-05,0.0,0.04137,1e-05,0.0,0.0,0.0,0.0,0.0,0.0,0.0
128119,0.010743,0.000856,-0.000371,0.0,0.0,0.0,0.0,0.0,0.0,3.0,0.331555,0.321907,0.321799,0.326763,-0.009285,4.6e-05,0.0,0.041425,9e-06,0.0,0.0,0.0,0.0,0.0,0.0,0.0
128139,0.010621,0.000734,-0.00037,0.0,0.0,0.0,0.0,0.0,0.0,3.0,0.330857,0.318604,0.320817,0.331598,-0.008457,4.7e-05,0.0,0.041462,8e-06,-0.0,0.0,0.0,0.0,0.0,0.0,0.0
128159,0.010743,0.000734,-0.00037,0.0,0.0,0.0,0.0,0.0,0.0,3.0,0.333417,0.322573,0.317885,0.328002,-0.007627,4.7e-05,0.0,0.041484,7e-06,-0.0,0.0,0.0,0.0,0.0,0.0,0.0
128179,0.010498,0.001101,-0.000372,0.0,0.0,0.0,0.0,0.0,0.0,3.0,0.336506,0.324681,0.314473,0.325991,-0.006797,4.7e-05,0.0,0.041488,6e-06,-0.0,0.0,0.0,0.0,0.0,0.0,0.0
128199,0.010254,0.001223,-0.000373,0.0,0.0,0.0,0.0,0.0,0.0,3.0,0.33437,0.323799,0.316834,0.326827,-0.005968,4.7e-05,0.0,0.041476,6e-06,-0.0,0.0,0.0,0.0,0.0,0.0,0.0
128219,0.010132,0.001345,-0.000373,0.0,0.0,0.0,0.0,0.0,0.0,3.0,0.3346,0.320814,0.316681,0.329648,-0.005138,4.7e-05,0.0,0.041447,5e-06,-0.0,0.0,0.0,0.0,0.0,0.0,0.0
128239,0.010254,0.001223,-0.000373,0.0,0.0,0.0,0.0,0.0,0.0,3.0,0.332422,0.325032,0.318899,0.325615,-0.00431,4.7e-05,0.0,0.041401,4e-06,-0.0,0.0,0.0,0.0,0.0,0.0,0.0
128259,0.010254,0.001101,-0.000372,0.0,0.0,0.0,0.0,0.0,0.0,3.0,0.331661,0.325316,0.319704,0.325329,-0.003482,4.7e-05,0.0,0.041339,3e-06,-0.0,0.0,0.0,0.0,0.0,0.0,0.0
128279,0.010498,0.000979,-0.000371,0.0,0.0,0.0,0.0,0.0,0.0,3.0,0.330935,0.324117,0.320509,0.326479,-0.002656,4.7e-05,0.0,0.04126,2e-06,-0.0,0.0,0.0,0.0,0.0,0.0,0.0
128299,0.010743,0.000734,-0.00037,0.0,0.0,0.0,0.0,0.0,0.0,3.0,0.332073,0.32216,0.319377,0.328341,-0.001831,4.7e-05,0.0,0.041166,1e-06,-0.0,0.0,0.0,0.0,0.0,0.0,0.0
128319,0.010621,0.000856,-0.000249,0.0,0.0,0.0,0.0,0.0,0.0,3.0,0.342266,0.319307,0.319022,0.320764,-0.001009,4.7e-05,0.0,0.041054,-0.0,-0.0,0.0,0.0,0.0,0.0,0.0,0.0
128339,0.010498,0.000856,-0.000371,0.0,0.0,0.0,0.0,0.0,0.0,3.0,0.344563,0.319177,0.318911,0.318473,-0.000189,4.7e-05,0.0,0.040927,-1e-06,-0.0,0.0,0.0,0.0,0.0,0.0,0.0
128359,0.010132,0.000978,-0.000371,0.0,0.0,0.0,0.0,0.0,0.0,3.0,0.338748,0.323471,0.312933,0.326303,0.000629,4.7e-05,0.0,0.040784,-2e-06,-0.0,0.0,0.0,0.0,0.0,0.0,0.0
128379,0.009888,0.0011,-0.000372,0.0,0.0,0.0,0.0,0.0,0.0,3.0,0.328088,0.325394,0.309041,0.338694,0.001443,4.7e-05,0.0,0.040625,-3e-06,-0.0,0.0,0.0,0.0,0.0,0.0,0.0
128399,0.009644,0.0011,-0.000249,0.0,0.0,0.0,0.0,0.0,0.0,3.0,0.327955,0.325567,0.310054,0.337759,0.002254,4.7e-05,0.0,0.04045,-4e-06,-0.0,0.0,0.0,0.0,0.0,0.0,0.0
128419,0.009766,0.001222,-0.00025,0.0,0.0,0.0,0.0,0.0,0.0,3.0,0.327238,0.329032,0.312607,0.332792,0.003062,4.7e-05,0.0,0.040259,-5e-06,-0.0,0.0,0.0,0.0,0.0,0.0,0.0
128439,0.01001,0.000856,-0.000371,0.0,0.0,0.0,0.0,0.0,0.0,3.0,0.332777,0.32475,0.321408,0.323066,0.003866,4.7e-05,0.0,0.040053,-6e-06,-0.0,0.0,0.0,0.0,0.0,0.0,0.0
128459,0.010132,0.000734,-0.00037,0.0,0.0,0.0,0.0,0.0,0.0,3.0,0.331424,0.324084,0.320239,0.326276,0.004665,4.7e-05,0.0,0.039831,-7e-06,-0.0,0.0,0.0,0.0,0.0,0.0,0.0
128479,0.010254,0.000612,-0.000369,0.0,0.0,0.0,0.0,0.0,0.0,3.0,0.330941,0.324068,0.320589,0.326443,0.00546,4.7e-05,0.0,0.039594,-8e-06,-0.0,0.0,0.0,0.0,0.0,0.0,0.0
128499,0.010376,0.000734,-0.00037,0.0,0.0,0.0,0.0,0.0,0.0,3.0,0.332366,0.324061,0.319088,0.326455,0.00625,4.7e-05,0.0,0.039342,-9e-06,-0.0,0.0,0.0,0.0,0.0,0.0,0.0
128519,0.01001,0.000734,-0.00037,0.0,0.0,0.0,0.0,0.0,0.0,3.0,0.335709,0.322462,0.31555,0.327982,0.007035,4.6e-05,0.0,0.039075,-1e-05,-0.0,0.0,0.0,0.0,0.0,0.0,0.0
128539,0.009766,0.000856,-0.00037,0.0,0.0,0.0,0.0,0.0,0.0,3.0,0.326101,0.325926,0.311181,0.338187,0.007814,4.6e-05,0.0,0.038793,-1e-05,-0.0,0.0,0.0,0.0,0.0,0.0,0.0
128559,0.009766,0.000856,-0.000248,0.0,0.0,0.0,0.0,0.0,0.0,3.0,0.32786,0.328376,0.310136,0.335075,0.008588,4.6e-05,0.0,0.038496,-1.1e-05,-0.0,0.0,0.0,0.0,0.0,0.0,0.0
128579,0.009644,0.000978,-0.000249,0.0,0.0,0.0,0.0,0.0,0.0,3.0,0.339193,0.322799,0.314475,0.325031,0.009355,4.6e-05,0.0,0.038185,-1.2e-05,-0.0,0.0,0.0,0.0,0.0,0.0,0.0
128599,0.009644,0.000734,-0.00037,0.0,0.0,0.0,0.0,0.0,0.0,3.0,0.336624,0.3271,0.31641,0.321557,0.010117,4.6e-05,0.0,0.037859,-1.3e-05,-0.0,0.0,0.0,0.0,0.0,0.0,0.0
128619,0.009522,0.000368,-0.000368,0.0,0.0,0.0,0.0,0.0,0.0,3.0,0.332417,0.324554,0.319189,0.325814,0.010871,4.5e-05,0.0,0.03752,-1.4e-05,-0.0,0.0,0.0,0.0,0.0,0.0,0.0
128639,0.009766,0.000368,-0.000368,0.0,0.0,0.0,0.0,0.0,0.0,3.0,0.331815,0.32,0.319845,0.330239,0.011619,4.5e-05,0.0,0.037166,-1.5e-05,-0.0,0.0,0.0,0.0,0.0,0.0,0.0
128659,0.009644,0.00049,-0.000369,0.0,0.0,0.0,0.0,0.0,0.0,3.0,0.338593,0.319346,0.319654,0.324053,0.01236,4.5e-05,0.0,0.036799,-1.6e-05,-0.0,0.0,0.0,0.0,0.0,0.0,0.0
128679,0.009644,0.00049,-0.000369,0.0,0.0,0.0,0.0,0.0,0.0,3.0,0.335461,0.316707,0.32351,0.326104,0.013093,4.4e-05,0.0,0.036418,-1.7e-05,-0.0,0.0,0.0,0.0,0.0,0.0,0.0
128699,0.009644,0.000734,-0.00037,0.0,0.0,0.0,0.0,0.0,0.0,3.0,0.332515,0.319103,0.319615,0.330611,0.013818,4.4e-05,0.0,0.036024,-1.7e-05,-0.0,0.0,0.0,0.0,0.0,0.0,0.0
128719,0.009522,0.000856,-0.00037,0.0,0.0,0.0,0.0,0.0,0.0,3.0,0.33554,0.323689,0.315811,0.326703,0.014536,4.4e-05,0.0,0.035616,-1.8e-05,-0.0,0.0,0.0,0.0,0.0,0.0,0.0
128739,0.0094,0.000856,-0.00037,0.0,0.0,0.0,0.0,0.0,0.0,3.0,0.335428,0.327051,0.315822,0.323444,0.015245,4.3e-05,0.0,0.035195,-1.9e-05,-0.0,0.0,0.0,0.0,0.0,0.0,0.0
128759,0.009156,0.000368,-0.000368,0.0,0.0,0.0,0.0,0.0,0.0,3.0,0.333387,0.32292,0.31814,0.327448,0.015946,4.3e-05,0.0,0.034762,-2e-05,0.0,0.0,0.0,0.0,0.0,0.0,0.0
128779,0.009034,2e-06,-0.000488,0.0,0.0,0.0,0.0,0.0,0.0,3.0,0.332548,0.319707,0.32626,0.32346,0.016638,4.2e-05,0.0,0.034316,-2.1e-05,0.0,0.0,0.0,0.0,0.0,0.0,0.0
128799,0.009034,2e-06,-0.000488,0.0,0.0,0.0,0.0,0.0,0.0,3.0,0.334769,0.322804,0.317325,0.326923,0.01732,4.2e-05,0.0,0.033858,-2.1e-05,0.0,0.0,0.0,0.0,0.0,0.0,0.0
128819,0.009278,2e-06,-0.000488,0.0,0.0,0.0,0.0,0.0,0.0,3.0,0.331861,0.325537,0.319944,0.324667,0.017994,4.2e-05,-0.0,0.033388,-2.2e-05,0.0,0.0,0.0,0.0,0.0,0.0,0.0
128839,0.009156,-0.00012,-0.000488,0.0,0.0,0.0,0.0,0.0,0.0,3.0,0.334938,0.322593,0.316732,0.327524,0.018658,4.1e-05,-0.0,0.032906,-2.3e-05,0.0,0.0,0.0,0.0,0.0,0.0,0.0
128859,0.009278,-0.00012,-0.000488,0.0,0.0,0.0,0.0,0.0,0.0,3.0,0.334795,0.32334,0.316875,0.326801,0.019313,4.1e-05,-0.0,0.032412,-2.4e-05,0.0,0.0,0.0,0.0,0.0,0.0,0.0
128879,0.009278,3e-06,-0.00061,0.0,0.0,0.0,0.0,0.0,0.0,3.0,0.336833,0.319593,0.318531,0.326756,0.019957,4e-05,-0.0,0.031907,-2.4e-05,0.0,0.0,0.0,0.0,0.0,0.0,0.0
128899,0.009034,0.000125,-0.000611,0.0,0.0,0.0,0.0,0.0,0.0,3.0,0.334678,0.321102,0.317507,0.328504,0.020591,4e-05,-0.0,0.03139,-2.5e-05,0.0,0.0,0.0,0.0,0.0,0.0,0.0
128919,0.008667,3e-06,-0.00061,0.0,0.0,0.0,0.087266,0.0,0.0,3.0,0.616506,0.320562,0.15,0.329198,0.022895,3.7e-05,9.3e-05,0.612418,2.8e-05,0.031196,0.0,0.0,0.0,0.0,0.0,0.0
128939,0.008668,-0.000117,-0.001098,0.0,0.0,0.0,0.087266,0.0,0.0,3.0,0.389983,0.309122,0.272707,0.315067,0.037822,2.5e-05,0.000785,0.794992,0.001012,0.033908,0.0,0.0,0.0,0.0,0.0,0.0
128959,0.009644,-0.000357,-0.001952,0.0,0.0,0.0,0.087266,0.0,0.0,3.0,0.373,0.298811,0.324676,0.297884,0.052374,2.4e-05,0.001436,0.610806,0.001869,0.030569,0.0,0.0,0.0,0.0,0.0,0.0
128979,0.012208,-0.000475,-0.002195,0.0,0.0,0.0,0.087266,0.0,0.0,3.0,0.348543,0.307147,0.332427,0.311737,0.063267,3.2e-05,0.002023,0.441293,0.002291,0.026769,0.0,0.0,0.0,0.0,0.0,0.0
128999,0.016847,-0.00035,-0.00195,0.0,0.0,0.0,0.087266,0.0,0.0,3.0,0.302581,0.327895,0.338425,0.331721,0.071077,4.6e-05,0.002526,0.31804,0.002386,0.022286,0.0,0.0,0.0,0.0,0.0,0.0
129019,0.023318,-0.000593,-0.001458,0.0,0.0,0.0,0.087266,0.0,0.0,3.0,0.266546,0.335689,0.345667,0.345134,0.076821,6.2e-05,0.002943,0.244081,0.002276,0.018337,0.0,0.0,0.0,0.0,0.0,0.0
129039,0.030275,-0.000712,-0.001332,0.0,0.0,0.0,0.087266,0.0,0.0,3.0,0.273845,0.332915,0.354465,0.333371,0.081344,7.9e-05,0.003286,0.201068,0.002067,0.014886,0.0,0.0,0.0,0.0,0.0,0.0
129059,0.036869,-0.001438,-0.001438,0.0,0.0,0.0,0.087266,0.0,0.0,3.0,0.278596,0.330945,0.36511,0.319506,0.085157,9.6e-05,0.003563,0.176165,0.001816,0.011878,0.0,0.0,0.0,0.0,0.0,0.0
129079,0.043462,-0.00204,-0.001541,0.0,0.0,0.0,0.087266,0.0,0.0,3.0,0.276521,0.323017,0.369464,0.324101,0.08856,0.000112,0.003782,0.161664,0.001556,0.009259,0.0,0.0,0.0,0.0,0.0,0.0
129099,0.04957,-0.002401,-0.001526,0.0,0.0,0.0,0.087266,0.0,0.0,3.0,0.277974,0.327298,0.35971,0.329973,0.091722,0.000126,0.003952,0.153095,0.001302,0.006982,0.0,0.0,0.0,0.0,0.0,0.0
129119,0.054211,-0.002645,-0.001392,0.0,0.0,0.0,0.087266,0.0,0.0,3.0,0.297587,0.327146,0.350271,0.324239,0.094741,0.000138,0.004078,0.147898,0.001061,0.005005,0.0,0.0,0.0,0.0,0.0,0.0
129139,0.057384,-0.003256,-0.001248,0.0,0.0,0.0,0.087266,0.0,0.0,3.0,0.308339,0.334485,0.335885,0.322423,0.097672,0.000149,0.004166,0.144603,0.000836,0.003291,0.0,0.0,0.0,0.0,0.0,0.0
129159,0.059096,-0.003621,-0.001234,0.0,0.0,0.0,0.087266,0.0,0.0,3.0,0.325833,0.326416,0.326694,0.323201,0.100546,0.000159,0.004222,0.142374,0.000629,0.001809,0.0,0.0,0.0,0.0,0.0,0.0
129179,0.05995,-0.003986,-0.001222,0.0,0.0,0.0,0.087266,0.0,0.0,3.0,0.334345,0.324629,0.318658,0.324262,0.103381,0.000167,0.004249,0.14073,0.000438,0.000529,0.0,0.0,0.0,0.0,0.0,0.0
129199,0.059462,-0.004356,-0.00109,0.0,0.0,0.0,0.087266,0.0,0.0,3.0,0.345298,0.328057,0.302299,0.324549,0.106185,0.000175,0.004252,0.139398,0.000264,-0.000573,0.0,0.0,0.0,0.0,0.0,0.0
129219,0.058486,-0.004483,-0.000966,0.0,0.0,0.0,0.087266,0.0,0.0,3.0,0.353689,0.329681,0.291253,0.323385,0.108964,0.000181,0.004234,0.138222,0.000105,-0.00152,0.0,0.0,0.0,0.0,0.0,0.0
129239,0.057872,-0.004609,-0.000842,0.0,0.0,0.0,0.087266,0.0,0.0,3.0,0.34296,0.336282,0.284501,0.333883,0.11172,0.000186,0.004197,0.137112,-3.9e-05,-0.00233,0.0,0.0,0.0,0.0,0.0,0.0
129259,0.05775,-0.004734,-0.000717,0.0,0.0,0.0,0.087266,0.0,0.0,3.0,0.342659,0.327113,0.301959,0.328632,0.114454,0.00019,0.004145,0.136017,-0.00017,-0.00302,0.0,0.0,0.0,0.0,0.0,0.0
129279,0.058241,-0.0051,-0.000705,0.0,0.0,0.0,0.087266,0.0,0.0,3.0,0.340304,0.325665,0.311017,0.324275,0.117166,0.000193,0.00408,0.13491,-0.000288,-0.003606,0.0,0.0,0.0,0.0,0.0,0.0
129299,0.059583,-0.004981,-0.000583,0.0,0.0,0.0,0.087266,0.0,0.0,3.0,0.332163,0.32909,0.305972,0.333873,0.119856,0.000195,0.004004,0.133773,-0.000395,-0.004099,0.0,0.0,0.0,0.0,0.0,0.0
129319,0.061657,-0.00474,-0.000463,0.0,0.0,0.0,0.087266,0.0,0.0,3.0,0.331181,0.326334,0.320076,0.324436,0.122523,0.000197,0.003919,0.132598,-0.000491,-0.004513,0.0,0.0,0.0,0.0,0.0,0.0
129339,0.064101,-0.004983,-0.00045,0.0,0.0,0.0,0.087266,0.0,0.0,3.0,0.321322,0.326551,0.328832,0.325392,0.125166,0.000198,0.003825,0.131381,-0.000578,-0.004856,0.0,0.0,0.0,0.0,0.0,0.0
129359,0.066911,-0.00486,-0.000447,0.0,0.0,0.0,0.087266,0.0,0.0,3.0,0.315426,0.318873,0.337056,0.330176,0.127784,0.000199,0.003725,0.130117,-0.000655,-0.005138,0.0,0.0,0.0,0.0,0.0,0.0
129379,0.070209,-0.004741,-0.000321,0.0,0.0,0.0,0.087266,0.0,0.0,3.0,0.308857,0.32344,0.336117,0.332811,0.130376,0.000198,0.00362,0.128807,-0.000724,-0.005366,0.0,0.0,0.0,0.0,0.0,0.0
129399,0.073508,-0.004622,-0.000196,0.0,0.0,0.0,0.087266,0.0,0.0,3.0,0.305349,0.324803,0.338446,0.332267,0.132942,0.000198,0.00351,0.12745,-0.000786,-0.005547,0.0,0.0,0.0,0.0,0.0,0.0
129419,0.076928,-0.004504,-7e-05,0.0,0.0,0.0,0.087266,0.0,0.0,3.0,0.302695,0.328394,0.339892,0.329608,0.135481,0.000197,0.003397,0.126047,-0.00084,-0.005687,0.0,0.0,0.0,0.0,0.0,0.0
129439,0.079981,-0.004635,0.000185,0.0,0.0,0.0,0.087266,0.0,0.0,3.0,0.306412,0.3307,0.336101,0.327884,0.137991,0.000195,0.003281,0.124597,-0.000889,-0.005791,0.0,0.0,0.0,0.0,0.0,0.0
129459,0.082792,-0.004879,0.000202,0.0,0.0,0.0,0.087266,0.0,0.0,3.0,0.310793,0.329162,0.333837,0.327733,0.140472,0.000194,0.003163,0.123101,-0.000931,-0.005865,0.0,0.0,0.0,0.0,0.0,0.0
129479,0.085353,-0.005128,0.000341,0.0,0.0,0.0,0.087266,0.0,0.0,3.0,0.312435,0.329256,0.336849,0.322951,0.142922,0.000191,0.003044,0.12156,-0.000969,-0.005911,0.0,0.0,0.0,0.0,0.0,0.0
129499,0.087309,-0.005371,0.000356,0.0,0.0,0.0,0.087266,0.0,0.0,3.0,0.318645,0.327555,0.33013,0.325678,0.145342,0.000189,0.002924,0.119975,-0.001001,-0.005933,0.0,0.0,0.0,0.0,0.0,0.0
129519,0.088656,-0.005621,0.000493,0.0,0.0,0.0,0.087266,0.0,0.0,3.0,0.321552,0.331566,0.324662,0.324266,0.147729,0.000186,0.002803,0.118346,-0.001029,-0.005935,0.0,0.0,0.0,0.0,0.0,0.0
129539,0.089753,-0.006114,0.00064,0.0,0.0,0.0,0.087266,0.0,0.0,3.0,0.323997,0.331018,0.322087,0.324965,0.150083,0.000183,0.002683,0.116674,-0.001053,-0.005919,0.0,0.0,0.0,0.0,0.0,0.0
129559,0.090728,-0.006363,0.000776,0.0,0.0,0.0,0.087266,0.0,0.0,3.0,0.324856,0.329492,0.321384,0.326357,0.152404,0.00018,0.002563,0.11496,-0.001073,-0.005888,0.0,0.0,0.0,0.0,0.0,0.0
129579,0.091464,-0.006613,0.000911,0.0,0.0,0.0,0.087266,0.0,0.0,3.0,0.327431,0.331289,0.314994,0.328123,0.15469,0.000177,0.002444,0.113206,-0.00109,-0.005843,0.0,0.0,0.0,0.0,0.0,0.0
129599,0.092196,-0.006741,0.001041,0.0,0.0,0.0,0.087266,0.0,0.0,3.0,0.32519,0.334299,0.309759,0.33214,0.156941,0.000173,0.002325,0.111411,-0.001103,-0.005787,0.0,0.0,0.0,0.0,0.0,0.0
129619,0.093049,-0.006624,0.00116,0.0,0.0,0.0,0.087266,0.0,0.0,3.0,0.324253,0.336014,0.309682,0.331382,0.159155,0.000169,0.002208,0.109576,-0.001114,-0.005721,0.0,0.0,0.0,0.0,0.0,0.0
129639,0.09403,-0.006753,0.001291,0.0,0.0,0.0,0.087266,0.0,0.0,3.0,0.325309,0.331058,0.322407,0.323291,0.161333,0.000165,0.002092,0.107704,-0.001122,-0.005647,0.0,0.0,0.0,0.0,0.0,0.0
129659,0.095249,-0.006753,0.001295,0.0,0.0,0.0,0.087266,0.0,0.0,3.0,0.322555,0.326615,0.325236,0.327722,0.163473,0.000161,0.001977,0.105794,-0.001128,-0.005566,0.0,0.0,0.0,0.0,0.0,0.0
129679,0.096839,-0.006759,0.001423,0.0,0.0,0.0,0.087266,0.0,0.0,3.0,0.317175,0.326333,0.328689,0.329757,0.165574,0.000157,0.001864,0.103847,-0.001131,-0.005478,0.0,0.0,0.0,0.0,0.0,0.0
129699,0.098796,-0.006766,0.001551,0.0,0.0,0.0,0.087266,0.0,0.0,3.0,0.316537,0.327499,0.32875,0.329148,0.167636,0.000153,0.001753,0.101865,-0.001133,-0.005385,0.0,0.0,0.0,0.0,0.0,0.0
129719,0.100747,-0.006767,0.001557,0.0,0.0,0.0,0.087266,0.0,0.0,3.0,0.319489,0.326201,0.335076,0.321084,0.169658,0.000148,0.001644,0.099848,-0.001132,-0.005289,0.0,0.0,0.0,0.0,0.0,0.0
129739,0.102946,-0.007024,0.001821,0.0,0.0,0.0,0.087266,0.0,0.0,3.0,0.30043,0.338802,0.328723,0.332402,0.17164,0.000144,0.001537,0.097797,-0.00113,-0.005188,0.0,0.0,0.0,0.0,0.0,0.0
129759,0.105146,-0.007276,0.001963,0.0,0.0,0.0,0.087266,0.0,0.0,3.0,0.300178,0.336414,0.331046,0.332761,0.17358,0.000139,0.001431,0.095714,-0.001127,-0.005085,0.0,0.0,0.0,0.0,0.0,0.0
129779,0.107468,-0.007406,0.0021,0.0,0.0,0.0,0.087266,0.0,0.0,3.0,0.299719,0.338154,0.330869,0.331559,0.175479,0.000135,0.001328,0.093599,-0.001121,-0.004979,0.0,0.0,0.0,0.0,0.0,0.0
129799,0.109668,-0.007779,0.00225,0.0,0.0,0.0,0.087266,0.0,0.0,3.0,0.299202,0.338115,0.331115,0.331803,0.177335,0.00013,0.001227,0.091454,-0.001115,-0.004872,0.0,0.0,0.0,0.0,0.0,0.0
129819,0.111502,-0.008153,0.002399,0.0,0.0,0.0,0.087266,0.0,0.0,3.0,0.303285,0.33465,0.33122,0.331653,0.179147,0.000125,0.001128,0.089278,-0.001107,-0.004763,0.0,0.0,0.0,0.0,0.0,0.0
129839,0.113337,-0.00804,0.002522,0.0,0.0,0.0,0.087266,0.0,0.0,3.0,0.298442,0.333595,0.332756,0.335388,0.180916,0.00012,0.001031,0.087075,-0.001098,-0.004653,0.0,0.0,0.0,0.0,0.0,0.0
129859,0.115292,-0.008414,0.002672,0.0,0.0,0.0,0.087266,0.0,0.0,3.0,0.303144,0.342195,0.325809,0.329355,0.182641,0.000116,0.000936,0.084843,-0.001089,-0.004543,0.0,0.0,0.0,0.0,0.0,0.0
129879,0.11664,-0.008422,0.0028,0.0,0.0,0.0,0.087266,0.0,0.0,3.0,0.309696,0.335144,0.327647,0.328923,0.184321,0.000111,0.000844,0.082585,-0.001078,-0.004432,0.0,0.0,0.0,0.0,0.0,0.0
129899,0.117857,-0.008674,0.002941,0.0,0.0,0.0,0.087266,0.0,0.0,3.0,0.311392,0.335218,0.326219,0.328696,0.185956,0.000106,0.000754,0.080302,-0.001066,-0.004321,0.0,0.0,0.0,0.0,0.0,0.0
129919,0.119204,-0.008805,0.003076,0.0,0.0,0.0,0.087266,0.0,0.0,3.0,0.312629,0.331618,0.325901,0.331512,0.187545,0.000101,0.000666,0.077994,-0.001054,-0.004211,0.0,0.0,0.0,0.0,0.0,0.0
129939,0.1203,-0.00882,0.003324,0.0,0.0,0.0,0.087266,0.0,0.0,3.0,0.305738,0.339853,0.320575,0.334528,0.189087,9.6e-05,0.00058,0.075663,-0.00104,-0.0041,0.0,0.0,0.0,0.0,0.0,0.0
129959,0.121403,-0.008837,0.003572,0.0,0.0,0.0,0.087266,0.0,0.0,3.0,0.311865,0.330973,0.328591,0.330213,0.190583,9.1e-05,0.000496,0.07331,-0.001027,-0.00399,0.0,0.0,0.0,0.0,0.0,0.0
129979,0.122498,-0.008853,0.00382,0.0,0.0,0.0,0.087266,0.0,0.0,3.0,0.303615,0.337675,0.324207,0.335155,0.192031,8.6e-05,0.000415,0.070935,-0.001012,-0.003881,0.0,0.0,0.0,0.0,0.0,0.0
129999,0.123723,-0.008984,0.003955,0.0,0.0,0.0,0.087266,0.0,0.0,3.0,0.307703,0.332895,0.332707,0.327958,0.193432,8.1e-05,0.000335,0.06854,-0.000997,-0.003773,0.0,0.0,0.0,0.0,0.0,0.0
130019,0.124949,-0.008872,0.004075,0.0,0.0,0.0,0.087266,0.0,0.0,3.0,0.312925,0.331295,0.328957,0.328538,0.194784,7.5e-05,0.000258,0.066126,-0.000982,-0.003665,0.0,0.0,0.0,0.0,0.0,0.0
130039,0.126044,-0.009124,0.004216,0.0,0.0,0.0,0.087266,0.0,0.0,3.0,0.307407,0.335261,0.326661,0.331862,0.196089,7e-05,0.000183,0.063694,-0.000966,-0.003559,0.0,0.0,0.0,0.0,0.0,0.0
130059,0.127391,-0.009378,0.00436,0.0,0.0,0.0,0.087266,0.0,0.0,3.0,0.305608,0.336013,0.331695,0.327697,0.197344,6.5e-05,0.000111,0.061246,-0.000949,-0.003454,0.0,0.0,0.0,0.0,0.0,0.0
130079,0.128737,-0.009761,0.004633,0.0,0.0,0.0,0.087266,0.0,0.0,3.0,0.302331,0.338431,0.327929,0.331902,0.198551,6e-05,4e-05,0.058781,-0.000932,-0.00335,0.0,0.0,0.0,0.0,0.0,0.0
130099,0.130326,-0.010024,0.0049,0.0,0.0,0.0,0.087266,0.0,0.0,3.0,0.302622,0.338162,0.330093,0.329774,0.199708,5.5e-05,-2.9e-05,0.056302,-0.000915,-0.003247,0.0,0.0,0.0,0.0,0.0,0.0
130119,0.131909,-0.010156,0.005037,0.0,0.0,0.0,0.087266,0.0,0.0,3.0,0.30225,0.339752,0.334003,0.324449,0.200815,5e-05,-9.5e-05,0.053809,-0.000898,-0.003145,0.0,0.0,0.0,0.0,0.0,0.0
130139,0.133499,-0.010411,0.005183,0.0,0.0,0.0,0.087266,0.0,0.0,3.0,0.301462,0.335583,0.336002,0.327456,0.201873,4.5e-05,-0.000159,0.051304,-0.00088,-0.003045,0.0,0.0,0.0,0.0,0.0,0.0
130159,0.134967,-0.010787,0.005337,0.0,0.0,0.0,0.087266,0.0,0.0,3.0,0.291648,0.340489,0.336649,0.330207,0.20288,4e-05,-0.000222,0.048787,-0.000862,-0.002946,0.0,0.0,0.0,0.0,0.0,0.0
130179,0.136678,-0.010929,0.005597,0.0,0.0,0.0,0.087266,0.0,0.0,3.0,0.286953,0.342206,0.332181,0.336777,0.203837,3.5e-05,-0.000282,0.04626,-0.000844,-0.002849,0.0,0.0,0.0,0.0,0.0,0.0
130199,0.138269,-0.011063,0.005736,0.0,0.0,0.0,0.087266,0.0,0.0,3.0,0.291471,0.340182,0.331237,0.3361,0.204743,3e-05,-0.000341,0.043724,-0.000826,-0.002753,0.0,0.0,0.0,0.0,0.0,0.0
130219,0.139616,-0.011074,0.005865,0.0,0.0,0.0,0.087266,0.0,0.0,3.0,0.307984,0.330525,0.337122,0.325554,0.205598,2.5e-05,-0.000397,0.04118,-0.000808,-0.002659,0.0,0.0,0.0,0.0,0.0,0.0
130239,0.140832,-0.011329,0.00601,0.0,0.0,0.0,0.087266,0.0,0.0,3.0,0.298882,0.337632,0.330869,0.332818,0.206403,2e-05,-0.000452,0.038628,-0.000789,-0.002566,0.0,0.0,0.0,0.0,0.0,0.0
130259,0.142179,-0.011584,0.006156,0.0,0.0,0.0,0.087266,0.0,0.0,3.0,0.293927,0.341896,0.328412,0.335074,0.207156,1.5e-05,-0.000505,0.036071,-0.000771,-0.002474,0.0,0.0,0.0,0.0,0.0,0.0
130279,0.143405,-0.011587,0.006163,0.0,0.0,0.0,0.087266,0.0,0.0,3.0,0.302077,0.332007,0.335525,0.331043,0.207858,1e-05,-0.000556,0.033509,-0.000752,-0.002385,0.0,0.0,0.0,0.0,0.0,0.0
130299,0.144509,-0.011598,0.006291,0.0,0.0,0.0,0.087266,0.0,0.0,3.0,0.291705,0.343254,0.329823,0.334142,0.208509,5e-06,-0.000605,0.030943,-0.000734,-0.002296,0.0,0.0,0.0,0.0,0.0,0.0
130319,0.145725,-0.01174,0.006549,0.0,0.0,0.0,0.087266,0.0,0.0,3.0,0.29347,0.340306,0.336712,0.328788,0.209109,1e-06,-0.000652,0.028374,-0.000715,-0.00221,0.0,0.0,0.0,0.0,0.0,0.0
130339,0.146948,-0.012239,0.006714,0.0,0.0,0.0,0.087266,0.0,0.0,3.0,0.288615,0.344038,0.33529,0.330411,0.209657,-4e-06,-0.000698,0.025804,-0.000696,-0.002124,0.0,0.0,0.0,0.0,0.0,0.0
130359,0.148173,-0.012373,0.006852,0.0,0.0,0.0,0.087266,0.0,0.0,3.0,0.296156,0.336097,0.338291,0.329214,0.210154,-9e-06,-0.000741,0.023233,-0.000678,-0.002041,0.0,0.0,0.0,0.0,0.0,0.0
130379,0.1494,-0.012377,0.006859,0.0,0.0,0.0,0.087266,0.0,0.0,3.0,0.304133,0.332523,0.342586,0.321215,0.210599,-1.4e-05,-0.000784,0.020663,-0.000659,-0.001959,0.0,0.0,0.0,0.0,0.0,0.0
130399,0.150495,-0.012501,0.006874,0.0,0.0,0.0,0.087266,0.0,0.0,3.0,0.298407,0.33651,0.335707,0.3295,0.210993,-1.8e-05,-0.000824,0.018094,-0.00064,-0.001878,0.0,0.0,0.0,0.0,0.0,0.0
130419,0.15172,-0.012757,0.007022,0.0,0.0,0.0,0.087266,0.0,0.0,3.0,0.295042,0.339648,0.335098,0.329788,0.211336,-2.3e-05,-0.000863,0.015528,-0.000622,-0.0018,0.0,0.0,0.0,0.0,0.0,0.0
130439,0.153065,-0.013022,0.007292,0.0,0.0,0.0,0.087266,0.0,0.0,3.0,0.285501,0.344425,0.329657,0.338121,0.211627,-2.8e-05,-0.0009,0.012965,-0.000604,-0.001722,0.0,0.0,0.0,0.0,0.0,0.0
130459,0.153917,-0.012912,0.007409,0.0,0.0,0.0,0.087266,0.0,0.0,3.0,0.286369,0.339415,0.332661,0.339593,0.211867,-3.2e-05,-0.000936,0.010407,-0.000585,-0.001647,0.0,0.0,0.0,0.0,0.0,0.0
130479,0.155144,-0.012794,0.007407,0.0,0.0,0.0,0.087266,0.0,0.0,3.0,0.292134,0.334942,0.340356,0.331678,0.212056,-3.7e-05,-0.00097,0.007855,-0.000567,-0.001572,0.0,0.0,0.0,0.0,0.0,0.0
130499,0.156127,-0.012797,0.007413,0.0,0.0,0.0,0.087266,0.0,0.0,3.0,0.283007,0.344768,0.333711,0.335771,0.212194,-4.1e-05,-0.001002,0.00531,-0.000549,-0.0015,0.0,0.0,0.0,0.0,0.0,0.0
130519,0.157229,-0.012941,0.007673,0.0,0.0,0.0,0.087266,0.0,0.0,3.0,0.28115,0.343994,0.336089,0.335659,0.212281,-4.6e-05,-0.001033,0.002772,-0.000531,-0.001428,0.0,0.0,0.0,0.0,0.0,0.0
130539,0.158324,-0.013187,0.007698,0.0,0.0,0.0,0.087266,0.0,0.0,3.0,0.2829,0.346072,0.336391,0.331797,0.212318,-5e-05,-0.001063,0.000243,-0.000514,-0.001359,0.0,0.0,0.0,0.0,0.0,0.0
130559,0.158941,-0.013311,0.007712,0.0,0.0,0.0,0.087266,0.0,0.0,3.0,0.295006,0.338321,0.336274,0.329991,0.212304,-5.4e-05,-0.001091,-0.002276,-0.000496,-0.001291,0.0,0.0,0.0,0.0,0.0,0.0
130579,0.159793,-0.013079,0.007819,0.0,0.0,0.0,0.087266,0.0,0.0,3.0,0.284924,0.345011,0.331421,0.336258,0.212239,-5.8e-05,-0.001118,-0.004785,-0.000479,-0.001224,0.0,0.0,0.0,0.0,0.0,0.0
130599,0.160411,-0.013081,0.007823,0.0,0.0,0.0,0.087266,0.0,0.0,3.0,0.290977,0.340564,0.33546,0.331905,0.212125,-6.3e-05,-0.001143,-0.007282,-0.000462,-0.001159,0.0,0.0,0.0,0.0,0.0,0.0
130619,0.161019,-0.013326,0.007846,0.0,0.0,0.0,0.087266,0.0,0.0,3.0,0.292153,0.339397,0.338053,0.329472,0.211961,-6.7e-05,-0.001168,-0.009766,-0.000445,-0.001095,0.0,0.0,0.0,0.0,0.0,0.0
130639,0.161636,-0.013572,0.00787,0.0,0.0,0.0,0.087266,0.0,0.0,3.0,0.28038,0.342554,0.335309,0.338507,0.211747,-7.1e-05,-0.00119,-0.012237,-0.000428,-0.001033,0.0,0.0,0.0,0.0,0.0,0.0
130659,0.162243,-0.013583,0.007995,0.0,0.0,0.0,0.087266,0.0,0.0,3.0,0.294196,0.33394,0.339055,0.332295,0.211484,-7.5e-05,-0.001212,-0.014694,-0.000411,-0.000972,0.0,0.0,0.0,0.0,0.0,0.0
130679,0.162732,-0.013209,0.007846,0.0,0.0,0.0,0.087266,0.0,0.0,3.0,0.29124,0.335012,0.341605,0.331059,0.211171,-7.9e-05,-0.001232,-0.017134,-0.000395,-0.000912,0.0,0.0,0.0,0.0,0.0,0.0
130699,0.163473,-0.01309,0.007842,0.0,0.0,0.0,0.087266,0.0,0.0,3.0,0.285684,0.336481,0.34389,0.331757,0.210811,-8.3e-05,-0.001251,-0.019559,-0.000379,-0.000854,0.0,0.0,0.0,0.0,0.0,0.0
130719,0.164201,-0.013345,0.007987,0.0,0.0,0.0,0.087266,0.0,0.0,3.0,0.283721,0.347219,0.338539,0.327689,0.210401,-8.6e-05,-0.001269,-0.021966,-0.000363,-0.000797,0.0,0.0,0.0,0.0,0.0,0.0
130739,0.164819,-0.013348,0.007992,0.0,0.0,0.0,0.087266,0.0,0.0,3.0,0.288725,0.343199,0.338541,0.327852,0.209944,-9e-05,-0.001286,-0.024355,-0.000348,-0.000742,0.0,0.0,0.0,0.0,0.0,0.0
130759,0.165307,-0.013339,0.007872,0.0,0.0,0.0,0.087266,0.0,0.0,3.0,0.298596,0.336281,0.343774,0.321016,0.209439,-9.4e-05,-0.001301,-0.026725,-0.000332,-0.000688,0.0,0.0,0.0,0.0,0.0,0.0
130779,0.165795,-0.013086,0.007733,0.0,0.0,0.0,0.087266,0.0,0.0,3.0,0.302605,0.330982,0.343128,0.323632,0.208887,-9.7e-05,-0.001316,-0.029076,-0.000317,-0.000636,0.0,0.0,0.0,0.0,0.0,0.0
130799,0.16617,-0.01321,0.007747,0.0,0.0,0.0,0.087266,0.0,0.0,3.0,0.295327,0.333893,0.342781,0.32748,0.208288,-0.000101,-0.001329,-0.031405,-0.000303,-0.000584,0.0,0.0,0.0,0.0,0.0,0.0
130819,0.166655,-0.013576,0.007779,0.0,0.0,0.0,0.087266,0.0,0.0,3.0,0.286401,0.342572,0.335576,0.333468,0.207643,-0.000105,-0.001341,-0.033713,-0.000288,-0.000534,0.0,0.0,0.0,0.0,0.0,0.0
130839,0.167141,-0.013698,0.007792,0.0,0.0,0.0,0.087266,0.0,0.0,3.0,0.294242,0.336699,0.342693,0.325608,0.206951,-0.000108,-0.001353,-0.035998,-0.000274,-0.000486,0.0,0.0,0.0,0.0,0.0,0.0
