time_ms,roll,pitch,yaw,x,y,z,reference_roll,reference_pitch,reference_yaw,reference_throttle,throttle_1,throttle_2,throttle_3,throttle_4,roll_predicted,pitch_predicted,yaw_predicted,roll_rate_predicted,pitch_rate_predicted,yaw_rate_predicted,value1,value2,value3,value4,value5,value6
156639,0.035539,0.003647,0.007622,0.0,0.0,0.0,0.0,0.0,0.0,3.0,0.329143,0.326161,0.316839,0.329792,0.10334,1.3e-05,2.7e-05,-0.004894,-0.000124,-2.2e-05,0.0,0.0,0.0,0.0,0.0,0.0
156659,0.036272,0.00364,0.007865,0.0,0.0,0.0,0.0,0.0,0.0,3.0,0.32465,0.33402,0.306556,0.335809,0.103227,1.1e-05,2.6e-05,-0.006956,-0.000124,-2.1e-05,0.0,0.0,0.0,0.0,0.0,0.0
156679,0.037129,0.003756,0.007984,0.0,0.0,0.0,0.0,0.0,0.0,3.0,0.327858,0.327926,0.311216,0.33454,0.103072,8e-06,2.6e-05,-0.009007,-0.000124,-2.1e-05,0.0,0.0,0.0,0.0,0.0,0.0
156699,0.037862,0.003751,0.008105,0.0,0.0,0.0,0.0,0.0,0.0,3.0,0.329998,0.332213,0.312204,0.327233,0.102877,6e-06,2.5e-05,-0.011048,-0.000123,-2.1e-05,0.0,0.0,0.0,0.0,0.0,0.0
156719,0.038594,0.003743,0.008347,0.0,0.0,0.0,0.0,0.0,0.0,3.0,0.330815,0.332343,0.309189,0.329073,0.10264,3e-06,2.4e-05,-0.013077,-0.000123,-2e-05,0.0,0.0,0.0,0.0,0.0,0.0
156739,0.039329,0.004101,0.008582,0.0,0.0,0.0,0.0,0.0,0.0,3.0,0.321629,0.335603,0.305673,0.33787,0.102364,1e-06,2.4e-05,-0.015094,-0.000123,-2e-05,0.0,0.0,0.0,0.0,0.0,0.0
156759,0.040184,0.004217,0.0087,0.0,0.0,0.0,0.0,0.0,0.0,3.0,0.321398,0.333002,0.308631,0.338054,0.102047,-1e-06,2.3e-05,-0.017098,-0.000122,-1.9e-05,0.0,0.0,0.0,0.0,0.0,0.0
156779,0.040795,0.004334,0.008818,0.0,0.0,0.0,0.0,0.0,0.0,3.0,0.325838,0.331727,0.303699,0.339419,0.10169,-4e-06,2.3e-05,-0.019088,-0.000122,-1.9e-05,0.0,0.0,0.0,0.0,0.0,0.0
156799,0.041649,0.004328,0.008938,0.0,0.0,0.0,0.0,0.0,0.0,3.0,0.328173,0.332801,0.307768,0.332532,0.101293,-6e-06,2.2e-05,-0.021063,-0.000121,-1.9e-05,0.0,0.0,0.0,0.0,0.0,0.0
156819,0.042626,0.004321,0.009057,0.0,0.0,0.0,0.0,0.0,0.0,3.0,0.325096,0.331457,0.311329,0.333645,0.100857,-9e-06,2.1e-05,-0.023023,-0.00012,-1.8e-05,0.0,0.0,0.0,0.0,0.0,0.0
156839,0.043484,0.004436,0.009176,0.0,0.0,0.0,0.0,0.0,0.0,3.0,0.326453,0.326067,0.315326,0.333946,0.100382,-1.1e-05,2.1e-05,-0.024968,-0.00012,-1.8e-05,0.0,0.0,0.0,0.0,0.0,0.0
156859,0.044459,0.004187,0.009179,0.0,0.0,0.0,0.0,0.0,0.0,3.0,0.327026,0.329438,0.32125,0.324369,0.099868,-1.3e-05,2e-05,-0.026895,-0.000119,-1.8e-05,0.0,0.0,0.0,0.0,0.0,0.0
156879,0.045192,0.004181,0.009299,0.0,0.0,0.0,0.0,0.0,0.0,3.0,0.327552,0.328174,0.314097,0.331955,0.099316,-1.6e-05,2e-05,-0.028805,-0.000118,-1.7e-05,0.0,0.0,0.0,0.0,0.0,0.0
156899,0.046046,0.004174,0.009419,0.0,0.0,0.0,0.0,0.0,0.0,3.0,0.325159,0.330404,0.313829,0.332336,0.098726,-1.8e-05,1.9e-05,-0.030696,-0.000118,-1.7e-05,0.0,0.0,0.0,0.0,0.0,0.0
156919,0.046899,0.003923,0.009544,0.0,0.0,0.0,0.0,0.0,0.0,3.0,0.325926,0.33436,0.313648,0.327757,0.098098,-2e-05,1.8e-05,-0.032569,-0.000117,-1.7e-05,0.0,0.0,0.0,0.0,0.0,0.0
156939,0.047877,0.004038,0.009661,0.0,0.0,0.0,0.0,0.0,0.0,3.0,0.321574,0.333067,0.316377,0.330759,0.097432,-2.3e-05,1.8e-05,-0.034422,-0.000116,-1.6e-05,0.0,0.0,0.0,0.0,0.0,0.0
156959,0.048735,0.004153,0.009779,0.0,0.0,0.0,0.0,0.0,0.0,3.0,0.32056,0.332643,0.308294,0.338378,0.096909,-2.4e-05,1.7e-05,-0.035799,-0.000115,-1.6e-05,0.0,0.0,0.0,0.0,0.0,0.0
156979,0.049467,0.004149,0.009778,0.0,0.0,0.0,0.0,0.0,0.0,3.0,0.32569,0.329577,0.314985,0.331564,0.095991,-2.7e-05,1.7e-05,-0.038068,-0.000114,-1.6e-05,0.0,0.0,0.0,0.0,0.0,0.0
156999,0.050321,0.004145,0.009775,0.0,0.0,0.0,0.0,0.0,0.0,3.0,0.324645,0.328504,0.316433,0.332289,0.095217,-2.9e-05,1.6e-05,-0.039858,-0.000113,-1.5e-05,0.0,0.0,0.0,0.0,0.0,0.0
157019,0.050931,0.004016,0.009899,0.0,0.0,0.0,0.0,0.0,0.0,3.0,0.32343,0.334313,0.309603,0.333966,0.094406,-3.1e-05,1.6e-05,-0.041627,-0.000112,-1.5e-05,0.0,0.0,0.0,0.0,0.0,0.0
157039,0.051786,0.004134,0.009893,0.0,0.0,0.0,0.0,0.0,0.0,3.0,0.321619,0.32874,0.318521,0.333007,0.093561,-3.4e-05,1.5e-05,-0.043372,-0.000111,-1.5e-05,0.0,0.0,0.0,0.0,0.0,0.0
157059,0.052395,0.004009,0.009895,0.0,0.0,0.0,0.0,0.0,0.0,3.0,0.322141,0.330449,0.317904,0.331398,0.09268,-3.6e-05,1.5e-05,-0.045095,-0.00011,-1.4e-05,0.0,0.0,0.0,0.0,0.0,0.0
157079,0.052883,0.003884,0.009897,0.0,0.0,0.0,0.0,0.0,0.0,3.0,0.32235,0.33068,0.317451,0.331394,0.091765,-3.8e-05,1.4e-05,-0.046793,-0.000109,-1.4e-05,0.0,0.0,0.0,0.0,0.0,0.0
157099,0.053251,0.003761,0.009901,0.0,0.0,0.0,0.0,0.0,0.0,3.0,0.323073,0.331191,0.316294,0.331275,0.090817,-4e-05,1.4e-05,-0.048466,-0.000107,-1.4e-05,0.0,0.0,0.0,0.0,0.0,0.0
157119,0.053617,0.003637,0.009903,0.0,0.0,0.0,0.0,0.0,0.0,3.0,0.328161,0.32959,0.314403,0.329663,0.089835,-4.2e-05,1.3e-05,-0.050115,-0.000106,-1.4e-05,0.0,0.0,0.0,0.0,0.0,0.0
157139,0.053983,0.003635,0.009902,0.0,0.0,0.0,0.0,0.0,0.0,3.0,0.326177,0.333844,0.31245,0.329159,0.088821,-4.4e-05,1.3e-05,-0.051738,-0.000105,-1.4e-05,0.0,0.0,0.0,0.0,0.0,0.0
157159,0.054471,0.00351,0.009904,0.0,0.0,0.0,0.0,0.0,0.0,3.0,0.325396,0.332963,0.312993,0.330316,0.087774,-4.6e-05,1.2e-05,-0.053334,-0.000104,-1.3e-05,0.0,0.0,0.0,0.0,0.0,0.0
157179,0.054959,0.003633,0.009778,0.0,0.0,0.0,0.0,0.0,0.0,3.0,0.324294,0.325743,0.32026,0.331721,0.086696,-4.8e-05,1.2e-05,-0.054904,-0.000102,-1.3e-05,0.0,0.0,0.0,0.0,0.0,0.0
157199,0.055325,0.003509,0.00978,0.0,0.0,0.0,0.0,0.0,0.0,3.0,0.32231,0.329336,0.316855,0.333323,0.085586,-5e-05,1.2e-05,-0.056446,-0.000101,-1.3e-05,0.0,0.0,0.0,0.0,0.0,0.0
157219,0.055689,0.003267,0.009664,0.0,0.0,0.0,0.0,0.0,0.0,3.0,0.32487,0.33177,0.316834,0.328427,0.084446,-5.2e-05,1.1e-05,-0.05796,-9.9e-05,-1.3e-05,0.0,0.0,0.0,0.0,0.0,0.0
157239,0.056056,0.003387,0.00966,0.0,0.0,0.0,0.0,0.0,0.0,3.0,0.322814,0.330153,0.315848,0.332973,0.083275,-5.4e-05,1.1e-05,-0.059446,-9.8e-05,-1.3e-05,0.0,0.0,0.0,0.0,0.0,0.0
157259,0.056299,0.003142,0.009666,0.0,0.0,0.0,0.0,0.0,0.0,3.0,0.318588,0.335847,0.312122,0.334727,0.082075,-5.6e-05,1e-05,-0.060903,-9.7e-05,-1.2e-05,0.0,0.0,0.0,0.0,0.0,0.0
157279,0.056665,0.003266,0.00954,0.0,0.0,0.0,0.0,0.0,0.0,3.0,0.322391,0.328367,0.317374,0.333712,0.080846,-5.8e-05,1e-05,-0.06233,-9.5e-05,-1.2e-05,0.0,0.0,0.0,0.0,0.0,0.0
157299,0.056908,0.003024,0.009424,0.0,0.0,0.0,0.0,0.0,0.0,3.0,0.327373,0.329598,0.317453,0.327549,0.079589,-6e-05,9e-06,-0.063728,-9.3e-05,-1.2e-05,0.0,0.0,0.0,0.0,0.0,0.0
157319,0.057152,0.003023,0.009424,0.0,0.0,0.0,0.0,0.0,0.0,3.0,0.323945,0.331584,0.314157,0.332033,0.078304,-6.2e-05,9e-06,-0.065096,-9.2e-05,-1.2e-05,0.0,0.0,0.0,0.0,0.0,0.0
157339,0.057518,0.003024,0.009301,0.0,0.0,0.0,0.0,0.0,0.0,3.0,0.323914,0.327596,0.316098,0.334194,0.076992,-6.4e-05,9e-06,-0.066432,-9e-05,-1.2e-05,0.0,0.0,0.0,0.0,0.0,0.0
157359,0.057765,0.002901,0.009306,0.0,0.0,0.0,0.0,0.0,0.0,3.0,0.322344,0.327714,0.31586,0.335795,0.075654,-6.5e-05,8e-06,-0.067738,-8.9e-05,-1.2e-05,0.0,0.0,0.0,0.0,0.0,0.0
157379,0.058129,0.002537,0.009193,0.0,0.0,0.0,0.0,0.0,0.0,3.0,0.327192,0.328034,0.323928,0.322967,0.07429,-6.7e-05,8e-06,-0.069012,-8.7e-05,-1.1e-05,0.0,0.0,0.0,0.0,0.0,0.0
157399,0.05825,0.002292,0.0092,0.0,0.0,0.0,0.0,0.0,0.0,3.0,0.323143,0.336008,0.31421,0.328275,0.0729,-6.9e-05,8e-06,-0.070254,-8.5e-05,-1.1e-05,0.0,0.0,0.0,0.0,0.0,0.0
157419,0.058617,0.002416,0.009074,0.0,0.0,0.0,0.0,0.0,0.0,3.0,0.318775,0.332098,0.32021,0.330775,0.071486,-7.1e-05,7e-06,-0.071464,-8.4e-05,-1.1e-05,0.0,0.0,0.0,0.0,0.0,0.0
157439,0.05886,0.002419,0.008952,0.0,0.0,0.0,0.0,0.0,0.0,3.0,0.32277,0.328623,0.321696,0.328979,0.070048,-7.2e-05,7e-06,-0.072641,-8.2e-05,-1.1e-05,0.0,0.0,0.0,0.0,0.0,0.0
157459,0.058983,0.002418,0.008951,0.0,0.0,0.0,0.0,0.0,0.0,3.0,0.322102,0.329352,0.315756,0.334526,0.068586,-7.4e-05,7e-06,-0.073785,-8e-05,-1.1e-05,0.0,0.0,0.0,0.0,0.0,0.0
157479,0.058982,0.002422,0.008829,0.0,0.0,0.0,0.0,0.0,0.0,3.0,0.325228,0.330259,0.315279,0.331063,0.067102,-7.5e-05,6e-06,-0.074895,-7.8e-05,-1.1e-05,0.0,0.0,0.0,0.0,0.0,0.0
157499,0.059104,0.002421,0.008829,0.0,0.0,0.0,0.0,0.0,0.0,3.0,0.323162,0.330182,0.314085,0.334242,0.065596,-7.7e-05,6e-06,-0.075972,-7.6e-05,-1.1e-05,0.0,0.0,0.0,0.0,0.0,0.0
157519,0.059227,0.002546,0.008703,0.0,0.0,0.0,0.0,0.0,0.0,3.0,0.32361,0.32567,0.320808,0.331932,0.064069,-7.8e-05,6e-06,-0.077015,-7.5e-05,-1.1e-05,0.0,0.0,0.0,0.0,0.0,0.0
157539,0.059348,0.002424,0.008707,0.0,0.0,0.0,0.0,0.0,0.0,3.0,0.316936,0.328995,0.320648,0.335158,0.062521,-8e-05,5e-06,-0.078023,-7.3e-05,-1.1e-05,0.0,0.0,0.0,0.0,0.0,0.0
157559,0.058982,0.002307,0.008589,0.0,0.0,0.0,0.0,0.0,0.0,3.0,0.325332,0.330747,0.314677,0.331037,0.060953,-8.1e-05,5e-06,-0.078997,-7.1e-05,-1e-05,0.0,0.0,0.0,0.0,0.0,0.0
157579,0.058981,0.002189,0.00847,0.0,0.0,0.0,0.0,0.0,0.0,3.0,0.328289,0.326995,0.322312,0.32452,0.059366,-8.3e-05,5e-06,-0.079935,-6.9e-05,-1e-05,0.0,0.0,0.0,0.0,0.0,0.0
157599,0.058981,0.002311,0.008467,0.0,0.0,0.0,0.0,0.0,0.0,3.0,0.319693,0.333045,0.317432,0.331587,0.05776,-8.4e-05,4e-06,-0.080839,-6.7e-05,-1e-05,0.0,0.0,0.0,0.0,0.0,0.0
157619,0.059103,0.00231,0.008467,0.0,0.0,0.0,0.0,0.0,0.0,3.0,0.316824,0.330605,0.31975,0.334529,0.056137,-8.5e-05,4e-06,-0.081707,-6.5e-05,-1e-05,0.0,0.0,0.0,0.0,0.0,0.0
157639,0.058859,0.002315,0.008345,0.0,0.0,0.0,0.0,0.0,0.0,3.0,0.323208,0.33055,0.314851,0.333128,0.054497,-8.7e-05,4e-06,-0.08254,-6.3e-05,-1e-05,0.0,0.0,0.0,0.0,0.0,0.0
157659,0.058981,0.002196,0.008226,0.0,0.0,0.0,0.0,0.0,0.0,3.0,0.32773,0.326794,0.322448,0.325154,0.05284,-8.8e-05,4e-06,-0.083336,-6.1e-05,-1e-05,0.0,0.0,0.0,0.0,0.0,0.0
157679,0.059104,0.002439,0.008219,0.0,0.0,0.0,0.0,0.0,0.0,3.0,0.320961,0.329911,0.316271,0.334584,0.051167,-8.9e-05,3e-06,-0.084097,-5.9e-05,-1e-05,0.0,0.0,0.0,0.0,0.0,0.0
157699,0.059104,0.002439,0.008219,0.0,0.0,0.0,0.0,0.0,0.0,3.0,0.317742,0.331365,0.316678,0.335793,0.04948,-9e-05,3e-06,-0.084822,-5.7e-05,-1e-05,0.0,0.0,0.0,0.0,0.0,0.0
157719,0.059225,0.00232,0.0081,0.0,0.0,0.0,0.0,0.0,0.0,3.0,0.318325,0.331372,0.31926,0.33283,0.047778,-9.1e-05,3e-06,-0.08551,-5.5e-05,-1e-05,0.0,0.0,0.0,0.0,0.0,0.0
157739,0.059102,0.00208,0.007986,0.0,0.0,0.0,0.0,0.0,0.0,3.0,0.318999,0.335375,0.319772,0.327643,0.046063,-9.2e-05,3e-06,-0.086161,-5.3e-05,-1e-05,0.0,0.0,0.0,0.0,0.0,0.0
157759,0.059224,0.00208,0.007985,0.0,0.0,0.0,0.0,0.0,0.0,3.0,0.316325,0.332609,0.319551,0.333196,0.044335,-9.3e-05,2e-06,-0.086776,-5.1e-05,-1e-05,0.0,0.0,0.0,0.0,0.0,0.0
157779,0.059224,0.002087,0.007741,0.0,0.0,0.0,0.0,0.0,0.0,3.0,0.319614,0.327689,0.325224,0.329516,0.042595,-9.4e-05,2e-06,-0.087354,-4.9e-05,-9e-06,0.0,0.0,0.0,0.0,0.0,0.0
157799,0.059223,0.001969,0.007623,0.0,0.0,0.0,0.0,0.0,0.0,3.0,0.322222,0.329364,0.322866,0.32763,0.040844,-9.5e-05,2e-06,-0.087895,-4.7e-05,-9e-06,0.0,0.0,0.0,0.0,0.0,0.0
157819,0.059345,0.001968,0.007623,0.0,0.0,0.0,0.0,0.0,0.0,3.0,0.319981,0.330942,0.321465,0.329577,0.039082,-9.6e-05,2e-06,-0.088399,-4.4e-05,-9e-06,0.0,0.0,0.0,0.0,0.0,0.0
157839,0.059467,0.001849,0.007504,0.0,0.0,0.0,0.0,0.0,0.0,3.0,0.319257,0.331375,0.321934,0.329382,0.037311,-9.7e-05,1e-06,-0.088865,-4.2e-05,-9e-06,0.0,0.0,0.0,0.0,0.0,0.0
157859,0.059345,0.001853,0.007382,0.0,0.0,0.0,0.0,0.0,0.0,3.0,0.325125,0.325086,0.325157,0.326788,0.03553,-9.8e-05,1e-06,-0.089295,-4e-05,-9e-06,0.0,0.0,0.0,0.0,0.0,0.0
157879,0.059344,0.001609,0.00739,0.0,0.0,0.0,0.0,0.0,0.0,3.0,0.316601,0.334973,0.319427,0.330673,0.033741,-9.9e-05,1e-06,-0.089687,-3.8e-05,-9e-06,0.0,0.0,0.0,0.0,0.0,0.0
157899,0.0591,0.001736,0.007264,0.0,0.0,0.0,0.0,0.0,0.0,3.0,0.320019,0.32985,0.317718,0.334187,0.031945,-9.9e-05,1e-06,-0.090043,-3.6e-05,-9e-06,0.0,0.0,0.0,0.0,0.0,0.0
157919,0.058977,0.001618,0.007146,0.0,0.0,0.0,0.0,0.0,0.0,3.0,0.317422,0.331162,0.320197,0.332999,0.030142,-0.0001,1e-06,-0.09036,-3.4e-05,-9e-06,0.0,0.0,0.0,0.0,0.0,0.0
157939,0.058855,0.0015,0.007028,0.0,0.0,0.0,0.0,0.0,0.0,3.0,0.320318,0.332332,0.318776,0.330435,0.028332,-0.000101,0.0,-0.090641,-3.2e-05,-9e-06,0.0,0.0,0.0,0.0,0.0,0.0
157959,0.058976,0.001381,0.006909,0.0,0.0,0.0,0.0,0.0,0.0,3.0,0.322601,0.328016,0.323859,0.33447,0.026972,-0.000101,0.0,-0.090827,-3e-05,-9e-06,0.0,0.0,0.0,0.0,0.0,0.0
157979,0.059221,0.001502,0.006905,0.0,0.0,0.0,0.0,0.0,0.0,3.0,0.314254,0.328083,0.327727,0.331726,0.024698,-0.000102,0.0,-0.09109,-2.7e-05,-8e-06,0.0,0.0,0.0,0.0,0.0,0.0
157999,0.059343,0.001506,0.006783,0.0,0.0,0.0,0.0,0.0,0.0,3.0,0.316323,0.326862,0.32701,0.3317,0.022875,-0.000102,-0.0,-0.091259,-2.5e-05,-8e-06,0.0,0.0,0.0,0.0,0.0,0.0
158019,0.05922,0.001388,0.006665,0.0,0.0,0.0,0.0,0.0,0.0,3.0,0.313558,0.330942,0.322977,0.334154,0.021506,-0.000103,-0.0,-0.091361,-2.4e-05,-8e-06,0.0,0.0,0.0,0.0,0.0,0.0
158039,0.059342,0.001265,0.006668,0.0,0.0,0.0,0.0,0.0,0.0,3.0,0.31943,0.330626,0.325355,0.326615,0.01922,-0.000103,-0.0,-0.091485,-2.1e-05,-8e-06,0.0,0.0,0.0,0.0,0.0,0.0
158059,0.059221,0.00151,0.006661,0.0,0.0,0.0,0.0,0.0,0.0,3.0,0.316034,0.33059,0.320167,0.334884,0.01739,-0.000104,-1e-06,-0.091542,-1.9e-05,-8e-06,0.0,0.0,0.0,0.0,0.0,0.0
158079,0.059221,0.001513,0.006539,0.0,0.0,0.0,0.0,0.0,0.0,3.0,0.311738,0.329699,0.325609,0.334512,0.015559,-0.000104,-1e-06,-0.091563,-1.6e-05,-8e-06,0.0,0.0,0.0,0.0,0.0,0.0
158099,0.058855,0.001518,0.006418,0.0,0.0,0.0,0.0,0.0,0.0,3.0,0.32113,0.329627,0.32141,0.329842,0.013728,-0.000104,-1e-06,-0.091547,-1.4e-05,-8e-06,0.0,0.0,0.0,0.0,0.0,0.0
158119,0.058854,0.001396,0.006421,0.0,0.0,0.0,0.0,0.0,0.0,3.0,0.315338,0.332829,0.320279,0.333205,0.011897,-0.000105,-1e-06,-0.091493,-1.2e-05,-7e-06,0.0,0.0,0.0,0.0,0.0,0.0
158139,0.058854,0.001522,0.006296,0.0,0.0,0.0,0.0,0.0,0.0,3.0,0.315551,0.328329,0.32371,0.334183,0.010068,-0.000105,-1e-06,-0.091404,-1e-05,-7e-06,0.0,0.0,0.0,0.0,0.0,0.0
158159,0.05922,0.001276,0.006302,0.0,0.0,0.0,0.0,0.0,0.0,3.0,0.306841,0.333776,0.327912,0.332642,0.008241,-0.000105,-1e-06,-0.091278,-8e-06,-7e-06,0.0,0.0,0.0,0.0,0.0,0.0
158179,0.059098,0.001399,0.006299,0.0,0.0,0.0,0.0,0.0,0.0,3.0,0.310757,0.332212,0.324181,0.334296,0.006416,-0.000105,-2e-06,-0.091115,-6e-06,-7e-06,0.0,0.0,0.0,0.0,0.0,0.0
158199,0.059098,0.001402,0.006177,0.0,0.0,0.0,0.0,0.0,0.0,3.0,0.319179,0.326772,0.329811,0.326271,0.00505,-0.000105,-2e-06,-0.09097,-4e-06,-7e-06,0.0,0.0,0.0,0.0,0.0,0.0
158219,0.059098,0.001524,0.006173,0.0,0.0,0.0,0.0,0.0,0.0,3.0,0.313764,0.330982,0.321794,0.33505,0.002779,-0.000105,-2e-06,-0.090683,-1e-06,-7e-06,0.0,0.0,0.0,0.0,0.0,0.0
158239,0.059098,0.001528,0.006051,0.0,0.0,0.0,0.0,0.0,0.0,3.0,0.313616,0.331464,0.323154,0.333414,0.000967,-0.000105,-2e-06,-0.090413,1e-06,-6e-06,0.0,0.0,0.0,0.0,0.0,0.0
158259,0.059098,0.001528,0.006051,0.0,0.0,0.0,0.0,0.0,0.0,3.0,0.312076,0.329404,0.326511,0.333621,-0.000839,-0.000105,-2e-06,-0.090107,3e-06,-6e-06,0.0,0.0,0.0,0.0,0.0,0.0
158279,0.058854,0.001529,0.006052,0.0,0.0,0.0,0.0,0.0,0.0,3.0,0.312698,0.332342,0.322194,0.334301,-0.002638,-0.000105,-2e-06,-0.089766,5e-06,-6e-06,0.0,0.0,0.0,0.0,0.0,0.0
158299,0.05861,0.001407,0.006055,0.0,0.0,0.0,0.0,0.0,0.0,3.0,0.31093,0.334951,0.319877,0.335498,-0.004431,-0.000105,-2e-06,-0.089391,7e-06,-6e-06,0.0,0.0,0.0,0.0,0.0,0.0
158319,0.05861,0.001533,0.00593,0.0,0.0,0.0,0.0,0.0,0.0,3.0,0.312502,0.330025,0.325498,0.333602,-0.006216,-0.000105,-2e-06,-0.08898,9e-06,-6e-06,0.0,0.0,0.0,0.0,0.0,0.0
158339,0.058609,0.001293,0.005815,0.0,0.0,0.0,0.0,0.0,0.0,3.0,0.308808,0.335414,0.32696,0.330141,-0.007992,-0.000105,-3e-06,-0.088536,1.1e-05,-5e-06,0.0,0.0,0.0,0.0,0.0,0.0
158359,0.058488,0.001541,0.005686,0.0,0.0,0.0,0.0,0.0,0.0,3.0,0.318577,0.322434,0.330814,0.330112,-0.009759,-0.000105,-3e-06,-0.088057,1.3e-05,-5e-06,0.0,0.0,0.0,0.0,0.0,0.0
158379,0.05861,0.001418,0.005689,0.0,0.0,0.0,0.0,0.0,0.0,3.0,0.311295,0.332284,0.324068,0.333847,-0.011517,-0.000104,-3e-06,-0.087544,1.6e-05,-5e-06,0.0,0.0,0.0,0.0,0.0,0.0
158399,0.058732,0.001421,0.005567,0.0,0.0,0.0,0.0,0.0,0.0,3.0,0.318753,0.326926,0.329843,0.326497,-0.013263,-0.000104,-3e-06,-0.086997,1.8e-05,-5e-06,0.0,0.0,0.0,0.0,0.0,0.0
158419,0.05861,0.001418,0.005689,0.0,0.0,0.0,0.0,0.0,0.0,3.0,0.308885,0.33784,0.321962,0.332452,-0.014999,-0.000104,-3e-06,-0.086418,2e-05,-5e-06,0.0,0.0,0.0,0.0,0.0,0.0
158439,0.05861,0.001422,0.005567,0.0,0.0,0.0,0.0,0.0,0.0,3.0,0.308294,0.331482,0.327474,0.334056,-0.016723,-0.000103,-3e-06,-0.085805,2.2e-05,-4e-06,0.0,0.0,0.0,0.0,0.0,0.0
158459,0.058122,0.001545,0.005564,0.0,0.0,0.0,0.0,0.0,0.0,3.0,0.314246,0.3284,0.3208,0.338057,-0.018434,-0.000103,-3e-06,-0.08516,2.4e-05,-4e-06,0.0,0.0,0.0,0.0,0.0,0.0
158479,0.057751,0.001184,0.005452,0.0,0.0,0.0,0.0,0.0,0.0,3.0,0.315269,0.336184,0.328893,0.331052,-0.019709,-0.000102,-3e-06,-0.084655,2.5e-05,-4e-06,0.0,0.0,0.0,0.0,0.0,0.0
158499,0.057751,0.001306,0.005449,0.0,0.0,0.0,0.0,0.0,0.0,3.0,0.312747,0.332015,0.321741,0.33501,-0.021817,-0.000102,-3e-06,-0.083774,2.8e-05,-4e-06,0.0,0.0,0.0,0.0,0.0,0.0
158519,0.05763,0.001428,0.005445,0.0,0.0,0.0,0.0,0.0,0.0,3.0,0.309048,0.332411,0.324895,0.334954,-0.023487,-0.000101,-3e-06,-0.083034,3e-05,-3e-06,0.0,0.0,0.0,0.0,0.0,0.0
158539,0.057751,0.001309,0.005327,0.0,0.0,0.0,0.0,0.0,0.0,3.0,0.306395,0.330828,0.33239,0.33155,-0.025142,-0.000101,-3e-06,-0.082262,3.1e-05,-3e-06,0.0,0.0,0.0,0.0,0.0,0.0
158559,0.05763,0.001432,0.005323,0.0,0.0,0.0,0.0,0.0,0.0,3.0,0.309673,0.330961,0.327976,0.332839,-0.026781,-0.0001,-4e-06,-0.08146,3.3e-05,-3e-06,0.0,0.0,0.0,0.0,0.0,0.0
158579,0.057385,0.001307,0.005449,0.0,0.0,0.0,0.0,0.0,0.0,3.0,0.309556,0.3353,0.322194,0.334198,-0.028404,-9.9e-05,-4e-06,-0.080628,3.5e-05,-3e-06,0.0,0.0,0.0,0.0,0.0,0.0
158599,0.057629,0.00131,0.005327,0.0,0.0,0.0,0.0,0.0,0.0,3.0,0.314849,0.325529,0.332818,0.328595,-0.03001,-9.9e-05,-4e-06,-0.079766,3.7e-05,-2e-06,0.0,0.0,0.0,0.0,0.0,0.0
158619,0.057508,0.001432,0.005323,0.0,0.0,0.0,0.0,0.0,0.0,3.0,0.310076,0.332818,0.324249,0.334245,-0.031599,-9.8e-05,-4e-06,-0.078875,3.9e-05,-2e-06,0.0,0.0,0.0,0.0,0.0,0.0
158639,0.05763,0.001428,0.005445,0.0,0.0,0.0,0.0,0.0,0.0,3.0,0.296729,0.339177,0.321494,0.342037,-0.033169,-9.7e-05,-4e-06,-0.077955,4.1e-05,-2e-06,0.0,0.0,0.0,0.0,0.0,0.0
158659,0.057264,0.001673,0.005439,0.0,0.0,0.0,0.0,0.0,0.0,3.0,0.306021,0.334419,0.320903,0.339411,-0.034721,-9.6e-05,-4e-06,-0.077007,4.3e-05,-2e-06,0.0,0.0,0.0,0.0,0.0,0.0
158679,0.057142,0.001673,0.005439,0.0,0.0,0.0,0.0,0.0,0.0,3.0,0.302132,0.336697,0.319586,0.341721,-0.036254,-9.5e-05,-4e-06,-0.07603,4.4e-05,-1e-06,0.0,0.0,0.0,0.0,0.0,0.0
158699,0.056776,0.001678,0.005317,0.0,0.0,0.0,0.0,0.0,0.0,3.0,0.309735,0.328818,0.329114,0.33378,-0.037391,-9.5e-05,-4e-06,-0.07528,4.6e-05,-1e-06,0.0,0.0,0.0,0.0,0.0,0.0
158719,0.05641,0.001679,0.005318,0.0,0.0,0.0,0.0,0.0,0.0,3.0,0.311246,0.333338,0.321822,0.334986,-0.03926,-9.3e-05,-4e-06,-0.073996,4.8e-05,-1e-06,0.0,0.0,0.0,0.0,0.0,0.0
158739,0.056288,0.001801,0.005314,0.0,0.0,0.0,0.0,0.0,0.0,3.0,0.305036,0.330933,0.32774,0.337218,-0.040732,-9.3e-05,-4e-06,-0.072939,5e-05,-0.0,0.0,0.0,0.0,0.0,0.0,0.0
158759,0.0558,0.001803,0.005315,0.0,0.0,0.0,0.0,0.0,0.0,3.0,0.307621,0.333078,0.324902,0.335559,-0.042183,-9.2e-05,-4e-06,-0.071856,5.1e-05,-0.0,0.0,0.0,0.0,0.0,0.0,0.0
158779,0.055312,0.001929,0.00519,0.0,0.0,0.0,0.0,0.0,0.0,3.0,0.313854,0.327764,0.326326,0.333777,-0.043612,-9e-05,-4e-06,-0.070748,5.3e-05,0.0,0.0,0.0,0.0,0.0,0.0,0.0
158799,0.054825,0.002175,0.005184,0.0,0.0,0.0,0.0,0.0,0.0,3.0,0.309242,0.329254,0.324309,0.338423,-0.045018,-8.9e-05,-4e-06,-0.069614,5.5e-05,0.0,0.0,0.0,0.0,0.0,0.0,0.0
158819,0.054214,0.002054,0.005188,0.0,0.0,0.0,0.0,0.0,0.0,3.0,0.312653,0.334555,0.31973,0.334468,-0.046402,-8.8e-05,-4e-06,-0.068457,5.6e-05,1e-06,0.0,0.0,0.0,0.0,0.0,0.0
158839,0.053723,0.002181,0.005063,0.0,0.0,0.0,0.0,0.0,0.0,3.0,0.318823,0.326492,0.32648,0.330221,-0.047762,-8.7e-05,-4e-06,-0.067276,5.8e-05,1e-06,0.0,0.0,0.0,0.0,0.0,0.0
158859,0.053235,0.00206,0.005067,0.0,0.0,0.0,0.0,0.0,0.0,3.0,0.312024,0.335646,0.320844,0.332892,-0.049099,-8.6e-05,-4e-06,-0.066071,5.9e-05,1e-06,0.0,0.0,0.0,0.0,0.0,0.0
158879,0.052869,0.002186,0.004942,0.0,0.0,0.0,0.0,0.0,0.0,3.0,0.310155,0.331468,0.32429,0.33547,-0.050411,-8.5e-05,-4e-06,-0.064844,6.1e-05,2e-06,0.0,0.0,0.0,0.0,0.0,0.0
158899,0.052503,0.002065,0.004946,0.0,0.0,0.0,0.0,0.0,0.0,3.0,0.306471,0.334364,0.325653,0.33458,-0.051699,-8.4e-05,-4e-06,-0.063595,6.2e-05,2e-06,0.0,0.0,0.0,0.0,0.0,0.0
158919,0.052136,0.002069,0.004824,0.0,0.0,0.0,0.0,0.0,0.0,3.0,0.311406,0.328518,0.328302,0.333355,-0.052961,-8.2e-05,-4e-06,-0.062324,6.4e-05,2e-06,0.0,0.0,0.0,0.0,0.0,0.0
158939,0.05177,0.00207,0.004825,0.0,0.0,0.0,0.0,0.0,0.0,3.0,0.308059,0.332912,0.324654,0.335572,-0.054198,-8.1e-05,-4e-06,-0.061033,6.5e-05,2e-06,0.0,0.0,0.0,0.0,0.0,0.0
158959,0.051526,0.001952,0.004706,0.0,0.0,0.0,0.0,0.0,0.0,3.0,0.308856,0.330066,0.330445,0.332031,-0.055409,-8e-05,-4e-06,-0.059721,6.7e-05,3e-06,0.0,0.0,0.0,0.0,0.0,0.0
158979,0.051282,0.001956,0.004584,0.0,0.0,0.0,0.0,0.0,0.0,3.0,0.308674,0.331755,0.330833,0.330121,-0.056593,-7.8e-05,-5e-06,-0.05839,6.8e-05,3e-06,0.0,0.0,0.0,0.0,0.0,0.0
158999,0.050915,0.001957,0.004585,0.0,0.0,0.0,0.0,0.0,0.0,3.0,0.303852,0.333719,0.328498,0.334774,-0.057751,-7.7e-05,-5e-06,-0.057039,6.9e-05,3e-06,0.0,0.0,0.0,0.0,0.0,0.0
159019,0.050427,0.002083,0.00446,0.0,0.0,0.0,0.0,0.0,0.0,3.0,0.309428,0.328414,0.330205,0.333381,-0.058881,-7.6e-05,-5e-06,-0.05567,7e-05,4e-06,0.0,0.0,0.0,0.0,0.0,0.0
159039,0.049817,0.002084,0.004461,0.0,0.0,0.0,0.0,0.0,0.0,3.0,0.311416,0.332529,0.321559,0.335881,-0.059984,-7.4e-05,-5e-06,-0.054283,7.2e-05,4e-06,0.0,0.0,0.0,0.0,0.0,0.0
159059,0.049329,0.002088,0.00434,0.0,0.0,0.0,0.0,0.0,0.0,3.0,0.318477,0.325831,0.328391,0.32931,-0.06106,-7.3e-05,-5e-06,-0.052879,7.3e-05,4e-06,0.0,0.0,0.0,0.0,0.0,0.0
159079,0.048838,0.002089,0.00434,0.0,0.0,0.0,0.0,0.0,0.0,3.0,0.309189,0.333923,0.323917,0.334261,-0.062106,-7.1e-05,-5e-06,-0.051458,7.4e-05,4e-06,0.0,0.0,0.0,0.0,0.0,0.0
159099,0.048106,0.002094,0.004219,0.0,0.0,0.0,0.0,0.0,0.0,3.0,0.313249,0.331633,0.32128,0.335365,-0.063125,-7e-05,-5e-06,-0.050021,7.5e-05,5e-06,0.0,0.0,0.0,0.0,0.0,0.0
159119,0.047495,0.002095,0.004219,0.0,0.0,0.0,0.0,0.0,0.0,3.0,0.304919,0.334822,0.320465,0.340373,-0.064114,-6.8e-05,-5e-06,-0.048569,7.6e-05,5e-06,0.0,0.0,0.0,0.0,0.0,0.0
159139,0.046397,0.001978,0.004102,0.0,0.0,0.0,0.0,0.0,0.0,3.0,0.315176,0.332441,0.32049,0.333542,-0.065075,-6.7e-05,-5e-06,-0.047102,7.8e-05,5e-06,0.0,0.0,0.0,0.0,0.0,0.0
159159,0.04542,0.001981,0.004103,0.0,0.0,0.0,0.0,0.0,0.0,3.0,0.315155,0.33119,0.317822,0.337289,-0.066006,-6.5e-05,-5e-06,-0.045621,7.9e-05,5e-06,0.0,0.0,0.0,0.0,0.0,0.0
159179,0.044077,0.001864,0.003985,0.0,0.0,0.0,0.0,0.0,0.0,3.0,0.319522,0.332544,0.316565,0.333065,-0.066907,-6.4e-05,-5e-06,-0.044127,8e-05,6e-06,0.0,0.0,0.0,0.0,0.0,0.0
159199,0.042976,0.001749,0.003744,0.0,0.0,0.0,0.0,0.0,0.0,3.0,0.321942,0.326475,0.327031,0.326675,-0.067778,-6.2e-05,-5e-06,-0.042619,8.1e-05,6e-06,0.0,0.0,0.0,0.0,0.0,0.0
159219,0.041633,0.001752,0.003746,0.0,0.0,0.0,0.0,0.0,0.0,3.0,0.317409,0.332616,0.316472,0.33506,-0.068619,-6e-05,-5e-06,-0.0411,8.2e-05,6e-06,0.0,0.0,0.0,0.0,0.0,0.0
159239,0.040291,0.001757,0.003625,0.0,0.0,0.0,0.0,0.0,0.0,3.0,0.318285,0.332082,0.316552,0.334698,-0.06943,-5.9e-05,-5e-06,-0.03957,8.2e-05,6e-06,0.0,0.0,0.0,0.0,0.0,0.0
159259,0.038826,0.001762,0.003504,0.0,0.0,0.0,0.0,0.0,0.0,3.0,0.323766,0.329427,0.316529,0.332139,-0.07021,-5.7e-05,-5e-06,-0.038028,8.3e-05,7e-06,0.0,0.0,0.0,0.0,0.0,0.0
159279,0.037603,0.001889,0.003381,0.0,0.0,0.0,0.0,0.0,0.0,3.0,0.327664,0.3231,0.320432,0.330828,-0.070959,-5.5e-05,-5e-06,-0.036477,8.4e-05,7e-06,0.0,0.0,0.0,0.0,0.0,0.0
159299,0.036261,0.001893,0.00326,0.0,0.0,0.0,0.0,0.0,0.0,3.0,0.324925,0.327132,0.316568,0.333238,-0.071676,-5.4e-05,-4e-06,-0.034916,8.5e-05,7e-06,0.0,0.0,0.0,0.0,0.0,0.0
159319,0.035284,0.002141,0.003135,0.0,0.0,0.0,0.0,0.0,0.0,3.0,0.319634,0.327307,0.316548,0.338094,-0.072363,-5.2e-05,-4e-06,-0.033346,8.6e-05,7e-06,0.0,0.0,0.0,0.0,0.0,0.0
159339,0.034186,0.002145,0.003014,0.0,0.0,0.0,0.0,0.0,0.0,3.0,0.318638,0.330812,0.318687,0.333631,-0.073018,-5e-05,-4e-06,-0.031768,8.6e-05,8e-06,0.0,0.0,0.0,0.0,0.0,0.0
159359,0.033209,0.00227,0.002891,0.0,0.0,0.0,0.0,0.0,0.0,3.0,0.315969,0.330298,0.321595,0.333881,-0.073642,-4.9e-05,-4e-06,-0.030182,8.7e-05,8e-06,0.0,0.0,0.0,0.0,0.0,0.0
159379,0.032355,0.002396,0.002768,0.0,0.0,0.0,0.0,0.0,0.0,3.0,0.313787,0.329222,0.323945,0.334708,-0.074233,-4.7e-05,-4e-06,-0.02859,8.8e-05,8e-06,0.0,0.0,0.0,0.0,0.0,0.0
159399,0.031378,0.002401,0.002525,0.0,0.0,0.0,0.0,0.0,0.0,3.0,0.323876,0.322981,0.328247,0.327017,-0.074793,-4.5e-05,-4e-06,-0.026992,8.8e-05,8e-06,0.0,0.0,0.0,0.0,0.0,0.0
159419,0.030278,0.002526,0.002402,0.0,0.0,0.0,0.0,0.0,0.0,3.0,0.321594,0.326546,0.322847,0.331059,-0.075321,-4.3e-05,-4e-06,-0.025388,8.9e-05,8e-06,0.0,0.0,0.0,0.0,0.0,0.0
159439,0.029301,0.002529,0.002282,0.0,0.0,0.0,0.0,0.0,0.0,3.0,0.327284,0.32473,0.31768,0.334712,-0.075696,-4.2e-05,-4e-06,-0.024182,8.9e-05,8e-06,0.0,0.0,0.0,0.0,0.0,0.0
159459,0.028324,0.00241,0.002163,0.0,0.0,0.0,0.0,0.0,0.0,3.0,0.327535,0.324893,0.322098,0.327591,-0.07628,-4e-05,-4e-06,-0.022167,9e-05,9e-06,0.0,0.0,0.0,0.0,0.0,0.0
159479,0.02747,0.002413,0.002042,0.0,0.0,0.0,0.0,0.0,0.0,3.0,0.320055,0.329699,0.319255,0.332858,-0.076711,-3.8e-05,-4e-06,-0.020551,9e-05,9e-06,0.0,0.0,0.0,0.0,0.0,0.0
159499,0.026371,0.002293,0.001923,0.0,0.0,0.0,0.0,0.0,0.0,3.0,0.321497,0.329262,0.31558,0.335349,-0.07711,-3.6e-05,-4e-06,-0.018932,9.1e-05,9e-06,0.0,0.0,0.0,0.0,0.0,0.0
159519,0.025395,0.002418,0.0018,0.0,0.0,0.0,0.0,0.0,0.0,3.0,0.319359,0.328493,0.317822,0.336034,-0.077477,-3.4e-05,-4e-06,-0.017311,9.1e-05,9e-06,0.0,0.0,0.0,0.0,0.0,0.0
159539,0.024296,0.002299,0.001681,0.0,0.0,0.0,0.0,0.0,0.0,3.0,0.323691,0.33004,0.315143,0.332897,-0.077811,-3.2e-05,-4e-06,-0.015689,9.2e-05,9e-06,0.0,0.0,0.0,0.0,0.0,0.0
159559,0.023197,0.002424,0.001437,0.0,0.0,0.0,0.0,0.0,0.0,3.0,0.32538,0.326468,0.321056,0.329183,-0.078112,-3e-05,-4e-06,-0.014065,9.2e-05,9e-06,0.0,0.0,0.0,0.0,0.0,0.0
159579,0.02222,0.002304,0.001317,0.0,0.0,0.0,0.0,0.0,0.0,3.0,0.327776,0.325718,0.323329,0.325316,-0.078317,-2.9e-05,-4e-06,-0.012848,9.2e-05,9e-06,0.0,0.0,0.0,0.0,0.0,0.0
159599,0.020876,0.002306,0.001196,0.0,0.0,0.0,0.0,0.0,0.0,3.0,0.325356,0.326109,0.318219,0.332269,-0.078618,-2.7e-05,-4e-06,-0.010819,9.2e-05,1e-05,0.0,0.0,0.0,0.0,0.0,0.0
159619,0.019533,0.002186,0.001077,0.0,0.0,0.0,0.0,0.0,0.0,3.0,0.330826,0.324934,0.31968,0.326586,-0.078822,-2.5e-05,-4e-06,-0.009197,9.3e-05,1e-05,0.0,0.0,0.0,0.0,0.0,0.0
159639,0.018434,0.002065,0.00108,0.0,0.0,0.0,0.0,0.0,0.0,3.0,0.325002,0.332464,0.3135,0.330735,-0.078994,-2.3e-05,-4e-06,-0.007578,9.3e-05,1e-05,0.0,0.0,0.0,0.0,0.0,0.0
159659,0.017214,0.002189,0.000958,0.0,0.0,0.0,0.0,0.0,0.0,3.0,0.322915,0.329741,0.315262,0.333827,-0.079134,-2.1e-05,-4e-06,-0.00596,9.3e-05,1e-05,0.0,0.0,0.0,0.0,0.0,0.0
159679,0.015993,0.00219,0.000837,0.0,0.0,0.0,0.0,0.0,0.0,3.0,0.32437,0.328567,0.313927,0.334813,-0.079241,-2e-05,-4e-06,-0.004749,9.3e-05,1e-05,0.0,0.0,0.0,0.0,0.0,0.0
159699,0.01465,0.00207,0.000717,0.0,0.0,0.0,0.0,0.0,0.0,3.0,0.326641,0.329366,0.311657,0.333914,-0.079316,-1.7e-05,-4e-06,-0.002736,9.3e-05,1e-05,0.0,0.0,0.0,0.0,0.0,0.0
159719,0.013673,0.001949,0.000597,0.0,0.0,0.0,0.0,0.0,0.0,3.0,0.323337,0.330018,0.317084,0.331446,-0.079358,-1.6e-05,-4e-06,-0.00113,9.3e-05,1e-05,0.0,0.0,0.0,0.0,0.0,0.0
159739,0.012574,0.001707,0.000356,0.0,0.0,0.0,0.0,0.0,0.0,3.0,0.332787,0.325814,0.321922,0.321466,-0.079369,-1.4e-05,-4e-06,0.000471,9.3e-05,1e-05,0.0,0.0,0.0,0.0,0.0,0.0
159759,0.011842,0.001952,0.000233,0.0,0.0,0.0,0.0,0.0,0.0,3.0,0.325247,0.325638,0.320372,0.330789,-0.079347,-1.2e-05,-4e-06,0.002067,9.3e-05,1e-05,0.0,0.0,0.0,0.0,0.0,0.0
159779,0.011231,0.002197,0.00011,0.0,0.0,0.0,0.0,0.0,0.0,3.0,0.321057,0.320451,0.324353,0.335973,-0.079294,-1e-05,-4e-06,0.003656,9.3e-05,1e-05,0.0,0.0,0.0,0.0,0.0,0.0
159799,0.010376,0.002198,-0.000133,0.0,0.0,0.0,0.0,0.0,0.0,3.0,0.330814,0.314011,0.328745,0.328218,-0.079209,-8e-06,-3e-06,0.005238,9.3e-05,1e-05,0.0,0.0,0.0,0.0,0.0,0.0
159819,0.009644,0.001954,-0.000254,0.0,0.0,0.0,0.0,0.0,0.0,3.0,0.33138,0.326944,0.32198,0.321724,-0.079093,-6e-06,-3e-06,0.006813,9.3e-05,1e-05,0.0,0.0,0.0,0.0,0.0,0.0
159839,0.009155,0.002077,-0.000376,0.0,0.0,0.0,0.0,0.0,0.0,3.0,0.325723,0.326234,0.324172,0.326025,-0.078944,-4e-06,-3e-06,0.008379,9.2e-05,1e-05,0.0,0.0,0.0,0.0,0.0,0.0
159859,0.008545,0.002199,-0.000498,0.0,0.0,0.0,0.0,0.0,0.0,3.0,0.322403,0.329197,0.320452,0.329964,-0.078765,-3e-06,-3e-06,0.009937,9.2e-05,1e-05,0.0,0.0,0.0,0.0,0.0,0.0
159879,0.00769,0.002078,-0.000618,0.0,0.0,0.0,0.0,0.0,0.0,3.0,0.321325,0.328346,0.319559,0.332694,-0.078555,-1e-06,-3e-06,0.011486,9.2e-05,1e-05,0.0,0.0,0.0,0.0,0.0,0.0
159899,0.006714,0.001834,-0.000739,0.0,0.0,0.0,0.0,0.0,0.0,3.0,0.326455,0.331293,0.314264,0.329774,-0.078314,1e-06,-3e-06,0.013024,9.2e-05,1e-05,0.0,0.0,0.0,0.0,0.0,0.0
159919,0.005615,0.00159,-0.000981,0.0,0.0,0.0,0.0,0.0,0.0,3.0,0.336908,0.324817,0.319741,0.320295,-0.078042,3e-06,-3e-06,0.014552,9.1e-05,1e-05,0.0,0.0,0.0,0.0,0.0,0.0
159939,0.004516,0.001589,-0.001102,0.0,0.0,0.0,0.0,0.0,0.0,3.0,0.329453,0.326029,0.31465,0.331669,-0.077739,5e-06,-3e-06,0.016069,9.1e-05,1e-05,0.0,0.0,0.0,0.0,0.0,0.0
159959,0.003417,0.001345,-0.001345,0.0,0.0,0.0,0.0,0.0,0.0,3.0,0.328417,0.323343,0.320736,0.329554,-0.077406,7e-06,-3e-06,0.017575,9e-05,1e-05,0.0,0.0,0.0,0.0,0.0,0.0
159979,0.001952,0.0011,-0.001466,0.0,0.0,0.0,0.0,0.0,0.0,3.0,0.334205,0.325561,0.313276,0.328626,-0.077044,8e-06,-3e-06,0.019068,9e-05,1e-05,0.0,0.0,0.0,0.0,0.0,0.0
159999,0.000732,0.000611,-0.001587,0.0,0.0,0.0,0.0,0.0,0.0,3.0,0.333283,0.332538,0.310748,0.324905,-0.076651,1e-05,-3e-06,0.020548,8.9e-05,1e-05,0.0,0.0,0.0,0.0,0.0,0.0
160019,-0.000367,0.000488,-0.001831,0.0,0.0,0.0,0.0,0.0,0.0,3.0,0.339507,0.32151,0.318963,0.321616,-0.076338,1.2e-05,-3e-06,0.02165,8.9e-05,1e-05,0.0,0.0,0.0,0.0,0.0,0.0
160039,-0.001343,0.000121,-0.001953,0.0,0.0,0.0,0.0,0.0,0.0,3.0,0.325762,0.332417,0.317799,0.325957,-0.075778,1.4e-05,-3e-06,0.023469,8.8e-05,1e-05,0.0,0.0,0.0,0.0,0.0,0.0
160059,-0.002442,0.000119,-0.002198,0.0,0.0,0.0,0.0,0.0,0.0,3.0,0.332792,0.325775,0.317615,0.325736,-0.075298,1.6e-05,-3e-06,0.024908,8.8e-05,1e-05,0.0,0.0,0.0,0.0,0.0,0.0
160079,-0.003174,-4e-06,-0.002442,0.0,0.0,0.0,0.0,0.0,0.0,3.0,0.336328,0.320792,0.323606,0.321093,-0.074789,1.7e-05,-3e-06,0.026331,8.7e-05,1e-05,0.0,0.0,0.0,0.0,0.0,0.0
160099,-0.003906,-5e-06,-0.002564,0.0,0.0,0.0,0.0,0.0,0.0,3.0,0.326816,0.327047,0.320234,0.327983,-0.074252,1.9e-05,-3e-06,0.02774,8.7e-05,1e-05,0.0,0.0,0.0,0.0,0.0,0.0
160119,-0.004517,-0.000128,-0.002808,0.0,0.0,0.0,0.0,0.0,0.0,3.0,0.335763,0.319331,0.32463,0.322111,-0.073687,2.1e-05,-2e-06,0.029133,8.6e-05,1e-05,0.0,0.0,0.0,0.0,0.0,0.0
160139,-0.005127,-0.000252,-0.002931,0.0,0.0,0.0,0.0,0.0,0.0,3.0,0.336403,0.323302,0.321572,0.32054,-0.073094,2.3e-05,-2e-06,0.030509,8.5e-05,9e-06,0.0,0.0,0.0,0.0,0.0,0.0
160159,-0.005493,-0.000375,-0.003053,0.0,0.0,0.0,0.0,0.0,0.0,3.0,0.328953,0.328944,0.318873,0.325248,-0.072473,2.4e-05,-2e-06,0.031868,8.4e-05,9e-06,0.0,0.0,0.0,0.0,0.0,0.0
160179,-0.005859,-0.000253,-0.003175,0.0,0.0,0.0,0.0,0.0,0.0,3.0,0.326479,0.322569,0.324455,0.328614,-0.071826,2.6e-05,-2e-06,0.03321,8.4e-05,9e-06,0.0,0.0,0.0,0.0,0.0,0.0
160199,-0.006347,-0.000377,-0.003298,0.0,0.0,0.0,0.0,0.0,0.0,3.0,0.327216,0.323301,0.324172,0.327444,-0.071152,2.8e-05,-2e-06,0.034533,8.3e-05,9e-06,0.0,0.0,0.0,0.0,0.0,0.0
160219,-0.006957,-0.000622,-0.003421,0.0,0.0,0.0,0.0,0.0,0.0,3.0,0.327393,0.328635,0.320835,0.325223,-0.070451,2.9e-05,-2e-06,0.035839,8.2e-05,9e-06,0.0,0.0,0.0,0.0,0.0,0.0
160239,-0.007446,-0.000624,-0.003543,0.0,0.0,0.0,0.0,0.0,0.0,3.0,0.328284,0.328239,0.319972,0.325569,-0.069725,3.1e-05,-2e-06,0.037125,8.1e-05,9e-06,0.0,0.0,0.0,0.0,0.0,0.0
160259,-0.008056,-0.000625,-0.003665,0.0,0.0,0.0,0.0,0.0,0.0,3.0,0.327175,0.326854,0.319564,0.328466,-0.068973,3.3e-05,-2e-06,0.038393,8e-05,9e-06,0.0,0.0,0.0,0.0,0.0,0.0
160279,-0.008666,-0.000871,-0.003788,0.0,0.0,0.0,0.0,0.0,0.0,3.0,0.328663,0.329388,0.318266,0.325681,-0.068195,3.4e-05,-2e-06,0.03964,7.9e-05,9e-06,0.0,0.0,0.0,0.0,0.0,0.0
160299,-0.009276,-0.000873,-0.003911,0.0,0.0,0.0,0.0,0.0,0.0,3.0,0.33086,0.327929,0.316209,0.326905,-0.067393,3.6e-05,-2e-06,0.040868,7.8e-05,8e-06,0.0,0.0,0.0,0.0,0.0,0.0
160319,-0.010009,-0.000753,-0.004155,0.0,0.0,0.0,0.0,0.0,0.0,3.0,0.334792,0.322295,0.31964,0.325158,-0.066567,3.7e-05,-2e-06,0.042075,7.7e-05,8e-06,0.0,0.0,0.0,0.0,0.0,0.0
160339,-0.010619,-0.000877,-0.004155,0.0,0.0,0.0,0.0,0.0,0.0,3.0,0.323959,0.328551,0.315356,0.333907,-0.065716,3.9e-05,-2e-06,0.043261,7.6e-05,8e-06,0.0,0.0,0.0,0.0,0.0,0.0
160359,-0.011473,-0.000879,-0.004278,0.0,0.0,0.0,0.0,0.0,0.0,3.0,0.333099,0.324792,0.314085,0.329752,-0.064842,4e-05,-2e-06,0.044425,7.5e-05,8e-06,0.0,0.0,0.0,0.0,0.0,0.0
160379,-0.012205,-0.001248,-0.004402,0.0,0.0,0.0,0.0,0.0,0.0,3.0,0.333473,0.329612,0.316528,0.322188,-0.063945,4.2e-05,-2e-06,0.045568,7.4e-05,8e-06,0.0,0.0,0.0,0.0,0.0,0.0
160399,-0.012938,-0.001128,-0.004524,0.0,0.0,0.0,0.0,0.0,0.0,3.0,0.336331,0.322637,0.317319,0.325471,-0.063025,4.3e-05,-2e-06,0.046689,7.3e-05,8e-06,0.0,0.0,0.0,0.0,0.0,0.0
160419,-0.013548,-0.001252,-0.004647,0.0,0.0,0.0,0.0,0.0,0.0,3.0,0.331918,0.325074,0.320832,0.324201,-0.062083,4.5e-05,-2e-06,0.047787,7.2e-05,7e-06,0.0,0.0,0.0,0.0,0.0,0.0
160439,-0.014403,-0.001011,-0.004768,0.0,0.0,0.0,0.0,0.0,0.0,3.0,0.33498,0.320127,0.313914,0.332508,-0.06112,4.6e-05,-1e-06,0.048862,7.1e-05,7e-06,0.0,0.0,0.0,0.0,0.0,0.0
160459,-0.015134,-0.001379,-0.004771,0.0,0.0,0.0,0.0,0.0,0.0,3.0,0.332707,0.329433,0.314807,0.324833,-0.060134,4.8e-05,-1e-06,0.049914,7e-05,7e-06,0.0,0.0,0.0,0.0,0.0,0.0
160479,-0.015744,-0.001381,-0.004894,0.0,0.0,0.0,0.0,0.0,0.0,3.0,0.333102,0.325449,0.316245,0.32706,-0.059128,4.9e-05,-1e-06,0.050942,6.8e-05,7e-06,0.0,0.0,0.0,0.0,0.0,0.0
160499,-0.016598,-0.001628,-0.005018,0.0,0.0,0.0,0.0,0.0,0.0,3.0,0.334472,0.328409,0.317203,0.321716,-0.058102,5e-05,-1e-06,0.051947,6.7e-05,7e-06,0.0,0.0,0.0,0.0,0.0,0.0
160519,-0.017453,-0.00151,-0.00514,0.0,0.0,0.0,0.0,0.0,0.0,3.0,0.33634,0.32367,0.3154,0.326283,-0.057056,5.2e-05,-1e-06,0.052927,6.6e-05,7e-06,0.0,0.0,0.0,0.0,0.0,0.0
160539,-0.018184,-0.001757,-0.005265,0.0,0.0,0.0,0.0,0.0,0.0,3.0,0.339556,0.321949,0.323141,0.316909,-0.05599,5.3e-05,-1e-06,0.053883,6.5e-05,6e-06,0.0,0.0,0.0,0.0,0.0,0.0
160559,-0.018917,-0.001637,-0.005264,0.0,0.0,0.0,0.0,0.0,0.0,3.0,0.33735,0.324629,0.317368,0.322358,-0.054905,5.4e-05,-1e-06,0.054813,6.3e-05,6e-06,0.0,0.0,0.0,0.0,0.0,0.0
160579,-0.019772,-0.001518,-0.005385,0.0,0.0,0.0,0.0,0.0,0.0,3.0,0.342503,0.316264,0.320261,0.322272,-0.053802,5.6e-05,-1e-06,0.055719,6.2e-05,6e-06,0.0,0.0,0.0,0.0,0.0,0.0
160599,-0.020504,-0.00152,-0.005386,0.0,0.0,0.0,0.0,0.0,0.0,3.0,0.337795,0.325477,0.311808,0.326372,-0.052681,5.7e-05,-1e-06,0.056599,6.1e-05,6e-06,0.0,0.0,0.0,0.0,0.0,0.0
160619,-0.021115,-0.001401,-0.005507,0.0,0.0,0.0,0.0,0.0,0.0,3.0,0.335949,0.320203,0.31482,0.330609,-0.051543,5.8e-05,-1e-06,0.057454,5.9e-05,6e-06,0.0,0.0,0.0,0.0,0.0,0.0
160639,-0.021848,-0.001526,-0.005632,0.0,0.0,0.0,0.0,0.0,0.0,3.0,0.33867,0.323671,0.318439,0.322999,-0.050678,5.9e-05,-1e-06,0.058078,5.8e-05,5e-06,0.0,0.0,0.0,0.0,0.0,0.0
160659,-0.02258,-0.00165,-0.005634,0.0,0.0,0.0,0.0,0.0,0.0,3.0,0.338629,0.325028,0.310961,0.326737,-0.049216,6e-05,-1e-06,0.059085,5.7e-05,5e-06,0.0,0.0,0.0,0.0,0.0,0.0
160679,-0.02319,-0.001896,-0.005637,0.0,0.0,0.0,0.0,0.0,0.0,3.0,0.337842,0.328657,0.313901,0.3211,-0.048028,6.2e-05,-1e-06,0.059861,5.5e-05,5e-06,0.0,0.0,0.0,0.0,0.0,0.0
160699,-0.023922,-0.0019,-0.00576,0.0,0.0,0.0,0.0,0.0,0.0,3.0,0.344277,0.315415,0.319362,0.322053,-0.046825,6.3e-05,-1e-06,0.060611,5.4e-05,5e-06,0.0,0.0,0.0,0.0,0.0,0.0
160719,-0.024531,-0.002268,-0.005765,0.0,0.0,0.0,0.0,0.0,0.0,3.0,0.339115,0.325642,0.315597,0.321175,-0.045608,6.4e-05,-1e-06,0.061333,5.2e-05,5e-06,0.0,0.0,0.0,0.0,0.0,0.0
160739,-0.025264,-0.002271,-0.005887,0.0,0.0,0.0,0.0,0.0,0.0,3.0,0.343973,0.316949,0.320455,0.319797,-0.044376,6.5e-05,-1e-06,0.062029,5.1e-05,4e-06,0.0,0.0,0.0,0.0,0.0,0.0
160759,-0.025874,-0.002273,-0.005888,0.0,0.0,0.0,0.0,0.0,0.0,3.0,0.337737,0.322834,0.313643,0.327318,-0.04313,6.6e-05,-1e-06,0.062697,4.9e-05,4e-06,0.0,0.0,0.0,0.0,0.0,0.0
160779,-0.026484,-0.002397,-0.00589,0.0,0.0,0.0,0.0,0.0,0.0,3.0,0.337668,0.323769,0.313031,0.327047,-0.041871,6.7e-05,-1e-06,0.063338,4.8e-05,4e-06,0.0,0.0,0.0,0.0,0.0,0.0
160799,-0.027216,-0.002523,-0.006015,0.0,0.0,0.0,0.0,0.0,0.0,3.0,0.340944,0.323441,0.31347,0.323487,-0.0406,6.8e-05,-1e-06,0.063952,4.6e-05,4e-06,0.0,0.0,0.0,0.0,0.0,0.0
160819,-0.027582,-0.002646,-0.006017,0.0,0.0,0.0,0.0,0.0,0.0,3.0,0.337277,0.328922,0.314582,0.320769,-0.039316,6.9e-05,-1e-06,0.064537,4.5e-05,4e-06,0.0,0.0,0.0,0.0,0.0,0.0
160839,-0.02807,-0.002525,-0.006015,0.0,0.0,0.0,0.0,0.0,0.0,3.0,0.336015,0.3251,0.315554,0.325052,-0.038021,7e-05,-0.0,0.065095,4.3e-05,4e-06,0.0,0.0,0.0,0.0,0.0,0.0
160859,-0.02868,-0.002651,-0.00614,0.0,0.0,0.0,0.0,0.0,0.0,3.0,0.343131,0.322437,0.315383,0.320268,-0.036715,7e-05,-0.0,0.065625,4.2e-05,3e-06,0.0,0.0,0.0,0.0,0.0,0.0
160879,-0.02929,-0.002775,-0.006142,0.0,0.0,0.0,0.0,0.0,0.0,3.0,0.342671,0.3266,0.309273,0.322429,-0.035399,7.1e-05,-0.0,0.066127,4e-05,3e-06,0.0,0.0,0.0,0.0,0.0,0.0
160899,-0.029655,-0.00302,-0.006146,0.0,0.0,0.0,0.0,0.0,0.0,3.0,0.338085,0.328588,0.312398,0.322359,-0.034073,7.2e-05,-0.0,0.0666,3.9e-05,3e-06,0.0,0.0,0.0,0.0,0.0,0.0
160919,-0.030266,-0.002902,-0.006267,0.0,0.0,0.0,0.0,0.0,0.0,3.0,0.339143,0.323304,0.314764,0.324305,-0.032738,7.3e-05,-0.0,0.067045,3.7e-05,3e-06,0.0,0.0,0.0,0.0,0.0,0.0
160939,-0.030877,-0.003148,-0.006273,0.0,0.0,0.0,0.0,0.0,0.0,3.0,0.34002,0.327048,0.312674,0.321598,-0.031394,7.4e-05,-0.0,0.067462,3.6e-05,3e-06,0.0,0.0,0.0,0.0,0.0,0.0
160959,-0.031487,-0.003274,-0.006398,0.0,0.0,0.0,0.0,0.0,0.0,3.0,0.342326,0.323987,0.313858,0.321069,-0.030041,7.4e-05,-0.0,0.06785,3.4e-05,3e-06,0.0,0.0,0.0,0.0,0.0,0.0
160979,-0.032097,-0.003275,-0.006399,0.0,0.0,0.0,0.0,0.0,0.0,3.0,0.33993,0.323431,0.313045,0.324986,-0.028682,7.5e-05,-0.0,0.06821,3.2e-05,2e-06,0.0,0.0,0.0,0.0,0.0,0.0
160999,-0.032828,-0.003524,-0.006526,0.0,0.0,0.0,0.0,0.0,0.0,3.0,0.349145,0.320997,0.314016,0.316343,-0.027315,7.6e-05,-0.0,0.068541,3.1e-05,2e-06,0.0,0.0,0.0,0.0,0.0,0.0
161019,-0.033439,-0.003526,-0.006527,0.0,0.0,0.0,0.0,0.0,0.0,3.0,0.344089,0.325142,0.309558,0.322094,-0.025942,7.6e-05,-0.0,0.068844,2.9e-05,2e-06,0.0,0.0,0.0,0.0,0.0,0.0
161039,-0.034171,-0.003528,-0.006528,0.0,0.0,0.0,0.0,0.0,0.0,3.0,0.34514,0.32242,0.307533,0.325568,-0.024563,7.7e-05,-0.0,0.069118,2.7e-05,2e-06,0.0,0.0,0.0,0.0,0.0,0.0
161059,-0.035025,-0.003655,-0.006653,0.0,0.0,0.0,0.0,0.0,0.0,3.0,0.352007,0.320985,0.311408,0.315633,-0.023178,7.7e-05,-0.0,0.069363,2.6e-05,2e-06,0.0,0.0,0.0,0.0,0.0,0.0
161079,-0.035879,-0.00378,-0.006657,0.0,0.0,0.0,0.0,0.0,0.0,3.0,0.348553,0.32377,0.304932,0.322892,-0.02179,7.8e-05,-0.0,0.06958,2.4e-05,2e-06,0.0,0.0,0.0,0.0,0.0,0.0
161099,-0.036367,-0.003903,-0.00666,0.0,0.0,0.0,0.0,0.0,0.0,3.0,0.342233,0.325952,0.311968,0.320997,-0.020396,7.8e-05,-0.0,0.069768,2.2e-05,2e-06,0.0,0.0,0.0,0.0,0.0,0.0
161119,-0.037099,-0.003908,-0.006783,0.0,0.0,0.0,0.0,0.0,0.0,3.0,0.351419,0.317448,0.316249,0.315102,-0.019,7.9e-05,-0.0,0.069927,2.1e-05,1e-06,0.0,0.0,0.0,0.0,0.0,0.0
161139,-0.037589,-0.00403,-0.006665,0.0,0.0,0.0,0.0,0.0,0.0,3.0,0.342467,0.327127,0.305438,0.325682,-0.0176,7.9e-05,-0.0,0.070057,1.9e-05,1e-06,0.0,0.0,0.0,0.0,0.0,0.0
161159,-0.038077,-0.004156,-0.006791,0.0,0.0,0.0,0.0,0.0,0.0,3.0,0.345634,0.322765,0.311888,0.320574,-0.016198,7.9e-05,-0.0,0.070159,1.8e-05,1e-06,0.0,0.0,0.0,0.0,0.0,0.0
161179,-0.038687,-0.004033,-0.006667,0.0,0.0,0.0,0.0,0.0,0.0,3.0,0.341958,0.324811,0.305146,0.328791,-0.014795,8e-05,0.0,0.070233,1.6e-05,1e-06,0.0,0.0,0.0,0.0,0.0,0.0
161199,-0.039053,-0.004279,-0.006673,0.0,0.0,0.0,0.0,0.0,0.0,3.0,0.341153,0.324954,0.311458,0.323664,-0.01339,8e-05,0.0,0.070278,1.4e-05,1e-06,0.0,0.0,0.0,0.0,0.0,0.0
161219,-0.039786,-0.004159,-0.006671,0.0,0.0,0.0,0.0,0.0,0.0,3.0,0.342,0.323417,0.304876,0.330353,-0.011984,8e-05,0.0,0.070295,1.3e-05,1e-06,0.0,0.0,0.0,0.0,0.0,0.0
161239,-0.040151,-0.004407,-0.006799,0.0,0.0,0.0,0.0,0.0,0.0,3.0,0.346304,0.321494,0.315416,0.317669,-0.010578,8.1e-05,0.0,0.070283,1.1e-05,1e-06,0.0,0.0,0.0,0.0,0.0,0.0
161259,-0.040761,-0.004406,-0.006678,0.0,0.0,0.0,0.0,0.0,0.0,3.0,0.344497,0.325182,0.30914,0.322003,-0.009173,8.1e-05,0.0,0.070243,9e-06,1e-06,0.0,0.0,0.0,0.0,0.0,0.0
161279,-0.041249,-0.004527,-0.00656,0.0,0.0,0.0,0.0,0.0,0.0,3.0,0.343064,0.328048,0.304606,0.324873,-0.007768,8.1e-05,0.0,0.070175,8e-06,1e-06,0.0,0.0,0.0,0.0,0.0,0.0
161299,-0.041616,-0.004526,-0.006438,0.0,0.0,0.0,0.0,0.0,0.0,3.0,0.339003,0.330525,0.301102,0.329815,-0.006365,8.1e-05,0.0,0.070079,6e-06,1e-06,0.0,0.0,0.0,0.0,0.0,0.0
161319,-0.042225,-0.004772,-0.006445,0.0,0.0,0.0,0.0,0.0,0.0,3.0,0.347115,0.325561,0.306721,0.32101,-0.004965,8.1e-05,0.0,0.069955,4e-06,0.0,0.0,0.0,0.0,0.0,0.0,0.0
161339,-0.042712,-0.005137,-0.006331,0.0,0.0,0.0,0.0,0.0,0.0,3.0,0.341817,0.333845,0.298855,0.325459,-0.003567,8.1e-05,0.0,0.069804,3e-06,0.0,0.0,0.0,0.0,0.0,0.0,0.0
161359,-0.0432,-0.00526,-0.006335,0.0,0.0,0.0,0.0,0.0,0.0,3.0,0.345678,0.327024,0.308733,0.3192,-0.002172,8.1e-05,0.0,0.069625,1e-06,0.0,0.0,0.0,0.0,0.0,0.0,0.0
161379,-0.043691,-0.005381,-0.006218,0.0,0.0,0.0,0.0,0.0,0.0,3.0,0.344858,0.323221,0.308069,0.324583,-0.000781,8.1e-05,0.0,0.069418,-1e-06,0.0,0.0,0.0,0.0,0.0,0.0,0.0
161399,-0.0443,-0.005747,-0.006105,0.0,0.0,0.0,0.0,0.0,0.0,3.0,0.348878,0.330505,0.304267,0.316195,0.000606,8.1e-05,0.0,0.069184,-2e-06,0.0,0.0,0.0,0.0,0.0,0.0,0.0
161419,-0.044788,-0.005989,-0.00599,0.0,0.0,0.0,0.0,0.0,0.0,3.0,0.348607,0.332166,0.302754,0.316164,0.001988,8.1e-05,0.0,0.068923,-4e-06,0.0,0.0,0.0,0.0,0.0,0.0,0.0
161439,-0.045154,-0.00611,-0.005872,0.0,0.0,0.0,0.0,0.0,0.0,3.0,0.344438,0.330135,0.303117,0.322613,0.003364,8.1e-05,0.0,0.068636,-6e-06,0.0,0.0,0.0,0.0,0.0,0.0,0.0
161459,-0.045642,-0.00623,-0.005754,0.0,0.0,0.0,0.0,0.0,0.0,3.0,0.34118,0.333165,0.298884,0.326813,0.004734,8.1e-05,0.0,0.068321,-7e-06,0.0,0.0,0.0,0.0,0.0,0.0,0.0
161479,-0.046008,-0.006595,-0.005641,0.0,0.0,0.0,0.0,0.0,0.0,3.0,0.347471,0.328712,0.302455,0.321348,0.006098,8.1e-05,0.0,0.067981,-9e-06,0.0,0.0,0.0,0.0,0.0,0.0,0.0
161499,-0.046374,-0.006715,-0.005523,0.0,0.0,0.0,0.0,0.0,0.0,3.0,0.345571,0.32909,0.301334,0.324074,0.007455,8.1e-05,0.0,0.067614,-1e-05,0.0,0.0,0.0,0.0,0.0,0.0,0.0
161519,-0.046618,-0.006835,-0.005405,0.0,0.0,0.0,0.0,0.0,0.0,3.0,0.346566,0.325801,0.303424,0.324423,0.008804,8e-05,0.0,0.067221,-1.2e-05,0.0,0.0,0.0,0.0,0.0,0.0,0.0
161539,-0.046984,-0.00708,-0.005412,0.0,0.0,0.0,0.0,0.0,0.0,3.0,0.351311,0.323577,0.307923,0.317161,0.010146,8e-05,0.0,0.066802,-1.4e-05,0.0,0.0,0.0,0.0,0.0,0.0,0.0
161559,-0.047228,-0.007196,-0.005171,0.0,0.0,0.0,0.0,0.0,0.0,3.0,0.34343,0.331319,0.302581,0.322978,0.011479,8e-05,0.0,0.066358,-1.5e-05,0.0,0.0,0.0,0.0,0.0,0.0,0.0
161579,-0.047473,-0.007194,-0.00505,0.0,0.0,0.0,0.0,0.0,0.0,3.0,0.345404,0.327356,0.300586,0.32668,0.012802,8e-05,0.0,0.065888,-1.7e-05,0.0,0.0,0.0,0.0,0.0,0.0,0.0
161599,-0.047595,-0.007314,-0.004931,0.0,0.0,0.0,0.0,0.0,0.0,3.0,0.338142,0.330907,0.301383,0.330074,0.014116,7.9e-05,0.0,0.065394,-1.8e-05,0.0,0.0,0.0,0.0,0.0,0.0,0.0
161619,-0.047839,-0.007314,-0.004932,0.0,0.0,0.0,0.0,0.0,0.0,3.0,0.346822,0.325391,0.306314,0.321888,0.01542,7.9e-05,0.0,0.064875,-2e-05,0.0,0.0,0.0,0.0,0.0,0.0,0.0
161639,-0.047839,-0.007555,-0.004816,0.0,0.0,0.0,0.0,0.0,0.0,3.0,0.34252,0.327767,0.310459,0.320269,0.016714,7.8e-05,0.0,0.064331,-2.1e-05,0.0,0.0,0.0,0.0,0.0,0.0,0.0
161659,-0.048083,-0.007675,-0.004697,0.0,0.0,0.0,0.087266,0.0,0.0,3.0,0.512594,0.328852,0.15,0.321028,0.022578,7.4e-05,0.000249,0.775065,0.000209,0.035967,0.0,0.0,0.0,0.0,0.0,0.0
161679,-0.048203,-0.00805,-0.005073,0.0,0.0,0.0,0.087266,0.0,0.0,3.0,0.389384,0.317647,0.276228,0.304246,0.03906,6.6e-05,0.000956,0.784234,0.001282,0.032838,0.0,0.0,0.0,0.0,0.0,0.0
161699,-0.047346,-0.008182,-0.005561,0.0,0.0,0.0,0.087266,0.0,0.0,3.0,0.371956,0.313068,0.307568,0.303015,0.053328,6.9e-05,0.00159,0.596995,0.001874,0.030555,0.0,0.0,0.0,0.0,0.0,0.0
161719,-0.044539,-0.008175,-0.00555,0.0,0.0,0.0,0.087266,0.0,0.0,3.0,0.340025,0.323923,0.315773,0.321766,0.064004,8e-05,0.002157,0.436381,0.002345,0.025544,0.0,0.0,0.0,0.0,0.0,0.0
161739,-0.040145,-0.008034,-0.005164,0.0,0.0,0.0,0.087266,0.0,0.0,3.0,0.306612,0.338131,0.316656,0.339132,0.071832,9.6e-05,0.002637,0.327661,0.00238,0.0212,0.0,0.0,0.0,0.0,0.0,0.0
161759,-0.034531,-0.007767,-0.004649,0.0,0.0,0.0,0.087266,0.0,0.0,3.0,0.287666,0.33855,0.328657,0.343264,0.077848,0.000113,0.003034,0.263229,0.002245,0.017388,0.0,0.0,0.0,0.0,0.0,0.0
161779,-0.028671,-0.007629,-0.004381,0.0,0.0,0.0,0.087266,0.0,0.0,3.0,0.29955,0.328649,0.336657,0.335413,0.0828,0.000131,0.003358,0.225803,0.002027,0.01406,0.0,0.0,0.0,0.0,0.0,0.0
161799,-0.02269,-0.008104,-0.004242,0.0,0.0,0.0,0.087266,0.0,0.0,3.0,0.305859,0.333182,0.34293,0.318524,0.087135,0.000147,0.00362,0.204059,0.001776,0.011159,0.0,0.0,0.0,0.0,0.0,0.0
161819,-0.017196,-0.008213,-0.004099,0.0,0.0,0.0,0.087266,0.0,0.0,3.0,0.313614,0.329069,0.34315,0.31513,0.09111,0.000163,0.003825,0.191294,0.001519,0.008635,0.0,0.0,0.0,0.0,0.0,0.0
161839,-0.012313,-0.008446,-0.003836,0.0,0.0,0.0,0.087266,0.0,0.0,3.0,0.310346,0.337683,0.32798,0.325349,0.094872,0.000177,0.003983,0.18364,0.001267,0.00644,0.0,0.0,0.0,0.0,0.0,0.0
161859,-0.008774,-0.008561,-0.0037,0.0,0.0,0.0,0.087266,0.0,0.0,3.0,0.32635,0.33264,0.319971,0.323013,0.098506,0.000189,0.004099,0.178881,0.001028,0.004536,0.0,0.0,0.0,0.0,0.0,0.0
161879,-0.006699,-0.009045,-0.003449,0.0,0.0,0.0,0.087266,0.0,0.0,3.0,0.336655,0.339228,0.297999,0.326046,0.102058,0.0002,0.004178,0.175747,0.000803,0.002886,0.0,0.0,0.0,0.0,0.0,0.0
161899,-0.005478,-0.009409,-0.003322,0.0,0.0,0.0,0.087266,0.0,0.0,3.0,0.343529,0.335822,0.292862,0.326819,0.105555,0.00021,0.004226,0.173514,0.000594,0.001459,0.0,0.0,0.0,0.0,0.0,0.0
161919,-0.005234,-0.00953,-0.003199,0.0,0.0,0.0,0.087266,0.0,0.0,3.0,0.352903,0.334165,0.280971,0.328244,0.109012,0.000218,0.004247,0.171767,0.0004,0.000228,0.0,0.0,0.0,0.0,0.0,0.0
161939,-0.005845,-0.009775,-0.003081,0.0,0.0,0.0,0.087266,0.0,0.0,3.0,0.365747,0.329931,0.275882,0.322014,0.112436,0.000225,0.004244,0.170271,0.000222,-0.000831,0.0,0.0,0.0,0.0,0.0,0.0
161959,-0.006578,-0.009897,-0.002841,0.0,0.0,0.0,0.087266,0.0,0.0,3.0,0.361969,0.33745,0.264033,0.327739,0.115831,0.000231,0.004221,0.168889,5.9e-05,-0.00174,0.0,0.0,0.0,0.0,0.0,0.0
161979,-0.006579,-0.009653,-0.002718,0.0,0.0,0.0,0.087266,0.0,0.0,3.0,0.354813,0.330798,0.275183,0.334077,0.119199,0.000236,0.00418,0.167546,-9.1e-05,-0.002516,0.0,0.0,0.0,0.0,0.0,0.0
161999,-0.005847,-0.009652,-0.002714,0.0,0.0,0.0,0.087266,0.0,0.0,3.0,0.352943,0.324249,0.29627,0.325339,0.122539,0.000239,0.004125,0.166196,-0.000227,-0.003177,0.0,0.0,0.0,0.0,0.0,0.0
162019,-0.004992,-0.009529,-0.00271,0.0,0.0,0.0,0.087266,0.0,0.0,3.0,0.354255,0.328784,0.295813,0.319648,0.125027,0.000242,0.004075,0.165166,-0.000321,-0.003606,0.0,0.0,0.0,0.0,0.0,0.0
162039,-0.003162,-0.009526,-0.002579,0.0,0.0,0.0,0.087266,0.0,0.0,3.0,0.341752,0.327873,0.308627,0.322735,0.129139,0.000244,0.003978,0.163394,-0.000464,-0.004208,0.0,0.0,0.0,0.0,0.0,0.0
162059,-0.000599,-0.009401,-0.002445,0.0,0.0,0.0,0.087266,0.0,0.0,3.0,0.334203,0.326807,0.31654,0.324277,0.132396,0.000246,0.00389,0.16192,-0.000566,-0.004601,0.0,0.0,0.0,0.0,0.0,0.0
162079,0.002208,-0.009397,-0.002309,0.0,0.0,0.0,0.087266,0.0,0.0,3.0,0.330845,0.32869,0.319861,0.322598,0.135623,0.000247,0.003795,0.16039,-0.000658,-0.004927,0.0,0.0,0.0,0.0,0.0,0.0
162099,0.005137,-0.009394,-0.002174,0.0,0.0,0.0,0.087266,0.0,0.0,3.0,0.331688,0.328538,0.317089,0.324596,0.138819,0.000247,0.003719,0.159205,-0.000721,-0.005131,0.0,0.0,0.0,0.0,0.0,0.0
162119,0.008554,-0.009391,-0.001913,0.0,0.0,0.0,0.087266,0.0,0.0,3.0,0.322934,0.331901,0.318426,0.328673,0.141982,0.000246,0.003587,0.157158,-0.000816,-0.005406,0.0,0.0,0.0,0.0,0.0,0.0
162139,0.01185,-0.009267,-0.001776,0.0,0.0,0.0,0.087266,0.0,0.0,3.0,0.326931,0.327695,0.317454,0.329889,0.145113,0.000245,0.003476,0.155455,-0.000883,-0.005575,0.0,0.0,0.0,0.0,0.0,0.0
162159,0.015267,-0.009386,-0.001637,0.0,0.0,0.0,0.087266,0.0,0.0,3.0,0.322007,0.334329,0.315223,0.330146,0.148209,0.000244,0.003362,0.153694,-0.000943,-0.005704,0.0,0.0,0.0,0.0,0.0,0.0
162179,0.01844,-0.009629,-0.001498,0.0,0.0,0.0,0.087266,0.0,0.0,3.0,0.321243,0.338801,0.315161,0.326323,0.151269,0.000242,0.003246,0.151877,-0.000996,-0.005798,0.0,0.0,0.0,0.0,0.0,0.0
162199,0.021127,-0.009628,-0.001363,0.0,0.0,0.0,0.087266,0.0,0.0,3.0,0.32852,0.338527,0.306511,0.327468,0.15354,0.00024,0.003157,0.150477,-0.001032,-0.005849,0.0,0.0,0.0,0.0,0.0,0.0
162219,0.023445,-0.009506,-0.001231,0.0,0.0,0.0,0.087266,0.0,0.0,3.0,0.331262,0.331927,0.312345,0.326108,0.157278,0.000236,0.003008,0.148075,-0.001075,-0.005894,0.0,0.0,0.0,0.0,0.0,0.0
162239,0.025398,-0.009506,-0.0011,0.0,0.0,0.0,0.087266,0.0,0.0,3.0,0.336001,0.33476,0.303262,0.326693,0.160225,0.000233,0.002888,0.146093,-0.001121,-0.005916,0.0,0.0,0.0,0.0,0.0,0.0
162259,0.026862,-0.009506,-0.000971,0.0,0.0,0.0,0.087266,0.0,0.0,3.0,0.342962,0.333303,0.298653,0.324973,0.163132,0.00023,0.002768,0.144057,-0.001152,-0.005912,0.0,0.0,0.0,0.0,0.0,0.0
162279,0.028447,-0.009508,-0.000719,0.0,0.0,0.0,0.087266,0.0,0.0,3.0,0.334634,0.337588,0.296587,0.331063,0.165997,0.000226,0.002647,0.141968,-0.00118,-0.00589,0.0,0.0,0.0,0.0,0.0,0.0
162299,0.029789,-0.009387,-0.000592,0.0,0.0,0.0,0.087266,0.0,0.0,3.0,0.334993,0.33597,0.299176,0.330113,0.168821,0.000222,0.002527,0.139829,-0.001203,-0.005854,0.0,0.0,0.0,0.0,0.0,0.0
162319,0.030768,-0.009266,-0.00059,0.0,0.0,0.0,0.087266,0.0,0.0,3.0,0.347568,0.329307,0.300106,0.322772,0.171601,0.000218,0.002408,0.13764,-0.001222,-0.005805,0.0,0.0,0.0,0.0,0.0,0.0
162339,0.031866,-0.009023,-0.000466,0.0,0.0,0.0,0.087266,0.0,0.0,3.0,0.347093,0.330116,0.299494,0.323014,0.174337,0.000214,0.00229,0.135401,-0.001238,-0.005745,0.0,0.0,0.0,0.0,0.0,0.0
162359,0.033329,-0.008904,-0.000218,0.0,0.0,0.0,0.087266,0.0,0.0,3.0,0.335097,0.336779,0.295769,0.332121,0.177028,0.00021,0.002173,0.133115,-0.001251,-0.005675,0.0,0.0,0.0,0.0,0.0,0.0
162379,0.035037,-0.008784,-9e-05,0.0,0.0,0.0,0.087266,0.0,0.0,3.0,0.339604,0.331283,0.300987,0.328527,0.179673,0.000205,0.002057,0.130782,-0.00126,-0.005598,0.0,0.0,0.0,0.0,0.0,0.0
162399,0.036989,-0.008421,0.000156,0.0,0.0,0.0,0.087266,0.0,0.0,3.0,0.331597,0.331291,0.301216,0.336428,0.18227,0.0002,0.001943,0.128404,-0.001268,-0.005513,0.0,0.0,0.0,0.0,0.0,0.0
162419,0.039188,-0.00818,0.000282,0.0,0.0,0.0,0.087266,0.0,0.0,3.0,0.332686,0.328326,0.308589,0.331755,0.18482,0.000195,0.001831,0.125981,-0.001272,-0.005423,0.0,0.0,0.0,0.0,0.0,0.0
162439,0.041628,-0.007941,0.000531,0.0,0.0,0.0,0.087266,0.0,0.0,3.0,0.320623,0.335149,0.306724,0.33834,0.187322,0.00019,0.00172,0.123515,-0.001275,-0.005328,0.0,0.0,0.0,0.0,0.0,0.0
162459,0.044071,-0.0077,0.000658,0.0,0.0,0.0,0.087266,0.0,0.0,3.0,0.322104,0.332879,0.311434,0.335004,0.189773,0.000185,0.001612,0.121007,-0.001275,-0.005229,0.0,0.0,0.0,0.0,0.0,0.0
162479,0.046634,-0.007703,0.00079,0.0,0.0,0.0,0.087266,0.0,0.0,3.0,0.321445,0.335971,0.311918,0.332086,0.192174,0.000179,0.001505,0.118458,-0.001273,-0.005127,0.0,0.0,0.0,0.0,0.0,0.0
162499,0.049077,-0.007343,0.001034,0.0,0.0,0.0,0.087266,0.0,0.0,3.0,0.320224,0.334944,0.31124,0.334899,0.194524,0.000174,0.0014,0.11587,-0.00127,-0.005022,0.0,0.0,0.0,0.0,0.0,0.0
162519,0.051517,-0.006981,0.001156,0.0,0.0,0.0,0.087266,0.0,0.0,3.0,0.327001,0.328884,0.316722,0.329332,0.196822,0.000168,0.001298,0.113243,-0.001265,-0.004915,0.0,0.0,0.0,0.0,0.0,0.0
162539,0.054204,-0.006867,0.001406,0.0,0.0,0.0,0.087266,0.0,0.0,3.0,0.319563,0.336084,0.318514,0.32758,0.199067,0.000163,0.001197,0.11058,-0.001258,-0.004806,0.0,0.0,0.0,0.0,0.0,0.0
162559,0.056522,-0.006509,0.001647,0.0,0.0,0.0,0.087266,0.0,0.0,3.0,0.318067,0.337628,0.310793,0.334624,0.201258,0.000157,0.001099,0.107881,-0.00125,-0.004696,0.0,0.0,0.0,0.0,0.0,0.0
162579,0.058722,-0.006026,0.001762,0.0,0.0,0.0,0.087266,0.0,0.0,3.0,0.327027,0.328672,0.315737,0.330448,0.203395,0.000151,0.001002,0.105148,-0.001241,-0.004585,0.0,0.0,0.0,0.0,0.0,0.0
162599,0.06104,-0.005547,0.001998,0.0,0.0,0.0,0.087266,0.0,0.0,3.0,0.32044,0.333393,0.308808,0.338406,0.205477,0.000145,0.000908,0.102381,-0.001231,-0.004474,0.0,0.0,0.0,0.0,0.0,0.0
162619,0.062997,-0.005186,0.002114,0.0,0.0,0.0,0.087266,0.0,0.0,3.0,0.325806,0.332934,0.305642,0.336582,0.207504,0.00014,0.000817,0.099583,-0.001219,-0.004362,0.0,0.0,0.0,0.0,0.0,0.0
162639,0.064949,-0.004948,0.002233,0.0,0.0,0.0,0.087266,0.0,0.0,3.0,0.325228,0.334553,0.305952,0.335259,0.209475,0.000134,0.000727,0.096754,-0.001206,-0.004251,0.0,0.0,0.0,0.0,0.0,0.0
162659,0.066905,-0.004588,0.002347,0.0,0.0,0.0,0.087266,0.0,0.0,3.0,0.326938,0.330309,0.3115,0.332838,0.211388,0.000128,0.00064,0.093896,-0.001193,-0.00414,0.0,0.0,0.0,0.0,0.0,0.0
162679,0.068979,-0.004354,0.002587,0.0,0.0,0.0,0.087266,0.0,0.0,3.0,0.317936,0.336592,0.309658,0.336807,0.213245,0.000122,0.000555,0.091011,-0.001179,-0.004029,0.0,0.0,0.0,0.0,0.0,0.0
162699,0.070935,-0.003995,0.002701,0.0,0.0,0.0,0.087266,0.0,0.0,3.0,0.319892,0.334664,0.310567,0.336096,0.215043,0.000116,0.000472,0.088099,-0.001167,-0.003946,0.0,0.0,0.0,0.0,0.0,0.0
162719,0.072888,-0.003753,0.002695,0.0,0.0,0.0,0.087266,0.0,0.0,3.0,0.327133,0.328284,0.317673,0.328895,0.216783,0.00011,0.000391,0.085162,-0.001148,-0.00381,0.0,0.0,0.0,0.0,0.0,0.0
162739,0.075088,-0.003516,0.002812,0.0,0.0,0.0,0.087266,0.0,0.0,3.0,0.325456,0.328816,0.318284,0.329439,0.218464,0.000104,0.000312,0.082201,-0.001131,-0.003701,0.0,0.0,0.0,0.0,0.0,0.0
162759,0.07741,-0.003402,0.002933,0.0,0.0,0.0,0.087266,0.0,0.0,3.0,0.321354,0.332144,0.319867,0.328581,0.220086,9.8e-05,0.000236,0.079217,-0.001114,-0.003594,0.0,0.0,0.0,0.0,0.0,0.0
162779,0.079855,-0.003166,0.00305,0.0,0.0,0.0,0.087266,0.0,0.0,3.0,0.316648,0.336202,0.313687,0.334751,0.221647,9.3e-05,0.00018,0.076966,-0.001101,-0.003514,0.0,0.0,0.0,0.0,0.0,0.0
162799,0.082417,-0.003048,0.003048,0.0,0.0,0.0,0.087266,0.0,0.0,3.0,0.319385,0.330608,0.324349,0.327672,0.223149,8.6e-05,9e-05,0.073189,-0.001078,-0.003382,0.0,0.0,0.0,0.0,0.0,0.0
162819,0.084983,-0.002691,0.003158,0.0,0.0,0.0,0.087266,0.0,0.0,3.0,0.318281,0.328652,0.323273,0.331732,0.22459,7.9e-05,2e-05,0.070147,-0.00106,-0.003279,0.0,0.0,0.0,0.0,0.0,0.0
162839,0.087794,-0.002573,0.003156,0.0,0.0,0.0,0.087266,0.0,0.0,3.0,0.313801,0.331074,0.32532,0.331538,0.22597,7.3e-05,-4.8e-05,0.067088,-0.001041,-0.003176,0.0,0.0,0.0,0.0,0.0,0.0
162859,0.090361,-0.002333,0.003148,0.0,0.0,0.0,0.087266,0.0,0.0,3.0,0.317589,0.32722,0.327044,0.33012,0.227289,6.7e-05,-0.000114,0.064013,-0.001021,-0.003075,0.0,0.0,0.0,0.0,0.0,0.0
162879,0.092927,-0.002337,0.003151,0.0,0.0,0.0,0.087266,0.0,0.0,3.0,0.315947,0.33109,0.327945,0.326906,0.228546,6.1e-05,-0.000178,0.060924,-0.001002,-0.002975,0.0,0.0,0.0,0.0,0.0,0.0
162899,0.09525,-0.002096,0.003142,0.0,0.0,0.0,0.087266,0.0,0.0,3.0,0.316882,0.330271,0.327223,0.327566,0.229741,5.5e-05,-0.000239,0.057822,-0.000982,-0.002877,0.0,0.0,0.0,0.0,0.0,0.0
162919,0.097573,-0.001856,0.003132,0.0,0.0,0.0,0.087266,0.0,0.0,3.0,0.31666,0.329499,0.327583,0.328196,0.230874,4.9e-05,-0.000299,0.054709,-0.000962,-0.00278,0.0,0.0,0.0,0.0,0.0,0.0
162939,0.09953,-0.001609,0.002999,0.0,0.0,0.0,0.087266,0.0,0.0,3.0,0.323995,0.326155,0.327432,0.324562,0.231945,4.3e-05,-0.000357,0.051586,-0.000941,-0.002685,0.0,0.0,0.0,0.0,0.0,0.0
162959,0.101487,-0.00149,0.002995,0.0,0.0,0.0,0.087266,0.0,0.0,3.0,0.326728,0.322954,0.330306,0.322083,0.232953,3.7e-05,-0.000413,0.048454,-0.000921,-0.002591,0.0,0.0,0.0,0.0,0.0,0.0
162979,0.103317,-0.001133,0.003098,0.0,0.0,0.0,0.087266,0.0,0.0,3.0,0.320668,0.323703,0.322735,0.334802,0.233899,3.1e-05,-0.000467,0.045314,-0.0009,-0.002499,0.0,0.0,0.0,0.0,0.0,0.0
162999,0.104908,-0.001129,0.002977,0.0,0.0,0.0,0.087266,0.0,0.0,3.0,0.322707,0.329045,0.323173,0.327175,0.234781,2.6e-05,-0.000519,0.042169,-0.000879,-0.002408,0.0,0.0,0.0,0.0,0.0,0.0
163019,0.106377,-0.001131,0.002978,0.0,0.0,0.0,0.087266,0.0,0.0,3.0,0.31938,0.328761,0.325254,0.328643,0.235402,2.1e-05,-0.000557,0.039806,-0.000863,-0.002342,0.0,0.0,0.0,0.0,0.0,0.0
163039,0.107841,-0.000645,0.002952,0.0,0.0,0.0,0.087266,0.0,0.0,3.0,0.322827,0.32865,0.321708,0.328885,0.236358,1.4e-05,-0.000618,0.035865,-0.000837,-0.002232,0.0,0.0,0.0,0.0,0.0,0.0
163059,0.109432,-0.000519,0.002824,0.0,0.0,0.0,0.087266,0.0,0.0,3.0,0.319041,0.328473,0.327104,0.327422,0.237052,8e-06,-0.000664,0.032709,-0.000816,-0.002146,0.0,0.0,0.0,0.0,0.0,0.0
163079,0.110659,8.9e-05,0.00279,0.0,0.0,0.0,0.087266,0.0,0.0,3.0,0.323926,0.322147,0.322525,0.333385,0.237682,2e-06,-0.000709,0.029553,-0.000795,-0.002062,0.0,0.0,0.0,0.0,0.0,0.0
163099,0.112121,8.6e-05,0.00279,0.0,0.0,0.0,0.087266,0.0,0.0,3.0,0.322541,0.331571,0.32121,0.326701,0.23825,-4e-06,-0.000752,0.026397,-0.00078,-0.002,0.0,0.0,0.0,0.0,0.0,0.0
163119,0.113835,0.000572,0.002762,0.0,0.0,0.0,0.087266,0.0,0.0,3.0,0.32013,0.324686,0.326553,0.331871,0.238634,-8e-06,-0.000784,0.024032,-0.000759,-0.001919,0.0,0.0,0.0,0.0,0.0,0.0
163139,0.11567,0.000562,0.002883,0.0,0.0,0.0,0.087266,0.0,0.0,3.0,0.307418,0.335833,0.322313,0.335462,0.239195,-1.5e-05,-0.000834,0.020093,-0.000733,-0.001819,0.0,0.0,0.0,0.0,0.0,0.0
163159,0.117506,0.000803,0.002868,0.0,0.0,0.0,0.087266,0.0,0.0,3.0,0.308819,0.330279,0.324842,0.3373,0.239573,-2e-05,-0.000872,0.016946,-0.000712,-0.001741,0.0,0.0,0.0,0.0,0.0,0.0
163179,0.119219,0.001044,0.002852,0.0,0.0,0.0,0.087266,0.0,0.0,3.0,0.308466,0.33557,0.322178,0.33492,0.239889,-2.6e-05,-0.000908,0.013806,-0.000691,-0.001665,0.0,0.0,0.0,0.0,0.0,0.0
163199,0.121176,0.001163,0.002843,0.0,0.0,0.0,0.087266,0.0,0.0,3.0,0.311899,0.330221,0.330752,0.328776,0.240141,-3.2e-05,-0.000943,0.010673,-0.000671,-0.00159,0.0,0.0,0.0,0.0,0.0,0.0
163219,0.123134,0.001518,0.002941,0.0,0.0,0.0,0.087266,0.0,0.0,3.0,0.302038,0.337418,0.326379,0.334702,0.240331,-3.7e-05,-0.000977,0.007548,-0.00065,-0.001517,0.0,0.0,0.0,0.0,0.0,0.0
163239,0.12484,0.001637,0.002932,0.0,0.0,0.0,0.087266,0.0,0.0,3.0,0.310926,0.330289,0.33138,0.328975,0.240459,-4.2e-05,-0.001009,0.004432,-0.00063,-0.001446,0.0,0.0,0.0,0.0,0.0,0.0
163259,0.126554,0.002,0.002907,0.0,0.0,0.0,0.087266,0.0,0.0,3.0,0.317534,0.320464,0.337277,0.326408,0.240524,-4.8e-05,-0.00104,0.001327,-0.00061,-0.001376,0.0,0.0,0.0,0.0,0.0,0.0
163279,0.128146,0.002111,0.003019,0.0,0.0,0.0,0.087266,0.0,0.0,3.0,0.314812,0.330621,0.325724,0.330654,0.240527,-5.3e-05,-0.001069,-0.001766,-0.00059,-0.001307,0.0,0.0,0.0,0.0,0.0,0.0
163299,0.129738,0.002466,0.003115,0.0,0.0,0.0,0.087266,0.0,0.0,3.0,0.31395,0.329447,0.323076,0.335169,0.240469,-5.8e-05,-0.001096,-0.004845,-0.00057,-0.00124,0.0,0.0,0.0,0.0,0.0,0.0
163319,0.131573,0.002577,0.003226,0.0,0.0,0.0,0.087266,0.0,0.0,3.0,0.308514,0.333658,0.326445,0.332692,0.240349,-6.3e-05,-0.001123,-0.007911,-0.000551,-0.001175,0.0,0.0,0.0,0.0,0.0,0.0
163339,0.133044,0.00281,0.00333,0.0,0.0,0.0,0.087266,0.0,0.0,3.0,0.308041,0.331883,0.3301,0.331299,0.240168,-6.8e-05,-0.001148,-0.010961,-0.000532,-0.001111,0.0,0.0,0.0,0.0,0.0,0.0
163359,0.134514,0.002921,0.003441,0.0,0.0,0.0,0.087266,0.0,0.0,3.0,0.307222,0.329737,0.331467,0.332812,0.239926,-7.3e-05,-0.001171,-0.013994,-0.000513,-0.001048,0.0,0.0,0.0,0.0,0.0,0.0
163379,0.135732,0.003154,0.003544,0.0,0.0,0.0,0.087266,0.0,0.0,3.0,0.306035,0.333586,0.323944,0.337368,0.239624,-7.8e-05,-0.001193,-0.017009,-0.000494,-0.000987,0.0,0.0,0.0,0.0,0.0,0.0
163399,0.136959,0.003143,0.003664,0.0,0.0,0.0,0.087266,0.0,0.0,3.0,0.310311,0.332823,0.326759,0.331592,0.239261,-8.3e-05,-0.001214,-0.020005,-0.000475,-0.000927,0.0,0.0,0.0,0.0,0.0,0.0
163419,0.138429,0.003375,0.003766,0.0,0.0,0.0,0.087266,0.0,0.0,3.0,0.306064,0.331741,0.331223,0.332103,0.238838,-8.8e-05,-0.001234,-0.022981,-0.000457,-0.000869,0.0,0.0,0.0,0.0,0.0,0.0
163439,0.139778,0.003485,0.003877,0.0,0.0,0.0,0.087266,0.0,0.0,3.0,0.305224,0.333893,0.331025,0.330888,0.238357,-9.3e-05,-0.001253,-0.025936,-0.000439,-0.000812,0.0,0.0,0.0,0.0,0.0,0.0
163459,0.141118,0.003595,0.003987,0.0,0.0,0.0,0.087266,0.0,0.0,3.0,0.303007,0.332295,0.333386,0.332098,0.237816,-9.7e-05,-0.00127,-0.028869,-0.000421,-0.000757,0.0,0.0,0.0,0.0,0.0,0.0
163479,0.142345,0.003949,0.00408,0.0,0.0,0.0,0.087266,0.0,0.0,3.0,0.307589,0.328475,0.331711,0.333483,0.237217,-0.000102,-0.001287,-0.031778,-0.000403,-0.000702,0.0,0.0,0.0,0.0,0.0,0.0
