time_ms,roll,pitch,yaw,x,y,z,reference_roll,reference_pitch,reference_yaw,reference_throttle,throttle_1,throttle_2,throttle_3,throttle_4,roll_predicted,pitch_predicted,yaw_predicted,roll_rate_predicted,pitch_rate_predicted,yaw_rate_predicted,value1,value2,value3,value4,value5,value6
373179,0.005541,-0.021596,-0.004337,0.0,0.0,0.0,0.0,0.0,0.0,3.0,0.338179,0.327286,0.31783,0.318291,4e-06,-0.002346,0.0,2e-06,0.004856,-0.0,0.0,0.0,0.0,0.0,0.0,0.0
373199,0.005541,-0.021718,-0.004336,0.0,0.0,0.0,0.0,0.0,0.0,3.0,0.332399,0.326087,0.321007,0.322505,4e-06,-0.002249,0.0,2e-06,0.004886,-0.0,0.0,0.0,0.0,0.0,0.0,0.0
373219,0.005664,-0.021473,-0.004458,0.0,0.0,0.0,0.0,0.0,0.0,3.0,0.332763,0.319643,0.327594,0.321941,5e-06,-0.002151,0.0,2e-06,0.004913,-0.0,0.0,0.0,0.0,0.0,0.0,0.0
373239,0.005542,-0.021718,-0.004458,0.0,0.0,0.0,0.0,0.0,0.0,3.0,0.337376,0.327504,0.321782,0.314933,5e-06,-0.002053,0.0,2e-06,0.004939,-0.0,0.0,0.0,0.0,0.0,0.0,0.0
373259,0.005786,-0.021473,-0.004456,0.0,0.0,0.0,0.0,0.0,0.0,3.0,0.335844,0.325249,0.323364,0.31733,5e-06,-0.001954,0.0,2e-06,0.004963,-0.0,0.0,0.0,0.0,0.0,0.0,0.0
373279,0.005909,-0.02135,-0.004578,0.0,0.0,0.0,0.0,0.0,0.0,3.0,0.342216,0.321877,0.327401,0.309514,5e-06,-0.001854,0.0,2e-06,0.004985,-0.0,0.0,0.0,0.0,0.0,0.0,0.0
373299,0.006153,-0.021228,-0.004575,0.0,0.0,0.0,0.0,0.0,0.0,3.0,0.331625,0.326778,0.328454,0.314971,5e-06,-0.001754,0.0,2e-06,0.005004,-0.0,0.0,0.0,0.0,0.0,0.0,0.0
373319,0.006029,-0.021106,-0.004455,0.0,0.0,0.0,0.0,0.0,0.0,3.0,0.327204,0.332713,0.318449,0.323566,5e-06,-0.001654,0.0,2e-06,0.005022,-0.0,0.0,0.0,0.0,0.0,0.0,0.0
373339,0.005785,-0.021229,-0.004457,0.0,0.0,0.0,0.0,0.0,0.0,3.0,0.339502,0.326754,0.319218,0.316003,5e-06,-0.001554,0.0,2e-06,0.005037,-0.0,0.0,0.0,0.0,0.0,0.0,0.0
373359,0.005541,-0.021351,-0.004459,0.0,0.0,0.0,0.0,0.0,0.0,3.0,0.337636,0.329252,0.321972,0.31259,5e-06,-0.001453,0.0,1e-06,0.005051,-0.0,0.0,0.0,0.0,0.0,0.0,0.0
373379,0.00542,-0.021229,-0.004583,0.0,0.0,0.0,0.0,0.0,0.0,3.0,0.342443,0.319595,0.331003,0.307725,5e-06,-0.001352,0.0,1e-06,0.005062,-0.0,0.0,0.0,0.0,0.0,0.0,0.0
373399,0.005297,-0.021108,-0.004463,0.0,0.0,0.0,0.0,0.0,0.0,3.0,0.336028,0.325363,0.321348,0.319067,5e-06,-0.00125,0.0,1e-06,0.005071,-0.0,0.0,0.0,0.0,0.0,0.0,0.0
373419,0.005297,-0.02123,-0.004462,0.0,0.0,0.0,0.0,0.0,0.0,3.0,0.336376,0.327438,0.323458,0.314365,5e-06,-0.001149,0.0,1e-06,0.005078,-0.0,0.0,0.0,0.0,0.0,0.0,0.0
373439,0.005297,-0.021108,-0.004463,0.0,0.0,0.0,0.0,0.0,0.0,3.0,0.337952,0.324148,0.322182,0.31739,5e-06,-0.001047,0.0,1e-06,0.005083,-0.0,0.0,0.0,0.0,0.0,0.0,0.0
373459,0.005418,-0.020984,-0.004461,0.0,0.0,0.0,0.0,0.0,0.0,3.0,0.338528,0.32555,0.32335,0.314096,5e-06,-0.000946,0.0,1e-06,0.005086,-0.0,0.0,0.0,0.0,0.0,0.0,0.0
373479,0.005662,-0.020862,-0.004459,0.0,0.0,0.0,0.0,0.0,0.0,3.0,0.335712,0.319662,0.329709,0.316584,5e-06,-0.000844,0.0,1e-06,0.005087,-0.0,0.0,0.0,0.0,0.0,0.0,0.0
373499,0.005662,-0.02074,-0.004459,0.0,0.0,0.0,0.0,0.0,0.0,3.0,0.336548,0.3223,0.327583,0.315222,5e-06,-0.000742,0.0,1e-06,0.005086,-0.0,0.0,0.0,0.0,0.0,0.0,0.0
373519,0.005416,-0.02074,-0.00434,0.0,0.0,0.0,0.0,0.0,0.0,3.0,0.337332,0.327963,0.316337,0.319983,5e-06,-0.00064,0.0,1e-06,0.005083,-0.0,0.0,0.0,0.0,0.0,0.0,0.0
373539,0.005294,-0.020741,-0.004341,0.0,0.0,0.0,0.0,0.0,0.0,3.0,0.339222,0.326452,0.320773,0.315042,5e-06,-0.000539,0.0,0.0,0.005078,-0.0,0.0,0.0,0.0,0.0,0.0,0.0
373559,0.005295,-0.020863,-0.00434,0.0,0.0,0.0,0.0,0.0,0.0,3.0,0.335169,0.327151,0.325293,0.314073,5e-06,-0.000437,0.0,0.0,0.005071,-0.0,0.0,0.0,0.0,0.0,0.0,0.0
373579,0.004927,-0.020742,-0.004222,0.0,0.0,0.0,0.0,0.0,0.0,3.0,0.333425,0.333061,0.321768,0.315052,5e-06,-0.000361,0.0,0.0,0.005064,-0.0,0.0,0.0,0.0,0.0,0.0,0.0
373599,0.004927,-0.020742,-0.004222,0.0,0.0,0.0,0.0,0.0,0.0,3.0,0.335775,0.327051,0.323888,0.314984,5e-06,-0.000235,0.0,0.0,0.00505,-0.0,0.0,0.0,0.0,0.0,0.0,0.0
373619,0.004927,-0.02062,-0.004223,0.0,0.0,0.0,0.0,0.0,0.0,3.0,0.336237,0.327878,0.324305,0.313167,5e-06,-0.000134,0.0,0.0,0.005037,-0.0,0.0,0.0,0.0,0.0,0.0,0.0
373639,0.005047,-0.020376,-0.0041,0.0,0.0,0.0,0.0,0.0,0.0,3.0,0.334448,0.326749,0.324356,0.316255,5e-06,-5.8e-05,0.0,0.0,0.005026,-0.0,0.0,0.0,0.0,0.0,0.0,0.0
373659,0.005167,-0.02001,-0.003978,0.0,0.0,0.0,0.0,0.0,0.0,3.0,0.339309,0.322877,0.321102,0.318311,5e-06,4.2e-05,0.0,-0.0,0.005009,-0.0,0.0,0.0,0.0,0.0,0.0,0.0
373679,0.005044,-0.019644,-0.00398,0.0,0.0,0.0,0.0,0.0,0.0,3.0,0.331312,0.325421,0.321522,0.323796,5e-06,0.000167,0.0,-0.0,0.004986,-0.0,0.0,0.0,0.0,0.0,0.0,0.0
373699,0.005044,-0.019522,-0.00398,0.0,0.0,0.0,0.0,0.0,0.0,3.0,0.34136,0.320628,0.328417,0.310705,5e-06,0.000242,0.0,-0.0,0.00497,-0.0,0.0,0.0,0.0,0.0,0.0,0.0
373719,0.005165,-0.0194,-0.003857,0.0,0.0,0.0,0.0,0.0,0.0,3.0,0.333587,0.327932,0.325461,0.314791,5e-06,0.000366,0.0,-0.0,0.004941,-0.0,0.0,0.0,0.0,0.0,0.0,0.0
373739,0.005042,-0.019156,-0.003859,0.0,0.0,0.0,0.0,0.0,0.0,3.0,0.33986,0.321737,0.32743,0.312301,5e-06,0.000464,0.0,-1e-06,0.004917,-0.0,0.0,0.0,0.0,0.0,0.0,0.0
373759,0.004796,-0.018912,-0.00374,0.0,0.0,0.0,0.0,0.0,0.0,3.0,0.336043,0.328319,0.317998,0.319355,5e-06,0.000562,0.0,-1e-06,0.00489,-0.0,0.0,0.0,0.0,0.0,0.0,0.0
373779,0.004918,-0.018668,-0.003739,0.0,0.0,0.0,0.0,0.0,0.0,3.0,0.336721,0.323751,0.323492,0.317795,5e-06,0.00066,0.0,-1e-06,0.004861,-0.0,0.0,0.0,0.0,0.0,0.0,0.0
373799,0.00504,-0.018424,-0.003739,0.0,0.0,0.0,0.0,0.0,0.0,3.0,0.336152,0.323752,0.324517,0.317355,5e-06,0.000757,0.0,-1e-06,0.00483,-0.0,0.0,0.0,0.0,0.0,0.0,0.0
373819,0.005039,-0.018179,-0.003739,0.0,0.0,0.0,0.0,0.0,0.0,3.0,0.334962,0.320947,0.325841,0.320119,5e-06,0.000853,0.0,-1e-06,0.004798,-0.0,0.0,0.0,0.0,0.0,0.0,0.0
373839,0.004917,-0.018302,-0.00374,0.0,0.0,0.0,0.0,0.0,0.0,3.0,0.339763,0.322496,0.326164,0.312964,5e-06,0.000949,0.0,-1e-06,0.004764,-0.0,0.0,0.0,0.0,0.0,0.0,0.0
373859,0.004916,-0.018302,-0.003618,0.0,0.0,0.0,0.0,0.0,0.0,3.0,0.336699,0.326211,0.322645,0.316141,5e-06,0.001044,0.0,-1e-06,0.004728,-0.0,0.0,0.0,0.0,0.0,0.0,0.0
373879,0.004794,-0.018058,-0.00362,0.0,0.0,0.0,0.0,0.0,0.0,3.0,0.340355,0.325148,0.320321,0.315615,5e-06,0.001138,0.0,-1e-06,0.00469,-0.0,0.0,0.0,0.0,0.0,0.0,0.0
373899,0.004916,-0.017936,-0.003619,0.0,0.0,0.0,0.0,0.0,0.0,3.0,0.333526,0.329374,0.323911,0.314945,5e-06,0.001232,0.0,-1e-06,0.00465,-0.0,0.0,0.0,0.0,0.0,0.0,0.0
373919,0.005037,-0.017814,-0.003618,0.0,0.0,0.0,0.0,0.0,0.0,3.0,0.333868,0.325802,0.326866,0.315254,5e-06,0.001325,0.0,-1e-06,0.004609,-0.0,0.0,0.0,0.0,0.0,0.0,0.0
373939,0.004915,-0.01757,-0.00362,0.0,0.0,0.0,0.0,0.0,0.0,3.0,0.33666,0.323934,0.324409,0.316729,5e-06,0.001416,0.0,-1e-06,0.004566,-0.0,0.0,0.0,0.0,0.0,0.0,0.0
373959,0.004914,-0.017326,-0.00362,0.0,0.0,0.0,0.0,0.0,0.0,3.0,0.337151,0.323462,0.324017,0.317084,5e-06,0.001507,0.0,-2e-06,0.004521,-0.0,0.0,0.0,0.0,0.0,0.0,0.0
373979,0.00467,-0.017082,-0.003623,0.0,0.0,0.0,0.0,0.0,0.0,3.0,0.340207,0.325788,0.320959,0.314457,5e-06,0.001598,0.0,-2e-06,0.004475,-0.0,0.0,0.0,0.0,0.0,0.0,0.0
373999,0.004668,-0.016838,-0.003502,0.0,0.0,0.0,0.0,0.0,0.0,3.0,0.335413,0.327186,0.322286,0.316888,5e-06,0.001687,0.0,-2e-06,0.004439,-0.0,0.0,0.0,0.0,0.0,0.0,0.0
374019,0.00479,-0.016472,-0.003501,0.0,0.0,0.0,0.0,0.0,0.0,3.0,0.334697,0.321799,0.326325,0.319045,5e-06,0.001775,0.0,-2e-06,0.004377,-0.0,0.0,0.0,0.0,0.0,0.0,0.0
374039,0.004424,-0.016472,-0.003504,0.0,0.0,0.0,0.0,0.0,0.0,3.0,0.3395,0.32571,0.321718,0.314542,5e-06,0.001862,0.0,-2e-06,0.004326,-0.0,0.0,0.0,0.0,0.0,0.0,0.0
374059,0.004423,-0.016106,-0.003505,0.0,0.0,0.0,0.0,0.0,0.0,3.0,0.339171,0.322878,0.323884,0.315613,5e-06,0.001948,0.0,-2e-06,0.004273,-0.0,0.0,0.0,0.0,0.0,0.0,0.0
374079,0.004177,-0.015863,-0.003386,0.0,0.0,0.0,0.0,0.0,0.0,3.0,0.338969,0.325707,0.320625,0.316251,5e-06,0.002033,0.0,-2e-06,0.004219,-0.0,0.0,0.0,0.0,0.0,0.0,0.0
374099,0.004299,-0.01574,-0.003385,0.0,0.0,0.0,0.0,0.0,0.0,3.0,0.335319,0.324174,0.325912,0.316376,4e-06,0.002117,0.0,-2e-06,0.004163,-0.0,0.0,0.0,0.0,0.0,0.0,0.0
374119,0.003932,-0.015375,-0.003266,0.0,0.0,0.0,0.0,0.0,0.0,3.0,0.333903,0.324465,0.320481,0.323096,4e-06,0.0022,0.0,-2e-06,0.004105,-0.0,0.0,0.0,0.0,0.0,0.0,0.0
374139,0.003687,-0.015253,-0.003269,0.0,0.0,0.0,0.0,0.0,0.0,3.0,0.337802,0.323119,0.323057,0.317714,4e-06,0.002282,0.0,-2e-06,0.004046,-0.0,0.0,0.0,0.0,0.0,0.0,0.0
374159,0.003442,-0.01501,-0.003149,0.0,0.0,0.0,0.0,0.0,0.0,3.0,0.334393,0.328139,0.31284,0.326272,4e-06,0.002362,0.0,-2e-06,0.003986,-0.0,0.0,0.0,0.0,0.0,0.0,0.0
374179,0.003442,-0.015132,-0.003149,0.0,0.0,0.0,0.0,0.0,0.0,3.0,0.33661,0.330786,0.323715,0.310239,4e-06,0.002441,-0.0,-2e-06,0.003924,-0.0,0.0,0.0,0.0,0.0,0.0,0.0
374199,0.003319,-0.014766,-0.00315,0.0,0.0,0.0,0.0,0.0,0.0,3.0,0.339664,0.323339,0.324961,0.313464,4e-06,0.002519,-0.0,-3e-06,0.003861,-0.0,0.0,0.0,0.0,0.0,0.0,0.0
374219,0.003196,-0.014522,-0.003029,0.0,0.0,0.0,0.0,0.0,0.0,3.0,0.33645,0.326783,0.323223,0.315218,4e-06,0.002596,-0.0,-3e-06,0.003797,-0.0,0.0,0.0,0.0,0.0,0.0,0.0
374239,0.003317,-0.014278,-0.002907,0.0,0.0,0.0,0.0,0.0,0.0,3.0,0.330277,0.331826,0.316868,0.322888,4e-06,0.002672,-0.0,-3e-06,0.003731,-0.0,0.0,0.0,0.0,0.0,0.0,0.0
374259,0.003195,-0.014156,-0.002908,0.0,0.0,0.0,0.0,0.0,0.0,3.0,0.334452,0.329664,0.32065,0.316989,4e-06,0.002746,-0.0,-3e-06,0.003664,-0.0,0.0,0.0,0.0,0.0,0.0,0.0
374279,0.003194,-0.01379,-0.002908,0.0,0.0,0.0,0.0,0.0,0.0,3.0,0.335173,0.320121,0.325696,0.320869,4e-06,0.002818,-0.0,-3e-06,0.003596,-0.0,0.0,0.0,0.0,0.0,0.0,0.0
374299,0.003072,-0.013668,-0.002909,0.0,0.0,0.0,0.0,0.0,0.0,3.0,0.334639,0.325711,0.326595,0.314799,4e-06,0.00289,-0.0,-3e-06,0.003526,-0.0,0.0,0.0,0.0,0.0,0.0,0.0
374319,0.003071,-0.013424,-0.00291,0.0,0.0,0.0,0.0,0.0,0.0,3.0,0.336418,0.324752,0.324908,0.315626,4e-06,0.00296,-0.0,-3e-06,0.003456,-0.0,0.0,0.0,0.0,0.0,0.0,0.0
374339,0.002582,-0.013181,-0.002791,0.0,0.0,0.0,0.0,0.0,0.0,3.0,0.341123,0.326368,0.316421,0.317428,4e-06,0.003028,-0.0,-3e-06,0.003384,-0.0,0.0,0.0,0.0,0.0,0.0,0.0
374359,0.002704,-0.012936,-0.002791,0.0,0.0,0.0,0.0,0.0,0.0,3.0,0.337454,0.325703,0.323572,0.314889,4e-06,0.003096,-0.0,-3e-06,0.003311,-0.0,0.0,0.0,0.0,0.0,0.0,0.0
374379,0.002703,-0.012448,-0.002791,0.0,0.0,0.0,0.0,0.0,0.0,3.0,0.337551,0.323389,0.323755,0.316994,4e-06,0.003161,-0.0,-3e-06,0.003237,-0.0,0.0,0.0,0.0,0.0,0.0,0.0
374399,0.002702,-0.012082,-0.00267,0.0,0.0,0.0,0.0,0.0,0.0,3.0,0.338067,0.323769,0.326691,0.312965,4e-06,0.00321,-0.0,-3e-06,0.003181,-0.0,0.0,0.0,0.0,0.0,0.0,0.0
374419,0.002701,-0.011716,-0.00267,0.0,0.0,0.0,0.0,0.0,0.0,3.0,0.335324,0.319717,0.325238,0.321577,4e-06,0.003288,-0.0,-3e-06,0.003086,-0.0,0.0,0.0,0.0,0.0,0.0,0.0
374439,0.002823,-0.011471,-0.00267,0.0,0.0,0.0,0.0,0.0,0.0,3.0,0.332899,0.320175,0.328409,0.320433,4e-06,0.003349,-0.0,-3e-06,0.003008,-0.0,0.0,0.0,0.0,0.0,0.0,0.0
374459,0.002701,-0.011227,-0.002671,0.0,0.0,0.0,0.0,0.0,0.0,3.0,0.341993,0.319003,0.326107,0.314129,3e-06,0.003409,-0.0,-3e-06,0.00293,-0.0,0.0,0.0,0.0,0.0,0.0,0.0
374479,0.002822,-0.011227,-0.002548,0.0,0.0,0.0,0.0,0.0,0.0,3.0,0.332575,0.33037,0.322244,0.31663,3e-06,0.003467,-0.0,-3e-06,0.002851,-0.0,0.0,0.0,0.0,0.0,0.0,0.0
374499,0.002822,-0.010983,-0.002671,0.0,0.0,0.0,0.0,0.0,0.0,3.0,0.337477,0.322921,0.325327,0.31593,3e-06,0.003523,-0.0,-4e-06,0.002771,-0.0,0.0,0.0,0.0,0.0,0.0,0.0
374519,0.002944,-0.010861,-0.00267,0.0,0.0,0.0,0.0,0.0,0.0,3.0,0.335432,0.327014,0.327742,0.317307,3e-06,0.003565,-0.0,-4e-06,0.002711,-0.0,0.0,0.0,0.0,0.0,0.0,0.0
374539,0.003188,-0.010616,-0.002669,0.0,0.0,0.0,0.0,0.0,0.0,3.0,0.333477,0.325408,0.328157,0.314728,3e-06,0.003631,-0.0,-4e-06,0.002609,-0.0,0.0,0.0,0.0,0.0,0.0,0.0
374559,0.003066,-0.01025,-0.002792,0.0,0.0,0.0,0.0,0.0,0.0,3.0,0.339202,0.319077,0.329449,0.313627,3e-06,0.003683,-0.0,-4e-06,0.002527,-0.0,0.0,0.0,0.0,0.0,0.0,0.0
374579,0.003066,-0.010128,-0.002793,0.0,0.0,0.0,0.0,0.0,0.0,3.0,0.337337,0.319826,0.328445,0.315985,3e-06,0.003733,-0.0,-4e-06,0.002444,-0.0,0.0,0.0,0.0,0.0,0.0,0.0
374599,0.003066,-0.009884,-0.002793,0.0,0.0,0.0,0.0,0.0,0.0,3.0,0.337639,0.323109,0.324592,0.316322,3e-06,0.003781,-0.0,-4e-06,0.00236,-0.0,0.0,0.0,0.0,0.0,0.0,0.0
374619,0.003066,-0.009762,-0.002793,0.0,0.0,0.0,0.0,0.0,0.0,3.0,0.335306,0.324553,0.32679,0.315078,3e-06,0.003828,-0.0,-4e-06,0.002275,-0.0,0.0,0.0,0.0,0.0,0.0,0.0
374639,0.003066,-0.009395,-0.002916,0.0,0.0,0.0,0.0,0.0,0.0,3.0,0.340341,0.319344,0.32873,0.31285,3e-06,0.003872,-0.0,-4e-06,0.00219,-0.0,0.0,0.0,0.0,0.0,0.0,0.0
374659,0.002943,-0.009274,-0.002917,0.0,0.0,0.0,0.0,0.0,0.0,3.0,0.341029,0.322677,0.326792,0.31068,3e-06,0.003916,-0.0,-4e-06,0.002104,-0.0,0.0,0.0,0.0,0.0,0.0,0.0
374679,0.002943,-0.008907,-0.002917,0.0,0.0,0.0,0.0,0.0,0.0,3.0,0.341913,0.31972,0.327583,0.311918,3e-06,0.003957,-0.0,-4e-06,0.002018,-0.0,0.0,0.0,0.0,0.0,0.0,0.0
374699,0.002942,-0.008663,-0.002795,0.0,0.0,0.0,0.0,0.0,0.0,3.0,0.334001,0.329163,0.316652,0.321976,3e-06,0.003997,-0.0,-4e-06,0.001931,-0.0,0.0,0.0,0.0,0.0,0.0,0.0
374719,0.003064,-0.008297,-0.002795,0.0,0.0,0.0,0.0,0.0,0.0,3.0,0.332142,0.32343,0.322741,0.323723,2e-06,0.004035,-0.0,-4e-06,0.001844,-0.0,0.0,0.0,0.0,0.0,0.0,0.0
374739,0.003186,-0.00793,-0.002918,0.0,0.0,0.0,0.0,0.0,0.0,3.0,0.337367,0.31537,0.329953,0.318827,2e-06,0.004071,-0.0,-4e-06,0.001756,-0.0,0.0,0.0,0.0,0.0,0.0,0.0
374759,0.003063,-0.007564,-0.002919,0.0,0.0,0.0,0.0,0.0,0.0,3.0,0.337609,0.317449,0.325428,0.321193,2e-06,0.004105,-0.0,-4e-06,0.001668,-0.0,0.0,0.0,0.0,0.0,0.0,0.0
374779,0.003063,-0.007442,-0.002919,0.0,0.0,0.0,0.0,0.0,0.0,3.0,0.339209,0.319286,0.328667,0.31424,2e-06,0.004138,-0.0,-4e-06,0.00158,-0.0,0.0,0.0,0.0,0.0,0.0,0.0
374799,0.00294,-0.007076,-0.00292,0.0,0.0,0.0,0.0,0.0,0.0,3.0,0.345471,0.316625,0.329327,0.309151,2e-06,0.004169,-0.0,-4e-06,0.001491,-0.0,0.0,0.0,0.0,0.0,0.0,0.0
374819,0.003061,-0.006832,-0.002798,0.0,0.0,0.0,0.0,0.0,0.0,3.0,0.332646,0.327166,0.324033,0.318083,2e-06,0.004198,-0.0,-4e-06,0.001402,-0.0,0.0,0.0,0.0,0.0,0.0,0.0
374839,0.003061,-0.006222,-0.002799,0.0,0.0,0.0,0.0,0.0,0.0,3.0,0.330834,0.326254,0.319573,0.325364,2e-06,0.004219,-0.0,-4e-06,0.001334,-0.0,0.0,0.0,0.0,0.0,0.0,0.0
374859,0.002939,-0.0061,-0.002921,0.0,0.0,0.0,0.0,0.0,0.0,3.0,0.340109,0.322812,0.325476,0.312974,2e-06,0.004251,-0.0,-4e-06,0.001245,-0.0,0.0,0.0,0.0,0.0,0.0,0.0
374879,0.002938,-0.005734,-0.0028,0.0,0.0,0.0,0.0,0.0,0.0,3.0,0.336391,0.322764,0.324992,0.31762,2e-06,0.004275,-0.0,-4e-06,0.001132,-0.0,0.0,0.0,0.0,0.0,0.0,0.0
374899,0.002937,-0.005367,-0.0028,0.0,0.0,0.0,0.0,0.0,0.0,3.0,0.331893,0.324669,0.324214,0.321256,2e-06,0.004297,-0.0,-4e-06,0.001042,-0.0,0.0,0.0,0.0,0.0,0.0,0.0
374919,0.002693,-0.005246,-0.002801,0.0,0.0,0.0,0.0,0.0,0.0,3.0,0.334375,0.324426,0.321384,0.321742,2e-06,0.004317,-0.0,-4e-06,0.000952,-0.0,0.0,0.0,0.0,0.0,0.0,0.0
374939,0.002693,-0.005001,-0.002801,0.0,0.0,0.0,0.0,0.0,0.0,3.0,0.335266,0.324184,0.325707,0.316637,2e-06,0.004335,-0.0,-4e-06,0.000862,-0.0,0.0,0.0,0.0,0.0,0.0,0.0
374959,0.002693,-0.004879,-0.002802,0.0,0.0,0.0,0.0,0.0,0.0,3.0,0.335584,0.323255,0.327481,0.315395,1e-06,0.004352,-0.0,-4e-06,0.000772,-0.0,0.0,0.0,0.0,0.0,0.0,0.0
374979,0.002814,-0.004513,-0.00268,0.0,0.0,0.0,0.0,0.0,0.0,3.0,0.329355,0.32859,0.31996,0.324136,1e-06,0.004367,-0.0,-4e-06,0.000681,-0.0,0.0,0.0,0.0,0.0,0.0,0.0
374999,0.002692,-0.004147,-0.002803,0.0,0.0,0.0,0.0,0.0,0.0,3.0,0.340903,0.318184,0.328261,0.313909,1e-06,0.00438,-0.0,-4e-06,0.000591,-0.0,0.0,0.0,0.0,0.0,0.0,0.0
375019,0.002813,-0.003903,-0.002803,0.0,0.0,0.0,0.0,0.0,0.0,3.0,0.343726,0.315374,0.33169,0.309873,1e-06,0.004391,-0.0,-4e-06,0.000501,0.0,0.0,0.0,0.0,0.0,0.0,0.0
375039,0.002813,-0.003659,-0.002681,0.0,0.0,0.0,0.0,0.0,0.0,3.0,0.336769,0.322006,0.323802,0.319203,1e-06,0.0044,-0.0,-4e-06,0.000411,0.0,0.0,0.0,0.0,0.0,0.0,0.0
375059,0.002934,-0.003292,-0.002681,0.0,0.0,0.0,0.0,0.0,0.0,3.0,0.336811,0.31959,0.326342,0.318986,1e-06,0.004408,-0.0,-4e-06,0.000321,0.0,0.0,0.0,0.0,0.0,0.0,0.0
375079,0.002812,-0.003048,-0.002682,0.0,0.0,0.0,0.0,0.0,0.0,3.0,0.338617,0.318722,0.324686,0.319606,1e-06,0.004413,-0.0,-4e-06,0.000231,0.0,0.0,0.0,0.0,0.0,0.0,0.0
375099,0.002811,-0.002682,-0.00256,0.0,0.0,0.0,0.0,0.0,0.0,3.0,0.328683,0.325402,0.320871,0.327133,1e-06,0.004417,-0.0,-4e-06,0.000141,0.0,0.0,0.0,0.0,0.0,0.0,0.0
375119,0.002689,-0.00256,-0.00256,0.0,0.0,0.0,0.0,0.0,0.0,3.0,0.33692,0.321215,0.325187,0.31667,1e-06,0.004419,-0.0,-4e-06,7.4e-05,0.0,0.0,0.0,0.0,0.0,0.0,0.0
375139,0.002567,-0.002438,-0.002561,0.0,0.0,0.0,0.0,0.0,0.0,3.0,0.336813,0.322292,0.326408,0.316174,1e-06,0.00442,-0.0,-4e-06,-1.5e-05,0.0,0.0,0.0,0.0,0.0,0.0,0.0
375159,0.002567,-0.002438,-0.002561,0.0,0.0,0.0,0.0,0.0,0.0,3.0,0.340231,0.326236,0.322965,0.311873,1e-06,0.004418,-0.0,-4e-06,-0.000126,0.0,0.0,0.0,0.0,0.0,0.0,0.0
375179,0.002688,-0.001828,-0.002439,0.0,0.0,0.0,0.0,0.0,0.0,3.0,0.335137,0.325538,0.321229,0.319959,1e-06,0.004416,-0.0,-4e-06,-0.000193,0.0,0.0,0.0,0.0,0.0,0.0,0.0
375199,0.002932,-0.001583,-0.00244,0.0,0.0,0.0,0.0,0.0,0.0,3.0,0.330281,0.323313,0.327606,0.320847,0.0,0.00441,-0.0,-4e-06,-0.000303,0.0,0.0,0.0,0.0,0.0,0.0,0.0
375219,0.003054,-0.001339,-0.002562,0.0,0.0,0.0,0.0,0.0,0.0,3.0,0.337211,0.318552,0.329448,0.316354,0.0,0.004404,-0.0,-4e-06,-0.000391,0.0,0.0,0.0,0.0,0.0,0.0,0.0
375239,0.002931,-0.001339,-0.00244,0.0,0.0,0.0,0.0,0.0,0.0,3.0,0.337706,0.324724,0.324137,0.315049,0.0,0.004395,-0.0,-4e-06,-0.000478,0.0,0.0,0.0,0.0,0.0,0.0,0.0
375259,0.003175,-0.001095,-0.00244,0.0,0.0,0.0,0.0,0.0,0.0,3.0,0.33415,0.321039,0.329332,0.317269,0.0,0.004385,-0.0,-4e-06,-0.000565,0.0,0.0,0.0,0.0,0.0,0.0,0.0
375279,0.003053,-0.001095,-0.002562,0.0,0.0,0.0,0.0,0.0,0.0,3.0,0.339253,0.324148,0.326077,0.311895,0.0,0.004373,-0.0,-4e-06,-0.000651,0.0,0.0,0.0,0.0,0.0,0.0,0.0
375299,0.003053,-0.000851,-0.002563,0.0,0.0,0.0,0.0,0.0,0.0,3.0,0.336737,0.32235,0.327172,0.315396,-0.0,0.004359,-0.0,-4e-06,-0.000736,0.0,0.0,0.0,0.0,0.0,0.0,0.0
375319,0.003053,-0.000729,-0.002563,0.0,0.0,0.0,0.0,0.0,0.0,3.0,0.336893,0.320938,0.327637,0.319126,-0.0,0.004348,-0.0,-4e-06,-0.0008,0.0,0.0,0.0,0.0,0.0,0.0,0.0
375339,0.002931,-0.000607,-0.002563,0.0,0.0,0.0,0.0,0.0,0.0,3.0,0.340263,0.316665,0.330563,0.313707,-0.0,0.004331,-0.0,-4e-06,-0.000885,0.0,0.0,0.0,0.0,0.0,0.0,0.0
375359,0.002931,-0.000606,-0.002685,0.0,0.0,0.0,0.0,0.0,0.0,3.0,0.33827,0.320838,0.328636,0.313721,-0.0,0.004308,-0.0,-4e-06,-0.00099,0.0,0.0,0.0,0.0,0.0,0.0,0.0
375379,0.003052,-0.000362,-0.002685,0.0,0.0,0.0,0.0,0.0,0.0,3.0,0.339355,0.318159,0.328401,0.315506,-0.0,0.004288,-0.0,-4e-06,-0.001073,0.0,0.0,0.0,0.0,0.0,0.0,0.0
375399,0.003175,-0.000362,-0.002685,0.0,0.0,0.0,0.0,0.0,0.0,3.0,0.335175,0.321887,0.327685,0.31703,-0.0,0.004266,-0.0,-4e-06,-0.001156,0.0,0.0,0.0,0.0,0.0,0.0,0.0
375419,0.003296,-0.00024,-0.002808,0.0,0.0,0.0,0.0,0.0,0.0,3.0,0.335787,0.319243,0.330424,0.316171,-1e-06,0.004242,-0.0,-4e-06,-0.001237,0.0,0.0,0.0,0.0,0.0,0.0,0.0
375439,0.003296,5e-06,-0.002808,0.0,0.0,0.0,0.0,0.0,0.0,3.0,0.3359,0.317037,0.328886,0.319872,-1e-06,0.004217,-0.0,-4e-06,-0.001318,0.0,0.0,0.0,0.0,0.0,0.0,0.0
375459,0.003174,-0.000117,-0.00293,0.0,0.0,0.0,0.0,0.0,0.0,3.0,0.34142,0.320694,0.326673,0.312436,-1e-06,0.00419,-0.0,-4e-06,-0.001398,0.0,0.0,0.0,0.0,0.0,0.0,0.0
375479,0.003296,-0.000117,-0.00293,0.0,0.0,0.0,0.0,0.0,0.0,3.0,0.338956,0.322657,0.326091,0.313773,-1e-06,0.004161,-0.0,-4e-06,-0.001478,0.0,0.0,0.0,0.0,0.0,0.0,0.0
375499,0.003296,5e-06,-0.003052,0.0,0.0,0.0,0.0,0.0,0.0,3.0,0.341608,0.319697,0.330229,0.309428,-1e-06,0.004131,-0.0,-4e-06,-0.001556,0.0,0.0,0.0,0.0,0.0,0.0,0.0
375519,0.003418,0.000127,-0.003052,0.0,0.0,0.0,0.0,0.0,0.0,3.0,0.336164,0.321744,0.329545,0.314136,-1e-06,0.004099,-0.0,-4e-06,-0.001634,0.0,0.0,0.0,0.0,0.0,0.0,0.0
375539,0.003418,0.000249,-0.003053,0.0,0.0,0.0,0.0,0.0,0.0,3.0,0.336177,0.322687,0.327484,0.315333,-1e-06,0.004066,-0.0,-4e-06,-0.001711,0.0,0.0,0.0,0.0,0.0,0.0,0.0
375559,0.003539,0.000494,-0.003175,0.0,0.0,0.0,0.0,0.0,0.0,3.0,0.337638,0.318895,0.329554,0.315429,-1e-06,0.004031,-0.0,-4e-06,-0.001786,0.0,0.0,0.0,0.0,0.0,0.0,0.0
375579,0.003417,0.000494,-0.003297,0.0,0.0,0.0,0.0,0.0,0.0,3.0,0.343163,0.319948,0.329332,0.308356,-1e-06,0.003995,-0.0,-4e-06,-0.001861,0.0,0.0,0.0,0.0,0.0,0.0,0.0
375599,0.003539,0.000616,-0.003298,0.0,0.0,0.0,0.0,0.0,0.0,3.0,0.33822,0.323164,0.328076,0.311954,-1e-06,0.003967,-0.0,-4e-06,-0.001917,0.0,0.0,0.0,0.0,0.0,0.0,0.0
375619,0.003539,0.000616,-0.003298,0.0,0.0,0.0,0.0,0.0,0.0,3.0,0.338514,0.3224,0.327442,0.313101,-1e-06,0.003918,-0.0,-4e-06,-0.002008,0.0,0.0,0.0,0.0,0.0,0.0,0.0
375639,0.003539,0.000616,-0.003298,0.0,0.0,0.0,0.0,0.0,0.0,3.0,0.336528,0.321687,0.329561,0.313778,-1e-06,0.003877,-0.0,-4e-06,-0.002079,0.0,0.0,0.0,0.0,0.0,0.0,0.0
375659,0.003661,0.000495,-0.003419,0.0,0.0,0.0,0.0,0.0,0.0,3.0,0.335276,0.320337,0.332803,0.313054,-2e-06,0.003835,-0.0,-4e-06,-0.00215,-0.0,0.0,0.0,0.0,0.0,0.0,0.0
375679,0.003539,0.000739,-0.00342,0.0,0.0,0.0,0.0,0.0,0.0,3.0,0.335771,0.322708,0.323909,0.319454,-2e-06,0.003791,-0.0,-4e-06,-0.00222,-0.0,0.0,0.0,0.0,0.0,0.0,0.0
375699,0.003417,0.000739,-0.003542,0.0,0.0,0.0,0.0,0.0,0.0,3.0,0.343361,0.317176,0.32946,0.310873,-2e-06,0.003747,-0.0,-4e-06,-0.002288,-0.0,0.0,0.0,0.0,0.0,0.0,0.0
375719,0.003417,0.000861,-0.003542,0.0,0.0,0.0,0.0,0.0,0.0,3.0,0.344681,0.318341,0.328942,0.308707,-2e-06,0.0037,0.0,-4e-06,-0.002355,-0.0,0.0,0.0,0.0,0.0,0.0,0.0
375739,0.003538,0.001105,-0.003543,0.0,0.0,0.0,0.0,0.0,0.0,3.0,0.338665,0.319348,0.328586,0.314864,-2e-06,0.003653,0.0,-4e-06,-0.002421,-0.0,0.0,0.0,0.0,0.0,0.0,0.0
375759,0.00366,0.001227,-0.003543,0.0,0.0,0.0,0.0,0.0,0.0,3.0,0.330972,0.323029,0.324121,0.323953,-2e-06,0.003604,0.0,-4e-06,-0.002486,-0.0,0.0,0.0,0.0,0.0,0.0,0.0
375779,0.003538,0.001227,-0.003665,0.0,0.0,0.0,0.0,0.0,0.0,3.0,0.338208,0.317582,0.329941,0.315719,-2e-06,0.003566,0.0,-4e-06,-0.002534,-0.0,0.0,0.0,0.0,0.0,0.0,0.0
375799,0.003538,0.001349,-0.003665,0.0,0.0,0.0,0.0,0.0,0.0,3.0,0.336684,0.318373,0.330693,0.31579,-2e-06,0.003502,0.0,-3e-06,-0.002612,-0.0,0.0,0.0,0.0,0.0,0.0,0.0
375819,0.003294,0.001227,-0.003665,0.0,0.0,0.0,0.0,0.0,0.0,3.0,0.343464,0.318853,0.330373,0.304686,-2e-06,0.003463,0.0,-3e-06,-0.002658,-0.0,0.0,0.0,0.0,0.0,0.0,0.0
375839,0.003172,0.000982,-0.003664,0.0,0.0,0.0,0.0,0.0,0.0,3.0,0.341457,0.321619,0.325979,0.31217,-2e-06,0.003395,0.0,-3e-06,-0.002734,-0.0,0.0,0.0,0.0,0.0,0.0,0.0
375859,0.00305,0.001104,-0.003542,0.0,0.0,0.0,0.0,0.0,0.0,3.0,0.338304,0.325312,0.322033,0.315953,-2e-06,0.00334,0.0,-3e-06,-0.002792,-0.0,0.0,0.0,0.0,0.0,0.0,0.0
375879,0.002928,0.000982,-0.003542,0.0,0.0,0.0,0.0,0.0,0.0,3.0,0.338578,0.321708,0.328345,0.312787,-2e-06,0.003284,0.0,-3e-06,-0.002849,-0.0,0.0,0.0,0.0,0.0,0.0,0.0
375899,0.002928,0.001348,-0.003421,0.0,0.0,0.0,0.0,0.0,0.0,3.0,0.330682,0.32443,0.322982,0.323989,-2e-06,0.003227,0.0,-3e-06,-0.002905,-0.0,0.0,0.0,0.0,0.0,0.0,0.0
375919,0.002805,0.001348,-0.00342,0.0,0.0,0.0,0.0,0.0,0.0,3.0,0.338979,0.319689,0.327474,0.315345,-2e-06,0.003168,0.0,-3e-06,-0.00296,-0.0,0.0,0.0,0.0,0.0,0.0,0.0
375939,0.002928,0.001226,-0.003298,0.0,0.0,0.0,0.0,0.0,0.0,3.0,0.337435,0.323736,0.32631,0.314102,-2e-06,0.003109,0.0,-3e-06,-0.003013,-0.0,0.0,0.0,0.0,0.0,0.0,0.0
375959,0.00305,0.00147,-0.003299,0.0,0.0,0.0,0.0,0.0,0.0,3.0,0.339574,0.319932,0.327446,0.314468,-3e-06,0.003048,0.0,-3e-06,-0.003065,-0.0,0.0,0.0,0.0,0.0,0.0,0.0
375979,0.003172,0.00147,-0.003177,0.0,0.0,0.0,0.0,0.0,0.0,3.0,0.33029,0.326456,0.323301,0.322028,-3e-06,0.002986,0.0,-3e-06,-0.003116,-0.0,0.0,0.0,0.0,0.0,0.0,0.0
375999,0.002927,0.001592,-0.003177,0.0,0.0,0.0,0.0,0.0,0.0,3.0,0.338279,0.317565,0.328136,0.317561,-3e-06,0.002924,0.0,-3e-06,-0.003165,-0.0,0.0,0.0,0.0,0.0,0.0,0.0
376019,0.002805,0.001469,-0.003176,0.0,0.0,0.0,0.0,0.0,0.0,3.0,0.337931,0.321392,0.329342,0.312768,-3e-06,0.00286,0.0,-3e-06,-0.003212,-0.0,0.0,0.0,0.0,0.0,0.0,0.0
376039,0.002561,0.001469,-0.003176,0.0,0.0,0.0,0.0,0.0,0.0,3.0,0.340305,0.320035,0.326983,0.314038,-3e-06,0.002812,0.0,-3e-06,-0.003247,-0.0,0.0,0.0,0.0,0.0,0.0,0.0
376059,0.002195,0.001468,-0.003054,0.0,0.0,0.0,0.0,0.0,0.0,3.0,0.340551,0.323337,0.323101,0.314419,-3e-06,0.00273,0.0,-3e-06,-0.003303,-0.0,0.0,0.0,0.0,0.0,0.0,0.0
376079,0.001951,0.001712,-0.00281,0.0,0.0,0.0,0.0,0.0,0.0,3.0,0.334392,0.328472,0.316729,0.3222,-3e-06,0.002663,0.0,-3e-06,-0.003346,-0.0,0.0,0.0,0.0,0.0,0.0,0.0
376099,0.001951,0.001712,-0.002688,0.0,0.0,0.0,0.0,0.0,0.0,3.0,0.330649,0.32645,0.321572,0.32339,-3e-06,0.002596,0.0,-3e-06,-0.003388,-0.0,0.0,0.0,0.0,0.0,0.0,0.0
376119,0.001829,0.001956,-0.002688,0.0,0.0,0.0,0.0,0.0,0.0,3.0,0.335915,0.319307,0.323234,0.323377,-3e-06,0.002528,0.0,-2e-06,-0.003428,-0.0,0.0,0.0,0.0,0.0,0.0,0.0
376139,0.001707,0.001711,-0.002687,0.0,0.0,0.0,0.0,0.0,0.0,3.0,0.339007,0.319087,0.327421,0.315981,-3e-06,0.002459,0.0,-2e-06,-0.003467,-0.0,0.0,0.0,0.0,0.0,0.0,0.0
376159,0.001707,0.001833,-0.002443,0.0,0.0,0.0,0.0,0.0,0.0,3.0,0.332413,0.325881,0.318708,0.324961,-3e-06,0.00239,0.0,-2e-06,-0.003504,-0.0,0.0,0.0,0.0,0.0,0.0,0.0
376179,0.001707,0.001833,-0.002321,0.0,0.0,0.0,0.0,0.0,0.0,3.0,0.334942,0.326588,0.323763,0.316503,-3e-06,0.002319,0.0,-2e-06,-0.00354,-0.0,0.0,0.0,0.0,0.0,0.0,0.0
376199,0.001707,0.001955,-0.002321,0.0,0.0,0.0,0.0,0.0,0.0,3.0,0.337008,0.319336,0.329095,0.316156,-3e-06,0.002266,0.0,-2e-06,-0.003565,-0.0,0.0,0.0,0.0,0.0,0.0,0.0
376219,0.001341,0.001955,-0.002199,0.0,0.0,0.0,0.0,0.0,0.0,3.0,0.338759,0.324973,0.320565,0.317304,-3e-06,0.002177,0.0,-2e-06,-0.003606,-0.0,0.0,0.0,0.0,0.0,0.0,0.0
376239,0.001219,0.001955,-0.002199,0.0,0.0,0.0,0.0,0.0,0.0,3.0,0.341903,0.32178,0.323863,0.313729,-3e-06,0.002104,0.0,-2e-06,-0.003637,-0.0,0.0,0.0,0.0,0.0,0.0,0.0
376259,0.000975,0.001954,-0.002077,0.0,0.0,0.0,0.0,0.0,0.0,3.0,0.340698,0.323759,0.323671,0.313222,-3e-06,0.002031,0.0,-2e-06,-0.003667,-0.0,0.0,0.0,0.0,0.0,0.0,0.0
376279,0.000974,0.002198,-0.001955,0.0,0.0,0.0,0.0,0.0,0.0,3.0,0.333648,0.318519,0.329129,0.320544,-3e-06,0.001958,0.0,-2e-06,-0.003695,-0.0,0.0,0.0,0.0,0.0,0.0,0.0
376299,0.000486,0.002198,-0.00171,0.0,0.0,0.0,0.0,0.0,0.0,3.0,0.334664,0.328782,0.313384,0.324825,-3e-06,0.001884,0.0,-2e-06,-0.003721,-0.0,0.0,0.0,0.0,0.0,0.0,0.0
376319,0.000242,0.002198,-0.001587,0.0,0.0,0.0,0.0,0.0,0.0,3.0,0.337674,0.32274,0.31988,0.32144,-3e-06,0.001809,0.0,-2e-06,-0.003745,-0.0,0.0,0.0,0.0,0.0,0.0,0.0
376339,0.00012,0.00232,-0.001465,0.0,0.0,0.0,0.0,0.0,0.0,3.0,0.33831,0.323096,0.323182,0.317058,-3e-06,0.001734,0.0,-2e-06,-0.003769,-0.0,0.0,0.0,0.0,0.0,0.0,0.0
376359,-2e-06,0.002319,-0.001343,0.0,0.0,0.0,0.0,0.0,0.0,3.0,0.330945,0.328382,0.320473,0.322204,-3e-06,0.001658,0.0,-2e-06,-0.00379,-0.0,0.0,0.0,0.0,0.0,0.0,0.0
376379,-0.000124,0.002441,-0.001221,0.0,0.0,0.0,0.0,0.0,0.0,3.0,0.336072,0.322934,0.324845,0.317942,-4e-06,0.001582,0.0,-2e-06,-0.00381,-0.0,0.0,0.0,0.0,0.0,0.0,0.0
376399,-0.000368,0.002319,-0.001098,0.0,0.0,0.0,0.0,0.0,0.0,3.0,0.33869,0.324855,0.322506,0.315518,-4e-06,0.001506,0.0,-1e-06,-0.003828,-0.0,0.0,0.0,0.0,0.0,0.0,0.0
376419,-0.000489,0.002441,-0.000854,0.0,0.0,0.0,0.0,0.0,0.0,3.0,0.334936,0.329336,0.313659,0.323712,-4e-06,0.001429,0.0,-1e-06,-0.003845,-0.0,0.0,0.0,0.0,0.0,0.0,0.0
376439,-0.000489,0.002319,-0.000732,0.0,0.0,0.0,0.0,0.0,0.0,3.0,0.328662,0.327931,0.321202,0.32429,-4e-06,0.001352,0.0,-1e-06,-0.00386,-0.0,0.0,0.0,0.0,0.0,0.0,0.0
376459,-0.000489,0.002563,-0.00061,0.0,0.0,0.0,0.0,0.0,0.0,3.0,0.329978,0.323901,0.319702,0.328443,-4e-06,0.001275,0.0,-1e-06,-0.003874,-0.0,0.0,0.0,0.0,0.0,0.0,0.0
376479,-0.000733,0.002319,-0.000488,0.0,0.0,0.0,0.0,0.0,0.0,3.0,0.331534,0.32926,0.31788,0.323248,-4e-06,0.001197,0.0,-1e-06,-0.003885,-0.0,0.0,0.0,0.0,0.0,0.0,0.0
376499,-0.000733,0.002319,-0.000365,0.0,0.0,0.0,0.0,0.0,0.0,3.0,0.331546,0.329364,0.317678,0.323327,-4e-06,0.00112,0.0,-1e-06,-0.003896,-0.0,0.0,0.0,0.0,0.0,0.0,0.0
376519,-0.000733,0.002319,-0.000243,0.0,0.0,0.0,0.0,0.0,0.0,3.0,0.334752,0.326696,0.324748,0.315575,-4e-06,0.001042,0.0,-1e-06,-0.003904,-0.0,0.0,0.0,0.0,0.0,0.0,0.0
376539,-0.000855,0.002075,-0.000121,0.0,0.0,0.0,0.0,0.0,0.0,3.0,0.335276,0.329007,0.321141,0.316294,-4e-06,0.000964,0.0,-1e-06,-0.003912,-0.0,0.0,0.0,0.0,0.0,0.0,0.0
376559,-0.000855,0.002075,-0.000121,0.0,0.0,0.0,0.0,0.0,0.0,3.0,0.339207,0.325078,0.323819,0.313349,-4e-06,0.000885,0.0,-1e-06,-0.003917,-0.0,0.0,0.0,0.0,0.0,0.0,0.0
376579,-0.000855,0.002197,1e-06,0.0,0.0,0.0,0.0,0.0,0.0,3.0,0.336052,0.325009,0.320359,0.320397,-4e-06,0.000807,0.0,-1e-06,-0.003921,-0.0,0.0,0.0,0.0,0.0,0.0,0.0
376599,-0.00061,0.002197,0.000123,0.0,0.0,0.0,0.0,0.0,0.0,3.0,0.327577,0.32943,0.321563,0.323508,-4e-06,0.000728,0.0,-1e-06,-0.003923,-0.0,0.0,0.0,0.0,0.0,0.0,0.0
376619,-0.000732,0.002442,0.000123,0.0,0.0,0.0,0.0,0.0,0.0,3.0,0.334766,0.318346,0.327646,0.321065,-4e-06,0.00065,0.0,-1e-06,-0.003924,-0.0,0.0,0.0,0.0,0.0,0.0,0.0
376639,-0.000976,0.002442,0.000123,0.0,0.0,0.0,0.0,0.0,0.0,3.0,0.33925,0.319302,0.32725,0.315676,-4e-06,0.000571,0.0,-1e-06,-0.003923,-0.0,0.0,0.0,0.0,0.0,0.0,0.0
376659,-0.001099,0.00232,0.000123,0.0,0.0,0.0,0.0,0.0,0.0,3.0,0.340213,0.322409,0.323003,0.315856,-4e-06,0.000493,0.0,-0.0,-0.003921,-0.0,0.0,0.0,0.0,0.0,0.0,0.0
376679,-0.001099,0.00232,0.000123,0.0,0.0,0.0,0.0,0.0,0.0,3.0,0.339705,0.325955,0.323354,0.312354,-4e-06,0.000415,0.0,-0.0,-0.003917,-0.0,0.0,0.0,0.0,0.0,0.0,0.0
376699,-0.001098,0.002198,0.000245,0.0,0.0,0.0,0.0,0.0,0.0,3.0,0.334526,0.327023,0.32161,0.318698,-4e-06,0.000336,0.0,-0.0,-0.003911,-0.0,0.0,0.0,0.0,0.0,0.0,0.0
376719,-0.000976,0.00232,0.000245,0.0,0.0,0.0,0.0,0.0,0.0,3.0,0.336922,0.321407,0.325648,0.31775,-4e-06,0.000258,0.0,-0.0,-0.003904,-0.0,0.0,0.0,0.0,0.0,0.0,0.0
376739,-0.000976,0.002197,0.000123,0.0,0.0,0.0,0.0,0.0,0.0,3.0,0.340828,0.32108,0.325587,0.31385,-4e-06,0.00018,0.0,-0.0,-0.003895,-0.0,0.0,0.0,0.0,0.0,0.0,0.0
376759,-0.000855,0.002442,1e-06,0.0,0.0,0.0,0.0,0.0,0.0,3.0,0.345127,0.31102,0.324185,0.318493,-4e-06,0.000122,0.0,-0.0,-0.003888,-0.0,0.0,0.0,0.0,0.0,0.0,0.0
376779,-0.00061,0.002442,0.000123,0.0,0.0,0.0,0.0,0.0,0.0,3.0,0.3327,0.319859,0.328068,0.321308,-4e-06,2.5e-05,0.0,0.0,-0.003873,-0.0,0.0,0.0,0.0,0.0,0.0,0.0
376799,-0.000732,0.002686,1e-06,0.0,0.0,0.0,0.0,0.0,0.0,3.0,0.338918,0.31629,0.325924,0.320421,-4e-06,-5.3e-05,0.0,0.0,-0.00386,-0.0,0.0,0.0,0.0,0.0,0.0,0.0
376819,-0.000977,0.002564,1e-06,0.0,0.0,0.0,0.0,0.0,0.0,3.0,0.340264,0.320768,0.323001,0.317478,-4e-06,-0.00013,0.0,0.0,-0.003845,-0.0,0.0,0.0,0.0,0.0,0.0,0.0
376839,-0.001099,0.002564,-0.000121,0.0,0.0,0.0,0.0,0.0,0.0,3.0,0.34352,0.32134,0.323094,0.313161,-4e-06,-0.000207,0.0,0.0,-0.003829,-0.0,0.0,0.0,0.0,0.0,0.0,0.0
376859,-0.001099,0.002319,-0.000243,0.0,0.0,0.0,0.0,0.0,0.0,3.0,0.34527,0.32098,0.332002,0.301787,-4e-06,-0.000283,0.0,0.0,-0.003811,-0.0,0.0,0.0,0.0,0.0,0.0,0.0
376879,-0.001099,0.002319,-0.000243,0.0,0.0,0.0,0.0,0.0,0.0,3.0,0.337433,0.32397,0.327216,0.3129,-4e-06,-0.000359,0.0,0.0,-0.003792,-0.0,0.0,0.0,0.0,0.0,0.0,0.0
376899,-0.001221,0.002319,-0.000121,0.0,0.0,0.0,0.0,0.0,0.0,3.0,0.338119,0.325993,0.321964,0.315517,-4e-06,-0.000435,0.0,0.0,-0.003771,-0.0,0.0,0.0,0.0,0.0,0.0,0.0
376919,-0.001221,0.002075,-0.000121,0.0,0.0,0.0,0.0,0.0,0.0,3.0,0.339529,0.324126,0.323704,0.314109,-4e-06,-0.00051,0.0,1e-06,-0.003749,-0.0,0.0,0.0,0.0,0.0,0.0,0.0
376939,-0.001099,0.002319,-0.000243,0.0,0.0,0.0,0.0,0.0,0.0,3.0,0.338734,0.318329,0.32841,0.316008,-4e-06,-0.000585,0.0,1e-06,-0.003726,-0.0,0.0,0.0,0.0,0.0,0.0,0.0
376959,-0.001099,0.002441,-0.000243,0.0,0.0,0.0,0.0,0.0,0.0,3.0,0.339916,0.319723,0.323914,0.31798,-4e-06,-0.000659,0.0,1e-06,-0.003701,-0.0,0.0,0.0,0.0,0.0,0.0,0.0
376979,-0.001099,0.002686,-0.000243,0.0,0.0,0.0,0.0,0.0,0.0,3.0,0.33769,0.316898,0.326077,0.320987,-4e-06,-0.000733,0.0,1e-06,-0.003674,-0.0,0.0,0.0,0.0,0.0,0.0,0.0
376999,-0.001221,0.002563,-0.000243,0.0,0.0,0.0,0.0,0.0,0.0,3.0,0.337888,0.323288,0.325881,0.31452,-4e-06,-0.000806,0.0,1e-06,-0.003646,-0.0,0.0,0.0,0.0,0.0,0.0,0.0
377019,-0.001343,0.002441,-0.000243,0.0,0.0,0.0,0.0,0.0,0.0,3.0,0.338846,0.326406,0.323124,0.313076,-4e-06,-0.000879,0.0,1e-06,-0.003617,-0.0,0.0,0.0,0.0,0.0,0.0,0.0
377039,-0.001221,0.002441,-0.000243,0.0,0.0,0.0,0.0,0.0,0.0,3.0,0.332122,0.329326,0.319548,0.320925,-4e-06,-0.000951,0.0,1e-06,-0.003587,-0.0,0.0,0.0,0.0,0.0,0.0,0.0
377059,-0.001221,0.002319,-0.000365,0.0,0.0,0.0,0.0,0.0,0.0,3.0,0.339018,0.322236,0.327606,0.312536,-4e-06,-0.001023,0.0,1e-06,-0.003555,-0.0,0.0,0.0,0.0,0.0,0.0,0.0
377079,-0.001221,0.002197,-0.000365,0.0,0.0,0.0,0.0,0.0,0.0,3.0,0.339117,0.320925,0.330154,0.311053,-4e-06,-0.001093,0.0,1e-06,-0.003521,-0.0,0.0,0.0,0.0,0.0,0.0,0.0
377099,-0.001221,0.002319,-0.000243,0.0,0.0,0.0,0.0,0.0,0.0,3.0,0.338044,0.322267,0.324336,0.317009,-4e-06,-0.001164,0.0,1e-06,-0.003487,-0.0,0.0,0.0,0.0,0.0,0.0,0.0
377119,-0.001465,0.002319,-0.000365,0.0,0.0,0.0,0.0,0.0,0.0,3.0,0.348533,0.31323,0.328434,0.310024,-4e-06,-0.001233,0.0,1e-06,-0.003451,-0.0,0.0,0.0,0.0,0.0,0.0,0.0
377139,-0.001465,0.002563,-0.000364,0.0,0.0,0.0,0.0,0.0,0.0,3.0,0.344584,0.314624,0.326755,0.314954,-4e-06,-0.001302,0.0,1e-06,-0.003414,-0.0,0.0,0.0,0.0,0.0,0.0,0.0
377159,-0.001343,0.002808,-0.000242,0.0,0.0,0.0,0.0,0.0,0.0,3.0,0.330739,0.322089,0.323401,0.325839,-4e-06,-0.00137,0.0,1e-06,-0.003376,-0.0,0.0,0.0,0.0,0.0,0.0,0.0
377179,-0.001465,0.002686,-0.000242,0.0,0.0,0.0,0.0,0.0,0.0,3.0,0.336463,0.320018,0.325063,0.320244,-4e-06,-0.001437,0.0,1e-06,-0.003336,-0.0,0.0,0.0,0.0,0.0,0.0,0.0
377199,-0.001831,0.002319,-0.000242,0.0,0.0,0.0,0.0,0.0,0.0,3.0,0.337346,0.329016,0.319338,0.315869,-3e-06,-0.001503,0.0,2e-06,-0.003295,-0.0,0.0,0.0,0.0,0.0,0.0,0.0
377219,-0.001709,0.002075,-0.000365,0.0,0.0,0.0,0.0,0.0,0.0,3.0,0.345807,0.318419,0.331078,0.304944,-3e-06,-0.001569,0.0,2e-06,-0.003253,-0.0,0.0,0.0,0.0,0.0,0.0,0.0
377239,-0.001831,0.001953,-0.000242,0.0,0.0,0.0,0.0,0.0,0.0,3.0,0.33955,0.325195,0.323297,0.313389,-3e-06,-0.001634,0.0,2e-06,-0.00321,-0.0,0.0,0.0,0.0,0.0,0.0,0.0
377259,-0.001709,0.001953,-0.00012,0.0,0.0,0.0,0.0,0.0,0.0,3.0,0.329356,0.329295,0.320598,0.322784,-3e-06,-0.001698,0.0,2e-06,-0.003166,-0.0,0.0,0.0,0.0,0.0,0.0,0.0
377279,-0.001709,0.002075,-0.00012,0.0,0.0,0.0,0.0,0.0,0.0,3.0,0.335778,0.323186,0.327117,0.31564,-3e-06,-0.001761,0.0,2e-06,-0.003121,-0.0,0.0,0.0,0.0,0.0,0.0,0.0
377299,-0.001953,0.001953,-0.00012,0.0,0.0,0.0,0.0,0.0,0.0,3.0,0.341716,0.324376,0.321618,0.31357,-3e-06,-0.001823,0.0,2e-06,-0.003074,-0.0,0.0,0.0,0.0,0.0,0.0,0.0
377319,-0.001831,0.002197,-0.00012,0.0,0.0,0.0,0.0,0.0,0.0,3.0,0.337745,0.320352,0.325914,0.317651,-3e-06,-0.001884,-0.0,2e-06,-0.003026,-0.0,0.0,0.0,0.0,0.0,0.0,0.0
377339,-0.001831,0.002197,2e-06,0.0,0.0,0.0,0.0,0.0,0.0,3.0,0.335173,0.32411,0.324955,0.317591,-3e-06,-0.001944,-0.0,2e-06,-0.002978,-0.0,0.0,0.0,0.0,0.0,0.0,0.0
377359,-0.002197,0.002075,2e-06,0.0,0.0,0.0,0.0,0.0,0.0,3.0,0.339995,0.321657,0.321339,0.318563,-3e-06,-0.002003,-0.0,2e-06,-0.002928,-0.0,0.0,0.0,0.0,0.0,0.0,0.0
377379,-0.002197,0.001831,2e-06,0.0,0.0,0.0,0.0,0.0,0.0,3.0,0.336887,0.325188,0.323029,0.316607,-3e-06,-0.002061,-0.0,2e-06,-0.002877,-0.0,0.0,0.0,0.0,0.0,0.0,0.0
377399,-0.002075,0.001709,2e-06,0.0,0.0,0.0,0.0,0.0,0.0,3.0,0.335996,0.321838,0.327339,0.316554,-3e-06,-0.002119,-0.0,2e-06,-0.002826,-0.0,0.0,0.0,0.0,0.0,0.0,0.0
377419,-0.002197,0.001709,2e-06,0.0,0.0,0.0,0.0,0.0,0.0,3.0,0.340027,0.32132,0.323283,0.316888,-3e-06,-0.002175,-0.0,2e-06,-0.002773,-0.0,0.0,0.0,0.0,0.0,0.0,0.0
377439,-0.002075,0.001831,0.000124,0.0,0.0,0.0,0.0,0.0,0.0,3.0,0.33528,0.3216,0.326376,0.318571,-3e-06,-0.00223,-0.0,2e-06,-0.002719,-0.0,0.0,0.0,0.0,0.0,0.0,0.0
377459,-0.002197,0.001831,0.000124,0.0,0.0,0.0,0.0,0.0,0.0,3.0,0.345904,0.316628,0.327105,0.311048,-3e-06,-0.002284,-0.0,2e-06,-0.002665,-0.0,0.0,0.0,0.0,0.0,0.0,0.0
377479,-0.002319,0.001831,0.000124,0.0,0.0,0.0,0.0,0.0,0.0,3.0,0.344706,0.318107,0.325684,0.312423,-3e-06,-0.002337,-0.0,2e-06,-0.002609,-0.0,0.0,0.0,0.0,0.0,0.0,0.0
377499,-0.002319,0.001953,0.000124,0.0,0.0,0.0,0.0,0.0,0.0,3.0,0.339672,0.318914,0.323934,0.319038,-3e-06,-0.002388,-0.0,2e-06,-0.002553,-0.0,0.0,0.0,0.0,0.0,0.0,0.0
377519,-0.002441,0.001709,0.000246,0.0,0.0,0.0,0.0,0.0,0.0,3.0,0.330868,0.327063,0.318475,0.325586,-3e-06,-0.002439,-0.0,2e-06,-0.002496,-0.0,0.0,0.0,0.0,0.0,0.0,0.0
377539,-0.002686,0.001465,0.000246,0.0,0.0,0.0,0.0,0.0,0.0,3.0,0.340283,0.323106,0.321735,0.316363,-3e-06,-0.002488,-0.0,2e-06,-0.002438,-0.0,0.0,0.0,0.0,0.0,0.0,0.0
377559,-0.002686,0.001221,0.000246,0.0,0.0,0.0,0.0,0.0,0.0,3.0,0.337413,0.323831,0.325624,0.314749,-3e-06,-0.002537,-0.0,3e-06,-0.002379,-0.0,0.0,0.0,0.0,0.0,0.0,0.0
377579,-0.002686,0.001221,0.000246,0.0,0.0,0.0,0.0,0.0,0.0,3.0,0.340114,0.321417,0.322775,0.317214,-3e-06,-0.002584,-0.0,3e-06,-0.00232,-0.0,0.0,0.0,0.0,0.0,0.0,0.0
377599,-0.002685,0.001343,0.000368,0.0,0.0,0.0,0.0,0.0,0.0,3.0,0.33711,0.323698,0.322273,0.318671,-3e-06,-0.00263,-0.0,3e-06,-0.00226,-0.0,0.0,0.0,0.0,0.0,0.0,0.0
377619,-0.002441,0.001587,0.000368,0.0,0.0,0.0,0.0,0.0,0.0,3.0,0.335038,0.322925,0.327719,0.316077,-3e-06,-0.002675,-0.0,3e-06,-0.002199,-0.0,0.0,0.0,0.0,0.0,0.0,0.0
377639,-0.002563,0.001832,0.000369,0.0,0.0,0.0,0.0,0.0,0.0,3.0,0.338432,0.321586,0.324345,0.317272,-3e-06,-0.002718,-0.0,3e-06,-0.002137,-0.0,0.0,0.0,0.0,0.0,0.0,0.0
377659,-0.002563,0.00171,0.000368,0.0,0.0,0.0,0.0,0.0,0.0,3.0,0.337502,0.324603,0.325357,0.314125,-2e-06,-0.00276,-0.0,3e-06,-0.002075,-0.0,0.0,0.0,0.0,0.0,0.0,0.0
377679,-0.002686,0.001465,0.000246,0.0,0.0,0.0,0.0,0.0,0.0,3.0,0.346077,0.31863,0.330234,0.305342,-2e-06,-0.002801,-0.0,3e-06,-0.002012,-0.0,0.0,0.0,0.0,0.0,0.0,0.0
377699,-0.00293,0.001465,0.000368,0.0,0.0,0.0,0.0,0.0,0.0,3.0,0.337663,0.324014,0.318964,0.321076,-2e-06,-0.002841,-0.0,3e-06,-0.001948,-0.0,0.0,0.0,0.0,0.0,0.0,0.0
377719,-0.003052,0.001343,0.000368,0.0,0.0,0.0,0.0,0.0,0.0,3.0,0.338789,0.324194,0.321815,0.316803,-2e-06,-0.00288,-0.0,3e-06,-0.001884,-0.0,0.0,0.0,0.0,0.0,0.0,0.0
377739,-0.003052,0.001343,0.000368,0.0,0.0,0.0,0.0,0.0,0.0,3.0,0.336494,0.32024,0.326217,0.318804,-2e-06,-0.002917,-0.0,3e-06,-0.001819,-0.0,0.0,0.0,0.0,0.0,0.0,0.0
377759,-0.003174,0.001466,0.000369,0.0,0.0,0.0,0.0,0.0,0.0,3.0,0.342097,0.318137,0.322091,0.319035,-2e-06,-0.002953,-0.0,3e-06,-0.001754,-0.0,0.0,0.0,0.0,0.0,0.0,0.0
377779,-0.003052,0.001465,0.000369,0.0,0.0,0.0,0.0,0.0,0.0,3.0,0.345022,0.318577,0.329521,0.307429,-2e-06,-0.002987,-0.0,3e-06,-0.001705,-0.0,0.0,0.0,0.0,0.0,0.0,0.0
377799,-0.002807,0.00171,0.000491,0.0,0.0,0.0,0.0,0.0,0.0,3.0,0.335931,0.322924,0.325765,0.317152,-2e-06,-0.003021,-0.0,3e-06,-0.001622,-0.0,0.0,0.0,0.0,0.0,0.0,0.0
377819,-0.002807,0.001832,0.000369,0.0,0.0,0.0,0.0,0.0,0.0,3.0,0.339718,0.320683,0.324596,0.316523,-2e-06,-0.003053,-0.0,3e-06,-0.001556,-0.0,0.0,0.0,0.0,0.0,0.0,0.0
377839,-0.002685,0.001465,0.000368,0.0,0.0,0.0,0.0,0.0,0.0,3.0,0.340259,0.324301,0.32244,0.314426,-2e-06,-0.003083,-0.0,3e-06,-0.001489,-0.0,0.0,0.0,0.0,0.0,0.0,0.0
377859,-0.002685,0.001343,0.000368,0.0,0.0,0.0,0.0,0.0,0.0,3.0,0.338364,0.324465,0.320828,0.317992,-2e-06,-0.003112,-0.0,3e-06,-0.001422,-0.0,0.0,0.0,0.0,0.0,0.0,0.0
377879,-0.002686,0.001343,0.000246,0.0,0.0,0.0,0.0,0.0,0.0,3.0,0.339026,0.31648,0.327058,0.318949,-2e-06,-0.00314,-0.0,3e-06,-0.001354,-0.0,0.0,0.0,0.0,0.0,0.0,0.0
377899,-0.003052,0.001221,0.000246,0.0,0.0,0.0,0.0,0.0,0.0,3.0,0.340984,0.321552,0.321914,0.316999,-2e-06,-0.003167,-0.0,3e-06,-0.001286,-0.0,0.0,0.0,0.0,0.0,0.0,0.0
377919,-0.003296,0.001221,0.000246,0.0,0.0,0.0,0.0,0.0,0.0,3.0,0.341174,0.322169,0.321512,0.316568,-2e-06,-0.003192,-0.0,3e-06,-0.001218,-0.0,0.0,0.0,0.0,0.0,0.0,0.0
377939,-0.003052,0.001465,0.000246,0.0,0.0,0.0,0.0,0.0,0.0,3.0,0.343238,0.319211,0.326273,0.312335,-2e-06,-0.003216,-0.0,3e-06,-0.001149,-0.0,0.0,0.0,0.0,0.0,0.0,0.0
377959,-0.00293,0.001465,0.000246,0.0,0.0,0.0,0.0,0.0,0.0,3.0,0.338083,0.323789,0.325257,0.314439,-2e-06,-0.003238,-0.0,3e-06,-0.00108,-0.0,0.0,0.0,0.0,0.0,0.0,0.0
377979,-0.002563,0.001587,0.000246,0.0,0.0,0.0,0.0,0.0,0.0,3.0,0.329386,0.328312,0.323419,0.320941,-2e-06,-0.00326,-0.0,3e-06,-0.001011,-0.0,0.0,0.0,0.0,0.0,0.0,0.0
377999,-0.002441,0.001465,0.000124,0.0,0.0,0.0,0.0,0.0,0.0,3.0,0.338863,0.324035,0.327017,0.311451,-1e-06,-0.003279,-0.0,3e-06,-0.000942,-0.0,0.0,0.0,0.0,0.0,0.0,0.0
378019,-0.002319,0.001221,1e-06,0.0,0.0,0.0,0.0,0.0,0.0,3.0,0.336903,0.323532,0.326597,0.314598,-1e-06,-0.003293,-0.0,3e-06,-0.00089,-0.0,0.0,0.0,0.0,0.0,0.0,0.0
378039,-0.002442,0.001221,1e-06,0.0,0.0,0.0,0.0,0.0,0.0,3.0,0.339683,0.323895,0.324384,0.313467,-1e-06,-0.003314,-0.0,3e-06,-0.000803,-0.0,0.0,0.0,0.0,0.0,0.0,0.0
378059,-0.002686,0.001221,2e-06,0.0,0.0,0.0,0.0,0.0,0.0,3.0,0.341735,0.32056,0.321308,0.317795,-1e-06,-0.00333,-0.0,3e-06,-0.000734,-0.0,0.0,0.0,0.0,0.0,0.0,0.0
378079,-0.00293,0.001343,-0.00012,0.0,0.0,0.0,0.0,0.0,0.0,3.0,0.340266,0.318693,0.324789,0.317733,-1e-06,-0.003344,-0.0,3e-06,-0.000664,-0.0,0.0,0.0,0.0,0.0,0.0,0.0
378099,-0.003174,0.001343,-0.00012,0.0,0.0,0.0,0.0,0.0,0.0,3.0,0.340004,0.32164,0.323446,0.316418,-1e-06,-0.003357,-0.0,3e-06,-0.000612,-0.0,0.0,0.0,0.0,0.0,0.0,0.0
378119,-0.00293,0.001342,-0.000242,0.0,0.0,0.0,0.0,0.0,0.0,3.0,0.342263,0.314544,0.334874,0.308881,-1e-06,-0.003368,-0.0,3e-06,-0.000525,-0.0,0.0,0.0,0.0,0.0,0.0,0.0
378139,-0.002808,0.001343,-0.000242,0.0,0.0,0.0,0.0,0.0,0.0,3.0,0.341168,0.319858,0.328391,0.311753,-1e-06,-0.003378,-0.0,3e-06,-0.000455,-0.0,0.0,0.0,0.0,0.0,0.0,0.0
378159,-0.002564,0.00122,-0.000243,0.0,0.0,0.0,0.0,0.0,0.0,3.0,0.337724,0.323166,0.326362,0.314322,-1e-06,-0.003387,-0.0,3e-06,-0.000385,0.0,0.0,0.0,0.0,0.0,0.0,0.0
378179,-0.00232,0.001098,-0.000243,0.0,0.0,0.0,0.0,0.0,0.0,3.0,0.338033,0.322477,0.325679,0.315411,-1e-06,-0.003394,-0.0,3e-06,-0.000316,0.0,0.0,0.0,0.0,0.0,0.0,0.0
378199,-0.002442,0.00122,-0.000365,0.0,0.0,0.0,0.0,0.0,0.087266,3.0,0.9,0.15,0.9,0.15,-2e-06,-0.003402,0.000222,3e-06,-0.001034,0.088803,0.0,0.0,0.0,0.0,0.0,0.0
378219,-0.002563,0.001222,0.000856,0.0,0.0,0.0,0.0,0.0,0.087266,3.0,0.420963,0.16804,0.408079,0.168939,-1.1e-05,-0.003434,0.002984,0.000101,-0.002544,0.180731,0.0,0.0,0.0,0.0,0.0,0.0
378239,-0.002437,0.001593,0.005252,0.0,0.0,0.0,0.0,0.0,0.087266,3.0,0.259299,0.381351,0.239204,0.383975,-2e-05,-0.003479,0.006662,0.000304,-0.001961,0.184731,0.0,0.0,0.0,0.0,0.0,0.0
378259,-0.003044,0.00148,0.010136,0.0,0.0,0.0,0.0,0.0,0.087266,3.0,0.265247,0.385407,0.222035,0.384742,-2.5e-05,-0.003502,0.009376,0.000423,-0.001191,0.176324,0.0,0.0,0.0,0.0,0.0,0.0
378279,-0.003412,0.000999,0.013309,0.0,0.0,0.0,0.0,0.0,0.087266,3.0,0.331816,0.338052,0.30632,0.32479,-2.7e-05,-0.003525,0.013666,0.000532,-0.000551,0.164783,0.0,0.0,0.0,0.0,0.0,0.0
378299,-0.003781,0.000516,0.014895,0.0,0.0,0.0,0.0,0.0,0.087266,3.0,0.367359,0.299988,0.34534,0.279153,-2.8e-05,-0.003533,0.016898,0.000563,-0.000231,0.156444,0.0,0.0,0.0,0.0,0.0,0.0
378319,-0.003783,0.000152,0.015871,0.0,0.0,0.0,0.0,0.0,0.087266,3.0,0.361776,0.298338,0.351099,0.281198,-2.7e-05,-0.003536,0.019969,0.000568,-1.2e-05,0.148898,0.0,0.0,0.0,0.0,0.0,0.0
378339,-0.003781,0.000398,0.01697,0.0,0.0,0.0,0.0,0.0,0.087266,3.0,0.363327,0.285206,0.350813,0.292882,-2.6e-05,-0.003535,0.022895,0.000558,0.000146,0.142056,0.0,0.0,0.0,0.0,0.0,0.0
378359,-0.003781,0.000402,0.018923,0.0,0.0,0.0,0.0,0.0,0.087266,3.0,0.354235,0.302109,0.338205,0.303389,-2.5e-05,-0.003531,0.025689,0.000541,0.000268,0.135833,0.0,0.0,0.0,0.0,0.0,0.0
378379,-0.003658,0.000405,0.021119,0.0,0.0,0.0,0.0,0.0,0.087266,3.0,0.336877,0.322985,0.327995,0.313717,-2.4e-05,-0.003525,0.028362,0.000521,0.000369,0.130155,0.0,0.0,0.0,0.0,0.0,0.0
378399,-0.003289,0.000648,0.02271,0.0,0.0,0.0,0.0,0.0,0.087266,3.0,0.341801,0.306866,0.338592,0.312934,-2.3e-05,-0.003517,0.030925,0.0005,0.000456,0.124956,0.0,0.0,0.0,0.0,0.0,0.0
378419,-0.002924,0.000523,0.024053,0.0,0.0,0.0,0.0,0.0,0.087266,3.0,0.355331,0.295442,0.352655,0.29096,-2.1e-05,-0.003507,0.033388,0.000479,0.000536,0.120178,0.0,0.0,0.0,0.0,0.0,0.0
378439,-0.0028,0.000646,0.025761,0.0,0.0,0.0,0.0,0.0,0.087266,3.0,0.350534,0.305376,0.342224,0.299924,-2e-05,-0.003495,0.035758,0.00046,0.000611,0.115772,0.0,0.0,0.0,0.0,0.0,0.0
378459,-0.002433,0.000644,0.02747,0.0,0.0,0.0,0.0,0.0,0.087266,3.0,0.339316,0.318123,0.335112,0.308286,-1.9e-05,-0.003483,0.038042,0.000441,0.000683,0.111693,0.0,0.0,0.0,0.0,0.0,0.0
378479,-0.002188,0.000642,0.028934,0.0,0.0,0.0,0.0,0.0,0.087266,3.0,0.343803,0.31111,0.340091,0.304675,-1.8e-05,-0.003468,0.040247,0.000423,0.000752,0.107902,0.0,0.0,0.0,0.0,0.0,0.0
378499,-0.002064,0.000764,0.030398,0.0,0.0,0.0,0.0,0.0,0.087266,3.0,0.357649,0.29598,0.346527,0.295187,-1.7e-05,-0.003453,0.042379,0.000407,0.000821,0.104366,0.0,0.0,0.0,0.0,0.0,0.0
378519,-0.001945,0.00052,0.032234,0.0,0.0,0.0,0.0,0.0,0.087266,3.0,0.346018,0.314978,0.335521,0.303294,-1.6e-05,-0.003436,0.044441,0.000391,0.000888,0.101055,0.0,0.0,0.0,0.0,0.0,0.0
378539,-0.001945,0.000521,0.03382,0.0,0.0,0.0,0.0,0.0,0.087266,3.0,0.337065,0.319116,0.328798,0.31663,-1.5e-05,-0.003418,0.046438,0.000376,0.000954,0.097944,0.0,0.0,0.0,0.0,0.0,0.0
378559,-0.002075,3.6e-05,0.035161,0.0,0.0,0.0,0.0,0.0,0.087266,3.0,0.34792,0.31326,0.337605,0.300391,-1.5e-05,-0.003398,0.048375,0.000362,0.00102,0.095008,0.0,0.0,0.0,0.0,0.0,0.0
378579,-0.002446,-0.000199,0.036624,0.0,0.0,0.0,0.0,0.0,0.087266,3.0,0.357957,0.305358,0.34035,0.292752,-1.4e-05,-0.003377,0.050254,0.000349,0.001085,0.09223,0.0,0.0,0.0,0.0,0.0,0.0
378599,-0.002695,-0.000437,0.038339,0.0,0.0,0.0,0.0,0.0,0.087266,3.0,0.341549,0.323753,0.324485,0.311411,-1.3e-05,-0.003355,0.052078,0.000337,0.001149,0.08959,0.0,0.0,0.0,0.0,0.0,0.0
378619,-0.002941,-0.000552,0.03968,0.0,0.0,0.0,0.0,0.0,0.087266,3.0,0.347158,0.314733,0.329965,0.308433,-1.2e-05,-0.003331,0.053851,0.000325,0.001212,0.087075,0.0,0.0,0.0,0.0,0.0,0.0
378639,-0.003315,-0.000909,0.040899,0.0,0.0,0.0,0.0,0.0,0.087266,3.0,0.363663,0.302723,0.342073,0.285699,-1.2e-05,-0.003307,0.055575,0.000313,0.001275,0.08467,0.0,0.0,0.0,0.0,0.0,0.0
378659,-0.003441,-0.001026,0.042484,0.0,0.0,0.0,0.0,0.0,0.087266,3.0,0.358282,0.308664,0.335263,0.294973,-1.1e-05,-0.003281,0.057251,0.000302,0.001337,0.082365,0.0,0.0,0.0,0.0,0.0,0.0
378679,-0.003569,-0.001265,0.043947,0.0,0.0,0.0,0.0,0.0,0.087266,3.0,0.347822,0.321311,0.326003,0.305076,-1e-05,-0.003253,0.058881,0.000292,0.001398,0.080148,0.0,0.0,0.0,0.0,0.0,0.0
378699,-0.00357,-0.001263,0.045174,0.0,0.0,0.0,0.0,0.0,0.087266,3.0,0.348871,0.313151,0.331072,0.306814,-1e-05,-0.003225,0.060468,0.000282,0.001458,0.078012,0.0,0.0,0.0,0.0,0.0,0.0
378719,-0.003701,-0.001624,0.046392,0.0,0.0,0.0,0.0,0.0,0.087266,3.0,0.361116,0.304455,0.344058,0.28478,-9e-06,-0.003195,0.062013,0.000272,0.001518,0.075948,0.0,0.0,0.0,0.0,0.0,0.0
378739,-0.003705,-0.001743,0.047855,0.0,0.0,0.0,0.0,0.0,0.087266,3.0,0.353586,0.312438,0.337744,0.294007,-9e-06,-0.003165,0.063516,0.000262,0.001577,0.073949,0.0,0.0,0.0,0.0,0.0,0.0
378759,-0.003822,-0.001493,0.049327,0.0,0.0,0.0,0.0,0.0,0.087266,3.0,0.336215,0.322248,0.325668,0.317638,-8e-06,-0.003133,0.064981,0.000253,0.001635,0.07201,0.0,0.0,0.0,0.0,0.0,0.0
378779,-0.003945,-0.001488,0.050302,0.0,0.0,0.0,0.0,0.0,0.087266,3.0,0.353329,0.303082,0.341527,0.299623,-8e-06,-0.003099,0.066407,0.000244,0.001692,0.070125,0.0,0.0,0.0,0.0,0.0,0.0
378799,-0.004187,-0.001357,0.051521,0.0,0.0,0.0,0.0,0.0,0.087266,3.0,0.362784,0.296205,0.345509,0.289416,-7e-06,-0.003065,0.067795,0.000236,0.001749,0.06829,0.0,0.0,0.0,0.0,0.0,0.0
378819,-0.004557,-0.001467,0.052983,0.0,0.0,0.0,0.0,0.0,0.087266,3.0,0.354728,0.314012,0.329033,0.301055,-6e-06,-0.00303,0.069148,0.000227,0.001804,0.066501,0.0,0.0,0.0,0.0,0.0,0.0
378839,-0.004684,-0.001583,0.054211,0.0,0.0,0.0,0.0,0.0,0.087266,3.0,0.343579,0.322552,0.323542,0.311361,-6e-06,-0.002993,0.070465,0.000219,0.001858,0.064755,0.0,0.0,0.0,0.0,0.0,0.0
378859,-0.004806,-0.001577,0.055308,0.0,0.0,0.0,0.0,0.0,0.087266,3.0,0.351348,0.310015,0.334743,0.302917,-5e-06,-0.002956,0.071747,0.000211,0.001912,0.063048,0.0,0.0,0.0,0.0,0.0,0.0
378879,-0.005058,-0.001811,0.056403,0.0,0.0,0.0,0.0,0.0,0.087266,3.0,0.360822,0.303111,0.344615,0.285932,-5e-06,-0.002917,0.072995,0.000203,0.001965,0.061379,0.0,0.0,0.0,0.0,0.0,0.0
378899,-0.005188,-0.002049,0.057621,0.0,0.0,0.0,0.0,0.0,0.087266,3.0,0.349738,0.31343,0.33854,0.296854,-4e-06,-0.002877,0.074211,0.000196,0.002016,0.059744,0.0,0.0,0.0,0.0,0.0,0.0
378919,-0.005559,-0.002157,0.058849,0.0,0.0,0.0,0.0,0.0,0.087266,3.0,0.33857,0.322858,0.325352,0.314768,-4e-06,-0.002837,0.075393,0.000188,0.002067,0.058141,0.0,0.0,0.0,0.0,0.0,0.0
378939,-0.005812,-0.002391,0.059822,0.0,0.0,0.0,0.0,0.0,0.087266,3.0,0.349747,0.312893,0.333898,0.302845,-4e-06,-0.002795,0.076544,0.000181,0.002117,0.05657,0.0,0.0,0.0,0.0,0.0,0.0
378959,-0.006308,-0.002617,0.060795,0.0,0.0,0.0,0.0,0.0,0.087266,3.0,0.36133,0.302127,0.341712,0.289991,-3e-06,-0.002752,0.077664,0.000174,0.002166,0.055028,0.0,0.0,0.0,0.0,0.0,0.0
378979,-0.006561,-0.00285,0.062012,0.0,0.0,0.0,0.0,0.0,0.087266,3.0,0.35211,0.313761,0.331859,0.301364,-3e-06,-0.002709,0.078753,0.000167,0.002213,0.053514,0.0,0.0,0.0,0.0,0.0,0.0
378999,-0.006811,-0.002961,0.062997,0.0,0.0,0.0,0.0,0.0,0.087266,3.0,0.350281,0.314398,0.329794,0.305254,-2e-06,-0.002664,0.079812,0.00016,0.00226,0.052028,0.0,0.0,0.0,0.0,0.0,0.0
379019,-0.007068,-0.003316,0.063847,0.0,0.0,0.0,0.0,0.0,0.087266,3.0,0.357525,0.307995,0.339581,0.291445,-2e-06,-0.002618,0.080842,0.000154,0.002305,0.050567,0.0,0.0,0.0,0.0,0.0,0.0
379039,-0.007439,-0.003423,0.06482,0.0,0.0,0.0,0.0,0.0,0.087266,3.0,0.35785,0.305439,0.337702,0.29602,-1e-06,-0.002572,0.081843,0.000147,0.00235,0.049132,0.0,0.0,0.0,0.0,0.0,0.0
379059,-0.007693,-0.003655,0.065927,0.0,0.0,0.0,0.0,0.0,0.087266,3.0,0.351092,0.312766,0.334109,0.301089,-1e-06,-0.002525,0.082815,0.000141,0.002393,0.047721,0.0,0.0,0.0,0.0,0.0,0.0
379079,-0.007943,-0.003765,0.066899,0.0,0.0,0.0,0.0,0.0,0.087266,3.0,0.346209,0.312559,0.330459,0.311211,-1e-06,-0.002476,0.083759,0.000135,0.002436,0.046334,0.0,0.0,0.0,0.0,0.0,0.0
379099,-0.008445,-0.004111,0.067627,0.0,0.0,0.0,0.0,0.0,0.087266,3.0,0.359672,0.306177,0.335071,0.296018,-0.0,-0.002427,0.084675,0.000129,0.002477,0.04497,0.0,0.0,0.0,0.0,0.0,0.0
379119,-0.008947,-0.004456,0.068598,0.0,0.0,0.0,0.0,0.0,0.087266,3.0,0.361212,0.311741,0.330294,0.293697,0.0,-0.002378,0.085564,0.000123,0.002517,0.043629,0.0,0.0,0.0,0.0,0.0,0.0
379139,-0.00932,-0.004562,0.069583,0.0,0.0,0.0,0.0,0.0,0.087266,3.0,0.35863,0.315069,0.324358,0.300252,1e-06,-0.002327,0.086427,0.000118,0.002556,0.04231,0.0,0.0,0.0,0.0,0.0,0.0
379159,-0.009439,-0.004432,0.070313,0.0,0.0,0.0,0.0,0.0,0.087266,3.0,0.358384,0.306257,0.330788,0.302544,1e-06,-0.002276,0.087263,0.000112,0.002593,0.041013,0.0,0.0,0.0,0.0,0.0,0.0
379179,-0.009563,-0.004424,0.071043,0.0,0.0,0.0,0.0,0.0,0.087266,3.0,0.357723,0.304409,0.336179,0.299056,1e-06,-0.002223,0.088074,0.000107,0.00263,0.039737,0.0,0.0,0.0,0.0,0.0,0.0
379199,-0.009813,-0.004534,0.071772,0.0,0.0,0.0,0.0,0.0,0.087266,3.0,0.362635,0.30199,0.34036,0.290062,2e-06,-0.002171,0.088859,0.000102,0.002665,0.038483,0.0,0.0,0.0,0.0,0.0,0.0
379219,-0.009942,-0.004647,0.072758,0.0,0.0,0.0,0.0,0.0,0.087266,3.0,0.353017,0.314116,0.329627,0.3024,2e-06,-0.002117,0.08962,9.7e-05,0.0027,0.03725,0.0,0.0,0.0,0.0,0.0,0.0
379239,-0.010192,-0.004756,0.073486,0.0,0.0,0.0,0.0,0.0,0.087266,3.0,0.35462,0.313685,0.329938,0.300511,3e-06,-0.002063,0.090356,9.2e-05,0.002733,0.036038,0.0,0.0,0.0,0.0,0.0,0.0
379259,-0.010572,-0.005106,0.07397,0.0,0.0,0.0,0.0,0.0,0.087266,3.0,0.367,0.304704,0.337824,0.284271,3e-06,-0.002008,0.091067,8.7e-05,0.002764,0.034846,0.0,0.0,0.0,0.0,0.0,0.0
379279,-0.010831,-0.005459,0.074575,0.0,0.0,0.0,0.0,0.0,0.087266,3.0,0.371806,0.301543,0.343031,0.273912,3e-06,-0.001952,0.091755,8.3e-05,0.002795,0.033674,0.0,0.0,0.0,0.0,0.0,0.0
379299,-0.0112,-0.005441,0.075425,0.0,0.0,0.0,0.0,0.0,0.087266,3.0,0.363938,0.31075,0.330023,0.291451,4e-06,-0.001896,0.09242,7.8e-05,0.002824,0.032522,0.0,0.0,0.0,0.0,0.0,0.0
379319,-0.011333,-0.005677,0.076046,0.0,0.0,0.0,0.0,0.0,0.087266,3.0,0.35547,0.314895,0.332052,0.295691,4e-06,-0.00184,0.093062,7.4e-05,0.002852,0.031391,0.0,0.0,0.0,0.0,0.0,0.0
379339,-0.011705,-0.005781,0.076652,0.0,0.0,0.0,0.0,0.0,0.087266,3.0,0.363197,0.304799,0.337621,0.289702,4e-06,-0.001782,0.093682,7e-05,0.002879,0.030279,0.0,0.0,0.0,0.0,0.0,0.0
379359,-0.011956,-0.00589,0.077258,0.0,0.0,0.0,0.0,0.0,0.087266,3.0,0.366424,0.300943,0.344081,0.281128,5e-06,-0.001725,0.094279,6.6e-05,0.002905,0.029187,0.0,0.0,0.0,0.0,0.0,0.0
379379,-0.012075,-0.005759,0.077988,0.0,0.0,0.0,0.0,0.0,0.087266,3.0,0.355963,0.307442,0.337099,0.297071,5e-06,-0.001666,0.094855,6.2e-05,0.002929,0.028114,0.0,0.0,0.0,0.0,0.0,0.0
379399,-0.012199,-0.005751,0.07861,0.0,0.0,0.0,0.0,0.0,0.087266,3.0,0.34924,0.311808,0.330752,0.308102,5e-06,-0.001607,0.095409,5.8e-05,0.002952,0.027061,0.0,0.0,0.0,0.0,0.0,0.0
379419,-0.012707,-0.006217,0.07897,0.0,0.0,0.0,0.0,0.0,0.087266,3.0,0.369671,0.300943,0.342316,0.278748,5e-06,-0.001548,0.095942,5.5e-05,0.002974,0.026027,0.0,0.0,0.0,0.0,0.0,0.0
379439,-0.013085,-0.006442,0.079696,0.0,0.0,0.0,0.0,0.0,0.087266,3.0,0.363548,0.310484,0.332236,0.289619,6e-06,-0.001489,0.096455,5.1e-05,0.002995,0.025012,0.0,0.0,0.0,0.0,0.0,0.0
379459,-0.013092,-0.00656,0.080304,0.0,0.0,0.0,0.0,0.0,0.087266,3.0,0.353144,0.316469,0.328277,0.301263,6e-06,-0.001429,0.096948,4.8e-05,0.003014,0.024015,0.0,0.0,0.0,0.0,0.0,0.0
379479,-0.013332,-0.006424,0.08079,0.0,0.0,0.0,0.0,0.0,0.087266,3.0,0.357138,0.309668,0.330771,0.300622,6e-06,-0.001368,0.097421,4.5e-05,0.003032,0.023038,0.0,0.0,0.0,0.0,0.0,0.0
379499,-0.013455,-0.006417,0.081154,0.0,0.0,0.0,0.0,0.0,0.087266,3.0,0.36766,0.294709,0.347126,0.282064,7e-06,-0.001307,0.097875,4.2e-05,0.003049,0.022079,0.0,0.0,0.0,0.0,0.0,0.0
379519,-0.013824,-0.006398,0.081775,0.0,0.0,0.0,0.0,0.0,0.087266,3.0,0.362375,0.307578,0.33262,0.293888,7e-06,-0.001246,0.098309,3.9e-05,0.003064,0.021139,0.0,0.0,0.0,0.0,0.0,0.0
379539,-0.013947,-0.00639,0.082261,0.0,0.0,0.0,0.0,0.0,0.087266,3.0,0.359512,0.308334,0.332361,0.297149,7e-06,-0.001185,0.098725,3.7e-05,0.003078,0.020218,0.0,0.0,0.0,0.0,0.0,0.0
379559,-0.014202,-0.006621,0.082622,0.0,0.0,0.0,0.0,0.0,0.087266,3.0,0.363627,0.305613,0.335591,0.290735,7e-06,-0.001123,0.099122,3.4e-05,0.003091,0.019314,0.0,0.0,0.0,0.0,0.0,0.0
379579,-0.014585,-0.006968,0.083104,0.0,0.0,0.0,0.0,0.0,0.087266,3.0,0.369064,0.302049,0.337734,0.284361,8e-06,-0.001061,0.099502,3.1e-05,0.003103,0.018429,0.0,0.0,0.0,0.0,0.0,0.0
379599,-0.014719,-0.007202,0.08371,0.0,0.0,0.0,0.0,0.0,0.087266,3.0,0.360673,0.312512,0.331879,0.291691,8e-06,-0.000999,0.099864,2.9e-05,0.003113,0.017562,0.0,0.0,0.0,0.0,0.0,0.0
379619,-0.014838,-0.007072,0.084211,0.0,0.0,0.0,0.0,0.0,0.087266,3.0,0.353787,0.312945,0.328292,0.304171,8e-06,-0.000937,0.100209,2.7e-05,0.003122,0.016713,0.0,0.0,0.0,0.0,0.0,0.0
379639,-0.015088,-0.007182,0.084452,0.0,0.0,0.0,0.0,0.0,0.087266,3.0,0.364781,0.303115,0.337943,0.288943,8e-06,-0.000874,0.100537,2.5e-05,0.00313,0.015881,0.0,0.0,0.0,0.0,0.0,0.0
379659,-0.015339,-0.00729,0.084936,0.0,0.0,0.0,0.0,0.0,0.087266,3.0,0.364467,0.302985,0.338944,0.288268,8e-06,-0.000812,0.100848,2.3e-05,0.003137,0.015067,0.0,0.0,0.0,0.0,0.0,0.0
379679,-0.015712,-0.007392,0.08542,0.0,0.0,0.0,0.0,0.0,0.087266,3.0,0.35933,0.310256,0.332426,0.295266,9e-06,-0.000749,0.101144,2.1e-05,0.003142,0.01427,0.0,0.0,0.0,0.0,0.0,0.0
379699,-0.015957,-0.007379,0.085783,0.0,0.0,0.0,0.0,0.0,0.087266,3.0,0.3579,0.307347,0.329184,0.303843,9e-06,-0.000686,0.101423,1.9e-05,0.003146,0.013491,0.0,0.0,0.0,0.0,0.0,0.0
379719,-0.016334,-0.007605,0.086022,0.0,0.0,0.0,0.0,0.0,0.087266,3.0,0.371899,0.298887,0.33822,0.283092,9e-06,-0.000623,0.101687,1.8e-05,0.003148,0.012729,0.0,0.0,0.0,0.0,0.0,0.0
379739,-0.016347,-0.007845,0.086522,0.0,0.0,0.0,0.0,0.0,0.087266,3.0,0.365456,0.306997,0.337183,0.284724,9e-06,-0.00056,0.101936,1.6e-05,0.00315,0.011984,0.0,0.0,0.0,0.0,0.0,0.0
379759,-0.016598,-0.007952,0.087006,0.0,0.0,0.0,0.0,0.0,0.087266,3.0,0.359562,0.315203,0.326644,0.296328,9e-06,-0.000497,0.102171,1.5e-05,0.00315,0.011436,0.0,0.0,0.0,0.0,0.0,0.0
379779,-0.016726,-0.008067,0.087247,0.0,0.0,0.0,0.0,0.0,0.087266,3.0,0.361096,0.308435,0.33351,0.293611,1e-05,-0.000434,0.10239,1.3e-05,0.003149,0.010544,0.0,0.0,0.0,0.0,0.0,0.0
379799,-0.016982,-0.008298,0.087486,0.0,0.0,0.0,0.0,0.0,0.087266,3.0,0.372424,0.298218,0.344195,0.275156,1e-05,-0.000371,0.102596,1.2e-05,0.003146,0.009848,0.0,0.0,0.0,0.0,0.0,0.0
379819,-0.017106,-0.008287,0.088093,0.0,0.0,0.0,0.0,0.0,0.087266,3.0,0.356689,0.313199,0.330711,0.297525,1e-05,-0.000308,0.102788,1.1e-05,0.003142,0.00917,0.0,0.0,0.0,0.0,0.0,0.0
379839,-0.017218,-0.008035,0.088459,0.0,0.0,0.0,0.0,0.0,0.087266,3.0,0.352781,0.31458,0.327267,0.304832,1e-05,-0.000246,0.102966,1e-05,0.003137,0.008507,0.0,0.0,0.0,0.0,0.0,0.0
379859,-0.017219,-0.008034,0.08858,0.0,0.0,0.0,0.0,0.0,0.087266,3.0,0.365361,0.298681,0.342739,0.286818,1e-05,-0.000183,0.103131,9e-06,0.003131,0.00786,0.0,0.0,0.0,0.0,0.0,0.0
379879,-0.017471,-0.008142,0.088959,0.0,0.0,0.0,0.0,0.0,0.087266,3.0,0.365746,0.305897,0.33804,0.284449,1e-05,-0.00012,0.103284,8e-06,0.003124,0.007229,0.0,0.0,0.0,0.0,0.0,0.0
379899,-0.017594,-0.008133,0.089322,0.0,0.0,0.0,0.0,0.0,0.087266,3.0,0.363375,0.306652,0.333994,0.291896,1.1e-05,-5.8e-05,0.103424,8e-06,0.003115,0.006614,0.0,0.0,0.0,0.0,0.0,0.0
379919,-0.017722,-0.008248,0.089564,0.0,0.0,0.0,0.0,0.0,0.087266,3.0,0.362838,0.306356,0.333753,0.293221,1.1e-05,4e-06,0.103552,7e-06,0.003105,0.006014,0.0,0.0,0.0,0.0,0.0,0.0
379939,-0.017845,-0.00824,0.089806,0.0,0.0,0.0,0.0,0.0,0.087266,3.0,0.36772,0.301526,0.337838,0.286696,1.1e-05,6.6e-05,0.103668,6e-06,0.003094,0.00543,0.0,0.0,0.0,0.0,0.0,0.0
379959,-0.01773,-0.008364,0.09017,0.0,0.0,0.0,0.0,0.0,0.087266,3.0,0.363118,0.308149,0.336418,0.287656,1.1e-05,0.000128,0.103772,6e-06,0.003082,0.004861,0.0,0.0,0.0,0.0,0.0,0.0
379979,-0.017731,-0.008362,0.090413,0.0,0.0,0.0,0.0,0.0,0.087266,3.0,0.359614,0.310814,0.33106,0.2959,1.1e-05,0.00019,0.103865,5e-06,0.003068,0.004306,0.0,0.0,0.0,0.0,0.0,0.0
379999,-0.017731,-0.008361,0.090534,0.0,0.0,0.0,0.0,0.0,0.087266,3.0,0.367241,0.300184,0.339983,0.286101,1.1e-05,0.000251,0.103947,5e-06,0.003053,0.003767,0.0,0.0,0.0,0.0,0.0,0.0
380019,-0.017738,-0.008479,0.090898,0.0,0.0,0.0,0.0,0.0,0.087266,3.0,0.363195,0.307928,0.336861,0.287242,1.1e-05,0.000297,0.104001,5e-06,0.003042,0.003371,0.0,0.0,0.0,0.0,0.0,0.0
380039,-0.017734,-0.008355,0.091141,0.0,0.0,0.0,0.0,0.0,0.087266,3.0,0.360026,0.310771,0.328812,0.298009,1.1e-05,0.000373,0.104079,4e-06,0.00302,0.002731,0.0,0.0,0.0,0.0,0.0,0.0
380059,-0.017612,-0.00836,0.091264,0.0,0.0,0.0,0.0,0.0,0.087266,3.0,0.365612,0.302683,0.338801,0.287188,1.2e-05,0.000433,0.10413,4e-06,0.003002,0.002234,0.0,0.0,0.0,0.0,0.0,0.0
380079,-0.017486,-0.008241,0.091508,0.0,0.0,0.0,0.0,0.0,0.087266,3.0,0.363962,0.303131,0.33948,0.288133,1.2e-05,0.000493,0.104171,4e-06,0.002983,0.001752,0.0,0.0,0.0,0.0,0.0,0.0
380099,-0.017604,-0.008111,0.09189,0.0,0.0,0.0,0.0,0.0,0.087266,3.0,0.357349,0.314213,0.329052,0.2975,1.2e-05,0.000552,0.104203,4e-06,0.002962,0.001283,0.0,0.0,0.0,0.0,0.0,0.0
380119,-0.01786,-0.008342,0.092008,0.0,0.0,0.0,0.0,0.0,0.087266,3.0,0.361776,0.310889,0.33172,0.292187,1.2e-05,0.000611,0.104225,4e-06,0.002941,0.000828,0.0,0.0,0.0,0.0,0.0,0.0
380139,-0.017988,-0.008457,0.092127,0.0,0.0,0.0,0.0,0.0,0.087266,3.0,0.36393,0.302907,0.339268,0.288684,1.2e-05,0.00067,0.104238,4e-06,0.002918,0.000386,0.0,0.0,0.0,0.0,0.0,0.0
380159,-0.017989,-0.008455,0.09237,0.0,0.0,0.0,0.0,0.0,0.087266,3.0,0.362232,0.305717,0.33473,0.293538,1.2e-05,0.000728,0.104243,4e-06,0.002894,-4.2e-05,0.0,0.0,0.0,0.0,0.0,0.0
380179,-0.018112,-0.008447,0.092612,0.0,0.0,0.0,0.0,0.0,0.087266,3.0,0.359193,0.312862,0.327257,0.298632,1.2e-05,0.000786,0.104239,4e-06,0.002869,-0.000457,0.0,0.0,0.0,0.0,0.0,0.0
380199,-0.018373,-0.008801,0.092729,0.0,0.0,0.0,0.0,0.0,0.087266,3.0,0.369567,0.307749,0.333412,0.282784,1.2e-05,0.000843,0.104226,4e-06,0.002843,-0.00086,0.0,0.0,0.0,0.0,0.0,0.0
380219,-0.018502,-0.008915,0.09297,0.0,0.0,0.0,0.0,0.0,0.087266,3.0,0.365493,0.310303,0.331864,0.287597,1.2e-05,0.0009,0.104206,4e-06,0.002816,-0.00125,0.0,0.0,0.0,0.0,0.0,0.0
380239,-0.018508,-0.009035,0.09309,0.0,0.0,0.0,0.0,0.0,0.087266,3.0,0.364295,0.309576,0.334143,0.287269,1.2e-05,0.000956,0.104178,4e-06,0.002788,-0.001627,0.0,0.0,0.0,0.0,0.0,0.0
