time_ms,roll,pitch,yaw,x,y,z,reference_roll,reference_pitch,reference_yaw,reference_throttle,throttle_1,throttle_2,throttle_3,throttle_4,roll_predicted,pitch_predicted,yaw_predicted,roll_rate_predicted,pitch_rate_predicted,yaw_rate_predicted,value1,value2,value3,value4,value5,value6
407719,-0.008173,-0.002704,-0.004528,0.0,0.0,0.0,0.0,0.0,0.0,3.0,0.332486,0.322366,0.323543,0.323627,-5e-06,0.000239,4e-05,9e-06,-0.000412,-0.000182,0.0,0.0,0.0,0.0,0.0,0.0
407739,-0.008051,-0.002581,-0.004405,0.0,0.0,0.0,0.0,0.0,0.0,3.0,0.323509,0.319838,0.3235,0.326093,-5e-06,0.000233,3.8e-05,1e-05,-0.000414,-0.000178,0.0,0.0,0.0,0.0,0.0,0.0
407759,-0.008173,-0.002704,-0.004406,0.0,0.0,0.0,0.0,0.0,0.0,3.0,0.330446,0.325391,0.31677,0.329312,-5e-06,0.000224,3.4e-05,1e-05,-0.000417,-0.000174,0.0,0.0,0.0,0.0,0.0,0.0
407779,-0.008173,-0.002948,-0.004407,0.0,0.0,0.0,0.0,0.0,0.0,3.0,0.334468,0.326042,0.321407,0.319974,-4e-06,0.000214,3e-05,1e-05,-0.000421,-0.000168,0.0,0.0,0.0,0.0,0.0,0.0
407799,-0.007928,-0.003069,-0.004407,0.0,0.0,0.0,0.0,0.0,0.0,3.0,0.33135,0.323587,0.324929,0.32219,-4e-06,0.000205,2.7e-05,1e-05,-0.000424,-0.000164,0.0,0.0,0.0,0.0,0.0,0.0
407819,-0.008051,-0.002948,-0.004407,0.0,0.0,0.0,0.0,0.0,0.0,3.0,0.333018,0.319372,0.32324,0.326321,-4e-06,0.000197,2.3e-05,1e-05,-0.000427,-0.000159,0.0,0.0,0.0,0.0,0.0,0.0
407839,-0.008173,-0.002826,-0.004407,0.0,0.0,0.0,0.0,0.0,0.0,3.0,0.334404,0.318415,0.321879,0.327157,-4e-06,0.000188,2e-05,1e-05,-0.000429,-0.000155,0.0,0.0,0.0,0.0,0.0,0.0
407859,-0.008172,-0.002948,-0.004529,0.0,0.0,0.0,0.0,0.0,0.0,3.0,0.333895,0.325949,0.319095,0.322973,-4e-06,0.000182,1.8e-05,1e-05,-0.000431,-0.000152,0.0,0.0,0.0,0.0,0.0,0.0
407879,-0.008539,-0.002705,-0.004529,0.0,0.0,0.0,0.0,0.0,0.0,3.0,0.33737,0.321475,0.320767,0.32215,-3e-06,0.000173,1.5e-05,1e-05,-0.000433,-0.000148,0.0,0.0,0.0,0.0,0.0,0.0
407899,-0.008661,-0.002827,-0.004529,0.0,0.0,0.0,0.0,0.0,0.0,3.0,0.334934,0.325864,0.322065,0.318997,-3e-06,0.000162,1.1e-05,1e-05,-0.000435,-0.000142,0.0,0.0,0.0,0.0,0.0,0.0
407919,-0.008783,-0.002828,-0.00453,0.0,0.0,0.0,0.0,0.0,0.0,3.0,0.334821,0.323189,0.322176,0.321729,-3e-06,0.000154,8e-06,1e-05,-0.000437,-0.000138,0.0,0.0,0.0,0.0,0.0,0.0
407939,-0.008783,-0.00295,-0.00453,0.0,0.0,0.0,0.0,0.0,0.0,3.0,0.333145,0.325741,0.324081,0.318977,-3e-06,0.000145,6e-06,1e-05,-0.000439,-0.000134,0.0,0.0,0.0,0.0,0.0,0.0
407959,-0.009026,-0.003194,-0.004532,0.0,0.0,0.0,0.0,0.0,0.0,3.0,0.337221,0.326718,0.31992,0.317824,-3e-06,0.000138,4e-06,1e-05,-0.00044,-0.000131,0.0,0.0,0.0,0.0,0.0,0.0
407979,-0.009026,-0.003195,-0.004654,0.0,0.0,0.0,0.0,0.0,0.0,3.0,0.335508,0.321513,0.323699,0.321151,-2e-06,0.000127,0.0,1e-05,-0.000441,-0.000126,0.0,0.0,0.0,0.0,0.0,0.0
407999,-0.008904,-0.003317,-0.004654,0.0,0.0,0.0,0.0,0.0,0.0,3.0,0.33595,0.323049,0.321807,0.321043,-2e-06,0.000121,-1e-06,1e-05,-0.000442,-0.000123,0.0,0.0,0.0,0.0,0.0,0.0
408019,-0.009027,-0.003073,-0.004653,0.0,0.0,0.0,0.0,0.0,0.0,3.0,0.334478,0.321309,0.323199,0.322944,-2e-06,0.000112,-4e-06,1e-05,-0.000443,-0.00012,0.0,0.0,0.0,0.0,0.0,0.0
408039,-0.009149,-0.002952,-0.004775,0.0,0.0,0.0,0.0,0.0,0.0,3.0,0.332081,0.319562,0.325713,0.324638,-2e-06,0.000103,-6e-06,1e-05,-0.000443,-0.000116,0.0,0.0,0.0,0.0,0.0,0.0
408059,-0.009148,-0.003074,-0.004775,0.0,0.0,0.0,0.0,0.0,0.0,3.0,0.340525,0.323372,0.323512,0.313984,-2e-06,9.2e-05,-9e-06,1e-05,-0.000444,-0.000111,0.0,0.0,0.0,0.0,0.0,0.0
408079,-0.009149,-0.00283,-0.004774,0.0,0.0,0.0,0.0,0.0,0.0,3.0,0.337578,0.323558,0.321292,0.319302,-1e-06,8.5e-05,-1.1e-05,1e-05,-0.000444,-0.000108,0.0,0.0,0.0,0.0,0.0,0.0
408099,-0.009271,-0.003074,-0.004776,0.0,0.0,0.0,0.0,0.0,0.0,3.0,0.333738,0.328564,0.32128,0.318269,-1e-06,7.6e-05,-1.3e-05,1e-05,-0.000444,-0.000105,0.0,0.0,0.0,0.0,0.0,0.0
408119,-0.009514,-0.003197,-0.004899,0.0,0.0,0.0,0.0,0.0,0.0,3.0,0.335552,0.32287,0.326351,0.317009,-1e-06,6.7e-05,-1.5e-05,1e-05,-0.000444,-0.000101,0.0,0.0,0.0,0.0,0.0,0.0
408139,-0.009392,-0.003319,-0.004899,0.0,0.0,0.0,0.0,0.0,0.0,3.0,0.335575,0.323987,0.323379,0.318902,-1e-06,5.9e-05,-1.7e-05,1e-05,-0.000444,-9.8e-05,0.0,0.0,0.0,0.0,0.0,0.0
408159,-0.009391,-0.003563,-0.0049,0.0,0.0,0.0,0.0,0.0,0.0,3.0,0.335698,0.325636,0.323236,0.317219,-1e-06,4.7e-05,-1.9e-05,1e-05,-0.000444,-9.4e-05,0.0,0.0,0.0,0.0,0.0,0.0
408179,-0.009514,-0.003319,-0.004899,0.0,0.0,0.0,0.0,0.0,0.0,3.0,0.33693,0.321863,0.321921,0.321078,-0.0,4.1e-05,-2.1e-05,1e-05,-0.000443,-9.1e-05,0.0,0.0,0.0,0.0,0.0,0.0
408199,-0.009514,-0.00332,-0.005021,0.0,0.0,0.0,0.0,0.0,0.0,3.0,0.335325,0.320991,0.323689,0.321876,-0.0,3.2e-05,-2.3e-05,1e-05,-0.000442,-8.8e-05,0.0,0.0,0.0,0.0,0.0,0.0
408219,-0.009636,-0.003198,-0.005021,0.0,0.0,0.0,0.0,0.0,0.0,3.0,0.333863,0.319909,0.323522,0.324644,0.0,2.3e-05,-2.4e-05,1e-05,-0.000441,-8.5e-05,0.0,0.0,0.0,0.0,0.0,0.0
408239,-0.009636,-0.003076,-0.00502,0.0,0.0,0.0,0.0,0.0,0.0,3.0,0.337132,0.319119,0.323834,0.321671,0.0,1.4e-05,-2.6e-05,1e-05,-0.00044,-8.1e-05,0.0,0.0,0.0,0.0,0.0,0.0
408259,-0.009515,-0.002954,-0.005019,0.0,0.0,0.0,0.0,0.0,0.0,3.0,0.341564,0.320539,0.321473,0.317837,0.0,6e-06,-2.8e-05,1e-05,-0.000439,-7.8e-05,0.0,0.0,0.0,0.0,0.0,0.0
408279,-0.009758,-0.003076,-0.00502,0.0,0.0,0.0,0.0,0.0,0.0,3.0,0.334757,0.322387,0.320683,0.32408,1e-06,-5e-06,-2.9e-05,1e-05,-0.000437,-7.4e-05,0.0,0.0,0.0,0.0,0.0,0.0
408299,-0.009758,-0.003321,-0.005144,0.0,0.0,0.0,0.0,0.0,0.0,3.0,0.339069,0.317421,0.327146,0.317876,1e-06,-1.2e-05,-3.1e-05,1e-05,-0.000436,-7.2e-05,0.0,0.0,0.0,0.0,0.0,0.0
408319,-0.009636,-0.003321,-0.005144,0.0,0.0,0.0,0.0,0.0,0.0,3.0,0.335495,0.320004,0.326558,0.319759,1e-06,-2.3e-05,-3.2e-05,1e-05,-0.000434,-6.8e-05,0.0,0.0,0.0,0.0,0.0,0.0
408339,-0.009757,-0.003443,-0.005144,0.0,0.0,0.0,0.0,0.0,0.0,3.0,0.335821,0.321675,0.324551,0.319788,1e-06,-3.2e-05,-3.4e-05,1e-05,-0.000432,-6.6e-05,0.0,0.0,0.0,0.0,0.0,0.0
408359,-0.00988,-0.003321,-0.005144,0.0,0.0,0.0,0.0,0.0,0.0,3.0,0.341734,0.317238,0.325242,0.317106,1e-06,-3.8e-05,-3.5e-05,9e-06,-0.00043,-6.3e-05,0.0,0.0,0.0,0.0,0.0,0.0
408379,-0.00988,-0.003199,-0.005143,0.0,0.0,0.0,0.0,0.0,0.0,3.0,0.339311,0.320246,0.321174,0.32089,2e-06,-4.9e-05,-3.6e-05,9e-06,-0.000427,-6e-05,0.0,0.0,0.0,0.0,0.0,0.0
408399,-0.009759,-0.002833,-0.005141,0.0,0.0,0.0,0.0,0.0,0.0,3.0,0.333159,0.318206,0.322158,0.328363,2e-06,-5.7e-05,-3.7e-05,9e-06,-0.000425,-5.7e-05,0.0,0.0,0.0,0.0,0.0,0.0
408419,-0.00988,-0.002956,-0.005264,0.0,0.0,0.0,0.0,0.0,0.0,3.0,0.33811,0.31687,0.324012,0.322659,2e-06,-6.6e-05,-3.9e-05,9e-06,-0.000422,-5.4e-05,0.0,0.0,0.0,0.0,0.0,0.0
408439,-0.010002,-0.003078,-0.005265,0.0,0.0,0.0,0.0,0.0,0.0,3.0,0.338065,0.321128,0.323011,0.319498,2e-06,-7.2e-05,-3.9e-05,9e-06,-0.00042,-5.3e-05,0.0,0.0,0.0,0.0,0.0,0.0
408459,-0.010002,-0.003322,-0.005266,0.0,0.0,0.0,0.0,0.0,0.0,3.0,0.339347,0.326536,0.321764,0.313796,2e-06,-8e-05,-4e-05,9e-06,-0.000417,-5e-05,0.0,0.0,0.0,0.0,0.0,0.0
408479,-0.01,-0.003689,-0.00539,0.0,0.0,0.0,0.0,0.0,0.0,3.0,0.335046,0.324764,0.326317,0.315637,2e-06,-8.9e-05,-4.1e-05,9e-06,-0.000414,-4.7e-05,0.0,0.0,0.0,0.0,0.0,0.0
408499,-0.01,-0.003811,-0.005391,0.0,0.0,0.0,0.0,0.0,0.0,3.0,0.339771,0.32656,0.322667,0.312356,3e-06,-9.9e-05,-4.2e-05,9e-06,-0.00041,-4.4e-05,0.0,0.0,0.0,0.0,0.0,0.0
408519,-0.009878,-0.003689,-0.00539,0.0,0.0,0.0,0.0,0.0,0.0,3.0,0.337106,0.322782,0.324657,0.317172,3e-06,-0.000107,-4.3e-05,9e-06,-0.000406,-4.2e-05,0.0,0.0,0.0,0.0,0.0,0.0
408539,-0.009757,-0.003322,-0.005388,0.0,0.0,0.0,0.0,0.0,0.0,3.0,0.337216,0.319191,0.324486,0.32085,3e-06,-0.000113,-4.4e-05,9e-06,-0.000404,-4e-05,0.0,0.0,0.0,0.0,0.0,0.0
408559,-0.009879,-0.003201,-0.00551,0.0,0.0,0.0,0.0,0.0,0.0,3.0,0.341039,0.318584,0.324316,0.317479,3e-06,-0.000123,-4.5e-05,9e-06,-0.000399,-3.7e-05,0.0,0.0,0.0,0.0,0.0,0.0
408579,-0.010001,-0.003201,-0.00551,0.0,0.0,0.0,0.0,0.0,0.0,3.0,0.342511,0.316635,0.323229,0.318915,3e-06,-0.000129,-4.5e-05,9e-06,-0.000396,-3.6e-05,0.0,0.0,0.0,0.0,0.0,0.0
408599,-0.010001,-0.003323,-0.00551,0.0,0.0,0.0,0.0,0.0,0.0,3.0,0.339766,0.321461,0.322682,0.317646,4e-06,-0.000137,-4.6e-05,9e-06,-0.000392,-3.3e-05,0.0,0.0,0.0,0.0,0.0,0.0
408619,-0.01,-0.003568,-0.005512,0.0,0.0,0.0,0.0,0.0,0.0,3.0,0.34028,0.323334,0.322084,0.315774,4e-06,-0.000145,-4.7e-05,8e-06,-0.000388,-3.1e-05,0.0,0.0,0.0,0.0,0.0,0.0
408639,-0.009878,-0.003689,-0.005512,0.0,0.0,0.0,0.0,0.0,0.0,3.0,0.335064,0.320908,0.327599,0.318234,4e-06,-0.000155,-4.8e-05,8e-06,-0.000383,-2.9e-05,0.0,0.0,0.0,0.0,0.0,0.0
408659,-0.009756,-0.003689,-0.005512,0.0,0.0,0.0,0.0,0.0,0.0,3.0,0.337191,0.31987,0.325506,0.319158,4e-06,-0.000162,-4.8e-05,8e-06,-0.000379,-2.7e-05,0.0,0.0,0.0,0.0,0.0,0.0
408679,-0.009756,-0.003568,-0.005633,0.0,0.0,0.0,0.0,0.0,0.0,3.0,0.338317,0.314137,0.331408,0.317479,4e-06,-0.000168,-4.9e-05,8e-06,-0.000375,-2.5e-05,0.0,0.0,0.0,0.0,0.0,0.0
408699,-0.009635,-0.003323,-0.005632,0.0,0.0,0.0,0.0,0.0,0.0,3.0,0.339618,0.316684,0.323739,0.3215,4e-06,-0.000175,-4.9e-05,8e-06,-0.00037,-2.3e-05,0.0,0.0,0.0,0.0,0.0,0.0
408719,-0.009757,-0.003201,-0.005631,0.0,0.0,0.0,0.0,0.0,0.0,3.0,0.34011,0.319895,0.32302,0.318508,5e-06,-0.000183,-4.9e-05,8e-06,-0.000365,-2.1e-05,0.0,0.0,0.0,0.0,0.0,0.0
408739,-0.00988,-0.00308,-0.005631,0.0,0.0,0.0,0.0,0.0,0.0,3.0,0.341848,0.318579,0.321258,0.319709,5e-06,-0.000192,-5e-05,8e-06,-0.000359,-1.9e-05,0.0,0.0,0.0,0.0,0.0,0.0
408759,-0.009879,-0.003324,-0.005632,0.0,0.0,0.0,0.0,0.0,0.0,3.0,0.341258,0.32167,0.322078,0.316408,5e-06,-0.000197,-5e-05,8e-06,-0.000355,-1.7e-05,0.0,0.0,0.0,0.0,0.0,0.0
408779,-0.009878,-0.003569,-0.005756,0.0,0.0,0.0,0.0,0.0,0.0,3.0,0.341063,0.316629,0.326034,0.317634,5e-06,-0.000206,-5.1e-05,7e-06,-0.000348,-1.5e-05,0.0,0.0,0.0,0.0,0.0,0.0
408799,-0.009878,-0.003691,-0.005756,0.0,0.0,0.0,0.0,0.0,0.0,3.0,0.339007,0.320001,0.325131,0.317441,5e-06,-0.000213,-5.1e-05,7e-06,-0.000343,-1.4e-05,0.0,0.0,0.0,0.0,0.0,0.0
408819,-0.009877,-0.003813,-0.005757,0.0,0.0,0.0,0.0,0.0,0.0,3.0,0.337209,0.318657,0.326888,0.318927,5e-06,-0.00022,-5.1e-05,7e-06,-0.000338,-1.2e-05,0.0,0.0,0.0,0.0,0.0,0.0
408839,-0.01,-0.003691,-0.005756,0.0,0.0,0.0,0.0,0.0,0.0,3.0,0.341004,0.319712,0.323059,0.317672,5e-06,-0.000226,-5.1e-05,7e-06,-0.000332,-1e-05,0.0,0.0,0.0,0.0,0.0,0.0
408859,-0.009878,-0.003569,-0.005756,0.0,0.0,0.0,0.0,0.0,0.0,3.0,0.336942,0.31658,0.327325,0.320821,6e-06,-0.000231,-5.2e-05,7e-06,-0.000328,-9e-06,0.0,0.0,0.0,0.0,0.0,0.0
408879,-0.009757,-0.003324,-0.005754,0.0,0.0,0.0,0.0,0.0,0.0,3.0,0.335422,0.318919,0.322065,0.325433,6e-06,-0.000238,-5.2e-05,7e-06,-0.000322,-8e-06,0.0,0.0,0.0,0.0,0.0,0.0
408899,-0.009756,-0.003446,-0.005755,0.0,0.0,0.0,0.0,0.0,0.0,3.0,0.347397,0.315681,0.330231,0.306879,6e-06,-0.000244,-5.2e-05,7e-06,-0.000316,-6e-06,0.0,0.0,0.0,0.0,0.0,0.0
408919,-0.009756,-0.003568,-0.005755,0.0,0.0,0.0,0.0,0.0,0.0,3.0,0.339406,0.323264,0.324437,0.314378,6e-06,-0.000251,-5.2e-05,7e-06,-0.00031,-5e-06,0.0,0.0,0.0,0.0,0.0,0.0
408939,-0.009755,-0.003813,-0.005879,0.0,0.0,0.0,0.0,0.0,0.0,3.0,0.340108,0.322866,0.324668,0.313769,6e-06,-0.000257,-5.2e-05,6e-06,-0.000304,-3e-06,0.0,0.0,0.0,0.0,0.0,0.0
408959,-0.009876,-0.004057,-0.00588,0.0,0.0,0.0,0.0,0.0,0.0,3.0,0.346734,0.316281,0.330937,0.306253,6e-06,-0.000264,-5.2e-05,6e-06,-0.000296,-1e-06,0.0,0.0,0.0,0.0,0.0,0.0
408979,-0.009999,-0.003935,-0.005758,0.0,0.0,0.0,0.0,0.0,0.0,3.0,0.338703,0.324337,0.320295,0.318293,6e-06,-0.00027,-5.2e-05,6e-06,-0.000289,-0.0,0.0,0.0,0.0,0.0,0.0,0.0
408999,-0.010122,-0.003691,-0.005757,0.0,0.0,0.0,0.0,0.0,0.0,3.0,0.341536,0.315637,0.323051,0.321143,7e-06,-0.000276,-5.2e-05,6e-06,-0.000283,1e-06,0.0,0.0,0.0,0.0,0.0,0.0
409019,-0.010244,-0.00357,-0.005756,0.0,0.0,0.0,0.0,0.0,0.0,3.0,0.341889,0.316347,0.323135,0.319978,7e-06,-0.00028,-5.2e-05,6e-06,-0.000278,2e-06,0.0,0.0,0.0,0.0,0.0,0.0
409039,-0.010122,-0.003447,-0.005755,0.0,0.0,0.0,0.0,0.0,0.0,3.0,0.33991,0.319416,0.32553,0.316628,7e-06,-0.000287,-5.2e-05,6e-06,-0.00027,4e-06,0.0,0.0,0.0,0.0,0.0,0.0
409059,-0.009878,-0.003325,-0.005876,0.0,0.0,0.0,0.0,0.0,0.0,3.0,0.345835,0.310828,0.333232,0.310348,7e-06,-0.000292,-5.2e-05,5e-06,-0.000263,5e-06,0.0,0.0,0.0,0.0,0.0,0.0
409079,-0.009878,-0.003691,-0.005756,0.0,0.0,0.0,0.0,0.0,0.0,3.0,0.337515,0.322975,0.326609,0.31449,7e-06,-0.000296,-5.2e-05,5e-06,-0.000258,6e-06,0.0,0.0,0.0,0.0,0.0,0.0
409099,-0.009633,-0.004056,-0.005635,0.0,0.0,0.0,0.0,0.0,0.0,3.0,0.332496,0.328,0.319397,0.322048,7e-06,-0.000301,-5.2e-05,5e-06,-0.000251,7e-06,0.0,0.0,0.0,0.0,0.0,0.0
409119,-0.009755,-0.003934,-0.005635,0.0,0.0,0.0,0.0,0.0,0.0,3.0,0.3358,0.326545,0.317496,0.321935,7e-06,-0.000307,-5.2e-05,5e-06,-0.000242,8e-06,0.0,0.0,0.0,0.0,0.0,0.0
409139,-0.009999,-0.004057,-0.005636,0.0,0.0,0.0,0.0,0.0,0.0,3.0,0.342604,0.319616,0.328715,0.31002,7e-06,-0.000311,-5.2e-05,5e-06,-0.000237,9e-06,0.0,0.0,0.0,0.0,0.0,0.0
409159,-0.010122,-0.003813,-0.005635,0.0,0.0,0.0,0.0,0.0,0.0,3.0,0.343907,0.318504,0.320367,0.318412,7e-06,-0.000316,-5.1e-05,5e-06,-0.00023,1e-05,0.0,0.0,0.0,0.0,0.0,0.0
409179,-0.010244,-0.003569,-0.005634,0.0,0.0,0.0,0.0,0.0,0.0,3.0,0.341117,0.315061,0.32481,0.32038,7e-06,-0.00032,-5.1e-05,5e-06,-0.000223,1.1e-05,0.0,0.0,0.0,0.0,0.0,0.0
409199,-0.010245,-0.003324,-0.005511,0.0,0.0,0.0,0.0,0.0,0.0,3.0,0.334879,0.317573,0.320783,0.328544,8e-06,-0.000326,-5.1e-05,4e-06,-0.000214,1.2e-05,0.0,0.0,0.0,0.0,0.0,0.0
409219,-0.010245,-0.003446,-0.005511,0.0,0.0,0.0,0.0,0.0,0.0,3.0,0.338211,0.31882,0.325655,0.318954,8e-06,-0.00033,-5.1e-05,4e-06,-0.000206,1.3e-05,0.0,0.0,0.0,0.0,0.0,0.0
409239,-0.010001,-0.003567,-0.005389,0.0,0.0,0.0,0.0,0.0,0.0,3.0,0.33618,0.323162,0.323052,0.319426,8e-06,-0.000334,-5e-05,4e-06,-0.000199,1.4e-05,0.0,0.0,0.0,0.0,0.0,0.0
409259,-0.01,-0.003933,-0.005269,0.0,0.0,0.0,0.0,0.0,0.0,3.0,0.335687,0.32853,0.316164,0.321324,8e-06,-0.000338,-5e-05,4e-06,-0.000192,1.4e-05,0.0,0.0,0.0,0.0,0.0,0.0
409279,-0.009755,-0.004298,-0.005271,0.0,0.0,0.0,0.0,0.0,0.0,3.0,0.341351,0.32345,0.323027,0.313484,8e-06,-0.000341,-5e-05,4e-06,-0.000186,1.5e-05,0.0,0.0,0.0,0.0,0.0,0.0
409299,-0.009999,-0.004177,-0.00527,0.0,0.0,0.0,0.0,0.0,0.0,3.0,0.344593,0.319126,0.321346,0.316026,8e-06,-0.000345,-4.9e-05,3e-06,-0.000177,1.6e-05,0.0,0.0,0.0,0.0,0.0,0.0
409319,-0.010366,-0.003934,-0.00527,0.0,0.0,0.0,0.0,0.0,0.0,3.0,0.347357,0.318095,0.318452,0.316885,8e-06,-0.000349,-4.9e-05,3e-06,-0.000169,1.7e-05,0.0,0.0,0.0,0.0,0.0,0.0
409339,-0.010489,-0.003567,-0.005146,0.0,0.0,0.0,0.0,0.0,0.0,3.0,0.342549,0.316363,0.319971,0.322413,8e-06,-0.000351,-4.9e-05,3e-06,-0.000163,1.7e-05,0.0,0.0,0.0,0.0,0.0,0.0
409359,-0.010734,-0.003445,-0.005024,0.0,0.0,0.0,0.0,0.0,0.0,3.0,0.340356,0.320479,0.318703,0.321986,8e-06,-0.000355,-4.8e-05,3e-06,-0.000154,1.8e-05,0.0,0.0,0.0,0.0,0.0,0.0
409379,-0.010612,-0.003444,-0.004902,0.0,0.0,0.0,0.0,0.0,0.0,3.0,0.341169,0.319781,0.324242,0.316203,8e-06,-0.000358,-4.8e-05,3e-06,-0.000148,1.9e-05,0.0,0.0,0.0,0.0,0.0,0.0
409399,-0.010734,-0.003566,-0.004902,0.0,0.0,0.0,0.0,0.0,0.0,3.0,0.343411,0.321805,0.320882,0.315092,8e-06,-0.000361,-4.8e-05,3e-06,-0.00014,1.9e-05,0.0,0.0,0.0,0.0,0.0,0.0
409419,-0.01049,-0.003809,-0.004659,0.0,0.0,0.0,0.0,0.0,0.0,3.0,0.339284,0.325054,0.323476,0.313647,8e-06,-0.000363,-4.7e-05,2e-06,-0.000133,2e-05,0.0,0.0,0.0,0.0,0.0,0.0
409439,-0.010489,-0.003931,-0.00466,0.0,0.0,0.0,0.0,0.0,0.0,3.0,0.339328,0.321872,0.324151,0.316197,8e-06,-0.000366,-4.7e-05,2e-06,-0.000125,2e-05,0.0,0.0,0.0,0.0,0.0,0.0
409459,-0.010367,-0.004052,-0.00466,0.0,0.0,0.0,0.0,0.0,0.0,3.0,0.340095,0.320063,0.325974,0.315303,8e-06,-0.000369,-4.6e-05,2e-06,-0.000117,2.1e-05,0.0,0.0,0.0,0.0,0.0,0.0
409479,-0.01049,-0.00393,-0.004538,0.0,0.0,0.0,0.0,0.0,0.0,3.0,0.344697,0.316825,0.321199,0.318367,8e-06,-0.000371,-4.6e-05,2e-06,-0.000109,2.1e-05,0.0,0.0,0.0,0.0,0.0,0.0
409499,-0.010613,-0.003441,-0.004413,0.0,0.0,0.0,0.0,0.0,0.0,3.0,0.335499,0.321469,0.315676,0.329045,8e-06,-0.000373,-4.6e-05,2e-06,-9.9e-05,2.2e-05,0.0,0.0,0.0,0.0,0.0,0.0
409519,-0.010736,-0.003197,-0.00429,0.0,0.0,0.0,0.0,0.0,0.0,3.0,0.338644,0.320454,0.319371,0.323187,9e-06,-0.000375,-4.5e-05,2e-06,-9.3e-05,2.2e-05,0.0,0.0,0.0,0.0,0.0,0.0
409539,-0.01098,-0.003197,-0.004168,0.0,0.0,0.0,0.0,0.0,0.0,3.0,0.340082,0.321114,0.317647,0.322688,9e-06,-0.000377,-4.5e-05,1e-06,-8.6e-05,2.3e-05,0.0,0.0,0.0,0.0,0.0,0.0
409559,-0.011225,-0.003197,-0.004047,0.0,0.0,0.0,0.0,0.0,0.0,3.0,0.338056,0.326775,0.31312,0.323549,9e-06,-0.000378,-4.4e-05,1e-06,-7.8e-05,2.3e-05,0.0,0.0,0.0,0.0,0.0,0.0
409579,-0.01098,-0.003562,-0.003926,0.0,0.0,0.0,0.0,0.0,0.0,3.0,0.335004,0.330016,0.316504,0.320176,9e-06,-0.00038,-4.4e-05,1e-06,-6.8e-05,2.4e-05,0.0,0.0,0.0,0.0,0.0,0.0
409599,-0.010858,-0.003683,-0.003805,0.0,0.0,0.0,0.0,0.0,0.0,3.0,0.338041,0.326213,0.319052,0.318331,9e-06,-0.000381,-4.3e-05,1e-06,-6.2e-05,2.4e-05,0.0,0.0,0.0,0.0,0.0,0.0
409619,-0.010858,-0.003683,-0.003805,0.0,0.0,0.0,0.0,0.0,0.0,3.0,0.339027,0.32003,0.324329,0.318216,9e-06,-0.000382,-4.3e-05,1e-06,-5.4e-05,2.4e-05,0.0,0.0,0.0,0.0,0.0,0.0
409639,-0.010736,-0.003804,-0.003683,0.0,0.0,0.0,0.0,0.0,0.0,3.0,0.337981,0.324275,0.32409,0.315262,9e-06,-0.000383,-4.2e-05,1e-06,-4.6e-05,2.4e-05,0.0,0.0,0.0,0.0,0.0,0.0
409659,-0.010736,-0.003681,-0.00356,0.0,0.0,0.0,0.0,0.0,0.0,3.0,0.339601,0.320884,0.322077,0.319026,9e-06,-0.000384,-4.2e-05,0.0,-3.8e-05,2.5e-05,0.0,0.0,0.0,0.0,0.0,0.0
409679,-0.010737,-0.003436,-0.003315,0.0,0.0,0.0,0.0,0.0,0.0,3.0,0.338984,0.324573,0.31727,0.320763,9e-06,-0.000385,-4.1e-05,0.0,-2.8e-05,2.5e-05,0.0,0.0,0.0,0.0,0.0,0.0
409699,-0.01086,-0.003313,-0.003192,0.0,0.0,0.0,0.0,0.0,0.0,3.0,0.339705,0.323697,0.317696,0.320453,9e-06,-0.000385,-4.1e-05,0.0,-2.2e-05,2.5e-05,0.0,0.0,0.0,0.0,0.0,0.0
409719,-0.011104,-0.003313,-0.00307,0.0,0.0,0.0,0.0,0.0,0.0,3.0,0.336797,0.327478,0.313616,0.323692,9e-06,-0.000386,-4e-05,-0.0,-1.3e-05,2.6e-05,0.0,0.0,0.0,0.0,0.0,0.0
409739,-0.011103,-0.003557,-0.003072,0.0,0.0,0.0,0.0,0.0,0.0,3.0,0.340891,0.321542,0.322179,0.31684,9e-06,-0.000386,-4e-05,-0.0,-7e-06,2.6e-05,0.0,0.0,0.0,0.0,0.0,0.0
409759,-0.011103,-0.003923,-0.002952,0.0,0.0,0.0,0.0,0.0,0.0,3.0,0.338932,0.326968,0.315252,0.320352,9e-06,-0.000386,-3.9e-05,-0.0,1e-06,2.6e-05,0.0,0.0,0.0,0.0,0.0,0.0
409779,-0.010982,-0.0038,-0.002829,0.0,0.0,0.0,0.0,0.0,0.0,3.0,0.339097,0.323081,0.321479,0.317952,9e-06,-0.000386,-3.9e-05,-1e-06,9e-06,2.6e-05,0.0,0.0,0.0,0.0,0.0,0.0
409799,-0.010982,-0.003921,-0.002707,0.0,0.0,0.0,0.0,0.0,0.0,3.0,0.339558,0.322094,0.323158,0.316741,9e-06,-0.000386,-3.8e-05,-1e-06,1.8e-05,2.6e-05,0.0,0.0,0.0,0.0,0.0,0.0
409819,-0.010616,-0.003676,-0.002583,0.0,0.0,0.0,0.0,0.0,0.0,3.0,0.336554,0.320461,0.320679,0.324104,9e-06,-0.000385,-3.8e-05,-1e-06,2.4e-05,2.6e-05,0.0,0.0,0.0,0.0,0.0,0.0
409839,-0.010616,-0.003553,-0.002461,0.0,0.0,0.0,0.0,0.0,0.0,3.0,0.337026,0.326206,0.312699,0.325608,9e-06,-0.000385,-3.7e-05,-1e-06,3.2e-05,2.7e-05,0.0,0.0,0.0,0.0,0.0,0.0
409859,-0.010495,-0.003308,-0.002337,0.0,0.0,0.0,0.0,0.0,0.0,3.0,0.342462,0.317618,0.320672,0.320577,9e-06,-0.000384,-3.7e-05,-1e-06,3.9e-05,2.7e-05,0.0,0.0,0.0,0.0,0.0,0.0
409879,-0.010495,-0.00343,-0.002338,0.0,0.0,0.0,0.0,0.0,0.0,3.0,0.339648,0.319919,0.322693,0.31932,9e-06,-0.000383,-3.6e-05,-2e-06,4.7e-05,2.7e-05,0.0,0.0,0.0,0.0,0.0,0.0
409899,-0.010617,-0.00343,-0.002216,0.0,0.0,0.0,0.0,0.0,0.0,3.0,0.342401,0.320742,0.317749,0.320445,8e-06,-0.000382,-3.6e-05,-2e-06,5.5e-05,2.7e-05,0.0,0.0,0.0,0.0,0.0,0.0
409919,-0.010861,-0.003674,-0.002217,0.0,0.0,0.0,0.0,0.0,0.0,3.0,0.344659,0.323638,0.319046,0.313664,8e-06,-0.000381,-3.5e-05,-2e-06,6.4e-05,2.7e-05,0.0,0.0,0.0,0.0,0.0,0.0
409939,-0.010861,-0.003796,-0.002218,0.0,0.0,0.0,0.0,0.0,0.0,3.0,0.335114,0.326846,0.314915,0.324854,8e-06,-0.00038,-3.5e-05,-2e-06,7e-05,2.7e-05,0.0,0.0,0.0,0.0,0.0,0.0
409959,-0.010739,-0.003795,-0.002096,0.0,0.0,0.0,0.0,0.0,0.0,3.0,0.340169,0.321775,0.320728,0.318869,8e-06,-0.000378,-3.4e-05,-2e-06,7.9e-05,2.7e-05,0.0,0.0,0.0,0.0,0.0,0.0
409979,-0.010373,-0.00355,-0.001972,0.0,0.0,0.0,0.0,0.0,0.0,3.0,0.338921,0.322074,0.324813,0.315751,8e-06,-0.000377,-3.4e-05,-2e-06,8.4e-05,2.7e-05,0.0,0.0,0.0,0.0,0.0,0.0
409999,-0.010251,-0.003428,-0.001971,0.0,0.0,0.0,0.0,0.0,0.0,3.0,0.347194,0.313811,0.32845,0.310978,8e-06,-0.000375,-3.3e-05,-2e-06,9.2e-05,2.7e-05,0.0,0.0,0.0,0.0,0.0,0.0
410019,-0.010007,-0.003062,-0.001969,0.0,0.0,0.0,0.0,0.0,0.0,3.0,0.339999,0.318935,0.322871,0.319742,8e-06,-0.000373,-3.3e-05,-3e-06,9.9e-05,2.7e-05,0.0,0.0,0.0,0.0,0.0,0.0
410039,-0.010007,-0.003062,-0.001969,0.0,0.0,0.0,0.0,0.0,0.0,3.0,0.339253,0.322006,0.324728,0.315545,8e-06,-0.000371,-3.2e-05,-3e-06,0.000106,2.7e-05,0.0,0.0,0.0,0.0,0.0,0.0
410059,-0.009885,-0.003061,-0.001846,0.0,0.0,0.0,0.0,0.0,0.0,3.0,0.335807,0.323632,0.321214,0.3212,8e-06,-0.000369,-3.1e-05,-3e-06,0.000113,2.7e-05,0.0,0.0,0.0,0.0,0.0,0.0
410079,-0.010007,-0.003305,-0.001726,0.0,0.0,0.0,0.0,0.0,0.0,3.0,0.343647,0.322394,0.319532,0.3156,8e-06,-0.000367,-3.1e-05,-3e-06,0.00012,2.7e-05,0.0,0.0,0.0,0.0,0.0,0.0
410099,-0.01013,-0.003305,-0.001726,0.0,0.0,0.0,0.0,0.0,0.0,3.0,0.344747,0.322713,0.320599,0.312932,8e-06,-0.000364,-3e-05,-3e-06,0.000127,2.7e-05,0.0,0.0,0.0,0.0,0.0,0.0
410119,-0.010496,-0.003427,-0.001727,0.0,0.0,0.0,0.0,0.0,0.0,3.0,0.346074,0.322738,0.315489,0.316585,8e-06,-0.000362,-3e-05,-3e-06,0.000134,2.7e-05,0.0,0.0,0.0,0.0,0.0,0.0
410139,-0.010496,-0.003427,-0.001727,0.0,0.0,0.0,0.0,0.0,0.0,3.0,0.343617,0.31972,0.319753,0.318133,8e-06,-0.000359,-2.9e-05,-4e-06,0.000141,2.7e-05,0.0,0.0,0.0,0.0,0.0,0.0
410159,-0.010496,-0.003549,-0.001728,0.0,0.0,0.0,0.0,0.0,0.0,3.0,0.337005,0.327406,0.319859,0.317403,8e-06,-0.000356,-2.9e-05,-4e-06,0.000147,2.6e-05,0.0,0.0,0.0,0.0,0.0,0.0
410179,-0.01013,-0.003182,-0.001603,0.0,0.0,0.0,0.0,0.0,0.0,3.0,0.33526,0.322124,0.322917,0.32159,8e-06,-0.000353,-2.8e-05,-4e-06,0.000154,2.6e-05,0.0,0.0,0.0,0.0,0.0,0.0
410199,-0.009764,-0.002937,-0.001479,0.0,0.0,0.0,0.0,0.0,0.0,3.0,0.339959,0.319361,0.323336,0.318888,8e-06,-0.00035,-2.8e-05,-4e-06,0.000161,2.6e-05,0.0,0.0,0.0,0.0,0.0,0.0
410219,-0.009398,-0.002815,-0.001478,0.0,0.0,0.0,0.0,0.0,0.0,3.0,0.340175,0.319498,0.325247,0.316548,8e-06,-0.000347,-2.7e-05,-4e-06,0.000167,2.6e-05,0.0,0.0,0.0,0.0,0.0,0.0
410239,-0.009276,-0.002815,-0.001478,0.0,0.0,0.0,0.0,0.0,0.0,3.0,0.347318,0.313428,0.328136,0.31156,7e-06,-0.000343,-2.7e-05,-4e-06,0.000173,2.6e-05,0.0,0.0,0.0,0.0,0.0,0.0
410259,-0.009275,-0.002937,-0.001601,0.0,0.0,0.0,0.0,0.0,0.0,3.0,0.350054,0.314647,0.325905,0.309515,7e-06,-0.00034,-2.6e-05,-4e-06,0.00018,2.6e-05,0.0,0.0,0.0,0.0,0.0,0.0
410279,-0.00952,-0.003059,-0.00148,0.0,0.0,0.0,0.0,0.0,0.0,3.0,0.343591,0.321656,0.317022,0.318936,7e-06,-0.000336,-2.6e-05,-5e-06,0.000186,2.6e-05,0.0,0.0,0.0,0.0,0.0,0.0
410299,-0.009886,-0.003059,-0.00148,0.0,0.0,0.0,0.0,0.0,0.0,3.0,0.344587,0.317183,0.318438,0.320899,7e-06,-0.000332,-2.5e-05,-5e-06,0.000192,2.6e-05,0.0,0.0,0.0,0.0,0.0,0.0
410319,-0.01013,-0.003059,-0.00148,0.0,0.0,0.0,0.0,0.0,0.0,3.0,0.346631,0.322428,0.316527,0.315234,7e-06,-0.000327,-2.5e-05,-5e-06,0.0002,2.5e-05,0.0,0.0,0.0,0.0,0.0,0.0
410339,-0.010252,-0.002937,-0.001358,0.0,0.0,0.0,0.0,0.0,0.0,3.0,0.342956,0.317918,0.320481,0.319931,7e-06,-0.000324,-2.4e-05,-5e-06,0.000204,2.5e-05,0.0,0.0,0.0,0.0,0.0,0.0
410359,-0.010253,-0.002815,-0.001357,0.0,0.0,0.0,0.0,0.0,0.0,3.0,0.344658,0.315771,0.323948,0.31665,7e-06,-0.00032,-2.4e-05,-5e-06,0.00021,2.5e-05,0.0,0.0,0.0,0.0,0.0,0.0
410379,-0.009886,-0.002936,-0.001357,0.0,0.0,0.0,0.0,0.0,0.0,3.0,0.338622,0.325787,0.323765,0.31331,7e-06,-0.000316,-2.3e-05,-5e-06,0.000215,2.5e-05,0.0,0.0,0.0,0.0,0.0,0.0
410399,-0.009398,-0.002814,-0.001356,0.0,0.0,0.0,0.0,0.0,0.0,3.0,0.340441,0.320931,0.323078,0.317038,7e-06,-0.000312,-2.3e-05,-5e-06,0.000221,2.5e-05,0.0,0.0,0.0,0.0,0.0,0.0
410419,-0.009032,-0.002814,-0.001356,0.0,0.0,0.0,0.0,0.0,0.0,3.0,0.339936,0.32371,0.323802,0.313987,7e-06,-0.000307,-2.2e-05,-5e-06,0.000227,2.4e-05,0.0,0.0,0.0,0.0,0.0,0.0
410439,-0.00891,-0.002813,-0.001233,0.0,0.0,0.0,0.0,0.0,0.0,3.0,0.343672,0.322952,0.319799,0.314723,6e-06,-0.000303,-2.2e-05,-6e-06,0.000232,2.4e-05,0.0,0.0,0.0,0.0,0.0,0.0
410459,-0.009032,-0.002813,-0.001234,0.0,0.0,0.0,0.0,0.0,0.0,3.0,0.341396,0.320527,0.319354,0.320164,6e-06,-0.000297,-2.1e-05,-6e-06,0.000239,2.4e-05,0.0,0.0,0.0,0.0,0.0,0.0
410479,-0.009398,-0.002569,-0.001111,0.0,0.0,0.0,0.0,0.0,0.0,3.0,0.345124,0.319647,0.31763,0.318657,6e-06,-0.000293,-2.1e-05,-6e-06,0.000242,2.4e-05,0.0,0.0,0.0,0.0,0.0,0.0
410499,-0.009643,-0.002691,-0.001112,0.0,0.0,0.0,0.0,0.0,0.0,3.0,0.346091,0.32274,0.314951,0.317097,6e-06,-0.000288,-2e-05,-6e-06,0.000247,2.4e-05,0.0,0.0,0.0,0.0,0.0,0.0
410519,-0.010009,-0.002446,-0.000989,0.0,0.0,0.0,0.0,0.0,0.0,3.0,0.342285,0.321635,0.313392,0.323918,6e-06,-0.000283,-2e-05,-6e-06,0.000252,2.3e-05,0.0,0.0,0.0,0.0,0.0,0.0
410539,-0.010131,-0.002813,-0.000991,0.0,0.0,0.0,0.0,0.0,0.0,3.0,0.341738,0.324817,0.321034,0.313686,6e-06,-0.000278,-1.9e-05,-6e-06,0.000257,2.3e-05,0.0,0.0,0.0,0.0,0.0,0.0
410559,-0.010009,-0.002811,-0.000747,0.0,0.0,0.0,0.0,0.0,0.0,3.0,0.339354,0.319833,0.320119,0.322304,6e-06,-0.000273,-1.9e-05,-6e-06,0.000262,2.3e-05,0.0,0.0,0.0,0.0,0.0,0.0
410579,-0.009765,-0.002811,-0.000624,0.0,0.0,0.0,0.0,0.0,0.0,3.0,0.341488,0.32402,0.319353,0.316513,6e-06,-0.000268,-1.8e-05,-6e-06,0.000266,2.3e-05,0.0,0.0,0.0,0.0,0.0,0.0
410599,-0.009521,-0.002688,-0.000501,0.0,0.0,0.0,0.0,0.0,0.0,3.0,0.336202,0.322232,0.324831,0.31853,6e-06,-0.000262,-1.8e-05,-6e-06,0.000271,2.2e-05,0.0,0.0,0.0,0.0,0.0,0.0
410619,-0.009277,-0.002687,-0.000379,0.0,0.0,0.0,0.0,0.0,0.0,3.0,0.336926,0.32157,0.323881,0.319395,5e-06,-0.000257,-1.7e-05,-6e-06,0.000275,2.2e-05,0.0,0.0,0.0,0.0,0.0,0.0
410639,-0.009155,-0.002443,-0.000255,0.0,0.0,0.0,0.0,0.0,0.0,3.0,0.338748,0.323627,0.314384,0.324768,5e-06,-0.000251,-1.7e-05,-6e-06,0.000279,2.2e-05,0.0,0.0,0.0,0.0,0.0,0.0
410659,-0.0094,-0.00232,-0.000133,0.0,0.0,0.0,0.0,0.0,0.0,3.0,0.342299,0.326588,0.311699,0.320533,5e-06,-0.000246,-1.7e-05,-7e-06,0.000283,2.2e-05,0.0,0.0,0.0,0.0,0.0,0.0
410679,-0.009522,-0.002197,-1e-05,0.0,0.0,0.0,0.0,0.0,0.0,3.0,0.344369,0.321101,0.316679,0.318976,5e-06,-0.00024,-1.6e-05,-7e-06,0.000287,2.1e-05,0.0,0.0,0.0,0.0,0.0,0.0
410699,-0.009644,-0.002319,0.000111,0.0,0.0,0.0,0.0,0.0,0.0,3.0,0.341494,0.325049,0.314756,0.320023,5e-06,-0.000234,-1.6e-05,-7e-06,0.000291,2.1e-05,0.0,0.0,0.0,0.0,0.0,0.0
410719,-0.009766,-0.00244,0.000232,0.0,0.0,0.0,0.0,0.0,0.0,3.0,0.335267,0.331917,0.311091,0.323156,5e-06,-0.000227,-1.5e-05,-7e-06,0.000296,2.1e-05,0.0,0.0,0.0,0.0,0.0,0.0
410739,-0.010011,-0.002684,0.000231,0.0,0.0,0.0,0.0,0.0,0.0,3.0,0.342302,0.320923,0.316878,0.32123,5e-06,-0.000223,-1.5e-05,-7e-06,0.000298,2.1e-05,0.0,0.0,0.0,0.0,0.0,0.0
410759,-0.009889,-0.002684,0.000353,0.0,0.0,0.0,0.0,0.0,0.0,3.0,0.34044,0.322841,0.31883,0.319396,4e-06,-0.000215,-1.4e-05,-7e-06,0.000303,2e-05,0.0,0.0,0.0,0.0,0.0,0.0
410779,-0.009767,-0.002562,0.000354,0.0,0.0,0.0,0.0,0.0,0.0,3.0,0.335444,0.325343,0.318471,0.322573,4e-06,-0.000211,-1.4e-05,-7e-06,0.000305,2e-05,0.0,0.0,0.0,0.0,0.0,0.0
410799,-0.009523,-0.002317,0.000477,0.0,0.0,0.0,0.0,0.0,0.0,3.0,0.330592,0.329245,0.31418,0.327782,4e-06,-0.000204,-1.4e-05,-7e-06,0.000308,2e-05,0.0,0.0,0.0,0.0,0.0,0.0
410819,-0.009157,-0.002194,0.000722,0.0,0.0,0.0,0.0,0.0,0.0,3.0,0.330166,0.329821,0.313842,0.32795,4e-06,-0.000198,-1.3e-05,-7e-06,0.000311,2e-05,0.0,0.0,0.0,0.0,0.0,0.0
410839,-0.008912,-0.001827,0.000846,0.0,0.0,0.0,0.0,0.0,0.0,3.0,0.330281,0.324603,0.315702,0.331255,4e-06,-0.00019,-1.3e-05,-7e-06,0.000315,1.9e-05,0.0,0.0,0.0,0.0,0.0,0.0
410859,-0.008913,-0.001827,0.000969,0.0,0.0,0.0,0.0,0.0,0.0,3.0,0.340731,0.326485,0.317724,0.316435,4e-06,-0.000186,-1.3e-05,-7e-06,0.000317,1.9e-05,0.0,0.0,0.0,0.0,0.0,0.0
410879,-0.009279,-0.002071,0.000967,0.0,0.0,0.0,0.0,0.0,0.0,3.0,0.342358,0.325643,0.315635,0.317597,4e-06,-0.000179,-1.2e-05,-7e-06,0.00032,1.9e-05,0.0,0.0,0.0,0.0,0.0,0.0
410899,-0.009401,-0.002192,0.001088,0.0,0.0,0.0,0.0,0.0,0.0,3.0,0.340169,0.326003,0.316001,0.319267,3e-06,-0.000173,-1.2e-05,-7e-06,0.000322,1.8e-05,0.0,0.0,0.0,0.0,0.0,0.0
410919,-0.009646,-0.002436,0.001209,0.0,0.0,0.0,0.0,0.0,0.0,3.0,0.343046,0.329651,0.308819,0.319305,3e-06,-0.000166,-1.1e-05,-7e-06,0.000324,1.8e-05,0.0,0.0,0.0,0.0,0.0,0.0
410939,-0.009645,-0.002191,0.00121,0.0,0.0,0.0,0.0,0.0,0.0,3.0,0.340441,0.32317,0.318651,0.319241,3e-06,-0.00016,-1.1e-05,-7e-06,0.000327,1.8e-05,0.0,0.0,0.0,0.0,0.0,0.0
410959,-0.009523,-0.002191,0.001332,0.0,0.0,0.0,0.0,0.0,0.0,3.0,0.332384,0.331527,0.313195,0.324562,3e-06,-0.000153,-1.1e-05,-7e-06,0.000329,1.8e-05,0.0,0.0,0.0,0.0,0.0,0.0
410979,-0.009279,-0.002191,0.001333,0.0,0.0,0.0,0.0,0.0,0.0,3.0,0.338512,0.323061,0.320031,0.320066,3e-06,-0.000147,-1e-05,-7e-06,0.00033,1.7e-05,0.0,0.0,0.0,0.0,0.0,0.0
410999,-0.008791,-0.001947,0.001456,0.0,0.0,0.0,0.0,0.0,0.0,3.0,0.33028,0.325633,0.320439,0.325706,3e-06,-0.000139,-1e-05,-8e-06,0.000333,1.7e-05,0.0,0.0,0.0,0.0,0.0,0.0
411019,-0.008669,-0.001703,0.001458,0.0,0.0,0.0,0.0,0.0,0.0,3.0,0.341591,0.323501,0.316195,0.320082,3e-06,-0.000134,-1e-05,-8e-06,0.000334,1.7e-05,0.0,0.0,0.0,0.0,0.0,0.0
411039,-0.008547,-0.001824,0.001579,0.0,0.0,0.0,0.0,0.0,0.0,3.0,0.338388,0.327084,0.313317,0.322692,2e-06,-0.000127,-9e-06,-8e-06,0.000335,1.6e-05,0.0,0.0,0.0,0.0,0.0,0.0
411059,-0.008791,-0.001824,0.001579,0.0,0.0,0.0,0.0,0.0,0.0,3.0,0.341767,0.323284,0.3164,0.319908,2e-06,-0.00012,-9e-06,-8e-06,0.000337,1.6e-05,0.0,0.0,0.0,0.0,0.0,0.0
411079,-0.008913,-0.001946,0.001701,0.0,0.0,0.0,0.0,0.0,0.0,3.0,0.340289,0.328468,0.311002,0.321454,2e-06,-0.000112,-9e-06,-8e-06,0.000338,1.6e-05,0.0,0.0,0.0,0.0,0.0,0.0
411099,-0.009158,-0.002067,0.0017,0.0,0.0,0.0,0.0,0.0,0.0,3.0,0.343296,0.32358,0.313967,0.320314,2e-06,-0.000107,-8e-06,-8e-06,0.000339,1.6e-05,0.0,0.0,0.0,0.0,0.0,0.0
411119,-0.009402,-0.001945,0.001822,0.0,0.0,0.0,0.0,0.0,0.0,3.0,0.341602,0.322383,0.316635,0.320767,2e-06,-0.0001,-8e-06,-8e-06,0.00034,1.5e-05,0.0,0.0,0.0,0.0,0.0,0.0
411139,-0.009402,-0.001945,0.001822,0.0,0.0,0.0,0.0,0.0,0.0,3.0,0.3395,0.324793,0.316992,0.320256,2e-06,-9.3e-05,-8e-06,-8e-06,0.000341,1.5e-05,0.0,0.0,0.0,0.0,0.0,0.0
411159,-0.009157,-0.001823,0.001823,0.0,0.0,0.0,0.0,0.0,0.0,3.0,0.341382,0.319631,0.323638,0.316742,2e-06,-8.6e-05,-7e-06,-8e-06,0.000341,1.5e-05,0.0,0.0,0.0,0.0,0.0,0.0
411179,-0.008791,-0.0017,0.001946,0.0,0.0,0.0,0.0,0.0,0.0,3.0,0.336073,0.322993,0.318757,0.323989,1e-06,-7.8e-05,-7e-06,-8e-06,0.000342,1.4e-05,0.0,0.0,0.0,0.0,0.0,0.0
411199,-0.008181,-0.001456,0.00207,0.0,0.0,0.0,0.0,0.0,0.0,3.0,0.335702,0.326662,0.318569,0.320861,1e-06,-7.3e-05,-7e-06,-8e-06,0.000342,1.4e-05,0.0,0.0,0.0,0.0,0.0,0.0
411219,-0.008181,-0.001456,0.00207,0.0,0.0,0.0,0.0,0.0,0.0,3.0,0.339166,0.331494,0.313013,0.317565,1e-06,-6.6e-05,-7e-06,-8e-06,0.000343,1.4e-05,0.0,0.0,0.0,0.0,0.0,0.0
411239,-0.008059,-0.0017,0.002191,0.0,0.0,0.0,0.0,0.0,0.0,3.0,0.338589,0.327193,0.318859,0.316909,1e-06,-5.9e-05,-6e-06,-8e-06,0.000343,1.4e-05,0.0,0.0,0.0,0.0,0.0,0.0
411259,-0.008181,-0.001822,0.00219,0.0,0.0,0.0,0.0,0.0,0.0,3.0,0.342973,0.320032,0.319605,0.318681,1e-06,-5.2e-05,-6e-06,-8e-06,0.000343,1.3e-05,0.0,0.0,0.0,0.0,0.0,0.0
411279,-0.008303,-0.001944,0.002189,0.0,0.0,0.0,0.0,0.0,0.0,3.0,0.342069,0.330517,0.313689,0.314726,1e-06,-4.5e-05,-6e-06,-8e-06,0.000343,1.3e-05,0.0,0.0,0.0,0.0,0.0,0.0
411299,-0.00867,-0.001821,0.002312,0.0,0.0,0.0,0.0,0.0,0.0,3.0,0.341958,0.32551,0.31113,0.322548,0.0,-3.8e-05,-6e-06,-8e-06,0.000342,1.3e-05,0.0,0.0,0.0,0.0,0.0,0.0
411319,-0.008914,-0.001821,0.002312,0.0,0.0,0.0,0.0,0.0,0.0,3.0,0.347869,0.323592,0.310041,0.331754,0.0,-3.1e-05,-5e-06,-8e-06,0.000342,1.3e-05,0.0,0.0,0.0,0.0,0.0,0.0
411339,-0.008914,-0.00182,0.002434,0.0,0.0,0.0,0.0,0.0,0.0,3.0,0.334382,0.331203,0.309208,0.326577,0.0,-2.5e-05,-5e-06,-8e-06,0.000341,1.2e-05,0.0,0.0,0.0,0.0,0.0,0.0
411359,-0.00867,-0.001698,0.002434,0.0,0.0,0.0,0.0,0.0,0.0,3.0,0.339101,0.325227,0.316829,0.320406,-0.0,-1.8e-05,-5e-06,-8e-06,0.00034,1.2e-05,0.0,0.0,0.0,0.0,0.0,0.0
411379,-0.008181,-0.001699,0.002557,0.0,0.0,0.0,0.0,0.0,0.0,3.0,0.337885,0.327288,0.318935,0.317501,-0.0,-1.1e-05,-5e-06,-8e-06,0.00034,1.2e-05,0.0,0.0,0.0,0.0,0.0,0.0
411399,-0.007815,-0.001699,0.002679,0.0,0.0,0.0,0.0,0.0,0.0,3.0,0.335288,0.327219,0.319694,0.319609,-0.0,-4e-06,-4e-06,-8e-06,0.000339,1.2e-05,0.0,0.0,0.0,0.0,0.0,0.0
411419,-0.007571,-0.001699,0.002679,0.0,0.0,0.0,0.0,0.0,0.0,3.0,0.339384,0.327322,0.314892,0.319851,-0.0,3e-06,-4e-06,-7e-06,0.000338,1.1e-05,0.0,0.0,0.0,0.0,0.0,0.0
411439,-0.007449,-0.001699,0.00268,0.0,0.0,0.0,0.0,0.0,0.0,3.0,0.342992,0.325248,0.31259,0.320286,-1e-06,9e-06,-4e-06,-7e-06,0.000336,1.1e-05,0.0,0.0,0.0,0.0,0.0,0.0
411459,-0.007571,-0.001577,0.00268,0.0,0.0,0.0,0.0,0.0,0.0,3.0,0.340335,0.32607,0.315622,0.319391,-1e-06,1.6e-05,-4e-06,-7e-06,0.000335,1.1e-05,0.0,0.0,0.0,0.0,0.0,0.0
411479,-0.007693,-0.001454,0.002802,0.0,0.0,0.0,0.0,0.0,0.0,3.0,0.335792,0.329795,0.305573,0.329871,-1e-06,2.3e-05,-3e-06,-7e-06,0.000333,1.1e-05,0.0,0.0,0.0,0.0,0.0,0.0
411499,-0.007937,-0.001454,0.002802,0.0,0.0,0.0,0.0,0.0,0.0,3.0,0.342602,0.325847,0.312279,0.320401,-1e-06,3.1e-05,-3e-06,-7e-06,0.000331,1e-05,0.0,0.0,0.0,0.0,0.0,0.0
411519,-0.008181,-0.001575,0.002802,0.0,0.0,0.0,0.0,0.0,0.0,3.0,0.339288,0.323885,0.316268,0.322114,-1e-06,3.6e-05,-3e-06,-7e-06,0.00033,1e-05,0.0,0.0,0.0,0.0,0.0,0.0
411539,-0.00806,-0.00182,0.002801,0.0,0.0,0.0,0.0,0.0,0.0,3.0,0.340769,0.327749,0.314717,0.31807,-1e-06,4.3e-05,-3e-06,-7e-06,0.000328,1e-05,0.0,0.0,0.0,0.0,0.0,0.0
411559,-0.007815,-0.001698,0.002801,0.0,0.0,0.0,0.0,0.0,0.0,3.0,0.340494,0.327158,0.314942,0.318764,-1e-06,4.9e-05,-3e-06,-7e-06,0.000326,1e-05,0.0,0.0,0.0,0.0,0.0,0.0
411579,-0.007694,-0.001942,0.002801,0.0,0.0,0.0,0.0,0.0,0.0,3.0,0.339887,0.328386,0.315572,0.317527,-2e-06,5.6e-05,-2e-06,-7e-06,0.000324,9e-06,0.0,0.0,0.0,0.0,0.0,0.0
411599,-0.007449,-0.001699,0.002802,0.0,0.0,0.0,0.0,0.0,0.0,3.0,0.337358,0.322105,0.318113,0.324148,-2e-06,6.2e-05,-2e-06,-7e-06,0.000322,9e-06,0.0,0.0,0.0,0.0,0.0,0.0
411619,-0.007327,-0.001577,0.002802,0.0,0.0,0.0,0.0,0.0,0.0,3.0,0.339815,0.324746,0.315432,0.321494,-2e-06,6.9e-05,-2e-06,-7e-06,0.000319,9e-06,0.0,0.0,0.0,0.0,0.0,0.0
411639,-0.007204,-0.001333,0.002803,0.0,0.0,0.0,0.0,0.0,0.0,3.0,0.338765,0.323672,0.316492,0.32267,-2e-06,7.5e-05,-2e-06,-7e-06,0.000317,9e-06,0.0,0.0,0.0,0.0,0.0,0.0
411659,-0.007327,-0.001333,0.002803,0.0,0.0,0.0,0.0,0.0,0.0,3.0,0.33984,0.322352,0.315218,0.324075,-2e-06,8.1e-05,-2e-06,-7e-06,0.000314,9e-06,0.0,0.0,0.0,0.0,0.0,0.0
411679,-0.007327,-0.001455,0.002681,0.0,0.0,0.0,0.0,0.0,0.0,3.0,0.339112,0.325952,0.316029,0.320439,-2e-06,8.7e-05,-1e-06,-7e-06,0.000311,8e-06,0.0,0.0,0.0,0.0,0.0,0.0
411699,-0.007327,-0.001455,0.002681,0.0,0.0,0.0,0.0,0.0,0.0,3.0,0.339682,0.326801,0.313518,0.3214,-2e-06,9.4e-05,-1e-06,-7e-06,0.000308,8e-06,0.0,0.0,0.0,0.0,0.0,0.0
411719,-0.007205,-0.001577,0.00268,0.0,0.0,0.0,0.0,0.0,0.0,3.0,0.341412,0.322803,0.321565,0.315599,-3e-06,0.000101,-1e-06,-7e-06,0.000305,8e-06,0.0,0.0,0.0,0.0,0.0,0.0
411739,-0.007083,-0.001577,0.002802,0.0,0.0,0.0,0.0,0.0,0.0,3.0,0.330429,0.331395,0.311691,0.328108,-3e-06,0.000106,-1e-06,-7e-06,0.000302,8e-06,0.0,0.0,0.0,0.0,0.0,0.0
411759,-0.006961,-0.001699,0.002802,0.0,0.0,0.0,0.0,0.0,0.0,3.0,0.338414,0.325248,0.315664,0.322262,-3e-06,0.000112,-1e-06,-6e-06,0.000299,7e-06,0.0,0.0,0.0,0.0,0.0,0.0
411779,-0.007082,-0.001333,0.002803,0.0,0.0,0.0,0.0,0.0,0.0,3.0,0.337055,0.325609,0.310525,0.328208,-3e-06,0.000118,-1e-06,-6e-06,0.000296,7e-06,0.0,0.0,0.0,0.0,0.0,0.0
411799,-0.00696,-0.001089,0.002682,0.0,0.0,0.0,0.0,0.0,0.0,3.0,0.34421,0.322806,0.316957,0.317143,-3e-06,0.000124,-1e-06,-6e-06,0.000292,7e-06,0.0,0.0,0.0,0.0,0.0,0.0
411819,-0.006838,-0.000967,0.002683,0.0,0.0,0.0,0.0,0.0,0.0,3.0,0.348767,0.319307,0.320029,0.312428,-3e-06,0.00013,-0.0,-6e-06,0.000289,7e-06,0.0,0.0,0.0,0.0,0.0,0.0
411839,-0.006838,-0.000967,0.002683,0.0,0.0,0.0,0.0,0.0,0.0,3.0,0.33732,0.324646,0.316754,0.322973,-3e-06,0.000135,-0.0,-6e-06,0.000285,7e-06,0.0,0.0,0.0,0.0,0.0,0.0
411859,-0.006716,-0.00109,0.002682,0.0,0.0,0.0,0.0,0.0,0.0,3.0,0.329923,0.328076,0.31068,0.332854,-3e-06,0.000141,-0.0,-6e-06,0.000282,6e-06,0.0,0.0,0.0,0.0,0.0,0.0
411879,-0.006594,-0.001212,0.002682,0.0,0.0,0.0,0.0,0.0,0.0,3.0,0.337428,0.325062,0.318299,0.320922,-4e-06,0.000147,-0.0,-6e-06,0.000278,6e-06,0.0,0.0,0.0,0.0,0.0,0.0
411899,-0.006472,-0.001335,0.00256,0.0,0.0,0.0,0.0,0.0,0.0,3.0,0.341547,0.321601,0.320258,0.31801,-4e-06,0.000152,0.0,-6e-06,0.000274,6e-06,0.0,0.0,0.0,0.0,0.0,0.0
411919,-0.006472,-0.001334,0.002682,0.0,0.0,0.0,0.0,0.0,0.0,3.0,0.340293,0.325556,0.314808,0.32076,-4e-06,0.000158,0.0,-6e-06,0.00027,6e-06,0.0,0.0,0.0,0.0,0.0,0.0
411939,-0.006594,-0.001212,0.002682,0.0,0.0,0.0,0.0,0.0,0.0,3.0,0.342896,0.319187,0.316778,0.322405,-4e-06,0.000163,0.0,-6e-06,0.000266,6e-06,0.0,0.0,0.0,0.0,0.0,0.0
411959,-0.006593,-0.000968,0.002561,0.0,0.0,0.0,0.0,0.0,0.0,3.0,0.348321,0.318314,0.318191,0.315833,-4e-06,0.000168,0.0,-6e-06,0.000261,6e-06,0.0,0.0,0.0,0.0,0.0,0.0
411979,-0.006837,-0.000846,0.002561,0.0,0.0,0.0,0.0,0.0,0.0,3.0,0.341409,0.328385,0.313798,0.317606,-4e-06,0.000173,1e-06,-5e-06,0.000257,5e-06,0.0,0.0,0.0,0.0,0.0,0.0
411999,-0.006959,-0.000846,0.002561,0.0,0.0,0.0,0.0,0.0,0.0,3.0,0.3409,0.323772,0.313391,0.32328,-4e-06,0.00018,1e-06,-5e-06,0.000253,5e-06,0.0,0.0,0.0,0.0,0.0,0.0
412019,-0.006716,-0.00109,0.00256,0.0,0.0,0.0,0.0,0.0,0.0,3.0,0.337204,0.325955,0.317432,0.321105,-4e-06,0.000184,1e-06,-5e-06,0.000248,5e-06,0.0,0.0,0.0,0.0,0.0,0.0
412039,-0.006472,-0.001334,0.002682,0.0,0.0,0.0,0.0,0.0,0.0,3.0,0.334552,0.334407,0.312879,0.31958,-5e-06,0.00019,1e-06,-5e-06,0.000242,5e-06,0.0,0.0,0.0,0.0,0.0,0.0
412059,-0.006472,-0.001456,0.002681,0.0,0.0,0.0,0.0,0.0,0.0,3.0,0.340199,0.326417,0.32037,0.314409,-5e-06,0.000193,1e-06,-5e-06,0.000239,5e-06,0.0,0.0,0.0,0.0,0.0,0.0
412079,-0.006228,-0.001457,0.002681,0.0,0.0,0.0,0.0,0.0,0.0,3.0,0.336886,0.326809,0.315976,0.322,-5e-06,0.000198,1e-06,-5e-06,0.000234,4e-06,0.0,0.0,0.0,0.0,0.0,0.0
412099,-0.006227,-0.00109,0.002683,0.0,0.0,0.0,0.0,0.0,0.0,3.0,0.337743,0.323468,0.316253,0.324192,-5e-06,0.000203,1e-06,-5e-06,0.000229,4e-06,0.0,0.0,0.0,0.0,0.0,0.0
412119,-0.006227,-0.000968,0.002683,0.0,0.0,0.0,0.0,0.0,0.0,3.0,0.338065,0.32139,0.315884,0.326261,-5e-06,0.000207,1e-06,-5e-06,0.000224,4e-06,0.0,0.0,0.0,0.0,0.0,0.0
412139,-0.006227,-0.00048,0.002684,0.0,0.0,0.0,0.0,0.0,0.0,3.0,0.338688,0.320883,0.315132,0.32682,-5e-06,0.000212,1e-06,-5e-06,0.00022,4e-06,0.0,0.0,0.0,0.0,0.0,0.0
412159,-0.006226,-0.000358,0.002685,0.0,0.0,0.0,0.0,0.0,0.0,3.0,0.342555,0.328492,0.31088,0.319074,-5e-06,0.000216,1e-06,-4e-06,0.000214,4e-06,0.0,0.0,0.0,0.0,0.0,0.0
412179,-0.006105,-0.000724,0.002806,0.0,0.0,0.0,0.0,0.0,0.0,3.0,0.340189,0.329622,0.313504,0.31794,-5e-06,0.00022,1e-06,-4e-06,0.000209,4e-06,0.0,0.0,0.0,0.0,0.0,0.0
412199,-0.005861,-0.000968,0.002805,0.0,0.0,0.0,0.0,0.0,0.0,3.0,0.337884,0.328924,0.313932,0.320749,-5e-06,0.000224,2e-06,-4e-06,0.000204,4e-06,0.0,0.0,0.0,0.0,0.0,0.0
412219,-0.005495,-0.001091,0.002805,0.0,0.0,0.0,0.0,0.0,0.0,3.0,0.337918,0.327819,0.315521,0.320303,-5e-06,0.000229,2e-06,-4e-06,0.000199,3e-06,0.0,0.0,0.0,0.0,0.0,0.0
412239,-0.005495,-0.001091,0.002805,0.0,0.0,0.0,0.0,0.0,0.0,3.0,0.341399,0.322181,0.318901,0.318947,-5e-06,0.000232,2e-06,-4e-06,0.000194,3e-06,0.0,0.0,0.0,0.0,0.0,0.0
412259,-0.005373,-0.000969,0.002928,0.0,0.0,0.0,0.0,0.0,0.0,3.0,0.333066,0.326475,0.313683,0.328503,-5e-06,0.000236,2e-06,-4e-06,0.000188,3e-06,0.0,0.0,0.0,0.0,0.0,0.0
412279,-0.005495,-0.000724,0.002928,0.0,0.0,0.0,0.0,0.0,0.0,3.0,0.339677,0.321375,0.312744,0.32756,-6e-06,0.00024,2e-06,-4e-06,0.000183,3e-06,0.0,0.0,0.0,0.0,0.0,0.0
412299,-0.005372,-0.000603,0.002929,0.0,0.0,0.0,0.0,0.0,0.0,3.0,0.340103,0.32476,0.312657,0.323843,-6e-06,0.000244,2e-06,-4e-06,0.000177,3e-06,0.0,0.0,0.0,0.0,0.0,0.0
412319,-0.005372,-0.00048,0.002929,0.0,0.0,0.0,0.0,0.0,0.0,3.0,0.339263,0.32588,0.313566,0.322742,-6e-06,0.000247,2e-06,-3e-06,0.000172,3e-06,0.0,0.0,0.0,0.0,0.0,0.0
412339,-0.005128,-0.000603,0.002929,0.0,0.0,0.0,0.0,0.0,0.0,3.0,0.343531,0.324464,0.323406,0.309536,-6e-06,0.000251,2e-06,-3e-06,0.000166,3e-06,0.0,0.0,0.0,0.0,0.0,0.0
412359,-0.005128,-0.000725,0.002928,0.0,0.0,0.0,0.0,0.0,0.0,3.0,0.343339,0.328551,0.315338,0.313744,-6e-06,0.000254,2e-06,-3e-06,0.000161,2e-06,0.0,0.0,0.0,0.0,0.0,0.0
412379,-0.004885,-0.000969,0.00305,0.0,0.0,0.0,0.0,0.0,0.0,3.0,0.333768,0.329044,0.315942,0.323033,-6e-06,0.000257,2e-06,-3e-06,0.000155,2e-06,0.0,0.0,0.0,0.0,0.0,0.0
412399,-0.004763,-0.000969,0.00305,0.0,0.0,0.0,0.0,0.0,0.0,3.0,0.334584,0.329674,0.310492,0.326727,-6e-06,0.00026,2e-06,-3e-06,0.000149,2e-06,0.0,0.0,0.0,0.0,0.0,0.0
412419,-0.00464,-0.000969,0.003172,0.0,0.0,0.0,0.0,0.0,0.0,3.0,0.334851,0.329787,0.311712,0.325192,-6e-06,0.000263,2e-06,-3e-06,0.000143,2e-06,0.0,0.0,0.0,0.0,0.0,0.0
412439,-0.004518,-0.000603,0.003051,0.0,0.0,0.0,0.0,0.0,0.0,3.0,0.338447,0.321087,0.31704,0.325046,-6e-06,0.000266,2e-06,-3e-06,0.000138,2e-06,0.0,0.0,0.0,0.0,0.0,0.0
412459,-0.004518,-0.000481,0.003173,0.0,0.0,0.0,0.0,0.0,0.0,3.0,0.337007,0.323193,0.315508,0.325955,-6e-06,0.000269,2e-06,-3e-06,0.000132,2e-06,0.0,0.0,0.0,0.0,0.0,0.0
412479,-0.004273,-0.000359,0.003174,0.0,0.0,0.0,0.0,0.0,0.0,3.0,0.330201,0.330487,0.313346,0.327709,-6e-06,0.000271,2e-06,-2e-06,0.000126,2e-06,0.0,0.0,0.0,0.0,0.0,0.0
412499,-0.004151,-0.00036,0.003174,0.0,0.0,0.0,0.0,0.0,0.0,3.0,0.338083,0.326977,0.313243,0.323197,-6e-06,0.000274,2e-06,-2e-06,0.00012,2e-06,0.0,0.0,0.0,0.0,0.0,0.0
412519,-0.004029,-0.00036,0.003174,0.0,0.0,0.0,0.0,0.0,0.0,3.0,0.343269,0.326382,0.315245,0.316203,-6e-06,0.000276,2e-06,-2e-06,0.000114,2e-06,0.0,0.0,0.0,0.0,0.0,0.0
412539,-0.00403,-0.000604,0.003173,0.0,0.0,0.0,0.0,0.0,0.0,3.0,0.342653,0.326147,0.31634,0.316042,-6e-06,0.000278,2e-06,-2e-06,0.000108,1e-06,0.0,0.0,0.0,0.0,0.0,0.0
412559,-0.003907,-0.000604,0.003295,0.0,0.0,0.0,0.0,0.0,0.0,3.0,0.334728,0.327676,0.310188,0.328867,-6e-06,0.00028,2e-06,-2e-06,0.000102,1e-06,0.0,0.0,0.0,0.0,0.0,0.0
412579,-0.004029,-0.000482,0.003295,0.0,0.0,0.0,0.0,0.0,0.0,3.0,0.336002,0.321863,0.315099,0.328691,-6e-06,0.000282,2e-06,-2e-06,9.6e-05,1e-06,0.0,0.0,0.0,0.0,0.0,0.0
412599,-0.004029,-0.00036,0.003296,0.0,0.0,0.0,0.0,0.0,0.0,3.0,0.338766,0.324556,0.312405,0.325705,-6e-06,0.000284,2e-06,-2e-06,9e-05,1e-06,0.0,0.0,0.0,0.0,0.0,0.0
412619,-0.004029,-0.00036,0.003296,0.0,0.0,0.0,0.0,0.0,0.0,3.0,0.337742,0.327218,0.31352,0.323049,-6e-06,0.000286,2e-06,-2e-06,8.4e-05,1e-06,0.0,0.0,0.0,0.0,0.0,0.0
412639,-0.003785,-0.00036,0.003296,0.0,0.0,0.0,0.0,0.0,0.0,3.0,0.33559,0.327723,0.315805,0.322606,-7e-06,0.000288,2e-06,-1e-06,7.8e-05,1e-06,0.0,0.0,0.0,0.0,0.0,0.0
412659,-0.003907,-0.00036,0.003296,0.0,0.0,0.0,0.0,0.0,0.0,3.0,0.341008,0.32841,0.309713,0.321962,-7e-06,0.000289,2e-06,-1e-06,7.2e-05,1e-06,0.0,0.0,0.0,0.0,0.0,0.0
412679,-0.003907,-0.000482,0.003418,0.0,0.0,0.0,0.0,0.0,0.0,3.0,0.334128,0.3335,0.309736,0.323983,-7e-06,0.00029,3e-06,-1e-06,6.6e-05,1e-06,0.0,0.0,0.0,0.0,0.0,0.0
412699,-0.003663,-0.000604,0.003417,0.0,0.0,0.0,0.0,0.0,0.0,3.0,0.336682,0.329278,0.313727,0.321865,-7e-06,0.000292,3e-06,-1e-06,6e-05,1e-06,0.0,0.0,0.0,0.0,0.0,0.0
412719,-0.003419,-0.000727,0.003417,0.0,0.0,0.0,0.0,0.0,0.0,3.0,0.336474,0.330607,0.314315,0.320136,-7e-06,0.000293,3e-06,-1e-06,5.4e-05,1e-06,0.0,0.0,0.0,0.0,0.0,0.0
412739,-0.003541,-0.000726,0.003417,0.0,0.0,0.0,0.0,0.0,0.087266,3.0,0.9,0.15,0.9,0.15,-7e-06,0.000294,3e-06,-1e-06,8.2e-05,0.044402,0.0,0.0,0.0,0.0,0.0,0.0
412759,-0.003297,-0.000481,0.004394,0.0,0.0,0.0,0.0,0.0,0.087266,3.0,0.485161,0.15,0.473161,0.15,-6e-06,0.000297,0.002125,-7e-06,0.000212,0.172213,0.0,0.0,0.0,0.0,0.0,0.0
412779,-0.002685,0.000134,0.008546,0.0,0.0,0.0,0.0,0.0,0.087266,3.0,0.303392,0.34908,0.285605,0.356567,-5e-06,0.000301,0.005741,-2.4e-05,0.000194,0.184732,0.0,0.0,0.0,0.0,0.0,0.0
412799,-0.002686,1.9e-05,0.014284,0.0,0.0,0.0,0.0,0.0,0.087266,3.0,0.222588,0.408879,0.174544,0.400307,-5e-06,0.000304,0.009378,-3.8e-05,0.000127,0.176325,0.0,0.0,0.0,0.0,0.0,0.0
412819,-0.002442,-0.0001,0.018434,0.0,0.0,0.0,0.0,0.0,0.087266,3.0,0.255296,0.389266,0.228669,0.383558,-4e-06,0.000307,0.012834,-4.6e-05,8e-05,0.167001,0.0,0.0,0.0,0.0,0.0,0.0
412839,-0.001713,-0.000349,0.020142,0.0,0.0,0.0,0.0,0.0,0.087266,3.0,0.334609,0.323728,0.328399,0.314996,-4e-06,0.000308,0.016108,-4.9e-05,4.9e-05,0.158451,0.0,0.0,0.0,0.0,0.0,0.0
412859,-0.000977,1e-05,0.020509,0.0,0.0,0.0,0.0,0.0,0.087266,3.0,0.376138,0.263583,0.368134,0.270951,-4e-06,0.000309,0.019218,-4.9e-05,2.8e-05,0.150716,0.0,0.0,0.0,0.0,0.0,0.0
412879,-0.000239,0.000491,0.021119,0.0,0.0,0.0,0.0,0.0,0.087266,3.0,0.372812,0.267581,0.364943,0.276996,-5e-06,0.000309,0.022179,-4.9e-05,1.3e-05,0.143706,0.0,0.0,0.0,0.0,0.0,0.0
412899,0.000744,0.000968,0.023075,0.0,0.0,0.0,0.0,0.0,0.087266,3.0,0.340716,0.308976,0.335227,0.315794,-5e-06,0.000309,0.025691,-4.7e-05,-0.0,0.135834,0.0,0.0,0.0,0.0,0.0,0.0
412919,0.001241,0.001571,0.025638,0.0,0.0,0.0,0.0,0.0,0.087266,3.0,0.319966,0.328716,0.31007,0.342241,-5e-06,0.000309,0.027707,-4.5e-05,-7e-06,0.131528,0.0,0.0,0.0,0.0,0.0,0.0
412939,0.002102,0.001924,0.027589,0.0,0.0,0.0,0.0,0.0,0.087266,3.0,0.328239,0.32104,0.32632,0.3265,-5e-06,0.000309,0.030297,-4.4e-05,-1.5e-05,0.126215,0.0,0.0,0.0,0.0,0.0,0.0
412959,0.002839,0.002156,0.02893,0.0,0.0,0.0,0.0,0.0,0.087266,3.0,0.349097,0.304628,0.340715,0.30422,-5e-06,0.000309,0.032784,-4.2e-05,-2.2e-05,0.121337,0.0,0.0,0.0,0.0,0.0,0.0
412979,0.003575,0.002266,0.030149,0.0,0.0,0.0,0.0,0.0,0.087266,3.0,0.350857,0.302703,0.343618,0.300573,-5e-06,0.000308,0.035176,-4e-05,-2.9e-05,0.116842,0.0,0.0,0.0,0.0,0.0,0.0
412999,0.003948,0.002624,0.031618,0.0,0.0,0.0,0.0,0.0,0.087266,3.0,0.342185,0.315852,0.330295,0.312661,-5e-06,0.000308,0.037481,-3.8e-05,-3.5e-05,0.112685,0.0,0.0,0.0,0.0,0.0,0.0
413019,0.004441,0.002734,0.033325,0.0,0.0,0.0,0.0,0.0,0.087266,3.0,0.341839,0.316866,0.32682,0.315718,-5e-06,0.000307,0.039706,-3.6e-05,-4.2e-05,0.108825,0.0,0.0,0.0,0.0,0.0,0.0
413039,0.004441,0.002608,0.034911,0.0,0.0,0.0,0.0,0.0,0.087266,3.0,0.337125,0.321714,0.32667,0.316154,-5e-06,0.000306,0.041855,-3.5e-05,-4.8e-05,0.105228,0.0,0.0,0.0,0.0,0.0,0.0
413059,0.004438,0.002361,0.036375,0.0,0.0,0.0,0.0,0.0,0.087266,3.0,0.345076,0.315713,0.328752,0.311169,-5e-06,0.000305,0.043934,-3.3e-05,-5.4e-05,0.101864,0.0,0.0,0.0,0.0,0.0,0.0
413079,0.004315,0.002238,0.037717,0.0,0.0,0.0,0.0,0.0,0.087266,3.0,0.349213,0.31177,0.329207,0.309864,-5e-06,0.000304,0.045947,-3.2e-05,-6e-05,0.098704,0.0,0.0,0.0,0.0,0.0,0.0
413099,0.004312,0.001991,0.039066,0.0,0.0,0.0,0.0,0.0,0.087266,3.0,0.350553,0.312346,0.333862,0.302477,-5e-06,0.000303,0.047899,-3.1e-05,-6.6e-05,0.095727,0.0,0.0,0.0,0.0,0.0,0.0
413119,0.004436,0.001986,0.040408,0.0,0.0,0.0,0.0,0.0,0.087266,3.0,0.348945,0.310324,0.33018,0.310571,-5e-06,0.000302,0.049792,-2.9e-05,-7.2e-05,0.092911,0.0,0.0,0.0,0.0,0.0,0.0
413139,0.004188,0.001744,0.04175,0.0,0.0,0.0,0.0,0.0,0.087266,3.0,0.349188,0.314166,0.331939,0.304413,-5e-06,0.0003,0.05163,-2.8e-05,-7.7e-05,0.090238,0.0,0.0,0.0,0.0,0.0,0.0
413159,0.004189,0.001741,0.043092,0.0,0.0,0.0,0.0,0.0,0.087266,3.0,0.349266,0.311726,0.33101,0.307871,-5e-06,0.000298,0.053415,-2.7e-05,-8.3e-05,0.087693,0.0,0.0,0.0,0.0,0.0,0.0
413179,0.00419,0.001739,0.044319,0.0,0.0,0.0,0.0,0.0,0.087266,3.0,0.350646,0.307245,0.33431,0.307073,-5e-06,0.000297,0.055151,-2.6e-05,-8.9e-05,0.085262,0.0,0.0,0.0,0.0,0.0,0.0
413199,0.004316,0.001855,0.045538,0.0,0.0,0.0,0.0,0.0,0.087266,3.0,0.347591,0.306396,0.339504,0.305658,-5e-06,0.000295,0.056838,-2.5e-05,-9.4e-05,0.082933,0.0,0.0,0.0,0.0,0.0,0.0
413219,0.004561,0.001847,0.046757,0.0,0.0,0.0,0.0,0.0,0.087266,3.0,0.34738,0.309184,0.332298,0.311221,-5e-06,0.000293,0.05848,-2.4e-05,-0.0001,0.080695,0.0,0.0,0.0,0.0,0.0,0.0
413239,0.004812,0.002082,0.047975,0.0,0.0,0.0,0.0,0.0,0.087266,3.0,0.351046,0.302218,0.340543,0.304464,-5e-06,0.000291,0.060078,-2.3e-05,-0.000105,0.078539,0.0,0.0,0.0,0.0,0.0,0.0
413259,0.005183,0.002193,0.04908,0.0,0.0,0.0,0.0,0.0,0.087266,3.0,0.349435,0.306986,0.340357,0.301842,-5e-06,0.000289,0.061633,-2.2e-05,-0.000111,0.076457,0.0,0.0,0.0,0.0,0.0,0.0
413279,0.005431,0.002306,0.050299,0.0,0.0,0.0,0.0,0.0,0.087266,3.0,0.345324,0.310014,0.331843,0.313261,-5e-06,0.000287,0.063147,-2.1e-05,-0.000116,0.074442,0.0,0.0,0.0,0.0,0.0,0.0
413299,0.005679,0.002418,0.051395,0.0,0.0,0.0,0.0,0.0,0.087266,3.0,0.342893,0.311065,0.336236,0.310168,-5e-06,0.000284,0.064621,-2e-05,-0.000122,0.072489,0.0,0.0,0.0,0.0,0.0,0.0
413319,0.00605,0.002528,0.052491,0.0,0.0,0.0,0.0,0.0,0.087266,3.0,0.34364,0.309554,0.334767,0.312447,-5e-06,0.000282,0.066056,-1.9e-05,-0.000127,0.070591,0.0,0.0,0.0,0.0,0.0,0.0
413339,0.006296,0.002518,0.053719,0.0,0.0,0.0,0.0,0.0,0.087266,3.0,0.348317,0.307634,0.338904,0.304233,-5e-06,0.000279,0.067454,-1.8e-05,-0.000132,0.068744,0.0,0.0,0.0,0.0,0.0,0.0
413359,0.006416,0.002389,0.054694,0.0,0.0,0.0,0.0,0.0,0.087266,3.0,0.353298,0.309063,0.334751,0.301489,-5e-06,0.000277,0.068815,-1.7e-05,-0.000137,0.066944,0.0,0.0,0.0,0.0,0.0,0.0
413379,0.006542,0.002504,0.05579,0.0,0.0,0.0,0.0,0.0,0.087266,3.0,0.350011,0.311062,0.332572,0.305922,-5e-06,0.000274,0.070141,-1.7e-05,-0.000142,0.065187,0.0,0.0,0.0,0.0,0.0,0.0
413399,0.006791,0.002616,0.056764,0.0,0.0,0.0,0.0,0.0,0.087266,3.0,0.350281,0.305563,0.337914,0.3051,-5e-06,0.000271,0.071432,-1.6e-05,-0.000147,0.063471,0.0,0.0,0.0,0.0,0.0,0.0
413419,0.006789,0.002491,0.057739,0.0,0.0,0.0,0.0,0.0,0.087266,3.0,0.348825,0.310363,0.338955,0.300746,-5e-06,0.000268,0.072689,-1.5e-05,-0.000152,0.061792,0.0,0.0,0.0,0.0,0.0,0.0
413439,0.006783,0.002243,0.058725,0.0,0.0,0.0,0.0,0.0,0.087266,3.0,0.349262,0.30926,0.337399,0.303174,-5e-06,0.000265,0.073912,-1.4e-05,-0.000157,0.060149,0.0,0.0,0.0,0.0,0.0,0.0
413459,0.006784,0.00224,0.059699,0.0,0.0,0.0,0.0,0.0,0.087266,3.0,0.347861,0.308226,0.338305,0.304871,-5e-06,0.000262,0.075103,-1.3e-05,-0.000162,0.058538,0.0,0.0,0.0,0.0,0.0,0.0
413479,0.007033,0.002351,0.060673,0.0,0.0,0.0,0.0,0.0,0.087266,3.0,0.341066,0.312533,0.334558,0.312628,-5e-06,0.000258,0.076262,-1.3e-05,-0.000166,0.056959,0.0,0.0,0.0,0.0,0.0,0.0
413499,0.007152,0.002222,0.061526,0.0,0.0,0.0,0.0,0.0,0.087266,3.0,0.350946,0.307635,0.336155,0.304226,-5e-06,0.000255,0.077389,-1.2e-05,-0.000171,0.05541,0.0,0.0,0.0,0.0,0.0,0.0
413519,0.007027,0.002101,0.06239,0.0,0.0,0.0,0.0,0.0,0.087266,3.0,0.355298,0.304803,0.340184,0.29698,-5e-06,0.000252,0.078486,-1.1e-05,-0.000176,0.053889,0.0,0.0,0.0,0.0,0.0,0.0
413539,0.00715,0.002094,0.063364,0.0,0.0,0.0,0.0,0.0,0.087266,3.0,0.355084,0.308115,0.334664,0.300343,-5e-06,0.000248,0.079553,-1.1e-05,-0.00018,0.052396,0.0,0.0,0.0,0.0,0.0,0.0
413559,0.007277,0.002209,0.064216,0.0,0.0,0.0,0.0,0.0,0.087266,3.0,0.352972,0.308321,0.33916,0.29749,-5e-06,0.000244,0.080589,-1e-05,-0.000184,0.050929,0.0,0.0,0.0,0.0,0.0,0.0
413579,0.0074,0.002201,0.06519,0.0,0.0,0.0,0.0,0.0,0.087266,3.0,0.348968,0.309138,0.336242,0.304984,-5e-06,0.000241,0.081597,-9e-06,-0.000189,0.049487,0.0,0.0,0.0,0.0,0.0,0.0
413599,0.007397,0.002077,0.065933,0.0,0.0,0.0,0.0,0.0,0.087266,3.0,0.35382,0.305419,0.34139,0.296764,-5e-06,0.000237,0.082576,-9e-06,-0.000193,0.04807,0.0,0.0,0.0,0.0,0.0,0.0
413619,0.007516,0.001947,0.066785,0.0,0.0,0.0,0.0,0.0,0.087266,3.0,0.35254,0.305343,0.340814,0.299151,-5e-06,0.000233,0.083527,-8e-06,-0.000197,0.046677,0.0,0.0,0.0,0.0,0.0,0.0
413639,0.007756,0.001814,0.067516,0.0,0.0,0.0,0.0,0.0,0.087266,3.0,0.346088,0.307221,0.340295,0.305697,-5e-06,0.000229,0.08445,-7e-06,-0.000201,0.045308,0.0,0.0,0.0,0.0,0.0,0.0
413659,0.008127,0.001921,0.068367,0.0,0.0,0.0,0.0,0.0,0.087266,3.0,0.344767,0.308284,0.338947,0.307732,-5e-06,0.000225,0.085346,-7e-06,-0.000205,0.043961,0.0,0.0,0.0,0.0,0.0,0.0
413679,0.008254,0.002035,0.069097,0.0,0.0,0.0,0.0,0.0,0.087266,3.0,0.349171,0.304089,0.338515,0.307206,-5e-06,0.000221,0.086216,-6e-06,-0.000208,0.042636,0.0,0.0,0.0,0.0,0.0,0.0
413699,0.008499,0.002024,0.069839,0.0,0.0,0.0,0.0,0.0,0.087266,3.0,0.35367,0.30348,0.342737,0.297329,-5e-06,0.000217,0.087059,-6e-06,-0.000212,0.041334,0.0,0.0,0.0,0.0,0.0,0.0
413719,0.008622,0.002016,0.070569,0.0,0.0,0.0,0.0,0.0,0.087266,3.0,0.351878,0.306431,0.338141,0.302014,-4e-06,0.000212,0.087876,-5e-06,-0.000216,0.040053,0.0,0.0,0.0,0.0,0.0,0.0
413739,0.008753,0.002253,0.071298,0.0,0.0,0.0,0.0,0.0,0.087266,3.0,0.347439,0.311324,0.333428,0.307756,-4e-06,0.000208,0.088667,-5e-06,-0.000219,0.038794,0.0,0.0,0.0,0.0,0.0,0.0
413759,0.008749,0.002128,0.072029,0.0,0.0,0.0,0.0,0.0,0.087266,3.0,0.354837,0.307064,0.337665,0.298227,-4e-06,0.000204,0.089434,-4e-06,-0.000223,0.037555,0.0,0.0,0.0,0.0,0.0,0.0
413779,0.008624,0.002007,0.072638,0.0,0.0,0.0,0.0,0.0,0.087266,3.0,0.356807,0.306049,0.340642,0.293166,-4e-06,0.000199,0.090176,-3e-06,-0.000226,0.036338,0.0,0.0,0.0,0.0,0.0,0.0
413799,0.008733,0.001634,0.073261,0.0,0.0,0.0,0.0,0.0,0.087266,3.0,0.354516,0.306172,0.33905,0.297913,-4e-06,0.000195,0.090893,-3e-06,-0.000229,0.03514,0.0,0.0,0.0,0.0,0.0,0.0
413819,0.008603,0.001392,0.073992,0.0,0.0,0.0,0.0,0.0,0.087266,3.0,0.349341,0.309708,0.338946,0.30081,-4e-06,0.00019,0.091587,-3e-06,-0.000232,0.033964,0.0,0.0,0.0,0.0,0.0,0.0
413839,0.008725,0.001385,0.0746,0.0,0.0,0.0,0.0,0.0,0.087266,3.0,0.347056,0.308838,0.337172,0.306508,-4e-06,0.000185,0.092258,-2e-06,-0.000235,0.032807,0.0,0.0,0.0,0.0,0.0,0.0
413859,0.008721,0.00126,0.075209,0.0,0.0,0.0,0.0,0.0,0.087266,3.0,0.353216,0.300399,0.34316,0.300512,-4e-06,0.000181,0.092906,-2e-06,-0.000238,0.031671,0.0,0.0,0.0,0.0,0.0,0.0
413879,0.008594,0.00114,0.075818,0.0,0.0,0.0,0.0,0.0,0.087266,3.0,0.35843,0.303839,0.342514,0.291054,-4e-06,0.000176,0.093531,-1e-06,-0.000241,0.030554,0.0,0.0,0.0,0.0,0.0,0.0
413899,0.008712,0.001011,0.07644,0.0,0.0,0.0,0.0,0.0,0.087266,3.0,0.359138,0.30345,0.340696,0.292784,-4e-06,0.000171,0.094133,-1e-06,-0.000244,0.029457,0.0,0.0,0.0,0.0,0.0,0.0
413919,0.008595,0.001135,0.076927,0.0,0.0,0.0,0.0,0.0,0.087266,3.0,0.35078,0.309542,0.339819,0.298166,-4e-06,0.000166,0.094714,-0.0,-0.000246,0.028379,0.0,0.0,0.0,0.0,0.0,0.0
413939,0.008596,0.001133,0.077535,0.0,0.0,0.0,0.0,0.0,0.087266,3.0,0.355074,0.306596,0.339119,0.296678,-4e-06,0.000161,0.095274,0.0,-0.000249,0.027321,0.0,0.0,0.0,0.0,0.0,0.0
413959,0.008469,0.001013,0.078022,0.0,0.0,0.0,0.0,0.0,0.087266,3.0,0.353395,0.307099,0.338849,0.298606,-3e-06,0.000156,0.095813,0.0,-0.000251,0.026282,0.0,0.0,0.0,0.0,0.0,0.0
413979,0.008464,0.000889,0.078509,0.0,0.0,0.0,0.0,0.0,0.087266,3.0,0.356113,0.304442,0.343463,0.292285,-3e-06,0.000151,0.096331,1e-06,-0.000253,0.025262,0.0,0.0,0.0,0.0,0.0,0.0
413999,0.008582,0.00076,0.079117,0.0,0.0,0.0,0.0,0.0,0.087266,3.0,0.346478,0.312503,0.333746,0.307331,-3e-06,0.000146,0.096828,1e-06,-0.000255,0.024261,0.0,0.0,0.0,0.0,0.0,0.0
414019,0.00846,0.000763,0.079497,0.0,0.0,0.0,0.0,0.0,0.087266,3.0,0.352474,0.303496,0.341953,0.299761,-3e-06,0.000141,0.097306,1e-06,-0.000257,0.023279,0.0,0.0,0.0,0.0,0.0,0.0
414039,0.008582,0.000756,0.079983,0.0,0.0,0.0,0.0,0.0,0.087266,3.0,0.350521,0.302764,0.344727,0.29959,-3e-06,0.000136,0.097764,2e-06,-0.000259,0.022316,0.0,0.0,0.0,0.0,0.0,0.0
414059,0.008461,0.000759,0.080469,0.0,0.0,0.0,0.0,0.0,0.087266,3.0,0.354032,0.302616,0.337324,0.304153,-3e-06,0.000131,0.098204,2e-06,-0.000261,0.021371,0.0,0.0,0.0,0.0,0.0,0.0
414079,0.008334,0.00064,0.080956,0.0,0.0,0.0,0.0,0.0,0.087266,3.0,0.349395,0.308254,0.341332,0.299424,-3e-06,0.000125,0.098624,2e-06,-0.000263,0.020445,0.0,0.0,0.0,0.0,0.0,0.0
414099,0.008461,0.000755,0.081321,0.0,0.0,0.0,0.0,0.0,0.087266,3.0,0.354787,0.302311,0.338576,0.302071,-3e-06,0.00012,0.099026,3e-06,-0.000264,0.019537,0.0,0.0,0.0,0.0,0.0,0.0
414119,0.008339,0.000759,0.081685,0.0,0.0,0.0,0.0,0.0,0.087266,3.0,0.35661,0.300679,0.346082,0.292299,-3e-06,0.000115,0.09941,3e-06,-0.000266,0.018647,0.0,0.0,0.0,0.0,0.0,0.0
414139,0.008471,0.000996,0.08217,0.0,0.0,0.0,0.0,0.0,0.087266,3.0,0.353813,0.301584,0.342652,0.299186,-3e-06,0.00011,0.099777,3e-06,-0.000267,0.017776,0.0,0.0,0.0,0.0,0.0,0.0
414159,0.008355,0.001121,0.08255,0.0,0.0,0.0,0.0,0.0,0.087266,3.0,0.345501,0.310225,0.333516,0.311024,-3e-06,0.000104,0.100126,3e-06,-0.000268,0.016922,0.0,0.0,0.0,0.0,0.0,0.0
414179,0.008233,0.001124,0.083036,0.0,0.0,0.0,0.0,0.0,0.087266,3.0,0.345964,0.309028,0.33688,0.307933,-2e-06,9.9e-05,0.100458,4e-06,-0.00027,0.016086,0.0,0.0,0.0,0.0,0.0,0.0
414199,0.008106,0.001006,0.08328,0.0,0.0,0.0,0.0,0.0,0.087266,3.0,0.35793,0.297265,0.34547,0.294842,-2e-06,9.3e-05,0.100773,4e-06,-0.000271,0.015268,0.0,0.0,0.0,0.0,0.0,0.0
414219,0.007984,0.00101,0.083645,0.0,0.0,0.0,0.0,0.0,0.087266,3.0,0.350631,0.305489,0.337637,0.305071,-2e-06,8.8e-05,0.101073,4e-06,-0.000272,0.014467,0.0,0.0,0.0,0.0,0.0,0.0
414239,0.007862,0.001013,0.084131,0.0,0.0,0.0,0.0,0.0,0.087266,3.0,0.349096,0.306711,0.339453,0.303593,-2e-06,8.3e-05,0.101356,4e-06,-0.000272,0.013683,0.0,0.0,0.0,0.0,0.0,0.0
414259,0.00774,0.001017,0.084496,0.0,0.0,0.0,0.0,0.0,0.087266,3.0,0.351407,0.301228,0.338314,0.307568,-2e-06,7.7e-05,0.101624,4e-06,-0.000273,0.012917,0.0,0.0,0.0,0.0,0.0,0.0
414279,0.007364,0.000787,0.08474,0.0,0.0,0.0,0.0,0.0,0.087266,3.0,0.35735,0.295966,0.34795,0.293808,-2e-06,7.2e-05,0.101877,4e-06,-0.000274,0.012167,0.0,0.0,0.0,0.0,0.0,0.0
414299,0.007115,0.000674,0.085106,0.0,0.0,0.0,0.0,0.0,0.087266,3.0,0.358743,0.299206,0.343774,0.293909,-2e-06,6.6e-05,0.102115,5e-06,-0.000274,0.011435,0.0,0.0,0.0,0.0,0.0,0.0
414319,0.006861,0.00044,0.085487,0.0,0.0,0.0,0.0,0.0,0.087266,3.0,0.349288,0.310646,0.336168,0.303135,-2e-06,6.1e-05,0.102338,5e-06,-0.000274,0.010719,0.0,0.0,0.0,0.0,0.0,0.0
414339,0.006739,0.000443,0.085973,0.0,0.0,0.0,0.0,0.0,0.087266,3.0,0.348326,0.30855,0.337704,0.304677,-2e-06,5.5e-05,0.102547,5e-06,-0.000275,0.010019,0.0,0.0,0.0,0.0,0.0,0.0
414359,0.006607,0.000204,0.086217,0.0,0.0,0.0,0.0,0.0,0.087266,3.0,0.353857,0.301655,0.343065,0.298559,-1e-06,5e-05,0.102742,5e-06,-0.000275,0.009337,0.0,0.0,0.0,0.0,0.0,0.0
414379,0.00648,8.6e-05,0.086461,0.0,0.0,0.0,0.0,0.0,0.087266,3.0,0.356726,0.302431,0.340203,0.297576,-1e-06,4.4e-05,0.102924,5e-06,-0.000275,0.00867,0.0,0.0,0.0,0.0,0.0,0.0
414399,0.006103,-0.000143,0.086826,0.0,0.0,0.0,0.0,0.0,0.087266,3.0,0.352102,0.310944,0.336374,0.299121,-1e-06,3.9e-05,0.103092,5e-06,-0.000275,0.008019,0.0,0.0,0.0,0.0,0.0,0.0
414419,0.005976,-0.000261,0.087191,0.0,0.0,0.0,0.0,0.0,0.087266,3.0,0.350523,0.309954,0.333721,0.305146,-1e-06,3.3e-05,0.103248,5e-06,-0.000275,0.007384,0.0,0.0,0.0,0.0,0.0,0.0
414439,0.00561,-0.000245,0.087434,0.0,0.0,0.0,0.0,0.0,0.087266,3.0,0.353388,0.30538,0.336715,0.302878,-1e-06,2.8e-05,0.103391,5e-06,-0.000274,0.006765,0.0,0.0,0.0,0.0,0.0,0.0
414459,0.005488,-0.000241,0.087677,0.0,0.0,0.0,0.0,0.0,0.087266,3.0,0.357188,0.297822,0.342521,0.298847,-1e-06,2.2e-05,0.103522,5e-06,-0.000274,0.006162,0.0,0.0,0.0,0.0,0.0,0.0
414479,0.005366,-0.000236,0.088042,0.0,0.0,0.0,0.0,0.0,0.087266,3.0,0.353486,0.304853,0.333411,0.307044,-1e-06,1.7e-05,0.103641,5e-06,-0.000273,0.005573,0.0,0.0,0.0,0.0,0.0,0.0
414499,0.005133,1.7e-05,0.088422,0.0,0.0,0.0,0.0,0.0,0.087266,3.0,0.351898,0.307606,0.329453,0.310583,-1e-06,1.1e-05,0.103748,5e-06,-0.000273,0.005,0.0,0.0,0.0,0.0,0.0,0.0
414519,0.005011,2.2e-05,0.088665,0.0,0.0,0.0,0.0,0.0,0.087266,3.0,0.362256,0.3,0.338469,0.294962,-1e-06,6e-06,0.103844,5e-06,-0.000272,0.004442,0.0,0.0,0.0,0.0,0.0,0.0
414539,0.004894,0.000149,0.088908,0.0,0.0,0.0,0.0,0.0,0.087266,3.0,0.360184,0.302839,0.333169,0.301011,-0.0,0.0,0.103928,5e-06,-0.000271,0.003899,0.0,0.0,0.0,0.0,0.0,0.0
414559,0.004529,0.000164,0.089272,0.0,0.0,0.0,0.0,0.0,0.087266,3.0,0.360465,0.304986,0.333645,0.297906,-0.0,-5e-06,0.104002,5e-06,-0.00027,0.00337,0.0,0.0,0.0,0.0,0.0,0.0
414579,0.004523,4.2e-05,0.089637,0.0,0.0,0.0,0.0,0.0,0.087266,3.0,0.353292,0.312684,0.329222,0.304014,-0.0,-1e-05,0.104066,5e-06,-0.000269,0.002856,0.0,0.0,0.0,0.0,0.0,0.0
414599,0.004152,-6.5e-05,0.089881,0.0,0.0,0.0,0.0,0.0,0.087266,3.0,0.357602,0.307318,0.330103,0.303216,-0.0,-1.6e-05,0.104119,5e-06,-0.000268,0.002356,0.0,0.0,0.0,0.0,0.0,0.0
414619,0.004024,-0.000181,0.090124,0.0,0.0,0.0,0.0,0.0,0.087266,3.0,0.360972,0.303653,0.336348,0.295432,-0.0,-2.1e-05,0.104163,5e-06,-0.000267,0.00187,0.0,0.0,0.0,0.0,0.0,0.0
414639,0.003902,-0.000176,0.090367,0.0,0.0,0.0,0.0,0.0,0.087266,3.0,0.362059,0.301348,0.332055,0.301387,0.0,-2.6e-05,0.104196,5e-06,-0.000265,0.001398,0.0,0.0,0.0,0.0,0.0,0.0
