time_ms,roll,pitch,yaw,x,y,z,reference_roll,reference_pitch,reference_yaw,reference_throttle,throttle_1,throttle_2,throttle_3,throttle_4,roll_predicted,pitch_predicted,yaw_predicted,roll_rate_predicted,pitch_rate_predicted,yaw_rate_predicted,value1,value2,value3,value4,value5,value6
43391,-0.003297,0.006226,-0.000234,0.0,0.0,0.0,-0.0,-0.0,-0.0,3.0,0.312096,0.342482,0.309155,0.336633,-0.0,-0.0,-0.0,0.0,0.0,-0.0,0.0,0.0,0.0,0.0,0.0,0.0
43411,-0.003175,0.006103,-0.000234,0.0,0.0,0.0,0.0,0.0,0.0,3.0,0.309128,0.346087,0.304173,0.339944,-0.0,-0.0,-0.0,0.0,0.0,0.0,0.0,0.0,0.0,0.0,0.0,0.0
43431,-0.003175,0.006103,-0.000234,0.0,0.0,0.0,0.0,0.0,0.0,3.0,0.312012,0.340794,0.308278,0.339197,-0.0,-0.0,-0.0,0.0,0.0,0.0,0.0,0.0,0.0,0.0,0.0,0.0
43451,-0.003175,0.006348,-0.000234,0.0,0.0,0.0,0.0,0.0,0.0,3.0,0.312192,0.337499,0.308506,0.342113,-0.0,-0.0,-0.0,0.0,0.0,0.0,0.0,0.0,0.0,0.0,0.0,0.0
43471,-0.003175,0.006592,-0.000234,0.0,0.0,0.0,0.0,0.0,0.0,3.0,0.3135,0.33837,0.307189,0.341238,-0.0,0.0,-0.0,0.0,0.0,0.0,0.0,0.0,0.0,0.0,0.0,0.0
43491,-0.002931,0.006592,-0.000235,0.0,0.0,0.0,0.0,0.0,0.0,3.0,0.311933,0.338963,0.308834,0.340611,-0.0,0.0,-0.0,0.0,0.0,0.0,0.0,0.0,0.0,0.0,0.0,0.0
43511,-0.003053,0.006592,-0.000356,0.0,0.0,0.0,0.0,0.0,0.0,3.0,0.314638,0.336587,0.31,0.33952,-0.0,0.0,-0.0,0.0,0.0,0.0,0.0,0.0,0.0,0.0,0.0,0.0
43531,-0.002931,0.006714,-0.000356,0.0,0.0,0.0,0.0,0.0,0.0,3.0,0.314804,0.337661,0.306169,0.341654,-0.0,0.0,-0.0,0.0,0.0,0.0,0.0,0.0,0.0,0.0,0.0,0.0
43551,-0.002809,0.006592,-0.000357,0.0,0.0,0.0,0.0,0.0,0.0,3.0,0.307453,0.345398,0.306142,0.340414,-0.0,0.0,-0.0,0.0,0.0,0.0,0.0,0.0,0.0,0.0,0.0,0.0
43571,-0.002687,0.006347,-0.00048,0.0,0.0,0.0,0.0,0.0,0.0,3.0,0.314804,0.340771,0.313376,0.332085,-0.0,0.0,-0.0,0.0,0.0,0.0,0.0,0.0,0.0,0.0,0.0,0.0
43591,-0.002809,0.006103,-0.00048,0.0,0.0,0.0,0.0,0.0,0.0,3.0,0.314501,0.341807,0.307105,0.33696,0.0,0.0,-0.0,0.0,0.0,0.0,0.0,0.0,0.0,0.0,0.0,0.0
43611,-0.002687,0.006103,-0.000358,0.0,0.0,0.0,0.0,0.0,0.0,3.0,0.303886,0.344764,0.30598,0.344251,0.0,0.0,-0.0,0.0,0.0,0.0,0.0,0.0,0.0,0.0,0.0,0.0
43631,-0.002809,0.006103,-0.000358,0.0,0.0,0.0,0.0,0.0,0.0,3.0,0.313125,0.340373,0.307182,0.339584,0.0,0.0,-0.0,0.0,0.0,0.0,0.0,0.0,0.0,0.0,0.0,0.0
43651,-0.002687,0.006103,-0.000358,0.0,0.0,0.0,0.0,0.0,0.0,3.0,0.311752,0.340056,0.309277,0.339292,0.0,0.0,-0.0,0.0,0.0,0.0,0.0,0.0,0.0,0.0,0.0,0.0
43671,-0.002809,0.006225,-0.00048,0.0,0.0,0.0,0.0,0.0,0.0,3.0,0.317988,0.33632,0.310545,0.336237,0.0,0.0,-0.0,0.0,0.0,0.0,0.0,0.0,0.0,0.0,0.0,0.0
43691,-0.002809,0.006225,-0.00048,0.0,0.0,0.0,0.0,0.0,0.0,3.0,0.314455,0.340226,0.30722,0.338501,0.0,0.0,0.0,0.0,0.0,0.0,0.0,0.0,0.0,0.0,0.0,0.0
43711,-0.002809,0.006225,-0.000358,0.0,0.0,0.0,0.0,0.0,0.0,3.0,0.31482,0.341931,0.304279,0.339008,0.0,0.0,0.0,0.0,0.0,0.0,0.0,0.0,0.0,0.0,0.0,0.0
43731,-0.002809,0.006347,-0.000357,0.0,0.0,0.0,0.0,0.0,0.0,3.0,0.314819,0.339724,0.306043,0.339703,0.0,0.0,0.0,0.0,0.0,0.0,0.0,0.0,0.0,0.0,0.0,0.0
43751,-0.002809,0.00647,-0.000357,0.0,0.0,0.0,0.0,0.0,0.0,3.0,0.312406,0.341695,0.302956,0.342532,0.0,0.0,0.0,0.0,0.0,0.0,0.0,0.0,0.0,0.0,0.0,0.0
43771,-0.002931,0.006225,-0.000479,0.0,0.0,0.0,0.0,0.0,0.0,3.0,0.315765,0.343056,0.30698,0.334628,0.0,0.0,0.0,0.0,0.0,0.0,0.0,0.0,0.0,0.0,0.0,0.0
43791,-0.002809,0.006347,-0.000479,0.0,0.0,0.0,0.0,0.0,0.0,3.0,0.314065,0.33847,0.307289,0.340547,0.0,0.0,0.0,0.0,0.0,0.0,0.0,0.0,0.0,0.0,0.0,0.0
43811,-0.002931,0.006225,-0.000357,0.0,0.0,0.0,0.0,0.0,0.0,3.0,0.30747,0.346198,0.29848,0.346036,0.0,0.0,0.0,0.0,0.0,0.0,0.0,0.0,0.0,0.0,0.0,0.0
43831,-0.002687,0.006225,-0.000358,0.0,0.0,0.0,0.0,0.0,0.0,3.0,0.309932,0.340143,0.31034,0.33988,0.0,0.0,0.0,0.0,0.0,0.0,0.0,0.0,0.0,0.0,0.0,0.0
43851,-0.002809,0.006347,-0.000357,0.0,0.0,0.0,0.0,0.0,0.0,3.0,0.315553,0.337444,0.305367,0.341885,0.0,0.0,0.0,0.0,0.0,0.0,0.0,0.0,0.0,0.0,0.0,0.0
43871,-0.002443,0.006347,-0.000481,0.0,0.0,0.0,0.0,0.0,0.0,3.0,0.313545,0.334942,0.31522,0.33745,0.0,0.0,0.0,0.0,0.0,0.0,0.0,0.0,0.0,0.0,0.0,0.0
43891,-0.002687,0.006347,-0.00048,0.0,0.0,0.0,0.0,0.0,0.0,3.0,0.31772,0.338473,0.305753,0.338565,0.0,0.0,0.0,0.0,0.0,0.0,0.0,0.0,0.0,0.0,0.0,0.0
43911,-0.002687,0.006225,-0.000358,0.0,0.0,0.0,0.0,0.0,0.0,3.0,0.314194,0.340984,0.305164,0.339763,0.0,0.0,0.0,0.0,0.0,0.0,0.0,0.0,0.0,0.0,0.0,0.0
43931,-0.002809,0.006225,-0.000358,0.0,0.0,0.0,0.0,0.0,0.0,3.0,0.31526,0.341435,0.305706,0.337873,0.0,0.0,0.0,0.0,0.0,0.0,0.0,0.0,0.0,0.0,0.0,0.0
43951,-0.002809,0.006347,-0.000357,0.0,0.0,0.0,0.0,0.0,0.0,3.0,0.315884,0.337748,0.308933,0.33818,0.0,0.0,0.0,0.0,0.0,0.0,0.0,0.0,0.0,0.0,0.0,0.0
43971,-0.002809,0.006347,-0.000357,0.0,0.0,0.0,0.0,0.0,0.0,3.0,0.31626,0.33951,0.308805,0.336177,0.0,0.0,0.0,0.0,0.0,0.0,0.0,0.0,0.0,0.0,0.0,0.0
43991,-0.002686,0.006226,-0.000236,0.0,0.0,0.0,0.0,0.0,0.0,3.0,0.308971,0.34238,0.308624,0.339987,0.0,0.0,0.0,0.0,0.0,0.0,0.0,0.0,0.0,0.0,0.0,0.0
44011,-0.002809,0.006226,-0.000235,0.0,0.0,0.0,0.0,0.0,0.0,3.0,0.314031,0.341614,0.302632,0.341444,0.0,0.0,0.0,0.0,0.0,0.0,0.0,0.0,0.0,0.0,0.0,0.0
44031,-0.002686,0.00647,-0.000235,0.0,0.0,0.0,0.0,0.0,0.0,3.0,0.305703,0.342835,0.299686,0.349862,0.0,0.0,0.0,0.0,0.0,-0.0,0.0,0.0,0.0,0.0,0.0,0.0
44051,-0.002686,0.00647,-0.000113,0.0,0.0,0.0,0.0,0.0,0.0,3.0,0.312909,0.34256,0.300666,0.34315,0.0,0.0,0.0,0.0,0.0,-0.0,0.0,0.0,0.0,0.0,0.0,0.0
44071,-0.002564,0.006348,-0.000114,0.0,0.0,0.0,0.0,0.0,0.0,3.0,0.311942,0.342232,0.302718,0.342606,0.0,0.0,0.0,0.0,0.0,-0.0,0.0,0.0,0.0,0.0,0.0,0.0
44091,-0.002686,0.006104,-0.000114,0.0,0.0,0.0,0.0,0.0,0.0,3.0,0.318455,0.342401,0.301604,0.337508,0.0,0.0,0.0,0.0,0.0,-0.0,0.0,0.0,0.0,0.0,0.0,0.0
44111,-0.002686,0.005982,-0.000114,0.0,0.0,0.0,0.0,0.0,0.0,3.0,0.316358,0.340117,0.304234,0.33948,0.0,0.0,0.0,0.0,0.0,-0.0,0.0,0.0,0.0,0.0,0.0,0.0
44131,-0.002686,0.00586,8e-06,0.0,0.0,0.0,0.0,0.0,0.0,3.0,0.303981,0.347372,0.301584,0.34525,0.0,0.0,0.0,0.0,0.0,-0.0,0.0,0.0,0.0,0.0,0.0,0.0
44151,-0.002685,0.006104,0.00013,0.0,0.0,0.0,0.0,0.0,0.0,3.0,0.305423,0.343924,0.29935,0.349304,0.0,0.0,0.0,0.0,0.0,-0.0,0.0,0.0,0.0,0.0,0.0,0.0
44171,-0.002563,0.006226,0.00013,0.0,0.0,0.0,0.0,0.0,0.0,3.0,0.306259,0.343683,0.30188,0.346768,0.0,0.0,0.0,0.0,0.0,-0.0,0.0,0.0,0.0,0.0,0.0,0.0
44191,-0.002563,0.006226,0.00013,0.0,0.0,0.0,0.0,0.0,0.0,3.0,0.319452,0.332269,0.314265,0.335529,0.0,0.0,0.0,0.0,0.0,-0.0,0.0,0.0,0.0,0.0,0.0,0.0
44211,-0.002441,0.006226,0.00013,0.0,0.0,0.0,0.0,0.0,0.0,3.0,0.310473,0.339807,0.309465,0.340509,0.0,0.0,0.0,0.0,0.0,-0.0,0.0,0.0,0.0,0.0,0.0,0.0
44231,-0.002563,0.006226,0.00013,0.0,0.0,0.0,0.0,0.0,0.0,3.0,0.313799,0.339637,0.306502,0.340308,0.0,0.0,0.0,0.0,0.0,-0.0,0.0,0.0,0.0,0.0,0.0,0.0
44251,-0.002441,0.006226,0.00013,0.0,0.0,0.0,0.0,0.0,0.0,3.0,0.313699,0.339609,0.306633,0.340311,0.0,0.0,0.0,0.0,0.0,-0.0,0.0,0.0,0.0,0.0,0.0,0.0
44271,-0.002563,0.006348,0.00013,0.0,0.0,0.0,0.0,0.0,0.0,3.0,0.314166,0.338113,0.30613,0.341813,0.0,0.0,0.0,0.0,0.0,-0.0,0.0,0.0,0.0,0.0,0.0,0.0
44291,-0.002441,0.006226,0.000252,0.0,0.0,0.0,0.0,0.0,0.0,3.0,0.305705,0.343602,0.305149,0.344577,0.0,0.0,0.0,0.0,0.0,-0.0,0.0,0.0,0.0,0.0,0.0,0.0
44311,-0.002563,0.006226,0.000252,0.0,0.0,0.0,0.0,0.0,0.0,3.0,0.315659,0.339898,0.303728,0.340764,0.0,0.0,0.0,0.0,0.0,-0.0,0.0,0.0,0.0,0.0,0.0,0.0
44331,-0.002563,0.006226,0.000252,0.0,0.0,0.0,0.0,0.0,0.0,3.0,0.320707,0.333499,0.310265,0.336759,0.0,0.0,0.0,0.0,0.0,-0.0,0.0,0.0,0.0,0.0,0.0,0.0
44351,-0.002441,0.006226,0.000252,0.0,0.0,0.0,0.0,0.0,0.0,3.0,0.320068,0.333948,0.311675,0.335645,0.0,0.0,0.0,0.0,0.0,-0.0,0.0,0.0,0.0,0.0,0.0,0.0
44371,-0.002318,0.006226,0.000373,0.0,0.0,0.0,0.0,0.0,0.0,3.0,0.309534,0.342568,0.303638,0.343598,0.0,0.0,0.0,0.0,0.0,-0.0,0.0,0.0,0.0,0.0,0.0,0.0
44391,-0.002196,0.006104,0.000373,0.0,0.0,0.0,0.0,0.0,0.0,3.0,0.311389,0.344568,0.302424,0.340992,0.0,0.0,0.0,0.0,0.0,-0.0,0.0,0.0,0.0,0.0,0.0,0.0
44411,-0.001952,0.005982,0.000372,0.0,0.0,0.0,0.0,0.0,0.0,3.0,0.308736,0.342241,0.310905,0.338318,0.0,0.0,0.0,0.0,0.0,-0.0,0.0,0.0,0.0,0.0,0.0,0.0
44431,-0.002074,0.005738,0.000494,0.0,0.0,0.0,0.0,0.0,0.0,3.0,0.313412,0.343334,0.302383,0.340478,0.0,0.0,0.0,0.0,0.0,-0.0,0.0,0.0,0.0,0.0,0.0,0.0
44451,-0.001952,0.005738,0.000494,0.0,0.0,0.0,0.0,0.0,0.0,3.0,0.311987,0.338869,0.307466,0.341847,0.0,0.0,0.0,0.0,0.0,-0.0,0.0,0.0,0.0,0.0,0.0,0.0
44471,-0.001829,0.00586,0.000616,0.0,0.0,0.0,0.0,0.0,0.0,3.0,0.309864,0.337718,0.307749,0.344589,0.0,0.0,0.0,0.0,0.0,-0.0,0.0,0.0,0.0,0.0,0.0,0.0
44491,-0.002073,0.00586,0.000739,0.0,0.0,0.0,0.0,0.0,0.0,3.0,0.311128,0.343065,0.300334,0.344484,0.0,0.0,0.0,0.0,0.0,-0.0,0.0,0.0,0.0,0.0,0.0,0.0
44511,-0.002073,0.005738,0.000739,0.0,0.0,0.0,0.0,0.0,0.0,3.0,0.312661,0.342421,0.306069,0.338904,0.0,0.0,0.0,0.0,0.0,-0.0,0.0,0.0,0.0,0.0,0.0,0.0
44531,-0.002073,0.005739,0.000861,0.0,0.0,0.0,0.0,0.0,0.0,3.0,0.313051,0.341982,0.301991,0.34249,0.0,0.0,0.0,0.0,0.0,0.0,0.0,0.0,0.0,0.0,0.0,0.0
44551,-0.002073,0.005739,0.000983,0.0,0.0,0.0,0.0,0.0,0.0,3.0,0.312486,0.341807,0.302284,0.342917,0.0,0.0,0.0,0.0,0.0,-0.0,0.0,0.0,0.0,0.0,0.0,0.0
44571,-0.00195,0.005617,0.000982,0.0,0.0,0.0,0.0,0.0,0.0,3.0,0.310256,0.341072,0.308294,0.340461,0.0,0.0,0.0,0.0,0.0,-0.0,0.0,0.0,0.0,0.0,0.0,0.0
44591,-0.001828,0.005739,0.001104,0.0,0.0,0.0,0.0,0.0,0.0,3.0,0.309395,0.339569,0.305355,0.345227,0.0,0.0,0.0,0.0,0.0,-0.0,0.0,0.0,0.0,0.0,0.0,0.0
44611,-0.001706,0.005617,0.001226,0.0,0.0,0.0,0.0,0.0,0.0,3.0,0.303878,0.346985,0.29898,0.347867,0.0,0.0,0.0,0.0,0.0,0.0,0.0,0.0,0.0,0.0,0.0,0.0
44631,-0.001706,0.005617,0.001226,0.0,0.0,0.0,0.0,0.0,0.0,3.0,0.314249,0.340719,0.302872,0.341939,0.0,0.0,0.0,0.0,0.0,-0.0,0.0,0.0,0.0,0.0,0.0,0.0
44651,-0.001827,0.005495,0.001348,0.0,0.0,0.0,0.0,0.0,0.0,3.0,0.305186,0.347467,0.29746,0.347526,0.0,0.0,0.0,0.0,0.0,-0.0,0.0,0.0,0.0,0.0,0.0,0.0
44671,-0.001705,0.005373,0.001348,0.0,0.0,0.0,0.0,0.0,0.0,3.0,0.311773,0.342886,0.303793,0.341186,0.0,0.0,0.0,0.0,0.0,-0.0,0.0,0.0,0.0,0.0,0.0,0.0
44691,-0.001705,0.005495,0.00147,0.0,0.0,0.0,0.0,0.0,0.0,3.0,0.305449,0.345688,0.296841,0.349569,0.0,0.0,0.0,0.0,0.0,-0.0,0.0,0.0,0.0,0.0,0.0,0.0
44711,-0.001705,0.005251,0.00147,0.0,0.0,0.0,0.0,0.0,0.0,3.0,0.309438,0.345837,0.301612,0.342105,0.0,0.0,0.0,0.0,0.0,-0.0,0.0,0.0,0.0,0.0,0.0,0.0
44731,-0.001705,0.005495,0.00147,0.0,0.0,0.0,0.0,0.0,0.0,3.0,0.311793,0.338791,0.305413,0.343857,0.0,0.0,0.0,0.0,0.0,-0.0,0.0,0.0,0.0,0.0,0.0,0.0
44751,-0.001583,0.005495,0.001469,0.0,0.0,0.0,0.0,0.0,0.0,3.0,0.309644,0.340055,0.307997,0.342271,0.0,0.0,0.0,0.0,0.0,-0.0,0.0,0.0,0.0,0.0,0.0,0.0
44771,-0.001583,0.005617,0.00147,0.0,0.0,0.0,0.0,0.0,0.0,3.0,0.313667,0.338109,0.303781,0.344259,0.0,0.0,0.0,0.0,0.0,-0.0,0.0,0.0,0.0,0.0,0.0,0.0
44791,-0.001583,0.005495,0.001592,0.0,0.0,0.0,0.0,0.0,0.0,3.0,0.302012,0.347917,0.304072,0.344266,0.0,0.0,0.0,0.0,-0.0,-0.0,0.0,0.0,0.0,0.0,0.0,0.0
44811,-0.001339,0.00525,0.001591,0.0,0.0,0.0,0.0,0.0,0.0,3.0,0.310132,0.343246,0.306855,0.339635,0.0,0.0,0.0,0.0,-0.0,-0.0,0.0,0.0,0.0,0.0,0.0,0.0
44831,-0.00146,0.005251,0.001713,0.0,0.0,0.0,0.0,0.0,0.0,3.0,0.306579,0.3432,0.30675,0.342867,0.0,0.0,0.0,0.0,-0.0,-0.0,0.0,0.0,0.0,0.0,0.0,0.0
44851,-0.001216,0.00525,0.001712,0.0,0.0,0.0,0.0,0.0,0.0,3.0,0.308316,0.341892,0.308643,0.341035,0.0,0.0,0.0,0.0,-0.0,-0.0,0.0,0.0,0.0,0.0,0.0,0.0
44871,-0.001338,0.00525,0.001713,0.0,0.0,0.0,0.0,0.0,0.0,3.0,0.310715,0.342754,0.306259,0.340134,0.0,0.0,0.0,0.0,-0.0,-0.0,0.0,0.0,0.0,0.0,0.0,0.0
44891,-0.001339,0.00525,0.001591,0.0,0.0,0.0,0.0,0.0,0.0,3.0,0.318544,0.3344,0.313291,0.335153,0.0,0.0,0.0,0.0,-0.0,-0.0,0.0,0.0,0.0,0.0,0.0,0.0
44911,-0.001094,0.005128,0.001712,0.0,0.0,0.0,0.0,0.0,0.0,3.0,0.307069,0.342269,0.308953,0.341469,0.0,0.0,0.0,0.0,-0.0,-0.0,0.0,0.0,0.0,0.0,0.0,0.0
44931,-0.000972,0.005128,0.001712,0.0,0.0,0.0,0.0,0.0,0.0,3.0,0.314081,0.336146,0.313844,0.33702,0.0,0.0,0.0,0.0,-0.0,-0.0,0.0,0.0,0.0,0.0,0.0,0.0
44951,-0.001094,0.005128,0.001834,0.0,0.0,0.0,0.0,0.0,0.0,3.0,0.310879,0.341343,0.304501,0.342914,0.0,0.0,0.0,-0.0,-0.0,-0.0,0.0,0.0,0.0,0.0,0.0,0.0
44971,-0.000972,0.00525,0.001834,0.0,0.0,0.0,0.0,0.0,0.0,3.0,0.309939,0.339655,0.306549,0.343656,0.0,0.0,0.0,0.0,-0.0,-0.0,0.0,0.0,0.0,0.0,0.0,0.0
44991,-0.001094,0.005128,0.001834,0.0,0.0,0.0,0.0,0.0,0.0,3.0,0.311386,0.342382,0.305088,0.340927,0.0,0.0,0.0,0.0,-0.0,-0.0,0.0,0.0,0.0,0.0,0.0,0.0
45011,-0.000972,0.005128,0.001834,0.0,0.0,0.0,0.0,0.0,0.0,3.0,0.313641,0.342014,0.302658,0.34137,0.0,0.0,0.0,-0.0,-0.0,-0.0,0.0,0.0,0.0,0.0,0.0,0.0
45031,-0.000972,0.004884,0.001956,0.0,0.0,0.0,0.0,0.0,0.0,3.0,0.308837,0.346817,0.299712,0.343223,0.0,0.0,0.0,0.0,-0.0,-0.0,0.0,0.0,0.0,0.0,0.0,0.0
45051,-0.00085,0.00464,0.001955,0.0,0.0,0.0,0.0,0.0,0.0,3.0,0.305904,0.34391,0.305607,0.343711,0.0,0.0,0.0,-0.0,-0.0,-0.0,0.0,0.0,0.0,0.0,0.0,0.0
45071,-0.00085,0.00464,0.001955,0.0,0.0,0.0,0.0,0.0,0.0,3.0,0.311439,0.34197,0.300461,0.345193,0.0,0.0,0.0,-0.0,-0.0,-0.0,0.0,0.0,0.0,0.0,0.0,0.0
45091,-0.000605,0.005006,0.002077,0.0,0.0,0.0,0.0,0.0,0.0,3.0,0.30264,0.342575,0.297804,0.354131,0.0,0.0,0.0,-0.0,-0.0,-0.0,0.0,0.0,0.0,0.0,0.0,0.0
45111,-0.000727,0.00525,0.002077,0.0,0.0,0.0,0.0,0.0,0.0,3.0,0.306386,0.343349,0.294929,0.352587,0.0,0.0,0.0,-0.0,-0.0,0.0,0.0,0.0,0.0,0.0,0.0,0.0
45131,-0.000605,0.00525,0.002077,0.0,0.0,0.0,0.0,0.0,0.0,3.0,0.309535,0.339684,0.305336,0.34501,0.0,0.0,0.0,-0.0,-0.0,0.0,0.0,0.0,0.0,0.0,0.0,0.0
45151,-0.000605,0.00525,0.002077,0.0,0.0,0.0,0.0,0.0,0.0,3.0,0.307891,0.344462,0.302069,0.344445,0.0,0.0,0.0,-0.0,-0.0,-0.0,0.0,0.0,0.0,0.0,0.0,0.0
45171,-0.000727,0.005006,0.002077,0.0,0.0,0.0,0.0,0.0,0.0,3.0,0.306664,0.349696,0.295119,0.345922,0.0,0.0,0.0,-0.0,-0.0,0.0,0.0,0.0,0.0,0.0,0.0,0.0
45191,-0.000727,0.004884,0.002077,0.0,0.0,0.0,0.0,0.0,0.0,3.0,0.310825,0.342198,0.303884,0.342633,0.0,0.0,0.0,-0.0,-0.0,-0.0,0.0,0.0,0.0,0.0,0.0,0.0
45211,-0.000483,0.004762,0.002199,0.0,0.0,0.0,0.0,0.0,0.0,3.0,0.312248,0.338432,0.306925,0.342515,0.0,0.0,0.0,-0.0,-0.0,-0.0,0.0,0.0,0.0,0.0,0.0,0.0
45231,-0.000483,0.005006,0.002199,0.0,0.0,0.0,0.0,0.0,0.0,3.0,0.309798,0.339031,0.304644,0.346005,0.0,0.0,0.0,-0.0,-0.0,0.0,0.0,0.0,0.0,0.0,0.0,0.0
45251,-0.000483,0.005006,0.002199,0.0,0.0,0.0,0.0,0.0,0.0,3.0,0.30884,0.339864,0.306366,0.344558,0.0,0.0,0.0,-0.0,-0.0,-0.0,0.0,0.0,0.0,0.0,0.0,0.0
45271,-0.000483,0.005128,0.002199,0.0,0.0,0.0,0.0,0.0,0.0,3.0,0.311267,0.34214,0.303858,0.342326,0.0,0.0,0.0,-0.0,-0.0,0.0,0.0,0.0,0.0,0.0,0.0,0.0
45291,-0.000726,0.00525,0.002322,0.0,0.0,0.0,0.0,0.0,0.0,3.0,0.304078,0.346125,0.295446,0.351383,0.0,0.0,0.0,-0.0,-0.0,0.0,0.0,0.0,0.0,0.0,0.0,0.0
45311,-0.000726,0.00525,0.002322,0.0,0.0,0.0,0.0,0.0,0.0,3.0,0.310657,0.341222,0.303194,0.344333,0.0,0.0,0.0,-0.0,-0.0,0.0,0.0,0.0,0.0,0.0,0.0,0.0
45331,-0.000727,0.005128,0.0022,0.0,0.0,0.0,0.0,0.0,0.0,3.0,0.316864,0.336864,0.312877,0.334623,0.0,0.0,0.0,-0.0,-0.0,-0.0,0.0,0.0,0.0,0.0,0.0,0.0
45351,-0.000727,0.005006,0.002199,0.0,0.0,0.0,0.0,0.0,0.0,3.0,0.317257,0.337465,0.311542,0.334866,0.0,0.0,0.0,-0.0,-0.0,-0.0,0.0,0.0,0.0,0.0,0.0,0.0
45371,-0.000605,0.005006,0.002321,0.0,0.0,0.0,0.0,0.0,0.0,3.0,0.307562,0.343794,0.304258,0.343553,0.0,0.0,0.0,-0.0,-0.0,0.0,0.0,0.0,0.0,0.0,0.0,0.0
45391,-0.000605,0.005006,0.002321,0.0,0.0,0.0,0.0,0.0,0.0,3.0,0.311428,0.342261,0.300993,0.344473,0.0,0.0,0.0,-0.0,-0.0,0.0,0.0,0.0,0.0,0.0,0.0,0.0
45411,-0.000483,0.005006,0.002321,0.0,0.0,0.0,0.0,0.0,0.0,3.0,0.309311,0.343331,0.305141,0.34175,0.0,0.0,0.0,-0.0,-0.0,-0.0,0.0,0.0,0.0,0.0,0.0,0.0
45431,-0.000605,0.005006,0.002321,0.0,0.0,0.0,0.0,0.0,0.0,3.0,0.309837,0.341701,0.304658,0.343334,0.0,0.0,0.0,-0.0,-0.0,-0.0,0.0,0.0,0.0,0.0,0.0,0.0
45451,-0.000848,0.005128,0.002444,0.0,0.0,0.0,0.0,0.0,0.0,3.0,0.3115,0.340742,0.298738,0.347757,0.0,0.0,0.0,-0.0,-0.0,-0.0,0.0,0.0,0.0,0.0,0.0,0.0
45471,-0.000726,0.005128,0.002444,0.0,0.0,0.0,0.0,0.0,0.0,3.0,0.309206,0.34046,0.304742,0.345035,0.0,0.0,0.0,-0.0,-0.0,-0.0,0.0,0.0,0.0,0.0,0.0,0.0
45491,-0.00097,0.005251,0.002567,0.0,0.0,0.0,0.0,0.0,0.0,3.0,0.309815,0.342364,0.296224,0.349644,0.0,0.0,0.0,-0.0,-0.0,-0.0,0.0,0.0,0.0,0.0,0.0,0.0
45511,-0.000726,0.005128,0.002566,0.0,0.0,0.0,0.0,0.0,0.0,3.0,0.306748,0.343426,0.302856,0.345796,0.0,0.0,0.0,-0.0,-0.0,0.0,0.0,0.0,0.0,0.0,0.0,0.0
45531,-0.000726,0.005006,0.002566,0.0,0.0,0.0,0.0,0.0,0.0,3.0,0.311973,0.343915,0.301407,0.341995,0.0,0.0,0.0,-0.0,-0.0,-0.0,0.0,0.0,0.0,0.0,0.0,0.0
45551,-0.000604,0.004762,0.002687,0.0,0.0,0.0,0.0,0.0,0.0,3.0,0.301293,0.347315,0.300801,0.348188,0.0,0.0,0.0,-0.0,-0.0,0.0,0.0,0.0,0.0,0.0,0.0,0.0
45571,-0.000726,0.00464,0.002688,0.0,0.0,0.0,0.0,0.0,0.0,3.0,0.311923,0.343753,0.301016,0.342531,0.0,0.0,0.0,-0.0,-0.0,0.0,0.0,0.0,0.0,0.0,0.0,0.0
45591,-0.000604,0.004884,0.00281,0.0,0.0,0.0,0.0,0.0,0.0,3.0,0.305906,0.340894,0.301538,0.350067,0.0,0.0,0.0,-0.0,-0.0,-0.0,0.0,0.0,0.0,0.0,0.0,0.0
45611,-0.000725,0.005006,0.00281,0.0,0.0,0.0,0.0,0.0,0.0,3.0,0.309353,0.341966,0.30336,0.344587,0.0,0.0,0.0,-0.0,-0.0,0.0,0.0,0.0,0.0,0.0,0.0,0.0
45631,-0.000725,0.00525,0.002932,0.0,0.0,0.0,0.0,0.0,0.0,3.0,0.30184,0.345696,0.295546,0.353544,0.0,0.0,0.0,-0.0,-0.0,0.0,0.0,0.0,0.0,0.0,0.0,0.0
45651,-0.000725,0.005006,0.003054,0.0,0.0,0.0,0.0,0.0,0.0,3.0,0.300232,0.351083,0.295955,0.349198,0.0,0.0,0.0,-0.0,-0.0,0.0,0.0,0.0,0.0,0.0,0.0,0.0
45671,-0.000603,0.004884,0.003054,0.0,0.0,0.0,0.0,0.0,0.0,3.0,0.304248,0.346346,0.299565,0.347718,0.0,0.0,0.0,-0.0,-0.0,0.0,0.0,0.0,0.0,0.0,0.0,0.0
45691,-0.000603,0.004762,0.003054,0.0,0.0,0.0,0.0,0.0,0.0,3.0,0.305455,0.344688,0.298714,0.349041,0.0,0.0,0.0,-0.0,-0.0,-0.0,0.0,0.0,0.0,0.0,0.0,0.0
45711,-0.000604,0.004396,0.003054,0.0,0.0,0.0,0.0,0.0,0.0,3.0,0.303845,0.346651,0.30034,0.347115,0.0,0.0,0.0,-0.0,-0.0,-0.0,0.0,0.0,0.0,0.0,0.0,0.0
45731,-0.000726,0.004518,0.003054,0.0,0.0,0.0,0.0,0.0,0.0,3.0,0.309809,0.34013,0.301017,0.345123,0.0,0.0,0.0,-0.0,-0.0,-0.0,0.0,0.0,0.0,0.0,0.0,0.0
45751,-0.000481,0.004518,0.003176,0.0,0.0,0.0,0.0,0.0,0.0,3.0,0.30884,0.341317,0.30325,0.345761,0.0,0.0,0.0,-0.0,-0.0,-0.0,0.0,0.0,0.0,0.0,0.0,0.0
45771,-0.000847,0.00464,0.003176,0.0,0.0,0.0,0.0,0.0,0.0,3.0,0.31292,0.341478,0.297682,0.346666,0.0,0.0,0.0,-0.0,-0.0,-0.0,0.0,0.0,0.0,0.0,0.0,0.0
45791,-0.000847,0.004762,0.003176,0.0,0.0,0.0,0.0,0.0,0.0,3.0,0.316303,0.33583,0.3084,0.340168,0.0,0.0,0.0,-0.0,-0.0,-0.0,0.0,0.0,0.0,0.0,0.0,0.0
45811,-0.000969,0.004885,0.003177,0.0,0.0,0.0,0.0,0.0,0.0,3.0,0.317458,0.335755,0.307983,0.339556,0.0,0.0,0.0,-0.0,-0.0,-0.0,0.0,0.0,0.0,0.0,0.0,0.0
45831,-0.000847,0.004884,0.003176,0.0,0.0,0.0,0.0,0.0,0.0,3.0,0.312522,0.339395,0.307464,0.340853,0.0,0.0,0.0,-0.0,-0.0,-0.0,0.0,0.0,0.0,0.0,0.0,0.0
45851,-0.000847,0.00464,0.003298,0.0,0.0,0.0,0.0,0.0,0.0,3.0,0.308452,0.346637,0.299519,0.343897,0.0,0.0,0.0,-0.0,-0.0,-0.0,0.0,0.0,0.0,0.0,0.0,0.0
45871,-0.000847,0.004518,0.003298,0.0,0.0,0.0,0.0,0.0,0.0,3.0,0.310991,0.34185,0.299894,0.346168,0.0,0.0,0.0,-0.0,-0.0,-0.0,0.0,0.0,0.0,0.0,0.0,0.0
45891,-0.000725,0.004396,0.003298,0.0,0.0,0.0,0.0,0.0,0.0,3.0,0.307929,0.342963,0.303231,0.344933,0.0,0.0,0.0,-0.0,-0.0,-0.0,0.0,0.0,0.0,0.0,0.0,0.0
45911,-0.000602,0.00464,0.00342,0.0,0.0,0.0,0.0,0.0,0.0,3.0,0.308068,0.341319,0.298886,0.35,0.0,0.0,0.0,-0.0,-0.0,-0.0,0.0,0.0,0.0,0.0,0.0,0.0
45931,-0.000847,0.00464,0.003421,0.0,0.0,0.0,0.0,0.0,0.0,3.0,0.310817,0.344984,0.297603,0.345089,0.0,0.0,0.0,-0.0,-0.0,-0.0,0.0,0.0,0.0,0.0,0.0,0.0
45951,-0.000846,0.004762,0.003421,0.0,0.0,0.0,0.0,0.0,0.0,3.0,0.309975,0.344347,0.298523,0.345699,0.0,0.0,0.0,-0.0,-0.0,-0.0,0.0,0.0,0.0,0.0,0.0,0.0
45971,-0.000846,0.004762,0.003421,0.0,0.0,0.0,0.0,0.0,0.0,3.0,0.308877,0.344923,0.301566,0.343554,0.0,0.0,0.0,-0.0,-0.0,-0.0,0.0,0.0,0.0,0.0,0.0,0.0
45991,-0.000847,0.00464,0.003421,0.0,0.0,0.0,0.0,0.0,0.0,3.0,0.308777,0.34229,0.301711,0.34614,0.0,0.0,0.0,-0.0,-0.0,-0.0,0.0,0.0,0.0,0.0,0.0,0.0
46011,-0.001091,0.004519,0.003421,0.0,0.0,0.0,0.0,0.0,0.0,3.0,0.310075,0.345176,0.300281,0.343332,0.0,0.0,0.0,-0.0,-0.0,-0.0,0.0,0.0,0.0,0.0,0.0,0.0
46031,-0.000847,0.004396,0.00342,0.0,0.0,0.0,0.0,0.0,0.0,3.0,0.305167,0.343374,0.305273,0.345156,0.0,0.0,0.0,-0.0,-0.0,-0.0,0.0,0.0,0.0,0.0,0.0,0.0
46051,-0.000847,0.004518,0.003543,0.0,0.0,0.0,0.0,0.0,0.0,3.0,0.301823,0.348509,0.292671,0.353048,0.0,0.0,-0.0,-0.0,-0.0,-0.0,0.0,0.0,0.0,0.0,0.0,0.0
46071,-0.000725,0.004518,0.00342,0.0,0.0,0.0,0.0,0.0,0.0,3.0,0.308883,0.33898,0.307022,0.344827,0.0,0.0,-0.0,-0.0,-0.0,-0.0,0.0,0.0,0.0,0.0,0.0,0.0
46091,-0.000724,0.004762,0.00342,0.0,0.0,0.0,0.0,0.0,0.0,3.0,0.30971,0.338803,0.306244,0.344949,0.0,0.0,-0.0,-0.0,-0.0,-0.0,0.0,0.0,0.0,0.0,0.0,0.0
46111,-0.000724,0.004884,0.00342,0.0,0.0,0.0,0.0,0.0,0.0,3.0,0.309859,0.340704,0.300412,0.347837,0.0,0.0,-0.0,-0.0,-0.0,-0.0,0.0,0.0,0.0,0.0,0.0,0.0
46131,-0.000602,0.00464,0.00342,0.0,0.0,0.0,0.0,0.0,0.0,3.0,0.313183,0.342473,0.29644,0.346466,0.0,0.0,-0.0,-0.0,-0.0,-0.0,0.0,0.0,0.0,0.0,0.0,0.0
46151,-0.000968,0.004641,0.003543,0.0,0.0,0.0,0.0,0.0,0.0,3.0,0.309415,0.34531,0.300367,0.3437,0.0,0.0,-0.0,-0.0,-0.0,-0.0,0.0,0.0,0.0,0.0,0.0,0.0
46171,-0.000847,0.004518,0.003543,0.0,0.0,0.0,0.0,0.0,0.0,3.0,0.302243,0.345601,0.298678,0.350825,0.0,0.0,-0.0,-0.0,-0.0,-0.0,0.0,0.0,0.0,0.0,0.0,0.0
46191,-0.000847,0.00464,0.003421,0.0,0.0,0.0,0.0,0.0,0.0,3.0,0.307528,0.343249,0.300842,0.346977,0.0,0.0,-0.0,-0.0,-0.0,-0.0,0.0,0.0,0.0,0.0,0.0,0.0
46211,-0.000847,0.004518,0.003421,0.0,0.0,0.0,0.0,0.0,0.0,3.0,0.316797,0.335696,0.30666,0.341365,0.0,0.0,-0.0,-0.0,-0.0,-0.0,0.0,0.0,0.0,0.0,0.0,0.0
46231,-0.000725,0.004518,0.00342,0.0,0.0,0.0,0.0,0.0,0.0,3.0,0.308468,0.341852,0.301881,0.346694,0.0,0.0,-0.0,-0.0,-0.0,-0.0,0.0,0.0,0.0,0.0,0.0,0.0
46251,-0.000603,0.004396,0.003542,0.0,0.0,0.0,0.0,0.0,0.0,3.0,0.297759,0.34812,0.296122,0.35399,0.0,0.0,-0.0,-0.0,-0.0,-0.0,0.0,0.0,0.0,0.0,0.0,0.0
46271,-0.000602,0.004518,0.003542,0.0,0.0,0.0,0.0,0.0,0.0,3.0,0.308057,0.339574,0.300054,0.350746,0.0,0.0,-0.0,-0.0,-0.0,-0.0,0.0,0.0,0.0,0.0,0.0,0.0
46291,-0.000725,0.004396,0.003542,0.0,0.0,0.0,0.0,0.0,0.0,3.0,0.311928,0.3431,0.296752,0.346686,0.0,0.0,-0.0,-0.0,-0.0,-0.0,0.0,0.0,0.0,0.0,0.0,0.0
46311,-0.000846,0.004396,0.003665,0.0,0.0,0.0,0.0,0.0,0.0,3.0,0.30748,0.346045,0.297286,0.34715,0.0,0.0,-0.0,-0.0,-0.0,-0.0,0.0,0.0,0.0,0.0,0.0,0.0
46331,-0.000724,0.004518,0.003664,0.0,0.0,0.0,0.0,0.0,0.0,3.0,0.310441,0.345243,0.29752,0.345224,0.0,0.0,-0.0,-0.0,-0.0,-0.0,0.0,0.0,0.0,0.0,0.0,0.0
46351,-0.000602,0.004518,0.003664,0.0,0.0,0.0,0.0,0.0,0.0,3.0,0.308298,0.343015,0.300159,0.347115,0.0,0.0,-0.0,-0.0,-0.0,-0.0,0.0,0.0,0.0,0.0,0.0,0.0
46371,-0.000602,0.00464,0.003664,0.0,0.0,0.0,0.0,0.0,0.0,3.0,0.307896,0.341451,0.30049,0.348715,0.0,0.0,-0.0,-0.0,-0.0,-0.0,0.0,0.0,0.0,0.0,0.0,0.0
46391,-0.00048,0.004518,0.003786,0.0,0.0,0.0,0.0,0.0,0.0,3.0,0.297167,0.348471,0.295477,0.354618,0.0,0.0,-0.0,-0.0,-0.0,-0.0,0.0,0.0,0.0,0.0,0.0,0.0
46411,-0.00048,0.00464,0.003786,0.0,0.0,0.0,0.0,0.0,0.0,3.0,0.304213,0.343968,0.30198,0.34812,0.0,0.0,-0.0,-0.0,-0.0,0.0,0.0,0.0,0.0,0.0,0.0,0.0
46431,-0.00048,0.00464,0.003786,0.0,0.0,0.0,0.0,0.0,0.0,3.0,0.308813,0.341784,0.298957,0.348862,0.0,0.0,-0.0,-0.0,-0.0,-0.0,0.0,0.0,0.0,0.0,0.0,0.0
46451,-0.00048,0.004518,0.003786,0.0,0.0,0.0,0.0,0.0,0.0,3.0,0.30492,0.344865,0.302994,0.345797,0.0,0.0,-0.0,-0.0,-0.0,-0.0,0.0,0.0,0.0,0.0,0.0,0.0
46471,-0.000602,0.004396,0.003908,0.0,0.0,0.0,0.0,0.0,0.0,3.0,0.302884,0.345759,0.304968,0.344955,0.0,0.0,-0.0,-0.0,-0.0,0.0,0.0,0.0,0.0,0.0,0.0,0.0
46491,-0.000602,0.004274,0.003908,0.0,0.0,0.0,0.0,0.0,0.0,3.0,0.303304,0.342785,0.302301,0.349767,0.0,0.0,-0.0,-0.0,-0.0,0.0,0.0,0.0,0.0,0.0,0.0,0.0
46511,-0.000602,0.004274,0.003908,0.0,0.0,0.0,0.0,0.0,0.0,3.0,0.308719,0.34514,0.298446,0.346054,0.0,0.0,-0.0,-0.0,-0.0,0.0,0.0,0.0,0.0,0.0,0.0,0.0
46531,-0.000602,0.004396,0.003908,0.0,0.0,0.0,0.0,0.0,0.0,3.0,0.305112,0.345788,0.294274,0.351783,0.0,0.0,-0.0,-0.0,-0.0,0.0,0.0,0.0,0.0,0.0,0.0,0.0
46551,-0.000358,0.004395,0.003908,0.0,0.0,0.0,0.0,0.0,0.0,3.0,0.303604,0.345159,0.303129,0.346497,0.0,0.0,-0.0,-0.0,-0.0,0.0,0.0,0.0,0.0,0.0,0.0,0.0
46571,-0.000235,0.004395,0.00403,0.0,0.0,0.0,0.0,0.0,0.0,3.0,0.302744,0.347397,0.300261,0.347351,0.0,0.0,-0.0,-0.0,-0.0,0.0,0.0,0.0,0.0,0.0,0.0,0.0
46591,-0.000113,0.004395,0.004029,0.0,0.0,0.0,0.0,0.0,0.0,3.0,0.302193,0.345951,0.304374,0.345841,0.0,0.0,-0.0,-0.0,-0.0,0.0,0.0,0.0,0.0,0.0,0.0,0.0
46611,-0.000113,0.004395,0.004029,0.0,0.0,0.0,0.0,0.0,0.0,3.0,0.300263,0.347403,0.298683,0.350659,0.0,0.0,-0.0,-0.0,-0.0,0.0,0.0,0.0,0.0,0.0,0.0,0.0
46631,-0.000114,0.004273,0.003907,0.0,0.0,0.0,0.0,0.0,0.0,3.0,0.309625,0.338017,0.297547,0.347172,0.0,0.0,-0.0,-0.0,-0.0,0.0,0.0,0.0,0.0,0.0,0.0,0.0
46651,-0.000236,0.004151,0.00403,0.0,0.0,0.0,0.0,0.0,0.0,3.0,0.306582,0.348647,0.293832,0.348078,0.0,0.0,-0.0,-0.0,-0.0,0.0,0.0,0.0,0.0,0.0,0.0,0.0
46671,-0.000358,0.004273,0.00403,0.0,0.0,0.0,0.0,0.0,0.0,3.0,0.307748,0.344684,0.29416,0.35076,0.0,0.0,-0.0,-0.0,-0.0,0.0,0.0,0.0,0.0,0.0,0.0,0.0
46691,-0.000479,0.004396,0.00403,0.0,0.0,0.0,0.0,0.0,0.0,3.0,0.30704,0.3451,0.298893,0.347158,0.0,0.0,-0.0,-0.0,-0.0,0.0,0.0,0.0,0.0,0.0,0.0,0.0
46711,-0.000357,0.00464,0.00403,0.0,0.0,0.0,0.0,0.0,0.0,3.0,0.306614,0.34254,0.299483,0.349552,0.0,-0.0,-0.0,-0.0,-0.0,0.0,0.0,0.0,0.0,0.0,0.0,0.0
46731,-0.000357,0.00464,0.003908,0.0,0.0,0.0,0.0,0.0,0.0,3.0,0.306843,0.345238,0.29916,0.34697,0.0,-0.0,-0.0,-0.0,-0.0,0.0,0.0,0.0,0.0,0.0,0.0,0.0
46751,9e-06,0.004517,0.003907,0.0,0.0,0.0,0.0,0.0,0.0,3.0,0.309285,0.339303,0.309204,0.342279,0.0,-0.0,-0.0,-0.0,-0.0,0.0,0.0,0.0,0.0,0.0,0.0,0.0
46771,9e-06,0.004517,0.004029,0.0,0.0,0.0,0.0,0.0,0.0,3.0,0.299659,0.349783,0.29214,0.353943,0.0,-0.0,-0.0,-0.0,-0.0,0.0,0.0,0.0,0.0,0.0,0.0,0.0
46791,0.000252,0.004272,0.003906,0.0,0.0,0.0,0.0,0.0,0.0,3.0,0.306639,0.342526,0.302718,0.346891,0.0,-0.0,-0.0,-0.0,-0.0,0.0,0.0,0.0,0.0,0.0,0.0,0.0
46811,0.00013,0.00415,0.003907,0.0,0.0,0.0,0.0,0.0,0.0,3.0,0.307607,0.343821,0.294406,0.351526,0.0,-0.0,-0.0,-0.0,-0.0,0.0,0.0,0.0,0.0,0.0,0.0,0.0
46831,8e-06,0.004273,0.003907,0.0,0.0,0.0,0.0,0.0,0.0,3.0,0.300166,0.349976,0.291445,0.353882,0.0,-0.0,-0.0,-0.0,-0.0,0.0,0.0,0.0,0.0,0.0,0.0,0.0
46851,-0.000113,0.004395,0.003907,0.0,0.0,0.0,0.0,0.0,0.0,3.0,0.309626,0.343945,0.298894,0.352233,0.0,-0.0,-0.0,-0.0,-0.0,0.0,0.0,0.0,0.0,0.0,0.0,0.0
46871,-0.000235,0.004517,0.003907,0.0,0.0,0.0,0.0,0.0,0.0,3.0,0.306234,0.345855,0.293344,0.351517,0.0,-0.0,-0.0,-0.0,-0.0,0.0,0.0,0.0,0.0,0.0,0.0,0.0
46891,-0.000235,0.004639,0.003908,0.0,0.0,0.0,0.0,0.0,0.0,3.0,0.302156,0.349425,0.300616,0.347925,0.0,-0.0,-0.0,-0.0,-0.0,0.0,0.0,0.0,0.0,0.0,0.0,0.0
46911,9e-06,0.004639,0.003907,0.0,0.0,0.0,0.0,0.0,0.0,3.0,0.307592,0.340105,0.300065,0.350617,0.0,-0.0,-0.0,-0.0,-0.0,0.0,0.0,0.0,0.0,0.0,0.0,0.0
46931,0.000131,0.004639,0.003907,0.0,0.0,0.0,0.0,0.0,0.0,3.0,0.302083,0.343745,0.301473,0.350509,-0.0,-0.0,-0.0,-0.0,-0.0,0.0,0.0,0.0,0.0,0.0,0.0,0.0
46951,0.000497,0.004272,0.003906,0.0,0.0,0.0,0.0,0.0,0.0,3.0,0.299985,0.347379,0.301301,0.348783,-0.0,-0.0,-0.0,-0.0,-0.0,-0.0,0.0,0.0,0.0,0.0,0.0,0.0
46971,0.000496,0.004272,0.003784,0.0,0.0,0.0,0.0,0.0,0.0,3.0,0.306055,0.342388,0.302861,0.347401,-0.0,-0.0,-0.0,-0.0,-0.0,-0.0,0.0,0.0,0.0,0.0,0.0,0.0
46991,0.000741,0.004393,0.003661,0.0,0.0,0.0,0.0,0.0,0.0,3.0,0.308691,0.341239,0.304583,0.344846,-0.0,-0.0,-0.0,-0.0,-0.0,-0.0,0.0,0.0,0.0,0.0,0.0,0.0
47011,0.000497,0.00476,0.003662,0.0,0.0,0.0,0.0,0.0,0.0,3.0,0.308355,0.341826,0.29733,0.350517,-0.0,-0.0,-0.0,-0.0,-0.0,-0.0,0.0,0.0,0.0,0.0,0.0,0.0
47031,0.000498,0.005126,0.003662,0.0,0.0,0.0,0.0,0.0,0.0,3.0,0.305994,0.343205,0.299249,0.349611,-0.0,-0.0,-0.0,-0.0,-0.0,-0.0,0.0,0.0,0.0,0.0,0.0,0.0
47051,0.000498,0.005248,0.003661,0.0,0.0,0.0,0.0,0.0,0.0,3.0,0.304789,0.339813,0.30138,0.347952,-0.0,-0.0,-0.0,-0.0,-0.0,0.0,0.0,0.0,0.0,0.0,0.0,0.0
47071,0.000497,0.005004,0.003662,0.0,0.0,0.0,0.0,0.0,0.0,3.0,0.304202,0.342905,0.30876,0.343456,-0.0,-0.0,-0.0,-0.0,-0.0,0.0,0.0,0.0,0.0,0.0,0.0,0.0
47091,0.000619,0.00476,0.003539,0.0,0.0,0.0,0.0,0.0,0.0,3.0,0.307288,0.344373,0.300957,0.345973,-0.0,-0.0,-0.0,-0.0,-0.0,0.0,0.0,0.0,0.0,0.0,0.0,0.0
47111,0.000984,0.004393,0.003539,0.0,0.0,0.0,0.0,0.0,0.0,3.0,0.299103,0.345715,0.306427,0.346893,-0.0,-0.0,-0.0,-0.0,-0.0,0.0,0.0,0.0,0.0,0.0,0.0,0.0
47131,0.001106,0.004515,0.003416,0.0,0.0,0.0,0.0,0.0,0.0,3.0,0.308825,0.337222,0.311589,0.342639,-0.0,-0.0,-0.0,-0.0,-0.0,0.0,0.0,0.0,0.0,0.0,0.0,0.0
47151,0.001351,0.004637,0.003415,0.0,0.0,0.0,0.0,0.0,0.0,3.0,0.300365,0.340902,0.305807,0.351096,-0.0,-0.0,-0.0,-0.0,-0.0,0.0,0.0,0.0,0.0,0.0,0.0,0.0
47171,0.001351,0.004881,0.003415,0.0,0.0,0.0,0.0,0.0,0.0,3.0,0.305842,0.339066,0.299258,0.353706,-0.0,-0.0,-0.0,-0.0,-0.0,0.0,0.0,0.0,0.0,0.0,0.0,0.0
47191,0.001473,0.005125,0.003293,0.0,0.0,0.0,0.0,0.0,0.0,3.0,0.310755,0.335995,0.30959,0.343901,-0.0,-0.0,-0.0,-0.0,-0.0,0.0,0.0,0.0,0.0,0.0,0.0,0.0
47211,0.001473,0.005125,0.003049,0.0,0.0,0.0,0.0,0.0,0.0,3.0,0.312597,0.340477,0.301101,0.345123,-0.0,-0.0,-0.0,-0.0,-0.0,0.0,0.0,0.0,0.0,0.0,0.0,0.0
47231,0.001473,0.005125,0.003049,0.0,0.0,0.0,0.0,0.0,0.0,3.0,0.309672,0.342298,0.298059,0.348357,-0.0,-0.0,-0.0,-0.0,-0.0,0.0,0.0,0.0,0.0,0.0,0.0,0.0
47251,0.001472,0.004759,0.002927,0.0,0.0,0.0,0.0,0.0,0.0,3.0,0.306928,0.342583,0.307386,0.337934,-0.0,-0.0,-0.0,-0.0,-0.0,0.0,0.0,0.0,0.0,0.0,0.0,0.0
47271,0.001716,0.004514,0.002926,0.0,0.0,0.0,0.0,0.0,0.0,3.0,0.305123,0.344076,0.301378,0.347748,-0.0,-0.0,-0.0,-0.0,-0.0,0.0,0.0,0.0,0.0,0.0,0.0,0.0
47291,0.001594,0.004637,0.003049,0.0,0.0,0.0,0.0,0.0,0.0,3.0,0.300441,0.351571,0.289029,0.353927,-0.0,-0.0,-0.0,-0.0,-0.0,0.0,0.0,0.0,0.0,0.0,0.0,0.0
47311,0.001716,0.004881,0.002926,0.0,0.0,0.0,0.0,0.0,0.0,3.0,0.307425,0.34224,0.296633,0.351451,-0.0,-0.0,-0.0,-0.0,-0.0,0.0,0.0,0.0,0.0,0.0,0.0,0.0
47331,0.001595,0.005369,0.002804,0.0,0.0,0.0,0.0,0.0,0.0,3.0,0.314486,0.331824,0.298557,0.352778,-0.0,-0.0,-0.0,-0.0,-0.0,0.0,0.0,0.0,0.0,0.0,0.0,0.0
47351,0.001594,0.005369,0.002682,0.0,0.0,0.0,0.0,0.0,0.0,3.0,0.307313,0.341421,0.300112,0.349542,-0.0,-0.0,-0.0,-0.0,-0.0,0.0,0.0,0.0,0.0,0.0,0.0,0.0
47371,0.001594,0.005369,0.002682,0.0,0.0,0.0,0.0,0.0,0.0,3.0,0.306609,0.340642,0.301013,0.350152,-0.0,-0.0,-0.0,-0.0,-0.0,0.0,0.0,0.0,0.0,0.0,0.0,0.0
47391,0.001838,0.005125,0.002681,0.0,0.0,0.0,0.0,0.0,0.0,3.0,0.303209,0.346894,0.302472,0.345639,-0.0,-0.0,-0.0,-0.0,-0.0,0.0,0.0,0.0,0.0,0.0,0.0,0.0
47411,0.001838,0.005003,0.002681,0.0,0.0,0.0,0.0,0.0,0.0,3.0,0.307918,0.342503,0.297405,0.350169,-0.0,-0.0,0.0,-0.0,-0.0,0.0,0.0,0.0,0.0,0.0,0.0,0.0
47431,0.001959,0.004759,0.002559,0.0,0.0,0.0,0.0,0.0,0.0,3.0,0.306845,0.341994,0.302583,0.347351,-0.0,-0.0,0.0,-0.0,-0.0,0.0,0.0,0.0,0.0,0.0,0.0,0.0
47451,0.002082,0.00488,0.002559,0.0,0.0,0.0,0.0,0.0,0.0,3.0,0.30613,0.341316,0.299624,0.351027,-0.0,-0.0,0.0,-0.0,-0.0,0.0,0.0,0.0,0.0,0.0,0.0,0.0
47471,0.002081,0.004758,0.002437,0.0,0.0,0.0,0.0,0.0,0.0,3.0,0.304144,0.346054,0.297442,0.34981,-0.0,-0.0,0.0,-0.0,-0.0,0.0,0.0,0.0,0.0,0.0,0.0,0.0
47491,0.001959,0.005003,0.002437,0.0,0.0,0.0,0.0,0.0,0.0,3.0,0.31023,0.341557,0.296838,0.349584,-0.0,-0.0,0.0,-0.0,-0.0,0.0,0.0,0.0,0.0,0.0,0.0,0.0
47511,0.001959,0.005125,0.002437,0.0,0.0,0.0,0.0,0.0,0.0,3.0,0.311625,0.340029,0.29783,0.349076,-0.0,-0.0,0.0,-0.0,-0.0,0.0,0.0,0.0,0.0,0.0,0.0,0.0
47531,0.001715,0.005369,0.002315,0.0,0.0,0.0,0.0,0.0,0.0,3.0,0.309774,0.34159,0.297923,0.349071,-0.0,-0.0,0.0,-0.0,-0.0,0.0,0.0,0.0,0.0,0.0,0.0,0.0
47551,0.001838,0.005247,0.002437,0.0,0.0,0.0,0.0,0.0,0.0,3.0,0.301472,0.348325,0.296348,0.35063,-0.0,-0.0,0.0,-0.0,-0.0,0.0,0.0,0.0,0.0,0.0,0.0,0.0
47571,0.001837,0.005247,0.002315,0.0,0.0,0.0,0.0,0.0,0.0,3.0,0.305927,0.340795,0.301354,0.350296,-0.0,-0.0,0.0,-0.0,-0.0,0.0,0.0,0.0,0.0,0.0,0.0,0.0
47591,0.001837,0.005003,0.002315,0.0,0.0,0.0,0.0,0.0,0.0,3.0,0.300032,0.345743,0.305769,0.34666,-0.0,-0.0,0.0,-0.0,-0.0,0.0,0.0,0.0,0.0,0.0,0.0,0.0
47611,0.001959,0.004881,0.002315,0.0,0.0,0.0,0.0,0.0,0.0,3.0,0.298411,0.347188,0.299404,0.351781,-0.0,-0.0,0.0,-0.0,-0.0,0.0,0.0,0.0,0.0,0.0,0.0,0.0
47631,0.002081,0.004881,0.002193,0.0,0.0,0.0,0.0,0.0,0.0,3.0,0.305058,0.340159,0.30779,0.346276,-0.0,-0.0,0.0,-0.0,-0.0,0.0,0.0,0.0,0.0,0.0,0.0,0.0
47651,0.002081,0.004881,0.002193,0.0,0.0,0.0,0.0,0.0,0.0,3.0,0.300889,0.34298,0.305216,0.349147,-0.0,-0.0,0.0,-0.0,-0.0,0.0,0.0,0.0,0.0,0.0,0.0,0.0
47671,0.002081,0.005003,0.002192,0.0,0.0,0.0,0.0,0.0,0.0,3.0,0.305679,0.341407,0.299874,0.351112,-0.0,-0.0,0.0,-0.0,-0.0,0.0,0.0,0.0,0.0,0.0,0.0,0.0
47691,0.001837,0.005125,0.002193,0.0,0.0,0.0,0.0,0.0,0.0,3.0,0.307626,0.342953,0.297715,0.349727,-0.0,-0.0,0.0,-0.0,-0.0,0.0,0.0,0.0,0.0,0.0,0.0,0.0
47711,0.001959,0.005125,0.002193,0.0,0.0,0.0,0.0,0.0,0.0,3.0,0.302728,0.343115,0.299826,0.349578,-0.0,-0.0,0.0,-0.0,-0.0,0.0,0.0,0.0,0.0,0.0,0.0,0.0
47731,0.001837,0.005003,0.002193,0.0,0.0,0.0,0.0,0.0,0.0,3.0,0.30125,0.347513,0.296346,0.351615,-0.0,-0.0,0.0,-0.0,-0.0,0.0,0.0,0.0,0.0,0.0,0.0,0.0
47751,0.00208,0.004881,0.002071,0.0,0.0,0.0,0.0,0.0,0.0,3.0,0.309695,0.338274,0.310046,0.342203,-0.0,-0.0,0.0,-0.0,-0.0,0.0,0.0,0.0,0.0,0.0,0.0,0.0
47771,0.00208,0.004881,0.002071,0.0,0.0,0.0,0.0,0.0,0.0,3.0,0.29735,0.351559,0.293194,0.353206,-0.0,-0.0,0.0,-0.0,-0.0,0.0,0.0,0.0,0.0,0.0,0.0,0.0
47791,0.002325,0.005125,0.002192,0.0,0.0,0.0,0.0,0.0,0.0,3.0,0.293998,0.344485,0.296724,0.359927,-0.0,-0.0,0.0,-0.0,-0.0,0.0,0.0,0.0,0.0,0.0,0.0,0.0
47811,0.002203,0.005247,0.002192,0.0,0.0,0.0,0.0,0.0,0.0,3.0,0.304662,0.340926,0.299606,0.352628,-0.0,-0.0,0.0,-0.0,-0.0,0.0,0.0,0.0,0.0,0.0,0.0,0.0
47831,0.002081,0.005369,0.00207,0.0,0.0,0.0,0.0,0.0,0.0,3.0,0.311888,0.333953,0.308506,0.345813,-0.0,-0.0,0.0,-0.0,-0.0,0.0,0.0,0.0,0.0,0.0,0.0,0.0
47851,0.001959,0.005369,0.00207,0.0,0.0,0.0,0.0,0.0,0.0,3.0,0.309743,0.340841,0.300172,0.347999,-0.0,-0.0,0.0,-0.0,-0.0,0.0,0.0,0.0,0.0,0.0,0.0,0.0
47871,0.001837,0.005247,0.002071,0.0,0.0,0.0,0.0,0.0,0.0,3.0,0.305728,0.344617,0.299744,0.348047,-0.0,-0.0,0.0,-0.0,-0.0,-0.0,0.0,0.0,0.0,0.0,0.0,0.0
47891,0.001592,0.005004,0.002072,0.0,0.0,0.0,0.0,0.0,0.0,3.0,0.307164,0.343158,0.297902,0.349764,-0.0,-0.0,0.0,-0.0,-0.0,-0.0,0.0,0.0,0.0,0.0,0.0,0.0
47911,0.001592,0.005004,0.002072,0.0,0.0,0.0,0.0,0.0,0.0,3.0,0.310444,0.342679,0.302402,0.343738,-0.0,-0.0,0.0,-0.0,-0.0,-0.0,0.0,0.0,0.0,0.0,0.0,0.0
47931,0.001592,0.005126,0.001949,0.0,0.0,0.0,0.0,0.0,0.0,3.0,0.306524,0.337665,0.3057,0.349218,-0.0,-0.0,0.0,-0.0,-0.0,-0.0,0.0,0.0,0.0,0.0,0.0,0.0
47951,0.001714,0.005248,0.001949,0.0,0.0,0.0,0.0,0.0,0.0,3.0,0.3033,0.343466,0.302839,0.348661,-0.0,-0.0,0.0,-0.0,-0.0,-0.0,0.0,0.0,0.0,0.0,0.0,0.0
47971,0.001836,0.005248,0.001949,0.0,0.0,0.0,0.0,0.0,0.0,3.0,0.305641,0.342715,0.299557,0.350134,-0.0,-0.0,0.0,-0.0,-0.0,-0.0,0.0,0.0,0.0,0.0,0.0,0.0
47991,0.001714,0.005248,0.001949,0.0,0.0,0.0,0.0,0.0,0.0,3.0,0.304064,0.342947,0.301088,0.349973,-0.0,-0.0,0.0,-0.0,-0.0,-0.0,0.0,0.0,0.0,0.0,0.0,0.0
48011,0.001714,0.00537,0.001949,0.0,0.0,0.0,0.0,0.0,0.0,3.0,0.30731,0.342981,0.297641,0.350024,-0.0,-0.0,0.0,-0.0,-0.0,-0.0,0.0,0.0,0.0,0.0,0.0,0.0
48031,0.001714,0.005248,0.001949,0.0,0.0,0.0,0.0,0.0,0.0,3.0,0.314319,0.338378,0.30187,0.345025,-0.0,-0.0,0.0,-0.0,-0.0,-0.0,0.0,0.0,0.0,0.0,0.0,0.0
48051,0.00147,0.005248,0.00195,0.0,0.0,0.0,0.0,0.0,0.0,3.0,0.30903,0.339423,0.304265,0.3466,-0.0,-0.0,0.0,-0.0,-0.0,-0.0,0.0,0.0,0.0,0.0,0.0,0.0
48071,0.00147,0.005126,0.00195,0.0,0.0,0.0,0.0,0.0,0.0,3.0,0.304298,0.344028,0.296319,0.347686,-0.0,-0.0,0.0,-0.0,-0.0,-0.0,0.0,0.0,0.0,0.0,0.0,0.0
48091,0.001348,0.005004,0.00195,0.0,0.0,0.0,0.0,0.0,0.0,3.0,0.306245,0.34544,0.298585,0.347742,-0.0,-0.0,0.0,-0.0,-0.0,-0.0,0.0,0.0,0.0,0.0,0.0,0.0
48111,0.00147,0.005004,0.00195,0.0,0.0,0.0,0.0,0.0,0.0,3.0,0.307693,0.343206,0.296981,0.350012,-0.0,-0.0,0.0,-0.0,-0.0,-0.0,0.0,0.0,0.0,0.0,0.0,0.0
48131,0.001347,0.005004,0.001828,0.0,0.0,0.0,0.0,0.0,0.0,3.0,0.307427,0.343066,0.297212,0.350187,-0.0,-0.0,0.0,-0.0,-0.0,-0.0,0.0,0.0,0.0,0.0,0.0,0.0
48151,0.00147,0.005004,0.001828,0.0,0.0,0.0,0.0,0.0,0.0,3.0,0.299436,0.345449,0.299544,0.35255,-0.0,-0.0,0.0,-0.0,-0.0,-0.0,0.0,0.0,0.0,0.0,0.0,0.0
48171,0.001714,0.005004,0.001827,0.0,0.0,0.0,0.0,0.0,0.0,3.0,0.302617,0.343889,0.295856,0.35442,-0.0,-0.0,0.0,-0.0,-0.0,-0.0,0.0,0.0,0.0,0.0,0.0,0.0
48191,0.001592,0.005126,0.001827,0.0,0.0,0.0,0.0,0.0,0.0,3.0,0.309109,0.336246,0.30489,0.349067,-0.0,-0.0,0.0,-0.0,-0.0,-0.0,0.0,0.0,0.0,0.0,0.0,0.0
48211,0.001592,0.005248,0.001827,0.0,0.0,0.0,0.0,0.0,0.0,3.0,0.311168,0.336584,0.301721,0.349608,-0.0,-0.0,0.0,-0.0,-0.0,-0.0,0.0,0.0,0.0,0.0,0.0,0.0
48231,0.00147,0.005126,0.00195,0.0,0.0,0.0,0.0,0.0,0.0,3.0,0.302635,0.34667,0.294587,0.352704,-0.0,-0.0,0.0,-0.0,-0.0,-0.0,0.0,0.0,0.0,0.0,0.0,0.0
48251,0.00147,0.005126,0.00195,0.0,0.0,0.0,0.0,0.0,0.0,3.0,0.306911,0.344113,0.296997,0.34977,-0.0,-0.0,0.0,-0.0,0.0,-0.0,0.0,0.0,0.0,0.0,0.0,0.0
48271,0.001348,0.004882,0.00195,0.0,0.0,0.0,0.0,0.0,0.0,3.0,0.306157,0.345392,0.298169,0.3482,-0.0,-0.0,0.0,-0.0,-0.0,-0.0,0.0,0.0,0.0,0.0,0.0,0.0
48291,0.001348,0.004882,0.00195,0.0,0.0,0.0,0.0,0.0,0.0,3.0,0.302095,0.348333,0.290404,0.354741,-0.0,-0.0,0.0,-0.0,0.0,-0.0,0.0,0.0,0.0,0.0,0.0,0.0
48311,0.001225,0.004882,0.001828,0.0,0.0,0.0,0.0,0.0,0.0,3.0,0.308843,0.343459,0.298691,0.347413,-0.0,-0.0,0.0,-0.0,-0.0,-0.0,0.0,0.0,0.0,0.0,0.0,0.0
48331,0.001348,0.005004,0.00195,0.0,0.0,0.0,0.0,0.0,0.0,3.0,0.295786,0.348668,0.293069,0.357361,-0.0,-0.0,0.0,-0.0,0.0,-0.0,0.0,0.0,0.0,0.0,0.0,0.0
48351,0.001348,0.005126,0.00195,0.0,0.0,0.0,0.0,0.0,0.0,3.0,0.302831,0.345307,0.296558,0.352323,-0.0,-0.0,0.0,-0.0,0.0,-0.0,0.0,0.0,0.0,0.0,0.0,0.0
48371,0.001348,0.005126,0.00195,0.0,0.0,0.0,0.0,0.0,0.0,3.0,0.3011,0.344035,0.302862,0.349892,-0.0,-0.0,0.0,-0.0,0.0,-0.0,0.0,0.0,0.0,0.0,0.0,0.0
48391,0.00147,0.005126,0.00195,0.0,0.0,0.0,0.0,0.0,0.0,3.0,0.301996,0.343111,0.29829,0.353752,-0.0,-0.0,0.0,-0.0,0.0,-0.0,0.0,0.0,0.0,0.0,0.0,0.0
48411,0.001592,0.005004,0.001827,0.0,0.0,0.0,0.0,0.0,0.087266,3.0,0.9,0.15,0.9,0.15,-0.0,-0.0,0.000222,-0.0,-0.0,0.088803,0.0,0.0,0.0,0.0,0.0,0.0
48431,0.00184,0.005246,0.003536,0.0,0.0,0.0,0.0,0.0,0.087266,3.0,0.352433,0.292671,0.345887,0.305721,-0.0,-0.0,0.003887,-0.0,-0.0,0.184691,0.0,0.0,0.0,0.0,0.0,0.0
48451,0.002098,0.00524,0.008663,0.0,0.0,0.0,0.0,0.0,0.087266,3.0,0.198375,0.397778,0.22122,0.404457,-0.0,-0.0,0.006662,-0.0,-0.0,0.183071,0.0,0.0,0.0,0.0,0.0,0.0
48471,0.00199,0.005235,0.013913,0.0,0.0,0.0,0.0,0.0,0.087266,3.0,0.167958,0.413475,0.15,0.422267,-0.0,-0.0,0.011127,0.0,-0.0,0.173945,0.0,0.0,0.0,0.0,0.0,0.0
48491,0.00175,0.004991,0.016355,0.0,0.0,0.0,0.0,0.0,0.087266,3.0,0.288382,0.360616,0.279782,0.360947,-0.0,-0.0,0.013666,0.0,-0.0,0.164784,0.0,0.0,0.0,0.0,0.0,0.0
48511,0.001507,0.004993,0.016721,0.0,0.0,0.0,0.0,0.0,0.087266,3.0,0.36431,0.282927,0.355362,0.28781,-0.0,-0.0,0.01768,0.0,0.0,0.154487,0.0,0.0,0.0,0.0,0.0,0.0
48531,0.001266,0.005361,0.016844,0.0,0.0,0.0,0.0,0.0,0.087266,3.0,0.369599,0.26764,0.35997,0.288583,-0.0,-0.0,0.019969,0.0,0.0,0.148899,0.0,0.0,0.0,0.0,0.0,0.0
48551,0.001515,0.005602,0.01782,0.0,0.0,0.0,0.0,0.0,0.087266,3.0,0.344235,0.297936,0.346681,0.30952,-0.0,-0.0,0.022895,0.0,0.0,0.142057,0.0,0.0,0.0,0.0,0.0,0.0
48571,0.001639,0.005233,0.019894,0.0,0.0,0.0,0.0,0.0,0.087266,3.0,0.309394,0.338493,0.308039,0.34399,-0.0,-0.0,0.025688,0.0,0.0,0.135834,0.0,0.0,0.0,0.0,0.0,0.0
48591,0.001888,0.005106,0.022339,0.0,0.0,0.0,0.0,0.0,0.087266,3.0,0.291788,0.353768,0.290213,0.357603,-0.0,-0.0,0.028362,0.0,0.0,0.130156,0.0,0.0,0.0,0.0,0.0,0.0
48611,0.002015,0.005103,0.024169,0.0,0.0,0.0,0.0,0.0,0.087266,3.0,0.310093,0.334004,0.31137,0.344849,-0.0,-0.0,0.030925,0.0,0.0,0.124957,0.0,0.0,0.0,0.0,0.0,0.0
48631,0.002018,0.005102,0.025267,0.0,0.0,0.0,0.0,0.0,0.087266,3.0,0.330937,0.314712,0.331097,0.325044,-0.0,-0.0,0.033388,0.0,0.0,0.120179,0.0,0.0,0.0,0.0,0.0,0.0
48651,0.002024,0.005345,0.026487,0.0,0.0,0.0,0.0,0.0,0.087266,3.0,0.342409,0.303005,0.335001,0.319836,-0.0,-0.0,0.035758,0.0,0.0,0.115773,0.0,0.0,0.0,0.0,0.0,0.0
48671,0.001909,0.005589,0.027952,0.0,0.0,0.0,0.0,0.0,0.087266,3.0,0.325336,0.324271,0.319885,0.332497,-0.0,-0.0,0.038042,0.0,0.0,0.111694,0.0,0.0,0.0,0.0,0.0,0.0
48691,0.001551,0.005837,0.029539,0.0,0.0,0.0,0.0,0.0,0.087266,3.0,0.317832,0.330116,0.309748,0.34313,-0.0,-0.0,0.040247,0.0,0.0,0.107903,0.0,0.0,0.0,0.0,0.0,0.0
48711,0.001552,0.005592,0.031253,0.0,0.0,0.0,0.0,0.0,0.087266,3.0,0.314277,0.337545,0.306381,0.342056,-0.0,-0.0,0.042378,0.0,0.0,0.104367,0.0,0.0,0.0,0.0,0.0,0.0
48731,0.001429,0.005227,0.032718,0.0,0.0,0.0,0.0,0.0,0.087266,3.0,0.323765,0.328918,0.314249,0.334754,-0.0,-0.0,0.044441,0.0,0.0,0.101056,0.0,0.0,0.0,0.0,0.0,0.0
48751,0.001305,0.004984,0.033938,0.0,0.0,0.0,0.0,0.0,0.087266,3.0,0.324454,0.326841,0.317396,0.333202,-0.0,-0.0,0.046438,0.0,0.0,0.097944,0.0,0.0,0.0,0.0,0.0,0.0
48771,0.001549,0.004734,0.03528,0.0,0.0,0.0,0.0,0.0,0.087266,3.0,0.321718,0.326713,0.32026,0.333252,-0.0,-0.0,0.04885,0.0,0.0,0.0943,0.0,0.0,0.0,0.0,0.0,0.0
48791,0.001554,0.004855,0.036499,0.0,0.0,0.0,0.0,0.0,0.087266,3.0,0.326896,0.317276,0.328172,0.32962,-0.0,-0.0,0.050254,0.0,0.0,0.09223,0.0,0.0,0.0,0.0,0.0,0.0
48811,0.001681,0.004974,0.037847,0.0,0.0,0.0,0.0,0.0,0.087266,3.0,0.324025,0.320551,0.327174,0.3303,-0.0,-0.0,0.052078,0.0,0.0,0.089591,0.0,0.0,0.0,0.0,0.0,0.0
48831,0.001567,0.00522,0.039189,0.0,0.0,0.0,0.0,0.0,0.087266,3.0,0.324698,0.322164,0.318082,0.336809,-0.0,-0.0,0.053851,0.0,0.0,0.087076,0.0,0.0,0.0,0.0,0.0,0.0
48851,0.0017,0.005582,0.040408,0.0,0.0,0.0,0.0,0.0,0.087266,3.0,0.328585,0.315106,0.327008,0.331144,-0.0,-0.0,0.055575,0.0,0.0,0.084671,0.0,0.0,0.0,0.0,0.0,0.0
48871,0.001579,0.005462,0.041506,0.0,0.0,0.0,0.0,0.0,0.087266,3.0,0.329407,0.318696,0.328795,0.32511,-0.0,-0.0,0.057662,0.0,0.0,0.081804,0.0,0.0,0.0,0.0,0.0,0.0
48891,0.00146,0.005463,0.042726,0.0,0.0,0.0,0.0,0.0,0.087266,3.0,0.328941,0.321057,0.320453,0.331514,-0.0,-0.0,0.058881,0.0,0.0,0.080149,0.0,0.0,0.0,0.0,0.0,0.0
48911,0.00133,0.004977,0.043954,0.0,0.0,0.0,0.0,0.0,0.087266,3.0,0.323435,0.32747,0.31773,0.333256,-0.0,-0.0,0.060468,0.0,0.0,0.078013,0.0,0.0,0.0,0.0,0.0,0.0
48931,0.001575,0.004849,0.045173,0.0,0.0,0.0,0.0,0.0,0.087266,3.0,0.328012,0.31889,0.325833,0.329289,-0.0,-0.0,0.062013,0.0,0.0,0.075948,0.0,0.0,0.0,0.0,0.0,0.0
48951,0.001577,0.004848,0.04627,0.0,0.0,0.0,0.0,0.0,0.087266,3.0,0.322761,0.327098,0.318791,0.333269,-0.0,-0.0,0.063516,0.0,0.0,0.07395,0.0,0.0,0.0,0.0,0.0,0.0
48971,0.00158,0.004847,0.047368,0.0,0.0,0.0,0.0,0.0,0.087266,3.0,0.327986,0.319141,0.321116,0.333641,-0.0,-0.0,0.065341,0.0,0.0,0.071534,0.0,0.0,0.0,0.0,0.0,0.0
48991,0.001589,0.00509,0.048465,0.0,0.0,0.0,0.0,0.0,0.087266,3.0,0.329682,0.317679,0.32547,0.329137,-0.0,-0.0,0.066407,0.0,0.0,0.070126,0.0,0.0,0.0,0.0,0.0,0.0
49011,0.001598,0.005333,0.04957,0.0,0.0,0.0,0.0,0.0,0.087266,3.0,0.326316,0.318329,0.326141,0.331196,-0.0,-0.0,0.067795,0.0,0.0,0.068291,0.0,0.0,0.0,0.0,0.0,0.0
49031,0.001478,0.005336,0.050668,0.0,0.0,0.0,0.0,0.0,0.087266,3.0,0.329238,0.319121,0.323142,0.330481,-0.0,-0.0,0.069148,0.0,0.0,0.066502,0.0,0.0,0.0,0.0,0.0,0.0
49051,0.001234,0.005219,0.051522,0.0,0.0,0.0,0.0,0.0,0.087266,3.0,0.335564,0.318726,0.322845,0.324702,-0.0,-0.0,0.070465,0.0,0.0,0.064756,0.0,0.0,0.0,0.0,0.0,0.0
49071,0.000982,0.004859,0.052376,0.0,0.0,0.0,0.0,0.0,0.087266,3.0,0.339645,0.315816,0.327131,0.318857,-0.0,-0.0,0.071747,0.0,0.0,0.063049,0.0,0.0,0.0,0.0,0.0,0.0
49091,0.000361,0.004387,0.05323,0.0,0.0,0.0,0.0,0.0,0.087266,3.0,0.338769,0.320174,0.321067,0.321651,-0.0,-0.0,0.072995,0.0,0.0,0.061379,0.0,0.0,0.0,0.0,0.0,0.0
49111,-0.000261,0.003915,0.053973,0.0,0.0,0.0,0.0,0.0,0.087266,3.0,0.342886,0.317103,0.323022,0.318247,-0.0,-0.0,0.074509,0.0,0.0,0.05934,0.0,0.0,0.0,0.0,0.0,0.0
49131,-0.000876,0.003688,0.054949,0.0,0.0,0.0,0.0,0.0,0.087266,3.0,0.333583,0.320967,0.319304,0.328034,-0.0,-0.0,0.075393,0.0,0.0,0.058142,0.0,0.0,0.0,0.0,0.0,0.0
49151,-0.001362,0.003702,0.055802,0.0,0.0,0.0,0.0,0.0,0.087266,3.0,0.33508,0.318003,0.318847,0.32979,-0.0,-0.0,0.076544,0.0,0.0,0.05657,0.0,0.0,0.0,0.0,0.0,0.0
49171,-0.001852,0.003594,0.056656,0.0,0.0,0.0,0.0,0.0,0.087266,3.0,0.334318,0.31891,0.316986,0.331467,-0.0,-0.0,0.077939,0.0,0.0,0.054647,0.0,0.0,0.0,0.0,0.0,0.0
49191,-0.002091,0.003724,0.057388,0.0,0.0,0.0,0.0,0.0,0.087266,3.0,0.330698,0.317734,0.322285,0.331172,-0.0,-0.0,0.078753,0.0,0.0,0.053515,0.0,0.0,0.0,0.0,0.0,0.0
49211,-0.002463,0.003491,0.058119,0.0,0.0,0.0,0.0,0.0,0.087266,3.0,0.334116,0.320712,0.323523,0.32359,-0.0,-0.0,0.079812,0.0,0.0,0.052028,0.0,0.0,0.0,0.0,0.0,0.0
49231,-0.002466,0.00337,0.05886,0.0,0.0,0.0,0.0,0.0,0.087266,3.0,0.333411,0.32071,0.323758,0.324092,-0.0,-0.0,0.080842,0.0,0.0,0.050567,0.0,0.0,0.0,0.0,0.0,0.0
49251,-0.002597,0.003009,0.059591,0.0,0.0,0.0,0.0,0.0,0.087266,3.0,0.337729,0.314317,0.333018,0.316224,-0.0,-0.0,0.081843,0.0,0.0,0.049132,0.0,0.0,0.0,0.0,0.0,0.0
49271,-0.002973,0.002654,0.0602,0.0,0.0,0.0,0.0,0.0,0.087266,3.0,0.339603,0.314284,0.326262,0.321294,-0.0,-0.0,0.082815,0.0,0.0,0.047721,0.0,0.0,0.0,0.0,0.0,0.0
49291,-0.003342,0.002544,0.060809,0.0,0.0,0.0,0.0,0.0,0.087266,3.0,0.34253,0.313881,0.324245,0.320562,-0.0,-0.0,0.083759,0.0,0.0,0.046334,0.0,0.0,0.0,0.0,0.0,0.0
49311,-0.003833,0.002438,0.061418,0.0,0.0,0.0,0.0,0.0,0.087266,3.0,0.344765,0.317181,0.321561,0.317571,-0.0,-0.0,0.084675,0.0,0.0,0.04497,0.0,0.0,0.0,0.0,0.0,0.0
49331,-0.004202,0.002329,0.062027,0.0,0.0,0.0,0.0,0.0,0.087266,3.0,0.34129,0.312908,0.324921,0.322166,-0.0,-0.0,0.085564,0.0,0.0,0.043629,0.0,0.0,0.0,0.0,0.0,0.0
49351,-0.004808,0.002472,0.06277,0.0,0.0,0.0,0.0,0.0,0.087266,3.0,0.340704,0.317996,0.315915,0.32675,-0.0,-0.0,0.086639,0.0,0.0,0.041984,0.0,0.0,0.0,0.0,0.0,0.0
49371,-0.005177,0.002363,0.063379,0.0,0.0,0.0,0.0,0.0,0.087266,3.0,0.340945,0.315551,0.322708,0.322213,-0.0,-0.0,0.087263,0.0,0.0,0.041013,0.0,0.0,0.0,0.0,0.0,0.0
49391,-0.005306,0.002124,0.063987,0.0,0.0,0.0,0.0,0.0,0.087266,3.0,0.340102,0.31272,0.328111,0.320372,-0.0,-0.0,0.088074,0.0,0.0,0.039738,0.0,0.0,0.0,0.0,0.0,0.0
49411,-0.005683,0.001772,0.064717,0.0,0.0,0.0,0.0,0.0,0.087266,3.0,0.335113,0.323465,0.319148,0.324144,-0.0,-0.0,0.088859,0.0,0.0,0.038483,0.0,0.0,0.0,0.0,0.0,0.0
49431,-0.005817,0.001411,0.065203,0.0,0.0,0.0,0.0,0.0,0.087266,3.0,0.333073,0.322161,0.323508,0.323255,-0.0,-0.0,0.08962,0.0,0.0,0.03725,0.0,0.0,0.0,0.0,0.0,0.0
49451,-0.005942,0.001295,0.065811,0.0,0.0,0.0,0.0,0.0,0.087266,3.0,0.334263,0.320161,0.323886,0.323616,-0.0,-0.0,0.090356,0.0,0.0,0.036038,0.0,0.0,0.0,0.0,0.0,0.0
49471,-0.006068,0.001178,0.06631,0.0,0.0,0.0,0.0,0.0,0.087266,3.0,0.339696,0.312981,0.329391,0.319229,-0.0,-0.0,0.091067,0.0,0.0,0.034846,0.0,0.0,0.0,0.0,0.0,0.0
49491,-0.006426,0.001436,0.066798,0.0,0.0,0.0,0.0,0.0,0.087266,3.0,0.339947,0.311354,0.330204,0.319685,-0.0,-0.0,0.091756,0.0,0.0,0.033674,0.0,0.0,0.0,0.0,0.0,0.0
49511,-0.006673,0.001324,0.067285,0.0,0.0,0.0,0.0,0.0,0.087266,3.0,0.341764,0.31321,0.328112,0.318076,-0.0,-0.0,0.09242,0.0,0.0,0.032522,0.0,0.0,0.0,0.0,0.0,0.0
49531,-0.006917,0.001334,0.067772,0.0,0.0,0.0,0.0,0.0,0.087266,3.0,0.339988,0.313461,0.326008,0.321934,-0.0,-0.0,0.093062,0.0,0.0,0.031391,0.0,0.0,0.0,0.0,0.0,0.0
49551,-0.007287,0.001226,0.06838,0.0,0.0,0.0,0.0,0.0,0.087266,3.0,0.344183,0.315839,0.323658,0.317413,-0.0,-0.0,0.093833,0.0,0.0,0.030004,0.0,0.0,0.0,0.0,0.0,0.0
49571,-0.007417,0.000988,0.068866,0.0,0.0,0.0,0.0,0.0,0.087266,3.0,0.340879,0.313106,0.327738,0.319538,-0.0,-0.0,0.094279,0.0,0.0,0.029187,0.0,0.0,0.0,0.0,0.0,0.0
49591,-0.007795,0.000637,0.069351,0.0,0.0,0.0,0.0,0.0,0.087266,3.0,0.339964,0.318524,0.325093,0.317919,-0.0,-0.0,0.094855,0.0,0.0,0.028114,0.0,0.0,0.0,0.0,0.0,0.0
49611,-0.008166,0.00053,0.069972,0.0,0.0,0.0,0.0,0.0,0.087266,3.0,0.34097,0.31595,0.326501,0.317926,-0.0,-0.0,0.095409,0.0,0.0,0.027061,0.0,0.0,0.0,0.0,0.0,0.0
49631,-0.008178,0.000166,0.070457,0.0,0.0,0.0,0.0,0.0,0.087266,3.0,0.336201,0.318597,0.329757,0.31708,-0.0,-0.0,0.095943,0.0,0.0,0.026027,0.0,0.0,0.0,0.0,0.0,0.0
49651,-0.008414,0.00042,0.070823,0.0,0.0,0.0,0.0,0.0,0.087266,3.0,0.346622,0.302617,0.333693,0.31691,-0.0,-0.0,0.096455,0.0,0.0,0.025012,0.0,0.0,0.0,0.0,0.0,0.0
49671,-0.008662,0.000309,0.071309,0.0,0.0,0.0,0.0,0.0,0.087266,3.0,0.345319,0.310775,0.328976,0.315586,-0.0,-0.0,0.096948,0.0,0.0,0.024015,0.0,0.0,0.0,0.0,0.0,0.0
49691,-0.008892,0.000686,0.071797,0.0,0.0,0.0,0.0,0.0,0.087266,3.0,0.344039,0.310501,0.322563,0.323846,-0.0,-0.0,0.097421,0.0,0.0,0.023038,0.0,0.0,0.0,0.0,0.0,0.0
49711,-0.009023,0.000448,0.072283,0.0,0.0,0.0,0.0,0.0,0.087266,3.0,0.341562,0.317467,0.324506,0.317826,-0.0,-0.0,0.097875,0.0,0.0,0.022079,0.0,0.0,0.0,0.0,0.0,0.0
49731,-0.009154,0.000211,0.072782,0.0,0.0,0.0,0.0,0.0,0.087266,3.0,0.342951,0.315337,0.326207,0.31665,-0.0,-0.0,0.098309,0.0,0.0,0.021139,0.0,0.0,0.0,0.0,0.0,0.0
49751,-0.009403,0.0001,0.073146,0.0,0.0,0.0,0.0,0.0,0.087266,3.0,0.340738,0.314002,0.326329,0.320273,-0.0,-0.0,0.098725,0.0,0.0,0.020218,0.0,0.0,0.0,0.0,0.0,0.0
49771,-0.009547,-0.000504,0.073508,0.0,0.0,0.0,0.0,0.0,0.087266,3.0,0.347915,0.312068,0.330601,0.309567,-0.0,-0.0,0.099123,0.0,0.0,0.019314,0.0,0.0,0.0,0.0,0.0,0.0
49791,-0.009908,-0.000367,0.073873,0.0,0.0,0.0,0.0,0.0,0.087266,3.0,0.347255,0.30732,0.33167,0.313875,-0.0,-0.0,0.099502,0.0,0.0,0.018429,0.0,0.0,0.0,0.0,0.0,0.0
49811,-0.010279,-0.000473,0.074237,0.0,0.0,0.0,0.0,0.0,0.087266,3.0,0.340035,0.313348,0.325201,0.322812,-0.0,-0.0,0.099864,0.0,0.0,0.017562,0.0,0.0,0.0,0.0,0.0,0.0
49831,-0.010401,-0.000466,0.074724,0.0,0.0,0.0,0.0,0.0,0.087266,3.0,0.340083,0.312993,0.32573,0.322567,-0.0,-0.0,0.100209,0.0,0.0,0.016713,0.0,0.0,0.0,0.0,0.0,0.0
49851,-0.010392,-0.00022,0.07509,0.0,0.0,0.0,0.0,0.0,0.087266,3.0,0.338155,0.311294,0.329182,0.322729,-0.0,0.0,0.100537,0.0,0.0,0.015881,0.0,0.0,0.0,0.0,0.0,0.0
49871,-0.01027,-0.000224,0.075333,0.0,0.0,0.0,0.0,0.0,0.087266,3.0,0.340402,0.31381,0.326725,0.320416,-0.0,0.0,0.100849,0.0,0.0,0.015067,0.0,0.0,0.0,0.0,0.0,0.0
49891,-0.010148,-0.000226,0.075698,0.0,0.0,0.0,0.0,0.0,0.087266,3.0,0.347244,0.306511,0.331281,0.315089,-0.0,0.0,0.101144,0.0,0.0,0.01427,0.0,0.0,0.0,0.0,0.0,0.0
49911,-0.010402,-0.00046,0.075954,0.0,0.0,0.0,0.0,0.0,0.087266,3.0,0.348636,0.311839,0.331481,0.307982,-0.0,0.0,0.101423,0.0,0.0,0.013491,0.0,0.0,0.0,0.0,0.0,0.0
49931,-0.010533,-0.000698,0.076196,0.0,0.0,0.0,0.0,0.0,0.087266,3.0,0.345255,0.315325,0.328866,0.311235,-0.0,0.0,0.101687,0.0,0.0,0.012729,0.0,0.0,0.0,0.0,0.0,0.0
49951,-0.010664,-0.000935,0.076559,0.0,0.0,0.0,0.0,0.0,0.087266,3.0,0.346269,0.311504,0.3289,0.313872,-0.0,0.0,0.101936,0.0,0.0,0.011984,0.0,0.0,0.0,0.0,0.0,0.0
49971,-0.011152,-0.000915,0.076924,0.0,0.0,0.0,0.0,0.0,0.087266,3.0,0.349835,0.307282,0.330085,0.31264,-0.0,0.0,0.102171,0.0,0.0,0.011255,0.0,0.0,0.0,0.0,0.0,0.0
49991,-0.011396,-0.000904,0.077166,0.0,0.0,0.0,0.0,0.0,0.087266,3.0,0.345076,0.308621,0.32655,0.320463,-0.0,0.0,0.10239,0.0,0.0,0.010544,0.0,0.0,0.0,0.0,0.0,0.0
50011,-0.01164,-0.000892,0.077531,0.0,0.0,0.0,0.0,0.0,0.087266,3.0,0.34314,0.312086,0.326089,0.31975,-0.0,0.0,0.102596,0.0,0.0,0.009848,0.0,0.0,0.0,0.0,0.0,0.0
50031,-0.011762,-0.000885,0.077896,0.0,0.0,0.0,0.0,0.0,0.087266,3.0,0.347105,0.310677,0.328277,0.314393,-0.0,0.0,0.102788,0.0,0.0,0.00917,0.0,0.0,0.0,0.0,0.0,0.0
50051,-0.011894,-0.001122,0.078259,0.0,0.0,0.0,0.0,0.0,0.087266,3.0,0.335679,0.317114,0.326414,0.32257,-0.0,0.0,0.102966,0.0,0.0,0.008507,0.0,0.0,0.0,0.0,0.0,0.0
50071,-0.011889,-0.000998,0.078624,0.0,0.0,0.0,0.0,0.0,0.087266,3.0,0.338404,0.311843,0.331073,0.319974,0.0,0.0,0.103132,0.0,0.0,0.00786,0.0,0.0,0.0,0.0,0.0,0.0
50091,-0.011778,-0.001246,0.078881,0.0,0.0,0.0,0.0,0.0,0.087266,3.0,0.338561,0.311294,0.331255,0.320143,0.0,0.0,0.103284,0.0,0.0,0.007229,0.0,0.0,0.0,0.0,0.0,0.0
50111,-0.011783,-0.001366,0.079123,0.0,0.0,0.0,0.0,0.0,0.087266,3.0,0.337481,0.316432,0.326905,0.32082,0.0,0.0,0.103424,0.0,0.0,0.006614,0.0,0.0,0.0,0.0,0.0,0.0
50131,-0.012027,-0.001354,0.079488,0.0,0.0,0.0,0.0,0.0,0.087266,3.0,0.343124,0.310199,0.332394,0.314975,0.0,0.0,0.103552,0.0,0.0,0.006014,0.0,0.0,0.0,0.0,0.0,0.0
50151,-0.012276,-0.001465,0.07973,0.0,0.0,0.0,0.0,0.0,0.087266,3.0,0.341086,0.314841,0.326386,0.319012,0.0,0.0,0.103668,0.0,0.0,0.00543,0.0,0.0,0.0,0.0,0.0,0.0
50171,-0.012632,-0.001205,0.079974,0.0,0.0,0.0,0.0,0.0,0.087266,3.0,0.344203,0.306084,0.330772,0.319449,0.0,0.0,0.103772,0.0,0.0,0.004861,0.0,0.0,0.0,0.0,0.0,0.0
50191,-0.012876,-0.001192,0.080459,0.0,0.0,0.0,0.0,0.0,0.087266,3.0,0.339485,0.316556,0.322228,0.323282,0.0,0.0,0.103865,0.0,0.0,0.004306,0.0,0.0,0.0,0.0,0.0,0.0
50211,-0.012993,-0.001063,0.080825,0.0,0.0,0.0,0.0,0.0,0.087266,3.0,0.34306,0.31541,0.318832,0.323904,0.0,0.0,0.103947,0.0,0.0,0.003767,0.0,0.0,0.0,0.0,0.0,0.0
50231,-0.013003,-0.001304,0.081188,0.0,0.0,0.0,0.0,0.0,0.087266,3.0,0.345852,0.313096,0.325987,0.315844,0.0,0.0,0.104018,0.0,0.0,0.003241,0.0,0.0,0.0,0.0,0.0,0.0
50251,-0.012896,-0.001673,0.08155,0.0,0.0,0.0,0.0,0.0,0.087266,3.0,0.337616,0.317375,0.327413,0.319222,0.0,0.0,0.104093,0.0,0.0,0.002605,0.0,0.0,0.0,0.0,0.0,0.0
50271,-0.012785,-0.00192,0.081807,0.0,0.0,0.0,0.0,0.0,0.087266,3.0,0.345471,0.316777,0.325865,0.312714,0.0,0.0,0.10413,0.0,0.0,0.002234,0.0,0.0,0.0,0.0,0.0,0.0
50291,-0.012791,-0.002041,0.08205,0.0,0.0,0.0,0.0,0.0,0.087266,3.0,0.346677,0.31337,0.32634,0.314265,0.0,0.0,0.104171,0.0,0.0,0.001752,0.0,0.0,0.0,0.0,0.0,0.0
50311,-0.013025,-0.001785,0.082294,0.0,0.0,0.0,0.0,0.0,0.087266,3.0,0.341563,0.313043,0.321092,0.325558,0.0,0.0,0.104203,0.0,0.0,0.001283,0.0,0.0,0.0,0.0,0.0,0.0
50331,-0.013142,-0.001656,0.082537,0.0,0.0,0.0,0.0,0.0,0.087266,3.0,0.340056,0.313471,0.321771,0.326087,0.0,0.0,0.104225,0.0,0.0,0.000828,0.0,0.0,0.0,0.0,0.0,0.0
50351,-0.01362,-0.001391,0.082781,0.0,0.0,0.0,0.0,0.0,0.087266,3.0,0.343165,0.309428,0.321525,0.326814,0.0,0.0,0.104238,0.0,0.0,0.000386,0.0,0.0,0.0,0.0,0.0,0.0
50371,-0.013864,-0.001378,0.083145,0.0,0.0,0.0,0.0,0.0,0.087266,3.0,0.340642,0.312623,0.324249,0.323812,0.0,0.0,0.104243,0.0,0.0,-4.2e-05,0.0,0.0,0.0,0.0,0.0,0.0
50391,-0.013874,-0.00162,0.083387,0.0,0.0,0.0,0.0,0.0,0.087266,3.0,0.347448,0.310693,0.328897,0.313326,0.0,0.0,0.104239,0.0,0.0,-0.000457,0.0,0.0,0.0,0.0,0.0,0.0
50411,-0.014006,-0.001857,0.083628,0.0,0.0,0.0,0.0,0.0,0.087266,3.0,0.345187,0.316415,0.32482,0.314503,0.0,0.0,0.104226,0.0,0.0,-0.00086,0.0,0.0,0.0,0.0,0.0,0.0
50431,-0.014027,-0.002343,0.083989,0.0,0.0,0.0,0.0,0.0,0.087266,3.0,0.34057,0.320093,0.323883,0.316919,0.0,0.0,0.104206,0.0,0.0,-0.00125,0.0,0.0,0.0,0.0,0.0,0.0
50451,-0.013905,-0.002346,0.084232,0.0,0.0,0.0,0.0,0.0,0.087266,3.0,0.338035,0.319896,0.320354,0.323416,0.0,0.0,0.104179,0.0,0.0,-0.001627,0.0,0.0,0.0,0.0,0.0,0.0
50471,-0.014023,-0.002217,0.084491,0.0,0.0,0.0,0.0,0.0,0.087266,3.0,0.346903,0.311346,0.324206,0.318216,0.0,0.0,0.104143,0.0,0.0,-0.001992,0.0,0.0,0.0,0.0,0.0,0.0
50491,-0.014008,-0.00185,0.084737,0.0,0.0,0.0,0.0,0.0,0.087266,3.0,0.34586,0.309697,0.325809,0.319328,0.0,0.0,0.104101,0.0,0.0,-0.002345,0.0,0.0,0.0,0.0,0.0,0.0
50511,-0.014358,-0.001467,0.08486,0.0,0.0,0.0,0.0,0.0,0.087266,3.0,0.346938,0.310553,0.324403,0.318743,0.0,0.0,0.104051,0.0,0.0,-0.002686,0.0,0.0,0.0,0.0,0.0,0.0
50531,-0.014358,-0.001466,0.085103,0.0,0.0,0.0,0.0,0.0,0.087266,3.0,0.343093,0.313733,0.326531,0.31774,0.0,0.0,0.103995,0.0,0.0,-0.003016,0.0,0.0,0.0,0.0,0.0,0.0
50551,-0.014364,-0.001586,0.085346,0.0,0.0,0.0,0.0,0.0,0.087266,3.0,0.342697,0.313127,0.326473,0.31883,0.0,0.0,0.103932,0.0,0.0,-0.003333,0.0,0.0,0.0,0.0,0.0,0.0
50571,-0.014369,-0.001705,0.085709,0.0,0.0,0.0,0.0,0.0,0.087266,3.0,0.340965,0.315936,0.328033,0.316348,0.0,0.0,0.103863,0.0,0.0,-0.00364,0.0,0.0,0.0,0.0,0.0,0.0
50591,-0.014268,-0.002197,0.085828,0.0,0.0,0.0,0.0,0.0,0.087266,3.0,0.341581,0.32042,0.32194,0.317463,0.0,0.0,0.103788,0.0,0.0,-0.003936,0.0,0.0,0.0,0.0,0.0,0.0
50611,-0.014401,-0.002434,0.086069,0.0,0.0,0.0,0.0,0.0,0.087266,3.0,0.345224,0.314435,0.3296,0.311382,0.0,0.0,0.103707,0.0,0.0,-0.00422,0.0,0.0,0.0,0.0,0.0,0.0
50631,-0.014523,-0.002428,0.08619,0.0,0.0,0.0,0.0,0.0,0.087266,3.0,0.338037,0.317193,0.325421,0.320994,0.0,0.0,0.103621,0.0,0.0,-0.004494,0.0,0.0,0.0,0.0,0.0,0.0
50651,-0.014756,-0.002173,0.086312,0.0,0.0,0.0,0.0,0.0,0.087266,3.0,0.346783,0.306299,0.327145,0.320153,0.0,0.0,0.103529,0.0,0.0,-0.004757,0.0,0.0,0.0,0.0,0.0,0.0
50671,-0.014863,-0.0018,0.086558,0.0,0.0,0.0,0.0,0.0,0.087266,3.0,0.345359,0.306072,0.329176,0.319846,0.0,0.0,0.103432,0.0,0.0,-0.00501,0.0,0.0,0.0,0.0,0.0,0.0
50691,-0.014985,-0.001794,0.086679,0.0,0.0,0.0,0.0,0.0,0.087266,3.0,0.343014,0.313144,0.326383,0.318558,0.0,0.0,0.10333,0.0,0.0,-0.005253,0.0,0.0,0.0,0.0,0.0,0.0
50711,-0.014741,-0.001802,0.086923,0.0,0.0,0.0,0.0,0.0,0.087266,3.0,0.335565,0.315639,0.324774,0.325765,0.0,0.0,0.103223,0.0,0.0,-0.005486,0.0,0.0,0.0,0.0,0.0,0.0
50731,-0.014625,-0.001928,0.087181,0.0,0.0,0.0,0.0,0.0,0.087266,3.0,0.340527,0.315526,0.329344,0.315859,0.0,0.0,0.103112,0.0,0.0,-0.005709,0.0,0.0,0.0,0.0,0.0,0.0
50751,-0.014397,-0.002305,0.087179,0.0,0.0,0.0,0.0,0.0,0.087266,3.0,0.345805,0.315188,0.329177,0.310404,0.0,0.0,0.102996,0.0,0.0,-0.005923,0.0,0.0,0.0,0.0,0.0,0.0
50771,-0.014281,-0.002431,0.0873,0.0,0.0,0.0,0.0,0.0,0.087266,3.0,0.345298,0.314669,0.324862,0.316082,0.0,0.0,0.102876,0.0,0.0,-0.006127,0.0,0.0,0.0,0.0,0.0,0.0
50791,-0.014286,-0.002552,0.087421,0.0,0.0,0.0,0.0,0.0,0.087266,3.0,0.352257,0.308621,0.330767,0.307708,0.0,0.0,0.102752,0.0,0.0,-0.006322,0.0,0.0,0.0,0.0,0.0,0.0
50811,-0.01452,-0.002297,0.087543,0.0,0.0,0.0,0.0,0.0,0.087266,3.0,0.352701,0.303624,0.329034,0.313953,0.0,0.0,0.102624,0.0,0.0,-0.006508,0.0,0.0,0.0,0.0,0.0,0.0
50831,-0.014869,-0.001915,0.087545,0.0,0.0,0.0,0.0,0.0,0.087266,3.0,0.352704,0.306892,0.321893,0.318267,0.0,0.0,0.102493,0.0,0.0,-0.006685,0.0,0.0,0.0,0.0,0.0,0.0
50851,-0.014859,-0.00167,0.087668,0.0,0.0,0.0,0.0,0.0,0.087266,3.0,0.344332,0.312484,0.318149,0.325987,0.0,0.0,0.102358,0.0,0.0,-0.006853,0.0,0.0,0.0,0.0,0.0,0.0
50871,-0.014986,-0.001785,0.087788,0.0,0.0,0.0,0.0,0.0,0.087266,3.0,0.349294,0.309374,0.326024,0.315536,0.0,0.0,0.102219,0.0,0.0,-0.007013,0.0,0.0,0.0,0.0,0.0,0.0
50891,-0.015008,-0.002272,0.087906,0.0,0.0,0.0,0.0,0.0,0.087266,3.0,0.339198,0.319348,0.321767,0.321309,0.0,0.0,0.102078,0.0,0.0,-0.007165,0.0,0.0,0.0,0.0,0.0,0.0
50911,-0.014775,-0.002526,0.088027,0.0,0.0,0.0,0.0,0.0,0.087266,3.0,0.341054,0.315173,0.327286,0.317788,0.0,0.0,0.101934,0.0,0.0,-0.007308,0.0,0.0,0.0,0.0,0.0,0.0
50931,-0.014547,-0.002902,0.088146,0.0,0.0,0.0,0.0,0.0,0.087266,3.0,0.341596,0.314327,0.330405,0.314739,0.0,0.0,0.101786,0.0,0.0,-0.007444,0.0,0.0,0.0,0.0,0.0,0.0
50951,-0.014542,-0.00278,0.088147,0.0,0.0,0.0,0.0,0.0,0.087266,3.0,0.344572,0.305315,0.330646,0.319897,0.0,0.0,0.101636,0.0,0.0,-0.007571,0.0,0.0,0.0,0.0,0.0,0.0
50971,-0.014648,-0.002408,0.088271,0.0,0.0,0.0,0.0,0.0,0.087266,3.0,0.342366,0.308768,0.326185,0.323655,0.0,0.0,0.101484,0.0,0.0,-0.007692,0.0,0.0,0.0,0.0,0.0,0.0
50991,-0.014875,-0.00203,0.088394,0.0,0.0,0.0,0.0,0.0,0.087266,3.0,0.339249,0.312653,0.321931,0.327553,0.0,0.0,0.101329,0.0,0.0,-0.007804,0.0,0.0,0.0,0.0,0.0,0.0
51011,-0.015103,-0.001653,0.088518,0.0,0.0,0.0,0.0,0.0,0.087266,3.0,0.344702,0.306038,0.325779,0.324078,0.0,0.0,0.101173,0.0,0.0,-0.00791,0.0,0.0,0.0,0.0,0.0,0.0
51031,-0.015109,-0.001773,0.08876,0.0,0.0,0.0,0.0,0.0,0.087266,3.0,0.347706,0.312012,0.323187,0.317708,0.0,0.0,0.101014,0.0,0.0,-0.008008,0.0,0.0,0.0,0.0,0.0,0.0
51051,-0.015114,-0.001894,0.088881,0.0,0.0,0.0,0.0,0.0,0.087266,3.0,0.347288,0.312686,0.325233,0.315406,0.0,0.0,0.100853,0.0,0.0,-0.0081,0.0,0.0,0.0,0.0,0.0,0.0
51071,-0.015131,-0.002259,0.088999,0.0,0.0,0.0,0.0,0.0,0.087266,3.0,0.340197,0.321731,0.31869,0.320921,0.0,0.0,0.10069,0.0,0.0,-0.008184,0.0,0.0,0.0,0.0,0.0,0.0
51091,-0.014908,-0.002756,0.089118,0.0,0.0,0.0,0.0,0.0,0.087266,3.0,0.339799,0.32445,0.319891,0.317388,0.0,0.0,0.100526,0.0,0.0,-0.008262,0.0,0.0,0.0,0.0,0.0,0.0
51111,-0.014787,-0.002761,0.08924,0.0,0.0,0.0,0.0,0.0,0.087266,3.0,0.34082,0.319544,0.318402,0.322709,0.0,0.0,0.10036,0.0,0.0,-0.008334,0.0,0.0,0.0,0.0,0.0,0.0
51131,-0.014659,-0.002644,0.089362,0.0,0.0,0.0,0.0,0.0,0.087266,3.0,0.345477,0.309918,0.32715,0.318157,0.0,0.0,0.100193,0.0,0.0,-0.008399,0.0,0.0,0.0,0.0,0.0,0.0
51151,-0.014638,-0.002156,0.089366,0.0,0.0,0.0,0.0,0.0,0.087266,3.0,0.348285,0.30941,0.323002,0.319757,0.0,0.0,0.100024,0.0,0.0,-0.008459,0.0,0.0,0.0,0.0,0.0,0.0
51171,-0.014732,-0.00154,0.089492,0.0,0.0,0.0,0.0,0.0,0.087266,3.0,0.352132,0.304288,0.327278,0.315841,0.0,0.0,0.099855,0.0,0.0,-0.008512,0.0,0.0,0.0,0.0,0.0,0.0
51191,-0.014727,-0.001417,0.089614,0.0,0.0,0.0,0.0,0.0,0.087266,3.0,0.34234,0.314203,0.322507,0.32221,0.0,0.0,0.099684,0.0,0.0,-0.00856,0.0,0.0,0.0,0.0,0.0,0.0
